[{"lat":"37.247697281","long":"127.49026052","imageIndex":4,"items":[{"name":"(주)후니드 SK건설 M16 이천현장1점","tel":"031-111-1111","addr":"경기도 이천시 부발읍 아미리 700-2번지 SK건설현장","indutype":"일반휴게음식 - 위탁급식업","category":"restaurant"},{"name":"(주)후니드 SK건설M16 이천현장1점","tel":"031-111-1111","addr":"경기도 이천시 부발읍 아미리 700-2번지","indutype":"일반휴게음식 - 일반한식","category":"restaurant"},{"name":"엠(M16)굿푸드","tel":"031-111-1111","addr":"경기도 이천시 부발읍 아미리 700-2번지 2층","indutype":"일반휴게음식 - 위탁급식업","category":"restaurant"}]},{"lat":"37.256437934","long":"127.49226691","imageIndex":4,"items":[{"name":"1989떡다방","tel":"031-637-1989","addr":"경기도 이천시 부발읍 아미리 592-65번지","indutype":"일반휴게음식 - 스넥","category":"restaurant"},{"name":"날쌘카페 하이닉스점","tel":"031-638-8163","addr":"경기도 이천시 부발읍 아미리 592-65번지 107호","indutype":"일반휴게음식 - 서양음식","category":"restaurant"}]},{"lat":"37.252717329","long":"127.48993216","imageIndex":4,"items":[{"name":"BBQ SK하이닉스점","tel":"031-632-9282","addr":"경기도 이천시 부발읍 아미리 726-1번지 시티프라자 101호","indutype":"일반휴게음식 - 스넥","category":"restaurant"},{"name":"곱창고(이천하이닉스점)","tel":"031-635-9295","addr":"경기도 이천시 부발읍 아미리 726-1번지 시티프라자별관 102호","indutype":"일반휴게음식 - 일반한식","category":"restaurant"},{"name":"오사케","tel":"031-635-8891","addr":"경기도 이천시 부발읍 아미리 726-1번지 시티프라자별관 202호","indutype":"일반휴게음식 - 일반한식","category":"restaurant"},{"name":"펀비어킹","tel":"031-000-0000","addr":"경기도 이천시 부발읍 아미리 726-1번지 104,105호","indutype":"일반휴게음식 - 주점","category":"restaurant"},{"name":"하이티어(하이닉스점)","tel":"031-635-6797","addr":"경기도 이천시 부발읍 아미리 726-1번지 시티프라자 106,107호","indutype":"일반휴게음식 - 일반한식","category":"restaurant"},{"name":"한가네숯불닭갈비","tel":"031-638-4792","addr":"경기도 이천시 부발읍 아미리 726-1번지","indutype":"일반휴게음식 - 일반한식","category":"restaurant"},{"name":"한양왕족발","tel":"031-635-2062","addr":"경기도 이천시 부발읍 아미리 726-1번지 시티프라자 204호 205호","indutype":"일반휴게음식 - 일반한식","category":"restaurant"}]},{"lat":"37.253443611","long":"127.49079349","imageIndex":4,"items":[{"name":"In the cafe(인더카페)","tel":"031-631-0888","addr":"경기도 이천시 부발읍 아미리 729번지 신일해피트리빌2단지 103~104호","indutype":"일반휴게음식 - 일반한식","category":"restaurant"},{"name":"감자빠께쓰 이천1호점","tel":"070-4206-9641","addr":"경기도 이천시 부발읍 아미리 729번지 이천신일해피트리트리빌2단지 202동 102호","indutype":"일반휴게음식 - 주점","category":"restaurant"},{"name":"까오싱","tel":"031-637-1322","addr":"경기도 이천시 부발읍 아미리 729번지 이천신일해피트리트리빌2단지 202동 상가 108호","indutype":"일반휴게음식 - 중국식","category":"restaurant"}]},{"lat":"37.252105206","long":"127.48979296","imageIndex":4,"items":[{"name":"THE RITZ(더 리츠)","tel":"031-636-3163","addr":"경기도 이천시 부발읍 아미리 726-27번지","indutype":"일반휴게음식 - 서양음식","category":"restaurant"}]},{"lat":"37.252055209","long":"127.4866028","imageIndex":4,"items":[{"name":"coffee flanel","tel":"031-8094-8733","addr":"경기도 이천시 부발읍 아미리 712-7번지 에스케이하이닉스 41동 1층","indutype":"일반휴게음식 - 서양음식","category":"restaurant"},{"name":"청운쉼터","tel":"031-8094-8726","addr":"경기도 이천시 부발읍 아미리 712-7번지 에스케이하이닉스 체육관옆","indutype":"일반휴게음식 - 일반한식","category":"restaurant"},{"name":"커피빈 이천하이닉스점","tel":"031-632-6596","addr":"경기도 이천시 부발읍 아미리 712-7번지 에스케이하이닉스 14동 1층","indutype":"일반휴게음식 - 서양음식","category":"restaurant"},{"name":"투썸플레이스 이천하이닉스점","tel":"","addr":"경기도 이천시 부발읍 아미리 712-7번지 외 189필지, 20동 반도체공장 1층","indutype":"일반휴게음식 - 서양음식","category":"restaurant"}]},{"lat":"37.250217021","long":"127.49537135","imageIndex":4,"items":[{"name":"i율카페","tel":"031-1111-1111","addr":"경기도 이천시 부발읍 아미리 999-22번지","indutype":"일반휴게음식 - 서양음식","category":"restaurant"}]},{"lat":"37.253780322","long":"127.48998409","imageIndex":4,"items":[{"name":"가라와라 국물닭발","tel":"031-631-7877","addr":"경기도 이천시 부발읍 아미리 737-16번지 101호","indutype":"일반휴게음식 - 일반한식","category":"restaurant"},{"name":"가장맛있는족발","tel":"031-637-5849","addr":"경기도 이천시 부발읍 아미리 737-16번지 111호","indutype":"일반휴게음식 - 일반한식","category":"restaurant"},{"name":"경성양꼬치","tel":"031-631-1238","addr":"경기도 이천시 부발읍 아미리 737-16번지 미지프라자 108~110호","indutype":"일반휴게음식 - 일반한식","category":"restaurant"},{"name":"구노포차","tel":"031-631-4233","addr":"경기도 이천시 부발읍 아미리 737-16번지 하이니스타운 114호","indutype":"일반휴게음식 - 주점","category":"restaurant"},{"name":"김주영한우짝갈비","tel":"031-638-3332","addr":"경기도 이천시 부발읍 아미리 737-16번지 미도프라자 102호","indutype":"일반휴게음식 - 일반한식","category":"restaurant"},{"name":"도깨비","tel":"031-694-0125","addr":"경기도 이천시 부발읍 아미리 737-16번지 206호","indutype":"일반휴게음식 - 주점","category":"restaurant"},{"name":"배석종 스시2호점","tel":"070-8785-7130","addr":"경기도 이천시 부발읍 아미리 737-16번지 미지프라자 117호","indutype":"일반휴게음식 - 일식·회집","category":"restaurant"},{"name":"불난주점","tel":"031-111-1111","addr":"경기도 이천시 부발읍 아미리 737-16번지 202, 203","indutype":"일반휴게음식 - 주점","category":"restaurant"},{"name":"신통치킨","tel":"031-634-9290","addr":"경기도 이천시 부발읍 아미리 737-16번지 미지프라자 103호","indutype":"일반휴게음식 - 스넥","category":"restaurant"},{"name":"정정아식당","tel":"031-638-0806","addr":"경기도 이천시 부발읍 아미리 737-16번지 미지프라자 1층 106,107호","indutype":"일반휴게음식 - 일반한식","category":"restaurant"},{"name":"참숯과먹거리","tel":"031-632-0581","addr":"경기도 이천시 부발읍 아미리 737-16번지 미지프라자 1층 104호","indutype":"일반휴게음식 - 일반한식","category":"restaurant"},{"name":"청담동말자싸롱","tel":"031-635-1367","addr":"경기도 이천시 부발읍 아미리 737-16번지 미지프라자 112호","indutype":"일반휴게음식 - 주점","category":"restaurant"},{"name":"칠성포차","tel":"031-636-3905","addr":"경기도 이천시 부발읍 아미리 737-16번지 1층 115호 116호","indutype":"일반휴게음식 - 일반한식","category":"restaurant"},{"name":"칩스","tel":"","addr":"경기도 이천시 부발읍 아미리 737-16번지 2층 204호","indutype":"일반휴게음식 - 주점","category":"restaurant"},{"name":"한성","tel":"031-634-8600","addr":"경기도 이천시 부발읍 아미리 737-16번지 미지프라자 113호","indutype":"일반휴게음식 - 일반한식","category":"restaurant"},{"name":"훌랄라엔 천족","tel":"031-631-5988","addr":"경기도 이천시 부발읍 아미리 737-16번지","indutype":"일반휴게음식 - 일반한식","category":"restaurant"}]},{"lat":"37.252585107","long":"127.49140789","imageIndex":4,"items":[{"name":"감성커피부발점","tel":"031-637-0382","addr":"경기도 이천시 부발읍 아미리 670-5번지 105호","indutype":"일반휴게음식 - 서양음식","category":"restaurant"},{"name":"더홋/(주)더홋1호점","tel":"031-694-9500","addr":"경기도 이천시 부발읍 아미리 670-5번지 리슈빌 205호","indutype":"일반휴게음식 - 주점","category":"restaurant"},{"name":"쌀눈치킨&컵밥버거","tel":"031-637-0292","addr":"경기도 이천시 부발읍 아미리 670-5번지 상가 109호 (리슈빌)","indutype":"일반휴게음식 - 서양음식","category":"restaurant"},{"name":"죽이야기 이천 하이닉스점","tel":"031-633-6288","addr":"경기도 이천시 부발읍 아미리 670-5번지 103호","indutype":"일반휴게음식 - 일반한식","category":"restaurant"},{"name":"청기와뼈다귀해장국","tel":"031-631-2888","addr":"경기도 이천시 부발읍 아미리 670-5번지 204호","indutype":"일반휴게음식 - 일반한식","category":"restaurant"},{"name":"치즈를 사랑한 찜닭 이천 하이닉스점","tel":"031-637-0585","addr":"경기도 이천시 부발읍 아미리 670-5번지 108호","indutype":"일반휴게음식 - 스넥","category":"restaurant"},{"name":"튀지 1985","tel":"031-631-0058","addr":"경기도 이천시 부발읍 아미리 670-5번지 이천아마리슈빌에스 110호","indutype":"일반휴게음식 - 주점","category":"restaurant"},{"name":"포차어게인","tel":"","addr":"경기도 이천시 부발읍 아미리 670-5번지 206호","indutype":"일반휴게음식 - 주점","category":"restaurant"}]},{"lat":"37.251748108","long":"127.49117705","imageIndex":4,"items":[{"name":"걸짝떡볶이치킨","tel":"031-633-2821","addr":"경기도 이천시 부발읍 아미리 671번지 1층 129호","indutype":"일반휴게음식 - 스넥","category":"restaurant"},{"name":"고기원칙 이천하이닉스점","tel":"031-000-0000","addr":"경기도 이천시 부발읍 아미리 671번지 B110, B111호","indutype":"일반휴게음식 - 일반한식","category":"restaurant"},{"name":"국수상회","tel":"","addr":"경기도 이천시 부발읍 아미리 671번지 B동 116호","indutype":"일반휴게음식 - 일반한식","category":"restaurant"},{"name":"대진도원참치","tel":"031-633-4588","addr":"경기도 이천시 부발읍 아미리 671번지 B동 101,102,103호(이천애클레시아)","indutype":"일반휴게음식 - 일식·회집","category":"restaurant"},{"name":"뚱보집","tel":"031-636-1451","addr":"경기도 이천시 부발읍 아미리 671번지 B층 109호","indutype":"일반휴게음식 - 일반한식","category":"restaurant"},{"name":"맘스터치 이천하이닉스점","tel":"031-635-2323","addr":"경기도 이천시 부발읍 아미리 671번지 이천클레시아테라스파크 1층 111호,112호","indutype":"일반휴게음식 - 서양음식","category":"restaurant"},{"name":"맵도리탕 이천하이닉스점","tel":"031-633-1124","addr":"경기도 이천시 부발읍 아미리 671번지 지하 B112호","indutype":"일반휴게음식 - 일반한식","category":"restaurant"},{"name":"삼국시대감자탕 이천하이닉스점","tel":"","addr":"경기도 이천시 부발읍 아미리 671번지 B105-B107호","indutype":"일반휴게음식 - 일반한식","category":"restaurant"},{"name":"수향가","tel":"031-633-2211","addr":"경기도 이천시 부발읍 아미리 671번지 클래시아테라스파크 B114호, B115호","indutype":"일반휴게음식 - 일반한식","category":"restaurant"},{"name":"순수치킨(하이닉스점)","tel":"031-632-8253","addr":"경기도 이천시 부발읍 아미리 671번지 B113호","indutype":"일반휴게음식 - 일반한식","category":"restaurant"},{"name":"와인예술","tel":"","addr":"경기도 이천시 부발읍 아미리 671번지 B104","indutype":"일반휴게음식 - 칵테일바","category":"restaurant"},{"name":"육대장 푸줏간 하이닉스점","tel":"","addr":"경기도 이천시 부발읍 아미리 671번지 113,114호","indutype":"일반휴게음식 - 일반한식","category":"restaurant"},{"name":"풍성호 이천하이닉스점","tel":"031-503-8018","addr":"경기도 이천시 부발읍 아미리 671번지 128호","indutype":"일반휴게음식 - 서양음식","category":"restaurant"}]},{"lat":"37.253773582","long":"127.48943173","imageIndex":4,"items":[{"name":"경성술집 이천하이닉스점","tel":"031-633-9322","addr":"경기도 이천시 부발읍 아미리 737-7번지 아미타운 202호","indutype":"일반휴게음식 - 일반한식","category":"restaurant"},{"name":"옛날부뚜막통닭","tel":"031-632-1503","addr":"경기도 이천시 부발읍 아미리 737-7번지 아미타운 101호","indutype":"일반휴게음식 - 스넥","category":"restaurant"},{"name":"조가네 갑오징어 (이천하이닉스점)","tel":"031-631-3005","addr":"경기도 이천시 부발읍 아미리 737-7번지 105호 104호,105호","indutype":"일반휴게음식 - 일반한식","category":"restaurant"},{"name":"조광회관","tel":"031-638-3247","addr":"경기도 이천시 부발읍 아미리 737-7번지","indutype":"일반휴게음식 - 일반한식","category":"restaurant"},{"name":"참좋은칡냉면","tel":"031-638-8874","addr":"경기도 이천시 부발읍 아미리 737-7번지 아미타운 202호","indutype":"일반휴게음식 - 일반한식","category":"restaurant"},{"name":"포차왕 안춘배","tel":"031-631-9420","addr":"경기도 이천시 부발읍 아미리 737-7번지 아미타운 102호","indutype":"일반휴게음식 - 일반한식","category":"restaurant"}]},{"lat":"37.252692014","long":"127.48951495","imageIndex":4,"items":[{"name":"경주마라탕","tel":"","addr":"경기도 이천시 부발읍 아미리 726-9번지 지하1층 19,20호","indutype":"일반휴게음식 - 일반한식","category":"restaurant"},{"name":"경주마라탕2호점","tel":"","addr":"경기도 이천시 부발읍 아미리 726-9번지 현대시티프라자 B24호","indutype":"일반휴게음식 - 중국식","category":"restaurant"},{"name":"김밥나라(하이닉스점)","tel":"031-635-6113","addr":"경기도 이천시 부발읍 아미리 726-9번지 현대시티프라자 109-2호","indutype":"일반휴게음식 - 스넥","category":"restaurant"},{"name":"다정","tel":"031-634-6645","addr":"경기도 이천시 부발읍 아미리 726-9번지 외3필지 현대시티프라자 B04호","indutype":"일반휴게음식 - 일반한식","category":"restaurant"},{"name":"북경 양꼬치","tel":"02-1577-0000","addr":"경기도 이천시 부발읍 아미리 726-9번지 현대시티프라자 B05호","indutype":"일반휴게음식 - 일반한식","category":"restaurant"},{"name":"북경반점","tel":"031-638-5168","addr":"경기도 이천시 부발읍 아미리 726-9번지 현대시티프라자 B12~B14호","indutype":"일반휴게음식 - 중국식","category":"restaurant"},{"name":"빽컴","tel":"031-637-3433","addr":"경기도 이천시 부발읍 아미리 726-9번지 현대시티프라자 309호","indutype":"일반휴게음식 - 주점","category":"restaurant"},{"name":"싱싱수산","tel":"031-637-6626","addr":"경기도 이천시 부발읍 아미리 726-9 외3필지현대씨티프라자B21-B22호","indutype":"일반휴게음식 - 일반한식","category":"restaurant"},{"name":"요거프레소이천하이닉스점","tel":"031-631-3171","addr":"경기도 이천시 부발읍 아미리 726-9번지 외3필지 현대시티프라자 1층 102호","indutype":"일반휴게음식 - 서양음식","category":"restaurant"},{"name":"이삭토스트(이천하이닉스점)","tel":"031-633-0922","addr":"경기도 이천시 부발읍 아미리 726-9번지 현대시티프라자 1층 107호","indutype":"일반휴게음식 - 일반한식","category":"restaurant"},{"name":"커피리뷰","tel":"031-000-0000","addr":"경기도 이천시 부발읍 아미리 726-9번지 현대시티프라자 126호","indutype":"일반휴게음식 - 서양음식","category":"restaurant"},{"name":"혼돈부리","tel":"031-631-5453","addr":"경기도 이천시 부발읍 아미리 726-9번지 현대시티프라자 103호 128호","indutype":"일반휴게음식 - 일반한식","category":"restaurant"}]},{"lat":"37.253743679","long":"127.49013039","imageIndex":4,"items":[{"name":"고바우","tel":"031-635-0096","addr":"경기도 이천시 부발읍 아미리 737-19번지","indutype":"일반휴게음식 - 일반한식","category":"restaurant"}]},{"lat":"37.250751238","long":"127.49256827","imageIndex":4,"items":[{"name":"교촌치킨(이천하이닉스점)","tel":"031-637-3392","addr":"경기도 이천시 부발읍 아미리 678-11번지 103호","indutype":"일반휴게음식 - 스넥","category":"restaurant"}]},{"lat":"37.253500317","long":"127.49015136","imageIndex":4,"items":[{"name":"구가네","tel":"031-632-5755","addr":"경기도 이천시 부발읍 아미리 737-29번지","indutype":"일반휴게음식 - 일반한식","category":"restaurant"},{"name":"대구왕뽈찜","tel":"031-636-8350","addr":"경기도 이천시 부발읍 아미리 737-29번지","indutype":"일반휴게음식 - 일반한식","category":"restaurant"},{"name":"맥주한잔","tel":"031-631-5335","addr":"경기도 이천시 부발읍 아미리 737-29번지","indutype":"일반휴게음식 - 일반한식","category":"restaurant"},{"name":"원조닭갈비&양푼김치찌개","tel":"031-633-0791","addr":"경기도 이천시 부발읍 아미리 737-29번지","indutype":"일반휴게음식 - 일반한식","category":"restaurant"}]},{"lat":"37.253440213","long":"127.48942958","imageIndex":4,"items":[{"name":"구면돼지","tel":"031-635-9056","addr":"경기도 이천시 부발읍 아미리 736-1번지 2층","indutype":"일반휴게음식 - 일반한식","category":"restaurant"},{"name":"베르무트 (Vermouth)","tel":"031-636-0026","addr":"경기도 이천시 부발읍 아미리 736-1번지 3층","indutype":"일반휴게음식 - 주점","category":"restaurant"},{"name":"시골집뼈해장국","tel":"031-638-3393","addr":"경기도 이천시 부발읍 아미리 736-1","indutype":"일반휴게음식 - 일반한식","category":"restaurant"},{"name":"페리카나(현대점)","tel":"031-636-8595","addr":"경기도 이천시 부발읍 아미리 736-1번지","indutype":"일반휴게음식 - 일반한식","category":"restaurant"}]},{"lat":"37.251111778","long":"127.49253679","imageIndex":4,"items":[{"name":"그램그램 아미점","tel":"031-635-9700","addr":"경기도 이천시 부발읍 아미리 677-5번지 1층","indutype":"일반휴게음식 - 일반한식","category":"restaurant"}]},{"lat":"37.253167967","long":"127.48990124","imageIndex":4,"items":[{"name":"그루","tel":"031-637-3490","addr":"경기도 이천시 부발읍 아미리 733-1번지 영원타운 103호","indutype":"일반휴게음식 - 주점","category":"restaurant"},{"name":"꼬지사께 이천하이닉스점","tel":"00-0000-0000","addr":"경기도 이천시 부발읍 아미리 733-1번지 영원타운 1층 105호","indutype":"일반휴게음식 - 주점","category":"restaurant"},{"name":"단골집회랑","tel":"031-631-0207","addr":"경기도 이천시 부발읍 아미리 733-1번지 영원타운 202호","indutype":"일반휴게음식 - 일반한식","category":"restaurant"},{"name":"런던호프","tel":"031-638-1991","addr":"경기도 이천시 부발읍 아미리 733-1번지 영원타운 303호","indutype":"일반휴게음식 - 주점","category":"restaurant"},{"name":"먹물","tel":"031-638-2016","addr":"경기도 이천시 부발읍 아미리 733-1번지 107호 , 외1필지영원타운","indutype":"일반휴게음식 - 일반한식","category":"restaurant"},{"name":"세미로","tel":"","addr":"경기도 이천시 부발읍 아미리 733-1번지 영원타운 108호","indutype":"일반휴게음식 - 일반한식","category":"restaurant"},{"name":"오갑","tel":"031-634-7898","addr":"경기도 이천시 부발읍 아미리 733-1번지 영원타운 201호","indutype":"일반휴게음식 - 일반한식","category":"restaurant"},{"name":"오봉자(하이닉스점)","tel":"031-636-2654","addr":"경기도 이천시 부발읍 아미리 733-1번지 영원타운 106호","indutype":"일반휴게음식 - 일반한식","category":"restaurant"},{"name":"오징어나라","tel":"031-638-4187","addr":"경기도 이천시 부발읍 아미리 733-1","indutype":"일반휴게음식 - 일반한식","category":"restaurant"},{"name":"육야키선생","tel":"031-638-1858","addr":"경기도 이천시 부발읍 아미리 733-1번지 (외1필지 영원타운 301호)","indutype":"일반휴게음식 - 주점","category":"restaurant"},{"name":"이정갈비","tel":"031-637-1434","addr":"경기도 이천시 부발읍 아미리 733-1번지 영원타운 102호","indutype":"일반휴게음식 - 일반한식","category":"restaurant"},{"name":"청산갈비","tel":"031-634-1103","addr":"경기도 이천시 부발읍 아미리 733-1번지 영원타운 104호","indutype":"일반휴게음식 - 일반한식","category":"restaurant"},{"name":"헤밍웨이","tel":"031-638-3093","addr":"경기도 이천시 부발읍 아미리 733-1번지 지하1층","indutype":"일반휴게음식 - 일반한식","category":"restaurant"},{"name":"황금양푼포차","tel":"031-632-9008","addr":"경기도 이천시 부발읍 아미리 733-1번지 영원타운 2층 205호","indutype":"일반휴게음식 - 주점","category":"restaurant"}]},{"lat":"37.252971978","long":"127.49154565","imageIndex":4,"items":[{"name":"그집쭈꾸미꼴통한식부페","tel":"031-798-2796","addr":"경기도 이천시 부발읍 아미리 665-2번지 104호","indutype":"일반휴게음식 - 일반한식","category":"restaurant"},{"name":"야나기참치","tel":"031-636-0180","addr":"경기도 이천시 부발읍 아미리 665-2번지 1층","indutype":"일반휴게음식 - 일식·회집","category":"restaurant"},{"name":"주막산꼼장어","tel":"031-633-3318","addr":"경기도 이천시 부발읍 아미리 665-2번지","indutype":"일반휴게음식 - 일반한식","category":"restaurant"}]},{"lat":"37.252447029","long":"127.48993042","imageIndex":4,"items":[{"name":"김밥천국 하이닉스점","tel":"031-631-8980","addr":"경기도 이천시 부발읍 아미리 726-5번지 105호","indutype":"일반휴게음식 - 일반한식","category":"restaurant"},{"name":"동대문엽기떡볶이","tel":"031-637-8592","addr":"경기도 이천시 부발읍 아미리 726-5번지 1층 109호","indutype":"일반휴게음식 - 일반한식","category":"restaurant"},{"name":"돼지네","tel":"031-636-0373","addr":"경기도 이천시 부발읍 아미리 726-5번지 107호","indutype":"일반휴게음식 - 일반한식","category":"restaurant"},{"name":"마실","tel":"02-1577-0000","addr":"경기도 이천시 부발읍 아미리 726-5번지 1층 110호","indutype":"일반휴게음식 - 일반한식","category":"restaurant"},{"name":"본죽(이천하이닉스점)","tel":"031-633-4288","addr":"경기도 이천시 부발읍 아미리 726-5번지","indutype":"일반휴게음식 - 일반한식","category":"restaurant"},{"name":"산수","tel":"031-637-6880","addr":"경기도 이천시 부발읍 아미리 726-5번지 202호","indutype":"일반휴게음식 - 중국식","category":"restaurant"},{"name":"석정","tel":"031-637-3500","addr":"경기도 이천시 부발읍 아미리 726-5번지","indutype":"일반휴게음식 - 일반한식","category":"restaurant"},{"name":"코이라멘 이천하이닉스점","tel":"","addr":"경기도 이천시 부발읍 아미리 726-5번지 103호","indutype":"일반휴게음식 - 일식·회집","category":"restaurant"}]},{"lat":"37.253251003","long":"127.48942837","imageIndex":4,"items":[{"name":"깐부치킨 하이닉스점","tel":"031-635-5820","addr":"경기도 이천시 부발읍 아미리 733번지 101호","indutype":"일반휴게음식 - 스넥","category":"restaurant"},{"name":"바 (BA)","tel":"031-000-0000","addr":"경기도 이천시 부발읍 아미리 733번지 4층 402호","indutype":"일반휴게음식 - 일반한식","category":"restaurant"},{"name":"육쌈냉면(하이닉스점)","tel":"031-636-6392","addr":"경기도 이천시 부발읍 아미리 733번지 2층","indutype":"일반휴게음식 - 일반한식","category":"restaurant"},{"name":"포차천국 이천하이닉스점","tel":"031-000-0000","addr":"경기도 이천시 부발읍 아미리 733번지 104호","indutype":"일반휴게음식 - 주점","category":"restaurant"},{"name":"현대옥 이천하이닉스점","tel":"031-638-3003","addr":"경기도 이천시 부발읍 아미리 733번지","indutype":"일반휴게음식 - 일반한식","category":"restaurant"}]},{"lat":"37.25230171","long":"127.49021127","imageIndex":4,"items":[{"name":"놀부보쌈부대찌개화덕족발이천SK하이닉스점","tel":"031-694-5382","addr":"경기도 이천시 부발읍 아미리 726-3번지 1층","indutype":"일반휴게음식 - 일반한식","category":"restaurant"}]},{"lat":"37.252746496","long":"127.49160055","imageIndex":4,"items":[{"name":"뉴욕핫도그앤커피(아미점)","tel":"031-637-1009","addr":"경기도 이천시 부발읍 아미리 666-3번지","indutype":"일반휴게음식 - 스넥","category":"restaurant"},{"name":"오봉도시락","tel":"031-634-5050","addr":"경기도 이천시 부발읍 아미리 666-3번지 1층 102호","indutype":"일반휴게음식 - 일반한식","category":"restaurant"},{"name":"육대장","tel":"031-634-6230","addr":"경기도 이천시 부발읍 아미리 666-3번지 1층","indutype":"일반휴게음식 - 일반한식","category":"restaurant"},{"name":"이차돌 이천하이닉스점","tel":"031-635-7590","addr":"경기도 이천시 부발읍 아미리 666-3번지 1층","indutype":"일반휴게음식 - 일반한식","category":"restaurant"}]},{"lat":"37.252275608","long":"127.48998567","imageIndex":4,"items":[{"name":"담소소사골순대","tel":"031-634-1821","addr":"경기도 이천시 부발읍 아미리 726-6번지 201호 202호","indutype":"일반휴게음식 - 일반한식","category":"restaurant"},{"name":"메이찬 중화요리","tel":"031-634-5578","addr":"경기도 이천시 부발읍 아미리 726-6번지 1층","indutype":"일반휴게음식 - 중국식","category":"restaurant"},{"name":"백두산이","tel":"031-631-6880","addr":"경기도 이천시 부발읍 아미리 726-6번지","indutype":"일반휴게음식 - 일반한식","category":"restaurant"},{"name":"피자로(아미점)","tel":"","addr":"경기도 이천시 부발읍 아미리 726-6번지 202호","indutype":"일반휴게음식 - 일반한식","category":"restaurant"}]},{"lat":"37.248303316","long":"127.49187617","imageIndex":4,"items":[{"name":"담원","tel":"031-631-3233","addr":"경기도 이천시 부발읍 아미리 694-4번지 1동 1,2층","indutype":"일반휴게음식 - 일반한식","category":"restaurant"},{"name":"리치카페","tel":"031-632-3080","addr":"경기도 이천시 부발읍 아미리 694-4번지 2동","indutype":"일반휴게음식 - 일반한식","category":"restaurant"}]},{"lat":"37.25211148","long":"127.49045802","imageIndex":4,"items":[{"name":"대박한식푸드","tel":"","addr":"경기도 이천시 부발읍 아미리 725-8번지 2층 201,202호","indutype":"일반휴게음식 - 일반한식","category":"restaurant"},{"name":"돼지야","tel":"031-633-9702","addr":"경기도 이천시 부발읍 아미리 725-8번지 닉스타임 110,111호","indutype":"일반휴게음식 - 일반한식","category":"restaurant"},{"name":"사이야","tel":"031-694-2447","addr":"경기도 이천시 부발읍 아미리 725-8번지 1층 114호","indutype":"일반휴게음식 - 주점","category":"restaurant"},{"name":"이디야 커피","tel":"031-637-7600","addr":"경기도 이천시 부발읍 아미리 725-8번지 닉스타임빌딩 107호","indutype":"일반휴게음식 - 서양음식","category":"restaurant"},{"name":"족보잇는국밥","tel":"","addr":"경기도 이천시 부발읍 아미리 725-8번지 외 1필지 닉스타임 105호","indutype":"일반휴게음식 - 일반한식","category":"restaurant"}]},{"lat":"37.252329523","long":"127.49220652","imageIndex":4,"items":[{"name":"독도수산","tel":"031-635-1082","addr":"경기도 이천시 부발읍 아미리 668-10번지 1층","indutype":"일반휴게음식 - 일반한식","category":"restaurant"},{"name":"커피니하이닉스점","tel":"031-633-4474","addr":"경기도 이천시 부발읍 아미리 668-10번지 1동 2층","indutype":"일반휴게음식 - 서양음식","category":"restaurant"}]},{"lat":"37.253529988","long":"127.48950906","imageIndex":4,"items":[{"name":"레알호프","tel":"031-365-3310","addr":"경기도 이천시 부발읍 아미리 736번지","indutype":"일반휴게음식 - 주점","category":"restaurant"},{"name":"불난 회 포차","tel":"02-0000-0000","addr":"경기도 이천시 부발읍 아미리 736번지","indutype":"일반휴게음식 - 주점","category":"restaurant"},{"name":"브롱스 이천 하이닉스점","tel":"031-638-5448","addr":"경기도 이천시 부발읍 아미리 736번지 2층 2호","indutype":"일반휴게음식 - 주점","category":"restaurant"},{"name":"천지양꼬치","tel":"031-633-2988","addr":"경기도 이천시 부발읍 아미리 736번지","indutype":"일반휴게음식 - 일반한식","category":"restaurant"},{"name":"호반닭갈비","tel":"031-632-8990","addr":"경기도 이천시 부발읍 아미리 736번지 1층","indutype":"일반휴게음식 - 일반한식","category":"restaurant"}]},{"lat":"37.252526542","long":"127.49031416","imageIndex":4,"items":[{"name":"로마네꽁띠","tel":"031-636-4420","addr":"경기도 이천시 부발읍 아미리 726-8번지","indutype":"일반휴게음식 - 주점","category":"restaurant"}]},{"lat":"37.251139693","long":"127.49232281","imageIndex":4,"items":[{"name":"리뷰","tel":"031-637-2911","addr":"경기도 이천시 부발읍 아미리 676-10번지","indutype":"일반휴게음식 - 일식·회집","category":"restaurant"}]},{"lat":"37.269247258","long":"127.50804332","imageIndex":4,"items":[{"name":"마당","tel":"031-638-3357","addr":"경기도 이천시 부발읍 아미리 81-31번지","indutype":"일반휴게음식 - 일반한식","category":"restaurant"}]},{"lat":"37.256299474","long":"127.49306633","imageIndex":4,"items":[{"name":"먹거리언니네","tel":"031-635-7970","addr":"경기도 이천시 부발읍 아미리 597-1번지","indutype":"일반휴게음식 - 일반한식","category":"restaurant"},{"name":"스낵맘","tel":"","addr":"경기도 이천시 부발읍 아미리 597-1번지","indutype":"일반휴게음식 - 스넥","category":"restaurant"}]},{"lat":"37.248390575","long":"127.49256426","imageIndex":4,"items":[{"name":"명성식당","tel":"031-636-3991","addr":"경기도 이천시 부발읍 아미리 691-2번지","indutype":"일반휴게음식 - 일반한식","category":"restaurant"},{"name":"병천토부리순대","tel":"031-636-5692","addr":"경기도 이천시 부발읍 아미리 691-2번지","indutype":"일반휴게음식 - 일반한식","category":"restaurant"},{"name":"세명 뒷고기","tel":"031-633-6574","addr":"경기도 이천시 부발읍 아미리 691-2번지 1층 2호","indutype":"일반휴게음식 - 일반한식","category":"restaurant"},{"name":"세명회관","tel":"031-633-6573","addr":"경기도 이천시 부발읍 아미리 691-2번지","indutype":"일반휴게음식 - 일반한식","category":"restaurant"}]},{"lat":"37.25208092","long":"127.49131446","imageIndex":4,"items":[{"name":"바른고기한점","tel":"031-638-7392","addr":"경기도 이천시 부발읍 아미리 670-2번지","indutype":"일반휴게음식 - 일반한식","category":"restaurant"},{"name":"삼국시대","tel":"031-631-0889","addr":"경기도 이천시 부발읍 아미리 670-2번지","indutype":"일반휴게음식 - 일반한식","category":"restaurant"},{"name":"아미가삼겹살","tel":"031-636-2435","addr":"경기도 이천시 부발읍 아미리 670-2번지","indutype":"일반휴게음식 - 일반한식","category":"restaurant"}]},{"lat":"37.25411165","long":"127.49048218","imageIndex":4,"items":[{"name":"배석종 스시","tel":"031-636-6603","addr":"경기도 이천시 부발읍 아미리 730번지 이천신일해피트리트리빌1단지","indutype":"일반휴게음식 - 일식·회집","category":"restaurant"},{"name":"신통치킨","tel":"031-634-9299","addr":"경기도 이천시 부발읍 아미리 730번지 신일해피트리빌1단지 114호","indutype":"일반휴게음식 - 일반한식","category":"restaurant"},{"name":"육회공작소","tel":"111-1111-111","addr":"경기도 이천시 부발읍 아미리 730번지 이천신일해피트리1단지 101동 105,106호","indutype":"일반휴게음식 - 일반한식","category":"restaurant"},{"name":"집으로돼지","tel":"031-637-2791","addr":"경기도 이천시 부발읍 아미리 730번지 이천신일해피트리트리빌1단지 101동 116호","indutype":"일반휴게음식 - 일반한식","category":"restaurant"},{"name":"킹콩떡볶이 이천하이닉스점","tel":"02-0000-0000","addr":"경기도 이천시 부발읍 아미리 730번지 이천신일해피트리트리빌1단지 101동 103호","indutype":"일반휴게음식 - 스넥","category":"restaurant"}]},{"lat":"37.253107267","long":"127.4915127","imageIndex":4,"items":[{"name":"부자곱이천점","tel":"031-637-6657","addr":"경기도 이천시 부발읍 아미리 665-7번지","indutype":"일반휴게음식 - 일반한식","category":"restaurant"},{"name":"제주은희네해장국","tel":"031-000-0000","addr":"경기도 이천시 부발읍 아미리 665-7번지","indutype":"일반휴게음식 - 일반한식","category":"restaurant"}]},{"lat":"37.246332733","long":"127.49123228","imageIndex":4,"items":[{"name":"빨간오뎅","tel":"031-635-2951","addr":"경기도 이천시 부발읍 아미리 699-7 108호","indutype":"일반휴게음식 - 일반한식","category":"restaurant"}]},{"lat":"37.252751096","long":"127.49048469","imageIndex":4,"items":[{"name":"뽀대찌개 본점","tel":"070-4147-1234","addr":"경기도 이천시 부발읍 아미리 728-7번지 201호","indutype":"일반휴게음식 - 일반한식","category":"restaurant"},{"name":"양연화로","tel":"031-000-0000","addr":"경기도 이천시 부발읍 아미리 728-7번지","indutype":"일반휴게음식 - 일반한식","category":"restaurant"},{"name":"트위스트비어","tel":"031-636-3690","addr":"경기도 이천시 부발읍 아미리 728-7번지","indutype":"일반휴게음식 - 주점","category":"restaurant"}]},{"lat":"37.253083145","long":"127.49298914","imageIndex":4,"items":[{"name":"소문난왕대구뽈찜아구찜","tel":"031-635-5981","addr":"경기도 이천시 부발읍 아미리 652번지 101호","indutype":"일반휴게음식 - 일반한식","category":"restaurant"}]},{"lat":"37.25325259","long":"127.49123185","imageIndex":4,"items":[{"name":"아그라다","tel":"","addr":"경기도 이천시 부발읍 아미리 730-3번지 102호, 103","indutype":"일반휴게음식 - 서양음식","category":"restaurant"},{"name":"포항이야기2","tel":"031-636-8020","addr":"경기도 이천시 부발읍 아미리 730-3번지 하이클래스 202호","indutype":"일반휴게음식 - 일반한식","category":"restaurant"}]},{"lat":"37.252968496","long":"127.4902043","imageIndex":4,"items":[{"name":"엠디아","tel":"031-638-4863","addr":"경기도 이천시 부발읍 아미리 728-1번지 104호","indutype":"일반휴게음식 - 일반한식","category":"restaurant"},{"name":"역전할머니맥주이천하이닉스점","tel":"031-631-7774","addr":"경기도 이천시 부발읍 아미리 728-1번지 신일해피트리앤 1동 101호,102호","indutype":"일반휴게음식 - 주점","category":"restaurant"},{"name":"코다리 1번가 동태 해물찜(하이닉스점)","tel":"031-634-1237","addr":"경기도 이천시 부발읍 아미리 728-1번지 103,105호","indutype":"일반휴게음식 - 일반한식","category":"restaurant"}]},{"lat":"37.252993901","long":"127.49059897","imageIndex":4,"items":[{"name":"오리오리","tel":"031-633-6922","addr":"경기도 이천시 부발읍 아미리 728-20번지 2층","indutype":"일반휴게음식 - 일반한식","category":"restaurant"}]},{"lat":"37.252945451","long":"127.48923478","imageIndex":4,"items":[{"name":"용수가든","tel":"031-635-1799","addr":"경기도 이천시 부발읍 아미리 726-2번지","indutype":"일반휴게음식 - 일반한식","category":"restaurant"}]},{"lat":"37.246584583","long":"127.48914882","imageIndex":4,"items":[{"name":"전여사양꼬치","tel":"031-638-4642","addr":"경기도 이천시 부발읍 아미리 산148-1번지 상가동 304,305호","indutype":"일반휴게음식 - 일반한식","category":"restaurant"}]},{"lat":"37.24588687","long":"127.49228884","imageIndex":4,"items":[{"name":"진안추어탕부발점","tel":"031-631-2995","addr":"경기도 이천시 부발읍 아미리 698-4번지","indutype":"일반휴게음식 - 일반한식","category":"restaurant"}]},{"lat":"37.254306792","long":"127.48904064","imageIndex":4,"items":[{"name":"천일감자탕","tel":"031-111-1111","addr":"경기도 이천시 부발읍 아미리 737-6번지","indutype":"일반휴게음식 - 일반한식","category":"restaurant"}]},{"lat":"37.267410214","long":"127.51618201","imageIndex":4,"items":[{"name":"청암관광농원","tel":"031-632-5082","addr":"경기도 이천시 부발읍 아미리 4-1","indutype":"일반휴게음식 - 일반한식","category":"restaurant"}]},{"lat":"37.257029655","long":"127.49298089","imageIndex":4,"items":[{"name":"청정해물찜","tel":"031-634-3216","addr":"경기도 이천시 부발읍 아미리 593-1번지","indutype":"일반휴게음식 - 일반한식","category":"restaurant"}]},{"lat":"37.250886854","long":"127.49245643","imageIndex":4,"items":[{"name":"투다리(아미점)","tel":"031-631-9114","addr":"경기도 이천시 부발읍 아미리 677-13번지 1층","indutype":"일반휴게음식 - 주점","category":"restaurant"}]},{"lat":"37.252525475","long":"127.4905734","imageIndex":4,"items":[{"name":"하루분식","tel":"031-635-2000","addr":"경기도 이천시 부발읍 아미리 728-29번지 1동 1층 101호","indutype":"일반휴게음식 - 스넥","category":"restaurant"}]},{"lat":"37.248808016","long":"127.49184562","imageIndex":4,"items":[{"name":"행복한 식당","tel":"031-636-7277","addr":"경기도 이천시 부발읍 아미리 687-4번지 현대코아빌딩 1층","indutype":"일반휴게음식 - 일반한식","category":"restaurant"}]},{"lat":"37.253862987","long":"127.48960138","imageIndex":4,"items":[{"name":"행복한cafe","tel":"031-635-2288","addr":"경기도 이천시 부발읍 아미리 737-13 외3필지미지프라자205호","indutype":"일반휴게음식 - 서양음식","category":"restaurant"}]},{"lat":"37.252776713","long":"127.4930097","imageIndex":4,"items":[{"name":"화룡정점정육식당","tel":"031-636-2228","addr":"경기도 이천시 부발읍 아미리 652-10번지 1층,2층","indutype":"일반휴게음식 - 일반한식","category":"restaurant"}]}]