[{"lat":"37.292931498","long":"127.00953583","imageIndex":13,"items":[{"name":"(주)디.엠.에이치","tel":"031-254-2852","addr":"경기도 수원시 장안구 정자동 5-25번지","indutype":"보건위생 - 의료용품","category":"beauty"}]},{"lat":"37.291209906","long":"126.98895429","imageIndex":13,"items":[{"name":"1.3.5미용실","tel":"031-268-4294","addr":"경기도 수원시 장안구 정자동 881-4번지 꽃뫼노을마을한마루아파트","indutype":"보건위생 - 미용원","category":"beauty"},{"name":"일삼오","tel":"031-268-4294","addr":"경기도 수원시 장안구 정자동 881-4번지 일부 105호","indutype":"보건위생 - 화장품","category":"beauty"}]},{"lat":"37.306815123","long":"126.98508243","imageIndex":13,"items":[{"name":"Attika Nail (아티카네일)","tel":"031-269-3279","addr":"경기도 수원시 장안구 정자동 945번지 수원에스케이스카이뷰 603동 108호","indutype":"보건위생 - 피부미용실","category":"beauty"},{"name":"나이스가이 수원장안SK점","tel":"","addr":"경기도 수원시 장안구 정자동 945번지 수원에스케이스카이뷰 603동 107-2호","indutype":"보건위생 - 미용원","category":"beauty"},{"name":"리안헤어정자SK뷰점","tel":"031-271-2110","addr":"경기도 수원시 장안구 정자동 945번지 수원SK스카이뷰 603동 201호","indutype":"보건위생 - 미용원","category":"beauty"},{"name":"살롱라헬","tel":"031-271-6020","addr":"경기도 수원시 장안구 정자동 945번지 수원에스케이스카이뷰 601동 210호","indutype":"보건위생 - 미용원","category":"beauty"},{"name":"스킨스토리(SKIN STORY)","tel":"031-268-3672","addr":"경기도 수원시 장안구 정자동 945번지 SK뷰2상가 204호","indutype":"보건위생 - 피부미용실","category":"beauty"},{"name":"원스톤안경원","tel":"031-271-5939","addr":"경기도 수원시 장안구 정자동 945번지 수원에스케이스카이뷰 상가 2동 110호","indutype":"보건위생 - 안경","category":"beauty"},{"name":"파스칼헤어스튜디오","tel":"031-271-5129","addr":"경기도 수원시 장안구 정자동 945번지 수원SKSKYVIEW 601동 117호","indutype":"보건위생 - 미용원","category":"beauty"},{"name":"헤어디자인","tel":"031-269-0664","addr":"경기도 수원시 장안구 정자동 945번지 수원SKSKYVIEW 상가 2동 106호","indutype":"보건위생 - 미용원","category":"beauty"},{"name":"헤어스토리","tel":"031-271-2621","addr":"경기도 수원시 장안구 정자동 945번지 수원에스케이스카이뷰 603동 111~112호","indutype":"보건위생 - 미용원","category":"beauty"}]},{"lat":"37.304509553","long":"126.99459157","imageIndex":13,"items":[{"name":"Forman남성컷트전문점","tel":"031-217-6784","addr":"경기도 수원시 장안구 정자동 423-1번지 정자벽산블루밍 상가 1동 102호","indutype":"보건위생 - 미용원","category":"beauty"},{"name":"더 예쁜아이#","tel":"031-000-0000","addr":"경기도 수원시 장안구 정자동 423-1번지 정자벽산블루밍 104호","indutype":"보건위생 - 피부미용실","category":"beauty"},{"name":"수Cut","tel":"031-244-5150","addr":"경기도 수원시 장안구 정자동 423-1번지 벽산블루밍2상가동 103호","indutype":"보건위생 - 미용원","category":"beauty"},{"name":"수헤어커커","tel":"031-244-8212","addr":"경기도 수원시 장안구 정자동 423-1번지 정자벽산블루밍 1동 107호","indutype":"보건위생 - 미용원","category":"beauty"},{"name":"에이(A)랑 네일","tel":"070-8840-2205","addr":"경기도 수원시 장안구 정자동 423-1번지 벽산블루밍 상가 3동 1층 103호","indutype":"보건위생 - 피부미용실","category":"beauty"},{"name":"오드리","tel":"031-213-3993","addr":"경기도 수원시 장안구 정자동 423-1번지 정자벽산블루밍 상가 3동 103호","indutype":"보건위생 - 미용원","category":"beauty"},{"name":"주애지의스킨바디","tel":"031-244-4789","addr":"경기도 수원시 장안구 정자동 423-1번지 정자벽산블루밍 상가 3동 201호","indutype":"보건위생 - 피부미용실","category":"beauty"}]},{"lat":"37.29240007","long":"127.00439318","imageIndex":13,"items":[{"name":"G-day 굿데이","tel":"031-242-7281","addr":"경기도 수원시 장안구 정자동 70-78번지 수성프라자 103호","indutype":"보건위생 - 미용원","category":"beauty"}]},{"lat":"37.292318935","long":"126.99936335","imageIndex":13,"items":[{"name":"NEW토모토모헤어","tel":"031-269-2080","addr":"경기도 수원시 장안구 정자동 42-26번지 일부 1층","indutype":"보건위생 - 미용원","category":"beauty"}]},{"lat":"37.297094061","long":"126.99370139","imageIndex":13,"items":[{"name":"NS스킨케어","tel":"","addr":"경기도 수원시 장안구 정자동 872-2번지 라이프스포츠 1층 104호","indutype":"보건위생 - 화장품","category":"beauty"},{"name":"고은콜라겐","tel":"031-243-6100","addr":"경기도 수원시 장안구 정자동 872-2번지 라이프스포츠 수원 220호","indutype":"보건위생 - 화장품","category":"beauty"},{"name":"더샵","tel":"070-8829-8579","addr":"경기도 수원시 장안구 정자동 872-2번지 라이프스포츠 수원 1층 126호","indutype":"보건위생 - 화장품","category":"beauty"},{"name":"디자인현아트","tel":"031-268-5822","addr":"경기도 수원시 장안구 정자동 872-2번지 라이프스포츠수원 1층 106호","indutype":"보건위생 - 미용재료","category":"beauty"},{"name":"바른자세","tel":"031-410-5194","addr":"경기도 수원시 장안구 정자동 872-2번지 라이프스포츠수원 1층 131호","indutype":"보건위생 - 기타대인서비스","category":"beauty"},{"name":"봉숭아","tel":"031-269-7711","addr":"경기도 수원시 장안구 정자동 872-2번지 라이프스포츠수원 107-1호","indutype":"보건위생 - 미용재료","category":"beauty"},{"name":"샤론헤어유니크","tel":"031-268-2305","addr":"경기도 수원시 장안구 정자동 872-2번지 라이프수원 223호","indutype":"보건위생 - 미용원","category":"beauty"},{"name":"아마란스","tel":"031-268-3888","addr":"경기도 수원시 장안구 정자동 872-2번지 라이프스포츠 수원 227호","indutype":"보건위생 - 화장품","category":"beauty"},{"name":"에스뷰티앤테라피","tel":"031-268-7260","addr":"경기도 수원시 장안구 정자동 872-2번지 라이프스포츠수원 134동 135호","indutype":"보건위생 - 화장품","category":"beauty"}]},{"lat":"37.301707276","long":"126.9933399","imageIndex":13,"items":[{"name":"Nail 맑음","tel":"031-269-1116","addr":"경기도 수원시 장안구 정자동 383번지 범야건설주식회사 120호","indutype":"보건위생 - 피부미용실","category":"beauty"},{"name":"가델헤어","tel":"031-248-8259","addr":"경기도 수원시 장안구 정자동 383번지 범야건설주식회사 108호","indutype":"보건위생 - 미용원","category":"beauty"},{"name":"건강과골프연구소","tel":"031-269-1872","addr":"경기도 수원시 장안구 정자동 383번지","indutype":"보건위생 - 기타대인서비스","category":"beauty"},{"name":"공블리 에스테틱","tel":"","addr":"경기도 수원시 장안구 정자동 383번지 범아 상가 1층 122호","indutype":"보건위생 - 피부미용실","category":"beauty"},{"name":"라파헤어","tel":"031-302-7272","addr":"경기도 수원시 장안구 정자동 383번지 범야건설주식회사 103호","indutype":"보건위생 - 미용원","category":"beauty"},{"name":"이현숙머리사랑","tel":"031-246-3067","addr":"경기도 수원시 장안구 정자동 383범야쇼핑1층19","indutype":"보건위생 - 미용원","category":"beauty"},{"name":"주은헤어","tel":"031-271-4082","addr":"경기도 수원시 장안구 정자동 383번지 범야 상가 116호","indutype":"보건위생 - 미용원","category":"beauty"}]},{"lat":"37.296093893","long":"126.99330677","imageIndex":13,"items":[{"name":"Nov.14(노브)","tel":"031-269-7627","addr":"경기도 수원시 장안구 정자동 877-2번지 한빛프라자 201호","indutype":"보건위생 - 미용원","category":"beauty"},{"name":"나도미인","tel":"031-268-5857","addr":"경기도 수원시 장안구 정자동 877-2번지 한빛프라자 302호","indutype":"보건위생 - 화장품","category":"beauty"},{"name":"상상심리상담센터","tel":"031-242-0933","addr":"경기도 수원시 장안구 정자동 877-2번지 한빛프라자 3층","indutype":"보건위생 - 기타대인서비스","category":"beauty"}]},{"lat":"37.292291945","long":"127.00450595","imageIndex":13,"items":[{"name":"TG헤어","tel":"031-248-2838","addr":"경기도 수원시 장안구 정자동 70-12번지","indutype":"보건위생 - 미용원","category":"beauty"}]},{"lat":"37.305347168","long":"126.99070002","imageIndex":13,"items":[{"name":"가빈헤어","tel":"031-258-3863","addr":"경기도 수원시 장안구 정자동 529-1번지 1층","indutype":"보건위생 - 미용원","category":"beauty"}]},{"lat":"37.29250813","long":"126.99875434","imageIndex":13,"items":[{"name":"가위손미장","tel":"031-1111-1111","addr":"경기도 수원시 장안구 정자동 43-50번지","indutype":"보건위생 - 미용원","category":"beauty"}]},{"lat":"37.303202916","long":"126.9926404","imageIndex":13,"items":[{"name":"갈채헤어","tel":"031-257-1939","addr":"경기도 수원시 장안구 정자동 840-89번지","indutype":"보건위생 - 미용원","category":"beauty"},{"name":"라파엘힐링","tel":"","addr":"경기도 수원시 장안구 정자동 840-89번지 1층","indutype":"보건위생 - 기타대인서비스","category":"beauty"}]},{"lat":"37.304041137","long":"126.99645272","imageIndex":13,"items":[{"name":"강민재헤어클럽","tel":"031-241-3233","addr":"경기도 수원시 장안구 정자동 418-1번지 1층","indutype":"보건위생 - 미용원","category":"beauty"},{"name":"아이데코 정자점","tel":"031-221-6838","addr":"경기도 수원시 장안구 정자동 418-1번지 1층 4,5,6호","indutype":"보건위생 - 안경","category":"beauty"}]},{"lat":"37.30225662","long":"126.99033958","imageIndex":13,"items":[{"name":"경수메디컬","tel":"031-242-0799","addr":"경기도 수원시 장안구 정자동 493번지 1층","indutype":"보건위생 - 의료용품","category":"beauty"},{"name":"코디헤어","tel":"031-245-1236","addr":"경기도 수원시 장안구 정자동 493번지","indutype":"보건위생 - 미용원","category":"beauty"}]},{"lat":"37.294373219","long":"127.00786682","imageIndex":13,"items":[{"name":"경아","tel":"031-246-3738","addr":"경기도 수원시 장안구 정자동 8-5번지","indutype":"보건위생 - 미용원","category":"beauty"}]},{"lat":"37.306257302","long":"126.99172632","imageIndex":13,"items":[{"name":"고경화미용실","tel":"031-252-8912","addr":"경기도 수원시 장안구 정자동 436-3번지","indutype":"보건위생 - 미용원","category":"beauty"},{"name":"이니스프리 수원그린점","tel":"031-269-6713","addr":"경기도 수원시 장안구 정자동 436-3번지","indutype":"보건위생 - 화장품","category":"beauty"}]},{"lat":"37.290625042","long":"127.00084076","imageIndex":13,"items":[{"name":"구피샵 정자점","tel":"031-242-6809","addr":"경기도 수원시 장안구 정자동 73-10번지 110호, 111호","indutype":"보건위생 - 미용원","category":"beauty"},{"name":"선헤어샵20000","tel":"070-8182-3231","addr":"경기도 수원시 장안구 정자동 73-10번지 B1001 B1002호","indutype":"보건위생 - 미용원","category":"beauty"},{"name":"토가정자동점","tel":"","addr":"경기도 수원시 장안구 정자동 73-10번지 303호","indutype":"보건위생 - 피부미용실","category":"beauty"}]},{"lat":"37.294733395","long":"126.99392724","imageIndex":13,"items":[{"name":"굿피플안경원","tel":"031-269-8020","addr":"경기도 수원시 장안구 정자동 878-6선일프라자107~109호","indutype":"보건위생 - 안경","category":"beauty"},{"name":"헤어벅스","tel":"031-268-7711","addr":"경기도 수원시 장안구 정자동 878-6번지 선일프라자 201호","indutype":"보건위생 - 미용원","category":"beauty"}]},{"lat":"37.291291805","long":"127.00467509","imageIndex":13,"items":[{"name":"귀족","tel":"031-243-0909","addr":"경기도 수원시 장안구 정자동 79-36번지 지하층","indutype":"보건위생 - 화장품","category":"beauty"},{"name":"리치헤어","tel":"031-256-5080","addr":"경기도 수원시 장안구 정자동 79-36번지","indutype":"보건위생 - 미용원","category":"beauty"},{"name":"진주화장품","tel":"070-4922-1261","addr":"경기도 수원시 장안구 정자동 79-36번지 평화인쇄사 지하 2호","indutype":"보건위생 - 화장품","category":"beauty"}]},{"lat":"37.296012785","long":"126.99311506","imageIndex":13,"items":[{"name":"금란피부체형미","tel":"031-269-0110","addr":"경기도 수원시 장안구 정자동 877-1번지 화이트쇼핑몰 906호","indutype":"보건위생 - 화장품","category":"beauty"},{"name":"드림안경마트정자점","tel":"031-269-7374","addr":"경기도 수원시 장안구 정자동 877-1번지 화이트쇼핑몰 1층 107호","indutype":"보건위생 - 안경","category":"beauty"},{"name":"베로니떼","tel":"031-268-0985","addr":"경기도 수원시 장안구 정자동 877-1번지 화이트쇼핑 112호","indutype":"보건위생 - 화장품","category":"beauty"},{"name":"에이치스타일 헤어살롱","tel":"031-268-9500","addr":"경기도 수원시 장안구 정자동 877-1번지 2층 209호","indutype":"보건위생 - 미용원","category":"beauty"},{"name":"은헤어스튜디오","tel":"031-269-3077","addr":"경기도 수원시 장안구 정자동 877-1번지 화이트쇼핑몰 2층 203호","indutype":"보건위생 - 미용원","category":"beauty"},{"name":"코코헤어","tel":"031-271-2123","addr":"경기도 수원시 장안구 정자동 877-1번지 114호","indutype":"보건위생 - 미용원","category":"beauty"}]},{"lat":"37.302761637","long":"126.99564072","imageIndex":13,"items":[{"name":"김미옥헤어","tel":"031-253-4207","addr":"경기도 수원시 장안구 정자동 401번지 상가1층 15,16호","indutype":"보건위생 - 미용원","category":"beauty"},{"name":"웰테크","tel":"070-4131-1656","addr":"경기도 수원시 장안구 정자동 401번지 동신아파트","indutype":"보건위생 - 의료용품","category":"beauty"},{"name":"전씨머리방","tel":"031-242-1114","addr":"경기도 수원시 장안구 정자동 401번지 동신 상가 16호","indutype":"보건위생 - 미용원","category":"beauty"}]},{"lat":"37.300788045","long":"126.99125342","imageIndex":13,"items":[{"name":"김성옥헤어아트","tel":"031-252-1057","addr":"경기도 수원시 장안구 정자동 327-13번지 2층","indutype":"보건위생 - 미용원","category":"beauty"},{"name":"올가휴수원점","tel":"031-245-3666","addr":"경기도 수원시 장안구 정자동 327-13번지 1층","indutype":"보건위생 - 화장품","category":"beauty"}]},{"lat":"37.302563072","long":"126.99136594","imageIndex":13,"items":[{"name":"김정숙헤어샵","tel":"031-247-5722","addr":"경기도 수원시 장안구 정자동 464-3번지","indutype":"보건위생 - 미용원","category":"beauty"}]},{"lat":"37.291174657","long":"127.00028815","imageIndex":13,"items":[{"name":"꽃향기헤어","tel":"031-253-9140","addr":"경기도 수원시 장안구 정자동 73-40번지","indutype":"보건위생 - 미용원","category":"beauty"}]},{"lat":"37.293066776","long":"127.00672769","imageIndex":13,"items":[{"name":"끌리오헤어샵","tel":"031-253-2082","addr":"경기도 수원시 장안구 정자동 68-8번지","indutype":"보건위생 - 미용원","category":"beauty"}]},{"lat":"37.29065208","long":"127.00131441","imageIndex":13,"items":[{"name":"나무치과기공소","tel":"031-247-2804","addr":"경기도 수원시 장안구 정자동 73-11번지 3층","indutype":"보건위생 - 의료용품","category":"beauty"},{"name":"누가의료기장안점","tel":"","addr":"경기도 수원시 장안구 정자동 73-11번지 2층","indutype":"보건위생 - 의료용품","category":"beauty"},{"name":"쮸네일","tel":"031-248-1020","addr":"경기도 수원시 장안구 정자동 73-11번지 1층","indutype":"보건위생 - 피부미용실","category":"beauty"}]},{"lat":"37.293120891","long":"127.0014497","imageIndex":13,"items":[{"name":"네일빈","tel":"031-258-0827","addr":"경기도 수원시 장안구 정자동 48-2번지 1층","indutype":"보건위생 - 피부미용실","category":"beauty"}]},{"lat":"37.302653193","long":"126.99155767","imageIndex":13,"items":[{"name":"네일의온도","tel":"031-111-1111","addr":"경기도 수원시 장안구 정자동 462-1번지 1층","indutype":"보건위생 - 피부미용실","category":"beauty"}]},{"lat":"37.295679476","long":"126.99400607","imageIndex":13,"items":[{"name":"네츄럴(natural) 치과기공소","tel":"070-8822-2804","addr":"경기도 수원시 장안구 정자동 876-5번지 뱅뱅프라자 602호","indutype":"보건위생 - 의료용품","category":"beauty"},{"name":"마임수원정자지사","tel":"031-269-4466","addr":"경기도 수원시 장안구 정자동 876-5번지 뱅뱅프라자 601호","indutype":"보건위생 - 화장품","category":"beauty"},{"name":"아모레 카운셀러","tel":"032-293-9797","addr":"경기도 수원시 장안구 정자동 876-5번지 뱅뱅프라자빌딩 4층","indutype":"보건위생 - 화장품","category":"beauty"},{"name":"아모레화서특약점","tel":"031-269-2177","addr":"경기도 수원시 장안구 정자동 876-5번지 뱅뱅프라자빌딩 4층","indutype":"보건위생 - 화장품","category":"beauty"},{"name":"청담The Queen","tel":"031-269-5131","addr":"경기도 수원시 장안구 정자동 876-5번지 뱅뱅프라자 404호","indutype":"보건위생 - 피부미용실","category":"beauty"},{"name":"컷트클럽정자점","tel":"031-269-7844","addr":"경기도 수원시 장안구 정자동 876-5번지 뱅뱅프라자 103호","indutype":"보건위생 - 미용원","category":"beauty"},{"name":"헤어마리","tel":"031-268-4200","addr":"경기도 수원시 장안구 정자동 876-5번지 뱅뱅프라자 3층 302,303호","indutype":"보건위생 - 미용원","category":"beauty"}]},{"lat":"37.293544301","long":"126.99852873","imageIndex":13,"items":[{"name":"노랑머리헤어","tel":"070-4318-1058","addr":"경기도 수원시 장안구 정자동 30-28번지 1층","indutype":"보건위생 - 미용원","category":"beauty"}]},{"lat":"37.302121736","long":"126.9932045","imageIndex":13,"items":[{"name":"누네띠네미용실","tel":"031-269-9822","addr":"경기도 수원시 장안구 정자동 384번지","indutype":"보건위생 - 미용원","category":"beauty"}]},{"lat":"37.305734841","long":"126.99322659","imageIndex":13,"items":[{"name":"누네조은안경","tel":"031-269-1905","addr":"경기도 수원시 장안구 정자동 430-3번지 1층","indutype":"보건위생 - 안경","category":"beauty"}]},{"lat":"37.289958282","long":"127.0007844","imageIndex":13,"items":[{"name":"뉴한독안경","tel":"031-254-7725","addr":"경기도 수원시 장안구 정자동 75-11번지","indutype":"보건위생 - 안경","category":"beauty"}]},{"lat":"37.293039656","long":"127.00887046","imageIndex":13,"items":[{"name":"늘사랑헤어","tel":"","addr":"경기도 수원시 장안구 정자동 5-19번지 1층","indutype":"보건위생 - 미용원","category":"beauty"}]},{"lat":"37.290012303","long":"126.99914919","imageIndex":13,"items":[{"name":"다본안경","tel":"031-245-1602","addr":"경기도 수원시 장안구 정자동 74-19번지","indutype":"보건위생 - 안경","category":"beauty"},{"name":"헤어프린센스","tel":"031-253-4592","addr":"경기도 수원시 장안구 정자동 74-19번지 외2필지","indutype":"보건위생 - 미용원","category":"beauty"}]},{"lat":"37.299040039","long":"126.99106195","imageIndex":13,"items":[{"name":"다섯발가락","tel":"031-268-8440","addr":"경기도 수원시 장안구 정자동 266-3번지 파크프라자 202-2호","indutype":"보건위생 - 화장품","category":"beauty"},{"name":"주식회사 이노윈","tel":"031-269-9428","addr":"경기도 수원시 장안구 정자동 266-3번지 파크프라자 404호","indutype":"보건위생 - 의료용품","category":"beauty"}]},{"lat":"37.298841905","long":"126.99200938","imageIndex":13,"items":[{"name":"더시크헤어","tel":"031-271-5466","addr":"경기도 수원시 장안구 정자동 333-5번지","indutype":"보건위생 - 미용원","category":"beauty"}]},{"lat":"37.295093806","long":"126.99394975","imageIndex":13,"items":[{"name":"더와이즈독서실","tel":"031-255-1143","addr":"경기도 수원시 장안구 정자동 878-9번지 현대프라자 501호","indutype":"보건위생 - 기타대인서비스","category":"beauty"},{"name":"스파월드","tel":"031-271-2580","addr":"경기도 수원시 장안구 정자동 878-9번지 현대프라자 401호","indutype":"보건위생 - 기타대인서비스","category":"beauty"},{"name":"오렌즈 정자점","tel":"031-271-5550","addr":"경기도 수원시 장안구 정자동 878-9번지 현대프라자 102호","indutype":"보건위생 - 안경","category":"beauty"}]},{"lat":"37.289931248","long":"127.00061524","imageIndex":13,"items":[{"name":"더진헤어","tel":"031-242-5592","addr":"경기도 수원시 장안구 정자동 75-10번지 2층","indutype":"보건위생 - 미용원","category":"beauty"}]},{"lat":"37.298120516","long":"126.98697927","imageIndex":13,"items":[{"name":"동남보건대학교 산학협력단","tel":"031-249-6366","addr":"경기도 수원시 장안구 정자동 937번지 동남보건대학교","indutype":"보건위생 - 기타대인서비스","category":"beauty"}]},{"lat":"37.301842267","long":"126.99150139","imageIndex":13,"items":[{"name":"라본느코스메틱(수원)","tel":"031-8246-2422","addr":"경기도 수원시 장안구 정자동 374-7번지 햇볕은쨍쨍어린이집 201호","indutype":"보건위생 - 화장품","category":"beauty"}]},{"lat":"37.290417812","long":"127.0012242","imageIndex":13,"items":[{"name":"럭셔리뷰티 장안점","tel":"031-8067-5252","addr":"경기도 수원시 장안구 정자동 76-15번지 스마트빌 A동 2층 201호","indutype":"보건위생 - 화장품","category":"beauty"}]},{"lat":"37.296066992","long":"126.99506618","imageIndex":13,"items":[{"name":"레오헤어","tel":"031-268-1002","addr":"경기도 수원시 장안구 정자동 874-5번지 202호","indutype":"보건위생 - 미용원","category":"beauty"},{"name":"지선스킨케어","tel":"031-253-5166","addr":"경기도 수원시 장안구 정자동 874-5번지 레몬스포렉스 306호","indutype":"보건위생 - 화장품","category":"beauty"}]},{"lat":"37.295481217","long":"126.99356625","imageIndex":13,"items":[{"name":"로뎀헤어","tel":"031-271-6887","addr":"경기도 수원시 장안구 정자동 877-4번지 119호","indutype":"보건위생 - 미용원","category":"beauty"},{"name":"명뷰티품","tel":"031-268-9799","addr":"경기도 수원시 장안구 정자동 877-4번지 2층 204호","indutype":"보건위생 - 미용원","category":"beauty"},{"name":"스타에스테틱","tel":"031-268-7548","addr":"경기도 수원시 장안구 정자동 877-4번지 정연메이져 202호","indutype":"보건위생 - 화장품","category":"beauty"},{"name":"에듀플렉스","tel":"031-268-1251","addr":"경기도 수원시 장안구 정자동 877-4번지 정연메이저 804호","indutype":"보건위생 - 기타대인서비스","category":"beauty"},{"name":"연세주니어상담센터","tel":"031-271-0050","addr":"경기도 수원시 장안구 정자동 877-4번지 210호 209호, 210호","indutype":"보건위생 - 기타대인서비스","category":"beauty"},{"name":"연세주니어상담센터","tel":"031-271-0050","addr":"경기도 수원시 장안구 정자동 877-4번지 정연메이져제209호 210호","indutype":"보건위생 - 기타대인서비스","category":"beauty"},{"name":"이니스프리 수원정자점","tel":"031-271-5678","addr":"경기도 수원시 장안구 정자동 877-4번지 정연메이져 102호","indutype":"보건위생 - 화장품","category":"beauty"},{"name":"조&박 의료기","tel":"031-269-7582","addr":"경기도 수원시 장안구 정자동 877-4번지 4층","indutype":"보건위생 - 의료용품","category":"beauty"}]},{"lat":"37.292877614","long":"127.00437063","imageIndex":13,"items":[{"name":"리치헤어","tel":"031-257-7420","addr":"경기도 수원시 장안구 정자동 69-29번지","indutype":"보건위생 - 미용원","category":"beauty"}]},{"lat":"37.292877553","long":"126.99881071","imageIndex":13,"items":[{"name":"머리못하는집","tel":"","addr":"경기도 수원시 장안구 정자동 42-5번지 1층","indutype":"보건위생 - 미용원","category":"beauty"},{"name":"연지곤지 화장품","tel":"","addr":"경기도 수원시 장안구 정자동 42-5번지 1층","indutype":"보건위생 - 화장품","category":"beauty"}]},{"lat":"37.289814093","long":"126.99966795","imageIndex":13,"items":[{"name":"머리이야기","tel":"031-256-8255","addr":"경기도 수원시 장안구 정자동 75-3번지 105호","indutype":"보건위생 - 미용원","category":"beauty"},{"name":"지니네일","tel":"031-253-0116","addr":"경기도 수원시 장안구 정자동 75-3번지 105호","indutype":"보건위생 - 피부미용실","category":"beauty"},{"name":"티나헤어","tel":"031-256-8255","addr":"경기도 수원시 장안구 정자동 75-3번지 105호","indutype":"보건위생 - 미용원","category":"beauty"}]},{"lat":"37.29357131","long":"127.00781038","imageIndex":13,"items":[{"name":"모모헤어","tel":"031-306-3420","addr":"경기도 수원시 장안구 정자동 14-16번지","indutype":"보건위생 - 미용원","category":"beauty"}]},{"lat":"37.295013051","long":"127.0025098","imageIndex":13,"items":[{"name":"미가온헤어","tel":"031-241-3060","addr":"경기도 수원시 장안구 정자동 39-28번지 1층","indutype":"보건위생 - 미용원","category":"beauty"}]},{"lat":"37.290147501","long":"127.00095355","imageIndex":13,"items":[{"name":"미건의료기","tel":"031-241-0647","addr":"경기도 수원시 장안구 정자동 76-1번지 성집빌딩 401호","indutype":"보건위생 - 의료용품","category":"beauty"},{"name":"아리따움수원정자동점","tel":"031-244-9592","addr":"경기도 수원시 장안구 정자동 76-1번지","indutype":"보건위생 - 화장품","category":"beauty"},{"name":"진이 화장품","tel":"031-223-5214","addr":"경기도 수원시 장안구 정자동 76-1번지 연세소아과의원 3층 301호","indutype":"보건위생 - 화장품","category":"beauty"}]},{"lat":"37.293120875","long":"127.00050236","imageIndex":13,"items":[{"name":"미네팜","tel":"070-7552-5005","addr":"경기도 수원시 장안구 정자동 41-6번지 수원식당 103호","indutype":"보건위생 - 의료용품","category":"beauty"}]},{"lat":"37.294841857","long":"127.00291581","imageIndex":13,"items":[{"name":"미방미용타운","tel":"031-254-4749","addr":"경기도 수원시 장안구 정자동 35-29번지","indutype":"보건위생 - 미용원","category":"beauty"}]},{"lat":"37.296148011","long":"126.99402857","imageIndex":13,"items":[{"name":"미소테라피","tel":"031-271-6262","addr":"경기도 수원시 장안구 정자동 876-2번지 투대일타운 407동 408호","indutype":"보건위생 - 화장품","category":"beauty"},{"name":"엠비프리덤(MB freedom)","tel":"031-271-6262","addr":"경기도 수원시 장안구 정자동 876-2번지 투대일타운 406호","indutype":"보건위생 - 화장품","category":"beauty"}]},{"lat":"37.294625545","long":"126.99894595","imageIndex":13,"items":[{"name":"미즈헤어","tel":"031-245-2458","addr":"경기도 수원시 장안구 정자동 29-23번지","indutype":"보건위생 - 미용원","category":"beauty"}]},{"lat":"37.290399733","long":"126.99881085","imageIndex":13,"items":[{"name":"미헤어매직","tel":"031-256-9388","addr":"경기도 수원시 장안구 정자동 74-16번지","indutype":"보건위생 - 미용원","category":"beauty"}]},{"lat":"37.291760309","long":"126.9997017","imageIndex":13,"items":[{"name":"베스트안경","tel":"031-254-4001","addr":"경기도 수원시 장안구 정자동 45-51번지 1층","indutype":"보건위생 - 안경","category":"beauty"}]},{"lat":"37.303068048","long":"126.99675734","imageIndex":13,"items":[{"name":"보노보노헤어","tel":"031-246-7606","addr":"경기도 수원시 장안구 정자동 297-4번지 경남프라임코아 104호","indutype":"보건위생 - 미용원","category":"beauty"},{"name":"아이숲아동발달센터","tel":"031-248-5333","addr":"경기도 수원시 장안구 정자동 297-4번지 경남프라임코아 203호","indutype":"보건위생 - 기타대인서비스","category":"beauty"}]},{"lat":"37.292787453","long":"126.99888966","imageIndex":13,"items":[{"name":"뷰티초이스","tel":"070-8292-0720","addr":"경기도 수원시 장안구 정자동 42-43번지 1층","indutype":"보건위생 - 화장품","category":"beauty"}]},{"lat":"37.29051691","long":"127.00036712","imageIndex":13,"items":[{"name":"뷰티플렉스칼라정자점","tel":"031-242-2932","addr":"경기도 수원시 장안구 정자동 74-33번지 1층","indutype":"보건위생 - 화장품","category":"beauty"}]},{"lat":"37.293346081","long":"126.99867535","imageIndex":13,"items":[{"name":"블링네일","tel":"031-243-3423","addr":"경기도 수원시 장안구 정자동 30-30번지 1층 101호","indutype":"보건위생 - 피부미용실","category":"beauty"},{"name":"외출준비중","tel":"031-252-8200","addr":"경기도 수원시 장안구 정자동 30-30번지 1층 102호","indutype":"보건위생 - 화장품","category":"beauty"},{"name":"외출준비중","tel":"031-252-8200","addr":"경기도 수원시 장안구 정자동 30-30번지 1층 101호","indutype":"보건위생 - 미용원","category":"beauty"}]},{"lat":"37.295175231","long":"127.00397594","imageIndex":13,"items":[{"name":"비타민헤어","tel":"031-256-7160","addr":"경기도 수원시 장안구 정자동 37-33번지","indutype":"보건위생 - 미용원","category":"beauty"}]},{"lat":"37.289958263","long":"126.99987094","imageIndex":13,"items":[{"name":"뿔라헤어","tel":"031-269-9980","addr":"경기도 수원시 장안구 정자동 75-2번지","indutype":"보건위생 - 미용원","category":"beauty"}]},{"lat":"37.294012864","long":"127.00633301","imageIndex":13,"items":[{"name":"사랑헤어샵","tel":"070-8834-3442","addr":"경기도 수원시 장안구 정자동 68-47번지","indutype":"보건위생 - 미용원","category":"beauty"}]},{"lat":"37.299229287","long":"126.991389","imageIndex":13,"items":[{"name":"살롱드 로이스","tel":"031-269-9123","addr":"경기도 수원시 장안구 정자동 334번지 파크빌라 1층 111호","indutype":"보건위생 - 미용원","category":"beauty"}]},{"lat":"37.291733298","long":"127.0052277","imageIndex":13,"items":[{"name":"생그린수원장안지사","tel":"031-254-3407","addr":"경기도 수원시 장안구 정자동 80-4번지 1층","indutype":"보건위생 - 화장품","category":"beauty"},{"name":"해어인어스","tel":"031-255-7555","addr":"경기도 수원시 장안구 정자동 80-4번지","indutype":"보건위생 - 미용원","category":"beauty"}]},{"lat":"37.304428264","long":"126.99214393","imageIndex":13,"items":[{"name":"샤론","tel":"031-242-6009","addr":"경기도 수원시 장안구 정자동 840-77번지 센터프라자 602호","indutype":"보건위생 - 화장품","category":"beauty"},{"name":"탑헤어","tel":"031-269-1447","addr":"경기도 수원시 장안구 정자동 840-77번지 센터프라자빌딩 106호","indutype":"보건위생 - 미용원","category":"beauty"}]},{"lat":"37.291985551","long":"126.99922803","imageIndex":13,"items":[{"name":"샤크존 화장품","tel":"031-248-0992","addr":"경기도 수원시 장안구 정자동 44-61번지 1층 좌측","indutype":"보건위생 - 화장품","category":"beauty"}]},{"lat":"37.289733011","long":"127.00008521","imageIndex":13,"items":[{"name":"선인안경원","tel":"031-351-7120","addr":"경기도 수원시 장안구 정자동 75-7번지 6층","indutype":"보건위생 - 안경","category":"beauty"}]},{"lat":"37.296904961","long":"126.99531421","imageIndex":13,"items":[{"name":"설영선헤어살롱","tel":"031-269-2066","addr":"경기도 수원시 장안구 정자동 874-1번지 선일프라자 1층 113호","indutype":"보건위생 - 미용원","category":"beauty"}]},{"lat":"37.291291785","long":"127.00008515","imageIndex":13,"items":[{"name":"세라젬로하스나비엘수원정자갤러리","tel":"031-256-1733","addr":"경기도 수원시 장안구 정자동 45-55번지 2층","indutype":"보건위생 - 의료용품","category":"beauty"}]},{"lat":"37.30623024","long":"126.99139922","imageIndex":13,"items":[{"name":"세이세이헤어클럽","tel":"070-8229-2586","addr":"경기도 수원시 장안구 정자동 535-15번지","indutype":"보건위생 - 미용원","category":"beauty"}]},{"lat":"37.292787427","long":"127.00758478","imageIndex":13,"items":[{"name":"수연헤어","tel":"031-258-8060","addr":"경기도 수원시 장안구 정자동 82-24번지 1층","indutype":"보건위생 - 미용원","category":"beauty"}]},{"lat":"37.293841691","long":"127.00028806","imageIndex":13,"items":[{"name":"쉬(shee)","tel":"031-307-7030","addr":"경기도 수원시 장안구 정자동 41-1번지 2층","indutype":"보건위생 - 화장품","category":"beauty"}]},{"lat":"37.294760682","long":"127.00731423","imageIndex":13,"items":[{"name":"스타일","tel":"031-251-2211","addr":"경기도 수원시 장안구 정자동 12-2번지","indutype":"보건위생 - 미용원","category":"beauty"}]},{"lat":"37.300400798","long":"126.99341902","imageIndex":13,"items":[{"name":"신성헤어샵","tel":"031-256-0575","addr":"경기도 수원시 장안구 정자동 313-1동신2차상가1층8호11호","indutype":"보건위생 - 미용원","category":"beauty"}]},{"lat":"37.291625187","long":"127.00128056","imageIndex":13,"items":[{"name":"심야미용실뷰티나잇","tel":"031-244-7570","addr":"경기도 수원시 장안구 정자동 73-1번지 101호","indutype":"보건위생 - 미용원","category":"beauty"}]},{"lat":"37.309536158","long":"126.98473211","imageIndex":13,"items":[{"name":"아리따움 아트리움점","tel":"031-268-7067","addr":"경기도 수원시 장안구 정자동 600-28번지 1층 118호","indutype":"보건위생 - 화장품","category":"beauty"},{"name":"이츠글라시스","tel":"031-268-8338","addr":"경기도 수원시 장안구 정자동 600-28번지 117호","indutype":"보건위생 - 안경","category":"beauty"},{"name":"헤어라보떼","tel":"031-269-2244","addr":"경기도 수원시 장안구 정자동 600-28번지 101호","indutype":"보건위생 - 미용원","category":"beauty"}]},{"lat":"37.296346229","long":"126.99392705","imageIndex":13,"items":[{"name":"아리따움 정자3동점","tel":"031-268-3002","addr":"경기도 수원시 장안구 정자동 876-1번지 엔타운 103호","indutype":"보건위생 - 화장품","category":"beauty"},{"name":"연 테라피","tel":"031-268-0660","addr":"경기도 수원시 장안구 정자동 876-1번지 엔타운 3층 303호","indutype":"보건위생 - 화장품","category":"beauty"}]},{"lat":"37.295373385","long":"127.00714509","imageIndex":13,"items":[{"name":"아모레수원조원특약점","tel":"031-246-3380","addr":"경기도 수원시 장안구 정자동 9-5번지 메디프라자 10층","indutype":"보건위생 - 화장품","category":"beauty"},{"name":"아모레수원조원특약점","tel":"031-246-3380","addr":"경기도 수원시 장안구 정자동 9-5번지 메디플라자 10층 정자동,메디프라자","indutype":"보건위생 - 화장품","category":"beauty"},{"name":"아모레외판","tel":"031-246-3380","addr":"경기도 수원시 장안구 정자동 9-5번지 메디플라자 1001호","indutype":"보건위생 - 화장품","category":"beauty"},{"name":"아모레카운셀러","tel":"031-246-3380","addr":"경기도 수원시 장안구 정자동 9-5번지 메디컬프라자 10층","indutype":"보건위생 - 화장품","category":"beauty"},{"name":"아모레카운셀러","tel":"031-246-3380","addr":"경기도 수원시 장안구 정자동 9-5번지 메디플라자 1001호","indutype":"보건위생 - 화장품","category":"beauty"},{"name":"아모레카운셀러","tel":"031-246-3380","addr":"경기도 수원시 장안구 정자동 9-5번지 메디플라자 10층","indutype":"보건위생 - 화장품","category":"beauty"},{"name":"아모레카운셀러","tel":"031-246-3380","addr":"경기도 수원시 장안구 정자동 9-5번지 메디플라자 10층","indutype":"보건위생 - 화장품","category":"beauty"},{"name":"아모레카운셀러","tel":"031-246-3380","addr":"경기도 수원시 장안구 정자동 9-5번지","indutype":"보건위생 - 화장품","category":"beauty"},{"name":"아모레퍼시픽수원조원특약점","tel":"031-246-3380","addr":"경기도 수원시 장안구 정자동 9-5번지 메디프라자 10층","indutype":"보건위생 - 화장품","category":"beauty"}]},{"lat":"37.291679193","long":"126.99892355","imageIndex":13,"items":[{"name":"아모레퍼시픽 신동탄점","tel":"031-239-5361","addr":"경기도 수원시 장안구 정자동 44-18번지 202호","indutype":"보건위생 - 화장품","category":"beauty"}]},{"lat":"37.291453982","long":"127.00514875","imageIndex":13,"items":[{"name":"약손피부","tel":"031-255-9497","addr":"경기도 수원시 장안구 정자동 79-17번지 2층","indutype":"보건위생 - 화장품","category":"beauty"},{"name":"젤네일전문샵 (MNAIL)","tel":"031-0000-0000","addr":"경기도 수원시 장안구 정자동 79-17번지 1층","indutype":"보건위생 - 피부미용실","category":"beauty"}]},{"lat":"37.307383184","long":"126.98810531","imageIndex":13,"items":[{"name":"에이앤화장품(저스트점)","tel":"070-7862-1697","addr":"경기도 수원시 장안구 정자동 945번지 수원SK스카이뷰 108동 1102호","indutype":"보건위생 - 화장품","category":"beauty"}]},{"lat":"37.305455423","long":"126.99206483","imageIndex":13,"items":[{"name":"에이치 헤어살롱","tel":"031-268-9979","addr":"경기도 수원시 장안구 정자동 434-10번지 외 2필지 동우빌딩 106호","indutype":"보건위생 - 미용원","category":"beauty"}]},{"lat":"37.301896367","long":"126.99191871","imageIndex":13,"items":[{"name":"엔오(N5)헤어","tel":"031-252-8633","addr":"경기도 수원시 장안구 정자동 375-5번지 1층","indutype":"보건위생 - 미용원","category":"beauty"}]},{"lat":"37.291931537","long":"127.00137078","imageIndex":13,"items":[{"name":"엠제이(MJ)헤어","tel":"070-7757-7600","addr":"경기도 수원시 장안구 정자동 46-26번지","indutype":"보건위생 - 미용원","category":"beauty"}]},{"lat":"37.289543782","long":"126.99953263","imageIndex":13,"items":[{"name":"여성체형관리","tel":"070-9597-8567","addr":"경기도 수원시 장안구 정자동 75-5번지 우측 3번째","indutype":"보건위생 - 화장품","category":"beauty"}]},{"lat":"37.291814373","long":"126.99981447","imageIndex":13,"items":[{"name":"연헤어","tel":"070-7725-0406","addr":"경기도 수원시 장안구 정자동 45-50번지","indutype":"보건위생 - 미용원","category":"beauty"}]},{"lat":"37.291760261","long":"126.99825817","imageIndex":13,"items":[{"name":"예쁜머리미용실","tel":"031-258-3885","addr":"경기도 수원시 장안구 정자동 43-26번지 경우주택 1층","indutype":"보건위생 - 미용원","category":"beauty"}]},{"lat":"37.295706834","long":"127.00411129","imageIndex":13,"items":[{"name":"예쁜헤어스타일","tel":"031-207-2119","addr":"경기도 수원시 장안구 정자동 36-2번지","indutype":"보건위생 - 미용원","category":"beauty"},{"name":"참사랑 심리학습연구소","tel":"031-246-3339","addr":"경기도 수원시 장안구 정자동 36-2번지 2층","indutype":"보건위생 - 기타대인서비스","category":"beauty"},{"name":"참사랑심리학습연구소","tel":"031-246-3339","addr":"경기도 수원시 장안구 정자동 36-2번지 2층","indutype":"보건위생 - 기타대인서비스","category":"beauty"}]},{"lat":"37.294931611","long":"126.99381443","imageIndex":13,"items":[{"name":"우리두리아동발달센터","tel":"031-268-7060","addr":"경기도 수원시 장안구 정자동 878-8번지 금강프라자 5층","indutype":"보건위생 - 기타대인서비스","category":"beauty"},{"name":"헤어팩토리","tel":"031-269-6020","addr":"경기도 수원시 장안구 정자동 878-8번지 금강프라자 2층 201호","indutype":"보건위생 - 미용원","category":"beauty"}]},{"lat":"37.296400561","long":"126.99886691","imageIndex":13,"items":[{"name":"우지윤헤어스토리","tel":"031-251-2357","addr":"경기도 수원시 장안구 정자동 25-3번지 다인동물병원 101호","indutype":"보건위생 - 미용원","category":"beauty"}]},{"lat":"37.290985433","long":"126.99994984","imageIndex":13,"items":[{"name":"웰리온","tel":"031-244-8264","addr":"경기도 수원시 장안구 정자동 74-44번지 지층","indutype":"보건위생 - 의료용품","category":"beauty"}]},{"lat":"37.294400339","long":"127.00095344","imageIndex":13,"items":[{"name":"유민헤어","tel":"031-255-1862","addr":"경기도 수원시 장안구 정자동 32-30번지 1층","indutype":"보건위생 - 미용원","category":"beauty"}]},{"lat":"37.290931404","long":"127.00188956","imageIndex":13,"items":[{"name":"유진헤어칼라","tel":"","addr":"경기도 수원시 장안구 정자동 73-13번지","indutype":"보건위생 - 미용원","category":"beauty"}]},{"lat":"37.292733377","long":"127.00728028","imageIndex":13,"items":[{"name":"윤승룡헤어","tel":"","addr":"경기도 수원시 장안구 정자동 81-4번지 101호","indutype":"보건위생 - 미용원","category":"beauty"}]},{"lat":"37.291372903","long":"127.00152867","imageIndex":13,"items":[{"name":"윤헤어샵","tel":"031-257-2252","addr":"경기도 수원시 장안구 정자동 73-51번지 103호","indutype":"보건위생 - 미용원","category":"beauty"}]},{"lat":"37.293958803","long":"126.99947605","imageIndex":13,"items":[{"name":"은헤어","tel":"031-293-7695","addr":"경기도 수원시 장안구 정자동 30-26번지 102호","indutype":"보건위생 - 미용원","category":"beauty"}]},{"lat":"37.295265014","long":"126.9941189","imageIndex":13,"items":[{"name":"이순영미용실","tel":"031-268-8981","addr":"경기도 수원시 장안구 정자동 878-10번지 연번지 102호","indutype":"보건위생 - 미용원","category":"beauty"}]},{"lat":"37.295787932","long":"127.00342332","imageIndex":13,"items":[{"name":"이지다헤어","tel":"031-302-7080","addr":"경기도 수원시 장안구 정자동 35-8번지 1층","indutype":"보건위생 - 미용원","category":"beauty"}]},{"lat":"37.292985737","long":"127.00431424","imageIndex":13,"items":[{"name":"이지비아헤어","tel":"031-255-1336","addr":"경기도 수원시 장안구 정자동 69-15번지","indutype":"보건위생 - 미용원","category":"beauty"}]},{"lat":"37.29481479","long":"127.00581425","imageIndex":13,"items":[{"name":"자연머리방","tel":"031-258-3646","addr":"경기도 수원시 장안구 정자동 51-39번지","indutype":"보건위생 - 미용원","category":"beauty"}]},{"lat":"37.301094406","long":"126.99138872","imageIndex":13,"items":[{"name":"자유헤어","tel":"031-225-4335","addr":"경기도 수원시 장안구 정자동 327-2번지","indutype":"보건위생 - 미용원","category":"beauty"}]},{"lat":"37.292877607","long":"127.00097604","imageIndex":13,"items":[{"name":"장셈헤어샵","tel":"031-291-9846","addr":"경기도 수원시 장안구 정자동 46-36번지","indutype":"보건위생 - 미용원","category":"beauty"}]},{"lat":"37.296481484","long":"126.9953932","imageIndex":13,"items":[{"name":"정자점 칩꾸아프","tel":"070-8822-0303","addr":"경기도 수원시 장안구 정자동 874-2번지 롯데프라자 205-1호","indutype":"보건위생 - 미용원","category":"beauty"}]},{"lat":"37.294066961","long":"127.00477666","imageIndex":13,"items":[{"name":"제이에스헤어","tel":"031-000-0000","addr":"경기도 수원시 장안구 정자동 50-27번지 101호","indutype":"보건위생 - 미용원","category":"beauty"},{"name":"제이에스헤어(J.S헤어)","tel":"031-256-7925","addr":"경기도 수원시 장안구 정자동 50-27번지 1층","indutype":"보건위생 - 미용원","category":"beauty"}]},{"lat":"37.290039362","long":"127.00014159","imageIndex":13,"items":[{"name":"제이엠테크(JM TECH)","tel":"031-8025-3660","addr":"경기도 수원시 장안구 정자동 75-13번지","indutype":"보건위생 - 기타대인서비스","category":"beauty"},{"name":"하미경헤어","tel":"070-4095-3344","addr":"경기도 수원시 장안구 정자동 75-13번지 1층","indutype":"보건위생 - 미용원","category":"beauty"}]},{"lat":"37.295238184","long":"127.00830673","imageIndex":13,"items":[{"name":"제이헤어","tel":"031-256-8020","addr":"경기도 수원시 장안구 정자동 9-1번지","indutype":"보건위생 - 미용원","category":"beauty"}]},{"lat":"37.296147414","long":"126.9880624","imageIndex":13,"items":[{"name":"조아뜨라헤어&뷰티샵","tel":"031-244-0236","addr":"경기도 수원시 장안구 정자동 870-1번지 백설마을현대코오롱 상가 1층 110호","indutype":"보건위생 - 미용원","category":"beauty"}]},{"lat":"37.304040785","long":"126.99172665","imageIndex":13,"items":[{"name":"주식회사 비티앤에스","tel":"031-1588-5957","addr":"경기도 수원시 장안구 정자동 444-22번지","indutype":"보건위생 - 화장품","category":"beauty"}]},{"lat":"37.294292186","long":"126.99961137","imageIndex":13,"items":[{"name":"지앤유헤어","tel":"031-242-2507","addr":"경기도 수원시 장안구 정자동 31-8번지 1층","indutype":"보건위생 - 미용원","category":"beauty"}]},{"lat":"37.291237731","long":"127.00042348","imageIndex":13,"items":[{"name":"첫눈에반헤어","tel":"031-234-2246","addr":"경기도 수원시 장안구 정자동 73-42번지 1층","indutype":"보건위생 - 미용원","category":"beauty"}]},{"lat":"37.293066627","long":"127.00995312","imageIndex":13,"items":[{"name":"초콜렛헤어","tel":"031-000-0000","addr":"경기도 수원시 장안구 정자동 5-9번지 1층","indutype":"보건위생 - 미용원","category":"beauty"}]},{"lat":"37.295986144","long":"127.00103235","imageIndex":13,"items":[{"name":"캔디미용실","tel":"031-255-5343","addr":"경기도 수원시 장안구 정자동 33-38번지","indutype":"보건위생 - 미용원","category":"beauty"}]},{"lat":"37.295571664","long":"127.00519399","imageIndex":13,"items":[{"name":"컷트클럽","tel":"031-254-5082","addr":"경기도 수원시 장안구 정자동 36-22번지","indutype":"보건위생 - 미용원","category":"beauty"}]},{"lat":"37.291877479","long":"127.00173166","imageIndex":13,"items":[{"name":"태화청정","tel":"031-255-3535","addr":"경기도 수원시 장안구 정자동 72-19번지 1층","indutype":"보건위생 - 화장품","category":"beauty"}]},{"lat":"37.291039531","long":"127.0031188","imageIndex":13,"items":[{"name":"포비젼콘택트렌즈","tel":"031-258-7708","addr":"경기도 수원시 장안구 정자동 79-1번지 일봉빌딩 5층 503호","indutype":"보건위생 - 안경","category":"beauty"}]},{"lat":"37.294625611","long":"127.00275791","imageIndex":13,"items":[{"name":"플러스상사(PLUS상사)","tel":"031-893-9198","addr":"경기도 수원시 장안구 정자동 38-2번지 대림빌라 302호","indutype":"보건위생 - 미용재료","category":"beauty"}]},{"lat":"37.294868558","long":"126.99406256","imageIndex":13,"items":[{"name":"하나로안경콘택트","tel":"031-269-8033","addr":"경기도 수원시 장안구 정자동 878-5번지 하나로빌딩 103호","indutype":"보건위생 - 안경","category":"beauty"}]},{"lat":"37.305788867","long":"126.99280924","imageIndex":13,"items":[{"name":"해피랑 힐링센터","tel":"031-269-7574","addr":"경기도 수원시 장안구 정자동 429-4번지 2층 다모아단란주점","indutype":"보건위생 - 의료용품","category":"beauty"}]},{"lat":"37.298508811","long":"126.99575392","imageIndex":13,"items":[{"name":"헤어매니아","tel":"031-271-1709","addr":"경기도 수원시 장안구 정자동 873-3 벽산A상가 105호","indutype":"보건위생 - 미용원","category":"beauty"}]},{"lat":"37.294733689","long":"126.99961135","imageIndex":13,"items":[{"name":"헤어민","tel":"031-252-9220","addr":"경기도 수원시 장안구 정자동 31-1번지 103호","indutype":"보건위생 - 미용원","category":"beauty"}]},{"lat":"37.296427369","long":"126.99459245","imageIndex":13,"items":[{"name":"헤어보스","tel":"031-207-6052","addr":"경기도 수원시 장안구 정자동 875번지 선일주차타운빌딩 111호","indutype":"보건위생 - 미용원","category":"beauty"}]},{"lat":"37.302680115","long":"126.99047486","imageIndex":13,"items":[{"name":"헤어짱","tel":"031-269-9301","addr":"경기도 수원시 장안구 정자동 490-1번지","indutype":"보건위생 - 미용원","category":"beauty"}]},{"lat":"37.292481129","long":"126.99972422","imageIndex":13,"items":[{"name":"헤어짱","tel":"031-245-7822","addr":"경기도 수원시 장안구 정자동 42-19번지 1층","indutype":"보건위생 - 미용원","category":"beauty"}]},{"lat":"37.306041049","long":"126.9916474","imageIndex":13,"items":[{"name":"헤어코디","tel":"031-241-1388","addr":"경기도 수원시 장안구 정자동 436-2","indutype":"보건위생 - 미용원","category":"beauty"}]},{"lat":"37.294148026","long":"126.99972415","imageIndex":13,"items":[{"name":"헤어클럽","tel":"031-245-5575","addr":"경기도 수원시 장안구 정자동 31-2번지","indutype":"보건위생 - 미용원","category":"beauty"}]},{"lat":"37.29457154","long":"127.00441578","imageIndex":13,"items":[{"name":"헤어토픽","tel":"031-251-2025","addr":"경기도 수원시 장안구 정자동 50-1번지","indutype":"보건위생 - 미용원","category":"beauty"}]},{"lat":"37.292841501","long":"126.99850622","imageIndex":13,"items":[{"name":"헤어팜팜","tel":"031-255-4379","addr":"경기도 수원시 장안구 정자동 43-105번지 신협 105호","indutype":"보건위생 - 미용원","category":"beauty"}]},{"lat":"37.291877431","long":"126.99930698","imageIndex":13,"items":[{"name":"화장품","tel":"031-253-3537","addr":"경기도 수원시 장안구 정자동 44-60번지 1층","indutype":"보건위생 - 화장품","category":"beauty"}]}]