[{"lat":"37.831557181","long":"127.06898117","imageIndex":4,"items":[{"name":"19포차","tel":"070-4112-5062","addr":"경기도 양주시 고암동 129번지 동아프라자 1층 106호,107,108호","indutype":"일반휴게음식 - 일반한식","category":"restaurant"},{"name":"유로코피자 양주점","tel":"031-859-2501","addr":"경기도 양주시 고암동 129번지 동아프라자 1층 109호","indutype":"일반휴게음식 - 서양음식","category":"restaurant"}]},{"lat":"37.830639294","long":"127.06703795","imageIndex":4,"items":[{"name":"1박2일포차","tel":"031-865-8735","addr":"경기도 양주시 고암동 156번지","indutype":"일반휴게음식 - 주점","category":"restaurant"}]},{"lat":"37.830891681","long":"127.06681099","imageIndex":4,"items":[{"name":"49대패삼겹살","tel":"031-857-9954","addr":"경기도 양주시 고암동 134-7번지 1층","indutype":"일반휴게음식 - 일반한식","category":"restaurant"}]},{"lat":"37.831305705","long":"127.06756105","imageIndex":4,"items":[{"name":"79대포양주고암점","tel":"070-8426-4233","addr":"경기도 양주시 고암동 136-1번지","indutype":"일반휴게음식 - 일반한식","category":"restaurant"}]},{"lat":"37.838890074","long":"127.07033959","imageIndex":4,"items":[{"name":"93회수산","tel":"","addr":"경기도 양주시 고암동 181-3번지 1층 101호","indutype":"일반휴게음식 - 일반한식","category":"restaurant"},{"name":"올리앤","tel":"031-868-4101","addr":"경기도 양주시 고암동 181-3번지 1동 2층","indutype":"일반휴게음식 - 일반한식","category":"restaurant"}]},{"lat":"37.830638588","long":"127.06832153","imageIndex":4,"items":[{"name":"가장맛있는족발 고암점","tel":"031-864-5849","addr":"경기도 양주시 고암동 159-1번지 1층 전체","indutype":"일반휴게음식 - 일반한식","category":"restaurant"}]},{"lat":"37.838754822","long":"127.0705326","imageIndex":4,"items":[{"name":"강쇠장어","tel":"031-859-8918","addr":"경기도 양주시 고암동 182-3번지 1층","indutype":"일반휴게음식 - 일반한식","category":"restaurant"},{"name":"양주쭈꾸미","tel":"031-859-5955","addr":"경기도 양주시 고암동 182-3번지 1층","indutype":"일반휴게음식 - 일반한식","category":"restaurant"},{"name":"원황성","tel":"031-837-8513","addr":"경기도 양주시 고암동 182-3번지","indutype":"일반휴게음식 - 일반한식","category":"restaurant"}]},{"lat":"37.831304648","long":"127.06945803","imageIndex":4,"items":[{"name":"개성생고기","tel":"031-859-5988","addr":"경기도 양주시 고암동 146-1번지 101호","indutype":"일반휴게음식 - 일반한식","category":"restaurant"}]},{"lat":"37.830170593","long":"127.06742375","imageIndex":4,"items":[{"name":"거시기닭갈비","tel":"031-859-9989","addr":"경기도 양주시 고암동 157-6번지","indutype":"일반휴게음식 - 일반한식","category":"restaurant"}]},{"lat":"37.83249997","long":"127.07445722","imageIndex":4,"items":[{"name":"걸작떡볶이(양주점)","tel":"031-867-9977","addr":"경기도 양주시 고암동 585번지 A동 1층","indutype":"일반휴게음식 - 일반한식","category":"restaurant"}]},{"lat":"37.830891072","long":"127.06792418","imageIndex":4,"items":[{"name":"경기생고기전문점","tel":"031-858-6692","addr":"경기도 양주시 고암동 140-7번지","indutype":"일반휴게음식 - 일반한식","category":"restaurant"}]},{"lat":"37.809870757","long":"127.0702337","imageIndex":4,"items":[{"name":"경동대점 오니기리와 이규동","tel":"02-598-0290","addr":"경기도 양주시 고암동 417-8번지","indutype":"일반휴게음식 - 일식·회집","category":"restaurant"},{"name":"오니기리와이규동 경동대학점","tel":"02-1600-8904","addr":"경기도 양주시 고암동 417-8번지 경동대학교양주캠퍼스 2층","indutype":"일반휴게음식 - 일반한식","category":"restaurant"},{"name":"코베티 경동대 양주점","tel":"031-852-0276","addr":"경기도 양주시 고암동 417-8번지 학생회관 양주캠퍼스 지하1층 일부 경동대학교","indutype":"일반휴게음식 - 서양음식","category":"restaurant"}]},{"lat":"37.831169288","long":"127.06984412","imageIndex":4,"items":[{"name":"고가보신탕","tel":"031-866-3244","addr":"경기도 양주시 고암동 148-3번지","indutype":"일반휴게음식 - 일반한식","category":"restaurant"}]},{"lat":"37.831035423","long":"127.06756081","imageIndex":4,"items":[{"name":"고향부대찌개","tel":"031-859-5627","addr":"경기도 양주시 고암동 136-5번지","indutype":"일반휴게음식 - 일반한식","category":"restaurant"}]},{"lat":"37.830638468","long":"127.06853735","imageIndex":4,"items":[{"name":"공원소갈비살","tel":"","addr":"경기도 양주시 고암동 160번지","indutype":"일반휴게음식 - 일반한식","category":"restaurant"}]},{"lat":"37.831304507","long":"127.06970793","imageIndex":4,"items":[{"name":"구들장생고기","tel":"031-858-7892","addr":"경기도 양주시 고암동 148번지 1층","indutype":"일반휴게음식 - 일반한식","category":"restaurant"}]},{"lat":"37.831531693","long":"127.06617542","imageIndex":4,"items":[{"name":"굴사냥","tel":"031-868-9220","addr":"경기도 양주시 고암동 126번지 1층","indutype":"일반휴게음식 - 일반한식","category":"restaurant"},{"name":"노아","tel":"031-858-3020","addr":"경기도 양주시 고암동 126번지 1층","indutype":"일반휴게음식 - 일반한식","category":"restaurant"}]},{"lat":"37.830638252","long":"127.06892356","imageIndex":4,"items":[{"name":"금복정","tel":"031-866-2662","addr":"경기도 양주시 고암동 166번지 박씨근생1층","indutype":"일반휴게음식 - 일반한식","category":"restaurant"}]},{"lat":"37.830504078","long":"127.06717414","imageIndex":4,"items":[{"name":"기똥찬족발","tel":"031-858-1133","addr":"경기도 양주시 고암동 156-3번지 1층","indutype":"일반휴게음식 - 일반한식","category":"restaurant"}]},{"lat":"37.83089042","long":"127.06909417","imageIndex":4,"items":[{"name":"까스까스","tel":"031-858-0034","addr":"경기도 양주시 고암동 144-7번지 101호","indutype":"일반휴게음식 - 일반한식","category":"restaurant"},{"name":"코뚜레","tel":"031-868-5176","addr":"경기도 양주시 고암동 144-7번지 A동 1층 101호","indutype":"일반휴게음식 - 일반한식","category":"restaurant"}]},{"lat":"37.830638808","long":"127.06792396","imageIndex":4,"items":[{"name":"꽁군이네곱창","tel":"031-863-2228","addr":"경기도 양주시 고암동 158-1번지","indutype":"일반휴게음식 - 일반한식","category":"restaurant"},{"name":"뉴욕피자(양주점)","tel":"031-865-8484","addr":"경기도 양주시 고암동 158-1번지 1층 일부","indutype":"일반휴게음식 - 서양음식","category":"restaurant"}]},{"lat":"37.832257134","long":"127.07376407","imageIndex":4,"items":[{"name":"나르는꿀꿀이","tel":"031-859-9933","addr":"경기도 양주시 고암동 585-4번지","indutype":"일반휴게음식 - 일반한식","category":"restaurant"}]},{"lat":"37.830890516","long":"127.06892378","imageIndex":4,"items":[{"name":"낙지한마리","tel":"031-865-2153","addr":"경기도 양주시 고암동 144-6번지 101호","indutype":"일반휴게음식 - 일반한식","category":"restaurant"},{"name":"묵호집","tel":"031-861-6001","addr":"경기도 양주시 고암동 144-6번지 1층","indutype":"일반휴게음식 - 일반한식","category":"restaurant"}]},{"lat":"37.831312965","long":"127.07067347","imageIndex":4,"items":[{"name":"다영이네포차","tel":"031-864-6677","addr":"경기도 양주시 고암동 150-1번지 1층","indutype":"일반휴게음식 - 일반한식","category":"restaurant"},{"name":"돈가네곱창","tel":"031-863-9253","addr":"경기도 양주시 고암동 150-1번지 101호","indutype":"일반휴게음식 - 일반한식","category":"restaurant"}]},{"lat":"37.831557875","long":"127.06773166","imageIndex":4,"items":[{"name":"다찜(고암점)","tel":"031-863-3233","addr":"경기도 양주시 고암동 128-1번지 104호","indutype":"일반휴게음식 - 일반한식","category":"restaurant"},{"name":"닭꼬치","tel":"031-527-0217","addr":"경기도 양주시 고암동 128-1번지","indutype":"일반휴게음식 - 일반한식","category":"restaurant"},{"name":"산청들깨수제비전문점","tel":"031-858-2597","addr":"경기도 양주시 고암동 128-1번지 세진프라자 102호","indutype":"일반휴게음식 - 일반한식","category":"restaurant"}]},{"lat":"37.830673989","long":"127.06945747","imageIndex":4,"items":[{"name":"닥치고 곱창","tel":"031-840-7664","addr":"경기도 양주시 고암동 166-3번지 102호","indutype":"일반휴게음식 - 일반한식","category":"restaurant"}]},{"lat":"37.830332763","long":"127.06742389","imageIndex":4,"items":[{"name":"단골돼지","tel":"031-861-3535","addr":"경기도 양주시 고암동 157-4번지","indutype":"일반휴게음식 - 일반한식","category":"restaurant"}]},{"lat":"37.831035285","long":"127.06781072","imageIndex":4,"items":[{"name":"달려라 달봉이떡볶이 양주점","tel":"031-861-6676","addr":"경기도 양주시 고암동 140-4번지","indutype":"일반휴게음식 - 스넥","category":"restaurant"}]},{"lat":"37.83155688","long":"127.06951505","imageIndex":4,"items":[{"name":"독도회수산","tel":"031-863-8256","addr":"경기도 양주시 고암동 129-2번지 한성빌딩","indutype":"일반휴게음식 - 일반한식","category":"restaurant"}]},{"lat":"37.83063867","long":"127.06817386","imageIndex":4,"items":[{"name":"돈통마늘보쌈 양주덕정점","tel":"031-859-0053","addr":"경기도 양주시 고암동 159번지 101호","indutype":"일반휴게음식 - 일반한식","category":"restaurant"}]},{"lat":"37.832365035","long":"127.07411631","imageIndex":4,"items":[{"name":"돌쇠옛날통닭","tel":"031-858-9288","addr":"경기도 양주시 고암동 585-2번지 1층","indutype":"일반휴게음식 - 스넥","category":"restaurant"}]},{"lat":"37.831557365","long":"127.06865175","imageIndex":4,"items":[{"name":"동해회수산","tel":"031-858-0050","addr":"경기도 양주시 고암동 128-5번지 양덕프라자 106호","indutype":"일반휴게음식 - 일식·회집","category":"restaurant"},{"name":"부어치킨","tel":"031-857-8899","addr":"경기도 양주시 고암동 128-5번지","indutype":"일반휴게음식 - 주점","category":"restaurant"},{"name":"신전떡볶이 양주덕정점","tel":"031-862-0281","addr":"경기도 양주시 고암동 128-5번지 1층 105호","indutype":"일반휴게음식 - 스넥","category":"restaurant"},{"name":"오구피자(덕정점)","tel":"031-859-5982","addr":"경기도 양주시 고암동 128-5번지 1층","indutype":"일반휴게음식 - 서양음식","category":"restaurant"}]},{"lat":"37.834475203","long":"127.07078996","imageIndex":4,"items":[{"name":"또래오래","tel":"031-859-9905","addr":"경기도 양주시 고암동 122-4번지 동안마을 상가 104호","indutype":"일반휴게음식 - 스넥","category":"restaurant"}]},{"lat":"37.831306188","long":"127.06667504","imageIndex":4,"items":[{"name":"리얼호프","tel":"031-861-7292","addr":"경기도 양주시 고암동 134번지","indutype":"일반휴게음식 - 일반한식","category":"restaurant"}]},{"lat":"37.831305761","long":"127.06745882","imageIndex":4,"items":[{"name":"맛나슈퍼 (양주고암점)","tel":"031-858-2644","addr":"경기도 양주시 고암동 136번지","indutype":"일반휴게음식 - 주점","category":"restaurant"}]},{"lat":"37.832418988","long":"127.07428675","imageIndex":4,"items":[{"name":"맥주고소주대학","tel":"031-862-9282","addr":"경기도 양주시 고암동 585-1번지 A동 1층","indutype":"일반휴게음식 - 주점","category":"restaurant"}]},{"lat":"37.831170364","long":"127.06792443","imageIndex":4,"items":[{"name":"맥주마켓","tel":"070-8849-5220","addr":"경기도 양주시 고암동 140-3번지","indutype":"일반휴게음식 - 주점","category":"restaurant"}]},{"lat":"37.831557994","long":"127.06751583","imageIndex":4,"items":[{"name":"명성가츠","tel":"","addr":"경기도 양주시 고암동 128번지 1층","indutype":"일반휴게음식 - 서양음식","category":"restaurant"}]},{"lat":"37.825972364","long":"127.06712478","imageIndex":4,"items":[{"name":"명신식당","tel":"031-861-9254","addr":"경기도 양주시 고암동 540-1번지 (고암동외1필지540-3)","indutype":"일반휴게음식 - 일반한식","category":"restaurant"}]},{"lat":"37.830891558","long":"127.06703817","imageIndex":4,"items":[{"name":"명태본가","tel":"031-859-7517","addr":"경기도 양주시 고암동 135-6번지 1층","indutype":"일반휴게음식 - 일반한식","category":"restaurant"}]},{"lat":"37.831170639","long":"127.06742462","imageIndex":4,"items":[{"name":"모이모이닭갈비","tel":"031-861-8892","addr":"경기도 양주시 고암동 136-2번지 1층","indutype":"일반휴게음식 - 일반한식","category":"restaurant"}]},{"lat":"37.831304853","long":"127.06909454","imageIndex":4,"items":[{"name":"문스포차(Moon's 포차)","tel":"031-862-3191","addr":"경기도 양주시 고암동 144-1번지","indutype":"일반휴게음식 - 일반한식","category":"restaurant"}]},{"lat":"37.817195154","long":"127.0707287","imageIndex":4,"items":[{"name":"물레방아","tel":"031-867-7890","addr":"경기도 양주시 고암동 451-5번지 가동 1층","indutype":"일반휴게음식 - 일반한식","category":"restaurant"},{"name":"풍차","tel":"031-861-7890","addr":"경기도 양주시 고암동 451-5번지","indutype":"일반휴게음식 - 일반한식","category":"restaurant"}]},{"lat":"37.820952264","long":"127.07042549","imageIndex":4,"items":[{"name":"밀밭칼국수","tel":"031-861-8833","addr":"경기도 양주시 고암동 342-3번지 1층","indutype":"일반휴게음식 - 일반한식","category":"restaurant"}]},{"lat":"37.832310738","long":"127.07451384","imageIndex":4,"items":[{"name":"바움","tel":"031-859-2515","addr":"경기도 양주시 고암동 586-1번지 1층","indutype":"일반휴게음식 - 일반한식","category":"restaurant"}]},{"lat":"37.830674098","long":"127.06926436","imageIndex":4,"items":[{"name":"백년삼계탕","tel":"031-867-4733","addr":"경기도 양주시 고암동 166-2번지 1층","indutype":"일반휴게음식 - 일반한식","category":"restaurant"}]},{"lat":"37.830639008","long":"127.06756047","imageIndex":4,"items":[{"name":"백정이네","tel":"031-858-2363","addr":"경기도 양주시 고암동 157-1번지 1층","indutype":"일반휴게음식 - 일반한식","category":"restaurant"}]},{"lat":"37.830638865","long":"127.06782173","imageIndex":4,"items":[{"name":"봉쥬르","tel":"031-858-8770","addr":"경기도 양주시 고암동 158번지","indutype":"일반휴게음식 - 서양음식","category":"restaurant"},{"name":"윤가네일품요리","tel":"031-858-8007","addr":"경기도 양주시 고암동 158번지","indutype":"일반휴게음식 - 일반한식","category":"restaurant"}]},{"lat":"37.831035222","long":"127.06792431","imageIndex":4,"items":[{"name":"부라더포차","tel":"031-861-8255","addr":"경기도 양주시 고암동 140-5번지 101호","indutype":"일반휴게음식 - 일반한식","category":"restaurant"}]},{"lat":"37.832194205","long":"127.07353682","imageIndex":4,"items":[{"name":"부르쥬아복덕방","tel":"031-866-2555","addr":"경기도 양주시 고암동 588번지","indutype":"일반휴게음식 - 일반한식","category":"restaurant"},{"name":"이가네 족발 맥꼬","tel":"031-858-1707","addr":"경기도 양주시 고암동 588번지 104호","indutype":"일반휴게음식 - 일반한식","category":"restaurant"}]},{"lat":"37.831305917","long":"127.06717484","imageIndex":4,"items":[{"name":"부원생고기식당","tel":"031-858-5392","addr":"경기도 양주시 고암동 135-1번지 1층","indutype":"일반휴게음식 - 일반한식","category":"restaurant"}]},{"lat":"37.832364711","long":"127.0746502","imageIndex":4,"items":[{"name":"부추삼겹살","tel":"031-863-7771","addr":"경기도 양주시 고암동 586번지 1층","indutype":"일반휴게음식 - 일반한식","category":"restaurant"}]},{"lat":"37.830646852","long":"127.06965055","imageIndex":4,"items":[{"name":"브라운씨(Brown.C)","tel":"","addr":"경기도 양주시 고암동 166-4번지 1층","indutype":"일반휴게음식 - 서양음식","category":"restaurant"}]},{"lat":"37.830891272","long":"127.06756069","imageIndex":4,"items":[{"name":"비어포차","tel":"031-866-7779","addr":"경기도 양주시 고암동 136-7번지 1층","indutype":"일반휴게음식 - 주점","category":"restaurant"}]},{"lat":"37.832311075","long":"127.07395723","imageIndex":4,"items":[{"name":"뺑덕어멈","tel":"031-861-5785","addr":"경기도 양주시 고암동 585-3번지 101,102호 뺑덕어멈","indutype":"일반휴게음식 - 일반한식","category":"restaurant"}]},{"lat":"37.809590384","long":"127.0720958","imageIndex":4,"items":[{"name":"뽕스","tel":"031-868-7995","addr":"경기도 양주시 고암동 417-52번지","indutype":"일반휴게음식 - 일반한식","category":"restaurant"}]},{"lat":"37.83155775","long":"127.06795884","imageIndex":4,"items":[{"name":"상구비어 고암점","tel":"031-859-3938","addr":"경기도 양주시 고암동 128-2번지 1층 103호","indutype":"일반휴게음식 - 일반한식","category":"restaurant"},{"name":"커피베이 (덕정점)","tel":"031-858-8581","addr":"경기도 양주시 고암동 128-2번지 대영빌딩 1층 102호","indutype":"일반휴게음식 - 서양음식","category":"restaurant"}]},{"lat":"37.831531374","long":"127.0667661","imageIndex":4,"items":[{"name":"섭이네 춘천닭갈비","tel":"031-858-4676","addr":"경기도 양주시 고암동 126-4번지","indutype":"일반휴게음식 - 일반한식","category":"restaurant"}]},{"lat":"37.831557492","long":"127.06842457","imageIndex":4,"items":[{"name":"성희포차","tel":"031-855-1622","addr":"경기도 양주시 고암동 128-4번지 행전빌딩 106호","indutype":"일반휴게음식 - 일반한식","category":"restaurant"},{"name":"어썸블티","tel":"070-8888-0727","addr":"경기도 양주시 고암동 128-4번지 행전빌딩 105호","indutype":"일반휴게음식 - 서양음식","category":"restaurant"},{"name":"황금찹쌀꽈배기","tel":"031-866-8858","addr":"경기도 양주시 고암동 128-4번지 행전빌딩 1층 103호","indutype":"일반휴게음식 - 서양음식","category":"restaurant"}]},{"lat":"37.834833614","long":"127.07411869","imageIndex":4,"items":[{"name":"소담칼국수&삼겹살","tel":"031-859-7159","addr":"경기도 양주시 고암동 580-8번지 골드프라자 1층 110호","indutype":"일반휴게음식 - 일반한식","category":"restaurant"},{"name":"오늘은 분식","tel":"031-859-6667","addr":"경기도 양주시 고암동 580-8번지 골드프라자 107,108호","indutype":"일반휴게음식 - 스넥","category":"restaurant"},{"name":"카페봄(Cafe Bom)","tel":"","addr":"경기도 양주시 고암동 580-8번지 골드프라자 119호","indutype":"일반휴게음식 - 서양음식","category":"restaurant"}]},{"lat":"37.830638373","long":"127.06870773","imageIndex":4,"items":[{"name":"소문난쭈꾸미생삼겹","tel":"031-857-4473","addr":"경기도 양주시 고암동 160-1번지","indutype":"일반휴게음식 - 일반한식","category":"restaurant"}]},{"lat":"37.830891347","long":"127.06742438","imageIndex":4,"items":[{"name":"수작","tel":"031-861-4486","addr":"경기도 양주시 고암동 136-6번지","indutype":"일반휴게음식 - 주점","category":"restaurant"}]},{"lat":"37.839088482","long":"127.0699876","imageIndex":4,"items":[{"name":"수지스 카페(suji's cafe)","tel":"070-1111-1111","addr":"경기도 양주시 고암동 181-9번지","indutype":"일반휴게음식 - 서양음식","category":"restaurant"}]},{"lat":"37.830332488","long":"127.06792369","imageIndex":4,"items":[{"name":"숲속에","tel":"","addr":"경기도 양주시 고암동 158-5번지 1층","indutype":"일반휴게음식 - 일반한식","category":"restaurant"}]},{"lat":"37.836223992","long":"127.06909893","imageIndex":4,"items":[{"name":"숲풀림곱창","tel":"031-857-4439","addr":"경기도 양주시 고암동 121-5번지 주원마을 상가 103호","indutype":"일반휴게음식 - 일반한식","category":"restaurant"}]},{"lat":"37.831313439","long":"127.06984425","imageIndex":4,"items":[{"name":"시골숯불치킨","tel":"031-865-9282","addr":"경기도 양주시 고암동 148-1번지 1층","indutype":"일반휴게음식 - 일반한식","category":"restaurant"}]},{"lat":"37.831034147","long":"127.069844","imageIndex":4,"items":[{"name":"신당동피렌체피자인","tel":"031-862-0707","addr":"경기도 양주시 고암동 148-5번지","indutype":"일반휴게음식 - 일반한식","category":"restaurant"}]},{"lat":"37.831531454","long":"127.06661843","imageIndex":4,"items":[{"name":"싹쓰리 삼겹살","tel":"031-858-1142","addr":"경기도 양주시 고암동 126-3번지 1층","indutype":"일반휴게음식 - 일반한식","category":"restaurant"}]},{"lat":"37.830890074","long":"127.06970756","imageIndex":4,"items":[{"name":"써니꼬꼬 양주고암점","tel":"031-862-8295","addr":"경기도 양주시 고암동 148-6번지 모아빌상가 1층 상가","indutype":"일반휴게음식 - 스넥","category":"restaurant"}]},{"lat":"37.830197758","long":"127.06717388","imageIndex":4,"items":[{"name":"안다미로 샤브샤브","tel":"031-858-2233","addr":"경기도 양주시 고암동 156-6번지","indutype":"일반휴게음식 - 일반한식","category":"restaurant"}]},{"lat":"37.831305991","long":"127.06703853","imageIndex":4,"items":[{"name":"알콜충전","tel":"031-862-4395","addr":"경기도 양주시 고암동 135번지","indutype":"일반휴게음식 - 주점","category":"restaurant"}]},{"lat":"37.831170426","long":"127.06781083","imageIndex":4,"items":[{"name":"야한소갈비살(덕정점)","tel":"031-859-8859","addr":"경기도 양주시 고암동 140-2번지 101호","indutype":"일반휴게음식 - 일반한식","category":"restaurant"}]},{"lat":"37.831170564","long":"127.06756093","imageIndex":4,"items":[{"name":"양주임꺽정순대국","tel":"031-865-7288","addr":"경기도 양주시 고암동 136-3번지 1층","indutype":"일반휴게음식 - 일반한식","category":"restaurant"}]},{"lat":"37.830891483","long":"127.06717448","imageIndex":4,"items":[{"name":"엄상궁칼국수","tel":"031-858-4100","addr":"경기도 양주시 고암동 135-7번지","indutype":"일반휴게음식 - 일반한식","category":"restaurant"}]},{"lat":"37.831313075","long":"127.07048036","imageIndex":4,"items":[{"name":"엘에이갈비찜닭&숯불고기냉면(덕정점)","tel":"031-863-2586","addr":"경기도 양주시 고암동 150번지","indutype":"일반휴게음식 - 일반한식","category":"restaurant"}]},{"lat":"37.831142118","long":"127.070094","imageIndex":4,"items":[{"name":"여수돌게장꽃게간장게장","tel":"031-865-8911","addr":"경기도 양주시 고암동 149-2번지 1층","indutype":"일반휴게음식 - 일반한식","category":"restaurant"}]},{"lat":"37.831169808","long":"127.06892403","imageIndex":4,"items":[{"name":"영진닭한마리전문점","tel":"031-861-1112","addr":"경기도 양주시 고암동 144-2번지","indutype":"일반휴게음식 - 일반한식","category":"restaurant"}]},{"lat":"37.832193753","long":"127.07428654","imageIndex":4,"items":[{"name":"오빠돼지","tel":"031-864-9233","addr":"경기도 양주시 고암동 587번지 102호","indutype":"일반휴게음식 - 일반한식","category":"restaurant"}]},{"lat":"37.831529158","long":"127.07073046","imageIndex":4,"items":[{"name":"오이시이모노카타리","tel":"031-859-5533","addr":"경기도 양주시 고암동 130-5번지 1층","indutype":"일반휴게음식 - 일반한식","category":"restaurant"}]},{"lat":"37.831170775","long":"127.06717472","imageIndex":4,"items":[{"name":"용피리흑염소","tel":"031-862-7008","addr":"경기도 양주시 고암동 135-3번지","indutype":"일반휴게음식 - 일반한식","category":"restaurant"}]},{"lat":"37.831034666","long":"127.06892391","imageIndex":4,"items":[{"name":"우리동네생고기","tel":"031-859-3993","addr":"경기도 양주시 고암동 144-4번지","indutype":"일반휴게음식 - 일반한식","category":"restaurant"}]},{"lat":"37.83063922","long":"127.06717426","imageIndex":4,"items":[{"name":"원조다래솥뚜껑","tel":"031-862-8322","addr":"경기도 양주시 고암동 156-1번지 1층","indutype":"일반휴게음식 - 일반한식","category":"restaurant"}]},{"lat":"37.838033099","long":"127.07220189","imageIndex":4,"items":[{"name":"육마니(육개장보쌈전문점)","tel":"031-861-7521","addr":"경기도 양주시 고암동 170번지","indutype":"일반휴게음식 - 일반한식","category":"restaurant"},{"name":"주식회사수평/무진장숯불갈비","tel":"031-862-8293","addr":"경기도 양주시 고암동 170번지","indutype":"일반휴게음식 - 일반한식","category":"restaurant"}]},{"lat":"37.825864926","long":"127.06587527","imageIndex":4,"items":[{"name":"이조명가","tel":"031-868-1237","addr":"경기도 양주시 고암동 534-1번지","indutype":"일반휴게음식 - 일반한식","category":"restaurant"}]},{"lat":"37.831360526","long":"127.06615256","imageIndex":4,"items":[{"name":"일초닭발&갈매기살","tel":"070-4763-5091","addr":"경기도 양주시 고암동 132번지 1층","indutype":"일반휴게음식 - 일반한식","category":"restaurant"}]},{"lat":"37.809842649","long":"127.07209604","imageIndex":4,"items":[{"name":"작은커피","tel":"031-858-4707","addr":"경기도 양주시 고암동 417-2번지 1층","indutype":"일반휴게음식 - 서양음식","category":"restaurant"}]},{"lat":"37.831277181","long":"127.07023043","imageIndex":4,"items":[{"name":"조개구이","tel":"031-859-9366","addr":"경기도 양주시 고암동 149-1번지","indutype":"일반휴게음식 - 일반한식","category":"restaurant"}]},{"lat":"37.830891135","long":"127.06781059","imageIndex":4,"items":[{"name":"족발야시장","tel":"031-859-4969","addr":"경기도 양주시 고암동 140-6번지","indutype":"일반휴게음식 - 일반한식","category":"restaurant"}]},{"lat":"37.831305568","long":"127.06781095","imageIndex":4,"items":[{"name":"쭈노치킨","tel":"031-866-9255","addr":"경기도 양주시 고암동 140번지","indutype":"일반휴게음식 - 주점","category":"restaurant"}]},{"lat":"37.831556042","long":"127.07098039","imageIndex":4,"items":[{"name":"참새방앗간","tel":"031-859-5072","addr":"경기도 양주시 고암동 130-7번지 1층","indutype":"일반휴게음식 - 주점","category":"restaurant"}]},{"lat":"37.831034353","long":"127.06948051","imageIndex":4,"items":[{"name":"찾아가면 돼지","tel":"","addr":"경기도 양주시 고암동 146-5번지 1층","indutype":"일반휴게음식 - 일반한식","category":"restaurant"}]},{"lat":"37.81750139","long":"127.07087662","imageIndex":4,"items":[{"name":"체험카페 쏘쿡","tel":"031-858-0997","addr":"경기도 양주시 고암동 454-8번지 2층","indutype":"일반휴게음식 - 일반한식","category":"restaurant"}]},{"lat":"37.826918521","long":"127.06681892","imageIndex":4,"items":[{"name":"촌두부집","tel":"031-875-2220","addr":"경기도 양주시 고암동 543-1번지","indutype":"일반휴게음식 - 일반한식","category":"restaurant"}]},{"lat":"37.833392389","long":"127.07365156","imageIndex":4,"items":[{"name":"치킨마루 덕정점","tel":"031-859-0777","addr":"경기도 양주시 고암동 583번지 하늘빛마을 상가동 104호","indutype":"일반휴게음식 - 스넥","category":"restaurant"}]},{"lat":"37.831304712","long":"127.06934444","imageIndex":4,"items":[{"name":"치킨명작 (엄상마을점)","tel":"070-6404-0118","addr":"경기도 양주시 고암동 146번지 1층","indutype":"일반휴게음식 - 스넥","category":"restaurant"}]},{"lat":"37.832086072","long":"127.0735708","imageIndex":4,"items":[{"name":"통골뱅이삼촌네","tel":"031-863-5008","addr":"경기도 양주시 고암동 588-1번지 1층","indutype":"일반휴게음식 - 주점","category":"restaurant"}]},{"lat":"37.831306114","long":"127.06681135","imageIndex":4,"items":[{"name":"피쉬엔그릴 양주","tel":"031-863-8941","addr":"경기도 양주시 고암동 134-1번지 1층","indutype":"일반휴게음식 - 일반한식","category":"restaurant"}]},{"lat":"37.830333091","long":"127.06682187","imageIndex":4,"items":[{"name":"피자르방덕정점","tel":"031-859-0221","addr":"경기도 양주시 고암동 152-5번지 1층","indutype":"일반휴게음식 - 서양음식","category":"restaurant"}]},{"lat":"37.831277259","long":"127.07009412","imageIndex":4,"items":[{"name":"한동길 감자탕","tel":"031-859-1847","addr":"경기도 양주시 고암동 149번지 1층","indutype":"일반휴게음식 - 일반한식","category":"restaurant"}]},{"lat":"37.83153154","long":"127.0664594","imageIndex":4,"items":[{"name":"한마리생고기","tel":"031-862-5456","addr":"경기도 양주시 고암동 126-2번지","indutype":"일반휴게음식 - 일반한식","category":"restaurant"}]},{"lat":"37.832058577","long":"127.0743432","imageIndex":4,"items":[{"name":"한우풍경","tel":"031-866-0876","addr":"경기도 양주시 고암동 587-7번지","indutype":"일반휴게음식 - 일반한식","category":"restaurant"}]},{"lat":"37.831304949","long":"127.06892415","imageIndex":4,"items":[{"name":"한장군부대찌개","tel":"031-863-2852","addr":"경기도 양주시 고암동 144번지","indutype":"일반휴게음식 - 일반한식","category":"restaurant"}]},{"lat":"37.830476914","long":"127.06742402","imageIndex":4,"items":[{"name":"할매뼈다귀진감자탕","tel":"031-859-1551","addr":"경기도 양주시 고암동 157-2번지 1층","indutype":"일반휴게음식 - 일반한식","category":"restaurant"}]},{"lat":"37.83083572","long":"127.07023003","imageIndex":4,"items":[{"name":"항아리묵은지김치찌개","tel":"031-859-7762","addr":"경기도 양주시 고암동 149-7번지","indutype":"일반휴게음식 - 일반한식","category":"restaurant"}]},{"lat":"37.830890731","long":"127.06853757","imageIndex":4,"items":[{"name":"행복한 삼겹살","tel":"031-863-3331","addr":"경기도 양주시 고암동 143-2번지","indutype":"일반휴게음식 - 일반한식","category":"restaurant"}]},{"lat":"37.830890637","long":"127.06870796","imageIndex":4,"items":[{"name":"홍박이네옹심이메밀칼국수","tel":"031-858-0907","addr":"경기도 양주시 고암동 143-3번지","indutype":"일반휴게음식 - 일반한식","category":"restaurant"}]},{"lat":"37.831305505","long":"127.06792454","imageIndex":4,"items":[{"name":"홍성녹우촌 덕정2호점","tel":"031-858-4570","addr":"경기도 양주시 고암동 140-1번지 1층","indutype":"일반휴게음식 - 일반한식","category":"restaurant"}]},{"lat":"37.831170973","long":"127.06681123","imageIndex":4,"items":[{"name":"황가네칡냉면","tel":"031-857-1007","addr":"경기도 양주시 고암동 134-3번지","indutype":"일반휴게음식 - 일반한식","category":"restaurant"}]},{"lat":"37.83153162","long":"127.06631174","imageIndex":4,"items":[{"name":"회랑참치사냥","tel":"031-837-6973","addr":"경기도 양주시 고암동 126-1번지","indutype":"일반휴게음식 - 일식·회집","category":"restaurant"}]}]