[{"lat":"37.334638541","long":"126.82913154","imageIndex":16,"items":[{"name":"JS실용음악학원","tel":"031-401-7113","addr":"경기도 안산시 단원구 와동 716-7번지 2층","indutype":"학원 - 예·체능계학원","category":"study"}]},{"lat":"37.333727425","long":"126.82238591","imageIndex":16,"items":[{"name":"강서속샘학원","tel":"031-485-5599","addr":"경기도 안산시 단원구 와동 736-1번지 효자 상가 304호","indutype":"회원제형태 - 학원","category":"study"}]},{"lat":"37.343673406","long":"126.82157214","imageIndex":16,"items":[{"name":"경희대석사 장백태권도","tel":"031-413-8575","addr":"경기도 안산시 단원구 와동 771번지 3층","indutype":"학원 - 예·체능계학원","category":"study"}]},{"lat":"37.342251083","long":"126.82241066","imageIndex":16,"items":[{"name":"고은어린이집[아이행복]","tel":"031-405-5559","addr":"경기도 안산시 단원구 와동 768-14번지","indutype":"학원 - 유아원","category":"study"}]},{"lat":"37.338285852","long":"126.82790441","imageIndex":16,"items":[{"name":"그랜드음악학원","tel":"031-487-7572","addr":"경기도 안산시 단원구 와동 115-9번지 2층","indutype":"학원 - 예·체능계학원","category":"study"},{"name":"그랜드음악학원","tel":"031-487-7572","addr":"경기도 안산시 단원구 와동 115-9번지 그림나라미술학원 2층 201호","indutype":"학원 - 예·체능계학원","category":"study"},{"name":"용인대석사미드미태권도장","tel":"031-401-4841","addr":"경기도 안산시 단원구 와동 115-9번지 3층","indutype":"학원 - 예·체능계학원","category":"study"}]},{"lat":"37.336639703","long":"126.82974756","imageIndex":16,"items":[{"name":"그루터기보습학원","tel":"031-484-2276","addr":"경기도 안산시 단원구 와동 705-1번지 1층","indutype":"학원 - 보습학원","category":"study"},{"name":"엘리트학원","tel":"070-8947-3010","addr":"경기도 안산시 단원구 와동 705-1번지 1층상가","indutype":"회원제형태 - 학원","category":"study"},{"name":"엘리트학원","tel":"070-8947-3010","addr":"경기도 안산시 단원구 와동 705-1번지","indutype":"학원 - 보습학원","category":"study"}]},{"lat":"37.33163964","long":"126.81821601","imageIndex":16,"items":[{"name":"그리다미술교습소","tel":"02-0000-0000","addr":"경기도 안산시 단원구 와동 845-13번지 민병철쥬니어영어스쿨 2층 203호","indutype":"학원 - 예·체능계학원","category":"study"},{"name":"꿈나래어린이집[아이행복]","tel":"031-482-4204","addr":"경기도 안산시 단원구 와동 845-13번지 1층","indutype":"학원 - 유아원","category":"study"},{"name":"민병철고려e네트학원","tel":"031-414-5050","addr":"경기도 안산시 단원구 와동 845-13,2층,3층","indutype":"회원제형태 - 학원","category":"study"},{"name":"엔젤스어린이집[아이행복]","tel":"031-482-4204","addr":"경기도 안산시 단원구 와동 845-13번지","indutype":"학원 - 유아원","category":"study"}]},{"lat":"37.33158709","long":"126.81918652","imageIndex":16,"items":[{"name":"금메달태권도","tel":"031-411-9870","addr":"경기도 안산시 단원구 와동 836-10번지 2층","indutype":"학원 - 예·체능계학원","category":"study"}]},{"lat":"37.338062668","long":"126.81743295","imageIndex":16,"items":[{"name":"길가온태권도장","tel":"031-407-2177","addr":"경기도 안산시 단원구 와동 820-12번지 지층2층","indutype":"학원 - 예·체능계학원","category":"study"}]},{"lat":"37.338367727","long":"126.82843459","imageIndex":16,"items":[{"name":"꿈그림나라어린이집[아이행복]","tel":"031-487-6709","addr":"경기도 안산시 단원구 와동 117-8번지","indutype":"학원 - 유아원","category":"study"}]},{"lat":"37.331031063","long":"126.82682675","imageIndex":16,"items":[{"name":"꿈꾸는숲학원","tel":"031-411-9223","addr":"경기도 안산시 단원구 와동 682-7번지 2층,3층","indutype":"회원제형태 - 학원","category":"study"}]},{"lat":"37.340142695","long":"126.82240442","imageIndex":16,"items":[{"name":"꿈빛가득어린이집[아이행복]","tel":"031-411-2584","addr":"경기도 안산시 단원구 와동 757-4번지","indutype":"학원 - 유아원","category":"study"}]},{"lat":"37.337476139","long":"126.82871876","imageIndex":16,"items":[{"name":"나라찬태권도장","tel":"031-410-9512","addr":"경기도 안산시 단원구 와동 712-18번지 2층","indutype":"학원 - 예·체능계학원","category":"study"}]},{"lat":"37.3410903379","long":"126.8234403622","imageIndex":16,"items":[{"name":"뉴최강학원","tel":"031-411-2014","addr":"경기도 안산시 단원구 와동 760-4번지","indutype":"교육서비스업 - 보습학원","category":"study"}]},{"lat":"37.341090338","long":"126.82344036","imageIndex":16,"items":[{"name":"뉴최강학원","tel":"031-411-2014","addr":"경기도 안산시 단원구 와동 760-4번지 201호","indutype":"학원 - 보습학원","category":"study"},{"name":"한국체대효자태권도","tel":"031-410-7890","addr":"경기도 안산시 단원구 와동 760-4번지 4층","indutype":"학원 - 예·체능계학원","category":"study"}]},{"lat":"37.337116569","long":"126.8174127","imageIndex":16,"items":[{"name":"뉴현수독서실","tel":"031-410-8509","addr":"경기도 안산시 단원구 와동 821-17번지 3층","indutype":"학원 - 독서실","category":"study"}]},{"lat":"37.344422833","long":"126.8226086","imageIndex":16,"items":[{"name":"다니엘어린이집[아이행복]","tel":"031-480-7123","addr":"경기도 안산시 단원구 와동 774-1번지 부원빌라 102호","indutype":"학원 - 유아원","category":"study"},{"name":"와동열매어린이집[아이행복]","tel":"031-480-7123","addr":"경기도 안산시 단원구 와동 774-1번지 부원빌라 102호","indutype":"학원 - 유아원","category":"study"}]},{"lat":"37.332200077","long":"126.81937685","imageIndex":16,"items":[{"name":"다정한어린이집[아이행복]","tel":"031-403-1030","addr":"경기도 안산시 단원구 와동 838-7번지 101호","indutype":"학원 - 유아원","category":"study"},{"name":"다정한어린이집[아이행복]","tel":"031-403-1030","addr":"경기도 안산시 단원구 와동 838-7번지 101호","indutype":"학원 - 유아원","category":"study"}]},{"lat":"37.347728497","long":"126.82191225","imageIndex":16,"items":[{"name":"더올림학원","tel":"031-413-9006","addr":"경기도 안산시 단원구 와동 786번지 3층","indutype":"학원 - 기타 교육기관","category":"study"}]},{"lat":"37.339866343","long":"126.82435734","imageIndex":16,"items":[{"name":"덕인초등학교","tel":"031-8741-1244","addr":"경기도 안산시 단원구 와동 258-6번지 덕인초등학교","indutype":"학원 - 초중고교육기관","category":"study"}]},{"lat":"37.341421112","long":"126.82771658","imageIndex":16,"items":[{"name":"동화마을어린이집[아이행복]","tel":"031-401-7879","addr":"경기도 안산시 단원구 와동 99-3번지 1층","indutype":"학원 - 유아원","category":"study"}]},{"lat":"37.3413888","long":"126.82418446","imageIndex":16,"items":[{"name":"마이더스보습학원","tel":"031-483-1013","addr":"경기도 안산시 단원구 와동 763-15번지 2층","indutype":"학원 - 기타 교육기관","category":"study"}]},{"lat":"37.3316130846","long":"126.8185207333","imageIndex":16,"items":[{"name":"무지개미술학원","tel":"031-414-0737","addr":"경기도 안산시 단원구 와동 845-11번지","indutype":"교육서비스업 - 미술학원","category":"study"}]},{"lat":"37.336334116","long":"126.83026734","imageIndex":16,"items":[{"name":"뮤엠영어 와동교습소","tel":"","addr":"경기도 안산시 단원구 와동 705-6번지 1층 101호","indutype":"학원 - 외국어학원","category":"study"},{"name":"윤미술","tel":"","addr":"경기도 안산시 단원구 와동 705-6번지 104호","indutype":"학원 - 예·체능계학원","category":"study"},{"name":"헨델피아노교습소","tel":"031-482-0020","addr":"경기도 안산시 단원구 와동 705-6번지 102호","indutype":"학원 - 예·체능계학원","category":"study"}]},{"lat":"37.331613295","long":"126.81865613","imageIndex":16,"items":[{"name":"뮤직스토리피아노교습소","tel":"031-401-3702","addr":"경기도 안산시 단원구 와동 845-10번지 103호","indutype":"학원 - 예·체능계학원","category":"study"},{"name":"아이플러스학원","tel":"031-411-4433","addr":"경기도 안산시 단원구 와동 845-10번지 3층","indutype":"학원 - 보습학원","category":"study"},{"name":"월드용인대석사태권도","tel":"031-475-0022","addr":"경기도 안산시 단원구 와동 845-10번지 전체 2층","indutype":"학원 - 예·체능계학원","category":"study"}]},{"lat":"37.346728495","long":"126.82199365","imageIndex":16,"items":[{"name":"바른맘어린이집[아이행복]","tel":"031-403-6080","addr":"경기도 안산시 단원구 와동 781-2번지 윤성리치빌","indutype":"학원 - 유아원","category":"study"}]},{"lat":"37.3407284051","long":"126.8224368706","imageIndex":16,"items":[{"name":"반올림음악학원","tel":"031-414-4394","addr":"경기도 안산시 단원구 와동 757-1번지","indutype":"교육서비스업 - 음악학원","category":"study"}]},{"lat":"37.340558501","long":"126.82932103","imageIndex":16,"items":[{"name":"백합꿈나무어린이집[아이행복]","tel":"031-487-6632","addr":"경기도 안산시 단원구 와동 130-7번지 B101호","indutype":"학원 - 유아원","category":"study"},{"name":"백합어린이집[아이행복]","tel":"031-487-6633","addr":"경기도 안산시 단원구 와동 130-7번지","indutype":"학원 - 유아원","category":"study"},{"name":"와동삐아제어린이집[아이행복]","tel":"031-402-9871","addr":"경기도 안산시 단원구 와동 130-7번지 101호","indutype":"학원 - 유아원","category":"study"},{"name":"재능스스로러닝센터안산와동학원","tel":"031-507-6689","addr":"경기도 안산시 단원구 와동 130-7번지 2층 101호","indutype":"학원 - 보습학원","category":"study"}]},{"lat":"37.332951276","long":"126.82155278","imageIndex":16,"items":[{"name":"별꿈어린이집[아이행복]","tel":"031-439-7912","addr":"경기도 안산시 단원구 와동 830-3번지 쌍용연립 104호","indutype":"학원 - 유아원","category":"study"}]},{"lat":"37.338335578","long":"126.81910238","imageIndex":16,"items":[{"name":"봄내어린이집[아이행복]","tel":"031-403-9772","addr":"경기도 안산시 단원구 와동 819-8번지 부안아이빌 102호","indutype":"학원 - 유아원","category":"study"}]},{"lat":"37.331921536","long":"126.82579787","imageIndex":16,"items":[{"name":"비욘드어드밴스트어학원","tel":"031-480-9995","addr":"경기도 안산시 단원구 와동 723-4번지 창동빌라2차 상가 301호","indutype":"회원제형태 - 학원","category":"study"},{"name":"엔아이티학원","tel":"031-480-9995","addr":"경기도 안산시 단원구 와동 723-4번지 창동 상가 302호","indutype":"학원 - 예·체능계학원","category":"study"}]},{"lat":"37.342139636","long":"126.82024419","imageIndex":16,"items":[{"name":"뽀뽀뽀어린이집[아이행복]","tel":"031-486-0261","addr":"경기도 안산시 단원구 와동 810-9번지","indutype":"학원 - 유아원","category":"study"},{"name":"뽀뽀뽀어린이집[아이행복]","tel":"031-486-0261","addr":"경기도 안산시 단원구 와동 810-9번지","indutype":"학원 - 유아원","category":"study"}]},{"lat":"37.333756192","long":"126.82957364","imageIndex":16,"items":[{"name":"사과나무어린이집[아이행복]","tel":"031-410-8305","addr":"경기도 안산시 단원구 와동 698-12번지 낙원빌리지 101호","indutype":"학원 - 유아원","category":"study"}]},{"lat":"37.343784075","long":"126.8232421","imageIndex":16,"items":[{"name":"사무엘어린이집[아이행복]","tel":"031-480-8382","addr":"경기도 안산시 단원구 와동 858-3번지 101호","indutype":"학원 - 유아원","category":"study"}]},{"lat":"37.343916939","long":"126.82174084","imageIndex":16,"items":[{"name":"새노래실용음악학원","tel":"070-8263-8022","addr":"경기도 안산시 단원구 와동 772-4번지 1층","indutype":"학원 - 예·체능계학원","category":"study"}]},{"lat":"37.345581818","long":"126.82043899","imageIndex":16,"items":[{"name":"새슬기어린이집[아이행복]","tel":"031-413-4360","addr":"경기도 안산시 단원구 와동 797-14번지","indutype":"학원 - 유아원","category":"study"}]},{"lat":"37.346478069","long":"126.82321311","imageIndex":16,"items":[{"name":"새예랑어린이집[아이행복]","tel":"031-410-0848","addr":"경기도 안산시 단원구 와동 782-9번지 제일아트빌 1층 101호","indutype":"학원 - 유아원","category":"study"}]},{"lat":"37.33555977","long":"126.8306302","imageIndex":16,"items":[{"name":"새초록별어린이집[아이행복]","tel":"031-439-7952","addr":"경기도 안산시 단원구 와동 707-9번지 101호","indutype":"학원 - 유아원","category":"study"}]},{"lat":"37.332642918","long":"126.82024462","imageIndex":16,"items":[{"name":"성민유치원[아이행복]","tel":"031-482-7927","addr":"경기도 안산시 단원구 와동 834","indutype":"학원 - 유치원","category":"study"}]},{"lat":"37.344058706","long":"126.82018312","imageIndex":16,"items":[{"name":"세라숲유치원[아이행복]","tel":"031-487-6767","addr":"경기도 안산시 단원구 와동 803-6번지","indutype":"학원 - 유치원","category":"study"}]},{"lat":"37.344200246","long":"126.83673843","imageIndex":16,"items":[{"name":"세상을꿈꾸는공부방","tel":"031-000-0000","addr":"경기도 안산시 단원구 와동 20번지 401호","indutype":"학원 - 기타 교육기관","category":"study"}]},{"lat":"37.3445881165","long":"126.8187711533","imageIndex":16,"items":[{"name":"소풍피아노","tel":"031-401-0675","addr":"경기도 안산시 단원구 와동 801번지","indutype":"교육서비스업 - 예체능계 학원","category":"study"}]},{"lat":"37.344588116","long":"126.81877115","imageIndex":16,"items":[{"name":"소풍피아노학원","tel":"031-401-0675","addr":"경기도 안산시 단원구 와동 801번지 소풍교회 3층 상가","indutype":"학원 - 예·체능계학원","category":"study"}]},{"lat":"37.338891013","long":"126.82890733","imageIndex":16,"items":[{"name":"스마일어린이집[아이행복]","tel":"031-480-1677","addr":"경기도 안산시 단원구 와동 126-14번지 중앙프라임빌 101호","indutype":"학원 - 유아원","category":"study"}]},{"lat":"37.343863896","long":"126.8224068","imageIndex":16,"items":[{"name":"신나는어린이집[아이행복]","tel":"031-403-1570","addr":"경기도 안산시 단원구 와동 774-9번지 대한아트빌 101호","indutype":"학원 - 유아원","category":"study"},{"name":"신나는어린이집[아이행복]","tel":"031-403-1570","addr":"경기도 안산시 단원구 와동 774-9번지 대한아트빌 101호","indutype":"학원 - 유아원","category":"study"}]},{"lat":"37.334006016","long":"126.82191133","imageIndex":16,"items":[{"name":"신성관화랑합기도체육관","tel":"031-405-7989","addr":"경기도 안산시 단원구 와동 736번지 효자빌라 201호","indutype":"학원 - 예·체능계학원","category":"study"},{"name":"이레음악학원","tel":"031-410-9503","addr":"경기도 안산시 단원구 와동 736번지 301,302호","indutype":"학원 - 예·체능계학원","category":"study"}]},{"lat":"37.341642962","long":"126.81952315","imageIndex":16,"items":[{"name":"신화태권도전문체육관","tel":"031-482-5950","addr":"경기도 안산시 단원구 와동 811-12번지 2층","indutype":"학원 - 예·체능계학원","category":"study"}]},{"lat":"37.340611882","long":"126.82885823","imageIndex":16,"items":[{"name":"아리연보습학원","tel":"031-484-1633","addr":"경기도 안산시 단원구 와동 108-6번지 2층","indutype":"학원 - 보습학원","category":"study"}]},{"lat":"37.344781201","long":"126.82127606","imageIndex":16,"items":[{"name":"아이베스트태권도","tel":"031-480-5255","addr":"경기도 안산시 단원구 와동 799-12번지 2층","indutype":"학원 - 예·체능계학원","category":"study"}]},{"lat":"37.3316132955","long":"126.8186561347","imageIndex":16,"items":[{"name":"아이플러스학원","tel":"","addr":"경기도 안산시 단원구 와동 845-10번지","indutype":"교육서비스업 - 보습학원","category":"study"}]},{"lat":"37.334450822","long":"126.81822042","imageIndex":16,"items":[{"name":"안산강서고등학교","tel":"031-485-9742","addr":"경기도 안산시 단원구 와동 828번지 안산강서고등학교","indutype":"학원 - 초중고교육기관","category":"study"}]},{"lat":"37.341668484","long":"126.81855258","imageIndex":16,"items":[{"name":"안산도배학원","tel":"031-403-1239","addr":"경기도 안산시 단원구 와동 811-19번지 2층","indutype":"회원제형태 - 학원","category":"study"}]},{"lat":"37.331950182","long":"126.82688102","imageIndex":16,"items":[{"name":"안산스카이학원","tel":"031-411-8384","addr":"경기도 안산시 단원구 와동 721-7번지 3층","indutype":"학원 - 보습학원","category":"study"},{"name":"용인대와우태권도장","tel":"031-402-1693","addr":"경기도 안산시 단원구 와동 721-7번지","indutype":"학원 - 예·체능계학원","category":"study"}]},{"lat":"37.33205858","long":"126.82110358","imageIndex":16,"items":[{"name":"안산예술음악학원","tel":"031-413-0611","addr":"경기도 안산시 단원구 와동 832-4번지","indutype":"학원 - 예·체능계학원","category":"study"}]},{"lat":"37.3320585796","long":"126.8211035809","imageIndex":16,"items":[{"name":"안산예술음악학원","tel":"031-413-0611","addr":"경기도 안산시 단원구 와동 832-4번지","indutype":"교육서비스업 - 음악학원","category":"study"}]},{"lat":"37.34097173","long":"126.82247014","imageIndex":16,"items":[{"name":"알곡어린이집[아이행복]","tel":"031-439-8664","addr":"경기도 안산시 단원구 와동 759-6번지","indutype":"학원 - 유아원","category":"study"}]},{"lat":"37.338311044","long":"126.82071613","imageIndex":16,"items":[{"name":"애기사랑어린이집[아이행복]","tel":"031-480-7858","addr":"경기도 안산시 단원구 와동 752-2번지 101호","indutype":"학원 - 유아원","category":"study"}]},{"lat":"37.331613085","long":"126.81852073","imageIndex":16,"items":[{"name":"앨리해법영어교습소","tel":"031-414-9510","addr":"경기도 안산시 단원구 와동 845-11번지 101호","indutype":"학원 - 보습학원","category":"study"},{"name":"온리영미술학원","tel":"031-414-0737","addr":"경기도 안산시 단원구 와동 845-11번지","indutype":"학원 - 예·체능계학원","category":"study"}]},{"lat":"37.340610342","long":"126.82182777","imageIndex":16,"items":[{"name":"야베스어린이집[아이행복]","tel":"031-483-8670","addr":"경기도 안산시 단원구 와동 758-10번지","indutype":"학원 - 유아원","category":"study"}]},{"lat":"37.3319215356","long":"126.8257978655","imageIndex":16,"items":[{"name":"엔아이티학원","tel":"031-410-8866","addr":"경기도 안산시 단원구 와동 723-4번지 창동2차빌라","indutype":"교육서비스업 - 학원","category":"study"}]},{"lat":"37.341812646","long":"126.81855223","imageIndex":16,"items":[{"name":"영광 요양보호사교육원","tel":"031-487-9603","addr":"경기도 안산시 단원구 와동 811-20번지","indutype":"회원제형태 - 학원","category":"study"}]},{"lat":"37.34775317","long":"126.82037731","imageIndex":16,"items":[{"name":"예다움어린이집[아이행복]","tel":"031-482-5004","addr":"경기도 안산시 단원구 와동 788번지","indutype":"학원 - 유아원","category":"study"}]},{"lat":"37.339059285","long":"126.82693214","imageIndex":16,"items":[{"name":"예쁜어린이집[아이행복]","tel":"031-405-7186","addr":"경기도 안산시 단원구 와동 114번지","indutype":"학원 - 유아원","category":"study"}]},{"lat":"37.342166021","long":"126.81982658","imageIndex":16,"items":[{"name":"예인어린이집[아이행복]","tel":"031-480-9465","addr":"경기도 안산시 단원구 와동 810-6번지","indutype":"학원 - 유아원","category":"study"}]},{"lat":"37.347253025","long":"126.8232677","imageIndex":16,"items":[{"name":"와동무지개어린이집[아이행복]","tel":"031-414-3498","addr":"경기도 안산시 단원구 와동 784-6번지 101호","indutype":"학원 - 유아원","category":"study"}]},{"lat":"37.339812983","long":"126.83091389","imageIndex":16,"items":[{"name":"와동성당성모유치원[아이행복]","tel":"031-482-2005","addr":"경기도 안산시 단원구 와동 267번지","indutype":"학원 - 유치원","category":"study"}]},{"lat":"37.332697319","long":"126.82640536","imageIndex":16,"items":[{"name":"와동아이사랑어린이집[아이행복]","tel":"031-410-0603","addr":"경기도 안산시 단원구 와동 721번지 동화하이빌 101호","indutype":"학원 - 유아원","category":"study"}]},{"lat":"37.338229605","long":"126.82049063","imageIndex":16,"items":[{"name":"와동아이소리어린이집[아이행복]","tel":"031-484-6989","addr":"경기도 안산시 단원구 와동 752-3번지 101호","indutype":"학원 - 유아원","category":"study"}]},{"lat":"37.331950284","long":"126.82099101","imageIndex":16,"items":[{"name":"와동예능어린이집[아이행복]","tel":"031-482-0855","addr":"경기도 안산시 단원구 와동 832-5번지 예능빌라","indutype":"학원 - 유아원","category":"study"}]},{"lat":"37.336083162","long":"126.83118193","imageIndex":16,"items":[{"name":"와동재능어린이집","tel":"031-403-6622","addr":"경기도 안산시 단원구 와동 702번지","indutype":"학원 - 유아원","category":"study"},{"name":"와동재능음악보습학원","tel":"031-405-6638","addr":"경기도 안산시 단원구 와동 702번지 2층","indutype":"학원 - 보습학원","category":"study"},{"name":"와동재능태권도체육관","tel":"031-405-6638","addr":"경기도 안산시 단원구 와동 702번지 3층","indutype":"학원 - 예·체능계학원","category":"study"},{"name":"재능어린이집[아이행복]","tel":"031-403-6622","addr":"경기도 안산시 단원구 와동 702번지","indutype":"학원 - 유아원","category":"study"},{"name":"재능어린이집[아이행복]","tel":"031-403-6622","addr":"경기도 안산시 단원구 와동 702번지","indutype":"학원 - 유아원","category":"study"}]},{"lat":"37.3360831623","long":"126.8311819285","imageIndex":16,"items":[{"name":"와동재능음악보습학원","tel":"031-403-6644","addr":"경기도 안산시 단원구 와동 702번지","indutype":"교육서비스업 - 보습학원","category":"study"}]},{"lat":"37.338839067","long":"126.83035188","imageIndex":16,"items":[{"name":"와동중학교","tel":"031-485-7617","addr":"경기도 안산시 단원구 와동 143번지 안산와동중학교","indutype":"학원 - 초중고교육기관","category":"study"}]},{"lat":"37.333309233","long":"126.82588488","imageIndex":16,"items":[{"name":"와동천사어린이집[아이행복]","tel":"031-414-0014","addr":"경기도 안산시 단원구 와동 720-5번지","indutype":"학원 - 유아원","category":"study"}]},{"lat":"37.336695901","long":"126.83121439","imageIndex":16,"items":[{"name":"와동초등학교","tel":"031-487-3913","addr":"경기도 안산시 단원구 와동 704번지 안산와동초등학교","indutype":"학원 - 초중고교육기관","category":"study"},{"name":"와동초등학교병설유치원[아이행복]","tel":"031-487-3966","addr":"경기도 안산시 단원구 와동 704번지","indutype":"학원 - 유치원","category":"study"}]},{"lat":"37.331561056","long":"126.81982975","imageIndex":16,"items":[{"name":"용인대석사월드태권도","tel":"031-475-0023","addr":"경기도 안산시 단원구 와동 836-6번지 203호","indutype":"학원 - 예·체능계학원","category":"study"}]},{"lat":"37.33544862","long":"126.82255106","imageIndex":16,"items":[{"name":"웃는아이어린이집[아이행복]","tel":"031-402-7757","addr":"경기도 안산시 단원구 와동 740-2번지","indutype":"학원 - 유아원","category":"study"},{"name":"이새어린이집","tel":"031-485-8974","addr":"경기도 안산시 단원구 와동 740-2번지","indutype":"학원 - 유아원","category":"study"}]},{"lat":"37.331586827","long":"126.81901727","imageIndex":16,"items":[{"name":"웅지어린이집","tel":"031-413-9333","addr":"경기도 안산시 단원구 와동 836-11번지 웅지교육센터","indutype":"학원 - 유아원","category":"study"},{"name":"웅지어린이집[아이행복]","tel":"031-413-9333","addr":"경기도 안산시 단원구 와동 836-11번지 웅지교육센터","indutype":"학원 - 유아원","category":"study"}]},{"lat":"37.332283712","long":"126.82102405","imageIndex":16,"items":[{"name":"위너스 아카데미","tel":"031-439-5719","addr":"경기도 안산시 단원구 와동 832-13번지 201호","indutype":"학원 - 기타 교육기관","category":"study"}]},{"lat":"37.3367573624","long":"126.8301083884","imageIndex":16,"items":[{"name":"으뜸보습학원","tel":"031-482-9003","addr":"경기도 안산시 단원구 와동 705-3번지","indutype":"교육서비스업 - 보습학원","category":"study"}]},{"lat":"37.336757362","long":"126.83010839","imageIndex":16,"items":[{"name":"으뜸보습학원","tel":"031-438-5949","addr":"경기도 안산시 단원구 와동 705-3번지 101,102호","indutype":"학원 - 보습학원","category":"study"}]},{"lat":"37.3396466833","long":"126.8281043781","imageIndex":16,"items":[{"name":"은파피아노학원","tel":"031-482-6029","addr":"경기도 안산시 단원구 와동 124-1번지","indutype":"교육서비스업 - 예체능계 학원","category":"study"}]},{"lat":"37.339646683","long":"126.82810438","imageIndex":16,"items":[{"name":"은파피아노학원","tel":"031-482-6029","addr":"경기도 안산시 단원구 와동 124-1번지 2층","indutype":"학원 - 예·체능계학원","category":"study"}]},{"lat":"37.336917261","long":"126.82855079","imageIndex":16,"items":[{"name":"정상학원","tel":"031-485-2090","addr":"경기도 안산시 단원구 와동 713-6번지 2층 201호","indutype":"학원 - 보습학원","category":"study"}]},{"lat":"37.34147659","long":"126.82266078","imageIndex":16,"items":[{"name":"제이에스영수전문학원","tel":"031-410-5525","addr":"경기도 안산시 단원구 와동 764-16번지 3층","indutype":"학원 - 보습학원","category":"study"}]},{"lat":"37.335863523","long":"126.8288579","imageIndex":16,"items":[{"name":"지혜샘어린이집[아이행복]","tel":"031-482-4584","addr":"경기도 안산시 단원구 와동 715-7번지","indutype":"학원 - 유아원","category":"study"}]},{"lat":"37.3383134662","long":"126.8282993039","imageIndex":16,"items":[{"name":"참스터디학원","tel":"031-411-6089","addr":"경기도 안산시 단원구 와동 117-9번지","indutype":"교육서비스업 - 학원","category":"study"}]},{"lat":"37.338313466","long":"126.8282993","imageIndex":16,"items":[{"name":"참스터디학원","tel":"031-411-6089","addr":"경기도 안산시 단원구 와동 117-9번지 2층","indutype":"회원제형태 - 학원","category":"study"}]},{"lat":"37.336701748","long":"126.8290478","imageIndex":16,"items":[{"name":"천사소리음악학원","tel":"031-401-4427","addr":"경기도 안산시 단원구 와동 709-6번지 3층","indutype":"학원 - 예·체능계학원","category":"study"}]},{"lat":"37.335558188","long":"126.82954693","imageIndex":16,"items":[{"name":"철탑보습학원","tel":"031-414-0879","addr":"경기도 안산시 단원구 와동 707-19번지 3층","indutype":"학원 - 보습학원","category":"study"}]},{"lat":"37.340919607","long":"126.82374546","imageIndex":16,"items":[{"name":"크레용하우스","tel":"031-411-3510","addr":"경기도 안산시 단원구 와동 760-7번지 101호","indutype":"학원 - 기타 교육기관","category":"study"}]},{"lat":"37.345977967","long":"126.82024618","imageIndex":16,"items":[{"name":"큰기쁨어린이집[아이행복]","tel":"031-439-0542","addr":"경기도 안산시 단원구 와동 794-19번지 202 다세대주택","indutype":"학원 - 유아원","category":"study"}]},{"lat":"37.346834103","long":"126.82035696","imageIndex":16,"items":[{"name":"큰축복 어린이집[아이행복]","tel":"031-405-7059","addr":"경기도 안산시 단원구 와동 791-12번지 102호","indutype":"학원 - 유아원","category":"study"}]},{"lat":"37.3320283237","long":"126.8190161952","imageIndex":16,"items":[{"name":"탑클래스 플랜학원","tel":"031-411-7418","addr":"경기도 안산시 단원구 와동 839-6번지","indutype":"교육서비스업 - 보습학원","category":"study"}]},{"lat":"37.333333864","long":"126.81841497","imageIndex":16,"items":[{"name":"탑클래스고등전문학원","tel":"031-411-7418","addr":"경기도 안산시 단원구 와동 829-1번지 배원연립 마동 203호","indutype":"학원 - 보습학원","category":"study"}]},{"lat":"37.332028324","long":"126.8190162","imageIndex":16,"items":[{"name":"탑클래스플랜학원","tel":"031-411-7418","addr":"경기도 안산시 단원구 와동 839-6번지","indutype":"학원 - 보습학원","category":"study"}]},{"lat":"37.3333338635","long":"126.8184149744","imageIndex":16,"items":[{"name":"탑클레스고등전문학원","tel":"031-411-7418","addr":"경기도 안산시 단원구 와동 829-1번지 배원빌라","indutype":"교육서비스업 - 보습학원","category":"study"}]},{"lat":"37.3318336204","long":"126.8272649310","imageIndex":16,"items":[{"name":"탑플러스학원","tel":"","addr":"경기도 안산시 단원구 와동 682번지","indutype":"교육서비스업 - 보습학원","category":"study"}]},{"lat":"37.33365106","long":"126.819599","imageIndex":16,"items":[{"name":"태영어린이집[아이행복]","tel":"031-403-9776","addr":"경기도 안산시 단원구 와동 830번지 쌍용빌라 105동 103호","indutype":"학원 - 유아원","category":"study"}]},{"lat":"37.339339838","long":"126.82776655","imageIndex":16,"items":[{"name":"페르마학원","tel":"031-411-9501","addr":"경기도 안산시 단원구 와동 118-13번지 2층","indutype":"학원 - 보습학원","category":"study"}]},{"lat":"37.338502679","long":"126.82829887","imageIndex":16,"items":[{"name":"하늘채유치원","tel":"031-484-7572","addr":"경기도 안산시 단원구 와동 117번지","indutype":"학원 - 유치원","category":"study"},{"name":"하늘채유치원[아이행복]","tel":"031-484-7572","addr":"경기도 안산시 단원구 와동 117","indutype":"학원 - 유치원","category":"study"}]},{"lat":"37.341173711","long":"126.83104621","imageIndex":16,"items":[{"name":"한국디지털미디어고등학교","tel":"031-363-7873","addr":"경기도 안산시 단원구 와동 산27-1번지 한국디지털미디어고등학교","indutype":"학원 - 초중고교육기관","category":"study"}]},{"lat":"37.346306533","long":"126.82298781","imageIndex":16,"items":[{"name":"한국태권도체육관","tel":"031-480-3470","addr":"경기도 안산시 단원구 와동 782-5번지","indutype":"학원 - 예·체능계학원","category":"study"}]},{"lat":"37.332695867","long":"126.82543497","imageIndex":16,"items":[{"name":"한솔플러스수학교실와동수학교습소","tel":"031-413-0943","addr":"경기도 안산시 단원구 와동 724-7번지 104호","indutype":"학원 - 보습학원","category":"study"}]},{"lat":"37.338669251","long":"126.81929341","imageIndex":16,"items":[{"name":"한양어린이집[아이행복]","tel":"031-484-0752","addr":"경기도 안산시 단원구 와동 815-5번지","indutype":"학원 - 유아원","category":"study"}]},{"lat":"37.343193472","long":"126.82001593","imageIndex":16,"items":[{"name":"한울림어린이집","tel":"031-480-2678","addr":"경기도 안산시 단원구 와동 805-11번지","indutype":"학원 - 유치원","category":"study"},{"name":"해나어린이집[아이행복]","tel":"031-480-2678","addr":"경기도 안산시 단원구 와동 805-11번지 1층","indutype":"학원 - 유아원","category":"study"}]},{"lat":"37.332388782","long":"126.81904917","imageIndex":16,"items":[{"name":"해법공부방화랑초점","tel":"031-492-4158","addr":"경기도 안산시 단원구 와동 839-8번지","indutype":"학원 - 보습학원","category":"study"}]},{"lat":"37.341862275","long":"126.82748985","imageIndex":16,"items":[{"name":"행복한요양보호사교육원","tel":"031-401-0931","addr":"경기도 안산시 단원구 와동 98-11번지","indutype":"회원제형태 - 학원","category":"study"}]},{"lat":"37.33178505","long":"126.81901679","imageIndex":16,"items":[{"name":"화랑음악학원","tel":"031-402-0467","addr":"경기도 안산시 단원구 와동 836번지 101동 102호","indutype":"학원 - 예·체능계학원","category":"study"}]},{"lat":"37.330838335","long":"126.81860161","imageIndex":16,"items":[{"name":"화랑초등학교","tel":"031-487-5723","addr":"경기도 안산시 단원구 와동 846번지 화랑초등학교","indutype":"학원 - 초중고교육기관","category":"study"}]}]