[{"lat":"37.080789378","long":"127.05200555","imageIndex":8,"items":[{"name":"경기약국","tel":"","addr":"경기도 평택시 신장동 317-4번지","indutype":"소매업 - 약국","category":"medical"},{"name":"경기약국","tel":"031-666-8549","addr":"경기도 평택시 신장동 317-4번지","indutype":"약국 - 약국","category":"medical"}]},{"lat":"37.08153568","long":"127.05567234","imageIndex":8,"items":[{"name":"구생당약국","tel":"","addr":"경기도 평택시 신장동 214-12번지","indutype":"소매업 - 약국","category":"medical"},{"name":"구생당약국","tel":"031-664-9752","addr":"경기도 평택시 신장동 214-12번지","indutype":"약국 - 약국","category":"medical"}]},{"lat":"37.081094212","long":"127.05555957","imageIndex":8,"items":[{"name":"메디팜신광약국","tel":"031-662-2230","addr":"경기도 평택시 신장동 214-45번지","indutype":"소매업 - 약국","category":"medical"},{"name":"메디팜신광약국","tel":"031-666-2238","addr":"경기도 평택시 신장동 214-45번지","indutype":"약국 - 약국","category":"medical"},{"name":"송탄안과의원","tel":"031-664-6100","addr":"경기도 평택시 신장동 214-45번지","indutype":"의원 - 의원","category":"medical"},{"name":"송탄안과의원","tel":"031-666-2401","addr":"경기도 평택시 신장동 214-45번지","indutype":"서비스업 - 병원","category":"medical"}]},{"lat":"37.081175283","long":"127.05561585","imageIndex":8,"items":[{"name":"박성준치과의원","tel":"031-663-2872","addr":"경기도 평택시 신장동 213-6번지 2층","indutype":"의원 - 치과의원","category":"medical"}]},{"lat":"37.07809395","long":"127.05497271","imageIndex":8,"items":[{"name":"보건약국","tel":"031-666-3948","addr":"경기도 평택시 신장동 227-19번지","indutype":"약국 - 약국","category":"medical"},{"name":"보건약국","tel":"031-667-7288","addr":"경기도 평택시 신장동 227-19번지","indutype":"소매업 - 약국","category":"medical"}]},{"lat":"37.082121096","long":"127.05628005","imageIndex":8,"items":[{"name":"삼보약국","tel":"031-668-7140","addr":"경기도 평택시 신장동 212-7번지","indutype":"소매업 - 약국","category":"medical"}]},{"lat":"37.082265265","long":"127.05628015","imageIndex":8,"items":[{"name":"삼보약국","tel":"031-611-7378","addr":"경기도 평택시 신장동 212-6번지 1층","indutype":"약국 - 약국","category":"medical"}]},{"lat":"37.079257697","long":"127.05172341","imageIndex":8,"items":[{"name":"성신약국","tel":"","addr":"경기도 평택시 신장동 300-156번지","indutype":"제조업 - 약국","category":"medical"},{"name":"성신약국","tel":"031-666-3158","addr":"경기도 평택시 신장동 300-156번지","indutype":"약국 - 약국","category":"medical"}]},{"lat":"37.077571287","long":"127.05508481","imageIndex":8,"items":[{"name":"송탄정형외과","tel":"031-668-7979","addr":"경기도 평택시 신장동 230-5번지","indutype":"서비스업 - 병원","category":"medical"}]},{"lat":"37.080652839","long":"127.05523312","imageIndex":8,"items":[{"name":"송탄효자약국","tel":"031-666-5449","addr":"경기도 평택시 신장동 217-3번지","indutype":"약국 - 약국","category":"medical"},{"name":"송탄효자약국","tel":"031-666-2238","addr":"경기도 평택시 신장동 217-3번지","indutype":"소매업 - 약국","category":"medical"},{"name":"중앙의원","tel":"031-667-1233","addr":"경기도 평택시 신장동 217-3번지","indutype":"서비스업 - 병원","category":"medical"},{"name":"중앙의원","tel":"031-666-3369","addr":"경기도 평택시 신장동 217-3번지","indutype":"의원 - 의원","category":"medical"}]},{"lat":"37.081535705","long":"127.0556161","imageIndex":8,"items":[{"name":"수약국","tel":"","addr":"경기도 평택시 신장동 214-39번지","indutype":"소매업 - 약국","category":"medical"},{"name":"수약국","tel":"031-668-0292","addr":"경기도 평택시 신장동 214-39번지 1층","indutype":"약국 - 약국","category":"medical"},{"name":"정비뇨기과의원","tel":"031-667-3396","addr":"경기도 평택시 신장동 214-39번지","indutype":"서비스업 - 병원","category":"medical"},{"name":"정비뇨기과피부과의원","tel":"031-663-3311","addr":"경기도 평택시 신장동 214-39번지 2층","indutype":"의원 - 의원","category":"medical"}]},{"lat":"37.079203122","long":"127.05294919","imageIndex":8,"items":[{"name":"수정약국","tel":"031-666-2060","addr":"경기도 평택시 신장동 274-157번지","indutype":"약국 - 약국","category":"medical"},{"name":"수정온누리약국","tel":"031-664-9283","addr":"경기도 평택시 신장동 274-157번지","indutype":"소매업 - 약국","category":"medical"}]},{"lat":"37.081841844","long":"127.05611116","imageIndex":8,"items":[{"name":"신성약국","tel":"031-665-1177","addr":"경기도 평택시 신장동 213-3번지","indutype":"약국 - 약국","category":"medical"},{"name":"일등약국","tel":"031-668-9630","addr":"경기도 평택시 신장동 213-3번지 1층 101호","indutype":"약국 - 약국","category":"medical"}]},{"lat":"37.081598729","long":"127.05572861","imageIndex":8,"items":[{"name":"오제호내과의원","tel":"031-662-8289","addr":"경기도 평택시 신장동 214-11번지","indutype":"서비스업 - 병원","category":"medical"}]},{"lat":"37.081679789","long":"127.05580739","imageIndex":8,"items":[{"name":"이종광이비인후과의원","tel":"031-662-8787","addr":"경기도 평택시 신장동 214-18번지","indutype":"의원 - 의원","category":"medical"}]},{"lat":"37.081013142","long":"127.05550328","imageIndex":8,"items":[{"name":"자혜한의원","tel":"031-668-7979","addr":"경기도 평택시 신장동 214-14번지","indutype":"의원 - 한의원","category":"medical"},{"name":"자혜한의원","tel":"031-667-3399","addr":"경기도 평택시 신장동 214-14번지","indutype":"서비스업 - 병원","category":"medical"}]},{"lat":"37.078987481","long":"127.05147582","imageIndex":8,"items":[{"name":"중앙약국","tel":"031-666-3158","addr":"경기도 평택시 신장동 274-321번지","indutype":"소매업 - 약국","category":"medical"},{"name":"중앙약국","tel":"031-666-2971","addr":"경기도 평택시 신장동 274-321번지","indutype":"약국 - 약국","category":"medical"}]},{"lat":"37.078428802","long":"127.0515317","imageIndex":8,"items":[{"name":"천일당한의원","tel":"031-668-1001","addr":"경기도 평택시 신장동 274-154번지","indutype":"의원 - 한의원","category":"medical"},{"name":"천일당한의원","tel":"031-666-3665","addr":"경기도 평택시 신장동 274-154번지","indutype":"서비스업 - 병원","category":"medical"}]},{"lat":"37.078951346","long":"127.05170072","imageIndex":8,"items":[{"name":"하나로의원","tel":"031-664-8007","addr":"경기도 평택시 신장동 274-322번지","indutype":"의원 - 의원","category":"medical"},{"name":"하나로의원","tel":"031-668-2433","addr":"경기도 평택시 신장동 274-322번지","indutype":"서비스업 - 병원","category":"medical"}]},{"lat":"37.08145467","long":"127.05548109","imageIndex":8,"items":[{"name":"해맑은치과의원","tel":"031-663-2824","addr":"경기도 평택시 신장동 214-55번지","indutype":"의원 - 치과의원","category":"medical"}]}]