[{"lat":"37.149056089","long":"127.06483685","imageIndex":16,"items":[{"name":"(주)보성학원","tel":"031-375-1334","addr":"경기도 오산시 오산동 609-57 2층,자히1층","indutype":"회원제형태 - 학원","category":"study"}]},{"lat":"37.14958811","long":"127.06406059","imageIndex":16,"items":[{"name":"(주)보성학원 드림팩토리 독서실","tel":"031-375-1334","addr":"경기도 오산시 오산동 613-3번지 운산빌딩 4층","indutype":"학원 - 독서실","category":"study"}]},{"lat":"37.153667308","long":"127.06880308","imageIndex":16,"items":[{"name":"(주)현대영어스쿨","tel":"031-375-4385","addr":"경기도 오산시 오산동 428-2번지 대원약국 4층","indutype":"학원 - 외국어학원","category":"study"}]},{"lat":"37.148950889","long":"127.07555278","imageIndex":16,"items":[{"name":"EM영수학원","tel":"031-374-8832","addr":"경기도 오산시 오산동 925-13번지 웰리스타워 501호","indutype":"학원 - 보습학원","category":"study"},{"name":"오에스그룹주식회사","tel":"","addr":"경기도 오산시 오산동 925-13번지 웰리스타워 601호","indutype":"학원 - 보습학원","category":"study"}]},{"lat":"37.156779225","long":"127.07836338","imageIndex":16,"items":[{"name":"SM수학영어","tel":"02-6340-5359","addr":"경기도 오산시 오산동 919-1번지 남해빌딩 302호","indutype":"학원 - 기타 교육기관","category":"study"}]},{"lat":"37.156139733","long":"127.07796874","imageIndex":16,"items":[{"name":"강인합기도","tel":"","addr":"경기도 오산시 오산동 919-17번지 207호","indutype":"학원 - 예·체능계학원","category":"study"},{"name":"블록에듀","tel":"031-372-1660","addr":"경기도 오산시 오산동 919-17번지 201호","indutype":"학원 - 기타 교육기관","category":"study"},{"name":"신광","tel":"031-376-3389","addr":"경기도 오산시 오산동 919-17번지 연번지 302호","indutype":"회원제형태 - 학원","category":"study"},{"name":"엠비씨아카데미에듀탑학원","tel":"031-374-2196","addr":"경기도 오산시 오산동 919-17번지 중앙프라자 4층 403호","indutype":"학원 - 기타 교육기관","category":"study"},{"name":"운암모짜르트음악학원","tel":"031-377-0545","addr":"경기도 오산시 오산동 919-17번지 205호","indutype":"학원 - 예·체능계학원","category":"study"},{"name":"운천용인대국가대표태권도장","tel":"031-375-3688","addr":"경기도 오산시 오산동 919-17번지 4층 401호","indutype":"학원 - 예·체능계학원","category":"study"},{"name":"째즈앤클래식실용음악학원","tel":"031-375-0935","addr":"경기도 오산시 오산동 919-17 404호~406호","indutype":"회원제형태 - 학원","category":"study"},{"name":"한국키즈태권도장","tel":"031-372-3454","addr":"경기도 오산시 오산동 919-17번지 404,405,406호","indutype":"학원 - 예·체능계학원","category":"study"}]},{"lat":"37.151168236","long":"127.0742829","imageIndex":16,"items":[{"name":"굿독서실","tel":"031-376-1942","addr":"경기도 오산시 오산동 262-7번지 마루빌딩 2층 일부","indutype":"학원 - 독서실","category":"study"},{"name":"쎈수학러닝센터쎈영수학원","tel":"031-372-0234","addr":"경기도 오산시 오산동 262-7번지 마루빌딩 201호","indutype":"학원 - 보습학원","category":"study"},{"name":"예일아카데미보습학원","tel":"031-373-2468","addr":"경기도 오산시 오산동 262-7번지 마루빌딩 3층","indutype":"학원 - 기타 교육기관","category":"study"}]},{"lat":"37.14958516","long":"127.06953121","imageIndex":16,"items":[{"name":"그린어린이집[아이행복]","tel":"031-339-6852","addr":"경기도 오산시 오산동 861-14번지","indutype":"학원 - 유아원","category":"study"}]},{"lat":"37.157112561","long":"127.07844252","imageIndex":16,"items":[{"name":"금강미술학원","tel":"031-376-7377","addr":"경기도 오산시 오산동 917-2번지 2층","indutype":"학원 - 예·체능계학원","category":"study"}]},{"lat":"37.148254804","long":"127.06358676","imageIndex":16,"items":[{"name":"남촌고시텔","tel":"031-376-7277","addr":"경기도 오산시 오산동 616-7","indutype":"학원 - 독서실","category":"study"}]},{"lat":"37.156860832","long":"127.07755292","imageIndex":16,"items":[{"name":"다원북아트연구소 주식화사","tel":"","addr":"경기도 오산시 오산동 918-2번지 101호","indutype":"학원 - 기타 교육기관","category":"study"}]},{"lat":"37.151913205","long":"127.0789439","imageIndex":16,"items":[{"name":"대동어린이집[아이행복]","tel":"031-377-6918","addr":"경기도 오산시 오산동 923-2번지 운암대동황토방아파트 103동 101호","indutype":"학원 - 유아원","category":"study"}]},{"lat":"37.153919255","long":"127.06942244","imageIndex":16,"items":[{"name":"대일보습음악학원","tel":"031-373-3557","addr":"경기도 오산시 오산동 324-26번지","indutype":"학원 - 보습학원","category":"study"},{"name":"대일어린이집","tel":"031-373-3557","addr":"경기도 오산시 오산동 324-26번지","indutype":"학원 - 유아원","category":"study"},{"name":"대일어린이집[아이행복]","tel":"031-375-3557","addr":"경기도 오산시 오산동 324-26번지","indutype":"학원 - 유아원","category":"study"}]},{"lat":"37.153945988","long":"127.06995154","imageIndex":16,"items":[{"name":"대일컴퓨터학원","tel":"031-375-3557","addr":"경기도 오산시 오산동 324-22번지","indutype":"학원 - 컴퓨터학원","category":"study"}]},{"lat":"37.151501609","long":"127.07430573","imageIndex":16,"items":[{"name":"더베스트학원","tel":"","addr":"경기도 오산시 오산동 262번지 2층","indutype":"학원 - 보습학원","category":"study"},{"name":"더베스트학원","tel":"02-0000-0000","addr":"경기도 오산시 오산동 262번지 2층","indutype":"학원 - 보습학원","category":"study"},{"name":"오르프뮤직센터학원","tel":"031-375-8533","addr":"경기도 오산시 오산동 262번지","indutype":"학원 - 예·체능계학원","category":"study"}]},{"lat":"37.148197656","long":"127.06933863","imageIndex":16,"items":[{"name":"더키초이영어","tel":"031-377-5767","addr":"경기도 오산시 오산동 877-25번지 1층 일부호","indutype":"학원 - 외국어학원","category":"study"}]},{"lat":"37.147504221","long":"127.06867392","imageIndex":16,"items":[{"name":"더탑종합예술아카데미","tel":"031-373-6534","addr":"경기도 오산시 오산동 878-1번지 남촌빌딩 5층","indutype":"학원 - 예·체능계학원","category":"study"},{"name":"주식회사 오산안전교육","tel":"070-8615-8753","addr":"경기도 오산시 오산동 878-1번지 남촌빌딩 4층 2호","indutype":"학원 - 기타 교육기관","category":"study"}]},{"lat":"37.156942651","long":"127.07639348","imageIndex":16,"items":[{"name":"동화마을유치원[아이행복]","tel":"031-372-1148","addr":"경기도 오산시 오산동 912-7 외1필지","indutype":"학원 - 유치원","category":"study"}]},{"lat":"37.155393929","long":"127.07463585","imageIndex":16,"items":[{"name":"러블리제과제빵교습소","tel":"031-373-4025","addr":"경기도 오산시 오산동 77-14번지","indutype":"회원제형태 - 학원","category":"study"}]},{"lat":"37.144612109","long":"127.06822119","imageIndex":16,"items":[{"name":"럭셔리리빙텔","tel":"031-375-9477","addr":"경기도 오산시 오산동 881-7번지 동양프라자 6,7층","indutype":"학원 - 독서실","category":"study"},{"name":"오산호텔요리제과제빵학원","tel":"031-378-7271","addr":"경기도 오산시 오산동 881-7번지 동양프라자 8층 801,802,803호","indutype":"학원 - 기능학원","category":"study"}]},{"lat":"37.148951123","long":"127.07517006","imageIndex":16,"items":[{"name":"리첸하우스","tel":"031-000-0000","addr":"경기도 오산시 오산동 925-6번지 오산그린프라자 6층 601호","indutype":"학원 - 독서실","category":"study"},{"name":"오산복싱체육관","tel":"031-377-1236","addr":"경기도 오산시 오산동 925-6번지 오산그린프라자 401,402호","indutype":"학원 - 예·체능계학원","category":"study"}]},{"lat":"37.149311425","long":"127.07536177","imageIndex":16,"items":[{"name":"명진빌딩","tel":"031-377-4772","addr":"경기도 오산시 오산동 924-3번지 1층","indutype":"학원 - 독서실","category":"study"}]},{"lat":"37.154618073","long":"127.07619986","imageIndex":16,"items":[{"name":"물향기 어린이집[아이행복]","tel":"031-376-3023","addr":"경기도 오산시 오산동 920-2번지 관리동 오산운암2단지주공","indutype":"학원 - 유아원","category":"study"}]},{"lat":"37.160471564","long":"127.08136169","imageIndex":16,"items":[{"name":"빨간펜수학의달인","tel":"031-613-7518","addr":"경기도 오산시 오산동 11-1번지 오산센트럴푸르지오 108동 301호","indutype":"학원 - 기타 교육기관","category":"study"},{"name":"시립푸르지오어린이집[아이행복]","tel":"031-376-0622","addr":"경기도 오산시 오산동 11-1번지 오산센트럴푸르지오","indutype":"학원 - 유아원","category":"study"},{"name":"아름다운 뜰 어린이집[아이행복]","tel":"031-305-2259","addr":"경기도 오산시 오산동 11-1번지 오산센트럴푸르지오 109동 101호","indutype":"학원 - 유아원","category":"study"},{"name":"피아노의숲","tel":"","addr":"경기도 오산시 오산동 11-1번지 오산센트럴푸르지오 103동 102호","indutype":"학원 - 기타 교육기관","category":"study"}]},{"lat":"37.150028721","long":"127.06578319","imageIndex":16,"items":[{"name":"성산고시텔","tel":"031-377-1101","addr":"경기도 오산시 오산동 523-18번지","indutype":"학원 - 독서실","category":"study"}]},{"lat":"37.149694992","long":"127.06642453","imageIndex":16,"items":[{"name":"성산초등학교","tel":"031-377-4325","addr":"경기도 오산시 오산동 524-1번지 성산초등학교","indutype":"학원 - 초중고교육기관","category":"study"},{"name":"성산초등학교병설유치원[아이행복]","tel":"031-378-3183","addr":"경기도 오산시 오산동 524-1번지","indutype":"학원 - 유치원","category":"study"}]},{"lat":"37.150034865","long":"127.07097243","imageIndex":16,"items":[{"name":"성호초등학교","tel":"031-373-5334","addr":"경기도 오산시 오산동 862-1번지 성호초등학교","indutype":"학원 - 초중고교육기관","category":"study"},{"name":"성호초등학교병설유치원[아이행복]","tel":"031-373-2336","addr":"경기도 오산시 오산동 862-1번지 성호초등학교","indutype":"학원 - 유치원","category":"study"}]},{"lat":"37.156527004","long":"127.07825056","imageIndex":16,"items":[{"name":"셀파우등생교실운천학원","tel":"031-211-0984","addr":"경기도 오산시 오산동 919-3번지 2층 201호","indutype":"학원 - 보습학원","category":"study"},{"name":"쎈수학러닝센터 오산학원","tel":"031-375-0020","addr":"경기도 오산시 오산동 919-3번지 2층 201호","indutype":"학원 - 보습학원","category":"study"}]},{"lat":"37.150699002","long":"127.07541937","imageIndex":16,"items":[{"name":"소리샘어린이집[아이행복]","tel":"031-376-6764","addr":"경기도 오산시 오산동 922-4번지 운암주공이파트 복지관 내","indutype":"학원 - 유아원","category":"study"}]},{"lat":"37.149614288","long":"127.06569279","imageIndex":16,"items":[{"name":"소리숲음악학원","tel":"031-373-4113","addr":"경기도 오산시 오산동 532-2번지 2층","indutype":"학원 - 예·체능계학원","category":"study"}]},{"lat":"37.149171375","long":"127.06828139","imageIndex":16,"items":[{"name":"손진우미용학원","tel":"031-378-8882","addr":"경기도 오산시 오산동 874-5번지","indutype":"회원제형태 - 학원","category":"study"},{"name":"오산기술전문학원","tel":"031-377-4002","addr":"경기도 오산시 오산동 874-5번지 용현빌딩 3층","indutype":"학원 - 기능학원","category":"study"},{"name":"오산행정고시학원","tel":"031-375-1226","addr":"경기도 오산시 오산동 874-5번지 샬롬빌딩 4층","indutype":"회원제형태 - 학원","category":"study"}]},{"lat":"37.147701719","long":"127.0699798","imageIndex":16,"items":[{"name":"스카이고시텔","tel":"031-376-3797","addr":"경기도 오산시 오산동 877-30번지 2층","indutype":"학원 - 독서실","category":"study"},{"name":"원룸텔 고시원","tel":"031-376-0815","addr":"경기도 오산시 오산동 877-30번지 3층","indutype":"학원 - 독서실","category":"study"}]},{"lat":"37.149672214","long":"127.07475426","imageIndex":16,"items":[{"name":"스터디위드독서실","tel":"031-374-0910","addr":"경기도 오산시 오산동 925-1번지 701,702호","indutype":"학원 - 독서실","category":"study"},{"name":"아이디미술음악학원","tel":"031-372-9059","addr":"경기도 오산시 오산동 925-1번지 운암3차 상가 602호","indutype":"회원제형태 - 학원","category":"study"},{"name":"운암예린음악학원","tel":"031-377-8855","addr":"경기도 오산시 오산동 925-1번지 운암프라자3차 601호","indutype":"학원 - 예·체능계학원","category":"study"},{"name":"청어람보습학원","tel":"031-377-7007","addr":"경기도 오산시 오산동 925-1번지 운암프라자3차 401호","indutype":"학원 - 보습학원","category":"study"},{"name":"파드샤이화발레학원","tel":"031-373-9762","addr":"경기도 오산시 오산동 925-1 운암상가 3차 603호~604호","indutype":"회원제형태 - 학원","category":"study"}]},{"lat":"37.159365595","long":"127.07778054","imageIndex":16,"items":[{"name":"시립나리어린이집[아이행복]","tel":"031-378-2761","addr":"경기도 오산시 오산동 25 오산종합사회복지관내","indutype":"학원 - 유아원","category":"study"}]},{"lat":"37.15083697","long":"127.07066922","imageIndex":16,"items":[{"name":"시립미래클어린이집[아이행복]","tel":"031-377-7950","addr":"경기도 오산시 오산동 862번지","indutype":"학원 - 유아원","category":"study"}]},{"lat":"37.159862127","long":"127.07624995","imageIndex":16,"items":[{"name":"시립여성회관어린이집[아이행복]","tel":"031-374-6837","addr":"경기도 오산시 오산동 6-9 번지 여성회관 1층","indutype":"학원 - 유아원","category":"study"}]},{"lat":"37.150582576","long":"127.07424858","imageIndex":16,"items":[{"name":"아라온영어수학학원","tel":"031-372-0984","addr":"경기도 오산시 오산동 260-1번지 청강빌딩 401호","indutype":"학원 - 보습학원","category":"study"},{"name":"아이드림교육","tel":"","addr":"경기도 오산시 오산동 260-1번지 청강빌딩 303호","indutype":"학원 - 학습지 교육","category":"study"},{"name":"어린음악대운산학원","tel":"031-375-8544","addr":"경기도 오산시 오산동 260-1번지 청강빌딩 5층 일부","indutype":"학원 - 예·체능계학원","category":"study"},{"name":"어린화가들미술교습소","tel":"031-375-8544","addr":"경기도 오산시 오산동 260-1번지 청강빌딩 501호 일부","indutype":"학원 - 예·체능계학원","category":"study"}]},{"lat":"37.149257753","long":"127.0747201","imageIndex":16,"items":[{"name":"에듀메카학원","tel":"031-375-1133","addr":"경기도 오산시 오산동 925-3번지 화성프라자 702호","indutype":"회원제형태 - 학원","category":"study"},{"name":"오산정상어학원","tel":"031-377-0533","addr":"경기도 오산시 오산동 925-3번지 화성프라자 8층","indutype":"회원제형태 - 학원","category":"study"},{"name":"오산토피아어학원","tel":"031-378-3400","addr":"경기도 오산시 오산동 925-3번지 화성프라자 4층","indutype":"학원 - 외국어학원","category":"study"},{"name":"오산토피아어학원","tel":"031-378-3400","addr":"경기도 오산시 오산동 925-3번지 화성프라자 4층","indutype":"회원제형태 - 학원","category":"study"}]},{"lat":"37.156284685","long":"127.07671931","imageIndex":16,"items":[{"name":"에스피아노","tel":"031-378-1770","addr":"경기도 오산시 오산동 911-33번지 우남빌딩 2층","indutype":"학원 - 예·체능계학원","category":"study"}]},{"lat":"37.149061508","long":"127.07136553","imageIndex":16,"items":[{"name":"에이스고시텔","tel":"031-377-0005","addr":"경기도 오산시 오산동 870-1 세명프라자 4층5층","indutype":"학원 - 독서실","category":"study"}]},{"lat":"37.149389317","long":"127.06514105","imageIndex":16,"items":[{"name":"예원음악학원","tel":"031-375-5079","addr":"경기도 오산시 오산동 609-58번지 3층","indutype":"학원 - 예·체능계학원","category":"study"}]},{"lat":"37.148612049","long":"127.06949658","imageIndex":16,"items":[{"name":"오산간호학원","tel":"031-375-6625","addr":"경기도 오산시 오산동 876-7번지","indutype":"회원제형태 - 학원","category":"study"}]},{"lat":"37.147730004","long":"127.0677286","imageIndex":16,"items":[{"name":"오산고시텔","tel":"031-374-5123","addr":"경기도 오산시 오산동 603-7번지","indutype":"학원 - 독서실","category":"study"}]},{"lat":"37.150866593","long":"127.06597524","imageIndex":16,"items":[{"name":"오산세움학원","tel":"031-373-9643","addr":"경기도 오산시 오산동 486-5번지","indutype":"학원 - 보습학원","category":"study"}]},{"lat":"37.151304451","long":"127.07250447","imageIndex":16,"items":[{"name":"오산시장애아재활치료교육센터","tel":"031-375-5001","addr":"경기도 오산시 오산동 852-11번지","indutype":"학원 - 기타 교육기관","category":"study"}]},{"lat":"37.148974747","long":"127.06530955","imageIndex":16,"items":[{"name":"오산요양보호사교육원","tel":"031-377-3231","addr":"경기도 오산시 오산동 609-54,2,3층","indutype":"회원제형태 - 학원","category":"study"}]},{"lat":"37.15230637","long":"127.06944354","imageIndex":16,"items":[{"name":"오산유치원[아이행복]","tel":"031-374-2024","addr":"경기도 오산시 오산동 844-7번지","indutype":"학원 - 유치원","category":"study"}]},{"lat":"37.151114906","long":"127.07305588","imageIndex":16,"items":[{"name":"오산음악공장 음악교습소","tel":"031-111-1111","addr":"경기도 오산시 오산동 850-14번지","indutype":"학원 - 예·체능계학원","category":"study"}]},{"lat":"37.149446952","long":"127.07475405","imageIndex":16,"items":[{"name":"오산종로엠학원","tel":"031-377-2233","addr":"경기도 오산시 오산동 925-2번지 한마음빌딩 701호","indutype":"회원제형태 - 학원","category":"study"}]},{"lat":"37.148978374","long":"127.07480989","imageIndex":16,"items":[{"name":"외대어학원오산분원학원","tel":"031-377-7105","addr":"경기도 오산시 오산동 925-5번지 연번지 601동 602호","indutype":"회원제형태 - 학원","category":"study"},{"name":"운암해법수학보습학원","tel":"031-377-6623","addr":"경기도 오산시 오산동 925-5번지 월드타워 603호","indutype":"학원 - 보습학원","category":"study"}]},{"lat":"37.149419157","long":"127.07600348","imageIndex":16,"items":[{"name":"운산검도관","tel":"031-375-8884","addr":"경기도 오산시 오산동 925-11번지 한진빌딩 5층 503호","indutype":"회원제형태 - 학원","category":"study"}]},{"lat":"37.152499857","long":"127.07741355","imageIndex":16,"items":[{"name":"운산초등학교","tel":"","addr":"경기도 오산시 오산동 923-1번지 운산초등학교","indutype":"학원 - 초중고교육기관","category":"study"},{"name":"운산초등학교병설유치원[아이행복]","tel":"031-377-6549","addr":"경기도 오산시 오산동 923-1번지 운산초등학교 1층","indutype":"학원 - 유치원","category":"study"}]},{"lat":"37.157887725","long":"127.07802675","imageIndex":16,"items":[{"name":"운천중학교","tel":"031-377-7844","addr":"경기도 오산시 오산동 911-1번지 운천중학교","indutype":"학원 - 초중고교육기관","category":"study"}]},{"lat":"37.155026","long":"127.07211388","imageIndex":16,"items":[{"name":"원플러스원","tel":"031-377-4871","addr":"경기도 오산시 오산동 64-9번지","indutype":"학원 - 기타 교육기관","category":"study"}]},{"lat":"37.150834998","long":"127.07403494","imageIndex":16,"items":[{"name":"월드토크(주)","tel":"031-378-7271","addr":"경기도 오산시 오산동 866-1번지 삼광빌딩 4층","indutype":"회원제형태 - 학원","category":"study"}]},{"lat":"37.149951844","long":"127.07424799","imageIndex":16,"items":[{"name":"윤선생영어교실영어숲학원","tel":"031-474-0545","addr":"경기도 오산시 오산동 910-3번지 전체 3층","indutype":"학원 - 보습학원","category":"study"},{"name":"일대일수학학원","tel":"031-375-4891","addr":"경기도 오산시 오산동 910-3번지 성진프라자 4층","indutype":"학원 - 보습학원","category":"study"}]},{"lat":"37.156338134","long":"127.07769876","imageIndex":16,"items":[{"name":"이토피아 어학원","tel":"031-374-1148","addr":"경기도 오산시 오산동 919-16번지","indutype":"학원 - 보습학원","category":"study"}]},{"lat":"37.149501334","long":"127.07422505","imageIndex":16,"items":[{"name":"임근빈수학학원","tel":"031-374-9113","addr":"경기도 오산시 오산동 910-8번지 301호","indutype":"학원 - 보습학원","category":"study"}]},{"lat":"37.149645468","long":"127.07428147","imageIndex":16,"items":[{"name":"제이와이티(JYT)영어전문단과학원","tel":"031-378-9700","addr":"경기도 오산시 오산동 910-6번지 2층","indutype":"학원 - 보습학원","category":"study"}]},{"lat":"37.147225176","long":"127.06816715","imageIndex":16,"items":[{"name":"중앙간호학원","tel":"031-372-9004","addr":"경기도 오산시 오산동 879-9번지","indutype":"회원제형태 - 학원","category":"study"}]},{"lat":"37.149810155","long":"127.07000417","imageIndex":16,"items":[{"name":"중앙경희태권도체육관","tel":"031-376-0055","addr":"경기도 오산시 오산동 861-7번지","indutype":"회원제형태 - 학원","category":"study"},{"name":"중앙해법보습학원","tel":"031-375-1751","addr":"경기도 오산시 오산동 861-7번지 2층","indutype":"학원 - 보습학원","category":"study"}]},{"lat":"37.153611227","long":"127.07233773","imageIndex":16,"items":[{"name":"청원어린이집[아이행복]","tel":"031-378-4117","addr":"경기도 오산시 오산동 833-5번지 청원어린이집","indutype":"학원 - 유아원","category":"study"}]},{"lat":"37.149644418","long":"127.0760037","imageIndex":16,"items":[{"name":"카포실용음악학원","tel":"031-374-7288","addr":"경기도 오산시 오산동 925-12번지 거성프라자 601호","indutype":"학원 - 예·체능계학원","category":"study"},{"name":"클랑음악학원","tel":"031-377-7288","addr":"경기도 오산시 오산동 925-12번지 거성프라자 503호","indutype":"학원 - 예·체능계학원","category":"study"},{"name":"해인미술학원","tel":"","addr":"경기도 오산시 오산동 925-12번지 거성프라자 5층 501호","indutype":"학원 - 예·체능계학원","category":"study"}]},{"lat":"37.148506173","long":"127.06536545","imageIndex":16,"items":[{"name":"태권도바른체육관","tel":"031-377-7354","addr":"경기도 오산시 오산동 605-26","indutype":"회원제형태 - 학원","category":"study"}]},{"lat":"37.149229937","long":"127.0760033","imageIndex":16,"items":[{"name":"하이탑독서실","tel":"031-377-7001","addr":"경기도 오산시 오산동 925-10번지 5층 503,504호","indutype":"학원 - 독서실","category":"study"}]},{"lat":"37.14533299","long":"127.06814301","imageIndex":16,"items":[{"name":"혜민고시텔","tel":"031-373-8879","addr":"경기도 오산시 오산동 881-16번지 ,7,8층","indutype":"학원 - 독서실","category":"study"}]},{"lat":"37.148360452","long":"127.06824692","imageIndex":16,"items":[{"name":"효사랑나눔 요양보호사 교육원","tel":"031-378-5345","addr":"경기도 오산시 오산동 875-8번지 2층","indutype":"회원제형태 - 학원","category":"study"},{"name":"효사랑나눔노인복지센터","tel":"031-378-5345","addr":"경기도 오산시 오산동 875-8번지","indutype":"회원제형태 - 학원","category":"study"}]}]