[{"lat":"37.079424017","long":"126.85921396","imageIndex":0,"items":[{"name":"24시 지게차","tel":"031-358-6620","addr":"경기도 화성시 장안면 독정리 665-5번지","indutype":"자동차판매 - 기타운송","category":"car"}]},{"lat":"37.072868695","long":"126.85543675","imageIndex":0,"items":[{"name":"JJ모터스","tel":"031-351-4728","addr":"경기도 화성시 장안면 독정리 470번지","indutype":"자동차정비 유지 - 자동차정비","category":"car"},{"name":"제이제이(JJ)카세탁","tel":"02-000-0000","addr":"경기도 화성시 장안면 독정리 470번지","indutype":"자동차정비 유지 - 세차장","category":"car"}]},{"lat":"37.061622584","long":"126.85471645","imageIndex":0,"items":[{"name":"동아특장","tel":"031-372-9491","addr":"경기도 화성시 장안면 독정리 356-1번지","indutype":"자동차판매 - 기타운송","category":"car"}]},{"lat":"37.06911943","long":"126.84769654","imageIndex":0,"items":[{"name":"명성카","tel":"031-358-3436","addr":"경기도 화성시 장안면 독정리 928-2번지","indutype":"자동차정비 유지 - 자동차정비","category":"car"},{"name":"종합카센타","tel":"031-358-8982","addr":"경기도 화성시 장안면 독정리 928-2번지","indutype":"자동차정비 유지 - 자동차시트·타이어","category":"car"}]},{"lat":"37.082921358","long":"126.86024205","imageIndex":0,"items":[{"name":"붕붕모터스","tel":"031-358-6665","addr":"경기도 화성시 장안면 독정리 115-8","indutype":"자동차정비 유지 - 자동차정비","category":"car"}]},{"lat":"37.080118441","long":"126.85971873","imageIndex":0,"items":[{"name":"에프엘뱅크","tel":"031-366-0456","addr":"경기도 화성시 장안면 독정리 119-4번지","indutype":"자동차정비 유지 - 자동차부품","category":"car"}]},{"lat":"37.073399238","long":"126.84753039","imageIndex":0,"items":[{"name":"주식회사 새론특장","tel":"031-8059-4412","addr":"경기도 화성시 장안면 독정리 518-5번지","indutype":"자동차판매 - 기타운송","category":"car"}]},{"lat":"37.079261636","long":"126.85905683","imageIndex":0,"items":[{"name":"해태카센타","tel":"031-351-5109","addr":"경기도 화성시 장안면 독정리 662-3","indutype":"자동차정비 유지 - 자동차정비","category":"car"}]},{"lat":"37.079643508","long":"126.85452394","imageIndex":0,"items":[{"name":"현대독정카센타","tel":"031-351-5399","addr":"경기도 화성시 장안면 독정리 708-3번지","indutype":"자동차정비 유지 - 자동차정비","category":"car"}]}]