[{"lat":"38.006099459","long":"127.32990129","imageIndex":4,"items":[{"name":"9137","tel":"031-535-9137","addr":"경기도 포천시 이동면 노곡리 894-28","indutype":"일반휴게음식 - 일반한식","category":"restaurant"}]},{"lat":"38.005788708","long":"127.32498116","imageIndex":4,"items":[{"name":"금강산동태탕","tel":"031-532-1300","addr":"경기도 포천시 이동면 노곡리 1214-5번지","indutype":"일반휴게음식 - 일반한식","category":"restaurant"}]},{"lat":"38.00601181","long":"127.32575639","imageIndex":4,"items":[{"name":"낭유리촌닭","tel":"534-3784","addr":"경기도 포천시 이동면 노곡리 920-1번지","indutype":"음식 - 한식","category":"restaurant"}]},{"lat":"38.00951766","long":"127.34131443","imageIndex":4,"items":[{"name":"뒷고기숯불구이","tel":"031-532-7788","addr":"경기도 포천시 이동면 노곡리 597-5번지 1층","indutype":"일반휴게음식 - 일반한식","category":"restaurant"},{"name":"뒷고기숯불구이","tel":"532-7788","addr":"경기도 포천시 이동면 노곡리 597-5번지 1층","indutype":"음식 - 한식","category":"restaurant"}]},{"lat":"38.006599546","long":"127.33469707","imageIndex":4,"items":[{"name":"미자네식당","tel":"536-7588","addr":"경기도 포천시 이동면 노곡리 847-6번지","indutype":"음식 - 한식","category":"restaurant"},{"name":"오복솥뚜껑삼겹살 설렁탕","tel":"031-536-1253","addr":"경기도 포천시 이동면 노곡리 847-6번지","indutype":"일반휴게음식 - 일반한식","category":"restaurant"},{"name":"오복수제왕돈까스","tel":"031-536-1253","addr":"경기도 포천시 이동면 노곡리 847-6번지 1층","indutype":"일반휴게음식 - 서양음식","category":"restaurant"},{"name":"오복수제왕돈까스","tel":"536-1253","addr":"경기도 포천시 이동면 노곡리 847-6번지","indutype":"음식 - 한식","category":"restaurant"}]},{"lat":"38.020231509","long":"127.36189666","imageIndex":4,"items":[{"name":"바위섬가든","tel":"531-3700","addr":"경기도 포천시 이동면 노곡리 1번지","indutype":"음식 - 한식","category":"restaurant"},{"name":"바위섬가든","tel":"031-534-3700","addr":"경기도 포천시 이동면 노곡리 1번지","indutype":"일반휴게음식 - 일반한식","category":"restaurant"},{"name":"제2672부대","tel":"031-534-9600","addr":"경기도 포천시 이동면 노곡리 1번지 사서함117-1호","indutype":"일반휴게음식 - 일반한식","category":"restaurant"}]},{"lat":"38.007207376","long":"127.32997453","imageIndex":4,"items":[{"name":"방포차","tel":"031-531-7688","addr":"경기도 포천시 이동면 노곡리 894-17번지","indutype":"일반휴게음식 - 일반한식","category":"restaurant"}]},{"lat":"38.009204571","long":"127.34053871","imageIndex":4,"items":[{"name":"별미촌감자탕","tel":"031-535-8777","addr":"경기도 포천시 이동면 노곡리 595번지","indutype":"일반휴게음식 - 일반한식","category":"restaurant"},{"name":"별미촌감자탕","tel":"535-8777","addr":"경기도 포천시 이동면 노곡리 595번지","indutype":"음식 - 한식","category":"restaurant"},{"name":"조인자진곰탕","tel":"031-535-8776","addr":"경기도 포천시 이동면 노곡리 595번지","indutype":"일반휴게음식 - 일반한식","category":"restaurant"}]},{"lat":"38.01326181","long":"127.35180782","imageIndex":4,"items":[{"name":"병천순대","tel":"031-535-1288","addr":"경기도 포천시 이동면 노곡리 280-14번지","indutype":"일반휴게음식 - 일반한식","category":"restaurant"},{"name":"병천순대","tel":"535-1288","addr":"경기도 포천시 이동면 노곡리 280-14번지","indutype":"음식 - 한식","category":"restaurant"}]},{"lat":"38.008128224","long":"127.32928405","imageIndex":4,"items":[{"name":"사철영양식당","tel":"031-535-0825","addr":"경기도 포천시 이동면 노곡리 902-3번지 1층","indutype":"일반휴게음식 - 일반한식","category":"restaurant"}]},{"lat":"38.005732479","long":"127.322476","imageIndex":4,"items":[{"name":"올터쟁반짜장","tel":"535-9929","addr":"경기도 포천시 이동면 노곡리 1220-9번지","indutype":"음식 - 중식","category":"restaurant"}]},{"lat":"38.004514365","long":"127.31648178","imageIndex":4,"items":[{"name":"이레추어탕","tel":"031-532-1411","addr":"경기도 포천시 이동면 노곡리 1235-3번지","indutype":"일반휴게음식 - 일반한식","category":"restaurant"}]},{"lat":"38.002073985","long":"127.30923026","imageIndex":4,"items":[{"name":"자연의집","tel":"535-1460","addr":"경기도 포천시 이동면 노곡리 1244-1번지","indutype":"음식 - 한식","category":"restaurant"},{"name":"자연의집","tel":"031-535-1460","addr":"경기도 포천시 이동면 노곡리 1244-1번지 2/1","indutype":"일반휴게음식 - 일반한식","category":"restaurant"}]},{"lat":"38.006927242","long":"127.33028071","imageIndex":4,"items":[{"name":"전순대","tel":"031-535-7144","addr":"경기도 포천시 이동면 노곡리 894-13번지 1층","indutype":"일반휴게음식 - 일반한식","category":"restaurant"}]},{"lat":"38.008959987","long":"127.34100443","imageIndex":4,"items":[{"name":"종로원조삼숙이라면&돈까스","tel":"031-536-1502","addr":"경기도 포천시 이동면 노곡리 569-2번지","indutype":"일반휴게음식 - 일반한식","category":"restaurant"}]},{"lat":"38.004599919","long":"127.31817863","imageIndex":4,"items":[{"name":"청록고기촌","tel":"031-536-6649","addr":"경기도 포천시 이동면 노곡리 1235-1","indutype":"일반휴게음식 - 일반한식","category":"restaurant"}]},{"lat":"38.004626519","long":"127.31833814","imageIndex":4,"items":[{"name":"청록고기촌","tel":"536-6649","addr":"경기도 포천시 이동면 노곡리 1235-12번지","indutype":"음식 - 한식","category":"restaurant"}]},{"lat":"38.013154344","long":"127.35159095","imageIndex":4,"items":[{"name":"초류향","tel":"031-536-1080","addr":"경기도 포천시 이동면 노곡리 280-52번지","indutype":"일반휴게음식 - 중국식","category":"restaurant"}]},{"lat":"38.006846287","long":"127.3302348","imageIndex":4,"items":[{"name":"최강만리장성","tel":"031-535-8003","addr":"경기도 포천시 이동면 노곡리 894-14번지 1층","indutype":"일반휴게음식 - 중국식","category":"restaurant"}]},{"lat":"38.009239887","long":"127.34078937","imageIndex":4,"items":[{"name":"코리엔탈 깻잎두마리치킨","tel":"031-533-7942","addr":"경기도 포천시 이동면 노곡리 595-7번지 1호","indutype":"일반휴게음식 - 스넥","category":"restaurant"},{"name":"코리엔탈깻잎두마리치킨","tel":"533-7942","addr":"경기도 포천시 이동면 노곡리 595-7번지","indutype":"음식 - 치킨","category":"restaurant"}]},{"lat":"38.013234107","long":"127.35203543","imageIndex":4,"items":[{"name":"호식이두마리치킨(이동점)","tel":"031-536-1234","addr":"경기도 포천시 이동면 노곡리 280-59번지","indutype":"일반휴게음식 - 스넥","category":"restaurant"}]}]