[{"lat":"37.324563809","long":"127.07304758","imageIndex":0,"items":[{"name":"명진카크리닉","tel":"031-262-2272","addr":"경기도 용인시 수지구 신봉동 772-4번지","indutype":"자동차정비 유지 - 자동차정비","category":"car"},{"name":"영진손세차","tel":"031-262-9387","addr":"경기도 용인시 수지구 신봉동 772-4번지","indutype":"자동차정비 유지 - 세차장","category":"car"}]},{"lat":"37.321285897","long":"127.08430393","imageIndex":0,"items":[{"name":"브이아이피외형복원","tel":"031-261-7535","addr":"경기도 용인시 수지구 신봉동 888-5번지 1층","indutype":"자동차정비 유지 - 카인테리어","category":"car"}]},{"lat":"37.323173271","long":"127.07788637","imageIndex":0,"items":[{"name":"센트럴500쇼핑몰관리단","tel":"031-892-1773","addr":"경기도 용인시 수지구 신봉동 33번지","indutype":"자동차정비 유지 - 주차장","category":"car"}]},{"lat":"37.322478831","long":"127.07891235","imageIndex":0,"items":[{"name":"신봉자동차","tel":"031-896-0097","addr":"경기도 용인시 수지구 신봉동 22-1번지","indutype":"자동차정비 유지 - 자동차정비","category":"car"}]},{"lat":"37.32125875","long":"127.08447313","imageIndex":0,"items":[{"name":"신봉점현대자동차","tel":"031-264-1722","addr":"경기도 용인시 수지구 신봉동 888-6번지","indutype":"자동차정비 유지 - 자동차정비","category":"car"}]},{"lat":"37.328756617","long":"127.06766944","imageIndex":0,"items":[{"name":"애니카랜드신봉점","tel":"031-266-6444","addr":"경기도 용인시 수지구 신봉동 261","indutype":"자동차정비 유지 - 자동차정비","category":"car"}]},{"lat":"37.32661612","long":"127.07636662","imageIndex":0,"items":[{"name":"엠티씨 매니지먼트(MTC management)","tel":"02-3412-0829","addr":"경기도 용인시 수지구 신봉동 873번지 신봉마을엘지자이1차아파트","indutype":"자동차정비 유지 - 자동차정비","category":"car"}]},{"lat":"37.327007872","long":"127.06905573","imageIndex":0,"items":[{"name":"오토스킨수지지사","tel":"031-272-7782","addr":"경기도 용인시 수지구 신봉동 973번지 파크프라자 128-1호","indutype":"자동차정비 유지 - 자동차정비","category":"car"}]},{"lat":"37.333401725","long":"127.05808222","imageIndex":0,"items":[{"name":"임팩트레이싱(IMPACT RACING)","tel":"","addr":"경기도 용인시 수지구 신봉동 533-2번지","indutype":"자동차정비 유지 - 자동차부품","category":"car"}]},{"lat":"37.324762147","long":"127.07285596","imageIndex":0,"items":[{"name":"카젠(신봉점)","tel":"031-261-8100","addr":"경기도 용인시 수지구 신봉동 772-35번지","indutype":"자동차정비 유지 - 자동차정비","category":"car"}]},{"lat":"37.31973683","long":"127.08329819","imageIndex":0,"items":[{"name":"클린보이수지점","tel":"031-261-4933","addr":"경기도 용인시 수지구 신봉동 909번지 E마트 B2층 내","indutype":"자동차정비 유지 - 세차장","category":"car"}]},{"lat":"37.338644322","long":"127.06086206","imageIndex":0,"items":[{"name":"홍주물산","tel":"050-5514-5608","addr":"경기도 용인시 수지구 신봉동 455-11번지","indutype":"자동차정비 유지 - 윤활유 전문 판매","category":"car"}]}]