[{"lat":"36.987576293","long":"127.15561024","imageIndex":17,"items":[{"name":"(사)한국풍공학회","tel":"031-658-5406","addr":"경기도 안성시 공도읍 승두리 724-12","indutype":"용역 서비스 - 사무서비스","category":"other"}]},{"lat":"36.995191685","long":"127.15455827","imageIndex":17,"items":[{"name":"(주)리싸이클오피스 평택점","tel":"031-348-4186","addr":"경기도 안성시 공도읍 승두리 598-60번지","indutype":"가구 - 일반가구","category":"other"}]},{"lat":"36.99174548","long":"127.17099669","imageIndex":17,"items":[{"name":"(주)비겐의료기","tel":"02-1644-7582","addr":"경기도 안성시 공도읍 승두리 282-1번지","indutype":"기타의료기관 - 기타의료기관 및 기타","category":"other"}]},{"lat":"36.98763766","long":"127.1702463","imageIndex":17,"items":[{"name":"(주)인터텍스","tel":"031-651-8535","addr":"경기도 안성시 공도읍 승두리 231-2번지","indutype":"기타 - 기계공구","category":"other"}]},{"lat":"36.998469686","long":"127.16941625","imageIndex":17,"items":[{"name":"CHERRY.미(체리.미)","tel":"031-652-2654","addr":"경기도 안성시 공도읍 승두리 62-6번지 1층","indutype":"의류 - 정장","category":"other"},{"name":"씨유안성공도점","tel":"031-658-5836","addr":"경기도 안성시 공도읍 승두리 62-6","indutype":"유통업 영리 - 편 의 점","category":"other"}]},{"lat":"36.992329722","long":"127.17202019","imageIndex":17,"items":[{"name":"KIS정보통신","tel":"031-651-0310","addr":"경기도 안성시 공도읍 승두리 312-6번지 101(101호~102호)","indutype":"사무통신 - 통신기기","category":"other"}]},{"lat":"36.99588608","long":"127.1541103","imageIndex":17,"items":[{"name":"건승앙카","tel":"031-658-1514","addr":"경기도 안성시 공도읍 승두리 598-131번지","indutype":"건축자재 - 기타건축자재","category":"other"}]},{"lat":"36.997330149","long":"127.15224833","imageIndex":17,"items":[{"name":"경기가설산업","tel":"031-658-9987","addr":"경기도 안성시 공도읍 승두리 782-6번지 외2필지","indutype":"건축자재 - 기타건축자재","category":"other"},{"name":"주식회사 지오지오","tel":"031-647-0725","addr":"경기도 안성시 공도읍 승두리 782-6번지 평택대학교 104호 글로벌피어선 창업보육센터","indutype":"주방용구 - 주방용구","category":"other"}]},{"lat":"36.998301505","long":"127.16724771","imageIndex":17,"items":[{"name":"경민종합철물건재","tel":"031-653-3592","addr":"경기도 안성시 공도읍 승두리 68-2번지","indutype":"건축자재 - 기타건축자재","category":"other"},{"name":"다인향","tel":"070-4282-2468","addr":"경기도 안성시 공도읍 승두리 68-2번지","indutype":"신변잡화 - 기타잡화","category":"other"},{"name":"사랑의 꽃 선물","tel":"031-653-5656","addr":"경기도 안성시 공도읍 승두리 68-2번지","indutype":"문화.취미 - 화원","category":"other"}]},{"lat":"36.99802508","long":"127.16513512","imageIndex":17,"items":[{"name":"경희건재","tel":"031-653-2549","addr":"경기도 안성시 공도읍 승두리 537-3번지","indutype":"건축자재 - 기타건축자재","category":"other"}]},{"lat":"36.998076316","long":"127.16719105","imageIndex":17,"items":[{"name":"공도골프","tel":"031-653-5531","addr":"경기도 안성시 공도읍 승두리 68-3","indutype":"회원제형태 - 레져업소","category":"other"}]},{"lat":"36.999159582","long":"127.1721926","imageIndex":17,"items":[{"name":"공도우체국","tel":"031-653-2005","addr":"경기도 안성시 공도읍 승두리 60-56번지","indutype":"용역 서비스 - 공공요금대행서비스/소","category":"other"}]},{"lat":"37.000050207","long":"127.17319443","imageIndex":17,"items":[{"name":"공도장식","tel":"031-691-9909","addr":"경기도 안성시 공도읍 승두리 60-8번지","indutype":"건축자재 - 인테리어전문","category":"other"}]},{"lat":"36.996553185","long":"127.15386448","imageIndex":17,"items":[{"name":"남골프아카데미","tel":"031-653-0750","addr":"경기도 안성시 공도읍 승두리 598-87번지 3층,4층","indutype":"회원제형태 - 레져업소","category":"other"}]},{"lat":"36.995220476","long":"127.17319489","imageIndex":17,"items":[{"name":"늘푸른골프","tel":"031-652-8599","addr":"경기도 안성시 공도읍 승두리 11-5번지 늘푸른골프장내 지하층 골프샵","indutype":"레져용품 - 스포츠·레져용품","category":"other"},{"name":"예스스크린골프존","tel":"031-654-0728","addr":"경기도 안성시 공도읍 승두리 11-5번지","indutype":"회원제형태 - 레져업소","category":"other"}]},{"lat":"36.997054902","long":"127.1694918","imageIndex":17,"items":[{"name":"대명건축자재","tel":"031-655-9504","addr":"경기도 안성시 공도읍 승두리 79-56번지","indutype":"건축자재 - 기타건축자재","category":"other"}]},{"lat":"36.996274835","long":"127.16671536","imageIndex":17,"items":[{"name":"대성전기냉난방","tel":"031-258-1746","addr":"경기도 안성시 공도읍 승두리 76-19","indutype":"건축자재 - 보일러·펌프·샷시","category":"other"}]},{"lat":"36.997414737","long":"127.16338133","imageIndex":17,"items":[{"name":"동서가구","tel":"031-656-7644","addr":"경기도 안성시 공도읍 승두리 542-6번지","indutype":"가구 - 일반가구","category":"other"}]},{"lat":"36.996859566","long":"127.16741311","imageIndex":17,"items":[{"name":"드림디포 대한공도점","tel":"031-656-4559","addr":"경기도 안성시 공도읍 승두리 78-19번지","indutype":"서적문구 - 문구용품","category":"other"}]},{"lat":"36.992554828","long":"127.17213302","imageIndex":17,"items":[{"name":"디자인 씨","tel":"031-618-1203","addr":"경기도 안성시 공도읍 승두리 312-14번지","indutype":"용역 서비스 - 종합용역","category":"other"}]},{"lat":"36.998162582","long":"127.16994358","imageIndex":17,"items":[{"name":"마실","tel":"02-1234-1234","addr":"경기도 안성시 공도읍 승두리 63-12번지","indutype":"문화.취미 - 문화취미기타","category":"other"}]},{"lat":"36.998576169","long":"127.17058483","imageIndex":17,"items":[{"name":"무브 (MOVE)","tel":"070-4922-1261","addr":"경기도 안성시 공도읍 승두리 61-1번지","indutype":"의류 - 정장","category":"other"}]},{"lat":"36.985409715","long":"127.15869476","imageIndex":17,"items":[{"name":"빅피싱","tel":"031-655-4303","addr":"경기도 안성시 공도읍 승두리 693","indutype":"레져용품 - 스포츠·레져용품","category":"other"}]},{"lat":"36.996855688","long":"127.17018786","imageIndex":17,"items":[{"name":"세븐일레븐안성공도제일점","tel":"031-1577-0711","addr":"경기도 안성시 공도읍 승두리 80-15번지","indutype":"유통업 영리 - 편 의 점","category":"other"}]},{"lat":"36.997964268","long":"127.16999931","imageIndex":17,"items":[{"name":"숙녀의집","tel":"031-654-0024","addr":"경기도 안성시 공도읍 승두리 59-11번지 3호","indutype":"의류 - 정장","category":"other"}]},{"lat":"36.989442053","long":"127.15518712","imageIndex":17,"items":[{"name":"스타코퍼레이션(주)","tel":"031-657-0904","addr":"경기도 안성시 공도읍 승두리 736-24번지 2층","indutype":"의류 - 기타의류","category":"other"},{"name":"스타코퍼레이션(주)","tel":"031-657-0904","addr":"경기도 안성시 공도읍 승두리 736-24번지 2층","indutype":"의류 - 기타의류","category":"other"}]},{"lat":"36.985605622","long":"127.16710807","imageIndex":17,"items":[{"name":"씨드칸무역","tel":"031-657-0292","addr":"경기도 안성시 공도읍 승두리 402-1번지","indutype":"문화.취미 - 화원","category":"other"}]},{"lat":"36.990825841","long":"127.15816662","imageIndex":17,"items":[{"name":"씨앗","tel":"","addr":"경기도 안성시 공도읍 승두리 636-2번지","indutype":"농업 - 비료,사료,종자","category":"other"}]},{"lat":"36.996138494","long":"127.15402093","imageIndex":17,"items":[{"name":"아이지에이(IGA)승두리점","tel":"031-768-0708","addr":"경기도 안성시 공도읍 승두리 598-130번지 소망빌라","indutype":"유통업 영리 - 편 의 점","category":"other"}]},{"lat":"36.997749585","long":"127.16230357","imageIndex":17,"items":[{"name":"안성맞춤꽃직매장","tel":"031-654-5777","addr":"경기도 안성시 공도읍 승두리 546-3","indutype":"문화.취미 - 화원","category":"other"}]},{"lat":"36.997471887","long":"127.15416961","imageIndex":17,"items":[{"name":"안성맞춤자전거","tel":"031-654-3021","addr":"경기도 안성시 공도읍 승두리 598-13번지","indutype":"레져용품 - 스포츠·레져용품","category":"other"}]},{"lat":"36.998381447","long":"127.1680792","imageIndex":17,"items":[{"name":"알즈너정상대리점","tel":"031-657-4378","addr":"경기도 안성시 공도읍 승두리 66-3번지","indutype":"회원제형태 - 기타4","category":"other"}]},{"lat":"36.998408057","long":"127.16838258","imageIndex":17,"items":[{"name":"애니컴","tel":"031-653-3722","addr":"경기도 안성시 공도읍 승두리 65-12","indutype":"사무통신 - 컴퓨터","category":"other"}]},{"lat":"36.995325074","long":"127.16933076","imageIndex":17,"items":[{"name":"영훈설비","tel":"031-653-2261","addr":"경기도 안성시 공도읍 승두리 85번지 승두연립 106호","indutype":"건축자재 - 보일러·펌프·샷시","category":"other"}]},{"lat":"36.991219203","long":"127.16052635","imageIndex":17,"items":[{"name":"유성전기모터","tel":"031-653-1655","addr":"경기도 안성시 공도읍 승두리 650-5번지","indutype":"기타 - 기계공구","category":"other"}]},{"lat":"36.993102889","long":"127.17324633","imageIndex":17,"items":[{"name":"주식회사 디아","tel":"031-618-7591","addr":"경기도 안성시 공도읍 승두리 30-5번지","indutype":"건축자재 - 건축용 요업제품","category":"other"}]},{"lat":"36.996354968","long":"127.16741202","imageIndex":17,"items":[{"name":"주식회사 보경농자재","tel":"031-618-3781","addr":"경기도 안성시 공도읍 승두리 77-24번지","indutype":"농업 - 기타농업관련","category":"other"}]},{"lat":"36.986689924","long":"127.15816945","imageIndex":17,"items":[{"name":"주식회사LG패션/스포츠특판","tel":"031-3441-9188","addr":"경기도 안성시 공도읍 승두리 689-8","indutype":"의류 - 스포츠의류","category":"other"}]},{"lat":"36.996157988","long":"127.17291614","imageIndex":17,"items":[{"name":"주식회사늘푸른기업","tel":"031-658-4588","addr":"경기도 안성시 공도읍 승두리 11-1","indutype":"회원제형태 - 레져업소","category":"other"}]},{"lat":"36.987499026","long":"127.15958638","imageIndex":17,"items":[{"name":"주식회사에스에스아도니스","tel":"031-653-9216","addr":"경기도 안성시 공도읍 승두리 686-3번지 1층","indutype":"건축자재 - 기타건축자재","category":"other"}]},{"lat":"36.997579842","long":"127.16783032","imageIndex":17,"items":[{"name":"참살이 창업아카데미","tel":"031-654-3182","addr":"경기도 안성시 공도읍 승두리 78-42번지","indutype":"건축자재 - 인테리어전문","category":"other"}]},{"lat":"36.998522312","long":"127.17043866","imageIndex":17,"items":[{"name":"캠핑카(카인드)","tel":"","addr":"경기도 안성시 공도읍 승두리 61-2번지 103호","indutype":"레져용품 - 스포츠·레져용품","category":"other"}]},{"lat":"36.998131219","long":"127.16658453","imageIndex":17,"items":[{"name":"컬투패밀리편의점","tel":"031-653-7588","addr":"경기도 안성시 공도읍 승두리 70-2번지","indutype":"유통업 영리 - 편 의 점","category":"other"}]},{"lat":"36.99994216","long":"127.17313801","imageIndex":17,"items":[{"name":"퓨어에스테틱","tel":"070-4149-9619","addr":"경기도 안성시 공도읍 승두리 60-129번지","indutype":"회원제형태 - 기타4","category":"other"}]},{"lat":"36.997911529","long":"127.16905554","imageIndex":17,"items":[{"name":"핏어펫","tel":"","addr":"경기도 안성시 공도읍 승두리 64-11번지","indutype":"문화.취미 - 애완동물","category":"other"}]},{"lat":"36.99777525","long":"127.16985286","imageIndex":17,"items":[{"name":"한성만색소폰","tel":"070-4100-0441","addr":"경기도 안성시 공도읍 승두리 59-6번지 지하1층","indutype":"서적문구 - 일반서적","category":"other"}]},{"lat":"36.99163417","long":"127.16016775","imageIndex":17,"items":[{"name":"현대공조닥트","tel":"031-691-7264","addr":"경기도 안성시 공도읍 승두리 620-1번지 가동","indutype":"건축자재 - 기타건축자재","category":"other"}]},{"lat":"36.996686314","long":"127.16888437","imageIndex":17,"items":[{"name":"화심쑥좌훈방","tel":"031-654-9696","addr":"경기도 안성시 공도읍 승두리 79-60번지","indutype":"회원제형태 - 기타4","category":"other"}]},{"lat":"36.997603611","long":"127.1636401","imageIndex":7,"items":[{"name":"(주)녹원축산","tel":"031-666-2141","addr":"경기도 안성시 공도읍 승두리 542-2번지","indutype":"음료식품 - 정육점","category":"food"},{"name":"모링가포크","tel":"031-668-2141","addr":"경기도 안성시 공도읍 승두리 542-2번지","indutype":"음료식품 - 정육점","category":"food"}]},{"lat":"36.989304223","long":"127.15725367","imageIndex":7,"items":[{"name":"G웰빙건강케어","tel":"031-666-3484","addr":"경기도 안성시 공도읍 승두리 730-10번지 A동 2층","indutype":"회원제형태 - 건강식품","category":"food"},{"name":"메이비주식회사","tel":"031-654-1994","addr":"경기도 안성시 공도읍 승두리 730-10","indutype":"음료식품 - 기타음료식품","category":"food"}]},{"lat":"36.997828918","long":"127.17013383","imageIndex":7,"items":[{"name":"경동방앗간","tel":"031-653-2273","addr":"경기도 안성시 공도읍 승두리 59-13","indutype":"음료식품 - 제과점","category":"food"}]},{"lat":"36.997130197","long":"127.16718902","imageIndex":7,"items":[{"name":"공도<자연나라>건강원","tel":"031-655-0443","addr":"경기도 안성시 공도읍 승두리 78-48","indutype":"건강식품 - 기타건강식품","category":"food"}]},{"lat":"36.99740854","long":"127.15438293","imageIndex":7,"items":[{"name":"농업회사법인 허브 주식회사","tel":"031-656-3966","addr":"경기도 안성시 공도읍 승두리 598-32번지 3층","indutype":"음료식품 - 정육점","category":"food"}]},{"lat":"36.985605622","long":"127.16710807","imageIndex":7,"items":[{"name":"딸기나라","tel":"031-657-0293","addr":"경기도 안성시 공도읍 승두리 402-1번지","indutype":"음료식품 - 농·축·수산품","category":"food"}]},{"lat":"36.998413039","long":"127.17124728","imageIndex":7,"items":[{"name":"서안성농협공도중앙지점","tel":"031-653-3920","addr":"경기도 안성시 공도읍 승두리 60-83","indutype":"음료식품 - 미곡상","category":"food"}]},{"lat":"36.999051646","long":"127.17205755","imageIndex":7,"items":[{"name":"소문난방아간","tel":"031-656-5123","addr":"경기도 안성시 공도읍 승두리 60-4번지","indutype":"음료식품 - 기타음료식품","category":"food"}]},{"lat":"36.998216298","long":"127.17019084","imageIndex":7,"items":[{"name":"오가네떡방앗간","tel":"031-653-2152","addr":"경기도 안성시 공도읍 승두리 63-10번지","indutype":"음료식품 - 제과점","category":"food"}]},{"lat":"36.997409213","long":"127.15385494","imageIndex":7,"items":[{"name":"자연푸드","tel":"031-618-1055","addr":"경기도 안성시 공도읍 승두리 598-23","indutype":"음료식품 - 기타음료식품","category":"food"}]},{"lat":"36.997074571","long":"127.15483162","imageIndex":7,"items":[{"name":"주식회사선재","tel":"031-656-3971","addr":"경기도 안성시 공도읍 승두리 598-94번지","indutype":"음료식품 - 정육점","category":"food"}]},{"lat":"36.998576914","long":"127.17005683","imageIndex":7,"items":[{"name":"참아름희망마을협동조합","tel":"070-4355-2689","addr":"경기도 안성시 공도읍 승두리 62-1번지","indutype":"음료식품 - 기타음료식품","category":"food"}]},{"lat":"36.997330149","long":"127.15224833","imageIndex":16,"items":[{"name":"(주)커리어개발연구소","tel":"","addr":"경기도 안성시 공도읍 승두리 782-6번지 평택대글로벌피어선창업보육센터 101호","indutype":"학원 - 기타 교육기관","category":"study"}]},{"lat":"36.998273819","long":"127.16771948","imageIndex":16,"items":[{"name":"강남제일학원","tel":"031-656-6281","addr":"경기도 안성시 공도읍 승두리 67-4","indutype":"학원 - 보습학원","category":"study"}]},{"lat":"36.999051646","long":"127.17205755","imageIndex":16,"items":[{"name":"공도어린이집[아이행복]","tel":"031-618-3320","addr":"경기도 안성시 공도읍 승두리 60-4번지","indutype":"학원 - 유아원","category":"study"},{"name":"공도어린이집[아이행복]","tel":"031-618-3320","addr":"경기도 안성시 공도읍 승두리 60-4번지","indutype":"학원 - 유아원","category":"study"}]},{"lat":"36.989830122","long":"127.17455328","imageIndex":16,"items":[{"name":"이든유치원[아이행복]","tel":"031-618-4499","addr":"경기도 안성시 공도읍 승두리 365-1번지","indutype":"학원 - 유치원","category":"study"}]},{"lat":"36.999690457","long":"127.17272178","imageIndex":16,"items":[{"name":"한국교육협회","tel":"031-656-1885","addr":"경기도 안성시 공도읍 승두리 60-11번지 2층","indutype":"학원 - 기능학원","category":"study"}]},{"lat":"36.997828918","long":"127.17013383","imageIndex":4,"items":[{"name":"38전주식당","tel":"031-651-5858","addr":"경기도 안성시 공도읍 승두리 59-13번지 1층","indutype":"일반휴게음식 - 일반한식","category":"restaurant"},{"name":"복된식당","tel":"031-653-1151","addr":"경기도 안성시 공도읍 승두리 59-13번지","indutype":"일반휴게음식 - 일반한식","category":"restaurant"}]},{"lat":"37.000050207","long":"127.17319443","imageIndex":4,"items":[{"name":"7학년7반 공도점","tel":"031-655-7217","addr":"경기도 안성시 공도읍 승두리 60-8번지 2층","indutype":"일반휴게음식 - 일반한식","category":"restaurant"}]},{"lat":"36.998131219","long":"127.16658453","imageIndex":4,"items":[{"name":"강산골뼈해장국","tel":"031-655-6544","addr":"경기도 안성시 공도읍 승두리 70-2번지","indutype":"일반휴게음식 - 일반한식","category":"restaurant"}]},{"lat":"36.99844207","long":"127.16983185","imageIndex":4,"items":[{"name":"공도정육식당생고기전문점","tel":"031-654-0506","addr":"경기도 안성시 공도읍 승두리 62-3번지","indutype":"일반휴게음식 - 일반한식","category":"restaurant"}]},{"lat":"36.99588608","long":"127.1541103","imageIndex":4,"items":[{"name":"길목칼국수","tel":"031-657-8956","addr":"경기도 안성시 공도읍 승두리 598-131번지","indutype":"일반휴게음식 - 일반한식","category":"restaurant"}]},{"lat":"36.995632935","long":"127.15477259","imageIndex":4,"items":[{"name":"넝쿨식당","tel":"031-655-9256","addr":"경기도 안성시 공도읍 승두리 598-46번지","indutype":"일반휴게음식 - 일반한식","category":"restaurant"}]},{"lat":"36.998442969","long":"127.16919151","imageIndex":4,"items":[{"name":"다복정","tel":"","addr":"경기도 안성시 공도읍 승두리 62-7번지 1층","indutype":"일반휴게음식 - 일반한식","category":"restaurant"}]},{"lat":"36.9898579","long":"127.16766762","imageIndex":4,"items":[{"name":"달팽이하우스","tel":"031-653-2965","addr":"경기도 안성시 공도읍 승두리 197-4번지","indutype":"일반휴게음식 - 일반한식","category":"restaurant"}]},{"lat":"36.998328148","long":"127.16752862","imageIndex":4,"items":[{"name":"만리장성","tel":"031-655-6477","addr":"경기도 안성시 공도읍 승두리 67-2번지","indutype":"일반휴게음식 - 중국식","category":"restaurant"}]},{"lat":"36.997467163","long":"127.15783187","imageIndex":4,"items":[{"name":"만수네냉면","tel":"031-655-8463","addr":"경기도 안성시 공도읍 승두리 593-4번지 101호~103호","indutype":"일반휴게음식 - 일반한식","category":"restaurant"}]},{"lat":"36.997576335","long":"127.17033548","imageIndex":4,"items":[{"name":"사랑방","tel":"031-653-2778","addr":"경기도 안성시 공도읍 승두리 57-3번지","indutype":"일반휴게음식 - 일반한식","category":"restaurant"}]},{"lat":"36.998162582","long":"127.16994358","imageIndex":4,"items":[{"name":"삼천원칼국수","tel":"031-654-1585","addr":"경기도 안성시 공도읍 승두리 63-12번지","indutype":"일반휴게음식 - 일반한식","category":"restaurant"}]},{"lat":"36.998163985","long":"127.16894375","imageIndex":4,"items":[{"name":"손맛국수마을","tel":"031-618-1183","addr":"경기도 안성시 공도읍 승두리 64-13번지","indutype":"일반휴게음식 - 일반한식","category":"restaurant"},{"name":"숲","tel":"","addr":"경기도 안성시 공도읍 승두리 64-13번지 1층","indutype":"일반휴게음식 - 서양음식","category":"restaurant"}]},{"lat":"36.998523135","long":"127.16985449","imageIndex":4,"items":[{"name":"아그집","tel":"031-656-9414","addr":"경기도 안성시 공도읍 승두리 62-2번지 외2필지","indutype":"일반휴게음식 - 일반한식","category":"restaurant"}]},{"lat":"36.998188711","long":"127.17058398","imageIndex":4,"items":[{"name":"예촌","tel":"031-656-6200","addr":"경기도 안성시 공도읍 승두리 59-14","indutype":"일반휴게음식 - 일반한식","category":"restaurant"}]},{"lat":"36.998081833","long":"127.16969625","imageIndex":4,"items":[{"name":"온동네꼬마김밥","tel":"031-618-6035","addr":"경기도 안성시 공도읍 승두리 63-17번지 1층","indutype":"일반휴게음식 - 일반한식","category":"restaurant"},{"name":"이스케","tel":"031-618-8208","addr":"경기도 안성시 공도읍 승두리 63-17번지","indutype":"일반휴게음식 - 스넥","category":"restaurant"}]},{"lat":"36.996553933","long":"127.16688446","imageIndex":4,"items":[{"name":"왕십리곱창","tel":"031-653-4634","addr":"경기도 안성시 공도읍 승두리 78-46번지","indutype":"일반휴게음식 - 일반한식","category":"restaurant"}]},{"lat":"36.996666305","long":"127.17029979","imageIndex":4,"items":[{"name":"이모네해장국","tel":"02-1111-1111","addr":"경기도 안성시 공도읍 승두리 81-1번지","indutype":"일반휴게음식 - 일반한식","category":"restaurant"}]},{"lat":"36.997409413","long":"127.15369766","imageIndex":4,"items":[{"name":"제이엠티(JMT)푸드","tel":"031-656-5382","addr":"경기도 안성시 공도읍 승두리 598-83번지","indutype":"일반휴게음식 - 일반한식","category":"restaurant"}]},{"lat":"36.998491766","long":"127.1729101","imageIndex":4,"items":[{"name":"채연","tel":"","addr":"경기도 안성시 공도읍 승두리 60-223번지 1층","indutype":"일반휴게음식 - 일반한식","category":"restaurant"}]},{"lat":"36.998297868","long":"127.169854","imageIndex":4,"items":[{"name":"투다리","tel":"031-654-2070","addr":"경기도 안성시 공도읍 승두리 63-8번지 1층","indutype":"일반휴게음식 - 일반한식","category":"restaurant"}]},{"lat":"36.998325326","long":"127.16955074","imageIndex":4,"items":[{"name":"페리카나","tel":"031-653-9441","addr":"경기도 안성시 공도읍 승두리 63-14번지 1층 좌측호","indutype":"일반휴게음식 - 스넥","category":"restaurant"}]},{"lat":"36.996967146","long":"127.15428095","imageIndex":4,"items":[{"name":"현무관진등점(외국인전문식당)","tel":"031-652-4466","addr":"경기도 안성시 공도읍 승두리 598-20번지 1층","indutype":"일반휴게음식 - 중국식","category":"restaurant"}]},{"lat":"36.997522825","long":"127.16994218","imageIndex":4,"items":[{"name":"홍성닭집","tel":"031-653-0660","addr":"경기도 안성시 공도읍 승두리 56-4번지","indutype":"일반휴게음식 - 일반한식","category":"restaurant"}]},{"lat":"36.998469686","long":"127.16941625","imageIndex":13,"items":[{"name":"갤러리 PC방","tel":"02-2222-2222","addr":"경기도 안성시 공도읍 승두리 62-6번지","indutype":"레저업소 - 기타레져업소","category":"leisure"}]},{"lat":"36.995220476","long":"127.17319489","imageIndex":13,"items":[{"name":"주식회사 늘푸른골프클럽","tel":"031-658-4588","addr":"경기도 안성시 공도읍 승두리 11-5번지","indutype":"레저업소 - 골프연습장","category":"leisure"}]},{"lat":"36.998360737","long":"127.17000018","imageIndex":13,"items":[{"name":"즐거운노래연습장","tel":"031-656-6977","addr":"경기도 안성시 공도읍 승두리 63-6번지","indutype":"레저업소 - 노 래 방","category":"leisure"}]},{"lat":"36.998469686","long":"127.16941625","imageIndex":13,"items":[{"name":"갤러리헤어","tel":"031-653-4631","addr":"경기도 안성시 공도읍 승두리 62-6번지 1층","indutype":"보건위생 - 미용원","category":"beauty"}]},{"lat":"36.998576169","long":"127.17058483","imageIndex":13,"items":[{"name":"경헤어아트","tel":"031-000-0000","addr":"경기도 안성시 공도읍 승두리 61-1번지","indutype":"보건위생 - 미용원","category":"beauty"}]},{"lat":"36.998192255","long":"127.16805632","imageIndex":13,"items":[{"name":"공도목욕탕공도여관","tel":"031-653-2061","addr":"경기도 안성시 공도읍 승두리 66-9번지","indutype":"보건위생 - 사우나","category":"beauty"}]},{"lat":"36.998328148","long":"127.16752862","imageIndex":13,"items":[{"name":"굿맨헤어","tel":"031-655-8483","addr":"경기도 안성시 공도읍 승두리 67-2번지 공동순복음교회 나동 1층 좌측호","indutype":"보건위생 - 미용원","category":"beauty"}]},{"lat":"36.998381447","long":"127.1680792","imageIndex":13,"items":[{"name":"바니헤어","tel":"031-654-6260","addr":"경기도 안성시 공도읍 승두리 66-3번지 1층","indutype":"보건위생 - 미용원","category":"beauty"}]},{"lat":"36.997911529","long":"127.16905554","imageIndex":13,"items":[{"name":"소망나무색채미술치료연구소","tel":"031-618-2773","addr":"경기도 안성시 공도읍 승두리 64-11번지 3층","indutype":"보건위생 - 기타대인서비스","category":"beauty"}]},{"lat":"36.996327818","long":"127.15394267","imageIndex":13,"items":[{"name":"에덴아동발달센터","tel":"031-652-7723","addr":"경기도 안성시 공도읍 승두리 598-59번지 104호","indutype":"보건위생 - 기타대인서비스","category":"beauty"}]},{"lat":"36.99994216","long":"127.17313801","imageIndex":13,"items":[{"name":"유정헤어#","tel":"","addr":"경기도 안성시 공도읍 승두리 60-129번지 102호","indutype":"보건위생 - 미용원","category":"beauty"}]},{"lat":"36.998131219","long":"127.16658453","imageIndex":13,"items":[{"name":"은애가하는미용실","tel":"","addr":"경기도 안성시 공도읍 승두리 70-2번지","indutype":"보건위생 - 미용원","category":"beauty"},{"name":"조이","tel":"031-616-4939","addr":"경기도 안성시 공도읍 승두리 70-2번지","indutype":"보건위생 - 화장품","category":"beauty"}]},{"lat":"36.998360737","long":"127.17000018","imageIndex":13,"items":[{"name":"제이비에스테틱","tel":"031-618-4644","addr":"경기도 안성시 공도읍 승두리 63-6번지 1층","indutype":"보건위생 - 피부미용실","category":"beauty"}]},{"lat":"36.997522825","long":"127.16994218","imageIndex":13,"items":[{"name":"조은미용실","tel":"031-655-0037","addr":"경기도 안성시 공도읍 승두리 56-4번지","indutype":"보건위생 - 미용원","category":"beauty"}]},{"lat":"36.998470347","long":"127.16894442","imageIndex":13,"items":[{"name":"태후사랑","tel":"031-653-5915","addr":"경기도 안성시 공도읍 승두리 800-3번지","indutype":"보건위생 - 화장품","category":"beauty"}]},{"lat":"36.998163985","long":"127.16894375","imageIndex":13,"items":[{"name":"해피랑 힐링센터","tel":"","addr":"경기도 안성시 공도읍 승두리 64-13번지 2층","indutype":"보건위생 - 의료용품","category":"beauty"}]},{"lat":"36.996385672","long":"127.17122034","imageIndex":0,"items":[{"name":"공도 카 워시존","tel":"031-656-6080","addr":"경기도 안성시 공도읍 승두리 55-3번지","indutype":"자동차정비 유지 - 카인테리어","category":"car"}]},{"lat":"36.990133498","long":"127.15703069","imageIndex":0,"items":[{"name":"대흥상사","tel":"031-675-2462","addr":"경기도 안성시 공도읍 승두리 730-11","indutype":"자동차정비 유지 - 자동차시트·타이어","category":"car"}]},{"lat":"36.997547378","long":"127.15147361","imageIndex":0,"items":[{"name":"드림카프라자","tel":"031-652-0688","addr":"경기도 안성시 공도읍 승두리 787-5번지","indutype":"자동차정비 유지 - 자동차정비","category":"car"},{"name":"디클린","tel":"031-652-0688","addr":"경기도 안성시 공도읍 승두리 787-5번지","indutype":"자동차정비 유지 - 세차장","category":"car"},{"name":"오토앤경기남부지역본부(티씨랩)","tel":"031-652-0688","addr":"경기도 안성시 공도읍 승두리 787-5번지","indutype":"자동차정비 유지 - 자동차부품","category":"car"},{"name":"티씨랩(TC.Lab)","tel":"031-652-0688","addr":"경기도 안성시 공도읍 승두리 787-5번지","indutype":"자동차정비 유지 - 카인테리어","category":"car"}]},{"lat":"36.99674248","long":"127.15380868","imageIndex":0,"items":[{"name":"르노삼성서비스센터공도정비사업소(주)","tel":"031-653-3007","addr":"경기도 안성시 공도읍 승두리 598-92번지","indutype":"자동차정비 유지 - 자동차정비","category":"car"}]},{"lat":"36.998131219","long":"127.16658453","imageIndex":0,"items":[{"name":"모터오일","tel":"031-618-5285","addr":"경기도 안성시 공도읍 승두리 70-2","indutype":"자동차정비 유지 - 윤활유 전문 판매","category":"car"}]},{"lat":"36.998494994","long":"127.17064082","imageIndex":0,"items":[{"name":"부광오토바이","tel":"031-653-2836","addr":"경기도 안성시 공도읍 승두리 60번지","indutype":"자동차판매 - 이륜차판매","category":"car"}]},{"lat":"36.998157723","long":"127.16696655","imageIndex":0,"items":[{"name":"신신세차장","tel":"031-656-1530","addr":"경기도 안성시 공도읍 승두리 68-4번지","indutype":"자동차정비 유지 - 세차장","category":"car"}]},{"lat":"36.9975747","long":"127.16502182","imageIndex":0,"items":[{"name":"엠앤엠(M&M) 모터스","tel":"031-654-6626","addr":"경기도 안성시 공도읍 승두리 538번지","indutype":"자동차정비 유지 - 자동차정비","category":"car"}]},{"lat":"36.997493665","long":"127.15119266","imageIndex":0,"items":[{"name":"제일오토공업사","tel":"031-658-7359","addr":"경기도 안성시 공도읍 승두리 787-4번지","indutype":"자동차정비 유지 - 자동차정비","category":"car"}]},{"lat":"36.99802508","long":"127.16513512","imageIndex":0,"items":[{"name":"타이어프로안성IC점","tel":"031-651-9984","addr":"경기도 안성시 공도읍 승두리 537-3번지","indutype":"자동차정비 유지 - 자동차시트·타이어","category":"car"}]},{"lat":"36.997686887","long":"127.16202259","imageIndex":0,"items":[{"name":"한국타이어안성공도점","tel":"031-652-0121","addr":"경기도 안성시 공도읍 승두리 547-7","indutype":"자동차정비 유지 - 자동차시트·타이어","category":"car"}]},{"lat":"36.997388249","long":"127.16952623","imageIndex":9,"items":[{"name":"공도제일가스","tel":"031-651-1500","addr":"경기도 안성시 공도읍 승두리 79-12번지","indutype":"연료판매점 - LPG 취급점","category":"oil"}]},{"lat":"36.998413039","long":"127.17124728","imageIndex":9,"items":[{"name":"서안성농협공도중앙지점","tel":"031-653-3920","addr":"경기도 안성시 공도읍 승두리 60-83번지","indutype":"연료판매점 - 주유소","category":"oil"}]},{"lat":"36.997411834","long":"127.15879787","imageIndex":9,"items":[{"name":"평화LPG충전소","tel":"031-656-2900","addr":"경기도 안성시 공도읍 승두리 593-6번지 7,12","indutype":"연료판매점 - SK가스충전소","category":"oil"}]},{"lat":"36.998131219","long":"127.16658453","imageIndex":8,"items":[{"name":"바우동물병원","tel":"031-657-0016","addr":"경기도 안성시 공도읍 승두리 70-2","indutype":"기타의료기관 - 동물병원","category":"medical"},{"name":"연세건치과의원","tel":"031-692-8275","addr":"경기도 안성시 공도읍 승두리 70-2번지 203,204,205호","indutype":"의원 - 치과의원","category":"medical"}]},{"lat":"36.998492905","long":"127.17211248","imageIndex":8,"items":[{"name":"안성의료소비자 생활협동조합 서안성지점","tel":"031-651-6121","addr":"경기도 안성시 공도읍 승두리 60-2번지","indutype":"의원 - 한의원","category":"medical"}]}]