[{"lat":"37.10390896","long":"127.51201688","imageIndex":4,"items":[{"name":"DIOS (디오스)","tel":"031-000-0000","addr":"경기도 안성시 일죽면 당촌리 58-1번지","indutype":"일반휴게음식 - 서양음식","category":"restaurant"}]},{"lat":"37.104512539","long":"127.50570988","imageIndex":4,"items":[{"name":"머시꺽정인가","tel":"031-674-3787","addr":"경기도 안성시 일죽면 당촌리 105-15번지","indutype":"일반휴게음식 - 일반한식","category":"restaurant"},{"name":"장수왕갈비탕","tel":"031-672-1977","addr":"경기도 안성시 일죽면 당촌리 105-15번지","indutype":"일반휴게음식 - 일반한식","category":"restaurant"}]},{"lat":"37.108458323","long":"127.50376718","imageIndex":4,"items":[{"name":"물탕골오리","tel":"031-677-5258","addr":"경기도 안성시 일죽면 당촌리 460","indutype":"일반휴게음식 - 일반한식","category":"restaurant"}]},{"lat":"37.1003231","long":"127.50984432","imageIndex":4,"items":[{"name":"본가장수촌","tel":"031-674-2640","addr":"경기도 안성시 일죽면 당촌리 134-3","indutype":"일반휴게음식 - 일반한식","category":"restaurant"}]},{"lat":"37.103487166","long":"127.50951667","imageIndex":4,"items":[{"name":"생극해장곰탕","tel":"031-675-8518","addr":"경기도 안성시 일죽면 당촌리 92번지","indutype":"일반휴게음식 - 일반한식","category":"restaurant"}]},{"lat":"37.099294943","long":"127.50795891","imageIndex":4,"items":[{"name":"시골집생선국수","tel":"031-672-2575","addr":"경기도 안성시 일죽면 당촌리 137-22번지","indutype":"일반휴게음식 - 일반한식","category":"restaurant"}]},{"lat":"37.101180467","long":"127.5116274","imageIndex":4,"items":[{"name":"청용식당","tel":"031-672-6690","addr":"경기도 안성시 일죽면 당촌리 34-12","indutype":"일반휴게음식 - 일반한식","category":"restaurant"}]},{"lat":"37.100853055","long":"127.50387459","imageIndex":4,"items":[{"name":"켈리포니아BBQ(바비큐)","tel":"031-672-5990","addr":"경기도 안성시 일죽면 당촌리 233-17번지","indutype":"일반휴게음식 - 주점","category":"restaurant"}]},{"lat":"37.106158259","long":"127.4979021","imageIndex":17,"items":[{"name":"경인상사","tel":"031-673-8724","addr":"경기도 안성시 일죽면 당촌리 327-2","indutype":"서적문구 - 과학기자재","category":"other"}]},{"lat":"37.105212944","long":"127.5041508","imageIndex":17,"items":[{"name":"대덕상사","tel":"031-671-6021","addr":"경기도 안성시 일죽면 당촌리 293","indutype":"회원제형태 - 기타3","category":"other"},{"name":"오린","tel":"070-8899-1387","addr":"경기도 안성시 일죽면 당촌리 293번지","indutype":"주방용구 - 주방용구","category":"other"}]},{"lat":"37.101514877","long":"127.51348575","imageIndex":17,"items":[{"name":"동일죽장례식장","tel":"031-674-4446","addr":"경기도 안성시 일죽면 당촌리 10-5번지 1층","indutype":"용역 서비스 - 가례서비스업","category":"other"}]},{"lat":"37.103487166","long":"127.50951667","imageIndex":17,"items":[{"name":"세븐일레븐일죽청룡점","tel":"","addr":"경기도 안성시 일죽면 당촌리 92번지","indutype":"유통업 영리 - 편 의 점","category":"other"}]},{"lat":"37.10427017","long":"127.50549454","imageIndex":9,"items":[{"name":"당촌주유소","tel":"031-672-6051","addr":"경기도 안성시 일죽면 당촌리 105-1번지","indutype":"연료판매점 - 쌍용S-OIL","category":"oil"},{"name":"일광에너비스 당촌주유소","tel":"031-672-6051","addr":"경기도 안성시 일죽면 당촌리 105-1번지","indutype":"연료판매점 - 쌍용S-OIL","category":"oil"}]},{"lat":"37.101767646","long":"127.51337495","imageIndex":9,"items":[{"name":"동일죽주유소","tel":"031-674-4999","addr":"경기도 안성시 일죽면 당촌리 11번지","indutype":"연료판매점 - 쌍용S-OIL","category":"oil"},{"name":"동일죽주유소","tel":"031-676-5183","addr":"경기도 안성시 일죽면 당촌리 11번지","indutype":"연료판매점 - 쌍용S-OIL","category":"oil"}]},{"lat":"37.101514877","long":"127.51348575","imageIndex":7,"items":[{"name":"동일죽편의점","tel":"031-671-3490","addr":"경기도 안성시 일죽면 당촌리 10-5번지 1층","indutype":"유통업 영리 - 슈퍼마켓","category":"mart"}]},{"lat":"37.101182155","long":"127.51123369","imageIndex":7,"items":[{"name":"맛있소","tel":"031-674-2544","addr":"경기도 안성시 일죽면 당촌리 35-1번지","indutype":"음료식품 - 기타음료식품","category":"food"}]},{"lat":"37.105212944","long":"127.5041508","imageIndex":7,"items":[{"name":"케이비푸드","tel":"031-674-5222","addr":"경기도 안성시 일죽면 당촌리 293번지","indutype":"음료식품 - 기타음료식품","category":"food"}]}]