[{"lat":"37.43271462","long":"126.99297302","imageIndex":13,"items":[{"name":"HOBBYKING(하비킹)","tel":"02-502-3749","addr":"경기도 과천시 중앙동 36번지 과천1차 종합상가 3층 305호","indutype":"보건위생 - 화장품","category":"beauty"},{"name":"미림헤어뉴스","tel":"02-503-3537","addr":"경기도 과천시 중앙동 36번지 1단지 상가 130호","indutype":"보건위생 - 미용원","category":"beauty"}]},{"lat":"37.428326791","long":"126.99371927","imageIndex":13,"items":[{"name":"美林헤어뉴스","tel":"02-503-3537","addr":"경기도 과천시 중앙동 40-5번지 중앙빌딩 2층 207호","indutype":"서비스 - 미용업","category":"beauty"}]},{"lat":"37.428714046","long":"126.99166297","imageIndex":13,"items":[{"name":"과천임상심리연구소","tel":"031-3418-0502","addr":"경기도 과천시 중앙동 40-13번지 가보자빌딩 4층 404호","indutype":"보건위생 - 기타대인서비스","category":"beauty"}]},{"lat":"37.428299546","long":"126.9912789","imageIndex":13,"items":[{"name":"다원대중사우나","tel":"02-503-5040","addr":"경기도 과천시 중앙동 40-11번지 현대빌딩 지하2층 1호","indutype":"보건위생 - 사우나","category":"beauty"}]},{"lat":"37.429299707","long":"126.99175327","imageIndex":13,"items":[{"name":"데상쥬피부 스킨","tel":"02-504-7440","addr":"경기도 과천시 중앙동 41-1번지 kt과천스마트타워 3층","indutype":"보건위생 - 피부미용실","category":"beauty"},{"name":"쟈크데샹쥬헤어과천점","tel":"02-504-7447","addr":"경기도 과천시 중앙동 41-1번지 케이티과천스마트타워 3층","indutype":"보건위생 - 미용원","category":"beauty"}]},{"lat":"37.429047367","long":"126.99114321","imageIndex":13,"items":[{"name":"동성대중목욕탕","tel":"02-502-9055","addr":"경기도 과천시 중앙동 40-4번지 동성빌딩","indutype":"보건위생 - 사우나","category":"beauty"},{"name":"소정헤어","tel":"02-503-8067","addr":"경기도 과천시 중앙동 67번지 10단지복합상가 2층 207호","indutype":"서비스 - 일반미용업","category":"beauty"},{"name":"태후사랑","tel":"02-507-2079","addr":"경기도 과천시 중앙동 40-4번지 동성빌딩 3층 307호","indutype":"보건위생 - 화장품","category":"beauty"},{"name":"헤어립","tel":"02-504-3629","addr":"경기도 과천시 중앙동 40-4번지 동성빌딩 303호","indutype":"보건위생 - 미용원","category":"beauty"}]},{"lat":"37.42891224","long":"126.99139179","imageIndex":13,"items":[{"name":"마누스","tel":"02-502-5504","addr":"경기도 과천시 중앙동 40-5번지 중앙빌딩 201-3동 2층","indutype":"보건위생 - 피부미용실","category":"beauty"}]},{"lat":"37.426911065","long":"126.98402593","imageIndex":13,"items":[{"name":"신세기안경 정부청사점","tel":"02-9453-0037","addr":"경기도 과천시 중앙동 1번지 정부과천청사 후생관","indutype":"보건위생 - 안경","category":"beauty"}]},{"lat":"37.428524816","long":"126.99147094","imageIndex":13,"items":[{"name":"아모레","tel":"02-507-3989","addr":"경기도 과천시 중앙동 40-12번지 대상빌딩 504동 505호","indutype":"보건위생 - 화장품","category":"beauty"},{"name":"아이마트안경","tel":"02-504-6900","addr":"경기도 과천시 중앙동 40-12번지 대상빌딩 1층 101호","indutype":"보건위생 - 안경","category":"beauty"}]},{"lat":"37.428245444","long":"126.99086089","imageIndex":13,"items":[{"name":"약손명가에스테틱과천점","tel":"02-504-3343","addr":"경기도 과천시 중앙동 40-10번지 고려빌딩 3층 301호","indutype":"보건위생 - 피부미용실","category":"beauty"},{"name":"토리헤어","tel":"02-502-5630","addr":"경기도 과천시 중앙동 40-10번지 고려빌딩 3층","indutype":"보건위생 - 미용원","category":"beauty"}]},{"lat":"37.452744296","long":"127.00108499","imageIndex":13,"items":[{"name":"쟈크데샹쥬헤어(과천점)","tel":"02-504-7447","addr":"경기도 과천시 중앙동 41-1번지 케이티스마트타워 3층","indutype":"서비스 - 미용업","category":"beauty"}]},{"lat":"37.427686932","long":"126.99200206","imageIndex":13,"items":[{"name":"토리헤어","tel":"02-502-5630","addr":"경기도 과천시 중앙동 40-10번지 고려빌딩 3층","indutype":"서비스 - 미용실","category":"beauty"}]},{"lat":"37.428083503","long":"126.99350464","imageIndex":13,"items":[{"name":"헤어립","tel":"02-504-3629","addr":"경기도 과천시 중앙동 40-4번지 동성빌딩 303호","indutype":"서비스 - 미용실","category":"beauty"}]},{"lat":"37.434642829","long":"126.9937411","imageIndex":13,"items":[{"name":"헤어아트샤갈","tel":"02-504-8999","addr":"경기도 과천시 중앙동 71번지 래미안에코팰리스 상가 1동 101호","indutype":"보건위생 - 미용원","category":"beauty"}]},{"lat":"37.434273668","long":"126.99794433","imageIndex":13,"items":[{"name":"헤어아트샤갈","tel":"02-504-8999","addr":"경기도 과천시 중앙동 71번지 래미안에코팰리스 상가 1동 101호","indutype":"서비스 - 미용업","category":"beauty"}]}]