[{"lat":"37.260349585","long":"126.98792287","imageIndex":0,"items":[{"name":"(주)세일카","tel":"031-291-1045","addr":"경기도 수원시 권선구 서둔동 79-9번지 210호","indutype":"자동차판매 - 중고자동차판매","category":"car"},{"name":"(주)카오션","tel":"031-278-3454","addr":"경기도 수원시 권선구 서둔동 79-9번지 수원오토컬렉션 208호","indutype":"자동차판매 - 중고자동차판매","category":"car"},{"name":"(주)카파인더","tel":"031-278-8300","addr":"경기도 수원시 권선구 서둔동 79-9번지 214호","indutype":"자동차판매 - 중고자동차판매","category":"car"},{"name":"(주)하나오토","tel":"031-278-1100","addr":"경기도 수원시 권선구 서둔동 79-9번지 215호","indutype":"자동차판매 - 중고자동차판매","category":"car"},{"name":"다인모터스 주식회사","tel":"031-296-0053","addr":"경기도 수원시 권선구 서둔동 79-9번지 303호","indutype":"자동차판매 - 중고자동차판매","category":"car"},{"name":"마이카","tel":"031-298-1789","addr":"경기도 수원시 권선구 서둔동 79-9번지 지하1층 13호 외4필지","indutype":"자동차정비 유지 - 자동차정비","category":"car"},{"name":"블루오토","tel":"031-295-7333","addr":"경기도 수원시 권선구 서둔동 79-9번지 2층 221호","indutype":"자동차판매 - 중고자동차판매","category":"car"},{"name":"오토큐브","tel":"031-111-1111","addr":"경기도 수원시 권선구 서둔동 79-9번지 202호","indutype":"자동차판매 - 중고자동차판매","category":"car"},{"name":"자동차마을","tel":"031-298-8945","addr":"경기도 수원시 권선구 서둔동 79-9번지 200호","indutype":"자동차판매 - 중고자동차판매","category":"car"},{"name":"주식회사 메리트모터스","tel":"031-227-8411","addr":"경기도 수원시 권선구 서둔동 79-9번지 2층 211호","indutype":"자동차판매 - 중고자동차판매","category":"car"},{"name":"주식회사 성진모터스","tel":"031-291-7770","addr":"경기도 수원시 권선구 서둔동 79-9번지 3층 308호","indutype":"자동차판매 - 중고자동차판매","category":"car"},{"name":"주식회사 으뜸자동차","tel":"031-278-4433","addr":"경기도 수원시 권선구 서둔동 79-9번지 403호 수원오토컬렉션","indutype":"자동차판매 - 중고자동차판매","category":"car"},{"name":"주식회사 정이모터스","tel":"031-292-6242","addr":"경기도 수원시 권선구 서둔동 79-9번지 2층 204호","indutype":"자동차판매 - 중고자동차판매","category":"car"},{"name":"주식회사 카온","tel":"031-278-8819","addr":"경기도 수원시 권선구 서둔동 79-9번지 212,213호","indutype":"자동차판매 - 중고자동차판매","category":"car"},{"name":"주식회사 탑코리아","tel":"031-294-6002","addr":"경기도 수원시 권선구 서둔동 79-9번지 4층 400호","indutype":"자동차판매 - 중고자동차판매","category":"car"},{"name":"주식회사엠에스이노베이션","tel":"031-293-3343","addr":"경기도 수원시 권선구 서둔동 79-9번지 지하1층","indutype":"자동차정비 유지 - 자동차정비","category":"car"},{"name":"주식회사유성디엔엠","tel":"031-227-1238","addr":"경기도 수원시 권선구 서둔동 79-9번지 321호","indutype":"자동차판매 - 중고자동차판매","category":"car"},{"name":"차벤처스 (주)지점","tel":"031-292-8933","addr":"경기도 수원시 권선구 서둔동 79-9번지 4층 404호","indutype":"자동차판매 - 중고자동차판매","category":"car"},{"name":"차벤처스주식회사","tel":"031-292-8933","addr":"경기도 수원시 권선구 서둔동 79-9번지 404호","indutype":"자동차판매 - 중고자동차판매","category":"car"},{"name":"차칸썬팅","tel":"","addr":"경기도 수원시 권선구 서둔동 79-9번지 B1층 B109호","indutype":"자동차정비 유지 - 자동차부품","category":"car"},{"name":"터보모터스(주)","tel":"031-298-9777","addr":"경기도 수원시 권선구 서둔동 79-9번지 201호","indutype":"자동차판매 - 중고자동차판매","category":"car"},{"name":"트라이브중고차 주식회사","tel":"031-295-3130","addr":"경기도 수원시 권선구 서둔동 79-9번지 207호 수원오토컬렉션","indutype":"자동차판매 - 중고자동차판매","category":"car"},{"name":"티에스모터스","tel":"031-278-6655","addr":"경기도 수원시 권선구 서둔동 79-9번지 218호","indutype":"자동차판매 - 중고자동차판매","category":"car"}]},{"lat":"37.266792463","long":"126.99281444","imageIndex":0,"items":[{"name":"KDS자동차외형복원","tel":"031-294-7282","addr":"경기도 수원시 권선구 서둔동 17-597번지 가동103,104호","indutype":"자동차정비 유지 - 카인테리어","category":"car"},{"name":"스피드메이트 진흥청점","tel":"031-292-0708","addr":"경기도 수원시 권선구 서둔동 17-597번지","indutype":"자동차정비 유지 - 자동차정비","category":"car"}]},{"lat":"37.262431653","long":"126.9950922","imageIndex":0,"items":[{"name":"광장타이어(중고)","tel":"031-298-8943","addr":"경기도 수원시 권선구 서둔동 333-3","indutype":"자동차정비 유지 - 자동차시트·타이어","category":"car"},{"name":"이지모터스","tel":"031-296-7886","addr":"경기도 수원시 권선구 서둔동 333-3번지","indutype":"자동차정비 유지 - 자동차정비","category":"car"}]},{"lat":"37.270540792","long":"126.99342276","imageIndex":0,"items":[{"name":"네비나라","tel":"031-292-2282","addr":"경기도 수원시 권선구 서둔동 14-53번지 1층","indutype":"자동차정비 유지 - 자동차부품","category":"car"}]},{"lat":"37.268297016","long":"126.99103294","imageIndex":0,"items":[{"name":"대명카크리닝","tel":"031-291-6636","addr":"경기도 수원시 권선구 서둔동 46-4번지","indutype":"자동차정비 유지 - 세차장","category":"car"}]},{"lat":"37.266657378","long":"126.99367127","imageIndex":0,"items":[{"name":"대흥라지에타","tel":"031-296-8806","addr":"경기도 수원시 권선구 서둔동 17-114번지","indutype":"자동차정비 유지 - 자동차부품","category":"car"}]},{"lat":"37.270820025","long":"126.99239675","imageIndex":0,"items":[{"name":"더 카웨이","tel":"031-292-8881","addr":"경기도 수원시 권선구 서둔동 8-20번지","indutype":"자동차판매 - 중고자동차판매","category":"car"},{"name":"두꺼비중고차","tel":"031-291-0211","addr":"경기도 수원시 권선구 서둔동 8-20번지 2층","indutype":"자동차판매 - 중고자동차판매","category":"car"},{"name":"서호카크리닝","tel":"031-000-0000","addr":"경기도 수원시 권선구 서둔동 8-20번지","indutype":"자동차정비 유지 - 세차장","category":"car"},{"name":"선한모터스","tel":"031-294-7600","addr":"경기도 수원시 권선구 서둔동 8-20번지","indutype":"자동차판매 - 중고자동차판매","category":"car"},{"name":"신대명모터스","tel":"031-278-4422","addr":"경기도 수원시 권선구 서둔동 8-20번지","indutype":"자동차판매 - 중고자동차판매","category":"car"},{"name":"주식회사 소유","tel":"031-227-0237","addr":"경기도 수원시 권선구 서둔동 8-20번지 지층","indutype":"자동차판매 - 중고자동차판매","category":"car"},{"name":"주식회사다카마트","tel":"031-349-7400","addr":"경기도 수원시 권선구 서둔동 8-20번지","indutype":"자동차판매 - 중고자동차판매","category":"car"}]},{"lat":"37.269540736","long":"126.99456158","imageIndex":0,"items":[{"name":"동명자동차공업사","tel":"031-295-7442","addr":"경기도 수원시 권선구 서둔동 9-30번지","indutype":"자동차정비 유지 - 자동차정비","category":"car"}]},{"lat":"37.269351571","long":"126.99531697","imageIndex":0,"items":[{"name":"레드튠(RED TUNE)","tel":"031-221-4030","addr":"경기도 수원시 권선구 서둔동 13-2번지 1층","indutype":"자동차정비 유지 - 자동차부품","category":"car"}]},{"lat":"37.2692075","long":"126.99695175","imageIndex":0,"items":[{"name":"만수카정비","tel":"031-254-0457","addr":"경기도 수원시 권선구 서둔동 291-6번지","indutype":"자동차정비 유지 - 자동차정비","category":"car"}]},{"lat":"37.268567531","long":"126.99331026","imageIndex":0,"items":[{"name":"블랙박스왕도매","tel":"","addr":"경기도 수원시 권선구 서둔동 17-214번지 101호","indutype":"자동차정비 유지 - 자동차부품","category":"car"}]},{"lat":"37.271404871","long":"126.98542901","imageIndex":0,"items":[{"name":"삼성테크","tel":"031-292-7686","addr":"경기도 수원시 권선구 서둔동 205-1번지","indutype":"자동차정비 유지 - 자동차부품","category":"car"}]},{"lat":"37.262963219","long":"126.99448339","imageIndex":0,"items":[{"name":"삼영카플러스매니져","tel":"","addr":"경기도 수원시 권선구 서둔동 323-51번지 지하1층","indutype":"자동차정비 유지 - 세차장","category":"car"},{"name":"오토오아시스 롯데몰 수원","tel":"031-8066-1508","addr":"경기도 수원시 권선구 서둔동 323-51번지","indutype":"자동차정비 유지 - 자동차정비","category":"car"}]},{"lat":"37.26237756","long":"126.99464128","imageIndex":0,"items":[{"name":"새빛MOTORS","tel":"031-8013-7687","addr":"경기도 수원시 권선구 서둔동 323-86번지","indutype":"자동차정비 유지 - 자동차정비","category":"car"}]},{"lat":"37.27159409","long":"126.98545152","imageIndex":0,"items":[{"name":"서둔카 서비스","tel":"031-295-6822","addr":"경기도 수원시 권선구 서둔동 203-1번지","indutype":"자동차정비 유지 - 자동차정비","category":"car"}]},{"lat":"37.270658104","long":"126.99600458","imageIndex":0,"items":[{"name":"서수원자동차서비스","tel":"031-000-0000","addr":"경기도 수원시 권선구 서둔동 9-19번지","indutype":"자동차정비 유지 - 자동차정비","category":"car"}]},{"lat":"37.269288369","long":"126.99350183","imageIndex":0,"items":[{"name":"선일밧데리","tel":"031-224-1053","addr":"경기도 수원시 권선구 서둔동 9-42번지","indutype":"자동차정비 유지 - 카인테리어","category":"car"}]},{"lat":"37.271099546","long":"126.99500111","imageIndex":0,"items":[{"name":"수원 태평양(개인택시 차량 관리소)","tel":"031-291-1148","addr":"경기도 수원시 권선구 서둔동 9-17번지","indutype":"자동차정비 유지 - 자동차정비","category":"car"}]},{"lat":"37.270621867","long":"126.99319726","imageIndex":0,"items":[{"name":"수원중고타이어","tel":"031-291-8252","addr":"경기도 수원시 권선구 서둔동 14-46번지","indutype":"자동차정비 유지 - 자동차정비","category":"car"}]},{"lat":"37.263935687","long":"126.98795598","imageIndex":0,"items":[{"name":"에스에이씨광택(SAC광택)","tel":"031-278-0900","addr":"경기도 수원시 권선구 서둔동 61-2번지 15,16호","indutype":"자동차정비 유지 - 카인테리어","category":"car"}]},{"lat":"37.27562072","long":"126.97981301","imageIndex":0,"items":[{"name":"에이큐(AQ)","tel":"031-296-6758","addr":"경기도 수원시 권선구 서둔동 247-21번지","indutype":"자동차정비 유지 - 자동차정비","category":"car"}]},{"lat":"37.269071969","long":"126.99173182","imageIndex":0,"items":[{"name":"에코모터스정비(주)","tel":"031-297-2627","addr":"경기도 수원시 권선구 서둔동 14-15번지","indutype":"자동차정비 유지 - 자동차정비","category":"car"}]},{"lat":"37.269178358","long":"126.97975861","imageIndex":0,"items":[{"name":"영동오토바이","tel":"031-296-4360","addr":"경기도 수원시 권선구 서둔동 156-13번지","indutype":"자동차판매 - 이륜차판매","category":"car"}]},{"lat":"37.269153089","long":"126.99203621","imageIndex":0,"items":[{"name":"영주모터스","tel":"031-297-6633","addr":"경기도 수원시 권선구 서둔동 14-62번지","indutype":"자동차판매 - 중고자동차판매","category":"car"},{"name":"중앙모터스","tel":"031-302-6699","addr":"경기도 수원시 권선구 서둔동 14-62번지","indutype":"자동차판매 - 중고자동차판매","category":"car"}]},{"lat":"37.278323597","long":"126.97878611","imageIndex":0,"items":[{"name":"유진카센타","tel":"031-293-5151","addr":"경기도 수원시 권선구 서둔동 260-36번지","indutype":"자동차정비 유지 - 자동차정비","category":"car"}]},{"lat":"37.270099415","long":"126.99517033","imageIndex":0,"items":[{"name":"주식회사그린에너지","tel":"031-227-1720","addr":"경기도 수원시 권선구 서둔동 9-67번지","indutype":"자동차정비 유지 - 자동차정비","category":"car"}]},{"lat":"37.274737915","long":"126.98087314","imageIndex":0,"items":[{"name":"진흥모터샵","tel":"031-295-5000","addr":"경기도 수원시 권선구 서둔동 235-2번지","indutype":"자동차판매 - 이륜차판매","category":"car"},{"name":"타이어코리아","tel":"031-298-8077","addr":"경기도 수원시 권선구 서둔동 235-2번지","indutype":"자동차정비 유지 - 자동차시트·타이어","category":"car"}]},{"lat":"37.270874049","long":"126.99197959","imageIndex":0,"items":[{"name":"청호세차장","tel":"","addr":"경기도 수원시 권선구 서둔동 8-22번지","indutype":"자동차정비 유지 - 세차장","category":"car"}]},{"lat":"37.261764885","long":"126.99500209","imageIndex":0,"items":[{"name":"카스토리","tel":"031-291-6566","addr":"경기도 수원시 권선구 서둔동 333-40번지","indutype":"자동차정비 유지 - 자동차부품","category":"car"}]},{"lat":"37.267990852","long":"126.99306231","imageIndex":0,"items":[{"name":"카워시180 수원역점","tel":"031-227-9988","addr":"경기도 수원시 권선구 서둔동 17-25번지 외2필지","indutype":"자동차정비 유지 - 세차장","category":"car"}]},{"lat":"37.264206613","long":"126.9941225","imageIndex":0,"items":[{"name":"타이어타운(수원역점)","tel":"031-278-2550","addr":"경기도 수원시 권선구 서둔동 323-66번지","indutype":"자동차정비 유지 - 자동차시트·타이어","category":"car"}]},{"lat":"37.265990636","long":"126.99391937","imageIndex":0,"items":[{"name":"한국전지상사","tel":"031-298-1222","addr":"경기도 수원시 권선구 서둔동 17-503번지","indutype":"자동차정비 유지 - 자동차부품","category":"car"}]},{"lat":"37.269180341","long":"126.99478711","imageIndex":0,"items":[{"name":"현대카정비센타","tel":"031-217-5117","addr":"경기도 수원시 권선구 서둔동 17-150번지","indutype":"자동차정비 유지 - 자동차정비","category":"car"}]}]