[{"lat":"37.5231324","long":"127.59860701","imageIndex":4,"items":[{"name":"230년옛날집","tel":"031-773-7933","addr":"경기도 양평군 용문면 덕촌리 143번지","indutype":"일반휴게음식 - 일반한식","category":"restaurant"}]},{"lat":"37.512940263","long":"127.60435095","imageIndex":4,"items":[{"name":"고향의밥상","tel":"031-774-6582","addr":"경기도 양평군 용문면 덕촌리 71-10번지","indutype":"일반휴게음식 - 일반한식","category":"restaurant"}]},{"lat":"37.522552544","long":"127.59924719","imageIndex":4,"items":[{"name":"고향집","tel":"031-775-9779","addr":"경기도 양평군 용문면 덕촌리 144-3","indutype":"일반휴게음식 - 일반한식","category":"restaurant"}]},{"lat":"37.507222932","long":"127.60535688","imageIndex":4,"items":[{"name":"광이원농가맛집","tel":"031-771-8800","addr":"경기도 양평군 용문면 덕촌리 12-4","indutype":"일반휴게음식 - 일반한식","category":"restaurant"}]},{"lat":"37.509805274","long":"127.60426924","imageIndex":4,"items":[{"name":"길따라 바람따라","tel":"031-774-5755","addr":"경기도 양평군 용문면 덕촌리 36-3번지","indutype":"일반휴게음식 - 일반한식","category":"restaurant"}]},{"lat":"37.51830391","long":"127.60024271","imageIndex":4,"items":[{"name":"동촌","tel":"031-774-7756","addr":"경기도 양평군 용문면 덕촌리 114-3","indutype":"일반휴게음식 - 일반한식","category":"restaurant"}]},{"lat":"37.517578749","long":"127.6011079","imageIndex":4,"items":[{"name":"로쏘블루","tel":"031-774-8884","addr":"경기도 양평군 용문면 덕촌리 112-8번지 나동 1층","indutype":"일반휴게음식 - 서양음식","category":"restaurant"},{"name":"산&들","tel":"031-775-9500","addr":"경기도 양평군 용문면 덕촌리 112-8번지 1층","indutype":"일반휴게음식 - 일반한식","category":"restaurant"}]},{"lat":"37.517769779","long":"127.60074746","imageIndex":4,"items":[{"name":"마당","tel":"031-775-0311","addr":"경기도 양평군 용문면 덕촌리 112-6번지","indutype":"일반휴게음식 - 일반한식","category":"restaurant"}]},{"lat":"37.510610474","long":"127.60538411","imageIndex":4,"items":[{"name":"메르헨 146","tel":"031-774-1465","addr":"경기도 양평군 용문면 덕촌리 32-4번지 1층","indutype":"일반휴게음식 - 일반한식","category":"restaurant"}]},{"lat":"37.515686833","long":"127.60285732","imageIndex":4,"items":[{"name":"명륜진사갈비양평용문점","tel":"031-774-5679","addr":"경기도 양평군 용문면 덕촌리 99-1번지","indutype":"일반휴게음식 - 일반한식","category":"restaurant"},{"name":"참살이불쭈꾸미","tel":"031-773-2587","addr":"경기도 양평군 용문면 덕촌리 99-1번지 1층","indutype":"일반휴게음식 - 일반한식","category":"restaurant"}]},{"lat":"37.522630428","long":"127.59988128","imageIndex":4,"items":[{"name":"미스터빅양평점","tel":"031-744-2202","addr":"경기도 양평군 용문면 덕촌리 145-1번지","indutype":"일반휴게음식 - 서양음식","category":"restaurant"}]},{"lat":"37.522383021","long":"127.59891779","imageIndex":4,"items":[{"name":"민들레식당","tel":"031-775-0301","addr":"경기도 양평군 용문면 덕촌리 138-3번지","indutype":"일반휴게음식 - 일반한식","category":"restaurant"}]},{"lat":"37.513525702","long":"127.60438958","imageIndex":4,"items":[{"name":"박근순참숯화로구이","tel":"031-775-9228","addr":"경기도 양평군 용문면 덕촌리 67-7번지","indutype":"일반휴게음식 - 일반한식","category":"restaurant"},{"name":"박금순참숯화로구이","tel":"031-775-9228","addr":"경기도 양평군 용문면 덕촌리 67-7번지","indutype":"일반휴게음식 - 일반한식","category":"restaurant"}]},{"lat":"37.510385527","long":"127.60532575","imageIndex":4,"items":[{"name":"베이킹카페 스윗타임","tel":"","addr":"경기도 양평군 용문면 덕촌리 32-3번지 1층","indutype":"일반휴게음식 - 서양음식","category":"restaurant"}]},{"lat":"37.507918272","long":"127.60504579","imageIndex":4,"items":[{"name":"보리쌈밥","tel":"031-774-2659","addr":"경기도 양평군 용문면 덕촌리 15-4번지","indutype":"일반휴게음식 - 일반한식","category":"restaurant"}]},{"lat":"37.511075517","long":"127.58083315","imageIndex":4,"items":[{"name":"북카페이두","tel":"","addr":"경기도 양평군 용문면 덕촌리 458번지","indutype":"일반휴게음식 - 서양음식","category":"restaurant"}]},{"lat":"37.513750131","long":"127.60454973","imageIndex":4,"items":[{"name":"삼미촌","tel":"031-772-5572","addr":"경기도 양평군 용문면 덕촌리 65-1번지","indutype":"일반휴게음식 - 일반한식","category":"restaurant"}]},{"lat":"37.510550118","long":"127.60485204","imageIndex":4,"items":[{"name":"시루항아리","tel":"031-771-1944","addr":"경기도 양평군 용문면 덕촌리 35-1번지","indutype":"일반휴게음식 - 일반한식","category":"restaurant"}]},{"lat":"37.521270236","long":"127.5998252","imageIndex":4,"items":[{"name":"시월애","tel":"031-773-7796","addr":"경기도 양평군 용문면 덕촌리 134-5번지","indutype":"일반휴게음식 - 일반한식","category":"restaurant"}]},{"lat":"37.519216548","long":"127.59971834","imageIndex":4,"items":[{"name":"에그로커피","tel":"031-0000-0000","addr":"경기도 양평군 용문면 덕촌리 122-4번지","indutype":"일반휴게음식 - 서양음식","category":"restaurant"}]},{"lat":"37.508553483","long":"127.60415741","imageIndex":4,"items":[{"name":"용문골명가","tel":"031-774-3822","addr":"경기도 양평군 용문면 덕촌리 23-1번지","indutype":"일반휴게음식 - 일반한식","category":"restaurant"}]},{"lat":"37.523296266","long":"127.60005627","imageIndex":4,"items":[{"name":"용문산 막국수","tel":"031-771-6220","addr":"경기도 양평군 용문면 덕촌리 145-4번지","indutype":"일반휴게음식 - 일반한식","category":"restaurant"}]},{"lat":"37.510056386","long":"127.60449746","imageIndex":4,"items":[{"name":"용문산쭈꾸미앤문어","tel":"031-775-1574","addr":"경기도 양평군 용문면 덕촌리 36-1번지 1층","indutype":"일반휴게음식 - 일반한식","category":"restaurant"}]},{"lat":"37.513354811","long":"127.60433165","imageIndex":4,"items":[{"name":"용문쌀찐빵","tel":"031-772-7882","addr":"경기도 양평군 용문면 덕촌리 69-3번지","indutype":"일반휴게음식 - 일반한식","category":"restaurant"}]},{"lat":"37.508831047","long":"127.60449894","imageIndex":4,"items":[{"name":"용문황제오리전문점","tel":"031-775-2547","addr":"경기도 양평군 용문면 덕촌리 23번지","indutype":"일반휴게음식 - 일반한식","category":"restaurant"}]},{"lat":"37.513524032","long":"127.60471757","imageIndex":4,"items":[{"name":"자성화맛집코다리네","tel":"031-775-7474","addr":"경기도 양평군 용문면 덕촌리 64-3번지 1층","indutype":"일반휴게음식 - 일반한식","category":"restaurant"}]},{"lat":"37.509666849","long":"127.60491281","imageIndex":4,"items":[{"name":"진짬뽕","tel":"031-774-4579","addr":"경기도 양평군 용문면 덕촌리 28-3번지 1층","indutype":"일반휴게음식 - 일반한식","category":"restaurant"}]},{"lat":"37.523940449","long":"127.59916773","imageIndex":4,"items":[{"name":"커피블로썸","tel":"","addr":"경기도 양평군 용문면 덕촌리 146-1번지","indutype":"일반휴게음식 - 서양음식","category":"restaurant"}]},{"lat":"37.513771662","long":"127.60385995","imageIndex":4,"items":[{"name":"커피하우스제로제","tel":"031-774-7237","addr":"경기도 양평군 용문면 덕촌리 67-2","indutype":"일반휴게음식 - 서양음식","category":"restaurant"}]},{"lat":"37.509687","long":"127.6044945","imageIndex":4,"items":[{"name":"플로라.늘카페","tel":"031-111-1111","addr":"경기도 양평군 용문면 덕촌리 27-2번지","indutype":"일반휴게음식 - 서양음식","category":"restaurant"}]},{"lat":"37.507939518","long":"127.60441261","imageIndex":4,"items":[{"name":"하얀집","tel":"031-774-8480","addr":"경기도 양평군 용문면 덕촌리 19-2번지","indutype":"일반휴게음식 - 일반한식","category":"restaurant"}]}]