[{"lat":"37.246766825","long":"127.1381547","imageIndex":0,"items":[{"name":"(주)디에스오토(DS AUTO Co., Ltd)","tel":"031-281-9180","addr":"경기도 용인시 기흥구 지곡동 395번지 지하1층","indutype":"자동차정비 유지 - 자동차시트·타이어","category":"car"}]},{"lat":"37.253603299","long":"127.13219283","imageIndex":0,"items":[{"name":"BL모터스","tel":"031-693-6256","addr":"경기도 용인시 기흥구 지곡동 504-2번지 1층","indutype":"자동차정비 유지 - 자동차정비","category":"car"}]},{"lat":"37.239273967","long":"127.13485055","imageIndex":0,"items":[{"name":"EO 모터라이프","tel":"031-283-2456","addr":"경기도 용인시 기흥구 지곡동 288-8번지","indutype":"자동차정비 유지 - 자동차정비","category":"car"}]},{"lat":"37.254826845","long":"127.12546551","imageIndex":0,"items":[{"name":"국민운수","tel":"070-8650-5500","addr":"경기도 용인시 기흥구 지곡동 606-1번지","indutype":"자동차정비 유지 - 견인서비스","category":"car"},{"name":"용인 국민운수","tel":"070-8650-5500","addr":"경기도 용인시 기흥구 지곡동 606-1번지 3층","indutype":"자동차정비 유지 - 견인서비스","category":"car"}]},{"lat":"37.248189351","long":"127.1310452","imageIndex":0,"items":[{"name":"동명경기중부영업소","tel":"031-286-8163","addr":"경기도 용인시 기흥구 지곡동 528-2번지","indutype":"자동차판매 - 기타운송","category":"car"}]},{"lat":"37.225999338","long":"127.13699082","imageIndex":0,"items":[{"name":"세차왕 디에이치","tel":"031-000-0000","addr":"경기도 용인시 기흥구 지곡동 60번지","indutype":"자동차정비 유지 - 세차장","category":"car"}]},{"lat":"37.241100347","long":"127.13726551","imageIndex":0,"items":[{"name":"유신SLI","tel":"031-274-4974","addr":"경기도 용인시 기흥구 지곡동 251-9번지","indutype":"자동차정비 유지 - 자동차부품","category":"car"}]},{"lat":"37.246353333","long":"127.12910352","imageIndex":0,"items":[{"name":"주식회사 에스알퓨처","tel":"070-4649-1101","addr":"경기도 용인시 기흥구 지곡동 348-6번지","indutype":"자동차정비 유지 - 자동차부품","category":"car"}]},{"lat":"37.254323097","long":"127.13312963","imageIndex":0,"items":[{"name":"카프리카센타","tel":"031-274-7555","addr":"경기도 용인시 기흥구 지곡동 450-2번지","indutype":"자동차정비 유지 - 자동차정비","category":"car"}]},{"lat":"37.254995721","long":"127.12768638","imageIndex":0,"items":[{"name":"카프자동차용품점","tel":"031-282-7207","addr":"경기도 용인시 기흥구 지곡동 463-4번지 6호","indutype":"자동차정비 유지 - 자동차부품","category":"car"}]},{"lat":"37.242880875","long":"127.13233229","imageIndex":0,"items":[{"name":"피엔엠 모터스","tel":"","addr":"경기도 용인시 기흥구 지곡동 307-6번지","indutype":"자동차판매 - 이륜차판매","category":"car"}]}]