[{"lat":"37.206437864","long":"127.11047256","imageIndex":7,"items":[{"name":"(주)월드마운틴에프앤씨","tel":"02-575-5576","addr":"경기도 화성시 영천동 678-5번지 305호","indutype":"음료식품 - 기타음료식품","category":"food"},{"name":"천연효모 빵 전문점 ang(양)","tel":"031-6215-0478","addr":"경기도 화성시 영천동 678-5번지 101호","indutype":"음료식품 - 제과점","category":"food"}]},{"lat":"37.208382867","long":"127.11182713","imageIndex":7,"items":[{"name":"Mom of 맘","tel":"031-377-2411","addr":"경기도 화성시 영천동 684-1번지 1층 101호","indutype":"음료식품 - 기타음료식품","category":"food"}]},{"lat":"37.207827326","long":"127.09774502","imageIndex":7,"items":[{"name":"강수산","tel":"031-376-0393","addr":"경기도 화성시 영천동 652-5번지 더퍼스트타워지식산업센터 140호","indutype":"음료식품 - 농·축·수산품","category":"food"},{"name":"맘스스푼(mom's 스푼)","tel":"","addr":"경기도 화성시 영천동 652-5번지 더퍼스트타워 1층 128호","indutype":"음료식품 - 기타음료식품","category":"food"}]},{"lat":"37.204109119","long":"127.12402044","imageIndex":7,"items":[{"name":"건사랑","tel":"031-372-8278","addr":"경기도 화성시 영천동 742-2번지 103호","indutype":"음료식품 - 기타음료식품","category":"food"}]},{"lat":"37.205604263","long":"127.11547291","imageIndex":7,"items":[{"name":"과일나라","tel":"031-235-4661","addr":"경기도 화성시 영천동 707-1번지","indutype":"음료식품 - 농·축·수산품","category":"food"}]},{"lat":"37.212247207","long":"127.11302685","imageIndex":7,"items":[{"name":"김가네","tel":"","addr":"경기도 화성시 영천동 651-1372번지 동탄파크자이 326동 12층 4호","indutype":"음료식품 - 기타음료식품","category":"food"},{"name":"설아 아이스크림","tel":"031-346-3754","addr":"경기도 화성시 영천동 651-1372번지 동탄파크자이 상가 40호","indutype":"음료식품 - 기타음료식품","category":"food"},{"name":"설아 아이스크림할인점","tel":"031-408-1258","addr":"경기도 화성시 영천동 651-1372번지 동탄파크자이 상가 40호","indutype":"음료식품 - 기타음료식품","category":"food"}]},{"lat":"37.206687993","long":"127.11282727","imageIndex":7,"items":[{"name":"두레축산","tel":"","addr":"경기도 화성시 영천동 695-2번지 103호","indutype":"음료식품 - 정육점","category":"food"}]},{"lat":"37.206887705","long":"127.11121668","imageIndex":7,"items":[{"name":"떡고을","tel":"031-372-6556","addr":"경기도 화성시 영천동 681-5번지 104호","indutype":"음료식품 - 제과점","category":"food"}]},{"lat":"37.205913872","long":"127.11199256","imageIndex":7,"items":[{"name":"뚜레쥬르 영천","tel":"031-377-3076","addr":"경기도 화성시 영천동 700-5번지 지1층, 1층 일부호","indutype":"음료식품 - 제과점","category":"food"}]},{"lat":"37.21555303","long":"127.09285389","imageIndex":7,"items":[{"name":"라온 네이쳐","tel":"031-1577-2746","addr":"경기도 화성시 영천동 265-2번지 동탄비즈타워 119호","indutype":"건강식품 - 기타건강식품","category":"food"}]},{"lat":"37.205859773","long":"127.12140982","imageIndex":7,"items":[{"name":"라이프앤진 뷰티마스터 김명숙","tel":"031-234-5346","addr":"경기도 화성시 영천동 722번지 동탄2LH4단지 432동 1006호","indutype":"건강식품 - 홍삼제품","category":"food"}]},{"lat":"37.209999534","long":"127.09685777","imageIndex":7,"items":[{"name":"럭스바바라","tel":"","addr":"경기도 화성시 영천동 397번지 동탄에스케이브이원센터 20층 2018호","indutype":"음료식품 - 기타음료식품","category":"food"}]},{"lat":"37.203192083","long":"127.12202519","imageIndex":7,"items":[{"name":"막내딸집 건어물","tel":"","addr":"경기도 화성시 영천동 739-10번지 1층 일부호","indutype":"음료식품 - 농·축·수산품","category":"food"}]},{"lat":"37.207551561","long":"127.09319361","imageIndex":7,"items":[{"name":"명품생고기전문점(정육식당)","tel":"031-376-3569","addr":"경기도 화성시 영천동 797-4번지 1층","indutype":"음료식품 - 정육점","category":"food"}]},{"lat":"37.20593786","long":"127.11524811","imageIndex":7,"items":[{"name":"몽당빵집","tel":"031-378-2934","addr":"경기도 화성시 영천동 706-3번지","indutype":"음료식품 - 제과점","category":"food"},{"name":"쁘띠프루츠","tel":"031-373-4588","addr":"경기도 화성시 영천동 706-3번지 1층 101호","indutype":"음료식품 - 농·축·수산품","category":"food"}]},{"lat":"37.206861484","long":"127.11032671","imageIndex":7,"items":[{"name":"발안수산","tel":"031-377-1014","addr":"경기도 화성시 영천동 678-4번지 비전프라자 1층 101호","indutype":"음료식품 - 농·축·수산품","category":"food"}]},{"lat":"37.205471948","long":"127.11244251","imageIndex":7,"items":[{"name":"브로카롱","tel":"","addr":"경기도 화성시 영천동 701-11번지 101호","indutype":"음료식품 - 기타음료식품","category":"food"}]},{"lat":"37.210719428","long":"127.09803028","imageIndex":7,"items":[{"name":"빛가을르빵","tel":"031-375-7929","addr":"경기도 화성시 영천동 산25-3번지 삼성어반타워 4층 416호","indutype":"음료식품 - 기타음료식품","category":"food"}]},{"lat":"37.208662157","long":"127.11186133","imageIndex":7,"items":[{"name":"서민반찬","tel":"031-373-0949","addr":"경기도 화성시 영천동 683-2번지 1층 101호","indutype":"음료식품 - 기타음료식품","category":"food"}]},{"lat":"37.205965445","long":"127.11466238","imageIndex":7,"items":[{"name":"소중한한끼(슬로우쿡)","tel":"031-373-5123","addr":"경기도 화성시 영천동 705-1번지 1층 102호","indutype":"음료식품 - 기타음료식품","category":"food"}]},{"lat":"37.209270112","long":"127.11690904","imageIndex":7,"items":[{"name":"송정환 과자점","tel":"031-377-4333","addr":"경기도 화성시 영천동 716번지 반도유보라2차 104호","indutype":"음료식품 - 제과점","category":"food"}]},{"lat":"37.204357345","long":"127.10950085","imageIndex":7,"items":[{"name":"송정환과자점","tel":"031-378-3821","addr":"경기도 화성시 영천동 675-7번지 1층 105호","indutype":"음료식품 - 제과점","category":"food"}]},{"lat":"37.204082364","long":"127.12375005","imageIndex":7,"items":[{"name":"아가맘마","tel":"031-377-5933","addr":"경기도 화성시 영천동 741-3번지 102호","indutype":"음료식품 - 기타음료식품","category":"food"}]},{"lat":"37.206111663","long":"127.11246596","imageIndex":7,"items":[{"name":"아부찌 부대찌개","tel":"031-375-9701","addr":"경기도 화성시 영천동 700-2번지 상가 102호","indutype":"음료식품 - 기타음료식품","category":"food"}]},{"lat":"37.206662311","long":"127.1113628","imageIndex":7,"items":[{"name":"아임브레드","tel":"031-436-7013","addr":"경기도 화성시 영천동 681-6번지 ACEPLAZA 107호","indutype":"음료식품 - 제과점","category":"food"}]},{"lat":"37.205298231","long":"127.11513451","imageIndex":7,"items":[{"name":"영양사언니의 맛깔찬","tel":"031-224-0490","addr":"경기도 화성시 영천동 708-6번지 1층","indutype":"음료식품 - 기타음료식품","category":"food"}]},{"lat":"37.202717711","long":"127.12769038","imageIndex":7,"items":[{"name":"오잘공과일전문점","tel":"031-000-0000","addr":"경기도 화성시 영천동 763-3번지 102호","indutype":"음료식품 - 농·축·수산품","category":"food"}]},{"lat":"37.205523094","long":"127.11555164","imageIndex":7,"items":[{"name":"올바른찬","tel":"031-377-3752","addr":"경기도 화성시 영천동 707-2번지 102호","indutype":"음료식품 - 기타음료식품","category":"food"},{"name":"우리한우축산물센타","tel":"031-377-8812","addr":"경기도 화성시 영천동 707-2번지 103호","indutype":"음료식품 - 정육점","category":"food"}]},{"lat":"37.208665353","long":"127.09766721","imageIndex":7,"items":[{"name":"제이와이에이치 코리아","tel":"031-211-5805","addr":"경기도 화성시 영천동 652-4번지 에이팩시티 1203호","indutype":"음료식품 - 기타음료식품","category":"food"},{"name":"주식회사 친절","tel":"031-207-2378","addr":"경기도 화성시 영천동 652-4번지 에이팩시티 214호","indutype":"음료식품 - 기타음료식품","category":"food"},{"name":"주식회사 친절","tel":"031-0000-0000","addr":"경기도 화성시 영천동 652-4번지 에이팩시티 214호","indutype":"음료식품 - 기타음료식품","category":"food"}]},{"lat":"37.209520959","long":"127.09814142","imageIndex":7,"items":[{"name":"조선오징어","tel":"031-0000-0000","addr":"경기도 화성시 영천동 442-2번지 809-2호","indutype":"음료식품 - 기타음료식품","category":"food"}]},{"lat":"37.210301134","long":"127.09132683","imageIndex":7,"items":[{"name":"주식회사 에스엠에스바이오","tel":"02-3463-8585","addr":"경기도 화성시 영천동 358-66번지 케이티엑스밸리 402호","indutype":"건강식품 - 기타건강식품","category":"food"}]},{"lat":"37.208581219","long":"127.11169224","imageIndex":7,"items":[{"name":"진구네 간장게장","tel":"","addr":"경기도 화성시 영천동 683-1번지 지하1층 전부호","indutype":"음료식품 - 기타음료식품","category":"food"}]},{"lat":"37.206247556","long":"127.11166636","imageIndex":7,"items":[{"name":"착한아이스크림 동탄점","tel":"","addr":"경기도 화성시 영천동 681-8번지 상우메디타워 109호","indutype":"음료식품 - 기타음료식품","category":"food"}]},{"lat":"37.202973893","long":"127.12393978","imageIndex":7,"items":[{"name":"카롱 드 근아(Caron de KEUNA)","tel":"","addr":"경기도 화성시 영천동 743-3번지 101호","indutype":"음료식품 - 제과점","category":"food"}]},{"lat":"37.207915646","long":"127.11038453","imageIndex":7,"items":[{"name":"토박이한우축산","tel":"031-378-1230","addr":"경기도 화성시 영천동 681-1번지 서건에듀프라자 108호","indutype":"음료식품 - 정육점","category":"food"},{"name":"파워점프","tel":"031-375-0321","addr":"경기도 화성시 영천동 681-1번지 서건에듀프라자 701호","indutype":"건강식품 - 기타건강식품","category":"food"}]},{"lat":"37.207050946","long":"127.11005662","imageIndex":7,"items":[{"name":"파리바게뜨 (동탄리버스빌점)","tel":"031-377-0483","addr":"경기도 화성시 영천동 678-3번지 101호","indutype":"음료식품 - 제과점","category":"food"}]},{"lat":"37.205162968","long":"127.11524696","imageIndex":7,"items":[{"name":"파카인터내셔널(주)","tel":"031-831-3623","addr":"경기도 화성시 영천동 708-5번지 101호","indutype":"음료식품 - 정육점","category":"food"}]},{"lat":"37.206163279","long":"127.11507947","imageIndex":7,"items":[{"name":"픽미픽미아이스","tel":"","addr":"경기도 화성시 영천동 706-1번지 101호","indutype":"음료식품 - 기타음료식품","category":"food"},{"name":"호감정육점","tel":"","addr":"경기도 화성시 영천동 706-1번지 102호","indutype":"음료식품 - 정육점","category":"food"}]},{"lat":"37.207945119","long":"127.10765843","imageIndex":7,"items":[{"name":"픽미픽미아이스크림 영천점","tel":"031-111-1111","addr":"경기도 화성시 영천동 679-7번지 1층 110호","indutype":"음료식품 - 기타음료식품","category":"food"}]},{"lat":"37.207500841","long":"127.11074443","imageIndex":7,"items":[{"name":"한우리 푸줏간","tel":"031-377-4350","addr":"경기도 화성시 영천동 681-3번지 성신에이타워 1층 103호","indutype":"음료식품 - 정육점","category":"food"}]},{"lat":"37.203360345","long":"127.12490913","imageIndex":7,"items":[{"name":"함지박","tel":"02-1833-5120","addr":"경기도 화성시 영천동 749-13번지 1동 101호","indutype":"음료식품 - 기타음료식품","category":"food"}]},{"lat":"37.210411816","long":"127.09958452","imageIndex":7,"items":[{"name":"해든어시장","tel":"","addr":"경기도 화성시 영천동 산24-1번지 A동 1층 108,109호","indutype":"음료식품 - 기타음료식품","category":"food"}]}]