[{"lat":"37.330035778","long":"126.80161098","imageIndex":13,"items":[{"name":"180도요가원","tel":"031-504-8752","addr":"경기도 안산시 단원구 원곡동 937번지 안산8차푸르지오상가105,106호","indutype":"레저업소 - 헬스클럽","category":"leisure"}]},{"lat":"37.328278974","long":"126.80171721","imageIndex":13,"items":[{"name":"24시노래연습장","tel":"031-403-0067","addr":"경기도 안산시 단원구 원곡동 846번지 보성프라자 605호","indutype":"레저업소 - 노 래 방","category":"leisure"},{"name":"갤러리PC","tel":"","addr":"경기도 안산시 단원구 원곡동 846번지 보성프라자 501호","indutype":"레저업소 - 기타레져업소","category":"leisure"},{"name":"꿀바른 창의스쿨","tel":"","addr":"경기도 안산시 단원구 원곡동 846번지 305,306호","indutype":"레저업소 - 기타레져업소","category":"leisure"},{"name":"뉴스타노래연습장","tel":"031-411-8657","addr":"경기도 안산시 단원구 원곡동 846번지 보성프라자 409호","indutype":"레저업소 - 노 래 방","category":"leisure"},{"name":"다함께야구왕 안산원곡점","tel":"031-410-7907","addr":"경기도 안산시 단원구 원곡동 846번지 보성프라자 5층 501호","indutype":"레저업소 - 기타레져업소","category":"leisure"},{"name":"보성당구클럽","tel":"031-405-3533","addr":"경기도 안산시 단원구 원곡동 846번지 보성프라자 4층 401호","indutype":"레저업소 - 당 구 장","category":"leisure"},{"name":"스타노래연습장","tel":"031-411-8657","addr":"경기도 안산시 단원구 원곡동 846번지 보성프라자 4층 404호","indutype":"레저업소 - 노 래 방","category":"leisure"}]},{"lat":"37.324590077","long":"126.78930508","imageIndex":13,"items":[{"name":"24시스크린골프","tel":"031-495-6969","addr":"경기도 안산시 단원구 원곡동 994-6번지 상가 301동 601호 ,602,609,610호","indutype":"레저업소 - 스크린골프","category":"leisure"},{"name":"GG스크린골프","tel":"031-495-6969","addr":"경기도 안산시 단원구 원곡동 994-6번지 301동 603.604.605.606.607.608호","indutype":"레저업소 - 스크린골프","category":"leisure"}]},{"lat":"37.331642344","long":"126.79282813","imageIndex":13,"items":[{"name":"365노래연습장","tel":"070-8174-2408","addr":"경기도 안산시 단원구 원곡동 749-2번지","indutype":"레저업소 - 노 래 방","category":"leisure"}]},{"lat":"37.331253765","long":"126.79218606","imageIndex":13,"items":[{"name":"88노래연습장","tel":"031-493-5151","addr":"경기도 안산시 단원구 원곡동 748-14번지 지하","indutype":"레저업소 - 노 래 방","category":"leisure"}]},{"lat":"37.33011899","long":"126.79247131","imageIndex":13,"items":[{"name":"QQ노래연습장","tel":"070-4248-0875","addr":"경기도 안산시 단원구 원곡동 792-11번지 지하1층","indutype":"레저업소 - 노 래 방","category":"leisure"}]},{"lat":"37.327836862","long":"126.80135734","imageIndex":13,"items":[{"name":"SBS당구클럽","tel":"070-8172-5543","addr":"경기도 안산시 단원구 원곡동 846-9번지 보성상가 A동 207호","indutype":"레저업소 - 당 구 장","category":"leisure"},{"name":"킴스요가&필라테스","tel":"031-401-3836","addr":"경기도 안산시 단원구 원곡동 846-9번지 보성상가 4층 403호","indutype":"레저업소 - 헬스클럽","category":"leisure"},{"name":"팡팡플레이방","tel":"031-493-3366","addr":"경기도 안산시 단원구 원곡동 846-9번지 보성상가 306호","indutype":"레저업소 - 기타레져업소","category":"leisure"}]},{"lat":"37.331478568","long":"126.79704861","imageIndex":13,"items":[{"name":"가족노래연습장","tel":"031-495-9167","addr":"경기도 안산시 단원구 원곡동 772번지 지층","indutype":"레저업소 - 노 래 방","category":"leisure"}]},{"lat":"37.3310553","long":"126.79205121","imageIndex":13,"items":[{"name":"강남노래연습장","tel":"031-491-0105","addr":"경기도 안산시 단원구 원곡동 747번지 2층","indutype":"레저업소 - 노 래 방","category":"leisure"}]},{"lat":"37.331833036","long":"126.79366258","imageIndex":13,"items":[{"name":"강산노래연습장","tel":"031-492-1288","addr":"경기도 안산시 단원구 원곡동 750-6번지 지층","indutype":"레저업소 - 노 래 방","category":"leisure"}]},{"lat":"37.330867713","long":"126.79296569","imageIndex":13,"items":[{"name":"갤러리노래연습장","tel":"031-495-1186","addr":"경기도 안산시 단원구 원곡동 748-8번지 지층 1호","indutype":"레저업소 - 노 래 방","category":"leisure"}]},{"lat":"37.331614672","long":"126.79246714","imageIndex":13,"items":[{"name":"골드노래연습장","tel":"070-8711-7308","addr":"경기도 안산시 단원구 원곡동 749-14번지 지층","indutype":"레저업소 - 노 래 방","category":"leisure"}]},{"lat":"37.331723194","long":"126.79269251","imageIndex":13,"items":[{"name":"공주노래연습장","tel":"031-494-5701","addr":"경기도 안산시 단원구 원곡동 749-1번지","indutype":"레저업소 - 노 래 방","category":"leisure"},{"name":"공주노래연습장","tel":"031-494-5701","addr":"경기도 안산시 단원구 원곡동 749-1번지","indutype":"레저업소 - 노 래 방","category":"leisure"}]},{"lat":"37.328392578","long":"126.78941843","imageIndex":13,"items":[{"name":"광장노래연습장","tel":"031-491-0809","addr":"경기도 안산시 단원구 원곡동 787-10번지 지층","indutype":"레저업소 - 노 래 방","category":"leisure"}]},{"lat":"37.328420198","long":"126.78974556","imageIndex":13,"items":[{"name":"궁전노래연습장","tel":"031-493-2784","addr":"경기도 안산시 단원구 원곡동 798-14번지 지층","indutype":"레저업소 - 노 래 방","category":"leisure"}]},{"lat":"37.329253756","long":"126.79232704","imageIndex":13,"items":[{"name":"귀공자노래연습장","tel":"031-491-2077","addr":"경기도 안산시 단원구 원곡동 800-21번지 지하1층","indutype":"레저업소 - 노 래 방","category":"leisure"}]},{"lat":"37.330924526","long":"126.79452264","imageIndex":13,"items":[{"name":"길림노래방","tel":"031-492-7074","addr":"경기도 안산시 단원구 원곡동 757-1번지 2층","indutype":"레저업소 - 노 래 방","category":"leisure"}]},{"lat":"37.332143045","long":"126.79066029","imageIndex":13,"items":[{"name":"나나노래연습장","tel":"031-492-2230","addr":"경기도 안산시 단원구 원곡동 784-11번지 지층","indutype":"레저업소 - 노 래 방","category":"leisure"}]},{"lat":"37.327186669","long":"126.80050158","imageIndex":13,"items":[{"name":"노블존PC","tel":"070-4359-0218","addr":"경기도 안산시 단원구 원곡동 846-3번지 반월종합상가 B동 지하 1호","indutype":"레저업소 - 기타레져업소","category":"leisure"}]},{"lat":"37.333640966","long":"126.79190858","imageIndex":13,"items":[{"name":"뉴대가노래연습장","tel":"031-492-0823","addr":"경기도 안산시 단원구 원곡동 960-5번지 4층","indutype":"레저업소 - 노 래 방","category":"leisure"},{"name":"대가노래연습장","tel":"031-492-0823","addr":"경기도 안산시 단원구 원곡동 960-5번지 한양대중목욕탕 201호","indutype":"레저업소 - 노 래 방","category":"leisure"},{"name":"대기노래연습장","tel":"031-492-8233","addr":"경기도 안산시 단원구 원곡동 960-5번지 1층","indutype":"레저업소 - 노 래 방","category":"leisure"},{"name":"신대가노래연습장","tel":"031-492-8233","addr":"경기도 안산시 단원구 원곡동 960-5번지 3층","indutype":"레저업소 - 노 래 방","category":"leisure"}]},{"lat":"37.324028361","long":"126.78760303","imageIndex":13,"items":[{"name":"다모아스크린골프","tel":"031-493-0918","addr":"경기도 안산시 단원구 원곡동 994-5번지 원곡유통상가 제비동 제지하 B02-1,B02-2,B02-3호","indutype":"레저업소 - 스크린골프","category":"leisure"},{"name":"중앙당구장","tel":"","addr":"경기도 안산시 단원구 원곡동 994-5번지 비-3 41, 42호","indutype":"레저업소 - 당 구 장","category":"leisure"},{"name":"현대볼링센터","tel":"031-493-3717","addr":"경기도 안산시 단원구 원곡동 994-5번지 원곡유통상가 지하상가동사열22-23호","indutype":"레저업소 - 볼 링 장","category":"leisure"},{"name":"현대볼링센터","tel":"031-493-2868","addr":"경기도 안산시 단원구 원곡동 994-5번지 지하상가동 사열22,23호 및 비동3호","indutype":"레저업소 - 볼 링 장","category":"leisure"}]},{"lat":"37.325229837","long":"126.78932583","imageIndex":13,"items":[{"name":"다슬","tel":"","addr":"경기도 안산시 단원구 원곡동 994-6번지 트리플렉스 308동 218호","indutype":"레저업소 - 헬스클럽","category":"leisure"}]},{"lat":"37.331389117","long":"126.79229852","imageIndex":13,"items":[{"name":"대박노래연습장","tel":"031-493-6309","addr":"경기도 안산시 단원구 원곡동 748번지","indutype":"레저업소 - 노 래 방","category":"leisure"}]},{"lat":"37.330841482","long":"126.7934171","imageIndex":13,"items":[{"name":"대세계노래연습장","tel":"031-491-6604","addr":"경기도 안산시 단원구 원곡동 755-3번지","indutype":"레저업소 - 노 래 방","category":"leisure"}]},{"lat":"37.330780801","long":"126.79477127","imageIndex":13,"items":[{"name":"도라지노래연습장","tel":"070-8777-6326","addr":"경기도 안산시 단원구 원곡동 760번지 1층","indutype":"레저업소 - 노 래 방","category":"leisure"}]},{"lat":"37.328587412","long":"126.79768835","imageIndex":13,"items":[{"name":"도레미노래방","tel":"031-494-5879","addr":"경기도 안산시 단원구 원곡동 779-15번지","indutype":"레저업소 - 노 래 방","category":"leisure"}]},{"lat":"37.331833873","long":"126.79413649","imageIndex":13,"items":[{"name":"도문노래연습장","tel":"031-495-5803","addr":"경기도 안산시 단원구 원곡동 754-7번지 지하","indutype":"레저업소 - 노 래 방","category":"leisure"}]},{"lat":"37.330202441","long":"126.7938025","imageIndex":13,"items":[{"name":"도화노래연습장","tel":"031-494-5578","addr":"경기도 안산시 단원구 원곡동 757-12번지 2층","indutype":"레저업소 - 노 래 방","category":"leisure"}]},{"lat":"37.330722468","long":"126.79235679","imageIndex":13,"items":[{"name":"동방명주노래연습장","tel":"031-493-9488","addr":"경기도 안산시 단원구 원곡동 747-10번지 지하층","indutype":"레저업소 - 노 래 방","category":"leisure"},{"name":"동방명주노래연습장","tel":"031-493-9488","addr":"경기도 안산시 단원구 원곡동 747-10번지 지하","indutype":"레저업소 - 노 래 방","category":"leisure"}]},{"lat":"37.33116776","long":"126.7944994","imageIndex":13,"items":[{"name":"드림노래연습장","tel":"031-492-1239","addr":"경기도 안산시 단원구 원곡동 758-10번지 지하","indutype":"레저업소 - 노 래 방","category":"leisure"}]},{"lat":"37.331451646","long":"126.79199369","imageIndex":13,"items":[{"name":"딱이야노래연습장","tel":"031-491-7523","addr":"경기도 안산시 단원구 원곡동 745-4번지","indutype":"레저업소 - 노 래 방","category":"leisure"}]},{"lat":"37.331948788","long":"126.7928837","imageIndex":13,"items":[{"name":"땡큐노래연습장","tel":"031-500-7881","addr":"경기도 안산시 단원구 원곡동 750-13번지","indutype":"레저업소 - 노 래 방","category":"leisure"}]},{"lat":"37.327079953","long":"126.80132551","imageIndex":13,"items":[{"name":"라성골프존파크","tel":"031-480-9879","addr":"경기도 안산시 단원구 원곡동 846-3번지 라성호텔 D동 3층 2호","indutype":"레저업소 - 스크린골프","category":"leisure"}]},{"lat":"37.331530255","long":"126.7906056","imageIndex":13,"items":[{"name":"라이브노래연습장","tel":"031-491-1710","addr":"경기도 안산시 단원구 원곡동 746-17번지 2층","indutype":"레저업소 - 노 래 방","category":"leisure"},{"name":"라이브노래연습장","tel":"031-492-4355","addr":"경기도 안산시 단원구 원곡동 746-17번지 2층","indutype":"레저업소 - 노 래 방","category":"leisure"}]},{"lat":"37.331724814","long":"126.79360647","imageIndex":13,"items":[{"name":"럭셔리노래연습장","tel":"070-8111-3575","addr":"경기도 안산시 단원구 원곡동 750-7번지 지하1층","indutype":"레저업소 - 노 래 방","category":"leisure"}]},{"lat":"37.331560812","long":"126.79258012","imageIndex":13,"items":[{"name":"럭키노래연습장","tel":"03-111-1111","addr":"경기도 안산시 단원구 원곡동 749-13번지","indutype":"레저업소 - 노 래 방","category":"leisure"}]},{"lat":"37.32783598","long":"126.7905483","imageIndex":13,"items":[{"name":"레포츠당구장","tel":"031-493-7117","addr":"경기도 안산시 단원구 원곡동 798-7번지 3층","indutype":"레저업소 - 당 구 장","category":"leisure"},{"name":"해피노래연습장","tel":"031-405-4404","addr":"경기도 안산시 단원구 원곡동 798-7번지 지하","indutype":"레저업소 - 노 래 방","category":"leisure"}]},{"lat":"37.332365371","long":"126.7940786","imageIndex":13,"items":[{"name":"려도노래연습장","tel":"02-2025-1170","addr":"경기도 안산시 단원구 원곡동 752-6번지 2층","indutype":"레저업소 - 노 래 방","category":"leisure"}]},{"lat":"37.331477742","long":"126.7965747","imageIndex":13,"items":[{"name":"룰랄라 노래연습장","tel":"031-494-4744","addr":"경기도 안산시 단원구 원곡동 775-1번지 2층","indutype":"레저업소 - 노 래 방","category":"leisure"}]},{"lat":"37.331778236","long":"126.79324525","imageIndex":13,"items":[{"name":"망고노래연습장","tel":"031-492-6997","addr":"경기도 안산시 단원구 원곡동 750-10번지 지하1층","indutype":"레저업소 - 노 래 방","category":"leisure"}]},{"lat":"37.331471852","long":"126.79322353","imageIndex":13,"items":[{"name":"명품노래연습장","tel":"070-8182-2988","addr":"경기도 안산시 단원구 원곡동 749-5번지 1층","indutype":"레저업소 - 노 래 방","category":"leisure"},{"name":"명품노래연습장","tel":"070-1111-1111","addr":"경기도 안산시 단원구 원곡동 749-5번지 1층","indutype":"레저업소 - 노 래 방","category":"leisure"}]},{"lat":"37.332224237","long":"126.79071648","imageIndex":13,"items":[{"name":"몽노래연습장","tel":"031-492-7384","addr":"경기도 안산시 단원구 원곡동 784-12번지 2층 2호","indutype":"레저업소 - 노 래 방","category":"leisure"},{"name":"수노래연습장","tel":"031-493-7385","addr":"경기도 안산시 단원구 원곡동 784-12번지 2층","indutype":"레저업소 - 노 래 방","category":"leisure"}]},{"lat":"37.32764025","long":"126.80230563","imageIndex":13,"items":[{"name":"베스트노래연습장","tel":"031-482-1431","addr":"경기도 안산시 단원구 원곡동 846-4번지 베스트프라자 201호","indutype":"레저업소 - 노 래 방","category":"leisure"},{"name":"베스트당구장","tel":"031-000-0000","addr":"경기도 안산시 단원구 원곡동 846-4번지 베스트프라자 207-1호","indutype":"레저업소 - 당 구 장","category":"leisure"},{"name":"비스트&비키니","tel":"070-7420-7359","addr":"경기도 안산시 단원구 원곡동 846-4번지 베스트프라자 6층 602호","indutype":"레저업소 - 헬스클럽","category":"leisure"},{"name":"점핑다이어트","tel":"","addr":"경기도 안산시 단원구 원곡동 846-4번지 베스트플라자 601호","indutype":"레저업소 - 헬스클럽","category":"leisure"},{"name":"축제노래방","tel":"031-482-0853","addr":"경기도 안산시 단원구 원곡동 846-4번지 베스트프라자 203호","indutype":"레저업소 - 노 래 방","category":"leisure"}]},{"lat":"37.331112166","long":"126.79363073","imageIndex":13,"items":[{"name":"벤츠노래연습장","tel":"031-405-4401","addr":"경기도 안산시 단원구 원곡동 755-1번지 지층","indutype":"레저업소 - 노 래 방","category":"leisure"}]},{"lat":"37.330145264","long":"126.79716508","imageIndex":13,"items":[{"name":"별노래연습장","tel":"031-491-5017","addr":"경기도 안산시 단원구 원곡동 776-6번지","indutype":"레저업소 - 노 래 방","category":"leisure"}]},{"lat":"37.328527872","long":"126.78949703","imageIndex":13,"items":[{"name":"보스 (BOSS)노래연습장","tel":"031-493-3725","addr":"경기도 안산시 단원구 원곡동 787-9번지 지하1층","indutype":"레저업소 - 노 래 방","category":"leisure"}]},{"lat":"37.330390476","long":"126.79313627","imageIndex":13,"items":[{"name":"보스노래연습장","tel":"031-495-2229","addr":"경기도 안산시 단원구 원곡동 755-6번지 지층","indutype":"레저업소 - 노 래 방","category":"leisure"}]},{"lat":"37.331749382","long":"126.79221853","imageIndex":13,"items":[{"name":"봉황노래연습장","tel":"031-401-8818","addr":"경기도 안산시 단원구 원곡동 745-1번지 지층","indutype":"레저업소 - 노 래 방","category":"leisure"}]},{"lat":"37.330668648","long":"126.79249234","imageIndex":13,"items":[{"name":"북경노래연습장","tel":"031-493-1108","addr":"경기도 안산시 단원구 원곡동 747-9번지 지층","indutype":"레저업소 - 노 래 방","category":"leisure"}]},{"lat":"37.330866831","long":"126.79246922","imageIndex":13,"items":[{"name":"북경노래연습장","tel":"031-493-1796","addr":"경기도 안산시 단원구 원곡동 747-3번지 지하층","indutype":"레저업소 - 노 래 방","category":"leisure"}]},{"lat":"37.327115378","long":"126.80096437","imageIndex":13,"items":[{"name":"비발디노래연습장","tel":"031-404-3726","addr":"경기도 안산시 단원구 원곡동 846-3반월상가A동3층4,5호","indutype":"레저업소 - 노 래 방","category":"leisure"},{"name":"에이스노래연습장","tel":"031-484-3983","addr":"경기도 안산시 단원구 원곡동 846-3번지 라성프라자 C동 3층 5호","indutype":"레저업소 - 노 래 방","category":"leisure"},{"name":"태양당구장","tel":"070-5022-4846","addr":"경기도 안산시 단원구 원곡동 846-3번지 C동 3층 2호","indutype":"레저업소 - 당 구 장","category":"leisure"}]},{"lat":"37.330757121","long":"126.79157814","imageIndex":13,"items":[{"name":"상해 노래연습장","tel":"070-4114-2221","addr":"경기도 안산시 단원구 원곡동 792-1번지 지층","indutype":"레저업소 - 노 래 방","category":"leisure"}]},{"lat":"37.331256487","long":"126.7937206","imageIndex":13,"items":[{"name":"서해안노래연습장","tel":"","addr":"경기도 안산시 단원구 원곡동 755번지 지하1층","indutype":"레저업소 - 노 래 방","category":"leisure"}]},{"lat":"37.331228558","long":"126.79321292","imageIndex":13,"items":[{"name":"소리바다노래연습장","tel":"031-495-5191","addr":"경기도 안산시 단원구 원곡동 749-8번지 지층","indutype":"레저업소 - 노 래 방","category":"leisure"}]},{"lat":"37.330667422","long":"126.79180406","imageIndex":13,"items":[{"name":"쇼노래연습장","tel":"031-495-0969","addr":"경기도 안산시 단원구 원곡동 792-3번지","indutype":"레저업소 - 노 래 방","category":"leisure"}]},{"lat":"37.328284904","long":"126.78966696","imageIndex":13,"items":[{"name":"수정궁노래연습장","tel":"031-495-0913","addr":"경기도 안산시 단원구 원곡동 798-13번지 지하1층","indutype":"레저업소 - 노 래 방","category":"leisure"}]},{"lat":"37.331473029","long":"126.79388925","imageIndex":13,"items":[{"name":"스타노래연습장","tel":"031-495-9044","addr":"경기도 안산시 단원구 원곡동 754-10번지 지하","indutype":"레저업소 - 노 래 방","category":"leisure"}]},{"lat":"37.329028615","long":"126.7975179","imageIndex":13,"items":[{"name":"스타노래연습장","tel":"031-493-8732","addr":"경기도 안산시 단원구 원곡동 823-7번지 2층","indutype":"레저업소 - 노 래 방","category":"leisure"}]},{"lat":"37.330666616","long":"126.79135273","imageIndex":13,"items":[{"name":"신바람노래연습장","tel":"031-492-1039","addr":"경기도 안산시 단원구 원곡동 792-32번지 2층","indutype":"레저업소 - 노 래 방","category":"leisure"},{"name":"신바람노래연습장","tel":"031-492-1039","addr":"경기도 안산시 단원구 원곡동 792-32번지 2층","indutype":"레저업소 - 노 래 방","category":"leisure"}]},{"lat":"37.331057186","long":"126.79311185","imageIndex":13,"items":[{"name":"신시대노래연습장","tel":"031-494-2228","addr":"경기도 안산시 단원구 원곡동 748-6번지 지층","indutype":"레저업소 - 노 래 방","category":"leisure"}]},{"lat":"37.329867188","long":"126.79274281","imageIndex":13,"items":[{"name":"아리랑노래연습장","tel":"031-494-8622","addr":"경기도 안산시 단원구 원곡동 801-13번지 2층","indutype":"레저업소 - 노 래 방","category":"leisure"},{"name":"아리랑노래연습장","tel":"031-493-0320","addr":"경기도 안산시 단원구 원곡동 801-13번지 201호","indutype":"레저업소 - 노 래 방","category":"leisure"}]},{"lat":"37.331894928","long":"126.79299668","imageIndex":13,"items":[{"name":"아시아노래연습장","tel":"031-494-8638","addr":"경기도 안산시 단원구 원곡동 750-12번지","indutype":"레저업소 - 노 래 방","category":"leisure"}]},{"lat":"37.331590301","long":"126.79396791","imageIndex":13,"items":[{"name":"아이니노래연습장","tel":"070-7778-5660","addr":"경기도 안산시 단원구 원곡동 754-9번지 지하1층","indutype":"레저업소 - 노 래 방","category":"leisure"}]},{"lat":"37.327610724","long":"126.80083893","imageIndex":13,"items":[{"name":"안산제일복싱클럽","tel":"031-485-4555","addr":"경기도 안산시 단원구 원곡동 846-3번지 A동 4층 2호","indutype":"레저업소 - 헬스클럽","category":"leisure"}]},{"lat":"37.330979281","long":"126.79491741","imageIndex":13,"items":[{"name":"애모노래연습장","tel":"031-492-4854","addr":"경기도 안산시 단원구 원곡동 759-9번지 2층","indutype":"레저업소 - 노 래 방","category":"leisure"}]},{"lat":"37.330976814","long":"126.79351827","imageIndex":13,"items":[{"name":"애플노래연습장","tel":"03-111-1111","addr":"경기도 안산시 단원구 원곡동 755-2번지","indutype":"레저업소 - 노 래 방","category":"leisure"}]},{"lat":"37.330031986","long":"126.79422046","imageIndex":13,"items":[{"name":"야미노래연습장","tel":"031-493-3612","addr":"경기도 안산시 단원구 원곡동 760-12번지 지층","indutype":"레저업소 - 노 래 방","category":"leisure"}]},{"lat":"37.333362396","long":"126.79232686","imageIndex":13,"items":[{"name":"엄청난노래연습장","tel":"031-493-0577","addr":"경기도 안산시 단원구 원곡동 741-19번지 201호","indutype":"레저업소 - 노 래 방","category":"leisure"}]},{"lat":"37.32997551","long":"126.79285534","imageIndex":13,"items":[{"name":"에스비에스노래연습장","tel":"031-494-7828","addr":"경기도 안산시 단원구 원곡동 801-14번지 2층","indutype":"레저업소 - 노 래 방","category":"leisure"}]},{"lat":"37.330948964","long":"126.79305573","imageIndex":13,"items":[{"name":"엘리트노래연습장","tel":"031-494-2117","addr":"경기도 안산시 단원구 원곡동 748-7번지 지층","indutype":"레저업소 - 노 래 방","category":"leisure"}]},{"lat":"37.330785338","long":"126.79224378","imageIndex":13,"items":[{"name":"연길노래연습장","tel":"031-491-9048","addr":"경기도 안산시 단원구 원곡동 747-11번지","indutype":"레저업소 - 노 래 방","category":"leisure"}]},{"lat":"37.327979554","long":"126.79022069","imageIndex":13,"items":[{"name":"열창노래연습장","tel":"031-492-3938","addr":"경기도 안산시 단원구 원곡동 798-9번지 지하","indutype":"레저업소 - 노 래 방","category":"leisure"},{"name":"열창노래연습장","tel":"031-492-3938","addr":"경기도 안산시 단원구 원곡동 798-9번지 지층","indutype":"레저업소 - 노 래 방","category":"leisure"}]},{"lat":"37.331086032","long":"126.79413856","imageIndex":13,"items":[{"name":"와 노래방","tel":"031-492-6700","addr":"경기도 안산시 단원구 원곡동 756-1번지","indutype":"레저업소 - 노 래 방","category":"leisure"}]},{"lat":"37.331171063","long":"126.79638373","imageIndex":13,"items":[{"name":"왕부노래연습장","tel":"031-492-5934","addr":"경기도 안산시 단원구 원곡동 775-17번지 지하","indutype":"레저업소 - 노 래 방","category":"leisure"},{"name":"왕부노래연습장","tel":"031-492-5934","addr":"경기도 안산시 단원구 원곡동 775-17번지","indutype":"레저업소 - 노 래 방","category":"leisure"}]},{"lat":"37.326811966","long":"126.80269144","imageIndex":13,"items":[{"name":"우리당구장","tel":"031-414-9194","addr":"경기도 안산시 단원구 원곡동 847번지 한화꿈에그린아파트 지하 102호","indutype":"레저업소 - 당 구 장","category":"leisure"}]},{"lat":"37.331445101","long":"126.79338157","imageIndex":13,"items":[{"name":"울랄라노래연습장","tel":"031-492-6868","addr":"경기도 안산시 단원구 원곡동 749-6번지 지하층","indutype":"레저업소 - 노 래 방","category":"leisure"}]},{"lat":"37.326836774","long":"126.79615865","imageIndex":13,"items":[{"name":"쟁반노래연습장","tel":"031-491-2282","addr":"경기도 안산시 단원구 원곡동 820-8번지 지층","indutype":"레저업소 - 노 래 방","category":"leisure"}]},{"lat":"37.329585713","long":"126.79663629","imageIndex":13,"items":[{"name":"전통건강샵","tel":"031-494-7115","addr":"경기도 안산시 단원구 원곡동 779번지 3층","indutype":"레저업소 - 헬스클럽","category":"leisure"}]},{"lat":"37.33133684","long":"126.79330289","imageIndex":13,"items":[{"name":"제니아노래연습장","tel":"031-492-6785","addr":"경기도 안산시 단원구 원곡동 749-7번지 지하","indutype":"레저업소 - 노 래 방","category":"leisure"}]},{"lat":"37.33058341","long":"126.79524572","imageIndex":13,"items":[{"name":"질주노래연습장","tel":"031-491-8487","addr":"경기도 안산시 단원구 원곡동 761번지 지층","indutype":"레저업소 - 노 래 방","category":"leisure"}]},{"lat":"37.331534662","long":"126.79307667","imageIndex":13,"items":[{"name":"짜요노래연습장","tel":"031-508-3325","addr":"경기도 안산시 단원구 원곡동 749-4번지","indutype":"레저업소 - 노 래 방","category":"leisure"},{"name":"짜요노래연습장","tel":"031-508-3325","addr":"경기도 안산시 단원구 원곡동 749-4번지 지하층","indutype":"레저업소 - 노 래 방","category":"leisure"},{"name":"짜요노래연습장","tel":"031-508-3325","addr":"경기도 안산시 단원구 원곡동 749-4번지 지하","indutype":"레저업소 - 노 래 방","category":"leisure"}]},{"lat":"37.329421074","long":"126.79016021","imageIndex":13,"items":[{"name":"짱노래연습장","tel":"070-8846-5666","addr":"경기도 안산시 단원구 원곡동 789-2번지 3층","indutype":"레저업소 - 노 래 방","category":"leisure"}]},{"lat":"37.330031388","long":"126.79388196","imageIndex":13,"items":[{"name":"차차노래방","tel":"031-495-3275","addr":"경기도 안산시 단원구 원곡동 757-10번지","indutype":"레저업소 - 노 래 방","category":"leisure"}]},{"lat":"37.331588523","long":"126.79296369","imageIndex":13,"items":[{"name":"친구노래연습장","tel":"031-494-7772","addr":"경기도 안산시 단원구 원곡동 749-3번지 2층","indutype":"레저업소 - 노 래 방","category":"leisure"}]},{"lat":"37.331086947","long":"126.79465759","imageIndex":13,"items":[{"name":"케이비에스(KBS)노래연습장","tel":"031-493-9079","addr":"경기도 안산시 단원구 원곡동 758-9번지 지층","indutype":"레저업소 - 노 래 방","category":"leisure"}]},{"lat":"37.332002609","long":"126.79274815","imageIndex":13,"items":[{"name":"키스노래연습장","tel":"","addr":"경기도 안산시 단원구 원곡동 750-14번지 지하층","indutype":"레저업소 - 노 래 방","category":"leisure"}]},{"lat":"37.331724415","long":"126.7933808","imageIndex":13,"items":[{"name":"테마노래연습장","tel":"031-223-5214","addr":"경기도 안산시 단원구 원곡동 750-9번지","indutype":"레저업소 - 노 래 방","category":"leisure"}]},{"lat":"37.332480145","long":"126.79274682","imageIndex":13,"items":[{"name":"티파니 노래연습장","tel":"031-520-7411","addr":"경기도 안산시 단원구 원곡동 742-3번지 지하","indutype":"레저업소 - 노 래 방","category":"leisure"},{"name":"티파니노래연습장","tel":"031-520-7411","addr":"경기도 안산시 단원구 원곡동 742-3번지 지하","indutype":"레저업소 - 노 래 방","category":"leisure"}]},{"lat":"37.330422515","long":"126.7908908","imageIndex":13,"items":[{"name":"파랑새노래방","tel":"031-493-8288","addr":"경기도 안산시 단원구 원곡동 791-6번지 지하층","indutype":"레저업소 - 노 래 방","category":"leisure"}]},{"lat":"37.328195046","long":"126.78980261","imageIndex":13,"items":[{"name":"파브노래연습장","tel":"031-362-6010","addr":"경기도 안산시 단원구 원곡동 798-12번지 1호","indutype":"레저업소 - 노 래 방","category":"leisure"}]},{"lat":"37.331166824","long":"126.79396908","imageIndex":13,"items":[{"name":"파트너노래연습장","tel":"031-491-7988","addr":"경기도 안산시 단원구 원곡동 756번지 지층","indutype":"레저업소 - 노 래 방","category":"leisure"}]},{"lat":"37.331062274","long":"126.79091157","imageIndex":13,"items":[{"name":"팡즈노래연습장","tel":"031-1111-1111","addr":"경기도 안산시 단원구 원곡동 785-7번지 지하층","indutype":"레저업소 - 노 래 방","category":"leisure"}]},{"lat":"37.323417234","long":"126.8039415","imageIndex":13,"items":[{"name":"팡팡노래방","tel":"031-412-9014","addr":"경기도 안산시 단원구 원곡동 853-1 상림상가마동지하101","indutype":"레저업소 - 노 래 방","category":"leisure"}]},{"lat":"37.328141229","long":"126.78993816","imageIndex":13,"items":[{"name":"팡팡노래연습장","tel":"031-415-1749","addr":"경기도 안산시 단원구 원곡동 798-11번지 지층 101호","indutype":"레저업소 - 노 래 방","category":"leisure"}]},{"lat":"37.328000638","long":"126.78693729","imageIndex":13,"items":[{"name":"피씨펍","tel":"031-377-4306","addr":"경기도 안산시 단원구 원곡동 325-12번지 4층","indutype":"레저업소 - 기타레져업소","category":"leisure"}]},{"lat":"37.330389093","long":"126.79235772","imageIndex":13,"items":[{"name":"필노래연습장","tel":"070-4123-8628","addr":"경기도 안산시 단원구 원곡동 792-8번지 2층","indutype":"레저업소 - 노 래 방","category":"leisure"}]},{"lat":"37.330561028","long":"126.79277473","imageIndex":13,"items":[{"name":"한마음노래연습장","tel":"031-492-6133","addr":"경기도 안산시 단원구 원곡동 747-7번지 지하","indutype":"레저업소 - 노 래 방","category":"leisure"}]},{"lat":"37.332193939","long":"126.79394367","imageIndex":13,"items":[{"name":"행운노래연습장","tel":"031-494-6808","addr":"경기도 안산시 단원구 원곡동 751-6번지 봉현빌딩 2층","indutype":"레저업소 - 노 래 방","category":"leisure"}]},{"lat":"37.330007442","long":"126.79055347","imageIndex":13,"items":[{"name":"호운래PC방","tel":"031-000-0000","addr":"경기도 안산시 단원구 원곡동 790-4번지 2층 1호","indutype":"레저업소 - 기타레져업소","category":"leisure"}]},{"lat":"37.331694379","long":"126.79679978","imageIndex":13,"items":[{"name":"홍도노래연습장","tel":"031-493-8866","addr":"경기도 안산시 단원구 원곡동 764-8번지 지하층","indutype":"레저업소 - 노 래 방","category":"leisure"}]},{"lat":"37.331841107","long":"126.79313224","imageIndex":13,"items":[{"name":"홍콩노래연습장","tel":"031-495-6050","addr":"경기도 안산시 단원구 원곡동 750-11번지 2층","indutype":"레저업소 - 노 래 방","category":"leisure"},{"name":"홍콩노래연습장","tel":"031-495-6050","addr":"경기도 안산시 단원구 원곡동 750-11번지 2층","indutype":"레저업소 - 노 래 방","category":"leisure"}]},{"lat":"37.330534778","long":"126.79321485","imageIndex":13,"items":[{"name":"황궁노래연습장","tel":"031-495-5678","addr":"경기도 안산시 단원구 원곡동 755-5번지 지하층","indutype":"레저업소 - 노 래 방","category":"leisure"},{"name":"황궁노래연습장","tel":"031-495-5678","addr":"경기도 안산시 단원구 원곡동 755-5지하1층","indutype":"레저업소 - 노 래 방","category":"leisure"}]},{"lat":"37.329168445","long":"126.78996911","imageIndex":13,"items":[{"name":"황실노래연습장","tel":"031-494-9542","addr":"경기도 안산시 단원구 원곡동 789-4번지 201호","indutype":"레저업소 - 노 래 방","category":"leisure"}]},{"lat":"37.330201903","long":"126.79349786","imageIndex":13,"items":[{"name":"황제노래연습장","tel":"031-492-2434","addr":"경기도 안산시 단원구 원곡동 756-10번지","indutype":"레저업소 - 노 래 방","category":"leisure"}]}]