[{"lat":"38.10310902","long":"127.0754158","imageIndex":7,"items":[{"name":"SL푸드","tel":"031-834-0896","addr":"경기도 연천군 연천읍 차탄리 35-6번지","indutype":"음료식품 - 제과점","category":"food"}]},{"lat":"38.09960517","long":"127.0743407","imageIndex":7,"items":[{"name":"고기가 생각나면","tel":"031-834-7050","addr":"경기도 연천군 연천읍 차탄리 34-265번지","indutype":"음료식품 - 정육점","category":"food"}]},{"lat":"38.10313558","long":"127.0761683","imageIndex":7,"items":[{"name":"농업회사법인주식회사글로리아","tel":"02-0000-0000","addr":"경기도 연천군 연천읍 차탄리 37-18번지","indutype":"음료식품 - 기타음료식품","category":"food"}]},{"lat":"38.09985694","long":"127.075139","imageIndex":7,"items":[{"name":"동원건강원","tel":"031-834-0139","addr":"경기도 연천군 연천읍 차탄리 60-15번지","indutype":"건강식품 - 기타건강식품","category":"food"}]},{"lat":"38.09958608","long":"127.076085","imageIndex":7,"items":[{"name":"비어 앤 크림(픽미픽미아이스)연천점","tel":"","addr":"경기도 연천군 연천읍 차탄리 66-51번지","indutype":"음료식품 - 기타음료식품","category":"food"}]},{"lat":"38.10182867","long":"127.0771361","imageIndex":7,"items":[{"name":"산중건강원","tel":"031-834-5656","addr":"경기도 연천군 연천읍 차탄리 50-10번지","indutype":"건강식품 - 기타건강식품","category":"food"}]},{"lat":"38.09949705","long":"127.0743634","imageIndex":7,"items":[{"name":"수산시장","tel":"031-861-0021","addr":"경기도 연천군 연천읍 차탄리 34-148번지","indutype":"음료식품 - 농·축·수산품","category":"food"}]},{"lat":"38.10000072","long":"127.0757206","imageIndex":7,"items":[{"name":"시장방앗간","tel":"0031-834-3687","addr":"경기도 연천군 연천읍 차탄리 550-10번지","indutype":"음료식품 - 기타음료식품","category":"food"}]},{"lat":"38.09638856","long":"127.0749988","imageIndex":7,"items":[{"name":"연천군청/연천군농특산물큰장터","tel":"031-839-2317","addr":"경기도 연천군 연천읍 차탄리 290-1","indutype":"음료식품 - 농·축·수산품","category":"food"}]},{"lat":"38.10005467","long":"127.0758916","imageIndex":7,"items":[{"name":"정우유통","tel":"031-834-5055","addr":"경기도 연천군 연천읍 차탄리 56-16","indutype":"음료식품 - 정육점","category":"food"}]},{"lat":"38.09919088","long":"127.0741465","imageIndex":7,"items":[{"name":"정원축산마트","tel":"031-833-2208","addr":"경기도 연천군 연천읍 차탄리 34-60번지","indutype":"음료식품 - 정육점","category":"food"}]},{"lat":"38.09044373","long":"127.0731463","imageIndex":7,"items":[{"name":"주식회사호시","tel":"031-000-0000","addr":"경기도 연천군 연천읍 차탄리 192-3번지","indutype":"음료식품 - 기타음료식품","category":"food"}]},{"lat":"38.10172206","long":"127.074719","imageIndex":7,"items":[{"name":"착한빵집","tel":"031-834-8836","addr":"경기도 연천군 연천읍 차탄리 34-144번지","indutype":"음료식품 - 제과점","category":"food"}]},{"lat":"38.08255837","long":"127.0771394","imageIndex":7,"items":[{"name":"축협 정육점","tel":"031-833-2054","addr":"경기도 연천군 연천읍 차탄리 94-5번지","indutype":"음료식품 - 정육점","category":"food"}]},{"lat":"38.09991145","long":"127.0743866","imageIndex":7,"items":[{"name":"콩들의 이야기","tel":"","addr":"경기도 연천군 연천읍 차탄리 34-146번지 1동","indutype":"음료식품 - 기타음료식품","category":"food"}]},{"lat":"38.10074879","long":"127.0751969","imageIndex":7,"items":[{"name":"팜셰프 에이롬","tel":"","addr":"경기도 연천군 연천읍 차탄리 56-1번지","indutype":"음료식품 - 기타음료식품","category":"food"}]},{"lat":"38.10269465","long":"127.0753356","imageIndex":7,"items":[{"name":"형제떡방아","tel":"031-834-0803","addr":"경기도 연천군 연천읍 차탄리 34-300번지","indutype":"음료식품 - 제과점","category":"food"},{"name":"형제떡집","tel":"031-834-0803","addr":"경기도 연천군 연천읍 차탄리 34-300번지","indutype":"음료식품 - 제과점","category":"food"}]}]