[{"lat":"37.278649766","long":"127.01534151","imageIndex":4,"items":[{"name":"10.5인치(inch)","tel":"031-257-4207","addr":"경기도 수원시 팔달구 남창동 113-5번지 101호","indutype":"일반휴게음식 - 일반한식","category":"restaurant"}]},{"lat":"37.280127533","long":"127.0145299","imageIndex":4,"items":[{"name":"91커피 (91 COFFEE)","tel":"031-1111-1111","addr":"경기도 수원시 팔달구 남창동 76-2번지","indutype":"일반휴게음식 - 서양음식","category":"restaurant"}]},{"lat":"37.280370777","long":"127.01486821","imageIndex":4,"items":[{"name":"공차 수원화성행궁점","tel":"031-258-0815","addr":"경기도 수원시 팔달구 남창동 27-3번지","indutype":"일반휴게음식 - 서양음식","category":"restaurant"}]},{"lat":"37.280181646","long":"127.01399994","imageIndex":4,"items":[{"name":"김가네 한우국밥","tel":"031-247-0749","addr":"경기도 수원시 팔달구 남창동 54-9번지 ,1,2층","indutype":"일반휴게음식 - 일반한식","category":"restaurant"},{"name":"생고기제작소","tel":"031-247-0747","addr":"경기도 수원시 팔달구 남창동 54-9번지 2층","indutype":"일반휴게음식 - 일반한식","category":"restaurant"},{"name":"주식회사 신해물천지 행궁동지점","tel":"02-000-0000","addr":"경기도 수원시 팔달구 남창동 54-9번지 2층.3층","indutype":"일반휴게음식 - 일반한식","category":"restaurant"}]},{"lat":"37.279983356","long":"127.01466519","imageIndex":4,"items":[{"name":"단오","tel":"031-244-9615","addr":"경기도 수원시 팔달구 남창동 91-3번지","indutype":"일반휴게음식 - 서양음식","category":"restaurant"}]},{"lat":"37.277766715","long":"127.01575856","imageIndex":4,"items":[{"name":"달군별양","tel":"031-252-8253","addr":"경기도 수원시 팔달구 남창동 133-4번지","indutype":"일반휴게음식 - 일반한식","category":"restaurant"}]},{"lat":"37.278100105","long":"127.01566841","imageIndex":4,"items":[{"name":"대명소주광장","tel":"031-257-4849","addr":"경기도 수원시 팔달구 남창동 133-1번지","indutype":"일반휴게음식 - 일반한식","category":"restaurant"},{"name":"라비아","tel":"031-241-4373","addr":"경기도 수원시 팔달구 남창동 133-1번지 외1필지 건일빌딩","indutype":"일반휴게음식 - 스넥","category":"restaurant"}]},{"lat":"37.277982974","long":"127.01564584","imageIndex":4,"items":[{"name":"두리","tel":"031-46-4987","addr":"경기도 수원시 팔달구 남창동 133-7번지","indutype":"일반휴게음식 - 칵테일바","category":"restaurant"},{"name":"리원(    )","tel":"031-212-9080","addr":"경기도 수원시 팔달구 남창동 133-7번지 1층","indutype":"일반휴게음식 - 서양음식","category":"restaurant"}]},{"lat":"37.280677126","long":"127.01486826","imageIndex":4,"items":[{"name":"두헤브","tel":"031-308-2233","addr":"경기도 수원시 팔달구 남창동 28-1번지 1층","indutype":"일반휴게음식 - 서양음식","category":"restaurant"}]},{"lat":"37.279956296","long":"127.01494708","imageIndex":4,"items":[{"name":"디어카롱","tel":"031-254-5949","addr":"경기도 수원시 팔달구 남창동 77-2번지","indutype":"일반휴게음식 - 일반한식","category":"restaurant"},{"name":"열두알우동집","tel":"031-451-9603","addr":"경기도 수원시 팔달구 남창동 77-2번지 1층","indutype":"일반휴게음식 - 일반한식","category":"restaurant"}]},{"lat":"37.280235626","long":"127.01483436","imageIndex":4,"items":[{"name":"뜰 22","tel":"031-243-4521","addr":"경기도 수원시 팔달구 남창동 26-1번지 1층","indutype":"일반휴게음식 - 서양음식","category":"restaurant"},{"name":"행궁맛집","tel":"031-241-3172","addr":"경기도 수원시 팔달구 남창동 26-1번지","indutype":"일반휴게음식 - 일반한식","category":"restaurant"}]},{"lat":"37.279821145","long":"127.0149245","imageIndex":4,"items":[{"name":"랑데뷰","tel":"031-46-8986","addr":"경기도 수원시 팔달구 남창동 90-1번지","indutype":"일반휴게음식 - 일반한식","category":"restaurant"}]},{"lat":"37.279740021","long":"127.01522894","imageIndex":4,"items":[{"name":"로이스","tel":"031-248-3313","addr":"경기도 수원시 팔달구 남창동 80번지","indutype":"일반휴게음식 - 일반한식","category":"restaurant"}]},{"lat":"37.277649675","long":"127.01486778","imageIndex":4,"items":[{"name":"메모리아마넷(Memoria Manent)","tel":"031-243-0253","addr":"경기도 수원시 팔달구 남창동 135-2번지 1,2층","indutype":"일반휴게음식 - 일반한식","category":"restaurant"}]},{"lat":"37.279154368","long":"127.01508226","imageIndex":4,"items":[{"name":"밍쇼","tel":"","addr":"경기도 수원시 팔달구 남창동 100-1번지 1층","indutype":"일반휴게음식 - 서양음식","category":"restaurant"}]},{"lat":"37.279956261","long":"127.01528535","imageIndex":4,"items":[{"name":"뽐뽐","tel":"","addr":"경기도 수원시 팔달구 남창동 23번지 대민빌딩 1층","indutype":"일반휴게음식 - 일반한식","category":"restaurant"},{"name":"청학동칼국수","tel":"031-257-2768","addr":"경기도 수원시 팔달구 남창동 23번지 1층","indutype":"일반휴게음식 - 일반한식","category":"restaurant"}]},{"lat":"37.279875192","long":"127.01505982","imageIndex":4,"items":[{"name":"셰프스위트","tel":"031-242-6898","addr":"경기도 수원시 팔달구 남창동 78번지 1층 102호","indutype":"일반휴게음식 - 일반한식","category":"restaurant"}]},{"lat":"37.280821262","long":"127.0151389","imageIndex":4,"items":[{"name":"수원호스텔식당","tel":"031-247-3237","addr":"경기도 수원시 팔달구 남창동 14번지 수원화성사랑채 1층","indutype":"일반휴게음식 - 일반한식","category":"restaurant"}]},{"lat":"37.28159613","long":"127.01528562","imageIndex":4,"items":[{"name":"스타트","tel":"031-254-7313","addr":"경기도 수원시 팔달구 남창동 2-1번지","indutype":"일반휴게음식 - 주점","category":"restaurant"}]},{"lat":"37.279154394","long":"127.01483419","imageIndex":4,"items":[{"name":"아붕","tel":"070-7198-4360","addr":"경기도 수원시 팔달구 남창동 98-3번지 1층","indutype":"일반휴게음식 - 일반한식","category":"restaurant"},{"name":"어부네","tel":"031-248-1733","addr":"경기도 수원시 팔달구 남창동 98-3번지","indutype":"일반휴게음식 - 일반한식","category":"restaurant"}]},{"lat":"37.278568671","long":"127.01536405","imageIndex":4,"items":[{"name":"엄마생각","tel":"031-247-3114","addr":"경기도 수원시 팔달구 남창동 117-2번지","indutype":"일반휴게음식 - 일반한식","category":"restaurant"}]},{"lat":"37.278208224","long":"127.01570226","imageIndex":4,"items":[{"name":"예촌","tel":"031-254-9190","addr":"경기도 수원시 팔달구 남창동 132-1번지","indutype":"일반휴게음식 - 일반한식","category":"restaurant"}]},{"lat":"37.278875038","long":"127.01519497","imageIndex":4,"items":[{"name":"오름","tel":"","addr":"경기도 수원시 팔달구 남창동 109-2번지 1층","indutype":"일반휴게음식 - 일반한식","category":"restaurant"}]},{"lat":"37.278289333","long":"127.01555569","imageIndex":4,"items":[{"name":"유동분식","tel":"031-247-6619","addr":"경기도 수원시 팔달구 남창동 131-2번지","indutype":"일반휴게음식 - 일반한식","category":"restaurant"},{"name":"커피에반하다 수원남문점","tel":"031-242-4004","addr":"경기도 수원시 팔달구 남창동 131-2번지","indutype":"일반휴게음식 - 서양음식","category":"restaurant"}]},{"lat":"37.27787485","long":"127.01564582","imageIndex":4,"items":[{"name":"작은연못","tel":"031-891-4432","addr":"경기도 수원시 팔달구 남창동 133-5번지","indutype":"일반휴게음식 - 일반한식","category":"restaurant"}]},{"lat":"37.28007354","long":"127.01380824","imageIndex":4,"items":[{"name":"주식회사 신 해물천지","tel":"031-236-0740","addr":"경기도 수원시 팔달구 남창동 54-1번지","indutype":"일반휴게음식 - 일반한식","category":"restaurant"}]},{"lat":"37.278514633","long":"127.01513853","imageIndex":4,"items":[{"name":"찹쌀루","tel":"031-000-0000","addr":"경기도 수원시 팔달구 남창동 118-2번지 1층","indutype":"일반휴게음식 - 스넥","category":"restaurant"}]},{"lat":"37.277982965","long":"127.01572477","imageIndex":4,"items":[{"name":"크로키","tel":"031-248-3033","addr":"경기도 수원시 팔달구 남창동 133-2번지","indutype":"일반휴게음식 - 일반한식","category":"restaurant"}]},{"lat":"37.277766727","long":"127.01564581","imageIndex":4,"items":[{"name":"통영굴사랑낙지사랑","tel":"031-252-1253","addr":"경기도 수원시 팔달구 남창동 133-9번지","indutype":"일반휴게음식 - 일반한식","category":"restaurant"}]},{"lat":"37.278622771","long":"127.01500324","imageIndex":4,"items":[{"name":"한꽃담","tel":"070-8843-0016","addr":"경기도 수원시 팔달구 남창동 120-1번지","indutype":"일반휴게음식 - 일반한식","category":"restaurant"}]},{"lat":"37.278487573","long":"127.01542042","imageIndex":4,"items":[{"name":"헤세처럼","tel":"","addr":"경기도 수원시 팔달구 남창동 116-5번지 1층","indutype":"일반휴게음식 - 서양음식","category":"restaurant"}]},{"lat":"37.279676972","long":"127.01500341","imageIndex":17,"items":[{"name":"DIY교육센터","tel":"","addr":"경기도 수원시 팔달구 남창동 89번지 101호","indutype":"문화.취미 - 문화취미기타","category":"other"},{"name":"장금이공방","tel":"031-255-3175","addr":"경기도 수원시 팔달구 남창동 89번지","indutype":"문화.취미 - 문화취미기타","category":"other"},{"name":"행궁공방","tel":"031-253-3115","addr":"경기도 수원시 팔달구 남창동 89번지","indutype":"문화.취미 - 민예·공예품","category":"other"},{"name":"화성사랑","tel":"031-236-3091","addr":"경기도 수원시 팔달구 남창동 89번지","indutype":"문화.취미 - 민예·공예품","category":"other"}]},{"lat":"37.280370777","long":"127.01486821","imageIndex":17,"items":[{"name":"GRART","tel":"031-891-0599","addr":"경기도 수원시 팔달구 남창동 27-3번지 101호","indutype":"용역 서비스 - 사무서비스","category":"other"}]},{"lat":"37.277568651","long":"127.01416869","imageIndex":17,"items":[{"name":"ㄱ스튜디오","tel":"070-7420-0821","addr":"경기도 수원시 팔달구 남창동 136-24번지 ,1,2층","indutype":"광학제품 - 사진관","category":"other"}]},{"lat":"37.278622771","long":"127.01500324","imageIndex":17,"items":[{"name":"갤러리풍경","tel":"","addr":"경기도 수원시 팔달구 남창동 120-1번지 1층","indutype":"문화.취미 - 화랑","category":"other"},{"name":"더 이샘","tel":"031-256-4030","addr":"경기도 수원시 팔달구 남창동 120-1번지","indutype":"의류 - 정장","category":"other"}]},{"lat":"37.280406843","long":"127.01462015","imageIndex":17,"items":[{"name":"경애공방","tel":"031-258-3870","addr":"경기도 수원시 팔달구 남창동 72-1번지 남왕동","indutype":"신변잡화 - 액세서리","category":"other"}]},{"lat":"37.278379426","long":"127.01564591","imageIndex":17,"items":[{"name":"궁","tel":"031-252-3474","addr":"경기도 수원시 팔달구 남창동 115-1번지 1층","indutype":"의류 - 정장","category":"other"},{"name":"니트로아이","tel":"031-244-4848","addr":"경기도 수원시 팔달구 남창동 115-1번지","indutype":"용역 서비스 - 소프트웨어","category":"other"}]},{"lat":"37.279956261","long":"127.01528535","imageIndex":17,"items":[{"name":"귀부인","tel":"031-251-1796","addr":"경기도 수원시 팔달구 남창동 23번지 대민빌딩","indutype":"의류 - 맞춤복점","category":"other"}]},{"lat":"37.279821145","long":"127.0149245","imageIndex":17,"items":[{"name":"나녕공예방(나녕칠보공예연구소)","tel":"031-252-6027","addr":"경기도 수원시 팔달구 남창동 90-1번지 1층","indutype":"문화.취미 - 문화취미기타","category":"other"},{"name":"향기도예","tel":"031-252-0571","addr":"경기도 수원시 팔달구 남창동 90-1번지 1층일부","indutype":"문화.취미 - 민예·공예품","category":"other"}]},{"lat":"37.280235626","long":"127.01483436","imageIndex":17,"items":[{"name":"나무자전거포","tel":"031-203-7140","addr":"경기도 수원시 팔달구 남창동 26-1번지","indutype":"레져용품 - 스포츠·레져용품","category":"other"}]},{"lat":"37.279154368","long":"127.01508226","imageIndex":17,"items":[{"name":"남창세탁소","tel":"031-242-7579","addr":"경기도 수원시 팔달구 남창동 100-1번지 1층","indutype":"수리서비스 - 세탁소","category":"other"},{"name":"상상날개","tel":"070-7553-6718","addr":"경기도 수원시 팔달구 남창동 100-1번지","indutype":"신변잡화 - 기타잡화","category":"other"},{"name":"수수한","tel":"","addr":"경기도 수원시 팔달구 남창동 100-1번지","indutype":"신변잡화 - 기타잡화","category":"other"},{"name":"일월공방","tel":"","addr":"경기도 수원시 팔달구 남창동 100-1번지","indutype":"문화.취미 - 문화취미기타","category":"other"},{"name":"호두야자","tel":"031-241-0728","addr":"경기도 수원시 팔달구 남창동 100-1번지","indutype":"유통업 영리 - 기타유통업","category":"other"}]},{"lat":"37.279595878","long":"127.01502595","imageIndex":17,"items":[{"name":"너나들이","tel":"031-253-2262","addr":"경기도 수원시 팔달구 남창동 89번지 1호","indutype":"의류 - 맞춤복점","category":"other"}]},{"lat":"37.279154394","long":"127.01483419","imageIndex":17,"items":[{"name":"단공예","tel":"031-251-3579","addr":"경기도 수원시 팔달구 남창동 98-3번지","indutype":"의류 - 정장","category":"other"},{"name":"달님공방","tel":"031-241-4205","addr":"경기도 수원시 팔달구 남창동 98-3번지 1층","indutype":"문화.취미 - 문화취미기타","category":"other"},{"name":"빈의상실","tel":"031-243-9525","addr":"경기도 수원시 팔달구 남창동 98-3번지 1층","indutype":"의류 - 정장","category":"other"}]},{"lat":"37.279902279","long":"127.01450731","imageIndex":17,"items":[{"name":"도고네","tel":"031-999-6532","addr":"경기도 수원시 팔달구 남창동 92번지 B01호","indutype":"문화.취미 - 애완동물","category":"other"}]},{"lat":"37.278514633","long":"127.01513853","imageIndex":17,"items":[{"name":"레트로 드레스","tel":"031-242-4375","addr":"경기도 수원시 팔달구 남창동 118-2번지","indutype":"의류 - 정장","category":"other"},{"name":"언니의 봄날","tel":"","addr":"경기도 수원시 팔달구 남창동 118-2번지","indutype":"의류 - 정장","category":"other"}]},{"lat":"37.279821175","long":"127.01462006","imageIndex":17,"items":[{"name":"만방코리아","tel":"","addr":"경기도 수원시 팔달구 남창동 92-1번지 성림맨션 1층","indutype":"신변잡화 - 기타잡화","category":"other"}]},{"lat":"37.280794259","long":"127.01486828","imageIndex":17,"items":[{"name":"미성출판사","tel":"031-255-0812","addr":"경기도 수원시 팔달구 남창동 29-1번지 1층","indutype":"서적문구 - 출판 및 인쇄물","category":"other"},{"name":"편의점사랑행궁점","tel":"031-251-5676","addr":"경기도 수원시 팔달구 남창동 29-1번지","indutype":"유통업 영리 - 편 의 점","category":"other"}]},{"lat":"37.278875038","long":"127.01519497","imageIndex":17,"items":[{"name":"베스티오(VESTIO)","tel":"031-245-6304","addr":"경기도 수원시 팔달구 남창동 109-2번지 101호","indutype":"의류 - 정장","category":"other"}]},{"lat":"37.280821262","long":"127.0151389","imageIndex":17,"items":[{"name":"수원화성기념품샵","tel":"031-252-5652","addr":"경기도 수원시 팔달구 남창동 14번지 수원화성사랑채 1층","indutype":"신변잡화 - 기념품점","category":"other"},{"name":"재단법인 수원문화재단","tel":"031-290-3562","addr":"경기도 수원시 팔달구 남창동 14번지 수원화성사랑채","indutype":"문화.취미 - 티켓","category":"other"}]},{"lat":"37.280677126","long":"127.01486826","imageIndex":17,"items":[{"name":"스위트아트(Sweet Art)","tel":"031-291-7807","addr":"경기도 수원시 팔달구 남창동 28-1번지","indutype":"문화.취미 - 민예·공예품","category":"other"}]},{"lat":"37.28159613","long":"127.01528562","imageIndex":17,"items":[{"name":"원앙결혼정보","tel":"031-247-3140","addr":"경기도 수원시 팔달구 남창동 2-1","indutype":"회원제형태 - 기타4","category":"other"}]},{"lat":"37.278739869","long":"127.01534153","imageIndex":17,"items":[{"name":"이마트24 수원행궁점","tel":"031-252-3207","addr":"경기도 수원시 팔달구 남창동 110번지","indutype":"유통업 영리 - 편 의 점","category":"other"},{"name":"이마트24 수원행궁점","tel":"","addr":"경기도 수원시 팔달구 남창동 110번지 1층","indutype":"유통업 영리 - 편 의 점","category":"other"}]},{"lat":"37.278289333","long":"127.01555569","imageIndex":17,"items":[{"name":"임아트갤러리","tel":"031-241-4580","addr":"경기도 수원시 팔달구 남창동 131-2번지","indutype":"문화.취미 - 화랑","category":"other"}]},{"lat":"37.278100105","long":"127.01566841","imageIndex":17,"items":[{"name":"지영의상실","tel":"031-44-9046","addr":"경기도 수원시 팔달구 남창동 133-1번지","indutype":"의류 - 맞춤복점","category":"other"}]},{"lat":"37.279343581","long":"127.01511611","imageIndex":17,"items":[{"name":"판엔펀 (FaN&FuN)","tel":"02-1111-1111","addr":"경기도 수원시 팔달구 남창동 85-1번지 101호","indutype":"문화.취미 - 화랑","category":"other"}]},{"lat":"37.279316584","long":"127.01477784","imageIndex":17,"items":[{"name":"플라워마스","tel":"","addr":"경기도 수원시 팔달구 남창동 99-6번지 2층","indutype":"문화.취미 - 화원","category":"other"}]},{"lat":"37.280073593","long":"127.0132219","imageIndex":17,"items":[{"name":"행궁재갤러리","tel":"031-244-2739","addr":"경기도 수원시 팔달구 남창동 55-8번지","indutype":"문화.취미 - 화랑","category":"other"}]},{"lat":"37.28007354","long":"127.01380824","imageIndex":17,"items":[{"name":"현플라워","tel":"031-714-8782","addr":"경기도 수원시 팔달구 남창동 54-1번지","indutype":"문화.취미 - 화원","category":"other"}]},{"lat":"37.278793908","long":"127.01555577","imageIndex":5,"items":[{"name":"W모텔","tel":"031-245-6256","addr":"경기도 수원시 팔달구 남창동 112-1번지","indutype":"숙박업 - 여관/기타숙박업","category":"hotel"}]},{"lat":"37.279289475","long":"127.01553331","imageIndex":5,"items":[{"name":"남문모텔","tel":"031-255-5797","addr":"경기도 수원시 팔달구 남창동 84번지","indutype":"숙박업 - 여관/기타숙박업","category":"hotel"}]},{"lat":"37.27956882","long":"127.01528529","imageIndex":5,"items":[{"name":"녹산장여관","tel":"031-244-2529","addr":"경기도 수원시 팔달구 남창동 81번지","indutype":"숙박업 - 여관/기타숙박업","category":"hotel"}]},{"lat":"37.279235446","long":"127.01522885","imageIndex":5,"items":[{"name":"애플모텔","tel":"031-245-4791","addr":"경기도 수원시 팔달구 남창동 101번지","indutype":"숙박업 - 여관/기타숙박업","category":"hotel"}]},{"lat":"37.279100286","long":"127.01528521","imageIndex":5,"items":[{"name":"하니장","tel":"031-243-7667","addr":"경기도 수원시 팔달구 남창동 102번지","indutype":"숙박업 - 여관/기타숙박업","category":"hotel"},{"name":"하니장","tel":"031-243-7667","addr":"경기도 수원시 팔달구 남창동 102번지","indutype":"숙박업 - 여관/기타숙박업","category":"hotel"}]},{"lat":"37.279740021","long":"127.01522894","imageIndex":16,"items":[{"name":"가나안체험학습, 유통","tel":"031-215-6975","addr":"경기도 수원시 팔달구 남창동 80번지 101호","indutype":"학원 - 기타 교육기관","category":"study"}]},{"lat":"37.279713042","long":"127.01472152","imageIndex":16,"items":[{"name":"남문어린이집[아이행복]","tel":"031-241-3441","addr":"경기도 수원시 팔달구 남창동 96-2번지","indutype":"학원 - 유아원","category":"study"}]},{"lat":"37.279154368","long":"127.01508226","imageIndex":16,"items":[{"name":"남창체육관","tel":"031-246-9338","addr":"경기도 수원시 팔달구 남창동 100-1번지","indutype":"회원제형태 - 학원","category":"study"}]},{"lat":"37.278181328","long":"127.01439429","imageIndex":16,"items":[{"name":"남창초등학교","tel":"031-242-8204","addr":"경기도 수원시 팔달구 남창동 126번지 남창초등학교","indutype":"학원 - 초중고교육기관","category":"study"},{"name":"남창초등학교_수업료","tel":"031-242-8204","addr":"경기도 수원시 팔달구 남창동 126번지 남창초등학교","indutype":"학원 - 초중고교육기관","category":"study"},{"name":"남창초등학교병설유치원[아이행복]","tel":"031-245-5457","addr":"경기도 수원시 팔달구 남창동 126번지 남창초등학교","indutype":"학원 - 유치원","category":"study"}]},{"lat":"37.278622771","long":"127.01500324","imageIndex":16,"items":[{"name":"이성숙과외","tel":"031-256-4030","addr":"경기도 수원시 팔달구 남창동 120-1번지","indutype":"학원 - 기타 교육기관","category":"study"}]},{"lat":"37.277982965","long":"127.01572477","imageIndex":16,"items":[{"name":"임페리오이용학원","tel":"","addr":"경기도 수원시 팔달구 남창동 133-2번지 2층","indutype":"학원 - 기능학원","category":"study"}]},{"lat":"37.277928982","long":"127.01498058","imageIndex":16,"items":[{"name":"플리에케이크","tel":"03-100-0000","addr":"경기도 수원시 팔달구 남창동 134-11번지","indutype":"학원 - 기능학원","category":"study"}]},{"lat":"37.279956261","long":"127.01528535","imageIndex":16,"items":[{"name":"화홍갤러리","tel":"031-252-8700","addr":"경기도 수원시 팔달구 남창동 23번지 지하1층","indutype":"학원 - 기타 교육기관","category":"study"}]},{"lat":"37.278316369","long":"127.01549932","imageIndex":13,"items":[{"name":"건강바디케어","tel":"031-244-1957","addr":"경기도 수원시 팔달구 남창동 131-1번지","indutype":"보건위생 - 피부미용실","category":"beauty"}]},{"lat":"37.278649766","long":"127.01534151","imageIndex":13,"items":[{"name":"늘푸른아동발달센터","tel":"031-247-2235","addr":"경기도 수원시 팔달구 남창동 113-5번지 2층","indutype":"보건위생 - 기타대인서비스","category":"beauty"}]},{"lat":"37.278514633","long":"127.01513853","imageIndex":13,"items":[{"name":"명성암","tel":"031-245-0529","addr":"경기도 수원시 팔달구 남창동 118-2번지 2층","indutype":"보건위생 - 기타대인서비스","category":"beauty"}]},{"lat":"37.27787485","long":"127.01564582","imageIndex":13,"items":[{"name":"예술헤어","tel":"031-251-6259","addr":"경기도 수원시 팔달구 남창동 133-5번지 1층","indutype":"보건위생 - 미용원","category":"beauty"}]},{"lat":"37.277866","long":"127.01406725","imageIndex":13,"items":[{"name":"천궁신당(약사암)","tel":"031-0000-0000","addr":"경기도 수원시 팔달구 남창동 136-54번지 팔달맨션 가동 201호","indutype":"보건위생 - 기타대인서비스","category":"beauty"}]},{"lat":"37.279542013","long":"127.01291738","imageIndex":8,"items":[{"name":"김오곤한의원","tel":"031-245-3175","addr":"경기도 수원시 팔달구 남창동 56-68번지","indutype":"의원 - 한의원","category":"medical"}]},{"lat":"37.279794088","long":"127.01517257","imageIndex":7,"items":[{"name":"남양마트","tel":"031-243-5364","addr":"경기도 수원시 팔달구 남창동 79번지 1층","indutype":"유통업 영리 - 슈퍼마켓","category":"mart"}]},{"lat":"37.280677126","long":"127.01486826","imageIndex":7,"items":[{"name":"다솜","tel":"","addr":"경기도 수원시 팔달구 남창동 28-1번지 1층 일부호","indutype":"음료식품 - 기타음료식품","category":"food"}]},{"lat":"37.280406843","long":"127.01462015","imageIndex":7,"items":[{"name":"달보드레","tel":"031-254-0389","addr":"경기도 수원시 팔달구 남창동 72-1번지 1층","indutype":"음료식품 - 제과점","category":"food"}]},{"lat":"37.279956261","long":"127.01528535","imageIndex":7,"items":[{"name":"맘스청과","tel":"031-419-1669","addr":"경기도 수원시 팔달구 남창동 23번지 대민빌딩 3층 304호","indutype":"음료식품 - 농·축·수산품","category":"food"}]},{"lat":"37.279740021","long":"127.01522894","imageIndex":7,"items":[{"name":"목장유통","tel":"031-215-6975","addr":"경기도 수원시 팔달구 남창동 80번지 1층 102호","indutype":"음료식품 - 기타음료식품","category":"food"}]},{"lat":"37.280370713","long":"127.01547711","imageIndex":7,"items":[{"name":"케이컬쳐","tel":"031-000-0000","addr":"경기도 수원시 팔달구 남창동 16-1번지","indutype":"건강식품 - 기타건강식품","category":"food"}]},{"lat":"37.280127628","long":"127.01352635","imageIndex":7,"items":[{"name":"팔달산 매점","tel":"031-222-4249","addr":"경기도 수원시 팔달구 남창동 55-1번지","indutype":"음료식품 - 기타음료식품","category":"food"}]},{"lat":"37.278100105","long":"127.01566841","imageIndex":13,"items":[{"name":"명동노래연습장","tel":"031-247-4568","addr":"경기도 수원시 팔달구 남창동 133-1번지 건일빌딩 2층","indutype":"레저업소 - 노 래 방","category":"leisure"}]},{"lat":"37.280262637","long":"127.01502606","imageIndex":0,"items":[{"name":"한우물 주차장","tel":"031-256-0597","addr":"경기도 수원시 팔달구 남창동 24-4번지","indutype":"자동차정비 유지 - 주차장","category":"car"}]}]