[{"lat":"37.592871635","long":"127.1516187","imageIndex":13,"items":[{"name":"DODO 롤러장 트럼플린","tel":"031-557-3035","addr":"경기도 구리시 토평동 1003번지 지하1층","indutype":"레저업소 - 기타레져업소","category":"leisure"}]},{"lat":"37.579615623","long":"127.15367536","imageIndex":13,"items":[{"name":"J골프 연습장","tel":"031-558-8811","addr":"경기도 구리시 토평동 461-1번지","indutype":"레저업소 - 골프연습장","category":"leisure"}]},{"lat":"37.59066917","long":"127.14765144","imageIndex":13,"items":[{"name":"MS노래방","tel":"031-563-3098","addr":"경기도 구리시 토평동 965-4번지 서강프라자 4층","indutype":"레저업소 - 노 래 방","category":"leisure"},{"name":"토평당구클럽","tel":"000-0000-0000","addr":"경기도 구리시 토평동 965-4번지 서강프라자","indutype":"레저업소 - 당 구 장","category":"leisure"},{"name":"해머플러스","tel":"070-4848-3467","addr":"경기도 구리시 토평동 965-4번지 서강프라자 3층","indutype":"레저업소 - 기타레져업소","category":"leisure"}]},{"lat":"37.589451626","long":"127.14864545","imageIndex":13,"items":[{"name":"SG골프 구리점","tel":"031-567-1277","addr":"경기도 구리시 토평동 980번지 5층","indutype":"레저업소 - 스크린골프","category":"leisure"}]},{"lat":"37.590732544","long":"127.14740247","imageIndex":13,"items":[{"name":"갤러리PC방","tel":"070-2069-5008","addr":"경기도 구리시 토평동 965-3번지","indutype":"레저업소 - 기타레져업소","category":"leisure"}]},{"lat":"37.591675281","long":"127.15006511","imageIndex":13,"items":[{"name":"건주짓수 구리토평지관","tel":"","addr":"경기도 구리시 토평동 996번지 지층","indutype":"레저업소 - 헬스클럽","category":"leisure"}]},{"lat":"37.58420243","long":"127.15995673","imageIndex":13,"items":[{"name":"구리승마장","tel":"031-563-2370","addr":"경기도 구리시 토평동 48-230번지","indutype":"레저업소 - 기타레져업소","category":"leisure"}]},{"lat":"37.590508226","long":"127.14664343","imageIndex":13,"items":[{"name":"나이스당구장","tel":"031-554-3949","addr":"경기도 구리시 토평동 971번지 서라벌주차빌딩 204호","indutype":"레저업소 - 당 구 장","category":"leisure"}]},{"lat":"37.592863948","long":"127.15056566","imageIndex":13,"items":[{"name":"달라짐","tel":"031-568-9633","addr":"경기도 구리시 토평동 997-1번지 3층","indutype":"레저업소 - 헬스클럽","category":"leisure"}]},{"lat":"37.590923212","long":"127.14620265","imageIndex":13,"items":[{"name":"레벨업휘트니스구리토평점","tel":"031-555-1045","addr":"경기도 구리시 토평동 964-6번지 거양빌딩 5층","indutype":"레저업소 - 헬스클럽","category":"leisure"}]},{"lat":"37.590841642","long":"127.14659878","imageIndex":13,"items":[{"name":"본 당구장","tel":"070-4192-3945","addr":"경기도 구리시 토평동 965번지 우신빌딩 5층 502호","indutype":"레저업소 - 당 구 장","category":"leisure"}]},{"lat":"37.590641807","long":"127.14792313","imageIndex":13,"items":[{"name":"수노래방","tel":"031-563-4378","addr":"경기도 구리시 토평동 965-5번지","indutype":"레저업소 - 노 래 방","category":"leisure"}]},{"lat":"37.585615121","long":"127.14729068","imageIndex":13,"items":[{"name":"필라펙토(Pilafecto) 고현정","tel":"","addr":"경기도 구리시 토평동 613-12번지 3층","indutype":"레저업소 - 헬스클럽","category":"leisure"},{"name":"필라펙토(pilafecto)권세미","tel":"","addr":"경기도 구리시 토평동 613-12번지 3층","indutype":"레저업소 - 헬스클럽","category":"leisure"}]}]