[{"lat":"37.066994448","long":"127.41149519","imageIndex":7,"items":[{"name":"(주)영화안성미곡","tel":"031-676-3920","addr":"경기도 안성시 죽산면 두현리 254번지","indutype":"음료식품 - 미곡상","category":"food"}]},{"lat":"37.065105983","long":"127.40777459","imageIndex":7,"items":[{"name":"삽다리농장","tel":"031-676-6626","addr":"경기도 안성시 죽산면 두현리 165번지","indutype":"음료식품 - 농·축·수산품","category":"food"}]},{"lat":"37.070464354","long":"127.40064024","imageIndex":4,"items":[{"name":"나주집 나주곰탕","tel":"031-676-0855","addr":"경기도 안성시 죽산면 두현리 547-4번지","indutype":"일반휴게음식 - 일반한식","category":"restaurant"}]},{"lat":"37.072659318","long":"127.40438503","imageIndex":4,"items":[{"name":"동해  동태탕","tel":"031-677-6256","addr":"경기도 안성시 죽산면 두현리 305-3번지 1층","indutype":"일반휴게음식 - 일반한식","category":"restaurant"},{"name":"바다양푼이동태탕안성죽산점","tel":"031-677-6256","addr":"경기도 안성시 죽산면 두현리 305-3번지","indutype":"일반휴게음식 - 일반한식","category":"restaurant"}]},{"lat":"37.071074569","long":"127.40138558","imageIndex":4,"items":[{"name":"민상이네코다리조림","tel":"031-675-0321","addr":"경기도 안성시 죽산면 두현리 524번지 1동 1층","indutype":"일반휴게음식 - 일반한식","category":"restaurant"}]},{"lat":"37.073460549","long":"127.40724551","imageIndex":4,"items":[{"name":"쇠고개식당","tel":"031-675-3082","addr":"경기도 안성시 죽산면 두현리 337-4번지","indutype":"일반휴게음식 - 일반한식","category":"restaurant"}]},{"lat":"37.072272565","long":"127.41469457","imageIndex":4,"items":[{"name":"원조생선조림.동태탕","tel":"031-677-0416","addr":"경기도 안성시 죽산면 두현리 87-13번지 1층","indutype":"일반휴게음식 - 일반한식","category":"restaurant"},{"name":"원조생선조림.동태탕","tel":"031-677-0416","addr":"경기도 안성시 죽산면 두현리 87-13번지","indutype":"일반휴게음식 - 일반한식","category":"restaurant"}]},{"lat":"37.072856126","long":"127.40213707","imageIndex":17,"items":[{"name":"대일냉동","tel":"","addr":"경기도 안성시 죽산면 두현리 514-1번지","indutype":"전기제품 - 냉열기기","category":"other"}]},{"lat":"37.072378999","long":"127.4125811","imageIndex":17,"items":[{"name":"덕성골재","tel":"031-675-4593","addr":"경기도 안성시 죽산면 두현리 85-2","indutype":"건축자재 - 기타건축자재","category":"other"}]},{"lat":"37.067130471","long":"127.40597505","imageIndex":17,"items":[{"name":"성창테크","tel":"031-676-2312","addr":"경기도 안성시 죽산면 두현리 159번지","indutype":"기타 - 기계공구","category":"other"}]},{"lat":"37.067766936","long":"127.41219648","imageIndex":17,"items":[{"name":"조광파렛트","tel":"031-675-0131","addr":"경기도 안성시 죽산면 두현리 256번지 1층","indutype":"건축자재 - 기타건축자재","category":"other"}]},{"lat":"37.072492283","long":"127.41369496","imageIndex":17,"items":[{"name":"죽산농업협동조합경제부","tel":"031-676-6774","addr":"경기도 안성시 죽산면 두현리 87-2","indutype":"농업 - 농기계","category":"other"}]},{"lat":"37.071016624","long":"127.399856","imageIndex":17,"items":[{"name":"쿠키우드(주)","tel":"031-676-0544","addr":"경기도 안성시 죽산면 두현리 522-1번지","indutype":"가구 - 일반가구","category":"other"}]},{"lat":"37.072188421","long":"127.41297364","imageIndex":13,"items":[{"name":"연일유통","tel":"","addr":"경기도 안성시 죽산면 두현리 85-9번지","indutype":"보건위생 - 화장품","category":"beauty"}]},{"lat":"37.072492283","long":"127.41369496","imageIndex":9,"items":[{"name":"죽산농업협동조합경제부","tel":"031-676-6774","addr":"경기도 안성시 죽산면 두현리 87-2번지","indutype":"연료판매점 - GS주유소","category":"oil"}]},{"lat":"37.072572408","long":"127.40344","imageIndex":9,"items":[{"name":"죽산에너지","tel":"031-677-7212","addr":"경기도 안성시 죽산면 두현리 298-27번지","indutype":"연료판매점 - 쌍용S-OIL 가스충전","category":"oil"},{"name":"죽산에너지주유소","tel":"031-677-7211","addr":"경기도 안성시 죽산면 두현리 298-27번지","indutype":"연료판매점 - 쌍용S-OIL","category":"oil"}]},{"lat":"37.073271832","long":"127.40444449","imageIndex":0,"items":[{"name":"죽산자동차정비(주)","tel":"031-676-4455","addr":"경기도 안성시 죽산면 두현리 301-1번지","indutype":"자동차정비 유지 - 자동차정비","category":"car"}]},{"lat":"37.072328382","long":"127.41418885","imageIndex":0,"items":[{"name":"한국타이어죽산대리점","tel":"031-676-4375","addr":"경기도 안성시 죽산면 두현리 87-15번지","indutype":"자동차정비 유지 - 자동차시트·타이어","category":"car"}]}]