[{"lat":"37.47635251","long":"126.8662017","imageIndex":16,"items":[{"name":"(주)데네브(하이스트광명학원)","tel":"02-2616-5002","addr":"경기도 광명시 철산동 257번지 성림빌딩 2층 4층","indutype":"회원제형태 - 학원","category":"study"},{"name":"THE(더)유익한 학원","tel":"02-2060-3697","addr":"경기도 광명시 철산동 257번지 성림빌딩 3층 301호","indutype":"회원제형태 - 학원","category":"study"},{"name":"THE(더)유익한학원","tel":"02-2060-3697","addr":"경기도 광명시 철산동 257번지 성림빌딩","indutype":"학원 - 보습학원","category":"study"},{"name":"고수학전문학원","tel":"02-2616-0905","addr":"경기도 광명시 철산동 257번지 성림빌딩 702호","indutype":"학원 - 보습학원","category":"study"},{"name":"국어와나","tel":"02-2616-0015","addr":"경기도 광명시 철산동 257번지 성림빌딩 202호","indutype":"학원 - 보습학원","category":"study"},{"name":"람파스영어학원","tel":"02-6349-0584","addr":"경기도 광명시 철산동 257번지 성림빌딩 9층","indutype":"학원 - 외국어학원","category":"study"},{"name":"문수학전문학원","tel":"02-2626-7921","addr":"경기도 광명시 철산동 257번지 성림빌딩 4층 402호","indutype":"학원 - 보습학원","category":"study"},{"name":"상지학원","tel":"02-2612-5659","addr":"경기도 광명시 철산동 257번지 성림빌딩 301호","indutype":"학원 - 보습학원","category":"study"},{"name":"솔앤제이영어학원","tel":"02-2617-6401","addr":"경기도 광명시 철산동 257번지 성림빌딩 7층","indutype":"학원 - 외국어학원","category":"study"},{"name":"제이앤제이일본어학원","tel":"02-2066-2220","addr":"경기도 광명시 철산동 257번지 성림빌딩 203호","indutype":"학원 - 외국어학원","category":"study"},{"name":"키즈닥터창의교육학원","tel":"02-2613-1357","addr":"경기도 광명시 철산동 257번지 성림빌딩 8층 802,803호","indutype":"학원 - 기타 교육기관","category":"study"},{"name":"토즈스터디센터철산독서실","tel":"02-2611-6892","addr":"경기도 광명시 철산동 257번지 성림빌딩 7층","indutype":"학원 - 독서실","category":"study"}]},{"lat":"37.47676107","long":"126.8689255","imageIndex":16,"items":[{"name":"(주)마이엠수학 초등관학원","tel":"02-2039-5910","addr":"경기도 광명시 철산동 245-4번지 403호","indutype":"학원 - 보습학원","category":"study"},{"name":"(주)마이엠영재입시센터학원","tel":"02-2060-3345","addr":"경기도 광명시 철산동 245-4번지 2층 1-2호","indutype":"학원 - 보습학원","category":"study"},{"name":"강민정무용학원","tel":"02-2066-7757","addr":"경기도 광명시 철산동 245-4번지 명동빌딩 4층 6호","indutype":"학원 - 예·체능계학원","category":"study"},{"name":"메릭스수학영어학원","tel":"02-2060-8558","addr":"경기도 광명시 철산동 245-4번지 3층 4호","indutype":"회원제형태 - 학원","category":"study"},{"name":"작은별음악학원","tel":"02-2611-3369","addr":"경기도 광명시 철산동 245-4번지 4층 401호","indutype":"학원 - 예·체능계학원","category":"study"},{"name":"진국어사회학원","tel":"031-897-3174","addr":"경기도 광명시 철산동 245-4번지 명동빌딩 401호","indutype":"학원 - 보습학원","category":"study"},{"name":"철산바둑도장","tel":"02-2683-1667","addr":"경기도 광명시 철산동 245-4번지 명동빌딩 204호","indutype":"학원 - 예·체능계학원","category":"study"},{"name":"철산정철어학원","tel":"02-2060-2228","addr":"경기도 광명시 철산동 245-4번지 (3층3호,4호,5호,6호)","indutype":"학원 - 보습학원","category":"study"}]},{"lat":"37.47482079","long":"126.8661819","imageIndex":16,"items":[{"name":"(주)박대수영어학원","tel":"02-2615-9669","addr":"경기도 광명시 철산동 484-5번지 일청빌딩 4층","indutype":"학원 - 외국어학원","category":"study"},{"name":"(주)이관박대수영어학원","tel":"02-2615-9669","addr":"경기도 광명시 철산동 484-5번지 일청빌딩 6층","indutype":"학원 - 외국어학원","category":"study"},{"name":"CP수학학원","tel":"02-2687-5500","addr":"경기도 광명시 철산동 484-5번지 604일청빌딩","indutype":"학원 - 보습학원","category":"study"},{"name":"The (더) 강한학원","tel":"02-2614-6800","addr":"경기도 광명시 철산동 484-5번지","indutype":"학원 - 보습학원","category":"study"},{"name":"가우스수학학원","tel":"02-2681-1395","addr":"경기도 광명시 철산동 484-5번지 일청빌딩 5층 503호","indutype":"학원 - 보습학원","category":"study"},{"name":"광명입시학원","tel":"02-2611-0110","addr":"경기도 광명시 철산동 484-5번지 일청빌딩 4층 403호,406호","indutype":"회원제형태 - 학원","category":"study"},{"name":"광명학원","tel":"02-2611-0110","addr":"경기도 광명시 철산동 484-5번지 일청빌딩 402호,403호일부","indutype":"학원 - 보습학원","category":"study"},{"name":"필독서실","tel":"02-2625-3250","addr":"경기도 광명시 철산동 484-5번지 일청빌딩","indutype":"학원 - 독서실","category":"study"}]},{"lat":"37.4728379","long":"126.8735674","imageIndex":16,"items":[{"name":"103동 공부방","tel":"","addr":"경기도 광명시 철산동 634번지 철산래미안자이","indutype":"학원 - 기타 교육기관","category":"study"}]},{"lat":"37.47585236","long":"126.8700689","imageIndex":16,"items":[{"name":"HESS(헤스)수학,영어학원","tel":"02-2617-2701","addr":"경기도 광명시 철산동 394번지 다모아빌딩 402호","indutype":"회원제형태 - 학원","category":"study"},{"name":"리더스학원","tel":"02-2615-4007","addr":"경기도 광명시 철산동 394번지 다모아빌딩 401호","indutype":"회원제형태 - 학원","category":"study"},{"name":"리츠영어학원","tel":"02-2681-2335","addr":"경기도 광명시 철산동 394번지 다모아빌딩 4층","indutype":"회원제형태 - 학원","category":"study"},{"name":"목동SJ3관학원","tel":"02-2612-8660","addr":"경기도 광명시 철산동 394번지 다모아빌딩 501호","indutype":"학원 - 보습학원","category":"study"},{"name":"아테나 과학학원","tel":"070-4652-4048","addr":"경기도 광명시 철산동 394번지 다모아빌딩 503,504호","indutype":"회원제형태 - 학원","category":"study"},{"name":"에이스(ACE)실용음악학원","tel":"02-2688-4599","addr":"경기도 광명시 철산동 394번지 3층 301,302호","indutype":"학원 - 예·체능계학원","category":"study"},{"name":"주식회사큰학원","tel":"02-2617-1987","addr":"경기도 광명시 철산동 394번지 다모아빌딩 3층","indutype":"회원제형태 - 학원","category":"study"}]},{"lat":"37.48487558","long":"126.8659035","imageIndex":16,"items":[{"name":"TOP수학교습소","tel":"02-2615-4711","addr":"경기도 광명시 철산동 143번지 2층","indutype":"학원 - 보습학원","category":"study"}]},{"lat":"37.47090048","long":"126.8653412","imageIndex":16,"items":[{"name":"e해법수학셀파수학교실","tel":"02-2618-2090","addr":"경기도 광명시 철산동 625-2번지 힐타운 상가 3층 307호","indutype":"학원 - 보습학원","category":"study"},{"name":"미술상상미술교습소","tel":"02-3666-1511","addr":"경기도 광명시 철산동 625-2번지 광명힐타운 1층 109호","indutype":"학원 - 예·체능계학원","category":"study"},{"name":"피아노맨이야음악학원","tel":"02-2684-9997","addr":"경기도 광명시 철산동 625-2번지 힐타운 상가 305호","indutype":"학원 - 예·체능계학원","category":"study"}]},{"lat":"37.477045","long":"126.8730628","imageIndex":16,"items":[{"name":"가온수학","tel":"02-2616-8334","addr":"경기도 광명시 철산동 449-2번지 12단지 사상가 117호","indutype":"학원 - 보습학원","category":"study"},{"name":"벧엘어린이집[아이행복]","tel":"02-2688-3777","addr":"경기도 광명시 철산동 449-2번지","indutype":"학원 - 유아원","category":"study"}]},{"lat":"37.4789883","long":"126.8626808","imageIndex":16,"items":[{"name":"강낭콩어린이집","tel":"02-2619-2123","addr":"경기도 광명시 철산동 215-5번지","indutype":"학원 - 유치원","category":"study"}]},{"lat":"37.47637217","long":"126.8676261","imageIndex":16,"items":[{"name":"강의하는아이들수학학원","tel":"02-2060-3335","addr":"경기도 광명시 철산동 245-9번지 웅진빌딩 3층","indutype":"회원제형태 - 학원","category":"study"}]},{"lat":"37.47279343","long":"126.8740988","imageIndex":16,"items":[{"name":"개인과외","tel":"02-6401-4496","addr":"경기도 광명시 철산동 634번지 철산래미안자이","indutype":"학원 - 기타 교육기관","category":"study"},{"name":"미튼스 랭귀지(Mittens Language)","tel":"02-2684-0202","addr":"경기도 광명시 철산동 634번지 철산래미안자이","indutype":"학원 - 기타 교육기관","category":"study"},{"name":"지혜샘어린이집[아이행복]","tel":"02-6095-0734","addr":"경기도 광명시 철산동 634번지 철산래미안자이 104동 104호","indutype":"학원 - 유아원","category":"study"}]},{"lat":"37.47740047","long":"126.868653","imageIndex":16,"items":[{"name":"검전 검도교실","tel":"02-2688-0086","addr":"경기도 광명시 철산동 245-1번지 효도프라자지층 3","indutype":"학원 - 예·체능계학원","category":"study"},{"name":"광명진학학원","tel":"02-2616-5200","addr":"경기도 광명시 철산동 245-1 4층4호~6호","indutype":"학원 - 기타 교육기관","category":"study"},{"name":"대박과학교습소","tel":"02-1234-1234","addr":"경기도 광명시 철산동 245-1번지 3층 3호","indutype":"학원 - 보습학원","category":"study"},{"name":"블럭쟁이","tel":"070-4115-2577","addr":"경기도 광명시 철산동 245-1번지 효도프라자 2층 4호","indutype":"학원 - 기타 교육기관","category":"study"},{"name":"선혜국어논술전문학원","tel":"02-3666-9090","addr":"경기도 광명시 철산동 245-1번지 301호 일부","indutype":"학원 - 보습학원","category":"study"},{"name":"시태종수학학원","tel":"02-2625-4100","addr":"경기도 광명시 철산동 245-1번지 5층 3호","indutype":"학원 - 보습학원","category":"study"},{"name":"아이캔 수학학원","tel":"02-2611-4050","addr":"경기도 광명시 철산동 245-1번지 효도프라자 3층 2호","indutype":"학원 - 보습학원","category":"study"},{"name":"엘리트영어교습소","tel":"02-2618-3357","addr":"경기도 광명시 철산동 245-1번지 효도프라자 4층 4호","indutype":"학원 - 외국어학원","category":"study"},{"name":"철산시각미술학원","tel":"02-2685-2763","addr":"경기도 광명시 철산동 245-1번지 효도프라자 3층","indutype":"학원 - 예·체능계학원","category":"study"},{"name":"청어람","tel":"02-2682-0544","addr":"경기도 광명시 철산동 245-1효도프라자5층1,2호","indutype":"학원 - 기타 교육기관","category":"study"},{"name":"케이스영재학원","tel":"02-2066-0951","addr":"경기도 광명시 철산동 245-1번지 301,302호일부","indutype":"학원 - 보습학원","category":"study"},{"name":"팡스차이나중국어교습소","tel":"02-2684-4565","addr":"경기도 광명시 철산동 245-1번지 4호","indutype":"회원제형태 - 학원","category":"study"},{"name":"하이맘영어교습소","tel":"","addr":"경기도 광명시 철산동 245-1번지 401호","indutype":"학원 - 외국어학원","category":"study"},{"name":"한양대유신태권도장","tel":"02-2616-7897","addr":"경기도 광명시 철산동 245-1번지 2층 203호","indutype":"학원 - 예·체능계학원","category":"study"},{"name":"해통보습학원","tel":"02-2684-2965","addr":"경기도 광명시 철산동 245-1번지 403호","indutype":"학원 - 보습학원","category":"study"}]},{"lat":"37.47371104","long":"126.8648725","imageIndex":16,"items":[{"name":"경희대월드태권도","tel":"02-2681-6111","addr":"경기도 광명시 철산동 491번지 4층","indutype":"학원 - 예·체능계학원","category":"study"}]},{"lat":"37.47740322","long":"126.871095","imageIndex":16,"items":[{"name":"경희대호림태권도장","tel":"02-2688-8141","addr":"경기도 광명시 철산동 241-1번지 2층","indutype":"학원 - 예·체능계학원","category":"study"},{"name":"마그마수학과학학원","tel":"02-2684-0909","addr":"경기도 광명시 철산동 241-1번지 광명시사회체육센터 405호","indutype":"회원제형태 - 학원","category":"study"},{"name":"메리트어학원","tel":"02-2682-2277","addr":"경기도 광명시 철산동 241-1번지 3층","indutype":"회원제형태 - 학원","category":"study"},{"name":"메리트어학원","tel":"02-2682-2277","addr":"경기도 광명시 철산동 241-1번지 3층","indutype":"회원제형태 - 학원","category":"study"},{"name":"아미무용학원","tel":"02-2689-5989","addr":"경기도 광명시 철산동 241-1번지 4층 일부","indutype":"학원 - 예·체능계학원","category":"study"},{"name":"예은음악학원","tel":"02-2619-0506","addr":"경기도 광명시 철산동 241-1번지 효도프라자 3층","indutype":"학원 - 예·체능계학원","category":"study"},{"name":"이찬진컴퓨터교실광명지사","tel":"02-2614-0888","addr":"경기도 광명시 철산동 241-1번지","indutype":"회원제형태 - 학원","category":"study"},{"name":"정피아노","tel":"02-2689-0531","addr":"경기도 광명시 철산동 241-1","indutype":"학원 - 예·체능계학원","category":"study"},{"name":"철산에듀플렉스","tel":"02-2687-7909","addr":"경기도 광명시 철산동 241-1번지 광명시사회체육센터 4층","indutype":"학원 - 보습학원","category":"study"}]},{"lat":"37.4771863","long":"126.8704849","imageIndex":16,"items":[{"name":"고도수학교습소","tel":"02-2613-3455","addr":"경기도 광명시 철산동 241-2번지 바상가동 207호","indutype":"학원 - 보습학원","category":"study"},{"name":"대치탑영어교습소","tel":"02-2060-0260","addr":"경기도 광명시 철산동 241-2번지 주공상가 바동 210호","indutype":"학원 - 외국어학원","category":"study"},{"name":"삼성영어광성교습소","tel":"02-2683-3305","addr":"경기도 광명시 철산동 241-2번지 바상가 2층 205호","indutype":"학원 - 외국어학원","category":"study"}]},{"lat":"37.47570626","long":"126.8683508","imageIndex":16,"items":[{"name":"고려영어교육및번역연구소","tel":"02-2619-7876","addr":"경기도 광명시 철산동 272번지 야우리빌딩 602호","indutype":"회원제형태 - 학원","category":"study"},{"name":"광명간호학원","tel":"02-2619-1322","addr":"경기도 광명시 철산동 272번지 야우리빌딩 801호","indutype":"학원 - 기타 교육기관","category":"study"},{"name":"광명철산프리미엄민준독서실","tel":"02-2619-7878","addr":"경기도 광명시 철산동 272번지 야우리빌딩 603호","indutype":"학원 - 독서실","category":"study"},{"name":"민준어 학원","tel":"02-2619-7876","addr":"경기도 광명시 철산동 272번지 야우리빌딩 602호","indutype":"학원 - 보습학원","category":"study"},{"name":"세븐스텝어학원","tel":"02-2613-0579","addr":"경기도 광명시 철산동 272번지 야우리빌딩 7층 701호","indutype":"회원제형태 - 학원","category":"study"},{"name":"엠비션잉글리쉬학원","tel":"02-2688-0124","addr":"경기도 광명시 철산동 272번지 야우리빌딩 7층 701호","indutype":"학원 - 외국어학원","category":"study"}]},{"lat":"37.48142947","long":"126.8622353","imageIndex":16,"items":[{"name":"고려학원","tel":"02-2612-5005","addr":"경기도 광명시 철산동 202-2.502.503호","indutype":"학원 - 보습학원","category":"study"}]},{"lat":"37.48432072","long":"126.8691834","imageIndex":16,"items":[{"name":"골든벨보습학원","tel":"02-539-5060","addr":"경기도 광명시 철산동 235-1번지","indutype":"학원 - 보습학원","category":"study"},{"name":"인재교육원","tel":"02-2614-7080","addr":"경기도 광명시 철산동 235-1번지 2층","indutype":"학원 - 기능학원","category":"study"}]},{"lat":"37.47823404","long":"126.872812","imageIndex":16,"items":[{"name":"광명광성초등학교","tel":"02-2687-5243","addr":"경기도 광명시 철산동 243번지 광명광성초등학교","indutype":"학원 - 초중고교육기관","category":"study"}]},{"lat":"37.47657366","long":"126.8627079","imageIndex":16,"items":[{"name":"광명그린섬미술학원","tel":"02-2619-5003","addr":"경기도 광명시 철산동 464-8번지 3층","indutype":"학원 - 예·체능계학원","category":"study"},{"name":"두꺼비산들학교협동조합","tel":"02-2614-5402","addr":"경기도 광명시 철산동 464-8번지 3층","indutype":"학원 - 기타 교육기관","category":"study"}]},{"lat":"37.48720944","long":"126.866148","imageIndex":16,"items":[{"name":"광명북중학교","tel":"02-2687-3802","addr":"경기도 광명시 철산동 59번지 광명북중학교","indutype":"학원 - 초중고교육기관","category":"study"}]},{"lat":"37.47753992","long":"126.8645715","imageIndex":16,"items":[{"name":"광명시청직장어린이집[아이행복]","tel":"02-2680-6397","addr":"경기도 광명시 철산동 222-1번지 광명시청","indutype":"학원 - 유아원","category":"study"}]},{"lat":"37.47387779","long":"126.8688402","imageIndex":16,"items":[{"name":"광명실용음악학원","tel":"02-2060-2024","addr":"경기도 광명시 철산동 424번지 한국빌딩 402호","indutype":"학원 - 예·체능계학원","category":"study"},{"name":"주식회사 와이앤피컴퍼니","tel":"02-3666-9800","addr":"경기도 광명시 철산동 424번지 한국빌딩 5층","indutype":"학원 - 보습학원","category":"study"}]},{"lat":"37.47440675","long":"126.8665444","imageIndex":16,"items":[{"name":"광명요리학원","tel":"02-2060-5222","addr":"경기도 광명시 철산동 495-12번지 광덕빌딩 5층 501호","indutype":"학원 - 기타 교육기관","category":"study"}]},{"lat":"37.47126993","long":"126.8653744","imageIndex":16,"items":[{"name":"광명위너스학원","tel":"02-2619-0555","addr":"경기도 광명시 철산동 509-267번지 서빈빌딩 504호","indutype":"학원 - 보습학원","category":"study"},{"name":"울림 음악학원","tel":"02-2066-7774","addr":"경기도 광명시 철산동 509-267번지 서빈빌딩 2층 201호","indutype":"학원 - 예·체능계학원","category":"study"},{"name":"좋은습관 한가림태권도장","tel":"02-2618-1100","addr":"경기도 광명시 철산동 509-267번지 서빈빌딩","indutype":"학원 - 예·체능계학원","category":"study"},{"name":"톰앤제니어학원철산캠퍼스","tel":"02-2066-5105","addr":"경기도 광명시 철산동 509-267 성화빌딩3층301,302호","indutype":"학원 - 보습학원","category":"study"},{"name":"파이널유도멀티짐","tel":"070-4797-1979","addr":"경기도 광명시 철산동 509-267번지 서빈빌딩 2층 2호","indutype":"학원 - 예·체능계학원","category":"study"},{"name":"합기도","tel":"02-2613-3472","addr":"경기도 광명시 철산동 509-267번지","indutype":"학원 - 예·체능계학원","category":"study"}]},{"lat":"37.47442928","long":"126.8705124","imageIndex":16,"items":[{"name":"광명위드피아노학원","tel":"02-1644-9374","addr":"경기도 광명시 철산동 441번지 6층 602호,603호","indutype":"학원 - 예·체능계학원","category":"study"},{"name":"탑해법영어학원","tel":"02-2611-0528","addr":"경기도 광명시 철산동 441번지 604호","indutype":"회원제형태 - 학원","category":"study"}]},{"lat":"37.47701222","long":"126.8679302","imageIndex":16,"items":[{"name":"광명일본어교습소","tel":"02-2686-1582","addr":"경기도 광명시 철산동 245번지 쌍마한신아파트 108호","indutype":"학원 - 외국어학원","category":"study"}]},{"lat":"37.47823655","long":"126.8670349","imageIndex":16,"items":[{"name":"광명중학교","tel":"02-2684-3668","addr":"경기도 광명시 철산동 234-3번지 광명중학교","indutype":"학원 - 초중고교육기관","category":"study"}]},{"lat":"37.47346124","long":"126.8670096","imageIndex":16,"items":[{"name":"광명창조의아침 미술교육원 초등캠퍼스","tel":"02-2614-2155","addr":"경기도 광명시 철산동 519-17번지 경양빌딩 3층","indutype":"학원 - 예·체능계학원","category":"study"},{"name":"철산창조의아침미술학원","tel":"02-2614-2555","addr":"경기도 광명시 철산동 519-17번지 경양빌딩 2층","indutype":"학원 - 예·체능계학원","category":"study"}]},{"lat":"37.47554003","long":"126.8648465","imageIndex":16,"items":[{"name":"광명최형순댄스스포츠학원","tel":"02-2619-7192","addr":"경기도 광명시 철산동 472-30번지 4층","indutype":"학원 - 예·체능계학원","category":"study"},{"name":"해오름학원","tel":"02-2066-6884","addr":"경기도 광명시 철산동 472-30번지","indutype":"학원 - 보습학원","category":"study"}]},{"lat":"37.47478946","long":"126.8703195","imageIndex":16,"items":[{"name":"광명하브루타교육협회협동조합","tel":"02-2625-5088","addr":"경기도 광명시 철산동 440번지 중앙시장 302호","indutype":"회원제형태 - 학원","category":"study"},{"name":"재즈앤아이실용음악학원","tel":"02-2613-9997","addr":"경기도 광명시 철산동 440번지 철산시장 3층","indutype":"학원 - 예·체능계학원","category":"study"}]},{"lat":"37.47793384","long":"126.8624341","imageIndex":16,"items":[{"name":"광산어린이집[아이행복]","tel":"02-2611-3184","addr":"경기도 광명시 철산동 463-27번지","indutype":"학원 - 유아원","category":"study"}]},{"lat":"37.48004384","long":"126.8638434","imageIndex":16,"items":[{"name":"광운요양보호사교육원","tel":"02-2687-0777","addr":"경기도 광명시 철산동 210-4번지 2층","indutype":"학원 - 기타 교육기관","category":"study"}]},{"lat":"37.4688467","long":"126.8657632","imageIndex":16,"items":[{"name":"구름산어린이집[아이행복]","tel":"02-2616-6441","addr":"경기도 광명시 철산동 620번지","indutype":"학원 - 유아원","category":"study"}]},{"lat":"37.47551902","long":"126.8700921","imageIndex":16,"items":[{"name":"그림그리는날미술학원","tel":"02-2615-0333","addr":"경기도 광명시 철산동 437번지 프라자빌딩","indutype":"학원 - 예·체능계학원","category":"study"},{"name":"오스윈영어친구들영어교습소","tel":"02-2616-9090","addr":"경기도 광명시 철산동 437번지 프라자빌딩 303호","indutype":"학원 - 외국어학원","category":"study"},{"name":"해법중국어보습학원","tel":"02-2066-5153","addr":"경기도 광명시 철산동 437번지 프라자빌딩 406호","indutype":"학원 - 외국어학원","category":"study"},{"name":"혜령음악학원","tel":"02-2686-1386","addr":"경기도 광명시 철산동 437번지 프라자빌딩 4층 403호","indutype":"학원 - 예·체능계학원","category":"study"}]},{"lat":"37.47373785","long":"126.8646803","imageIndex":16,"items":[{"name":"그림나무","tel":"02-2689-2337","addr":"경기도 광명시 철산동 490-2번지","indutype":"학원 - 예·체능계학원","category":"study"},{"name":"쉬운수학","tel":"02-2615-2468","addr":"경기도 광명시 철산동 490-2번지 2층","indutype":"학원 - 보습학원","category":"study"},{"name":"윤선생우리집앞영어교실광명광덕영어교습소","tel":"02-2682-0594","addr":"경기도 광명시 철산동 490-2번지 201호","indutype":"학원 - 외국어학원","category":"study"}]},{"lat":"37.4721117","long":"126.868719","imageIndex":16,"items":[{"name":"그림숲미술교습소","tel":"02-2688-0913","addr":"경기도 광명시 철산동 637번지 철산푸르지오하늘채단지내상가2층244호","indutype":"학원 - 예·체능계학원","category":"study"},{"name":"나무심리상담센터","tel":"02-893-1004","addr":"경기도 광명시 철산동 637번지 철산푸르지오하늘채단지 상가 2층 231호","indutype":"학원 - 기타 교육기관","category":"study"},{"name":"노리사이언스","tel":"02-2694-6098","addr":"경기도 광명시 철산동 637번지 철산푸르지오하늘채 2층 237호","indutype":"학원 - 기타 교육기관","category":"study"},{"name":"놀작마이아트미술교습소","tel":"02-2060-5033","addr":"경기도 광명시 철산동 637번지 철산푸르지오하늘채 종합상가 243호","indutype":"학원 - 예·체능계학원","category":"study"},{"name":"대영수학교습소","tel":"02-2683-0630","addr":"경기도 광명시 철산동 637번지 푸르지오하늘채 종합상가동 제2층 제236호","indutype":"학원 - 보습학원","category":"study"},{"name":"디앤디수학교습소","tel":"02-2060-3321","addr":"경기도 광명시 철산동 637번지 철산푸르지오하늘채 종합 상가동 216호","indutype":"학원 - 보습학원","category":"study"},{"name":"뮤엠영어에나스교습소","tel":"070-7436-3324","addr":"경기도 광명시 철산동 637번지 종합 상가동 219 220호","indutype":"학원 - 외국어학원","category":"study"},{"name":"제제잉글리쉬영어교습소","tel":"070-7766-1760","addr":"경기도 광명시 철산동 637번지 철산푸르지오하늘채 상가 235호","indutype":"학원 - 외국어학원","category":"study"},{"name":"플레이팩토수학교습소","tel":"031-111-1111","addr":"경기도 광명시 철산동 637번지 철산푸르지오하늘채종합 상가 2층233호","indutype":"학원 - 보습학원","category":"study"},{"name":"한울태권도장","tel":"02-2066-3305","addr":"경기도 광명시 철산동 637번지 철산푸르지오하늘채 종합상가동 240,241,242호","indutype":"학원 - 예·체능계학원","category":"study"},{"name":"해법철산중국어교습소","tel":"02-2617-1888","addr":"경기도 광명시 철산동 637 철산푸르지오하늘채상가 -218","indutype":"회원제형태 - 학원","category":"study"}]},{"lat":"37.48198251","long":"126.8651513","imageIndex":16,"items":[{"name":"기린어린이집[아이행복]","tel":"02-2681-9494","addr":"경기도 광명시 철산동 160-4번지","indutype":"학원 - 유아원","category":"study"}]},{"lat":"37.47311102","long":"126.8680276","imageIndex":16,"items":[{"name":"김화평의보컬스튜디오","tel":"","addr":"경기도 광명시 철산동 637번지 철산푸르지오하늘채 105동 1703호","indutype":"학원 - 기타 교육기관","category":"study"}]},{"lat":"37.47066125","long":"126.8688573","imageIndex":16,"items":[{"name":"노블키즈어린이집[아이행복]","tel":"02-6406-8762","addr":"경기도 광명시 철산동 637번지 철산푸르지오하늘채 112동 102호","indutype":"학원 - 유아원","category":"study"}]},{"lat":"37.48676022","long":"126.8672569","imageIndex":16,"items":[{"name":"노산수학보습학원","tel":"02-2060-6545","addr":"경기도 광명시 철산동 88번지 2층","indutype":"학원 - 기타 교육기관","category":"study"}]},{"lat":"37.47770722","long":"126.8690143","imageIndex":16,"items":[{"name":"뉴광명경희대태권도","tel":"02-2618-5039","addr":"경기도 광명시 철산동 241-4번지 2층 201호","indutype":"학원 - 예·체능계학원","category":"study"},{"name":"뉴광명음악학원","tel":"02-2688-3333","addr":"경기도 광명시 철산동 241-4번지 단지교육센터 (12,13번지 2층 201호","indutype":"학원 - 예·체능계학원","category":"study"},{"name":"스카이에듀","tel":"02-3666-7001","addr":"경기도 광명시 철산동 241-4번지 교육센터 3층 301호","indutype":"학원 - 보습학원","category":"study"}]},{"lat":"37.48181811","long":"126.8632635","imageIndex":16,"items":[{"name":"대자연어린이집[아이행복]","tel":"02-2615-2004","addr":"경기도 광명시 철산동 186-1번지","indutype":"학원 - 유아원","category":"study"}]},{"lat":"37.48946087","long":"126.8652393","imageIndex":16,"items":[{"name":"더쎈학원","tel":"02-2688-8209","addr":"경기도 광명시 철산동 56-14번지","indutype":"학원 - 보습학원","category":"study"},{"name":"목동전문가그룹보습학원","tel":"02-2689-7942","addr":"경기도 광명시 철산동 56-14번지","indutype":"학원 - 보습학원","category":"study"},{"name":"영어숲윤선생영어철산학원","tel":"02-2682-2888","addr":"경기도 광명시 철산동 56-14번지 2층","indutype":"학원 - 보습학원","category":"study"}]},{"lat":"37.47623976","long":"126.8700457","imageIndex":16,"items":[{"name":"더옳은수학학원","tel":"02-2684-8077","addr":"경기도 광명시 철산동 385번지 알렉스타워 1302호","indutype":"학원 - 보습학원","category":"study"},{"name":"로템수학학원","tel":"02-6216-8200","addr":"경기도 광명시 철산동 385번지 알렉스타워 1303호","indutype":"학원 - 보습학원","category":"study"},{"name":"선택과집중특목영어학원","tel":"02-2616-8707","addr":"경기도 광명시 철산동 385번지 철산동,알렉스타워 1101호","indutype":"회원제형태 - 학원","category":"study"},{"name":"앤디안제2관학원","tel":"070-4249-0817","addr":"경기도 광명시 철산동 385번지 알렉스타워 1201호","indutype":"회원제형태 - 학원","category":"study"},{"name":"어썸팩토리광명철산플레이스독서실","tel":"02-2687-4011","addr":"경기도 광명시 철산동 385번지 알렉스타워 11층","indutype":"학원 - 독서실","category":"study"},{"name":"이케이조진원영어1관학원","tel":"02-2066-0582","addr":"경기도 광명시 철산동 385번지 양정타워 903호 (건축물대장상901호의일부)","indutype":"학원 - 외국어학원","category":"study"},{"name":"이케이조진원영어학원2관","tel":"02-2612-0582","addr":"경기도 광명시 철산동 385번지 알렉스타워 901호","indutype":"학원 - 외국어학원","category":"study"},{"name":"주식회사 더옳은교육","tel":"02-2616-2100","addr":"경기도 광명시 철산동 385번지 양정타워 1301호 일부(1302호)","indutype":"학원 - 보습학원","category":"study"},{"name":"주식회사앤디안","tel":"02-2682-0817","addr":"경기도 광명시 철산동 385번지 알렉스타워 10층 1001호 일부","indutype":"학원 - 보습학원","category":"study"},{"name":"형설지공국어수학학원","tel":"02-6747-2486","addr":"경기도 광명시 철산동 385번지 알렉스타워 1203호","indutype":"회원제형태 - 학원","category":"study"}]},{"lat":"37.46921416","long":"126.8641008","imageIndex":16,"items":[{"name":"도덕파크어린이집[아이행복]","tel":"02-3666-7942","addr":"경기도 광명시 철산동 625번지 도덕파크타운 107동 104호","indutype":"학원 - 유아원","category":"study"}]},{"lat":"37.47212923","long":"126.8764513","imageIndex":16,"items":[{"name":"도복소리비룡태권도장","tel":"02-859-5339","addr":"경기도 광명시 철산동 367번지 철산한신단지내상가402호","indutype":"학원 - 예·체능계학원","category":"study"},{"name":"모모미술학원","tel":"","addr":"경기도 광명시 철산동 367번지 철산한신APT상가 2층","indutype":"학원 - 예·체능계학원","category":"study"}]},{"lat":"37.48276695","long":"126.8656473","imageIndex":16,"items":[{"name":"동화나라어린이집","tel":"02-2613-5680","addr":"경기도 광명시 철산동 157-1번지 2층","indutype":"학원 - 유아원","category":"study"}]},{"lat":"37.48254126","long":"126.8652633","imageIndex":16,"items":[{"name":"동화나라어린이집[아이행복]","tel":"02-2613-5680","addr":"경기도 광명시 철산동 177-2번지","indutype":"학원 - 유아원","category":"study"}]},{"lat":"37.48046376","long":"126.8685684","imageIndex":16,"items":[{"name":"동화속풍덩","tel":"","addr":"경기도 광명시 철산동 241번지 철산13단지주공아파트","indutype":"학원 - 기타 교육기관","category":"study"}]},{"lat":"37.48646207","long":"126.8665451","imageIndex":16,"items":[{"name":"류선생중국어학원","tel":"070-8254-6888","addr":"경기도 광명시 철산동 91번지 201호","indutype":"학원 - 보습학원","category":"study"},{"name":"해법영어해법수학","tel":"02-2613-5757","addr":"경기도 광명시 철산동 91번지 2층 201호","indutype":"학원 - 보습학원","category":"study"}]},{"lat":"37.48457205","long":"126.8683462","imageIndex":16,"items":[{"name":"리딩바인학원","tel":"02-2616-7750","addr":"경기도 광명시 철산동 105-2번지 301호","indutype":"학원 - 보습학원","category":"study"}]},{"lat":"37.47334928","long":"126.8637088","imageIndex":16,"items":[{"name":"리즈이엔엠학원","tel":"02-2681-0535","addr":"경기도 광명시 철산동 631번지 광명푸르지오 상가동 2층 205호","indutype":"학원 - 보습학원","category":"study"},{"name":"삼공삼공영어철산교습소","tel":"02-2619-3005","addr":"경기도 광명시 철산동 631번지 광명푸르지오 상가동 2층 203호","indutype":"학원 - 보습학원","category":"study"},{"name":"지니음악학원","tel":"02-6951-3900","addr":"경기도 광명시 철산동 631번지 광명푸르지오아파트 2층 201호","indutype":"학원 - 예·체능계학원","category":"study"}]},{"lat":"37.46989924","long":"126.8643708","imageIndex":16,"items":[{"name":"릴라 에듀","tel":"","addr":"경기도 광명시 철산동 625번지 도덕파크타운 103동 1202호","indutype":"학원 - 기타 교육기관","category":"study"},{"name":"파란들어린이집[아이행복]","tel":"02-3666-9979","addr":"경기도 광명시 철산동 625번지 도덕파크타운 103동 101호","indutype":"학원 - 유아원","category":"study"}]},{"lat":"37.47248556","long":"126.8647617","imageIndex":16,"items":[{"name":"마리아어린이집[아이행복]","tel":"02-2617-1321","addr":"경기도 광명시 철산동 489-63번지 천주교 철산성당","indutype":"학원 - 유아원","category":"study"}]},{"lat":"37.48279175","long":"126.8637365","imageIndex":16,"items":[{"name":"맑은샘광천어린이집[아이행복]","tel":"02-2686-7603","addr":"경기도 광명시 철산동 192번지 1층 광천교회","indutype":"학원 - 유아원","category":"study"}]},{"lat":"37.47456809","long":"126.8658206","imageIndex":16,"items":[{"name":"명재국영어교습소","tel":"070-8957-4579","addr":"경기도 광명시 철산동 494번지 진성빌딩 3층","indutype":"회원제형태 - 학원","category":"study"}]},{"lat":"37.47082056","long":"126.8663474","imageIndex":16,"items":[{"name":"뮤엠영어도덕파크캠퍼스","tel":"031-000-0000","addr":"경기도 광명시 철산동 617번지 도덕파크타운 가동 3층 303호","indutype":"학원 - 보습학원","category":"study"},{"name":"블루라군","tel":"02-6925-6607","addr":"경기도 광명시 철산동 617번지 가 상가 B1,02,03호","indutype":"학원 - 기타 교육기관","category":"study"},{"name":"비바체음악교습소","tel":"02-2687-7555","addr":"경기도 광명시 철산동 617번지 도덕파크타운 상가 211호","indutype":"학원 - 예·체능계학원","category":"study"},{"name":"빠레뜨예술공간미술교습소","tel":"02-2066-7776","addr":"경기도 광명시 철산동 617번지 도덕파크타운 상가동 408호","indutype":"학원 - 예·체능계학원","category":"study"},{"name":"삼성영어 도덕파크 교습소","tel":"02-2060-0880","addr":"경기도 광명시 철산동 617번지 도덕파크타운 상가 가동 4층 405B호","indutype":"학원 - 외국어학원","category":"study"},{"name":"샬롬피아노교습소","tel":"02-6673-1113","addr":"경기도 광명시 철산동 617번지 도덕파크 208호 상가","indutype":"학원 - 예·체능계학원","category":"study"},{"name":"캐나다영어교습소","tel":"02-2682-9842","addr":"경기도 광명시 철산동 617번지 도덕파크타운가상가 103-1호","indutype":"학원 - 보습학원","category":"study"},{"name":"한국체대송일태권도장","tel":"02-2617-6800","addr":"경기도 광명시 철산동 617번지 철산도덕파크타운상가 403호 ,404,407호","indutype":"학원 - 예·체능계학원","category":"study"}]},{"lat":"37.48954208","long":"126.8653409","imageIndex":16,"items":[{"name":"뮤엠영어철산광북","tel":"02-2615-0506","addr":"경기도 광명시 철산동 56-13번지 수지빌딩 601호","indutype":"학원 - 보습학원","category":"study"}]},{"lat":"37.4856772","long":"126.8656759","imageIndex":16,"items":[{"name":"민족사관학원","tel":"02-2689-0050","addr":"경기도 광명시 철산동 140-1번지 2층","indutype":"학원 - 기타 교육기관","category":"study"}]},{"lat":"37.48967755","long":"126.8656233","imageIndex":16,"items":[{"name":"반석음악학원","tel":"02-2612-8890","addr":"경기도 광명시 철산동 56-11번지","indutype":"학원 - 예·체능계학원","category":"study"},{"name":"베테랑스학원","tel":"02-2689-4246","addr":"경기도 광명시 철산동 56-11번지 4층","indutype":"학원 - 보습학원","category":"study"}]},{"lat":"37.46994634","long":"126.8661342","imageIndex":16,"items":[{"name":"베베숲어린이집[아이행복]","tel":"02-2687-6202","addr":"경기도 광명시 철산동 625번지 도덕파크 205동 108호","indutype":"학원 - 유아원","category":"study"}]},{"lat":"37.47571043","long":"126.8720702","imageIndex":16,"items":[{"name":"베이비몬테소리어린이집[아이행복]","tel":"02-6335-7942","addr":"경기도 광명시 철산동 449번지 철산12단지주공아파트","indutype":"학원 - 유아원","category":"study"}]},{"lat":"37.47385418","long":"126.8640018","imageIndex":16,"items":[{"name":"별사랑어린이집[아이행복]","tel":"02-2616-9077","addr":"경기도 광명시 철산동 631번지 광명푸르지오 102동 102호","indutype":"학원 - 유아원","category":"study"}]},{"lat":"37.47609695","long":"126.8633985","imageIndex":16,"items":[{"name":"브니엘어린이집","tel":"02-2618-9465","addr":"경기도 광명시 철산동 466-3번지","indutype":"학원 - 유치원","category":"study"},{"name":"브니엘어린이집[아이행복]","tel":"02-2618-9465","addr":"경기도 광명시 철산동 466-3번지","indutype":"학원 - 유아원","category":"study"}]},{"lat":"37.48051877","long":"126.869405","imageIndex":16,"items":[{"name":"빨간펜 수학의달인 철산1호점","tel":"070-8639-9540","addr":"경기도 광명시 철산동 240번지 주공상가 2층 205호","indutype":"학원 - 보습학원","category":"study"},{"name":"상무한양태권도장","tel":"02-2689-1485","addr":"경기도 광명시 철산동 240번지 주공13단지 마상가 212호","indutype":"학원 - 예·체능계학원","category":"study"},{"name":"쏙쏙 영어 교습소","tel":"02-2625-6394","addr":"경기도 광명시 철산동 240번지 상가 마동 2층 201호","indutype":"회원제형태 - 학원","category":"study"},{"name":"이화 피아노스토리 음악학원","tel":"070-5659-9917","addr":"경기도 광명시 철산동 240번지 철산주공13단지 208호","indutype":"학원 - 예·체능계학원","category":"study"}]},{"lat":"37.48448943","long":"126.8670122","imageIndex":16,"items":[{"name":"빨간펜수학의달인광명철산보습학원","tel":"02-2687-2448","addr":"경기도 광명시 철산동 105-1번지 주공11단지 206호 가상가","indutype":"회원제형태 - 학원","category":"study"}]},{"lat":"37.46907208","long":"126.8658758","imageIndex":16,"items":[{"name":"상상나래어학원","tel":"02-2688-2070","addr":"경기도 광명시 철산동 619번지 로즈힐빌딩 4층","indutype":"학원 - 외국어학원","category":"study"}]},{"lat":"37.4705226","long":"126.8658053","imageIndex":16,"items":[{"name":"서민정사람경영연구소","tel":"","addr":"경기도 광명시 철산동 625번지 도덕파크타운 202동 1206호","indutype":"학원 - 기타 교육기관","category":"study"},{"name":"해나어린이집[아이행복]","tel":"070-7555-3463","addr":"경기도 광명시 철산동 625번지 도덕파크타운 202동 105호","indutype":"학원 - 유아원","category":"study"}]},{"lat":"37.4717395","long":"126.8743154","imageIndex":16,"items":[{"name":"선우용음악학원","tel":"02-2617-7556","addr":"경기도 광명시 철산동 634번지 철산래미안자이 3층","indutype":"학원 - 예·체능계학원","category":"study"},{"name":"유니팝미술학원","tel":"02-2616-0205","addr":"경기도 광명시 철산동 634번지 철산래미안자이 상가동 304,305,306호","indutype":"학원 - 예·체능계학원","category":"study"},{"name":"정도태권도장","tel":"02-2617-7556","addr":"경기도 광명시 철산동 634번지 래미안자이단지 상가 307동 308호","indutype":"학원 - 기타 교육기관","category":"study"},{"name":"하이제니영어교습소","tel":"070-8880-2469","addr":"경기도 광명시 철산동 634번지 철산래미안자이 상가동동 3층 3호 상가동 3층 303호","indutype":"학원 - 외국어학원","category":"study"},{"name":"하이클래스 음악학원","tel":"02-2682-0434","addr":"경기도 광명시 철산동 634번지 철산래미안자이 상가동 3층 307","indutype":"학원 - 예·체능계학원","category":"study"}]},{"lat":"37.47643574","long":"126.8680669","imageIndex":16,"items":[{"name":"선택과집중영어학원","tel":"02-2616-8707","addr":"경기도 광명시 철산동 245-8번지 나미빌딩 4층","indutype":"회원제형태 - 학원","category":"study"}]},{"lat":"37.4751514","long":"126.8638185","imageIndex":16,"items":[{"name":"소호리빙텔","tel":"02-2682-3332","addr":"경기도 광명시 철산동 467-2번지","indutype":"학원 - 기타 교육기관","category":"study"}]},{"lat":"37.47516011","long":"126.8714268","imageIndex":16,"items":[{"name":"수포자수학공부방","tel":"02-2060-7477","addr":"경기도 광명시 철산동 449번지 철산12단지주공아파트","indutype":"회원제형태 - 학원","category":"study"}]},{"lat":"37.47308587","long":"126.8696895","imageIndex":16,"items":[{"name":"숲과샘어린이집[아이행복]","tel":"02-2060-0995","addr":"경기도 광명시 철산동 637번지 철산푸르지오하늘채 102동 102호","indutype":"학원 - 유아원","category":"study"}]},{"lat":"37.47959385","long":"126.8721878","imageIndex":16,"items":[{"name":"스스로 러닝센터 철산광성점","tel":"02-2635-8880","addr":"경기도 광명시 철산동 241번지 철산13단지주공아파트","indutype":"학원 - 보습학원","category":"study"}]},{"lat":"37.48084412","long":"126.8702862","imageIndex":16,"items":[{"name":"시립철산누리어린이집[아이행복]","tel":"02-2619-2233","addr":"경기도 광명시 철산동 240-2번지","indutype":"학원 - 유아원","category":"study"}]},{"lat":"37.4822131","long":"126.8620417","imageIndex":16,"items":[{"name":"시립철산어린이집[아이행복]","tel":"02-2687-7700","addr":"경기도 광명시 철산동 203-1번지","indutype":"학원 - 유아원","category":"study"}]},{"lat":"37.47187805","long":"126.8692621","imageIndex":16,"items":[{"name":"신쌤수학","tel":"","addr":"경기도 광명시 철산동 637번지 철산푸르지오하늘채 108동 2703호","indutype":"학원 - 기타 교육기관","category":"study"}]},{"lat":"37.48520801","long":"126.8651001","imageIndex":16,"items":[{"name":"신일드림키즈어린이집[아이행복]","tel":"02-2684-6657","addr":"경기도 광명시 철산동 136-4번지","indutype":"학원 - 유아원","category":"study"}]},{"lat":"37.48531607","long":"126.8650434","imageIndex":16,"items":[{"name":"신일어린이집[아이행복]","tel":"02-2682-6657","addr":"경기도 광명시 철산동 136-3번지","indutype":"학원 - 유아원","category":"study"}]},{"lat":"37.47027052","long":"126.8739901","imageIndex":16,"items":[{"name":"아름누리어린이집[아이행복]","tel":"02-2060-8395","addr":"경기도 광명시 철산동 634번지 철산래미안자이 117동 102호","indutype":"학원 - 유아원","category":"study"}]},{"lat":"37.48371596","long":"126.8682234","imageIndex":16,"items":[{"name":"에듀테이블","tel":"070-4300-6300","addr":"경기도 광명시 철산동 235번지 철산8단지주공아파트","indutype":"학원 - 기타 교육기관","category":"study"}]},{"lat":"37.48240027","long":"126.8680109","imageIndex":16,"items":[{"name":"에스앤드엘주식회사","tel":"02-2612-9701","addr":"경기도 광명시 철산동 235-3번지","indutype":"회원제형태 - 학원","category":"study"},{"name":"해법영어벚꽃교실학원","tel":"02-2688-3622","addr":"경기도 광명시 철산동 235-3번지 철산주공8단지교육상가 302호","indutype":"학원 - 보습학원","category":"study"}]},{"lat":"37.47721353","long":"126.8628424","imageIndex":16,"items":[{"name":"에이블 영어학원","tel":"02-2688-1188","addr":"경기도 광명시 철산동 220-2번지 금산빌딩 304호","indutype":"학원 - 보습학원","category":"study"},{"name":"왕박사중국어교실","tel":"070-8236-9102","addr":"경기도 광명시 철산동 220-2번지 금산빌딩 302호","indutype":"회원제형태 - 학원","category":"study"}]},{"lat":"37.48073813","long":"126.8642943","imageIndex":16,"items":[{"name":"에이스독서실","tel":"02-2684-1771","addr":"경기도 광명시 철산동 162-4번지","indutype":"학원 - 독서실","category":"study"}]},{"lat":"37.47618235","long":"126.8670951","imageIndex":16,"items":[{"name":"엔(N)-플러스간호학원","tel":"02-2625-5300","addr":"경기도 광명시 철산동 249번지 신안빌딩 6층 가호","indutype":"학원 - 기능학원","category":"study"},{"name":"정현영학원","tel":"02-6337-2223","addr":"경기도 광명시 철산동 249번지 신안빌딩 7층 2,3호","indutype":"학원 - 보습학원","category":"study"},{"name":"청담어학원","tel":"02-2683-0505","addr":"경기도 광명시 철산동 249번지","indutype":"학원 - 외국어학원","category":"study"},{"name":"한경태수학전문학원","tel":"070-4175-5077","addr":"경기도 광명시 철산동 249번지 신안빌딩 6층 나 2,3호","indutype":"학원 - 보습학원","category":"study"}]},{"lat":"37.47179141","long":"126.8644352","imageIndex":16,"items":[{"name":"열매음악교습소","tel":"02-6406-7774","addr":"경기도 광명시 철산동 630번지 브라운스톤광명 상가동 201-1호","indutype":"학원 - 예·체능계학원","category":"study"}]},{"lat":"37.48662117","long":"126.863899","imageIndex":16,"items":[{"name":"영수당위캔학원","tel":"02-2615-1569","addr":"경기도 광명시 철산동 56-120번지 2층 201호","indutype":"학원 - 보습학원","category":"study"},{"name":"영수학당최고학원","tel":"031-6012-0324","addr":"경기도 광명시 철산동 56-120번지 202호","indutype":"학원 - 보습학원","category":"study"}]},{"lat":"37.48640464","long":"126.8636507","imageIndex":16,"items":[{"name":"영재독서실","tel":"02-2616-7713","addr":"경기도 광명시 철산동 70-4번지","indutype":"학원 - 기타 교육기관","category":"study"}]},{"lat":"37.48562146","long":"126.8642401","imageIndex":16,"items":[{"name":"예빛어린이집[아이행복]","tel":"02-2060-4177","addr":"경기도 광명시 철산동 76-39번지","indutype":"학원 - 유아원","category":"study"}]},{"lat":"37.47056855","long":"126.8665853","imageIndex":16,"items":[{"name":"예원어린이집[아이행복]","tel":"02-2689-7632","addr":"경기도 광명시 철산동 625번지 도덕파크타운 201동 105호","indutype":"학원 - 유아원","category":"study"}]},{"lat":"37.47556928","long":"126.8748176","imageIndex":16,"items":[{"name":"예지음악학원","tel":"02-2686-0478","addr":"경기도 광명시 철산동 449-3.12단지교육센타3충","indutype":"학원 - 예·체능계학원","category":"study"},{"name":"철산하니미술학원","tel":"02-2617-0247","addr":"경기도 광명시 철산동 449-3번지 12단지교육센터 2층","indutype":"학원 - 예·체능계학원","category":"study"},{"name":"하니어린이집","tel":"02-2617-0247","addr":"경기도 광명시 철산동 449-3번지","indutype":"학원 - 유아원","category":"study"},{"name":"하니어린이집[아이행복]","tel":"02-2617-0247","addr":"경기도 광명시 철산동 449-3번지 12단지교육센터","indutype":"학원 - 유아원","category":"study"},{"name":"합기도검도신무원","tel":"02-2618-7822","addr":"경기도 광명시 철산동 449-3번지 12단지교육센터 4층","indutype":"학원 - 예·체능계학원","category":"study"}]},{"lat":"37.486906","long":"126.8686813","imageIndex":16,"items":[{"name":"오늘논술교습소","tel":"02-2684-2045","addr":"경기도 광명시 철산동 86번지 1층","indutype":"학원 - 보습학원","category":"study"},{"name":"플레이팩토사고력수학교습소","tel":"031-0000-0000","addr":"경기도 광명시 철산동 86번지 1층 101호","indutype":"학원 - 보습학원","category":"study"}]},{"lat":"37.47649002","long":"126.868259","imageIndex":16,"items":[{"name":"와이비학원","tel":"02-2611-0903","addr":"경기도 광명시 철산동 245-7번지 광명빌딩 401호","indutype":"학원 - 보습학원","category":"study"},{"name":"종로학원","tel":"02-2614-8811","addr":"경기도 광명시 철산동 245-7번지","indutype":"학원 - 외국어학원","category":"study"}]},{"lat":"37.47654431","long":"126.8684624","imageIndex":16,"items":[{"name":"유라영어학원","tel":"02-2618-1160","addr":"경기도 광명시 철산동 245-6번지 대광빌딩 유라영어학원2관 4층 2호","indutype":"학원 - 외국어학원","category":"study"}]},{"lat":"37.47757417","long":"126.8630452","imageIndex":16,"items":[{"name":"유투엠학원","tel":"02-2682-0502","addr":"경기도 광명시 철산동 219-1번지 4층 401호 ,402,403호","indutype":"학원 - 보습학원","category":"study"}]},{"lat":"37.48495774","long":"126.8668305","imageIndex":16,"items":[{"name":"이연실과외","tel":"02-2612-5928","addr":"경기도 광명시 철산동 105번지 철산10단지주공아파트","indutype":"학원 - 기타 교육기관","category":"study"}]},{"lat":"37.48990329","long":"126.8660413","imageIndex":16,"items":[{"name":"이화엘뮤직아카데미학원","tel":"02-6338-6901","addr":"경기도 광명시 철산동 56-8번지 2층","indutype":"학원 - 예·체능계학원","category":"study"}]},{"lat":"37.4761517","long":"126.8639862","imageIndex":16,"items":[{"name":"입시명가보습학원","tel":"02-2685-5812","addr":"경기도 광명시 철산동 472-169번지 보보스텔 2층","indutype":"학원 - 기타 교육기관","category":"study"}]},{"lat":"37.47363022","long":"126.8650988","imageIndex":16,"items":[{"name":"잉글리시아이철산학원","tel":"02-898-9905","addr":"경기도 광명시 철산동 491-3번지 4층","indutype":"회원제형태 - 학원","category":"study"}]},{"lat":"37.47128877","long":"126.8741014","imageIndex":16,"items":[{"name":"자이도만스쿨 어린이집[아이행복]","tel":"02-896-3563","addr":"경기도 광명시 철산동 634번지 철산래미안자이 111동 101호","indutype":"학원 - 유아원","category":"study"}]},{"lat":"37.47718439","long":"126.8687891","imageIndex":16,"items":[{"name":"자이로에듀학원","tel":"02-2060-7773","addr":"경기도 광명시 철산동 245-2번지 동화빌딩 401호","indutype":"학원 - 보습학원","category":"study"}]},{"lat":"37.47133438","long":"126.8746213","imageIndex":16,"items":[{"name":"자이숲어린이집[아이행복]","tel":"02-2683-7765","addr":"경기도 광명시 철산동 634번지 철산래미안자이 112동 104호","indutype":"학원 - 유아원","category":"study"}]},{"lat":"37.47537743","long":"126.8644851","imageIndex":16,"items":[{"name":"정앤리수학 2관학원","tel":"","addr":"경기도 광명시 철산동 472-2번지 세진빌라 2층 전체","indutype":"학원 - 보습학원","category":"study"},{"name":"정앤리수학학원","tel":"02-2060-2011","addr":"경기도 광명시 철산동 472-2번지 세진빌라 2층 201호","indutype":"회원제형태 - 학원","category":"study"}]},{"lat":"37.47762672","long":"126.8695345","imageIndex":16,"items":[{"name":"정화샘영어","tel":"070-7013-8874","addr":"경기도 광명시 철산동 241번지 철산13단지주공아파트","indutype":"학원 - 기타 교육기관","category":"study"}]},{"lat":"37.47704029","long":"126.8688459","imageIndex":16,"items":[{"name":"조은음악학원","tel":"02-2060-0970","addr":"경기도 광명시 철산동 245-3번지 은성빌딩 202호","indutype":"학원 - 예·체능계학원","category":"study"},{"name":"한길국어수학전문학원","tel":"02-2689-3046","addr":"경기도 광명시 철산동 245-3번지 은성빌딩 301호","indutype":"학원 - 기타 교육기관","category":"study"}]},{"lat":"37.48540505","long":"126.8640935","imageIndex":16,"items":[{"name":"조이피아노음악교습소","tel":"","addr":"경기도 광명시 철산동 76-19번지 1층","indutype":"학원 - 예·체능계학원","category":"study"}]},{"lat":"37.48984907","long":"126.8659057","imageIndex":16,"items":[{"name":"지존학원","tel":"02-6012-8102","addr":"경기도 광명시 철산동 56-9번지 4층","indutype":"회원제형태 - 학원","category":"study"}]},{"lat":"37.48976781","long":"126.8657589","imageIndex":16,"items":[{"name":"짐토피아태권도&월드무술아카데미","tel":"02-2615-6859","addr":"경기도 광명시 철산동 56-10번지 1층","indutype":"학원 - 예·체능계학원","category":"study"},{"name":"현대독서실","tel":"","addr":"경기도 광명시 철산동 56-10번지 3층","indutype":"학원 - 독서실","category":"study"}]},{"lat":"37.47145364","long":"126.8765994","imageIndex":16,"items":[{"name":"참좋은서예","tel":"02-6265-7877","addr":"경기도 광명시 철산동 367번지 철산한신아파트","indutype":"회원제형태 - 학원","category":"study"},{"name":"코어수학","tel":"","addr":"경기도 광명시 철산동 367번지 철산한신아파트","indutype":"학원 - 기타 교육기관","category":"study"}]},{"lat":"37.46913465","long":"126.8654461","imageIndex":16,"items":[{"name":"창의수학인성연구소협동조합","tel":"","addr":"경기도 광명시 철산동 625번지 도덕파크타운 105동 8층 6호","indutype":"학원 - 보습학원","category":"study"}]},{"lat":"37.47063187","long":"126.8667999","imageIndex":16,"items":[{"name":"철산아기자기어린이집[아이행복]","tel":"02-2060-4787","addr":"경기도 광명시 철산동 625번지 도덕파크타운2차 203동 107호","indutype":"학원 - 유아원","category":"study"}]},{"lat":"37.47945846","long":"126.8640705","imageIndex":16,"items":[{"name":"케이투학원","tel":"02-2687-6935","addr":"경기도 광명시 철산동 225-1번지 2층","indutype":"학원 - 보습학원","category":"study"}]},{"lat":"37.47049378","long":"126.864268","imageIndex":16,"items":[{"name":"킹스포츠","tel":"","addr":"경기도 광명시 철산동 625번지 도덕파크타운 102동 503호","indutype":"학원 - 기타 교육기관","category":"study"}]},{"lat":"37.48052903","long":"126.8705129","imageIndex":16,"items":[{"name":"투에이치에듀","tel":"02-6335-7660","addr":"경기도 광명시 철산동 241번지 철산13단지주공아파트","indutype":"학원 - 보습학원","category":"study"}]},{"lat":"37.47443492","long":"126.8675392","imageIndex":16,"items":[{"name":"퍼스트 풋볼 아카데미","tel":"","addr":"경기도 광명시 철산동 415번지 철화빌딩 6층","indutype":"학원 - 예·체능계학원","category":"study"}]},{"lat":"37.48671196","long":"126.8644868","imageIndex":16,"items":[{"name":"포도나무어린이집[아이행복]","tel":"02-2615-2002","addr":"경기도 광명시 철산동 56-97번지 1층","indutype":"학원 - 유아원","category":"study"}]},{"lat":"37.46858453","long":"126.8650063","imageIndex":16,"items":[{"name":"푸른솔어린이집[아이행복]","tel":"02-2625-3103","addr":"경기도 광명시 철산동 625번지 도덕파크타운 106동 101호","indutype":"학원 - 유아원","category":"study"}]},{"lat":"37.47526695","long":"126.8702848","imageIndex":16,"items":[{"name":"피닉스체대입시학원","tel":"02-2613-7177","addr":"경기도 광명시 철산동 438번지 서창빌딩 5층 501호","indutype":"학원 - 예·체능계학원","category":"study"},{"name":"피스댄스학원","tel":"02-2060-3064","addr":"경기도 광명시 철산동 438번지 서창빌딩 5층 502호","indutype":"학원 - 예·체능계학원","category":"study"},{"name":"홍선생국어논술학원","tel":"02-857-6828","addr":"경기도 광명시 철산동 438번지 서창빌딩 3층 302호","indutype":"학원 - 보습학원","category":"study"}]},{"lat":"37.49098499","long":"126.8664803","imageIndex":16,"items":[{"name":"피터팬어린이집[아이행복]","tel":"02-2619-2329","addr":"경기도 광명시 철산동 55-1번지 광복현대아파트","indutype":"학원 - 유아원","category":"study"},{"name":"한우리독서토론논술철산1동교습소","tel":"02-6295-4684","addr":"경기도 광명시 철산동 55-1번지 광복현대아파트","indutype":"회원제형태 - 학원","category":"study"},{"name":"현대어린이집[아이행복]","tel":"02-2619-3247","addr":"경기도 광명시 철산동 55-1번지 광복현대아파트","indutype":"학원 - 유아원","category":"study"}]},{"lat":"37.47091665","long":"126.8637585","imageIndex":16,"items":[{"name":"하담(하늘담은)어린이집","tel":"02-897-2377","addr":"경기도 광명시 철산동 625번지 도덕파크다운 109동 102호","indutype":"학원 - 유아원","category":"study"},{"name":"하담어린이집[아이행복]","tel":"02-897-2377","addr":"경기도 광명시 철산동 625번지 도덕파크타운 109동 102호","indutype":"학원 - 유아원","category":"study"}]},{"lat":"37.47434106","long":"126.8721969","imageIndex":16,"items":[{"name":"하브루타에듀","tel":"02-2686-4892","addr":"경기도 광명시 철산동 449번지 철산12단지주공아파트","indutype":"학원 - 예·체능계학원","category":"study"}]},{"lat":"37.47670848","long":"126.8624251","imageIndex":16,"items":[{"name":"하이포인트학원","tel":"02-2612-5546","addr":"경기도 광명시 철산동 464-6번지 3층","indutype":"학원 - 보습학원","category":"study"}]},{"lat":"37.47580266","long":"126.8740032","imageIndex":16,"items":[{"name":"해법수학","tel":"","addr":"경기도 광명시 철산동 449번지 철산12단지주공아파트","indutype":"학원 - 기타 교육기관","category":"study"}]},{"lat":"37.48656607","long":"126.8630172","imageIndex":16,"items":[{"name":"해사랑어린이집[아이행복]","tel":"02-2618-7550","addr":"경기도 광명시 철산동 56-150번지 청우하이츠빌","indutype":"학원 - 유아원","category":"study"}]}]