[{"lat":"37.080009107","long":"127.06358854","imageIndex":17,"items":[{"name":"\"묘한카페  (마이비 인터내셔널)\"","tel":"031-666-6654","addr":"경기도 평택시 지산동 1125번지 102호","indutype":"소매업 - 카페","category":"other"},{"name":"리디안음악학원","tel":"031-664-7272","addr":"경기도 평택시 지산동 1125번지 3층","indutype":"서비스업 - 교육","category":"other"},{"name":"베라텔레콤","tel":"031-667-8010","addr":"경기도 평택시 지산동 1125번지","indutype":"사무통신 - 통신기기","category":"other"},{"name":"클라라","tel":"031-666-1862","addr":"경기도 평택시 지산동 1125번지 일부 1층","indutype":"의류 - 정장","category":"other"},{"name":"평택공인중개사사무소","tel":"031-611-0996","addr":"경기도 평택시 지산동 1125번지 1층","indutype":"서비스업 - 부동산","category":"other"}]},{"lat":"37.080595812","long":"127.0615647","imageIndex":17,"items":[{"name":"(주)경기이피에스","tel":"031-666-1250","addr":"경기도 평택시 지산동 1056번지 102호","indutype":"용역 서비스 - 종합용역","category":"other"},{"name":"경기건설이피에스 주식회사","tel":"070-4282-2506","addr":"경기도 평택시 지산동 1056번지 1층","indutype":"용역 서비스 - 기타용역서비스","category":"other"}]},{"lat":"37.080370207","long":"127.06225054","imageIndex":17,"items":[{"name":"(주)스피드광고기획","tel":"031-667-2862","addr":"경기도 평택시 지산동 1066번지 정원빌딩 지하","indutype":"서적문구 - 정기간행물","category":"other"},{"name":"사단법인 장애인 권익지원 협회","tel":"031-663-5840","addr":"경기도 평택시 지산동 1066번지 1층","indutype":"제조업 - 현수막","category":"other"},{"name":"주식회사디엔써컴퍼니","tel":"070-5022-4846","addr":"경기도 평택시 지산동 1066번지 정원빌딩 B1호","indutype":"용역 서비스 - 종합용역","category":"other"}]},{"lat":"37.082065455","long":"127.05967643","imageIndex":17,"items":[{"name":"(주)신영씨엔에스","tel":"031-666-3358","addr":"경기도 평택시 지산동 1007번지","indutype":"용역 서비스 - 종합용역","category":"other"}]},{"lat":"37.082291702","long":"127.05758476","imageIndex":17,"items":[{"name":"(주)신우이앤지","tel":"031-611-6473","addr":"경기도 평택시 지산동 744-3번지 화신노블레스1 상가 1층 106호","indutype":"용역 서비스 - 종합용역","category":"other"},{"name":"씨유송탄노블레스점","tel":"02-1577-8007","addr":"경기도 평택시 지산동 744-3번지 화신노블레스1 105호","indutype":"유통업 영리 - 편 의 점","category":"other"}]},{"lat":"37.077542922","long":"127.05803118","imageIndex":17,"items":[{"name":"(주)신화퍼크린","tel":"031-664-0618","addr":"경기도 평택시 지산동 782-6번지","indutype":"용역 서비스 - 종합용역","category":"other"},{"name":"페이스독","tel":"","addr":"경기도 평택시 지산동 782-6번지","indutype":"서비스업 - 애견샵","category":"other"}]},{"lat":"37.078341499","long":"127.08019737","imageIndex":17,"items":[{"name":"(주)씨에스가스산업","tel":"031-666-9865","addr":"경기도 평택시 지산동 311-9번지","indutype":"용역 서비스 - 기타용역서비스","category":"other"}]},{"lat":"37.079372262","long":"127.0576164","imageIndex":17,"items":[{"name":"(주)에스.벤","tel":"031-668-3211","addr":"경기도 평택시 지산동 773-7번지","indutype":"여행 - 관광여행","category":"other"},{"name":"판다아울렛DC백화점","tel":"031-611-6906","addr":"경기도 평택시 지산동 773-7번지","indutype":"소매업 - 백화점","category":"other"}]},{"lat":"37.081370672","long":"127.07767002","imageIndex":17,"items":[{"name":"(주)준연테크","tel":"031-611-0069","addr":"경기도 평택시 지산동 414번지 101호","indutype":"용역 서비스 - 기타용역서비스","category":"other"},{"name":"경기유통","tel":"031-665-2098","addr":"경기도 평택시 지산동 414번지 302호","indutype":"유통업 영리 - 기타유통업","category":"other"}]},{"lat":"37.079930724","long":"127.05803291","imageIndex":17,"items":[{"name":"(주)지현","tel":"031-665-4989","addr":"경기도 평택시 지산동 770-2번지","indutype":"레져용품 - 악기점","category":"other"},{"name":"주식회사화청","tel":"031-662-1875","addr":"경기도 평택시 지산동 770-2번지","indutype":"신변잡화 - 기타잡화","category":"other"}]},{"lat":"37.081706113","long":"127.05737066","imageIndex":17,"items":[{"name":"BYC 혜린유통","tel":"031-667-1243","addr":"경기도 평택시 지산동 753-23번지","indutype":"소매업 - 의류","category":"other"},{"name":"혜린유통","tel":"031-668-9222","addr":"경기도 평택시 지산동 753-23번지","indutype":"의류 - 내의판매","category":"other"}]},{"lat":"37.082570669","long":"127.05836097","imageIndex":17,"items":[{"name":"CB통신","tel":"031-667-8347","addr":"경기도 평택시 지산동 746-3번지","indutype":"사무통신 - 통신기기","category":"other"}]},{"lat":"37.078904042","long":"127.05689632","imageIndex":17,"items":[{"name":"CU송탄터미널","tel":"031-667-1591","addr":"경기도 평택시 지산동 807-15번지","indutype":"소매업 - 편의점","category":"other"},{"name":"씨유송탄터미널점","tel":"031-663-0515","addr":"경기도 평택시 지산동 807-15번지 1층","indutype":"유통업 영리 - 편 의 점","category":"other"}]},{"lat":"37.081733099","long":"127.05747189","imageIndex":17,"items":[{"name":"D.C프라자","tel":"031-665-9112","addr":"경기도 평택시 지산동 753-11번지","indutype":"유통업 영리 - 기타유통업","category":"other"},{"name":"DC프라자","tel":"070-8967-2730","addr":"경기도 평택시 지산동 753-11번지","indutype":"소매업 - 잡화","category":"other"}]},{"lat":"37.076876575","long":"127.05708606","imageIndex":17,"items":[{"name":"GS25 지산중앙점","tel":"031-662-7400","addr":"경기도 평택시 지산동 800-4번지","indutype":"소매업 - 편의점","category":"other"},{"name":"GS25지산중앙점","tel":"","addr":"경기도 평택시 지산동 800-4번지","indutype":"유통업 영리 - 편 의 점","category":"other"}]},{"lat":"37.080263083","long":"127.07653307","imageIndex":17,"items":[{"name":"GS25송탄동안점","tel":"","addr":"경기도 평택시 지산동 1238-1번지 1동 1층 일부","indutype":"유통업 영리 - 편 의 점","category":"other"}]},{"lat":"37.077759524","long":"127.05727787","imageIndex":17,"items":[{"name":"GS25송탄렉스빌점","tel":"","addr":"경기도 평택시 지산동 781-9번지 115호","indutype":"유통업 영리 - 편 의 점","category":"other"},{"name":"렉스빌주택관리","tel":"031-667-8892","addr":"경기도 평택시 지산동 781-9번지 렉스빌 113호","indutype":"서비스업 - 주택관리, 부동산컨설팅","category":"other"},{"name":"버스폰","tel":"031-663-6693","addr":"경기도 평택시 지산동 781-9번지 렉스빌플러스 117호","indutype":"사무통신 - 통신기기","category":"other"},{"name":"크린토피아 송탄터미널점","tel":"031-666-1900","addr":"경기도 평택시 지산동 781-9번지 103호","indutype":"수리서비스 - 세탁소","category":"other"}]},{"lat":"37.073794259","long":"127.05859072","imageIndex":17,"items":[{"name":"GS25평택송탄로점","tel":"080-555-2525","addr":"경기도 평택시 지산동 864-10번지","indutype":"유통업 영리 - 편 의 점","category":"other"}]},{"lat":"37.079514516","long":"127.06162009","imageIndex":17,"items":[{"name":"JS 댄스스쿨","tel":"031-663-4776","addr":"경기도 평택시 지산동 1075번지","indutype":"회원제형태 - 레져업소","category":"other"}]},{"lat":"37.08131914","long":"127.05631323","imageIndex":17,"items":[{"name":"JUN농장","tel":"031-667-5159","addr":"경기도 평택시 지산동 756-4번지","indutype":"도소매업 - 식자재","category":"other"}]},{"lat":"37.076903374","long":"127.05759213","imageIndex":17,"items":[{"name":"KS정보통신","tel":"031-665-4029","addr":"경기도 평택시 지산동 798-14번지 2층","indutype":"사무통신 - 통신기기","category":"other"},{"name":"에이제이이앤씨","tel":"031-653-0242","addr":"경기도 평택시 지산동 798-14번지 4층","indutype":"용역 서비스 - 기타용역서비스","category":"other"}]},{"lat":"37.078038488","long":"127.05806527","imageIndex":17,"items":[{"name":"OK텔레콤","tel":"","addr":"경기도 평택시 지산동 782-11, 1층","indutype":"소매업 - 전자기기","category":"other"},{"name":"헬로타이","tel":"031-664-6466","addr":"경기도 평택시 지산동 782-11, 3층","indutype":"서비스업 - 마사지","category":"other"}]},{"lat":"37.077759176","long":"127.05803133","imageIndex":17,"items":[{"name":"PRO&에플커뮤니케이션","tel":"031-663-6020","addr":"경기도 평택시 지산동 782-4번지","indutype":"전기제품 - 가전제품","category":"other"},{"name":"대성기획","tel":"031-611-5286","addr":"경기도 평택시 지산동 782-4번지","indutype":"용역 서비스 - 종합용역","category":"other"}]},{"lat":"37.079649316","long":"127.06233994","imageIndex":17,"items":[{"name":"SJ 매점","tel":"","addr":"경기도 평택시 지산동 1078번지 서울프라자 1층","indutype":"소매업 - 카페","category":"other"},{"name":"광명당인업사","tel":"062-225-3449","addr":"경기도 평택시 지산동 1078번지","indutype":"서적문구 - 문구용품","category":"other"},{"name":"로얄헬스클럽","tel":"031-611-2823","addr":"경기도 평택시 지산동 1078번지 부천프라자 5층 502호","indutype":"회원제형태 - 레져업소","category":"other"},{"name":"키드맵","tel":"031-611-3170","addr":"경기도 평택시 지산동 1078번지","indutype":"의류 - 아동의류","category":"other"}]},{"lat":"37.077318782","long":"127.05555696","imageIndex":17,"items":[{"name":"ST LED DIY SHOP","tel":"031-663-3190","addr":"경기도 평택시 지산동 818-5번지 에어타운","indutype":"건축자재 - 조명기구","category":"other"}]},{"lat":"37.080146836","long":"127.05833671","imageIndex":17,"items":[{"name":"TOP시스템","tel":"031-667-7111","addr":"경기도 평택시 지산동 761-27번지","indutype":"사무통신 - 컴퓨터","category":"other"}]},{"lat":"37.081787043","long":"127.0577306","imageIndex":17,"items":[{"name":"㈜신화퍼크린","tel":"031-668-1119","addr":"경기도 평택시 지산동 752-1번지 1층, 2층","indutype":"제조업 - 인쇄","category":"other"},{"name":"송탄수족관","tel":"031-663-1478","addr":"경기도 평택시 지산동 752-1번지 1층","indutype":"문화.취미 - 수족관","category":"other"},{"name":"송탄수족관","tel":"","addr":"경기도 평택시 지산동 752-1번지","indutype":"소매업 - 수족관","category":"other"},{"name":"신세계종합장식","tel":"031-664-2288","addr":"경기도 평택시 지산동 752-1번지","indutype":"직물 - 카페트,커튼,천막,지물","category":"other"}]},{"lat":"37.076819699","long":"127.07866641","imageIndex":17,"items":[{"name":"㈜클릭건설","tel":"","addr":"경기도 평택시 지산동 496-7번지","indutype":"건설업 - 광고물자재, 금속구조물창호","category":"other"},{"name":"주식회사클릭건설","tel":"031-611-4074","addr":"경기도 평택시 지산동 496-7번지","indutype":"용역 서비스 - 종합용역","category":"other"}]},{"lat":"37.080009975","long":"127.06186789","imageIndex":17,"items":[{"name":"가고파","tel":"031-662-1414","addr":"경기도 평택시 지산동 714-15.2","indutype":"기타 - 기계공구","category":"other"},{"name":"캠퍼스꽃백화점","tel":"031-667-3313","addr":"경기도 평택시 지산동 714-15번지","indutype":"문화.취미 - 화원","category":"other"}]},{"lat":"37.077398464","long":"127.05864959","imageIndex":17,"items":[{"name":"가나안유통","tel":"031-668-9394","addr":"경기도 평택시 지산동 784-3번지 1층","indutype":"신변잡화 - 기타잡화","category":"other"}]},{"lat":"37.080706347","long":"127.07366571","imageIndex":17,"items":[{"name":"개똥이네 평택점","tel":"031-654-2989","addr":"경기도 평택시 지산동 594-1번지","indutype":"서적문구 - 일반서적","category":"other"},{"name":"행복침구","tel":"031-664-1962","addr":"경기도 평택시 지산동 594-1,1층","indutype":"직물 - 침구·수예점","category":"other"}]},{"lat":"37.080958793","long":"127.05614428","imageIndex":17,"items":[{"name":"경기계란","tel":"","addr":"경기도 평택시 지산동 757-4번지","indutype":"도소매업 - 계란","category":"other"}]},{"lat":"37.080985433","long":"127.05701026","imageIndex":17,"items":[{"name":"경성상회","tel":"031-667-2092","addr":"경기도 평택시 지산동 756-56번지","indutype":"소매업 - 건어물","category":"other"}]},{"lat":"37.081426672","long":"127.05761787","imageIndex":17,"items":[{"name":"경일사","tel":"031-663-2301","addr":"경기도 평택시 지산동 753-15번지","indutype":"신변잡화 - 시계","category":"other"}]},{"lat":"37.078290993","long":"127.05761562","imageIndex":17,"items":[{"name":"골드프라자","tel":"031-668-2718","addr":"경기도 평택시 지산동 779-21번지","indutype":"신변잡화 - 기타잡화","category":"other"}]},{"lat":"37.081091966","long":"127.06039546","imageIndex":17,"items":[{"name":"공간기획","tel":"031-666-0040","addr":"경기도 평택시 지산동 1014번지","indutype":"용역 서비스 - 종합용역","category":"other"}]},{"lat":"37.079201406","long":"127.05686279","imageIndex":17,"items":[{"name":"공인회계사,세무사조용현","tel":"031-663-5679","addr":"경기도 평택시 지산동 807-5번지","indutype":"용역 서비스 - 법률회계서비스(개인)","category":"other"}]},{"lat":"37.074452801","long":"127.0569269","imageIndex":17,"items":[{"name":"구제매니아","tel":"","addr":"경기도 평택시 지산동 846-4번지 1층","indutype":"의류 - 기타의류","category":"other"}]},{"lat":"37.076119376","long":"127.05776025","imageIndex":17,"items":[{"name":"굿모닝종합인테리어","tel":"031-664-3822","addr":"경기도 평택시 지산동 796-22번지 1층","indutype":"건축자재 - 인테리어전문","category":"other"}]},{"lat":"37.079371927","long":"127.05833614","imageIndex":17,"items":[{"name":"귀빈예식장","tel":"031-664-4222","addr":"경기도 평택시 지산동 774-1번지","indutype":"용역 서비스 - 혼례서비스","category":"other"},{"name":"노리공방","tel":"031-8054-7388","addr":"경기도 평택시 지산동 774-1번지","indutype":"신변잡화 - 기타잡화","category":"other"}]},{"lat":"37.08111956","long":"127.05922587","imageIndex":17,"items":[{"name":"그린네추럴휴","tel":"031-663-2780","addr":"경기도 평택시 지산동 759-42번지 1층","indutype":"회원제형태 - 기타4","category":"other"}]},{"lat":"37.081624454","long":"127.0585852","imageIndex":17,"items":[{"name":"그린수입고기전문점","tel":"031-664-0206","addr":"경기도 평택시 지산동 759-46번지","indutype":"소매업 - 정육","category":"other"}]},{"lat":"37.081984176","long":"127.06005875","imageIndex":17,"items":[{"name":"그린종합인테리어","tel":"031-662-3343","addr":"경기도 평택시 지산동 997번지 1층","indutype":"직물 - 카페트,커튼,천막,지물","category":"other"},{"name":"동양열쇠","tel":"031-662-1771","addr":"경기도 평택시 지산동 997번지","indutype":"기타 - 기계공구","category":"other"}]},{"lat":"37.081759058","long":"127.05975493","imageIndex":17,"items":[{"name":"그림쟁이목수","tel":"","addr":"경기도 평택시 지산동 1009번지","indutype":"건축자재 - 인테리어전문","category":"other"}]},{"lat":"37.081985056","long":"127.05820309","imageIndex":17,"items":[{"name":"글로리아가구","tel":"031-663-9477","addr":"경기도 평택시 지산동 735-27번지 1층","indutype":"가구 - 일반가구","category":"other"}]},{"lat":"37.07998219","long":"127.0633636","imageIndex":17,"items":[{"name":"금강인테리어","tel":"031-665-6245","addr":"경기도 평택시 지산동 1124번지","indutype":"건축자재 - 인테리어전문","category":"other"},{"name":"송탄로타리클럽","tel":"031-666-5385","addr":"경기도 평택시 지산동 1124번지 3층","indutype":"기타 - 비영리/비대상","category":"other"},{"name":"송탄중앙로타리","tel":"031-664-3750","addr":"경기도 평택시 지산동 1124번지 3층","indutype":"기타 - 비영리/비대상","category":"other"}]},{"lat":"37.08107001","long":"127.06800918","imageIndex":17,"items":[{"name":"금강정육점","tel":"031-668-9285","addr":"경기도 평택시 지산동 631-1번지","indutype":"소매업 - 정육","category":"other"}]},{"lat":"37.080399848","long":"127.05678492","imageIndex":17,"items":[{"name":"금호불교사","tel":"031-667-3877","addr":"경기도 평택시 지산동 762-5번지","indutype":"신변잡화 - 기념품점","category":"other"}]},{"lat":"37.080678591","long":"127.05805594","imageIndex":17,"items":[{"name":"금화당","tel":"031-666-1913","addr":"경기도 평택시 지산동 758-48번지","indutype":"신변잡화 - 시계","category":"other"}]},{"lat":"37.081346212","long":"127.05622327","imageIndex":17,"items":[{"name":"기쁨주는안경원","tel":"031-652-8259","addr":"경기도 평택시 지산동 755-20번지","indutype":"소매업 - 안경","category":"other"}]},{"lat":"37.080063014","long":"127.06389223","imageIndex":17,"items":[{"name":"꽃나라","tel":"031-666-9568","addr":"경기도 평택시 지산동 1127번지","indutype":"문화.취미 - 화원","category":"other"},{"name":"오레시피","tel":"070-8286-3650","addr":"경기도 평택시 지산동 1127번지","indutype":"소매업 - 반찬가게","category":"other"}]},{"lat":"37.081264699","long":"127.05714541","imageIndex":17,"items":[{"name":"나나상회","tel":"031-668-2241","addr":"경기도 평택시 지산동 756-52번지","indutype":"제조업 - 떡집","category":"other"}]},{"lat":"37.079875039","long":"127.06141794","imageIndex":17,"items":[{"name":"나눔기획","tel":"062-236-2306","addr":"경기도 평택시 지산동 714-12번지 1층","indutype":"서적문구 - 출판 및 인쇄물","category":"other"},{"name":"서울의료기","tel":"031-611-0866","addr":"경기도 평택시 지산동 714-12번지","indutype":"소매업 - 의료기기","category":"other"}]},{"lat":"37.076841267","long":"127.05545541","imageIndex":17,"items":[{"name":"나이스이앤이 주식회사","tel":"02-780-8891","addr":"경기도 평택시 지산동 824-10번지","indutype":"주방용구 - 정수기","category":"other"}]},{"lat":"37.081705113","long":"127.05950746","imageIndex":17,"items":[{"name":"남대문수입코너","tel":"031-665-6902","addr":"경기도 평택시 지산동 750-6번지","indutype":"신변잡화 - 기타잡화","category":"other"},{"name":"다판다 송탄지산점","tel":"070-0000-0000","addr":"경기도 평택시 지산동 750-6번지","indutype":"의류 - 정장","category":"other"}]},{"lat":"37.071981834","long":"127.09055874","imageIndex":17,"items":[{"name":"남부전원어린이집","tel":"031-662-6533","addr":"경기도 평택시 지산동 73-1번지","indutype":"기타 - 비영리/대상","category":"other"}]},{"lat":"37.08037033","long":"127.06200312","imageIndex":17,"items":[{"name":"뉴욕샵","tel":"031-000-0000","addr":"경기도 평택시 지산동 1064번지 202호","indutype":"의류 - 정장","category":"other"}]},{"lat":"37.077819411","long":"127.07938714","imageIndex":17,"items":[{"name":"다솔너싱홈","tel":"031-668-3881","addr":"경기도 평택시 지산동 457-2번지","indutype":"기타의료기관 - 기타의료기관 및 기타","category":"other"}]},{"lat":"37.075514703","long":"127.05980649","imageIndex":17,"items":[{"name":"다원디자인&인테리어","tel":"031-616-6878","addr":"경기도 평택시 지산동 684-2번지","indutype":"건축자재 - 인테리어전문","category":"other"}]},{"lat":"37.07484904","long":"127.05742198","imageIndex":17,"items":[{"name":"다인빌","tel":"031-667-3139","addr":"경기도 평택시 지산동 851-28번지 다인빌","indutype":"용역 서비스 - 부동산 중개·임대","category":"other"}]},{"lat":"37.079202127","long":"127.05525462","imageIndex":17,"items":[{"name":"달리다굼 FLOWER","tel":"031-666-4879","addr":"경기도 평택시 지산동 767-14번지","indutype":"문화.취미 - 화원","category":"other"},{"name":"조순조화랑","tel":"031-666-0282","addr":"경기도 평택시 지산동 767-14","indutype":"문화.취미 - 화랑","category":"other"}]},{"lat":"37.081542976","long":"127.05939488","imageIndex":17,"items":[{"name":"달의나라","tel":"031-662-1623","addr":"경기도 평택시 지산동 729-7번지","indutype":"문화.취미 - 문화취미기타","category":"other"},{"name":"선애패션","tel":"031-663-3150","addr":"경기도 평택시 지산동 729-7번지","indutype":"의류 - 정장","category":"other"}]},{"lat":"37.082176455","long":"127.07130533","imageIndex":17,"items":[{"name":"대동상사","tel":"031-611-6281","addr":"경기도 평택시 지산동 609번지","indutype":"직물 - 카페트,커튼,천막,지물","category":"other"}]},{"lat":"37.07689826","long":"127.082535","imageIndex":17,"items":[{"name":"대동하우징","tel":"031-663-4266","addr":"경기도 평택시 지산동 337번지","indutype":"건축자재 - 보일러·펌프·샷시","category":"other"},{"name":"철물만돌이","tel":"031-611-2318","addr":"경기도 평택시 지산동 337번지","indutype":"건축자재 - 기타건축자재","category":"other"}]},{"lat":"37.081264811","long":"127.05689799","imageIndex":17,"items":[{"name":"대명상회","tel":"","addr":"경기도 평택시 지산동 756-37번지","indutype":"소매업 - 건어물","category":"other"}]},{"lat":"37.081291258","long":"127.05816885","imageIndex":17,"items":[{"name":"대명철물","tel":"031-666-0604","addr":"경기도 평택시 지산동 752-9번지 4호상가","indutype":"건축자재 - 목재·석재·철물","category":"other"}]},{"lat":"37.081679487","long":"127.05648217","imageIndex":17,"items":[{"name":"대명통상","tel":"031-665-9731","addr":"경기도 평택시 지산동 754-38번지","indutype":"신변잡화 - 신발","category":"other"}]},{"lat":"37.081372866","long":"127.05705552","imageIndex":17,"items":[{"name":"대박식당","tel":"031-666-8289","addr":"경기도 평택시 지산동 754-20번지","indutype":"소매업 - 한식","category":"other"}]},{"lat":"37.077257976","long":"127.08358123","imageIndex":17,"items":[{"name":"대박편의점","tel":"031-611-9518","addr":"경기도 평택시 지산동 343-16번지 가동 1호","indutype":"유통업 영리 - 편 의 점","category":"other"},{"name":"대신냉동","tel":"031-666-1044","addr":"경기도 평택시 지산동 343-16상아상가가동4호~5호","indutype":"전기제품 - 가전제품","category":"other"},{"name":"평송라이온스클럽","tel":"031-663-1190","addr":"경기도 평택시 지산동 343-16번지","indutype":"기타 - 비영리/비대상","category":"other"}]},{"lat":"37.081733197","long":"127.05725821","imageIndex":17,"items":[{"name":"대성방앗간","tel":"031-663-1453","addr":"경기도 평택시 지산동 753-33번지","indutype":"제조업 - 떡, 기름, 고춧가루","category":"other"},{"name":"송탄철물","tel":"031-666-8962","addr":"경기도 평택시 지산동 753-33번지","indutype":"소매업 - 철물, 담배","category":"other"},{"name":"송탄철물점","tel":"031-666-9825","addr":"경기도 평택시 지산동 753-33번지","indutype":"기타 - 기계공구","category":"other"}]},{"lat":"37.076479851","long":"127.05764806","imageIndex":17,"items":[{"name":"대성오토바이","tel":"031-668-0894","addr":"경기도 평택시 지산동 797-8번지","indutype":"소매업 - 오토바이","category":"other"}]},{"lat":"37.081624554","long":"127.05837152","imageIndex":17,"items":[{"name":"대성청과","tel":"031-668-3939","addr":"경기도 평택시 지산동 759-1번지","indutype":"소매업 - 과일","category":"other"}]},{"lat":"37.071704038","long":"127.07489429","imageIndex":17,"items":[{"name":"대신엘이디","tel":"031-666-0245","addr":"경기도 평택시 지산동 519-3번지","indutype":"건축자재 - 조명기구","category":"other"}]},{"lat":"37.080180968","long":"127.06228413","imageIndex":17,"items":[{"name":"대양종합장식","tel":"031-667-8708","addr":"경기도 평택시 지산동 1067번지","indutype":"직물 - 카페트,커튼,천막,지물","category":"other"}]},{"lat":"37.080125961","long":"127.0641397","imageIndex":17,"items":[{"name":"대왕축산(지산점)","tel":"031-664-3554","addr":"경기도 평택시 지산동 1128번지","indutype":"소매업 - 정육","category":"other"}]},{"lat":"37.076237583","long":"127.05539877","imageIndex":17,"items":[{"name":"대우가스보일러","tel":"031-666-3588","addr":"경기도 평택시 지산동 829-5번지","indutype":"건축자재 - 보일러·펌프·샷시","category":"other"}]},{"lat":"37.074596734","long":"127.05744429","imageIndex":17,"items":[{"name":"대원유리페인트","tel":"031-662-0790","addr":"경기도 평택시 지산동 846-11번지","indutype":"건축자재 - 유리","category":"other"},{"name":"소리마을","tel":"031-666-1394","addr":"경기도 평택시 지산동 846-11번지","indutype":"수리서비스 - 사무·통신기기수리","category":"other"}]},{"lat":"37.076786044","long":"127.05800814","imageIndex":17,"items":[{"name":"대한광고","tel":"031-665-1123","addr":"경기도 평택시 지산동 796-1번지","indutype":"용역 서비스 - 종합용역","category":"other"},{"name":"문리버스튜디오","tel":"070-4119-7882","addr":"경기도 평택시 지산동 796-1번지","indutype":"광학제품 - 사진관","category":"other"},{"name":"앤틱빈티지스토리","tel":"","addr":"경기도 평택시 지산동 796-1번지 1층 반지하","indutype":"가구 - 기타가구","category":"other"}]},{"lat":"37.075262081","long":"127.06048103","imageIndex":17,"items":[{"name":"대한불교조계종삼화불교극락사","tel":"031-663-8365","addr":"경기도 평택시 지산동 684-1번지","indutype":"회원제형태 - 기타4","category":"other"}]},{"lat":"37.082400133","long":"127.05692129","imageIndex":17,"items":[{"name":"대한사료","tel":"031-666-6741","addr":"경기도 평택시 지산동 743-4번지","indutype":"문화.취미 - 애완동물","category":"other"},{"name":"우리데코","tel":"031-662-2681","addr":"경기도 평택시 지산동 743-4번지","indutype":"직물 - 카페트,커튼,천막,지물","category":"other"}]},{"lat":"37.073649443","long":"127.05995128","imageIndex":17,"items":[{"name":"대한예수교장로회 복음주의총회","tel":"031-692-9191","addr":"경기도 평택시 지산동 681-14번지","indutype":"기타 - 비영리/대상","category":"other"},{"name":"대한예수교장로회시온세계선교교회","tel":"031-352-1673","addr":"경기도 평택시 지산동 681-14번지","indutype":"기타 - 비영리/대상","category":"other"},{"name":"복지법인사랑과나눔","tel":"031-352-8201","addr":"경기도 평택시 지산동 681-14번지","indutype":"기타 - 비영리/비대상","category":"other"}]},{"lat":"37.081345603","long":"127.05756158","imageIndex":17,"items":[{"name":"대흥상사","tel":"031-668-2241","addr":"경기도 평택시 지산동 753-17번지","indutype":"직물 - 침구·수예점","category":"other"},{"name":"송월타월 지산","tel":"031-663-3267","addr":"경기도 평택시 지산동 753-17번지","indutype":"소매업 - 타월","category":"other"}]},{"lat":"37.081093901","long":"127.05625684","imageIndex":17,"items":[{"name":"대흥상회","tel":"031-662-7013","addr":"경기도 평택시 지산동 756-8번지","indutype":"신변잡화 - 신발","category":"other"},{"name":"대흥상회 지산동","tel":"031-663-6012","addr":"경기도 평택시 지산동 756-8번지","indutype":"소매업 - 신발","category":"other"}]},{"lat":"37.079622453","long":"127.06200254","imageIndex":17,"items":[{"name":"더네이처 산후조리원","tel":"031-611-9770","addr":"경기도 평택시 지산동 1077번지","indutype":"서비스업 - 산후조리원","category":"other"},{"name":"더네이처산후조리원","tel":"031-668-3579","addr":"경기도 평택시 지산동 1077번지","indutype":"기타의료기관 - 산후조리원","category":"other"},{"name":"더네이처산후조리원","tel":"","addr":"경기도 평택시 지산동 1077번지","indutype":"서비스업 - 산후조리원","category":"other"}]},{"lat":"37.0833211","long":"127.07077777","imageIndex":17,"items":[{"name":"더팰리스타운하우스111동","tel":"031-662-9868","addr":"경기도 평택시 지산동 621-3번지","indutype":"건설업 - 주택신축판매","category":"other"}]},{"lat":"37.080841026","long":"127.05752748","imageIndex":17,"items":[{"name":"데일리","tel":"031-000-0000","addr":"경기도 평택시 지산동 757-5번지","indutype":"의류 - 정장","category":"other"},{"name":"현보당","tel":"031-665-7077","addr":"경기도 평택시 지산동 757-5번지","indutype":"신변잡화 - 귀금속","category":"other"}]},{"lat":"37.080175219","long":"127.05536775","imageIndex":17,"items":[{"name":"덴폴","tel":"031-666-4049","addr":"경기도 평택시 지산동 766-1번지","indutype":"의류 - 정장","category":"other"},{"name":"발리킹 제화","tel":"031-663-3350","addr":"경기도 평택시 지산동 766-1번지","indutype":"소매업 - 구두","category":"other"},{"name":"발리킹제화","tel":"031-611-9770","addr":"경기도 평택시 지산동 766-1","indutype":"신변잡화 - 제화","category":"other"},{"name":"제이엔미디어","tel":"031-611-7201","addr":"경기도 평택시 지산동 766-1","indutype":"전기제품 - 가전제품","category":"other"},{"name":"파란들","tel":"031-663-3077","addr":"경기도 평택시 지산동 766-1번지","indutype":"가구 - 철제가구","category":"other"},{"name":"행복한 애견세상","tel":"031-667-4668","addr":"경기도 평택시 지산동 766-1번지","indutype":"문화.취미 - 애완동물","category":"other"}]},{"lat":"37.07645819","long":"127.0650364","imageIndex":17,"items":[{"name":"도그매니아","tel":"031-667-0597","addr":"경기도 평택시 지산동 1151번지","indutype":"문화.취미 - 애완동물","category":"other"}]},{"lat":"37.08059837","long":"127.05614403","imageIndex":17,"items":[{"name":"도심속정원","tel":"","addr":"경기도 평택시 지산동 763-4번지","indutype":"소매업 - 카페","category":"other"}]},{"lat":"37.074542743","long":"127.05728681","imageIndex":17,"items":[{"name":"도연페인트상사","tel":"031-666-3659","addr":"경기도 평택시 지산동 846번지","indutype":"건축자재 - 페인트","category":"other"}]},{"lat":"37.080674005","long":"127.06716537","imageIndex":17,"items":[{"name":"도예공간 엘","tel":"031-663-4294","addr":"경기도 평택시 지산동 631-5번지 1층 103호","indutype":"소매업 - 도자리소품","category":"other"},{"name":"도예공간 엘","tel":"031-611-5025","addr":"경기도 평택시 지산동 631-5번지 103호","indutype":"가구 - 기타가구","category":"other"},{"name":"스위첸크리닝","tel":"031-662-0076","addr":"경기도 평택시 지산동 631-5번지 101호","indutype":"수리서비스 - 세탁소","category":"other"}]},{"lat":"37.076597222","long":"127.05714209","imageIndex":17,"items":[{"name":"도토리부동산","tel":"070-4001-7347","addr":"경기도 평택시 지산동 800-7번지","indutype":"서비스업 - 부동산","category":"other"}]},{"lat":"37.075785718","long":"127.05833353","imageIndex":17,"items":[{"name":"동남전설","tel":"031-665-2979","addr":"경기도 평택시 지산동 852-6번지","indutype":"용역 서비스 - 기타용역서비스","category":"other"}]},{"lat":"37.081066389","long":"127.05731397","imageIndex":17,"items":[{"name":"동령쌀상회","tel":"031-666-4985","addr":"경기도 평택시 지산동 756-69번지","indutype":"도소매업 - 쌀","category":"other"}]},{"lat":"37.071759437","long":"127.08658903","imageIndex":17,"items":[{"name":"동선스포츠","tel":"031-611-3391","addr":"경기도 평택시 지산동 246-1번지","indutype":"레져용품 - 스포츠·레져용품","category":"other"}]},{"lat":"37.07462309","long":"127.05889495","imageIndex":17,"items":[{"name":"동오타일철물건재","tel":"031-662-5632","addr":"경기도 평택시 지산동 861-2번지 2층","indutype":"기타 - 기계공구","category":"other"},{"name":"신송탄가전중고마을","tel":"031-667-1254","addr":"경기도 평택시 지산동 861-2번지","indutype":"전기제품 - 가전제품","category":"other"}]},{"lat":"37.080876444","long":"127.05886581","imageIndex":17,"items":[{"name":"동원교역","tel":"031-662-8540","addr":"경기도 평택시 지산동 759-20번지","indutype":"문화.취미 - 화방·표구점","category":"other"}]},{"lat":"37.07623654","long":"127.05770411","imageIndex":17,"items":[{"name":"두바이크","tel":"031-662-0147","addr":"경기도 평택시 지산동 796-19번지","indutype":"소매업 - 자전거","category":"other"},{"name":"두바이크(doobike)","tel":"031-684-6002","addr":"경기도 평택시 지산동 796-19번지","indutype":"레져용품 - 스포츠·레져용품","category":"other"}]},{"lat":"37.076205633","long":"127.06553099","imageIndex":17,"items":[{"name":"디에스테크(DSTECH)","tel":"031-662-6965","addr":"경기도 평택시 지산동 1167번지","indutype":"건축자재 - 기타건축자재","category":"other"}]},{"lat":"37.079234677","long":"127.06264326","imageIndex":17,"items":[{"name":"디엠켐","tel":"031-666-9396","addr":"경기도 평택시 지산동 1080번지 용립빌딩 202호","indutype":"서적문구 - 과학기자재","category":"other"},{"name":"엔제이(NJ) 매직 씽크","tel":"031-663-5328","addr":"경기도 평택시 지산동 1080번지 1층 102호","indutype":"주방용구 - 주방용구","category":"other"}]},{"lat":"37.079931648","long":"127.05600861","imageIndex":17,"items":[{"name":"디지탈센터(Digital Center)","tel":"070-8699-4772","addr":"경기도 평택시 지산동 768-52번지 파인힐오피스텔 608호","indutype":"사무통신 - 사무용 OA기기","category":"other"}]},{"lat":"37.078985997","long":"127.05497332","imageIndex":17,"items":[{"name":"뜨개사랑","tel":"031-665-8865","addr":"경기도 평택시 지산동 811-23번지","indutype":"직물 - 침구·수예점","category":"other"},{"name":"뜨개사랑","tel":"02-6916-1500","addr":"경기도 평택시 지산동 811-23번지","indutype":"소매업 - 공예품","category":"other"}]},{"lat":"37.081399148","long":"127.05867501","imageIndex":17,"items":[{"name":"라도상회","tel":"031-666-3521","addr":"경기도 평택시 지산동 759-26번지","indutype":"소매업 - 과일","category":"other"}]},{"lat":"37.082704981","long":"127.0764792","imageIndex":17,"items":[{"name":"라온유통","tel":"","addr":"경기도 평택시 지산동 398-2번지","indutype":"유통업 영리 - 기타유통업","category":"other"}]},{"lat":"37.081399395","long":"127.05814643","imageIndex":17,"items":[{"name":"럭키지물장식","tel":"031-662-4932","addr":"경기도 평택시 지산동 752-11번지","indutype":"직물 - 카페트,커튼,천막,지물","category":"other"}]},{"lat":"37.075760022","long":"127.05539844","imageIndex":17,"items":[{"name":"롯데가스기기","tel":"031-4-4475","addr":"경기도 평택시 지산동 829-10번지","indutype":"건축자재 - 보일러·펌프·샷시","category":"other"},{"name":"주주클럽","tel":"031-611-7377","addr":"경기도 평택시 지산동 829-10번지 1층","indutype":"문화.취미 - 애완동물","category":"other"}]},{"lat":"37.083985751","long":"127.05745101","imageIndex":17,"items":[{"name":"리바트","tel":"031-663-5107","addr":"경기도 평택시 지산동 739-2번지","indutype":"가구 - 일반가구","category":"other"},{"name":"오통종합기계","tel":"031-662-1375","addr":"경기도 평택시 지산동 739-2","indutype":"수리서비스 - 기타수리서비스","category":"other"},{"name":"주식회사가구탑","tel":"031-666-2434","addr":"경기도 평택시 지산동 739-2번지","indutype":"가구 - 일반가구","category":"other"}]},{"lat":"37.074849402","long":"127.08752579","imageIndex":17,"items":[{"name":"리빙쇼파천갈이","tel":"031-656-6109","addr":"경기도 평택시 지산동 228-25번지","indutype":"수리서비스 - 기타수리서비스","category":"other"}]},{"lat":"37.081403493","long":"127.06784077","imageIndex":17,"items":[{"name":"리츠부동산","tel":"031-611-7200","addr":"경기도 평택시 지산동 630-22번지","indutype":"서비스업 - 부동산","category":"other"}]},{"lat":"37.080426488","long":"127.05763965","imageIndex":17,"items":[{"name":"마중물산야초건강원","tel":"031-662-4992","addr":"경기도 평택시 지산동 762-8번지 동호빌딩 102호","indutype":"도소매업 - 농산물, 임산물","category":"other"},{"name":"폰통령","tel":"031-611-1679","addr":"경기도 평택시 지산동 762-8번지 동호빌딩 101호","indutype":"사무통신 - 통신기기","category":"other"}]},{"lat":"37.08242701","long":"127.05725871","imageIndex":17,"items":[{"name":"마하불교전시관","tel":"031-665-6627","addr":"경기도 평택시 지산동 744번지","indutype":"신변잡화 - 기념품점","category":"other"}]},{"lat":"37.0814541","long":"127.05675193","imageIndex":17,"items":[{"name":"맵시엄마방","tel":"031-667-4966","addr":"경기도 평택시 지산동 754-27번지","indutype":"의류 - 정장","category":"other"}]},{"lat":"37.074091511","long":"127.08891936","imageIndex":17,"items":[{"name":"멀티시스템","tel":"","addr":"경기도 평택시 지산동 223-13번지","indutype":"전기제품 - 냉열기기","category":"other"}]},{"lat":"37.079035722","long":"127.0640601","imageIndex":17,"items":[{"name":"명주공인중개사사무소","tel":"031-611-2799","addr":"경기도 평택시 지산동 1134번지 미주2차아파트 110호","indutype":"서비스업 - 부동산","category":"other"},{"name":"미주정육점","tel":"031-665-7720","addr":"경기도 평택시 지산동 1134번지 미주2차 상가 111호","indutype":"소매업 - 정육","category":"other"},{"name":"토닥토닥","tel":"031-664-0896","addr":"경기도 평택시 지산동 1134번지 미주2차 상가 206호","indutype":"소매업 - 화장품","category":"other"}]},{"lat":"37.080930898","long":"127.05803363","imageIndex":17,"items":[{"name":"모닝축산","tel":"031-668-3892","addr":"경기도 평택시 지산동 758-26번지","indutype":"도소매업 - 정육","category":"other"}]},{"lat":"37.082228994","long":"127.05678621","imageIndex":17,"items":[{"name":"미니스톱 송탄지산점","tel":"031-1577-9621","addr":"경기도 평택시 지산동 742-5번지 1층","indutype":"유통업 영리 - 편 의 점","category":"other"}]},{"lat":"37.075318284","long":"127.05589293","imageIndex":17,"items":[{"name":"미니스톱 평택지산점","tel":"031-667-5848","addr":"경기도 평택시 지산동 830-45번지","indutype":"소매업 - 편의점","category":"other"},{"name":"미니스톱평택지산점","tel":"031-1577-9621","addr":"경기도 평택시 지산동 830-45번지 102호","indutype":"유통업 영리 - 편 의 점","category":"other"}]},{"lat":"37.078706605","long":"127.05511932","imageIndex":17,"items":[{"name":"미래인테리어","tel":"031-664-3374","addr":"경기도 평택시 지산동 811-8번지 일층","indutype":"건축자재 - 인테리어전문","category":"other"}]},{"lat":"37.079515463","long":"127.07611624","imageIndex":17,"items":[{"name":"미래주방","tel":"031-611-7414","addr":"경기도 평택시 지산동 429번지","indutype":"주방용구 - 주방용구","category":"other"},{"name":"미래주방아울렛","tel":"031-611-7414","addr":"경기도 평택시 지산동 429번지","indutype":"주방용구 - 주방용구","category":"other"},{"name":"이안테크","tel":"031-664-4877","addr":"경기도 평택시 지산동 429번지","indutype":"건축자재 - 기타건축자재","category":"other"}]},{"lat":"37.076985416","long":"127.0555005","imageIndex":17,"items":[{"name":"미래치과기공소","tel":"031-666-0027","addr":"경기도 평택시 지산동 824-2번지","indutype":"제조업 - 치과기공소","category":"other"}]},{"lat":"37.081345896","long":"127.05692055","imageIndex":17,"items":[{"name":"민속떡집","tel":"","addr":"경기도 평택시 지산동 754-26번지","indutype":"제조업 - 떡","category":"other"}]},{"lat":"37.080787251","long":"127.05689766","imageIndex":17,"items":[{"name":"민희지물","tel":"031-665-8288","addr":"경기도 평택시 지산동 757-11번지","indutype":"소매업 - 벽지, 장판","category":"other"},{"name":"민희지물","tel":"031-666-9114","addr":"경기도 평택시 지산동 757-11번지","indutype":"직물 - 카페트,커튼,천막,지물","category":"other"}]},{"lat":"37.08034641","long":"127.05539036","imageIndex":17,"items":[{"name":"밀알통상","tel":"031-664-9832","addr":"경기도 평택시 지산동 767-49번지 1층","indutype":"수리서비스 - 사무·통신기기수리","category":"other"}]},{"lat":"37.081066656","long":"127.05672916","imageIndex":17,"items":[{"name":"반찬냉장고","tel":"031-611-4074","addr":"경기도 평택시 지산동 757-101번지","indutype":"도소매업 - 반찬","category":"other"}]},{"lat":"37.080956602","long":"127.07700608","imageIndex":17,"items":[{"name":"백문종합건설","tel":"031-662-3947","addr":"경기도 평택시 지산동 1236-10번지","indutype":"건축자재 - 보일러·펌프·샷시","category":"other"}]},{"lat":"37.076787193","long":"127.05547787","imageIndex":17,"items":[{"name":"백촌 정보통신","tel":"031-668-0880","addr":"경기도 평택시 지산동 824-11번지 1층 1호","indutype":"사무통신 - 통신기기","category":"other"},{"name":"스포맥스","tel":"031-666-2278","addr":"경기도 평택시 지산동 824-11번지","indutype":"소매업 - 운동기구","category":"other"}]},{"lat":"37.081786352","long":"127.05920387","imageIndex":17,"items":[{"name":"베비또(BEBITO)","tel":"","addr":"경기도 평택시 지산동 729-2","indutype":"의류 - 정장","category":"other"}]},{"lat":"37.079930907","long":"127.05763929","imageIndex":17,"items":[{"name":"별모바일","tel":"031-611-3188","addr":"경기도 평택시 지산동 761-19번지 1층","indutype":"사무통신 - 통신기기","category":"other"},{"name":"케이떠블유엠에스","tel":"031-664-7333","addr":"경기도 평택시 지산동 761-19번지 3층","indutype":"가구 - 일반가구","category":"other"},{"name":"평택효간병인","tel":"031-611-5505","addr":"경기도 평택시 지산동 761-19번지","indutype":"기타의료기관 - 기타의료기관 및 기타","category":"other"},{"name":"평택효간병인협회","tel":"031-666-5558","addr":"경기도 평택시 지산동 761-19번지","indutype":"서비스업 - 인력","category":"other"}]},{"lat":"37.080175119","long":"127.05559267","imageIndex":17,"items":[{"name":"보부","tel":"031-657-0227","addr":"경기도 평택시 지산동 767-122번지","indutype":"의류 - 기타의류","category":"other"}]},{"lat":"37.08114804","long":"127.05608818","imageIndex":17,"items":[{"name":"보신당","tel":"031-663-5600","addr":"경기도 평택시 지산동 755-10번지","indutype":"신변잡화 - 시계","category":"other"},{"name":"엘리에 명품이","tel":"","addr":"경기도 평택시 지산동 755-10번지","indutype":"의류 - 정장","category":"other"}]},{"lat":"37.083229044","long":"127.05705684","imageIndex":17,"items":[{"name":"봉봉플라워","tel":"","addr":"경기도 평택시 지산동 740-9번지","indutype":"소매업 - 화훼","category":"other"},{"name":"봉봉플라워","tel":"031-611-1715","addr":"경기도 평택시 지산동 740-9번지","indutype":"문화.취미 - 화원","category":"other"}]},{"lat":"37.081316769","long":"127.06134032","imageIndex":17,"items":[{"name":"뷰티스킨","tel":"","addr":"경기도 평택시 지산동 1029번지 쌍용아파트 상가 121호","indutype":"소매업 - 화장품","category":"other"},{"name":"크로세돌스토리","tel":"031-611-0331","addr":"경기도 평택시 지산동 1029번지 삼익아파트 상가동 108호","indutype":"문화.취미 - 문화취미기타","category":"other"}]},{"lat":"37.079706803","long":"127.05506378","imageIndex":17,"items":[{"name":"비단장수","tel":"070-4806-6789","addr":"경기도 평택시 지산동 766-13번지","indutype":"직물 - 옷감·직물","category":"other"},{"name":"비단장수","tel":"031-662-3940","addr":"경기도 평택시 지산동 766-13번지","indutype":"소매업 - 원단","category":"other"},{"name":"신오렌지","tel":"","addr":"경기도 평택시 지산동 766-13번지","indutype":"의류 - 정장","category":"other"}]},{"lat":"37.076596796","long":"127.05806423","imageIndex":17,"items":[{"name":"빅딜컴퓨터","tel":"031-611-9704","addr":"경기도 평택시 지산동 796-9번지 효운빌딩 1층","indutype":"사무통신 - 컴퓨터","category":"other"},{"name":"이화페인트공사","tel":"031-647--3288","addr":"경기도 평택시 지산동 796-9번지","indutype":"용역 서비스 - 기타용역서비스","category":"other"}]},{"lat":"37.078543107","long":"127.05800941","imageIndex":17,"items":[{"name":"사단법인 장애인 권익지원 협회","tel":"031-666-3009","addr":"경기도 평택시 지산동 778-1번지 4층","indutype":"건축자재 - 인테리어전문","category":"other"},{"name":"삼정건축사사무소","tel":"031-666-6038","addr":"경기도 평택시 지산동 778-1번지","indutype":"용역 서비스 - 법률회계서비스(개인)","category":"other"},{"name":"훈민정음인쇄","tel":"031-611-5350","addr":"경기도 평택시 지산동 778-1번지","indutype":"서적문구 - 출판 및 인쇄물","category":"other"}]},{"lat":"37.078174082","long":"127.05712072","imageIndex":17,"items":[{"name":"사랑방한식과생삼겹살","tel":"031-663-4587","addr":"경기도 평택시 지산동 779-3번지","indutype":"소매업 - 한식","category":"other"}]},{"lat":"37.080985319","long":"127.05725768","imageIndex":17,"items":[{"name":"삼성수산","tel":"031-667-3495","addr":"경기도 평택시 지산동 756-70번지","indutype":"도소매업 - 생선","category":"other"}]},{"lat":"37.076016101","long":"127.06611561","imageIndex":17,"items":[{"name":"삼성자판기","tel":"031-665-5481","addr":"경기도 평택시 지산동 1184번지 1층","indutype":"기타 - 기타 전문점","category":"other"},{"name":"삼성자판기/삼원(담배)","tel":"","addr":"경기도 평택시 지산동 1184번지 1층","indutype":"기타 - 기타 전문점","category":"other"},{"name":"송탄문구슈퍼","tel":"031-662-3031","addr":"경기도 평택시 지산동 1184번지","indutype":"소매업 - 문구","category":"other"}]},{"lat":"37.081785873","long":"127.0602048","imageIndex":17,"items":[{"name":"삼익주방","tel":"031-666-3818","addr":"경기도 평택시 지산동 1002번지","indutype":"주방용구 - 주방용구","category":"other"},{"name":"삼익주방","tel":"031-611-3640","addr":"경기도 평택시 지산동 1002번지","indutype":"도소매업 - 주방용품","category":"other"}]},{"lat":"37.074063832","long":"127.0898077","imageIndex":17,"items":[{"name":"삼일철물건재","tel":"031-611-2425","addr":"경기도 평택시 지산동 223-19번지","indutype":"건축자재 - 목재·석재·철물","category":"other"}]},{"lat":"37.076260564","long":"127.0638667","imageIndex":17,"items":[{"name":"새하얀세탁소","tel":"031-664-6100","addr":"경기도 평택시 지산동 1094번지 건영아파트 206호","indutype":"서비스업 - 세탁","category":"other"}]},{"lat":"37.079927466","long":"127.06464561","imageIndex":17,"items":[{"name":"색연필","tel":"031-663-3683","addr":"경기도 평택시 지산동 643번지","indutype":"서적문구 - 문구용품","category":"other"},{"name":"송탄하나부동산","tel":"031-665-7471","addr":"경기도 평택시 지산동 643번지","indutype":"서비스업 - 부동산","category":"other"}]},{"lat":"37.080147145","long":"127.05767319","imageIndex":17,"items":[{"name":"샤론홈인테리어","tel":"031-662-0423","addr":"경기도 평택시 지산동 761-1번지","indutype":"직물 - 카페트,커튼,천막,지물","category":"other"}]},{"lat":"37.080123571","long":"127.06860441","imageIndex":17,"items":[{"name":"서안정보통신","tel":"","addr":"경기도 평택시 지산동 1217번지 케이씨씨스위첸 106동 203호","indutype":"사무통신 - 통신기기","category":"other"}]},{"lat":"37.079317577","long":"127.07555375","imageIndex":17,"items":[{"name":"서울꽃도매","tel":"031-665-2760","addr":"경기도 평택시 지산동 429-3번지","indutype":"도매업 - 화훼","category":"other"},{"name":"서울꽃도매","tel":"031-663-6757","addr":"경기도 평택시 지산동 429-3번지","indutype":"문화.취미 - 화원","category":"other"}]},{"lat":"37.074511376","long":"127.06603564","imageIndex":17,"items":[{"name":"서울꽃식물원","tel":"031-665-0902","addr":"경기도 평택시 지산동 산172-2번지","indutype":"문화.취미 - 화원","category":"other"}]},{"lat":"37.075927256","long":"127.07928403","imageIndex":17,"items":[{"name":"서원냉열","tel":"031-665-1775","addr":"경기도 평택시 지산동 502번지","indutype":"용역 서비스 - 기타용역서비스","category":"other"}]},{"lat":"37.081237897","long":"127.05663931","imageIndex":17,"items":[{"name":"서탄떡집","tel":"","addr":"경기도 평택시 지산동 756-27번지","indutype":"소매업 - 떡","category":"other"}]},{"lat":"37.08117449","long":"127.05737028","imageIndex":17,"items":[{"name":"선물의 집","tel":"031-667-9212","addr":"경기도 평택시 지산동 756-68번지","indutype":"소매업 - 액세서리","category":"other"},{"name":"선물의집","tel":"031-000-0000","addr":"경기도 평택시 지산동 756-68번지","indutype":"신변잡화 - 액세서리","category":"other"}]},{"lat":"37.079651868","long":"127.05700931","imageIndex":17,"items":[{"name":"성인용품","tel":"031-662-7080","addr":"경기도 평택시 지산동 768-76번지","indutype":"기타 - 기타 전문점","category":"other"}]},{"lat":"37.080569206","long":"127.06069872","imageIndex":17,"items":[{"name":"세광인테리어","tel":"031-664-7067","addr":"경기도 평택시 지산동 1030번지","indutype":"건축자재 - 인테리어전문","category":"other"}]},{"lat":"37.080815","long":"127.07277736","imageIndex":17,"items":[{"name":"세광철물","tel":"031-668-1667","addr":"경기도 평택시 지산동 595-1번지 1층","indutype":"건축자재 - 목재·석재·철물","category":"other"}]},{"lat":"37.081173873","long":"127.05869734","imageIndex":17,"items":[{"name":"세븐스타빨래방지산점","tel":"070-4210-2569","addr":"경기도 평택시 지산동 759-33번지 1층","indutype":"수리서비스 - 세탁소","category":"other"}]},{"lat":"37.076071892","long":"127.06278697","imageIndex":17,"items":[{"name":"세븐일레븐 평택지산미주점","tel":"031-611-6566","addr":"경기도 평택시 지산동 1091번지 미주아파트 101호","indutype":"소매업 - 편의점","category":"other"}]},{"lat":"37.079370569","long":"127.06117014","imageIndex":17,"items":[{"name":"세븐일레븐 평택지산제일점","tel":"031-666-0010","addr":"경기도 평택시 지산동 1073번지","indutype":"소매업 - 편의점","category":"other"},{"name":"세븐일레븐평택지산제일점","tel":"031-663-0049","addr":"경기도 평택시 지산동 1073번지 1층","indutype":"유통업 영리 - 편 의 점","category":"other"},{"name":"예당떡","tel":"031-667-2745","addr":"경기도 평택시 지산동 1073번지","indutype":"제조업 - 떡","category":"other"}]},{"lat":"37.080201915","long":"127.05612126","imageIndex":17,"items":[{"name":"세븐일레븐평택송북시장점","tel":"031-1577-0711","addr":"경기도 평택시 지산동 768-31번지","indutype":"유통업 영리 - 편 의 점","category":"other"}]},{"lat":"37.076786857","long":"127.05623133","imageIndex":17,"items":[{"name":"세븐일레븐평택송탄중앙점","tel":"","addr":"경기도 평택시 지산동 824-13번지","indutype":"유통업 영리 - 편 의 점","category":"other"}]},{"lat":"37.081123053","long":"127.06984237","imageIndex":17,"items":[{"name":"세븐일레븐평택지산코아루점","tel":"","addr":"경기도 평택시 지산동 580-4번지 상가 1층","indutype":"유통업 영리 - 편 의 점","category":"other"}]},{"lat":"37.076457768","long":"127.06583483","imageIndex":17,"items":[{"name":"세븐일레븐평택지산푸른점","tel":"031-1577-0711","addr":"경기도 평택시 지산동 1180번지","indutype":"유통업 영리 - 편 의 점","category":"other"},{"name":"원정보통신","tel":"031-684-0114","addr":"경기도 평택시 지산동 1180번지","indutype":"회원제형태 - 기타4","category":"other"}]},{"lat":"37.07890379","long":"127.05744737","imageIndex":17,"items":[{"name":"세진패션","tel":"031-663-8172","addr":"경기도 평택시 지산동 775-19번지 송산빌딩","indutype":"의류 - 정장","category":"other"}]},{"lat":"37.077877101","long":"127.05631081","imageIndex":17,"items":[{"name":"세화철물상사","tel":"031-664-9800","addr":"경기도 평택시 지산동 805-10번지","indutype":"건축자재 - 목재·석재·철물","category":"other"},{"name":"세화철물상사","tel":"031-662-5641","addr":"경기도 평택시 지산동 805-10번지","indutype":"소매업 - 철물","category":"other"}]},{"lat":"37.081426966","long":"127.05697683","imageIndex":17,"items":[{"name":"송북새아침협동조합육터","tel":"","addr":"경기도 평택시 지산동 754-24번지","indutype":"소매업 - 육류","category":"other"}]},{"lat":"37.082012627","long":"127.05703348","imageIndex":17,"items":[{"name":"송북시장상인회","tel":"031-662-3368","addr":"경기도 평택시 지산동 745-14번지","indutype":"기타 - 비영리/비대상","category":"other"}]},{"lat":"37.081400062","long":"127.05669566","imageIndex":17,"items":[{"name":"송북시장상인회송북카페","tel":"031-664-0618","addr":"경기도 평택시 지산동 754-28번지","indutype":"소매업 - 카페","category":"other"},{"name":"한우랑정육점","tel":"031-666-3110","addr":"경기도 평택시 지산동 754-28번지","indutype":"소매업 - 정육","category":"other"}]},{"lat":"37.080895658","long":"127.05627919","imageIndex":17,"items":[{"name":"송북축산","tel":"031-611-4517","addr":"경기도 평택시 지산동 757-16번지","indutype":"소매업 - 축산","category":"other"},{"name":"할매잡곡","tel":"031-663-1478","addr":"경기도 평택시 지산동 757-16번지","indutype":"소매업 - 잡곡","category":"other"}]},{"lat":"37.080595499","long":"127.06219448","imageIndex":17,"items":[{"name":"송탄기독펜시","tel":"031-667-3917","addr":"경기도 평택시 지산동 1065번지 2층","indutype":"신변잡화 - 기념품점","category":"other"},{"name":"효네일","tel":"031-666-3353","addr":"경기도 평택시 지산동 1065번지 1층","indutype":"서비스업 - 네일","category":"other"}]},{"lat":"37.082570978","long":"127.05769742","imageIndex":17,"items":[{"name":"송탄낚시프라자","tel":"031-668-5156","addr":"경기도 평택시 지산동 735-37번지","indutype":"레져용품 - 스포츠·레져용품","category":"other"}]},{"lat":"37.082705606","long":"127.05883342","imageIndex":17,"items":[{"name":"송탄낚시프라자","tel":"031-668-5156","addr":"경기도 평택시 지산동 747-3번지","indutype":"레져용품 - 스포츠·레져용품","category":"other"}]},{"lat":"37.081066844","long":"127.05631305","imageIndex":17,"items":[{"name":"송탄농약플라워","tel":"031-666-5132","addr":"경기도 평택시 지산동 756-19번지","indutype":"회원제형태 - 기타4","category":"other"},{"name":"송탄농약플라워","tel":"031-663-5207","addr":"경기도 평택시 지산동 756-19번지","indutype":"소매업 - 농약, 화훼","category":"other"}]},{"lat":"37.080814067","long":"127.05737002","imageIndex":17,"items":[{"name":"송탄복떡집","tel":"031-666-1404","addr":"경기도 평택시 지산동 757-7번지","indutype":"제조업 - 떡","category":"other"}]},{"lat":"37.080292356","long":"127.05536783","imageIndex":17,"items":[{"name":"송탄사","tel":"031-667-1003","addr":"경기도 평택시 지산동 767-50번지","indutype":"소매업 - 잡화","category":"other"}]},{"lat":"37.080094174","long":"127.05525523","imageIndex":17,"items":[{"name":"송탄약품(의료기)","tel":"031-666-3932","addr":"경기도 평택시 지산동 766-2번지","indutype":"도소매업 - 의료기기","category":"other"},{"name":"송탄의료기","tel":"031-668-2622","addr":"경기도 평택시 지산동 766-2번지","indutype":"기타의료기관 - 기타의료기관 및 기타","category":"other"}]},{"lat":"37.081147167","long":"127.05800005","imageIndex":17,"items":[{"name":"송탄열쇠","tel":"031-667-9000","addr":"경기도 평택시 지산동 758-60번지","indutype":"건축자재 - 목재·석재·철물","category":"other"},{"name":"펫 프랜즈","tel":"031-668-7955","addr":"경기도 평택시 지산동 758-60번지 1층","indutype":"문화.취미 - 애완동물","category":"other"}]},{"lat":"37.081931686","long":"127.05669603","imageIndex":17,"items":[{"name":"송탄우체국","tel":"031-662-0100","addr":"경기도 평택시 지산동 753-1번지","indutype":"용역 서비스 - 공공요금대행서비스/소","category":"other"}]},{"lat":"37.075570016","long":"127.05714136","imageIndex":17,"items":[{"name":"송탄종합공사","tel":"031-666-7129","addr":"경기도 평택시 지산동 834-2번지","indutype":"건축자재 - 목재·석재·철물","category":"other"}]},{"lat":"37.08098384","long":"127.06039538","imageIndex":17,"items":[{"name":"송탄토종한우직판장","tel":"031-665-0016","addr":"경기도 평택시 지산동 1015번지","indutype":"소매업 - 정육","category":"other"}]},{"lat":"37.081625499","long":"127.05631344","imageIndex":17,"items":[{"name":"숙녀방","tel":"031-611-0778","addr":"경기도 평택시 지산동 755-15번지","indutype":"소매업 - 화장품","category":"other"}]},{"lat":"37.080651752","long":"127.05763981","imageIndex":17,"items":[{"name":"스위트안경원","tel":"031-664-5107","addr":"경기도 평택시 지산동 758-21번지","indutype":"소매업 - 안경","category":"other"}]},{"lat":"37.081651926","long":"127.05764053","imageIndex":17,"items":[{"name":"스타일","tel":"031-664-7716","addr":"경기도 평택시 지산동 753-39번지","indutype":"의류 - 정장","category":"other"},{"name":"스타일 지산","tel":"031-686-7818","addr":"경기도 평택시 지산동 753-39번지","indutype":"소매업 - 의류","category":"other"},{"name":"아랑화장품","tel":"031-663-7513","addr":"경기도 평택시 지산동 753-39번지 1층 뷰티샵","indutype":"소매업 - 화장품","category":"other"}]},{"lat":"37.07631379","long":"127.06547486","imageIndex":17,"items":[{"name":"스파펫살롱","tel":"","addr":"경기도 평택시 지산동 1166번지 102호","indutype":"문화.취미 - 애완동물","category":"other"}]},{"lat":"37.079570773","long":"127.05700925","imageIndex":17,"items":[{"name":"승현에어컨","tel":"","addr":"경기도 평택시 지산동 768-77번지","indutype":"용역 서비스 - 기타용역서비스","category":"other"}]},{"lat":"37.081562186","long":"127.05684197","imageIndex":17,"items":[{"name":"시장상회","tel":"031-667-1424","addr":"경기도 평택시 지산동 753-6번지","indutype":"소매업 - 과일","category":"other"}]},{"lat":"37.080899281","long":"127.06714307","imageIndex":17,"items":[{"name":"신가네하나로축산","tel":"","addr":"경기도 평택시 지산동 631-20번지","indutype":"도소매업 - 정육","category":"other"},{"name":"엔젤스터치","tel":"031-665-6232","addr":"경기도 평택시 지산동 631-20번지 2층","indutype":"회원제형태 - 기타4","category":"other"}]},{"lat":"37.079983236","long":"127.07736501","imageIndex":17,"items":[{"name":"신도OA","tel":"031-668-8187","addr":"경기도 평택시 지산동 1238-5번지","indutype":"사무통신 - 사무용 OA기기","category":"other"}]},{"lat":"37.080731609","long":"127.06026024","imageIndex":17,"items":[{"name":"신우정보시스템","tel":"031-668-5583","addr":"경기도 평택시 지산동 1018번지","indutype":"수리서비스 - 사무·통신기기수리","category":"other"}]},{"lat":"37.080924206","long":"127.07092183","imageIndex":17,"items":[{"name":"신제일공인중개사사무소","tel":"031-665-3400","addr":"경기도 평택시 지산동 584번지 1층 2호","indutype":"용역 서비스 - 부동산 중개·임대","category":"other"},{"name":"호재","tel":"031-665-5553","addr":"경기도 평택시 지산동 584번지 103호","indutype":"용역 서비스 - 사무서비스","category":"other"}]},{"lat":"37.081426837","long":"127.05725799","imageIndex":17,"items":[{"name":"신흥정육점","tel":"031-667-6254","addr":"경기도 평택시 지산동 754-37번지","indutype":"소매업 - 정육","category":"other"}]},{"lat":"37.081760295","long":"127.05711203","imageIndex":17,"items":[{"name":"실비아수입코너","tel":"031-667-2092","addr":"경기도 평택시 지산동 753-32번지","indutype":"유통업 영리 - 기타유통업","category":"other"},{"name":"준가방","tel":"031-663-1453","addr":"경기도 평택시 지산동 753-32번지","indutype":"신변잡화 - 가방","category":"other"},{"name":"준가방","tel":"031-666-8782","addr":"경기도 평택시 지산동 753-32번지","indutype":"소매업 - 가방, 모자","category":"other"}]},{"lat":"37.079986057","long":"127.05523266","imageIndex":17,"items":[{"name":"심재훈동물병원","tel":"031-665-0024","addr":"경기도 평택시 지산동 766-4번지","indutype":"서비스업 - 수의","category":"other"},{"name":"심재훈애견샵","tel":"031-611-4805","addr":"경기도 평택시 지산동 766-4번지","indutype":"문화.취미 - 애완동물","category":"other"}]},{"lat":"37.081598079","long":"127.05716814","imageIndex":17,"items":[{"name":"싱싱수산","tel":"","addr":"경기도 평택시 지산동 753-29번지","indutype":"도소매업 - 수산물","category":"other"}]},{"lat":"37.080424612","long":"127.06156456","imageIndex":17,"items":[{"name":"써니 Clothing Shop","tel":"","addr":"경기도 평택시 지산동 1058번지","indutype":"의류 - 정장","category":"other"}]},{"lat":"37.081566409","long":"127.06650259","imageIndex":17,"items":[{"name":"쎄니쿨","tel":"031-664-6449","addr":"경기도 평택시 지산동 636-9번지","indutype":"서적문구 - 과학기자재","category":"other"}]},{"lat":"37.07992903","long":"127.06156418","imageIndex":17,"items":[{"name":"쏭쏭모바일","tel":"031-664-0601","addr":"경기도 평택시 지산동 714-13번지 외1필지","indutype":"사무통신 - 통신기기","category":"other"},{"name":"픽폰모바일","tel":"031-665-1470","addr":"경기도 평택시 지산동 714-13번지 102호","indutype":"사무통신 - 통신기기","category":"other"},{"name":"픽폰모바일","tel":"031-664-5897","addr":"경기도 평택시 지산동 714-13번지","indutype":"소매업 - 휴대폰","category":"other"}]},{"lat":"37.076649765","long":"127.06036962","imageIndex":17,"items":[{"name":"씨유송탄공원로점","tel":"031-898-6568","addr":"경기도 평택시 지산동 693-3번지 1층","indutype":"유통업 영리 - 편 의 점","category":"other"}]},{"lat":"37.07537186","long":"127.05697253","imageIndex":17,"items":[{"name":"씨유평택지산원룸점","tel":"031-663-1393","addr":"경기도 평택시 지산동 835-5번지 1층","indutype":"유통업 영리 - 편 의 점","category":"other"}]},{"lat":"37.076151641","long":"127.065396","imageIndex":17,"items":[{"name":"아우름","tel":"","addr":"경기도 평택시 지산동 1164번지 스마일 302호","indutype":"직물 - 카페트,커튼,천막,지물","category":"other"}]},{"lat":"37.079983016","long":"127.06172167","imageIndex":17,"items":[{"name":"아이데코송탄점","tel":"031-666-9157","addr":"경기도 평택시 지산동 714-14번지","indutype":"소매업 - 안경","category":"other"}]},{"lat":"37.077620571","long":"127.06500361","imageIndex":17,"items":[{"name":"아주문구","tel":"031-665-5757","addr":"경기도 평택시 지산동 1135번지 아주아파트","indutype":"소매업 - 문구","category":"other"},{"name":"점핑클레이","tel":"031-665-3254","addr":"경기도 평택시 지산동 1135번지 아주아파트 상가동 206호","indutype":"문화.취미 - 문화취미기타","category":"other"}]},{"lat":"37.080223348","long":"127.06740116","imageIndex":17,"items":[{"name":"아주전기온돌판넬","tel":"031-671-0422","addr":"경기도 평택시 지산동 1217번지 케이씨씨스위첸 107동 404호","indutype":"전기제품 - 냉열기기","category":"other"}]},{"lat":"37.081508046","long":"127.05701063","imageIndex":17,"items":[{"name":"안성상회","tel":"031-662-1794","addr":"경기도 평택시 지산동 754-22번지 1층","indutype":"의류 - 정장","category":"other"},{"name":"안성상회","tel":"031-665-5949","addr":"경기도 평택시 지산동 754-22번지","indutype":"소매업 - 의류","category":"other"}]},{"lat":"37.083264817","long":"127.05764169","imageIndex":17,"items":[{"name":"안전사","tel":"031-666-8385","addr":"경기도 평택시 지산동 735-6번지","indutype":"건축자재 - 조명기구","category":"other"},{"name":"안전사","tel":"031-662-8385","addr":"경기도 평택시 지산동 735-6번지 외1필지","indutype":"건축자재 - 조명기구","category":"other"}]},{"lat":"37.076371532","long":"127.05806406","imageIndex":17,"items":[{"name":"야옹아 멍멍해봐","tel":"031-668-3330","addr":"경기도 평택시 지산동 796-12번지 외1필지","indutype":"문화.취미 - 애완동물","category":"other"}]},{"lat":"37.081012704","long":"127.0564817","imageIndex":17,"items":[{"name":"야채나라","tel":"031-668-5555","addr":"경기도 평택시 지산동 756-31번지","indutype":"소매업 - 야채, 건어물","category":"other"}]},{"lat":"37.074315532","long":"127.09061765","imageIndex":17,"items":[{"name":"에스앤케이가스산업(S&K가스산업)","tel":"031-666-9865","addr":"경기도 평택시 지산동 96-11번지","indutype":"용역 서비스 - 기타용역서비스","category":"other"}]},{"lat":"37.073901584","long":"127.08988623","imageIndex":17,"items":[{"name":"에스엠(SM)씽크","tel":"031-663-7602","addr":"경기도 평택시 지산동 223-21번지","indutype":"주방용구 - 주방용구","category":"other"}]},{"lat":"37.081841313","long":"127.05728078","imageIndex":17,"items":[{"name":"에어컨24","tel":"031-663-2300","addr":"경기도 평택시 지산동 745-6번지","indutype":"용역 서비스 - 기타용역서비스","category":"other"}]},{"lat":"37.07551528","long":"127.05859198","imageIndex":17,"items":[{"name":"에이치티","tel":"031-663-0447","addr":"경기도 평택시 지산동 853-6번지","indutype":"용역 서비스 - 기타용역서비스","category":"other"}]},{"lat":"37.081678268","long":"127.05911382","imageIndex":17,"items":[{"name":"영광떡방아간","tel":"031-665-4920","addr":"경기도 평택시 지산동 729-3번지","indutype":"제조업 - 떡","category":"other"}]},{"lat":"37.078895866","long":"127.05502949","imageIndex":17,"items":[{"name":"영주주방","tel":"031-662-5700","addr":"경기도 평택시 지산동 811-13번지","indutype":"주방용구 - 주방용구","category":"other"}]},{"lat":"37.080985268","long":"127.05737014","imageIndex":17,"items":[{"name":"예산반찬","tel":"031-662-3796","addr":"경기도 평택시 지산동 756-75번지","indutype":"소매업 - 반찬","category":"other"}]},{"lat":"37.07803541","long":"127.07978096","imageIndex":17,"items":[{"name":"옛날사람들","tel":"031-663-1090","addr":"경기도 평택시 지산동 312-4번지","indutype":"문화.취미 - 골동품점","category":"other"}]},{"lat":"37.078182658","long":"127.05806538","imageIndex":17,"items":[{"name":"오케이(O.K) 텔레콤","tel":"032-816-9930","addr":"경기도 평택시 지산동 782-16번지 1층 103호","indutype":"사무통신 - 통신기기","category":"other"}]},{"lat":"37.076015744","long":"127.09430814","imageIndex":17,"items":[{"name":"우드앤퍼니","tel":"031-663-4542","addr":"경기도 평택시 지산동 131번지 1층","indutype":"건축자재 - 인테리어전문","category":"other"}]},{"lat":"37.080840974","long":"127.05763995","imageIndex":17,"items":[{"name":"우리동네축산할인마트","tel":"031-667-7854","addr":"경기도 평택시 지산동 757-2번지","indutype":"도소매업 - 정육","category":"other"}]},{"lat":"37.081120795","long":"127.0565605","imageIndex":17,"items":[{"name":"우리상회","tel":"","addr":"경기도 평택시 지산동 756-28번지","indutype":"소매업 - 야채","category":"other"},{"name":"행복한상미네과일나라","tel":"031-665-2153","addr":"경기도 평택시 지산동 756-28번지","indutype":"소매업 - 과일","category":"other"}]},{"lat":"37.081120831","long":"127.05648178","imageIndex":17,"items":[{"name":"우리상회","tel":"","addr":"경기도 평택시 지산동 756-21번지","indutype":"소매업 - 문구","category":"other"},{"name":"우리서점","tel":"031-666-2107","addr":"경기도 평택시 지산동 756-21번지","indutype":"서적문구 - 일반서적","category":"other"}]},{"lat":"37.075953485","long":"127.06524965","imageIndex":17,"items":[{"name":"우리컴","tel":"031-662-6749","addr":"경기도 평택시 지산동 1154번지","indutype":"사무통신 - 컴퓨터","category":"other"}]},{"lat":"37.083454267","long":"127.05714697","imageIndex":17,"items":[{"name":"우리하우징","tel":"031-662-2681","addr":"경기도 평택시 지산동 739-6번지","indutype":"직물 - 카페트,커튼,천막,지물","category":"other"}]},{"lat":"37.081840628","long":"127.05875406","imageIndex":17,"items":[{"name":"우성공업사","tel":"031-665-5006","addr":"경기도 평택시 지산동 751-14","indutype":"회원제형태 - 기타4","category":"other"}]},{"lat":"37.081678723","long":"127.05814664","imageIndex":17,"items":[{"name":"원더짐","tel":"031-663-6893","addr":"경기도 평택시 지산동 752-15번지 2층","indutype":"회원제형태 - 레져업소","category":"other"}]},{"lat":"37.075876065","long":"127.0578163","imageIndex":17,"items":[{"name":"원플러스","tel":"031-664-3615","addr":"경기도 평택시 지산동 796-24번지 1층","indutype":"사무통신 - 컴퓨터","category":"other"}]},{"lat":"37.083679495","long":"127.05722586","imageIndex":17,"items":[{"name":"월드상사","tel":"031-665-3600","addr":"경기도 평택시 지산동 739-3번지","indutype":"용역 서비스 - 기타용역서비스","category":"other"}]},{"lat":"37.07523634","long":"127.05775962","imageIndex":17,"items":[{"name":"웰빙푸딩","tel":"031-000-0000","addr":"경기도 평택시 지산동 851-10번지 이안힐시티 1동 11층 2호","indutype":"직물 - 침구·수예점","category":"other"}]},{"lat":"37.078236773","long":"127.05795296","imageIndex":17,"items":[{"name":"웰빙프라자","tel":"031-667-5575","addr":"경기도 평택시 지산동 779-30번지","indutype":"전기제품 - 가전제품","category":"other"}]},{"lat":"37.074371225","long":"127.05797265","imageIndex":17,"items":[{"name":"위드미평택지산점","tel":"070-7774-9455","addr":"경기도 평택시 지산동 850-35번지 신화주택2차 101호","indutype":"유통업 영리 - 편 의 점","category":"other"},{"name":"이마트24","tel":"","addr":"경기도 평택시 지산동 850-35번지 신화주택2차 101호","indutype":"소매업 - 편의점","category":"other"}]},{"lat":"37.080569123","long":"127.06086741","imageIndex":17,"items":[{"name":"유정샵","tel":"031-663-8668","addr":"경기도 평택시 지산동 1043번지 1층","indutype":"의류 - 정장","category":"other"}]},{"lat":"37.078876472","long":"127.05806588","imageIndex":17,"items":[{"name":"유현통신","tel":"031-667-4010","addr":"경기도 평택시 지산동 775-11번지 1층","indutype":"사무통신 - 통신기기","category":"other"}]},{"lat":"37.074705062","long":"127.0570058","imageIndex":17,"items":[{"name":"은하세탁소","tel":"031-611-1333","addr":"경기도 평택시 지산동 847-7번지","indutype":"수리서비스 - 세탁소","category":"other"}]},{"lat":"37.075093024","long":"127.08705376","imageIndex":17,"items":[{"name":"이다산업안전용품상사","tel":"031-664-0119","addr":"경기도 평택시 지산동 228-2번지 201호","indutype":"기타 - 기계공구","category":"other"},{"name":"이다산업안전용품상사","tel":"031-668-1675","addr":"경기도 평택시 지산동 228-2번지","indutype":"소매업 - 철물","category":"other"}]},{"lat":"37.076786227","long":"127.05761454","imageIndex":17,"items":[{"name":"이마트편의점(지산중앙점)","tel":"031-668-0123","addr":"경기도 평택시 지산동 798-20번지","indutype":"소매업 - 편의점","category":"other"}]},{"lat":"37.074875634","long":"127.05836661","imageIndex":17,"items":[{"name":"이브자리","tel":"031-611-3906","addr":"경기도 평택시 지산동 857-4번지","indutype":"소매업 - 이불","category":"other"},{"name":"이브자리","tel":"031-662-0147","addr":"경기도 평택시 지산동 857-4번지","indutype":"직물 - 침구·수예점","category":"other"}]},{"lat":"37.077399677","long":"127.05600684","imageIndex":17,"items":[{"name":"이슬산업","tel":"031-665-5643","addr":"경기도 평택시 지산동 820-1번지","indutype":"건축자재 - 기타건축자재","category":"other"}]},{"lat":"37.078008181","long":"127.08008457","imageIndex":17,"items":[{"name":"이승현 건축사사무소","tel":"031-662-3690","addr":"경기도 평택시 지산동 311-3번지 2층","indutype":"서비스업 - 건축","category":"other"}]},{"lat":"37.07918071","long":"127.06245204","imageIndex":17,"items":[{"name":"이종훈골프아카데미","tel":"031-668-0079","addr":"경기도 평택시 지산동 1081번지 2층","indutype":"회원제형태 - 레져업소","category":"other"}]},{"lat":"37.082958276","long":"127.0580351","imageIndex":17,"items":[{"name":"이주에어컨자재","tel":"031-667-1479","addr":"경기도 평택시 지산동 735-31번지","indutype":"전기제품 - 냉열기기","category":"other"}]},{"lat":"37.07942451","long":"127.06141759","imageIndex":17,"items":[{"name":"이태섭안경원","tel":"031-666-2577","addr":"경기도 평택시 지산동 1074번지","indutype":"소매업 - 안경","category":"other"}]},{"lat":"37.081679563","long":"127.05631348","imageIndex":17,"items":[{"name":"이화의상실","tel":"031-662-4515","addr":"경기도 평택시 지산동 755-4번지","indutype":"의류 - 맞춤복점","category":"other"},{"name":"쟈스킨","tel":"031-662-4515","addr":"경기도 평택시 지산동 755-4번지","indutype":"의류 - 정장","category":"other"}]},{"lat":"37.081237831","long":"127.05678551","imageIndex":17,"items":[{"name":"일미정육점","tel":"","addr":"경기도 평택시 지산동 756-80번지 3층","indutype":"소매업 - 정육","category":"other"}]},{"lat":"37.080814649","long":"127.05608795","imageIndex":17,"items":[{"name":"잠자리이불","tel":"031-667-1867","addr":"경기도 평택시 지산동 763-5번지","indutype":"소매업 - 이불","category":"other"},{"name":"잠자리이불","tel":"031-665-3733","addr":"경기도 평택시 지산동 763-5번지","indutype":"직물 - 침구·수예점","category":"other"}]},{"lat":"37.077263605","long":"127.05800848","imageIndex":17,"items":[{"name":"장수열기","tel":"031-611-0202","addr":"경기도 평택시 지산동 794-2번지","indutype":"건축자재 - 보일러·펌프·샷시","category":"other"}]},{"lat":"37.080760286","long":"127.05675144","imageIndex":17,"items":[{"name":"전국축산물","tel":"031-666-6810","addr":"경기도 평택시 지산동 757-12번지","indutype":"소매업 - 정육","category":"other"}]},{"lat":"37.08051526","long":"127.0767245","imageIndex":17,"items":[{"name":"전람회","tel":"031-666-6230","addr":"경기도 평택시 지산동 1237-6번지","indutype":"신변잡화 - 액세서리","category":"other"}]},{"lat":"37.075757864","long":"127.06006532","imageIndex":17,"items":[{"name":"전자담배&휴대폰멀티샵","tel":"031-667-7780","addr":"경기도 평택시 지산동 685-4번지 신화주택","indutype":"기타 - 기타 전문점","category":"other"},{"name":"코지마켓","tel":"","addr":"경기도 평택시 지산동 685-4번지 신화주택 상가동 102호","indutype":"신변잡화 - 기타잡화","category":"other"}]},{"lat":"37.079678428","long":"127.05803272","imageIndex":17,"items":[{"name":"제이케이텔레콤","tel":"031-656-1228","addr":"경기도 평택시 지산동 773-8번지 1층 C호","indutype":"사무통신 - 통신기기","category":"other"}]},{"lat":"37.075425395","long":"127.05811961","imageIndex":17,"items":[{"name":"제일영상중고가전","tel":"031-373-2068","addr":"경기도 평택시 지산동 산190-4번지 삼우빌딩","indutype":"전기제품 - 가전제품","category":"other"}]},{"lat":"37.075010544","long":"127.05889524","imageIndex":17,"items":[{"name":"젠트웰의류매장","tel":"031-666-3811","addr":"경기도 평택시 지산동 855-7번지","indutype":"소매업 - 의류","category":"other"},{"name":"젠트웰의류할인매장","tel":"031-663-4587","addr":"경기도 평택시 지산동 855-7번지 1층","indutype":"레져용품 - 스포츠·레져용품","category":"other"}]},{"lat":"37.078876346","long":"127.05833578","imageIndex":17,"items":[{"name":"종이문화재단대구수성종이문화교육원","tel":"053-784-1500","addr":"경기도 평택시 지산동 777-12번지 지산우방타운 상가114동 지하층6호","indutype":"문화.취미 - 문화취미기타","category":"other"}]},{"lat":"37.080543417","long":"127.05808958","imageIndex":17,"items":[{"name":"준패션컴퍼니","tel":"031-8094-4097","addr":"경기도 평택시 지산동 758-49번지 1층","indutype":"의류 - 정장","category":"other"}]},{"lat":"37.083507842","long":"127.0582042","imageIndex":17,"items":[{"name":"중고시대","tel":"031-665-0018","addr":"경기도 평택시 지산동 736-1번지","indutype":"전기제품 - 가전제품","category":"other"}]},{"lat":"37.081812959","long":"127.06009236","imageIndex":17,"items":[{"name":"쥬드봉봉","tel":"031-662-1409","addr":"경기도 평택시 지산동 1003번지 1층","indutype":"의류 - 아동의류","category":"other"}]},{"lat":"37.079598716","long":"127.05497374","imageIndex":17,"items":[{"name":"쥬얼리샵","tel":"031-611-7358","addr":"경기도 평택시 지산동 767-4번지","indutype":"신변잡화 - 액세서리","category":"other"}]},{"lat":"37.07740261","long":"127.08289539","imageIndex":17,"items":[{"name":"지산공조","tel":"031-668-0769","addr":"경기도 평택시 지산동 343-2번지","indutype":"용역 서비스 - 기타용역서비스","category":"other"},{"name":"크래팜","tel":"031-664-8489","addr":"경기도 평택시 지산동 343-2번지","indutype":"신변잡화 - 액세서리","category":"other"}]},{"lat":"37.078153771","long":"127.07786929","imageIndex":17,"items":[{"name":"창조유통","tel":"","addr":"경기도 평택시 지산동 465-1번지","indutype":"도소매업 - 정육","category":"other"}]},{"lat":"37.080787174","long":"127.05706635","imageIndex":17,"items":[{"name":"천일상회","tel":"","addr":"경기도 평택시 지산동 757-9번지","indutype":"소매업 - 그릇","category":"other"},{"name":"천일상회","tel":"031-666-6415","addr":"경기도 평택시 지산동 757-9번지","indutype":"주방용구 - 주방용구","category":"other"}]},{"lat":"37.081480849","long":"127.05737049","imageIndex":17,"items":[{"name":"철영농약사","tel":"031-666-5812","addr":"경기도 평택시 지산동 754-10번지","indutype":"농업 - 비료,사료,종자","category":"other"},{"name":"철영농업사","tel":"031-665-6471","addr":"경기도 평택시 지산동 754-10번지","indutype":"소매업 - 농업용품","category":"other"}]},{"lat":"37.080734647","long":"127.07150647","imageIndex":17,"items":[{"name":"청와대공인중개","tel":"","addr":"경기도 평택시 지산동 585번지","indutype":"서비스업 - 부동산","category":"other"}]},{"lat":"37.074623688","long":"127.05761299","imageIndex":17,"items":[{"name":"초이스파트너가구","tel":"031-611-7283","addr":"경기도 평택시 지산동 850-57번지","indutype":"가구 - 일반가구","category":"other"}]},{"lat":"37.074651511","long":"127.05586998","imageIndex":17,"items":[{"name":"최은경콜렉션","tel":"031-666-8006","addr":"경기도 평택시 지산동 840-12번지 102호","indutype":"의류 - 정장","category":"other"}]},{"lat":"37.08234794","long":"127.07081064","imageIndex":17,"items":[{"name":"친환경e클린","tel":"","addr":"경기도 평택시 지산동 608-2번지 더팰리스스위트지산 102동 3층 305호","indutype":"용역 서비스 - 종합용역","category":"other"}]},{"lat":"37.079222075","long":"127.06939085","imageIndex":17,"items":[{"name":"캐리어에어컨평택총판 그린공조","tel":"031-668-3366","addr":"경기도 평택시 지산동 1217번지 케이씨씨스위첸 104동 1102호","indutype":"전기제품 - 냉열기기","category":"other"}]},{"lat":"37.072180901","long":"127.08942323","imageIndex":17,"items":[{"name":"캠프슐레","tel":"031-663-0079","addr":"경기도 평택시 지산동 248-3번지 A동","indutype":"레져용품 - 스포츠·레져용품","category":"other"},{"name":"캠프슐레","tel":"031-664-0078","addr":"경기도 평택시 지산동 248-3번지","indutype":"소매업 - 캠핑용품","category":"other"}]},{"lat":"37.074425862","long":"127.05672447","imageIndex":17,"items":[{"name":"컴퓨터NEWS","tel":"031-667-7661","addr":"경기도 평택시 지산동 842번지","indutype":"사무통신 - 컴퓨터","category":"other"}]},{"lat":"37.081292174","long":"127.056167","imageIndex":17,"items":[{"name":"케익나라","tel":"031-665-8406","addr":"경기도 평택시 지산동 755-8번지","indutype":"소매업 - 카페","category":"other"}]},{"lat":"37.080763927","long":"127.06750283","imageIndex":17,"items":[{"name":"코리아크리닝","tel":"031-666-8060","addr":"경기도 평택시 지산동 631-24번지 롯데슈퍼평택지산점 1층","indutype":"수리서비스 - 세탁소","category":"other"}]},{"lat":"37.081677909","long":"127.05986733","imageIndex":17,"items":[{"name":"코바늘대바늘뜨개방","tel":"031-663-3533","addr":"경기도 평택시 지산동 1010번지","indutype":"회원제형태 - 기타4","category":"other"}]},{"lat":"37.082150617","long":"127.06920222","imageIndex":17,"items":[{"name":"코아루공인중개사사무소","tel":"031-667-8100","addr":"경기도 평택시 지산동 1250번지 코아루 A상가 101호","indutype":"용역 서비스 - 부동산 중개·임대","category":"other"}]},{"lat":"37.080731544","long":"127.06039519","imageIndex":17,"items":[{"name":"크린토피아 평택지산점","tel":"031-665-3395","addr":"경기도 평택시 지산동 1017번지","indutype":"수리서비스 - 세탁소","category":"other"}]},{"lat":"37.080507102","long":"127.07534121","imageIndex":17,"items":[{"name":"키큰목수","tel":"031-654-5955","addr":"경기도 평택시 지산동 426-1 2호,3호","indutype":"가구 - 일반가구","category":"other"}]},{"lat":"37.07820581","long":"127.08100693","imageIndex":17,"items":[{"name":"태림상사","tel":"031-665-8577","addr":"경기도 평택시 지산동 313-5번지","indutype":"건축자재 - 보일러·펌프·샷시","category":"other"}]},{"lat":"37.081984333","long":"127.0597326","imageIndex":17,"items":[{"name":"태화바이크","tel":"031-665-8648","addr":"경기도 평택시 지산동 1006번지 1층","indutype":"도소매업 - 오토바이","category":"other"}]},{"lat":"37.080841417","long":"127.05667277","imageIndex":17,"items":[{"name":"텃밭야채","tel":"1577-9315","addr":"경기도 평택시 지산동 757-100번지","indutype":"소매업 - 농산물","category":"other"}]},{"lat":"37.077818702","long":"127.08047798","imageIndex":17,"items":[{"name":"테라스 스키","tel":"031-638-0322","addr":"경기도 평택시 지산동 310-7번지","indutype":"레져용품 - 스포츠·레져용품","category":"other"}]},{"lat":"37.07873508","long":"127.07014391","imageIndex":17,"items":[{"name":"평택곤충과 사람들","tel":"031-611-2430","addr":"경기도 평택시 지산동 567-2번지","indutype":"문화.취미 - 애완동물","category":"other"}]},{"lat":"37.076597005","long":"127.0576144","imageIndex":17,"items":[{"name":"폴하우스","tel":"031-668-5698","addr":"경기도 평택시 지산동 797-17번지 1층","indutype":"문화.취미 - 애완동물","category":"other"}]},{"lat":"37.076038015","long":"127.05833372","imageIndex":17,"items":[{"name":"피닉스스포츠센터","tel":"031-667-5959","addr":"경기도 평택시 지산동 793-11번지","indutype":"회원제형태 - 레져업소","category":"other"},{"name":"피닉스스포츠센터","tel":"031-662-1363","addr":"경기도 평택시 지산동 793-11번지","indutype":"서비스업 - 헬스","category":"other"}]},{"lat":"37.080126972","long":"127.06214913","imageIndex":17,"items":[{"name":"피비포토","tel":"031-663-7766","addr":"경기도 평택시 지산동 714-17","indutype":"광학제품 - 사진관","category":"other"},{"name":"피비포토","tel":"031-665-2227","addr":"경기도 평택시 지산동 714-17번지","indutype":"서비스업 - 사진관","category":"other"}]},{"lat":"37.079400518","long":"127.05489488","imageIndex":17,"items":[{"name":"피아노피아","tel":"031-665-4989","addr":"경기도 평택시 지산동 767-96번지 1층","indutype":"레져용품 - 피아노대리점","category":"other"}]},{"lat":"37.078876204","long":"127.05863942","imageIndex":17,"items":[{"name":"필립동물병원","tel":"031-666-0459","addr":"경기도 평택시 지산동 777번지","indutype":"서비스업 - 수의","category":"other"}]},{"lat":"37.079929373","long":"127.06086692","imageIndex":17,"items":[{"name":"하루","tel":"","addr":"경기도 평택시 지산동 714-8번지","indutype":"소매업 - 여성의류","category":"other"},{"name":"하루여성의류전문점","tel":"031-000-0000","addr":"경기도 평택시 지산동 714-8번지","indutype":"의류 - 정장","category":"other"}]},{"lat":"37.079345534","long":"127.05695286","imageIndex":17,"items":[{"name":"학성문구","tel":"031-666-9957","addr":"경기도 평택시 지산동 807-1번지","indutype":"도매업 - 문구","category":"other"},{"name":"학성문구","tel":"031-665-8406","addr":"경기도 평택시 지산동 807-1번지","indutype":"서적문구 - 문구용품","category":"other"}]},{"lat":"37.079369977","long":"127.06236222","imageIndex":17,"items":[{"name":"한국불교태고종보현암","tel":"031-611-7626","addr":"경기도 평택시 지산동 1082번지","indutype":"기타 - 비영리/대상","category":"other"}]},{"lat":"37.080985586","long":"127.05667287","imageIndex":17,"items":[{"name":"한독이불","tel":"031-665-2153","addr":"경기도 평택시 지산동 756-34번지","indutype":"직물 - 침구·수예점","category":"other"},{"name":"한독패션","tel":"031-662-8106","addr":"경기도 평택시 지산동 756-34번지","indutype":"소매업 - 이불","category":"other"}]},{"lat":"37.080292331","long":"127.05542406","imageIndex":17,"items":[{"name":"한마음토탈전기","tel":"031-668-1204","addr":"경기도 평택시 지산동 767-51번지","indutype":"건축자재 - 조명기구","category":"other"}]},{"lat":"37.08140026","long":"127.05625705","imageIndex":17,"items":[{"name":"한양에이스마취통증의학과의원","tel":"031-652-2280","addr":"경기도 평택시 지산동 755-7번지 1층, 2층","indutype":"보건업 - 마취통증의학과,정형외과","category":"other"},{"name":"한양에이스마취통증의학과의원","tel":"031-666-7500","addr":"경기도 평택시 지산동 755-7번지 1층, 2층","indutype":"유통업 영리 - 편 의 점","category":"other"}]},{"lat":"37.081733601","long":"127.05636975","imageIndex":17,"items":[{"name":"행운수입구제","tel":"031-668-3080","addr":"경기도 평택시 지산동 755-1번지","indutype":"의류 - 기타의류","category":"other"},{"name":"황실유럽자수","tel":"031-663-5994","addr":"경기도 평택시 지산동 755-1번지","indutype":"문화.취미 - 문화취미기타","category":"other"}]},{"lat":"37.079289266","long":"127.07761175","imageIndex":17,"items":[{"name":"현대소프트","tel":"031-666-6415","addr":"경기도 평택시 지산동 432-4번지","indutype":"도소매업 - 네비게이션, 블랙박스","category":"other"}]},{"lat":"37.079535667","long":"127.05491746","imageIndex":17,"items":[{"name":"현대악기","tel":"031-663-8050","addr":"경기도 평택시 지산동 767-15번지","indutype":"레져용품 - 악기점","category":"other"}]},{"lat":"37.078229856","long":"127.08541533","imageIndex":17,"items":[{"name":"호현상사","tel":"031-952-5784","addr":"경기도 평택시 지산동 176번지","indutype":"직물 - 옷감·직물","category":"other"}]},{"lat":"37.080814108","long":"127.05728005","imageIndex":17,"items":[{"name":"홍대빈티지","tel":"031-664-8777","addr":"경기도 평택시 지산동 757-8번지 상가동 1층","indutype":"의류 - 기타의류","category":"other"}]},{"lat":"37.074957705","long":"127.08727851","imageIndex":17,"items":[{"name":"화승상사","tel":"031-664-7233","addr":"경기도 평택시 지산동 228-24번지","indutype":"건축자재 - 페인트","category":"other"}]},{"lat":"37.074425184","long":"127.0581976","imageIndex":17,"items":[{"name":"화이트클리닉","tel":"","addr":"경기도 평택시 지산동 858-7번지 2층 202호","indutype":"용역 서비스 - 종합용역","category":"other"}]},{"lat":"37.081812839","long":"127.06033978","imageIndex":17,"items":[{"name":"희성유공압설비","tel":"031-664-6009","addr":"경기도 평택시 지산동 1000번지","indutype":"건축자재 - 기타건축자재","category":"other"}]}]