[{"lat":"37.686637546","long":"127.21008956","imageIndex":17,"items":[{"name":"\"8899\"목천섬김","tel":"070-8250-4152","addr":"경기도 남양주시 오남읍 오남리 604-8번지","indutype":"기타의료기관 - 기타의료기관 및 기타","category":"other"}]},{"lat":"37.68896452","long":"127.20866752","imageIndex":17,"items":[{"name":"(주)단아데코","tel":"031-572-8382","addr":"경기도 남양주시 오남읍 오남리 634번지","indutype":"직물 - 침구·수예점","category":"other"}]},{"lat":"37.684523544","long":"127.20822446","imageIndex":17,"items":[{"name":"(주)비케이퍼니처","tel":"031-529-3810","addr":"경기도 남양주시 오남읍 오남리 547번지 1층","indutype":"가구 - 일반가구","category":"other"}]},{"lat":"37.683021701","long":"127.21177998","imageIndex":17,"items":[{"name":"(주)제이엔케이","tel":"031-555-5460","addr":"경기도 남양주시 오남읍 오남리 353-1번지 1층","indutype":"건축자재 - 건축용 요업제품","category":"other"}]},{"lat":"37.694442096","long":"127.21392093","imageIndex":17,"items":[{"name":"AA+무한케어노인복지센터","tel":"031-528-7488","addr":"경기도 남양주시 오남읍 오남리 134-10번지 오남프라자 204호","indutype":"기타의료기관 - 기타의료기관 및 기타","category":"other"},{"name":"사라","tel":"070-8959-5379","addr":"경기도 남양주시 오남읍 오남리 134-10번지 오남프라자 106호","indutype":"의류 - 정장","category":"other"},{"name":"청담타이","tel":"070-4404-2252","addr":"경기도 남양주시 오남읍 오남리 134-10번지 오남프라자 4층","indutype":"신변잡화 - 기타잡화","category":"other"}]},{"lat":"37.687832399","long":"127.21203155","imageIndex":17,"items":[{"name":"AACE(더블에이스)","tel":"031-529-5290","addr":"경기도 남양주시 오남읍 오남리 246-5","indutype":"사무통신 - 컴퓨터","category":"other"}]},{"lat":"37.693827105","long":"127.21522307","imageIndex":17,"items":[{"name":"COTRO","tel":"02-2202-0344","addr":"경기도 남양주시 오남읍 오남리 129-2번지 3층","indutype":"레져용품 - 스포츠·레져용품","category":"other"},{"name":"기쁘미주야간보호센터","tel":"031-571-9070","addr":"경기도 남양주시 오남읍 오남리 129-2번지 아세아빌딩 3층","indutype":"기타의료기관 - 기타의료기관 및 기타","category":"other"}]},{"lat":"37.694860426","long":"127.20658623","imageIndex":17,"items":[{"name":"CnJ가죽공방","tel":"031-529-2336","addr":"경기도 남양주시 오남읍 오남리 732-1번지","indutype":"신변잡화 - 가방","category":"other"},{"name":"경희콜렉션","tel":"031-575-3209","addr":"경기도 남양주시 오남읍 오남리 732-1번지","indutype":"신변잡화 - 가방","category":"other"}]},{"lat":"37.691494359","long":"127.21480826","imageIndex":17,"items":[{"name":"GOON","tel":"031-529-8082","addr":"경기도 남양주시 오남읍 오남리 203-3.","indutype":"레져용품 - 스포츠·레져용품","category":"other"}]},{"lat":"37.679025733","long":"127.20933156","imageIndex":17,"items":[{"name":"GS25오남동명점","tel":"","addr":"경기도 남양주시 오남읍 오남리 476-10번지 동명프라자 104호","indutype":"유통업 영리 - 편 의 점","category":"other"},{"name":"에스제이","tel":"031-572-7373","addr":"경기도 남양주시 오남읍 오남리 476-10번지 동명프라자 112호","indutype":"사무통신 - 통신기기","category":"other"}]},{"lat":"37.68266338","long":"127.21061132","imageIndex":17,"items":[{"name":"GS25오남상일점","tel":"02-2006-2485","addr":"경기도 남양주시 오남읍 오남리 344-1번지 1층 102호","indutype":"유통업 영리 - 편 의 점","category":"other"},{"name":"강호체육관","tel":"031-528-1009","addr":"경기도 남양주시 오남읍 오남리 344-1번지 202호","indutype":"회원제형태 - 레져업소","category":"other"},{"name":"코델리아","tel":"031-528-1610","addr":"경기도 남양주시 오남읍 오남리 344-1번지","indutype":"의류 - 정장","category":"other"}]},{"lat":"37.695466574","long":"127.19980752","imageIndex":17,"items":[{"name":"GS25오남푸르지오점","tel":"","addr":"경기도 남양주시 오남읍 오남리 889번지 남양주오남푸르지오 상가동 B101, B102, B105, B106호","indutype":"유통업 영리 - 편 의 점","category":"other"},{"name":"아름다운생활","tel":"031-529-1689","addr":"경기도 남양주시 오남읍 오남리 889번지 푸르지오상가B104호","indutype":"직물 - 침구·수예점","category":"other"}]},{"lat":"37.698048774","long":"127.21233238","imageIndex":17,"items":[{"name":"J.B 솔루션","tel":"031-574-6190","addr":"경기도 남양주시 오남읍 오남리 101-11번지 다동 202호","indutype":"사무통신 - 기타 사무용품","category":"other"},{"name":"주식회사잉크24","tel":"031-574-1923","addr":"경기도 남양주시 오남읍 오남리 101-11번지 라동 2층","indutype":"사무통신 - 기타 사무용품","category":"other"}]},{"lat":"37.69713186","long":"127.19525378","imageIndex":17,"items":[{"name":"KT한국통상","tel":"070-4064-5899","addr":"경기도 남양주시 오남읍 오남리 886-1번지 양오빌딩 나동 401호","indutype":"신변잡화 - 액세서리","category":"other"},{"name":"스타","tel":"031-575-9079","addr":"경기도 남양주시 오남읍 오남리 886-1번지 나동 203호","indutype":"전기제품 - 기타전기제품","category":"other"}]},{"lat":"37.678382963","long":"127.21108683","imageIndex":17,"items":[{"name":"WOONICLAY도자기공방","tel":"031-528-0624","addr":"경기도 남양주시 오남읍 오남리 414-3","indutype":"문화.취미 - 민예·공예품","category":"other"},{"name":"백조세탁소","tel":"031-575-8811","addr":"경기도 남양주시 오남읍 오남리 414-3번지","indutype":"수리서비스 - 세탁소","category":"other"}]},{"lat":"37.685610276","long":"127.20499643","imageIndex":17,"items":[{"name":"i필름","tel":"031-528-0046","addr":"경기도 남양주시 오남읍 오남리 572-6번지","indutype":"건축자재 - 기타건축자재","category":"other"}]},{"lat":"37.696608107","long":"127.20669305","imageIndex":17,"items":[{"name":"가온유통","tel":"031-528-8883","addr":"경기도 남양주시 오남읍 오남리 755번지","indutype":"신변잡화 - 기타잡화","category":"other"}]},{"lat":"37.679167597","long":"127.21063558","imageIndex":17,"items":[{"name":"강아지야","tel":"031-575-3551","addr":"경기도 남양주시 오남읍 오남리 413-4번지 부일빌딩 1층 5호","indutype":"문화.취미 - 애완동물","category":"other"},{"name":"수라","tel":"","addr":"경기도 남양주시 오남읍 오남리 413-4번지 104호","indutype":"문화.취미 - 문화취미기타","category":"other"}]},{"lat":"37.690416193","long":"127.21313856","imageIndex":17,"items":[{"name":"개그스토리마트","tel":"031-528-7254","addr":"경기도 남양주시 오남읍 오남리 205-18번지","indutype":"유통업 영리 - 편 의 점","category":"other"},{"name":"모아정보통신","tel":"031-528-0911","addr":"경기도 남양주시 오남읍 오남리 205-18번지","indutype":"사무통신 - 컴퓨터","category":"other"},{"name":"세븐일레븐오남우성타워점","tel":"031-1577-0711","addr":"경기도 남양주시 오남읍 오남리 205-18번지 1층 103,104호","indutype":"유통업 영리 - 편 의 점","category":"other"},{"name":"진주열쇠설비","tel":"","addr":"경기도 남양주시 오남읍 오남리 205-18번지 방범초소옆","indutype":"수리서비스 - 신변잡화수리","category":"other"}]},{"lat":"37.685158493","long":"127.20575478","imageIndex":17,"items":[{"name":"개똥이네 남양주점","tel":"031-529-2989","addr":"경기도 남양주시 오남읍 오남리 572-1번지 가동 101호","indutype":"서적문구 - 일반서적","category":"other"},{"name":"남녀공학","tel":"031-528-7089","addr":"경기도 남양주시 오남읍 오남리 572-1번지 가동 201호","indutype":"용역 서비스 - 사무서비스","category":"other"},{"name":"레저붐","tel":"070-8163-3303","addr":"경기도 남양주시 오남읍 오남리 572-1번지 차동 1층 102호","indutype":"레져용품 - 스포츠·레져용품","category":"other"},{"name":"온아이디","tel":"070-7863-6512","addr":"경기도 남양주시 오남읍 오남리 572-1번지 나동 1층 101호","indutype":"직물 - 카페트,커튼,천막,지물","category":"other"},{"name":"옷까페","tel":"","addr":"경기도 남양주시 오남읍 오남리 572-1번지 가동 2층","indutype":"의류 - 정장","category":"other"},{"name":"호아창","tel":"031-557-2244","addr":"경기도 남양주시 오남읍 오남리 572-1번지 가동 201호","indutype":"직물 - 카페트,커튼,천막,지물","category":"other"}]},{"lat":"37.686356011","long":"127.21135852","imageIndex":17,"items":[{"name":"건웅철물건재앵글","tel":"031-528-3859","addr":"경기도 남양주시 오남읍 오남리 264-1번지","indutype":"건축자재 - 목재·석재·철물","category":"other"}]},{"lat":"37.680219658","long":"127.21180613","imageIndex":17,"items":[{"name":"경강사","tel":"","addr":"경기도 남양주시 오남읍 오남리 398번지 에메랄드연립주택 304호","indutype":"농업 - 농기계","category":"other"},{"name":"디캐쳐(D.catcher)","tel":"031-573-2753","addr":"경기도 남양주시 오남읍 오남리 398번지 에메랄드연립주택 103호","indutype":"회원제형태 - 사무서비스","category":"other"}]},{"lat":"37.679276869","long":"127.2099784","imageIndex":17,"items":[{"name":"굿모닝디지털현상소","tel":"031-527-9855","addr":"경기도 남양주시 오남읍 오남리 477-1번지 굿모닝마트내사진관","indutype":"광학제품 - 사진관","category":"other"},{"name":"크린토피아 남양주오남굿모닝점","tel":"031-529-3309","addr":"경기도 남양주시 오남읍 오남리 477-1번지","indutype":"수리서비스 - 세탁소","category":"other"}]},{"lat":"37.681828846","long":"127.20869315","imageIndex":17,"items":[{"name":"그린119설비","tel":"070-8638-0498","addr":"경기도 남양주시 오남읍 오남리 519번지 한신2차아파트","indutype":"건축자재 - 인테리어전문","category":"other"}]},{"lat":"37.679578026","long":"127.20778006","imageIndex":17,"items":[{"name":"금강철물건재","tel":"031-527-5060","addr":"경기도 남양주시 오남읍 오남리 500번지 외1필지 107호","indutype":"건축자재 - 기타건축자재","category":"other"},{"name":"빨간지붕","tel":"031-000-0000","addr":"경기도 남양주시 오남읍 오남리 500번지","indutype":"의류 - 정장","category":"other"},{"name":"사랑으로동물병원","tel":"031-528-7562","addr":"경기도 남양주시 오남읍 오남리 500번지 대박빌딩 1층","indutype":"문화.취미 - 애완동물","category":"other"}]},{"lat":"37.689220377","long":"127.21175201","imageIndex":17,"items":[{"name":"기성문구","tel":"031-575-5723","addr":"경기도 남양주시 오남읍 오남리 683-7번지 진주상가 128호","indutype":"서적문구 - 문구용품","category":"other"},{"name":"로즈앤카라","tel":"070-4090-4277","addr":"경기도 남양주시 오남읍 오남리 683-7번지 2층 215-1호","indutype":"의류 - 정장","category":"other"},{"name":"마이닷컴","tel":"031-527-9113","addr":"경기도 남양주시 오남읍 오남리 683-7 진주종합상가 142-3","indutype":"사무통신 - 컴퓨터","category":"other"},{"name":"미드림아트센터","tel":"031-574-7829","addr":"경기도 남양주시 오남읍 오남리 683-7번지 진주상가 136호","indutype":"회원제형태 - 기타4","category":"other"},{"name":"미소","tel":"031-573-8091","addr":"경기도 남양주시 오남읍 오남리 683-7번지 진주상가 114호","indutype":"의류 - 정장","category":"other"},{"name":"성훈종합설비","tel":"031-575-0312","addr":"경기도 남양주시 오남읍 오남리 683-7번지 진주종합상가","indutype":"건축자재 - 보일러·펌프·샷시","category":"other"},{"name":"엘리스","tel":"031-528-6263","addr":"경기도 남양주시 오남읍 오남리 683-7번지 진주상가 1층 121호","indutype":"신변잡화 - 신발","category":"other"},{"name":"월드컴","tel":"031-575-4936","addr":"경기도 남양주시 오남읍 오남리 683-7번지 진주상가 1동 139호","indutype":"사무통신 - 컴퓨터","category":"other"},{"name":"진주메리야스","tel":"031-575-5568","addr":"경기도 남양주시 오남읍 오남리 683-7번지 진주상가 진주메리야스 127호","indutype":"의류 - 내의판매","category":"other"},{"name":"진주설비","tel":"031-575-0088","addr":"경기도 남양주시 오남읍 오남리 683-7번지 1층 진주상가","indutype":"용역 서비스 - 종합용역","category":"other"},{"name":"쿠키빈","tel":"","addr":"경기도 남양주시 오남읍 오남리 683-7번지 진주상가 1층 130호","indutype":"서적문구 - 문구용품","category":"other"},{"name":"하이하이","tel":"031-551-1957","addr":"경기도 남양주시 오남읍 오남리 683-7번지 진주상가 109호","indutype":"의류 - 정장","category":"other"}]},{"lat":"37.690359743","long":"127.21447624","imageIndex":17,"items":[{"name":"꾸미고(GGUMIGO)","tel":"031-527-8896","addr":"경기도 남양주시 오남읍 오남리 203-18번지 한샘마트 1층 31호","indutype":"신변잡화 - 액세서리","category":"other"},{"name":"마이애미휘트니스클럽","tel":"031-528-0994","addr":"경기도 남양주시 오남읍 오남리 203-18번지 한샘마트 3층 205호","indutype":"회원제형태 - 기타4","category":"other"},{"name":"밍크","tel":"031-572-0472","addr":"경기도 남양주시 오남읍 오남리 203-18번지 한샘마트 지층 102호","indutype":"신변잡화 - 신발","category":"other"},{"name":"블링포유","tel":"","addr":"경기도 남양주시 오남읍 오남리 203-18번지","indutype":"신변잡화 - 기타잡화","category":"other"},{"name":"트라이","tel":"031-575-0780","addr":"경기도 남양주시 오남읍 오남리 203-18번지 105(오남리마트)","indutype":"의류 - 내의판매","category":"other"},{"name":"후니","tel":"031-111-1111","addr":"경기도 남양주시 오남읍 오남리 203-18 지하1층 B30-1호","indutype":"의류 - 정장","category":"other"}]},{"lat":"37.68499442","long":"127.21200091","imageIndex":17,"items":[{"name":"꿈꾸는아이","tel":"070-7556-0144","addr":"경기도 남양주시 오남읍 오남리 321-1번지 1층","indutype":"회원제형태 - 서적","category":"other"}]},{"lat":"37.678276026","long":"127.21041772","imageIndex":17,"items":[{"name":"눈꽃마녀","tel":"031-527-9309","addr":"경기도 남양주시 오남읍 오남리 454-1","indutype":"문화.취미 - 문화취미기타","category":"other"}]},{"lat":"37.694053546","long":"127.21455476","imageIndex":17,"items":[{"name":"다이따에어컨","tel":"","addr":"경기도 남양주시 오남읍 오남리 135-10번지 1층 4호","indutype":"용역 서비스 - 기타용역서비스","category":"other"}]},{"lat":"37.684609611","long":"127.21052605","imageIndex":17,"items":[{"name":"다이소 남양주오남점","tel":"031-528-6016","addr":"경기도 남양주시 오남읍 오남리 328번지","indutype":"신변잡화 - 기타잡화","category":"other"},{"name":"새룩스조명","tel":"031-527-3644","addr":"경기도 남양주시 오남읍 오남리 328번지","indutype":"건축자재 - 조명기구","category":"other"},{"name":"소파타운","tel":"031-575-4323","addr":"경기도 남양주시 오남읍 오남리 328번지 가비아쇼파전문매장","indutype":"가구 - 일반가구","category":"other"}]},{"lat":"37.680133278","long":"127.20969738","imageIndex":17,"items":[{"name":"대박공인중개사","tel":"031-874-2900","addr":"경기도 남양주시 오남읍 오남리 495-1번지","indutype":"용역 서비스 - 부동산 중개·임대","category":"other"}]},{"lat":"37.694691921","long":"127.21528223","imageIndex":17,"items":[{"name":"대산에스앤티산업","tel":"031-1111-1111","addr":"경기도 남양주시 오남읍 오남리 138-1번지 4층 406호","indutype":"건축자재 - 목재·석재·철물","category":"other"}]},{"lat":"37.679580558","long":"127.2114756","imageIndex":17,"items":[{"name":"대진기획","tel":"031-574-7792","addr":"경기도 남양주시 오남읍 오남리 412번지","indutype":"기타 - 기타 전문점","category":"other"}]},{"lat":"37.69316615","long":"127.21200118","imageIndex":17,"items":[{"name":"대한예수교장로회전인교회","tel":"031-574-7188","addr":"경기도 남양주시 오남읍 오남리 175-1외2필지","indutype":"기타 - 비영리/대상","category":"other"}]},{"lat":"37.679136776","long":"127.21277798","imageIndex":17,"items":[{"name":"더 D왈G #","tel":"031-527-3928","addr":"경기도 남양주시 오남읍 오남리 425번지 신일 상가 102호","indutype":"문화.취미 - 애완동물","category":"other"}]},{"lat":"37.696917589","long":"127.19952789","imageIndex":17,"items":[{"name":"더엔터프로모션","tel":"","addr":"경기도 남양주시 오남읍 오남리 891번지 오남아이파크 107동 502호","indutype":"용역 서비스 - 종합용역","category":"other"},{"name":"명품아이","tel":"070-7569-4820","addr":"경기도 남양주시 오남읍 오남리 891번지 오남아이파크 107동 1003호","indutype":"회원제형태 - 서적","category":"other"},{"name":"아이꺼","tel":"031-575-3488","addr":"경기도 남양주시 오남읍 오남리 891번지 오남아이파크 107동 1003호","indutype":"회원제형태 - 서적","category":"other"},{"name":"코리아딜라메게임즈","tel":"070-8860-1935","addr":"경기도 남양주시 오남읍 오남리 891번지 오남아이파크 107동 203호","indutype":"서적문구 - 일반서적","category":"other"}]},{"lat":"37.693720192","long":"127.21455382","imageIndex":17,"items":[{"name":"더원힐링카페","tel":"031-575-1004","addr":"경기도 남양주시 오남읍 오남리 131-12번지 황토침대전시장 2동","indutype":"의류 - 내의판매","category":"other"}]},{"lat":"37.695581818","long":"127.20622537","imageIndex":17,"items":[{"name":"동서가구","tel":"031-574-5300","addr":"경기도 남양주시 오남읍 오남리 756-1번지 라동","indutype":"가구 - 일반가구","category":"other"},{"name":"라벤나","tel":"031-575-3484","addr":"경기도 남양주시 오남읍 오남리 756-1","indutype":"가구 - 일반가구","category":"other"},{"name":"에몬스가구","tel":"031-574-5070","addr":"경기도 남양주시 오남읍 오남리 756-1번지","indutype":"가구 - 일반가구","category":"other"}]},{"lat":"37.687995114","long":"127.2117259","imageIndex":17,"items":[{"name":"동아앵글","tel":"031-575-7723","addr":"경기도 남양주시 오남읍 오남리 246번지","indutype":"건축자재 - 목재·석재·철물","category":"other"}]},{"lat":"37.690857177","long":"127.21341191","imageIndex":17,"items":[{"name":"동아오토바이","tel":"031-529-7573","addr":"경기도 남양주시 오남읍 오남리 205-19번지","indutype":"수리서비스 - 기타수리서비스","category":"other"}]},{"lat":"37.687048223","long":"127.21222208","imageIndex":17,"items":[{"name":"동인학당","tel":"031-575-0007","addr":"경기도 남양주시 오남읍 오남리 248번지","indutype":"서적문구 - 출판 및 인쇄물","category":"other"}]},{"lat":"37.694162109","long":"127.21430563","imageIndex":17,"items":[{"name":"두울레","tel":"070-4300-8571","addr":"경기도 남양주시 오남읍 오남리 135-8번지 3층","indutype":"용역 서비스 - 사무서비스","category":"other"}]},{"lat":"37.685413653","long":"127.20928124","imageIndex":17,"items":[{"name":"두원종합기계","tel":"031-513-3923","addr":"경기도 남양주시 오남읍 오남리 540-1번지","indutype":"기타 - 기계공구","category":"other"}]},{"lat":"37.695633661","long":"127.20224572","imageIndex":17,"items":[{"name":"디아이원 주식회사","tel":"031-0000-0000","addr":"경기도 남양주시 오남읍 오남리 765-3번지 두산아파트 203호","indutype":"용역 서비스 - 소프트웨어","category":"other"}]},{"lat":"37.678548759","long":"127.20902417","imageIndex":17,"items":[{"name":"디자인누크 주식회사","tel":"031-527-5329","addr":"경기도 남양주시 오남읍 오남리 475-8번지 신명프라자 106호","indutype":"용역 서비스 - 종합용역","category":"other"},{"name":"선견공예","tel":"031-574-1773","addr":"경기도 남양주시 오남읍 오남리 475-8번지 신명프라자 106호 b","indutype":"가구 - 일반가구","category":"other"},{"name":"신명체형관리","tel":"031-852-0330","addr":"경기도 남양주시 오남읍 오남리 475-8번지 신명프라자 B2층","indutype":"회원제형태 - 기타4","category":"other"},{"name":"오남하늘빛요양원","tel":"031-573-5501","addr":"경기도 남양주시 오남읍 오남리 475-8번지 신명프라자 101호","indutype":"기타의료기관 - 기타의료기관 및 기타","category":"other"},{"name":"임프레스 (IMPRESS)","tel":"031-000-0000","addr":"경기도 남양주시 오남읍 오남리 475-8번지 신명프라자 B103호","indutype":"의류 - 정장","category":"other"},{"name":"태현에너텍","tel":"031-593-9000","addr":"경기도 남양주시 오남읍 오남리 475-8번지 신명프라자 122호","indutype":"용역 서비스 - 기타용역서비스","category":"other"},{"name":"하연테크","tel":"070-7578-9629","addr":"경기도 남양주시 오남읍 오남리 475-8번지 신명프라자 지하1층 113호 비","indutype":"서적문구 - 과학기자재","category":"other"}]},{"lat":"37.685331932","long":"127.20964379","imageIndex":17,"items":[{"name":"디자인퍼니처 어반(URBAN)","tel":"031-591-0336","addr":"경기도 남양주시 오남읍 오남리 600번지 1층","indutype":"가구 - 기타가구","category":"other"}]},{"lat":"37.683325853","long":"127.21300518","imageIndex":17,"items":[{"name":"디자인피오피(DESIGN POP)","tel":"031-577-0743","addr":"경기도 남양주시 오남읍 오남리 315-1번지 유호아파트","indutype":"용역 서비스 - 사무서비스","category":"other"}]},{"lat":"37.679576863","long":"127.20844888","imageIndex":17,"items":[{"name":"똥강아지","tel":"031-528-9282","addr":"경기도 남양주시 오남읍 오남리 499번지 금명빌딩 1층","indutype":"문화.취미 - 애완동물","category":"other"},{"name":"쓰담쓰담","tel":"031-528-7988","addr":"경기도 남양주시 오남읍 오남리 499번지 금명빌딩 1층","indutype":"문화.취미 - 애완동물","category":"other"},{"name":"태양부동산 공인중개사사무소","tel":"031-574-8325","addr":"경기도 남양주시 오남읍 오남리 499번지 금명빌딩 1층","indutype":"용역 서비스 - 부동산 중개·임대","category":"other"}]},{"lat":"37.682079112","long":"127.20983882","imageIndex":17,"items":[{"name":"라벨르(La belle)","tel":"031-575-3831","addr":"경기도 남양주시 오남읍 오남리 525번지 나동 103호","indutype":"의류 - 정장","category":"other"},{"name":"시크플라워","tel":"031-575-9994","addr":"경기도 남양주시 오남읍 오남리 525번지","indutype":"의류 - 정장","category":"other"}]},{"lat":"37.682411151","long":"127.21058794","imageIndex":17,"items":[{"name":"러블리독","tel":"031-529-0386","addr":"경기도 남양주시 오남읍 오남리 345-1번지 가동 주1호","indutype":"문화.취미 - 애완동물","category":"other"},{"name":"지지","tel":"031-8034-6161","addr":"경기도 남양주시 오남읍 오남리 345-1번지","indutype":"의류 - 정장","category":"other"}]},{"lat":"37.694634172","long":"127.22222109","imageIndex":17,"items":[{"name":"레이나","tel":"031-575-5197","addr":"경기도 남양주시 오남읍 오남리 23-12번지","indutype":"용역 서비스 - 부동산 중개·임대","category":"other"}]},{"lat":"37.680662751","long":"127.21088915","imageIndex":17,"items":[{"name":"렌탈프로(rental professional)","tel":"031-529-8227","addr":"경기도 남양주시 오남읍 오남리 402-1번지","indutype":"용역 서비스 - 종합용역","category":"other"}]},{"lat":"37.685412879","long":"127.20972337","imageIndex":17,"items":[{"name":"로그인남양주오남점","tel":"031-445-9988","addr":"경기도 남양주시 오남읍 오남리 600-1번지","indutype":"유통업 영리 - 편 의 점","category":"other"}]},{"lat":"37.699269108","long":"127.21511386","imageIndex":17,"items":[{"name":"리버티벨","tel":"031-533-5888","addr":"경기도 남양주시 오남읍 오남리 98-4","indutype":"문화.취미 - 애완동물","category":"other"}]},{"lat":"37.682357393","long":"127.21041775","imageIndex":17,"items":[{"name":"리치랜드오남점","tel":"031-527-1445","addr":"경기도 남양주시 오남읍 오남리 346-5번지 1층","indutype":"직물 - 침구·수예점","category":"other"}]},{"lat":"37.691575405","long":"127.21483116","imageIndex":17,"items":[{"name":"메타","tel":"031-575-9375","addr":"경기도 남양주시 오남읍 오남리 191-4번지 1층","indutype":"가구 - 일반가구","category":"other"}]},{"lat":"37.685270274","long":"127.20361242","imageIndex":17,"items":[{"name":"메탈아트 에이치","tel":"031-527-3200","addr":"경기도 남양주시 오남읍 오남리 572-3번지 가동","indutype":"건축자재 - 목재·석재·철물","category":"other"}]},{"lat":"37.694551507","long":"127.21319559","imageIndex":17,"items":[{"name":"명사진관","tel":"031-575-3302","addr":"경기도 남양주시 오남읍 오남리 133-1번지 모던빌딩 1층","indutype":"광학제품 - 사진관","category":"other"}]},{"lat":"37.679857481","long":"127.20769014","imageIndex":17,"items":[{"name":"명품아이","tel":"070-7725-5694","addr":"경기도 남양주시 오남읍 오남리 503-4번지","indutype":"회원제형태 - 서적","category":"other"}]},{"lat":"37.678635632","long":"127.21086081","imageIndex":17,"items":[{"name":"모닉(monique)","tel":"","addr":"경기도 남양주시 오남읍 오남리 414번지","indutype":"의류 - 정장","category":"other"}]},{"lat":"37.694912294","long":"127.21296984","imageIndex":17,"items":[{"name":"모던광고","tel":"031-575-2982","addr":"경기도 남양주시 오남읍 오남리 133-1","indutype":"건축자재 - 인테리어전문","category":"other"},{"name":"한솔광고기획","tel":"031-527-4297","addr":"경기도 남양주시 오남읍 오남리 133-1","indutype":"건축자재 - 인테리어전문","category":"other"}]},{"lat":"37.686297999","long":"127.20847876","imageIndex":17,"items":[{"name":"무도인","tel":"031-593-1118","addr":"경기도 남양주시 오남읍 오남리 608-3번지","indutype":"레져용품 - 스포츠·레져용품","category":"other"}]},{"lat":"37.680719338","long":"127.20944961","imageIndex":17,"items":[{"name":"미니스톱남양주한신점","tel":"031-340-4261","addr":"경기도 남양주시 오남읍 오남리 494-12번지","indutype":"유통업 영리 - 편 의 점","category":"other"}]},{"lat":"37.695771702","long":"127.20582904","imageIndex":17,"items":[{"name":"미래종합장식","tel":"031-528-0631","addr":"경기도 남양주시 오남읍 오남리 749-2번지 다동","indutype":"직물 - 카페트,커튼,천막,지물","category":"other"}]},{"lat":"37.68130355","long":"127.21025611","imageIndex":17,"items":[{"name":"미소 디자인","tel":"031-573-4075","addr":"경기도 남양주시 오남읍 오남리 396-7번지","indutype":"건축자재 - 인테리어전문","category":"other"}]},{"lat":"37.688046844","long":"127.20266757","imageIndex":17,"items":[{"name":"민기획","tel":"031-000-0000","addr":"경기도 남양주시 오남읍 오남리 580-18번지","indutype":"건축자재 - 인테리어전문","category":"other"}]},{"lat":"37.696553186","long":"127.2071918","imageIndex":17,"items":[{"name":"백마크리닝 경기북부지사","tel":"","addr":"경기도 남양주시 오남읍 오남리 754-1번지 3동 1층","indutype":"수리서비스 - 세탁소","category":"other"},{"name":"아로맨틱(Aromantic)","tel":"031-853-0716","addr":"경기도 남양주시 오남읍 오남리 754-1번지 3호","indutype":"가구 - 기타가구","category":"other"},{"name":"유앤미 모바일","tel":"031-575-1965","addr":"경기도 남양주시 오남읍 오남리 754-1번지","indutype":"사무통신 - 통신기기","category":"other"}]},{"lat":"37.678832802","long":"127.21145083","imageIndex":17,"items":[{"name":"백마크리닝(남양주11호점)","tel":"","addr":"경기도 남양주시 오남읍 오남리 415-1번지 위너스프라자 1층 3호","indutype":"수리서비스 - 세탁소","category":"other"}]},{"lat":"37.684138609","long":"127.21194183","imageIndex":17,"items":[{"name":"브랜드멀티샵","tel":"031-571-2812","addr":"경기도 남양주시 오남읍 오남리 318-2 외7필지가동102,103호","indutype":"레져용품 - 스포츠·레져용품","category":"other"}]},{"lat":"37.685969219","long":"127.20583634","imageIndex":17,"items":[{"name":"비에이비(BAB)","tel":"070-8884-4070","addr":"경기도 남양주시 오남읍 오남리 591-10번지 나동 2층 301호","indutype":"농업 - 비료,사료,종자","category":"other"},{"name":"트윈전자","tel":"031-556-2571","addr":"경기도 남양주시 오남읍 오남리 591-10번지 2층","indutype":"수리서비스 - 사무·통신기기수리","category":"other"}]},{"lat":"37.689192161","long":"127.21242084","imageIndex":17,"items":[{"name":"비올라","tel":"031-575-8305","addr":"경기도 남양주시 오남읍 오남리 683-27번지 대웅프라자 203호","indutype":"의류 - 정장","category":"other"},{"name":"샘물(남양주진접지점)","tel":"031-575-8842","addr":"경기도 남양주시 오남읍 오남리 683-27번지 대웅 상가 115호","indutype":"유통업 영리 - 기타유통업","category":"other"},{"name":"애미피부관리","tel":"031-529-4660","addr":"경기도 남양주시 오남읍 오남리 683-27번지 대웅 상가 215호","indutype":"회원제형태 - 기타4","category":"other"},{"name":"오남열쇠","tel":"031-574-6490","addr":"경기도 남양주시 오남읍 오남리 685-27번지 대웅상가 110호","indutype":"수리서비스 - 기타수리서비스","category":"other"},{"name":"위드미 남양주진주점","tel":"","addr":"경기도 남양주시 오남읍 오남리 683-27번지 대웅프라자 205호 204호, 205호","indutype":"유통업 영리 - 편 의 점","category":"other"},{"name":"천사드리","tel":"070-7553-0505","addr":"경기도 남양주시 오남읍 오남리 683-27번지 대동프라자 2층 206호","indutype":"신변잡화 - 신발","category":"other"}]},{"lat":"37.687356956","long":"127.21086249","imageIndex":17,"items":[{"name":"비타민","tel":"031-527-2422","addr":"경기도 남양주시 오남읍 오남리 243","indutype":"의류 - 기타의류","category":"other"},{"name":"퍼피조아(PUPPYJOA)","tel":"031-000-0000","addr":"경기도 남양주시 오남읍 오남리 243번지 1층 106호","indutype":"문화.취미 - 애완동물","category":"other"}]},{"lat":"37.687608383","long":"127.21133935","imageIndex":17,"items":[{"name":"빛과그림사진관","tel":"031-574-1005","addr":"경기도 남양주시 오남읍 오남리 245-3번지","indutype":"광학제품 - 사진관","category":"other"},{"name":"씽씽공조","tel":"070-8197-1010","addr":"경기도 남양주시 오남읍 오남리 245-3번지 1층","indutype":"전기제품 - 냉열기기","category":"other"},{"name":"한양수도설비누수탐지화장실공사","tel":"031-527-3504","addr":"경기도 남양주시 오남읍 오남리 245-3번지","indutype":"수리서비스 - 기타수리서비스","category":"other"}]},{"lat":"37.692384919","long":"127.20002613","imageIndex":17,"items":[{"name":"사계절다육농장","tel":"031-511-7167","addr":"경기도 남양주시 오남읍 오남리 796-3번지","indutype":"회원제형태 - 기타4","category":"other"}]},{"lat":"37.681664829","long":"127.20974698","imageIndex":17,"items":[{"name":"사라","tel":"031-573-7939","addr":"경기도 남양주시 오남읍 오남리 490-1번지 1층","indutype":"의류 - 정장","category":"other"},{"name":"찢어진 청바지","tel":"","addr":"경기도 남양주시 오남읍 오남리 490-1번지 5호","indutype":"의류 - 정장","category":"other"}]},{"lat":"37.684797973","long":"127.21100272","imageIndex":17,"items":[{"name":"삼정인퍼스사무용가구","tel":"031-574-3030","addr":"경기도 남양주시 오남읍 오남리 326-2번지","indutype":"가구 - 일반가구","category":"other"}]},{"lat":"37.690468633","long":"127.19836576","imageIndex":17,"items":[{"name":"삼호하이테크","tel":"031-572-1844","addr":"경기도 남양주시 오남읍 오남리 845번지","indutype":"전기제품 - 냉열기기","category":"other"}]},{"lat":"37.694074","long":"127.21319424","imageIndex":17,"items":[{"name":"상봉꽃농원","tel":"031-527-7685","addr":"경기도 남양주시 오남읍 오남리 131-10","indutype":"문화.취미 - 화원","category":"other"},{"name":"풀잎사랑화원","tel":"031-574-9649","addr":"경기도 남양주시 오남읍 오남리 131-10","indutype":"문화.취미 - 화원","category":"other"}]},{"lat":"37.681636626","long":"127.21041574","imageIndex":17,"items":[{"name":"새한인테리어","tel":"031-528-9950","addr":"경기도 남양주시 오남읍 오남리 489-7번지","indutype":"건축자재 - 인테리어전문","category":"other"},{"name":"원준통신","tel":"031-000-0000","addr":"경기도 남양주시 오남읍 오남리 489-7번지 (상가 2호)","indutype":"사무통신 - 통신기기","category":"other"}]},{"lat":"37.696553059","long":"127.20199874","imageIndex":17,"items":[{"name":"성안유통","tel":"031-573-6980","addr":"경기도 남양주시 오남읍 오남리 761번지 301호","indutype":"유통업 영리 - 기타유통업","category":"other"},{"name":"퍼피보이스","tel":"","addr":"경기도 남양주시 오남읍 오남리 761번지 401호","indutype":"문화.취미 - 애완동물","category":"other"}]},{"lat":"37.687131616","long":"127.21091855","imageIndex":17,"items":[{"name":"세븐일레븐남양주오남진주점","tel":"031-1577-0711","addr":"경기도 남양주시 오남읍 오남리 258번지 1층,105호","indutype":"유통업 영리 - 편 의 점","category":"other"}]},{"lat":"37.678492994","long":"127.20999889","imageIndex":17,"items":[{"name":"세천사애드","tel":"031-571-3405","addr":"경기도 남양주시 오남읍 오남리 454-10번지 207호","indutype":"용역 서비스 - 종합용역","category":"other"},{"name":"여우네","tel":"","addr":"경기도 남양주시 오남읍 오남리 454-10번지 청구행복프라자 102호","indutype":"수리서비스 - 세탁소","category":"other"}]},{"lat":"37.69735782","long":"127.19481216","imageIndex":17,"items":[{"name":"셀라산업","tel":"031-573-6264","addr":"경기도 남양주시 오남읍 오남리 886번지","indutype":"직물 - 카페트,커튼,천막,지물","category":"other"}]},{"lat":"37.682797784","long":"127.21103114","imageIndex":17,"items":[{"name":"솔목씽크","tel":"031-571-5133","addr":"경기도 남양주시 오남읍 오남리 342-4번지","indutype":"주방용구 - 주방용구","category":"other"}]},{"lat":"37.677577166","long":"127.20819398","imageIndex":17,"items":[{"name":"수윤유통","tel":"","addr":"경기도 남양주시 오남읍 오남리 464번지 남양주오남리금호어울림","indutype":"유통업 영리 - 기타유통업","category":"other"},{"name":"히어롯(HEROT)","tel":"031-529-5040","addr":"경기도 남양주시 오남읍 오남리 464번지 남양주오남리금호어울림 상가동 3층 306호","indutype":"의류 - 정장","category":"other"}]},{"lat":"37.682276067","long":"127.21055356","imageIndex":17,"items":[{"name":"스마트데이터복구 SDR남양주센터","tel":"031-575-3711","addr":"경기도 남양주시 오남읍 오남리 346-4번지 지하1층","indutype":"용역 서비스 - 사무서비스","category":"other"}]},{"lat":"37.695409343","long":"127.20697323","imageIndex":17,"items":[{"name":"신체장애인복지회부설대림환경","tel":"031-574-0360","addr":"경기도 남양주시 오남읍 오남리 749-1 보영상가지층 101","indutype":"용역 서비스 - 종합용역","category":"other"}]},{"lat":"37.678798144","long":"127.21066856","imageIndex":17,"items":[{"name":"썬 시스템","tel":"031-513-6050","addr":"경기도 남양주시 오남읍 오남리 413-3번지 가동","indutype":"신변잡화 - 가방","category":"other"}]},{"lat":"37.683639141","long":"127.20906093","imageIndex":17,"items":[{"name":"썬크린세탁전문점","tel":"031-574-7681","addr":"경기도 남양주시 오남읍 오남리 532-4번지","indutype":"수리서비스 - 세탁소","category":"other"}]},{"lat":"37.685220161","long":"127.21171812","imageIndex":17,"items":[{"name":"씨유오남대한점","tel":"031-510-0597","addr":"경기도 남양주시 오남읍 오남리 321-2번지 106호","indutype":"유통업 영리 - 편 의 점","category":"other"},{"name":"피누트리","tel":"031-573-1810","addr":"경기도 남양주시 오남읍 오남리 321-2번지","indutype":"신변잡화 - 기타잡화","category":"other"}]},{"lat":"37.696548291","long":"127.19947022","imageIndex":17,"items":[{"name":"씨유오남아이파크점","tel":"080-080-3663","addr":"경기도 남양주시 오남읍 오남리 891번지 오남아이파크 상가동 105, 106호","indutype":"유통업 영리 - 편 의 점","category":"other"}]},{"lat":"37.686803189","long":"127.21321906","imageIndex":17,"items":[{"name":"씨유오남파라다이스빌점","tel":"080-080-3663","addr":"경기도 남양주시 오남읍 오남리 250번지 오남리파라다이스빌아파트 104호","indutype":"유통업 영리 - 편 의 점","category":"other"}]},{"lat":"37.696807445","long":"127.20074083","imageIndex":17,"items":[{"name":"아레스정보통신","tel":"070-4799-9910","addr":"경기도 남양주시 오남읍 오남리 891번지 오남아이파크 105동 702호","indutype":"사무통신 - 통신기기","category":"other"}]},{"lat":"37.685409139","long":"127.20669642","imageIndex":17,"items":[{"name":"아름다운,욕실,타일","tel":"031-528-4624","addr":"경기도 남양주시 오남읍 오남리 593-12번지","indutype":"건축자재 - 건축용 요업제품","category":"other"}]},{"lat":"37.688135974","long":"127.2084725","imageIndex":17,"items":[{"name":"아이씽크","tel":"031-529-8201","addr":"경기도 남양주시 오남읍 오남리 623-7번지","indutype":"가구 - 일반가구","category":"other"}]},{"lat":"37.693052461","long":"127.19952902","imageIndex":17,"items":[{"name":"알바트로스소파","tel":"031-574-3311","addr":"경기도 남양주시 오남읍 오남리 775-1번지 (경복프라자101,102-1호)","indutype":"가구 - 일반가구","category":"other"}]},{"lat":"37.680055692","long":"127.20769068","imageIndex":17,"items":[{"name":"애견갤러리","tel":"031-573-8517","addr":"경기도 남양주시 오남읍 오남리 503-3번지","indutype":"문화.취미 - 애완동물","category":"other"}]},{"lat":"37.687166733","long":"127.21144015","imageIndex":17,"items":[{"name":"애견마을","tel":"031-529-0421","addr":"경기도 남양주시 오남읍 오남리 247-4번지","indutype":"문화.취미 - 애완동물","category":"other"}]},{"lat":"37.689299349","long":"127.21294267","imageIndex":17,"items":[{"name":"애플팩토리","tel":"031-529-4062","addr":"경기도 남양주시 오남읍 오남리 201번지 B동","indutype":"수리서비스 - 사무·통신기기수리","category":"other"},{"name":"제일오토바이","tel":"031-575-1889","addr":"경기도 남양주시 오남읍 오남리 201번지 C동 5호","indutype":"수리서비스 - 레져용품수리","category":"other"},{"name":"펫클럽(오남점)","tel":"031-516-2888","addr":"경기도 남양주시 오남읍 오남리 201번지","indutype":"문화.취미 - 애완동물","category":"other"},{"name":"핸드폰가게 오남","tel":"031-574-3622","addr":"경기도 남양주시 오남읍 오남리 201번지 1층 4호","indutype":"사무통신 - 통신기기","category":"other"}]},{"lat":"37.689935825","long":"127.19911264","imageIndex":17,"items":[{"name":"에스엠테크","tel":"031-515-2891","addr":"경기도 남양주시 오남읍 오남리 844-7번지 1층","indutype":"주방용구 - 주방용구","category":"other"}]},{"lat":"37.688885392","long":"127.2126694","imageIndex":17,"items":[{"name":"에코상사","tel":"070-4567-4444","addr":"경기도 남양주시 오남읍 오남리 201-2번지 104호","indutype":"건축자재 - 인테리어전문","category":"other"}]},{"lat":"37.681239185","long":"127.21099278","imageIndex":17,"items":[{"name":"엘에스아이공조","tel":"","addr":"경기도 남양주시 오남읍 오남리 396-2번지 신화그린빌 B동 403호","indutype":"용역 서비스 - 기타용역서비스","category":"other"}]},{"lat":"37.678664952","long":"127.20955727","imageIndex":17,"items":[{"name":"엠에스(MS)노래뮤비방","tel":"031-527-3784","addr":"경기도 남양주시 오남읍 오남리 476-2번지 지층 101호","indutype":"용역 서비스 - 종합용역","category":"other"}]},{"lat":"37.681217406","long":"127.2131126","imageIndex":17,"items":[{"name":"연우에어컨","tel":"","addr":"경기도 남양주시 오남읍 오남리 386-14번지 오투빌 102동 202호","indutype":"용역 서비스 - 기타용역서비스","category":"other"}]},{"lat":"37.692078858","long":"127.19986659","imageIndex":17,"items":[{"name":"열매교육","tel":"031-527-8290","addr":"경기도 남양주시 오남읍 오남리 835-7번지","indutype":"서적문구 - 출판 및 인쇄물","category":"other"}]},{"lat":"37.682717677","long":"127.21047543","imageIndex":17,"items":[{"name":"영통신","tel":"031-573-3300","addr":"경기도 남양주시 오남읍 오남리 344-13번지","indutype":"사무통신 - 통신기기","category":"other"}]},{"lat":"37.694914444","long":"127.20660905","imageIndex":17,"items":[{"name":"예은방","tel":"031-575-9886","addr":"경기도 남양주시 오남읍 오남리 732-3","indutype":"가구 - 일반가구","category":"other"}]},{"lat":"37.681637442","long":"127.20995095","imageIndex":17,"items":[{"name":"오남BYC","tel":"031-516-5495","addr":"경기도 남양주시 오남읍 오남리 490-17번지 1호","indutype":"의류 - 내의판매","category":"other"}]},{"lat":"37.691191151","long":"127.20269868","imageIndex":17,"items":[{"name":"오남LED전기조명","tel":"031-575-0725","addr":"경기도 남양주시 오남읍 오남리 826-8번지","indutype":"건축자재 - 조명기구","category":"other"}]},{"lat":"37.690855981","long":"127.21408083","imageIndex":17,"items":[{"name":"오남그릇","tel":"031-575-0997","addr":"경기도 남양주시 오남읍 오남리 203-9번지","indutype":"주방용구 - 주방용식기","category":"other"}]},{"lat":"37.687828579","long":"127.20908386","imageIndex":17,"items":[{"name":"오남상사","tel":"031-528-8844","addr":"경기도 남양주시 오남읍 오남리 620-3","indutype":"건축자재 - 기타건축자재","category":"other"}]},{"lat":"37.693135737","long":"127.20880376","imageIndex":17,"items":[{"name":"오남에어컨","tel":"","addr":"경기도 남양주시 오남읍 오남리 730-3번지","indutype":"용역 서비스 - 기타용역서비스","category":"other"}]},{"lat":"37.692157912","long":"127.20107995","imageIndex":17,"items":[{"name":"오남종합기계","tel":"031-528-7700","addr":"경기도 남양주시 오남읍 오남리 799-2번지 가동 104호","indutype":"기타 - 기계공구","category":"other"},{"name":"천마광고","tel":"","addr":"경기도 남양주시 오남읍 오남리 799-2번지 나동 101호","indutype":"건축자재 - 인테리어전문","category":"other"}]},{"lat":"37.692441168","long":"127.20927804","imageIndex":17,"items":[{"name":"오남중고가전","tel":"070-7570-7580","addr":"경기도 남양주시 오남읍 오남리 706번지 1동","indutype":"전기제품 - 가전제품","category":"other"}]},{"lat":"37.701247046","long":"127.21742137","imageIndex":17,"items":[{"name":"오남플라워가든","tel":"031-573-8275","addr":"경기도 남양주시 오남읍 오남리 88-1번지","indutype":"문화.취미 - 화원","category":"other"}]},{"lat":"37.685881417","long":"127.20449834","imageIndex":17,"items":[{"name":"오성유리","tel":"031-574-7678","addr":"경기도 남양주시 오남읍 오남리 592-3번지","indutype":"건축자재 - 유리","category":"other"}]},{"lat":"37.68485291","long":"127.21050406","imageIndex":17,"items":[{"name":"오케이인테리어","tel":"031-516-5400","addr":"경기도 남양주시 오남읍 오남리 325","indutype":"건축자재 - 인테리어전문","category":"other"},{"name":"윈디 가방","tel":"","addr":"경기도 남양주시 오남읍 오남리 325번지 1층","indutype":"신변잡화 - 가방","category":"other"},{"name":"플로롱","tel":"","addr":"경기도 남양주시 오남읍 오남리 325번지 1층 102호","indutype":"문화.취미 - 화원","category":"other"}]},{"lat":"37.694663891","long":"127.21583772","imageIndex":17,"items":[{"name":"온누리요양원","tel":"031-529-7791","addr":"경기도 남양주시 오남읍 오남리 123번지","indutype":"기타의료기관 - 기타의료기관 및 기타","category":"other"}]},{"lat":"37.686273098","long":"127.2072543","imageIndex":17,"items":[{"name":"올드뮤직","tel":"031-529-2306","addr":"경기도 남양주시 오남읍 오남리 594-7","indutype":"레져용품 - 악기점","category":"other"},{"name":"이현시스템","tel":"031-575-0482","addr":"경기도 남양주시 오남읍 오남리 594-7번지","indutype":"건축자재 - 기타건축자재","category":"other"}]},{"lat":"37.680383993","long":"127.21058229","imageIndex":17,"items":[{"name":"올리브","tel":"031-527-1003","addr":"경기도 남양주시 오남읍 오남리 404번지 104호","indutype":"의류 - 정장","category":"other"}]},{"lat":"37.698882207","long":"127.21482929","imageIndex":17,"items":[{"name":"우드빈","tel":"070-7583-3124","addr":"경기도 남양주시 오남읍 오남리 98-1번지","indutype":"가구 - 일반가구","category":"other"}]},{"lat":"37.678465368","long":"127.21033889","imageIndex":17,"items":[{"name":"우리동네부동산중개","tel":"031-593-7001","addr":"경기도 남양주시 오남읍 오남리 454-12번지 103호","indutype":"용역 서비스 - 부동산 중개·임대","category":"other"}]},{"lat":"37.678745633","long":"127.21486268","imageIndex":17,"items":[{"name":"우리마트","tel":"031-575-1288","addr":"경기도 남양주시 오남읍 오남리 426번지 신일2단지 101호","indutype":"유통업 영리 - 연 쇄 점","category":"other"}]},{"lat":"37.696300503","long":"127.20216814","imageIndex":17,"items":[{"name":"워시테리아 남양주 오남점","tel":"","addr":"경기도 남양주시 오남읍 오남리 784-26번지 1층 101호","indutype":"수리서비스 - 세탁소","category":"other"}]},{"lat":"37.68282672","long":"127.20475082","imageIndex":17,"items":[{"name":"위드미한양병원점","tel":"031-575-1104","addr":"경기도 남양주시 오남읍 오남리 570 남양주한양병원내1층","indutype":"유통업 영리 - 편 의 점","category":"other"}]},{"lat":"37.683297865","long":"127.20843647","imageIndex":17,"items":[{"name":"유앤지","tel":"031-527-2301","addr":"경기도 남양주시 오남읍 오남리 887번지 신동아파밀리에아파 102동 8층 802호","indutype":"용역 서비스 - 기타용역서비스","category":"other"}]},{"lat":"37.694131488","long":"127.22122184","imageIndex":17,"items":[{"name":"은항아리스파랜드","tel":"031-527-0048","addr":"경기도 남양주시 오남읍 오남리 30-5번지 외7필지","indutype":"회원제형태 - 기타4","category":"other"}]},{"lat":"37.687746381","long":"127.20971852","imageIndex":17,"items":[{"name":"이누테크","tel":"031-573-4337","addr":"경기도 남양주시 오남읍 오남리 622-1번지 102호","indutype":"기타 - 기계공구","category":"other"}]},{"lat":"37.694968032","long":"127.22194995","imageIndex":17,"items":[{"name":"이마트24 오남레이나호텔점/(주)레이나컴퍼","tel":"031-575-5197","addr":"경기도 남양주시 오남읍 오남리 23-12번지 나동 202호","indutype":"유통업 영리 - 편 의 점","category":"other"}]},{"lat":"37.696580547","long":"127.20172668","imageIndex":17,"items":[{"name":"이마트24 오남아이파크점","tel":"","addr":"경기도 남양주시 오남읍 오남리 761-52번지","indutype":"유통업 영리 - 편 의 점","category":"other"}]},{"lat":"37.694608921","long":"127.20614334","imageIndex":17,"items":[{"name":"이마트24 진건오남로","tel":"","addr":"경기도 남양주시 오남읍 오남리 739-17번지","indutype":"유통업 영리 - 편 의 점","category":"other"}]},{"lat":"37.686130771","long":"127.21135789","imageIndex":17,"items":[{"name":"이브자리 오남점","tel":"031-574-1631","addr":"경기도 남양주시 오남읍 오남리 264-5","indutype":"직물 - 침구·수예점","category":"other"}]},{"lat":"37.68377152","long":"127.21063708","imageIndex":17,"items":[{"name":"임금님표 황토숯 침대","tel":"031-574-0002","addr":"경기도 남양주시 오남읍 오남리 535-6번지","indutype":"가구 - 일반가구","category":"other"}]},{"lat":"37.676858857","long":"127.2119214","imageIndex":17,"items":[{"name":"임마누엘 (에누리기프트)","tel":"031-1566-4586","addr":"경기도 남양주시 오남읍 오남리 439번지 신우아이딜아파트","indutype":"유통업 영리 - 기타유통업","category":"other"}]},{"lat":"37.688940779","long":"127.20677411","imageIndex":17,"items":[{"name":"자연인","tel":"031-574-5744","addr":"경기도 남양주시 오남읍 오남리 642-3","indutype":"신변잡화 - 기타잡화","category":"other"}]},{"lat":"37.68988606","long":"127.2123321","imageIndex":17,"items":[{"name":"작은공간","tel":"031-552-3095","addr":"경기도 남양주시 오남읍 오남리 683-36 진주상가1-30","indutype":"의류 - 정장","category":"other"}]},{"lat":"37.691161616","long":"127.21446718","imageIndex":17,"items":[{"name":"전인정보통신","tel":"031-575-2181","addr":"경기도 남양주시 오남읍 오남리 203-2번지 1층 101호","indutype":"사무통신 - 통신기기","category":"other"},{"name":"짝 뮤비영상제작실","tel":"031-574-9993","addr":"경기도 남양주시 오남읍 오남리 203-2번지 2층","indutype":"용역 서비스 - 종합용역","category":"other"},{"name":"카케로아","tel":"031-575-5949","addr":"경기도 남양주시 오남읍 오남리 203-2번지 103호","indutype":"건축자재 - 조명기구","category":"other"},{"name":"토브상사","tel":"031-529-8585","addr":"경기도 남양주시 오남읍 오남리 203-2번지","indutype":"건축자재 - 페인트","category":"other"}]},{"lat":"37.693910593","long":"127.22372693","imageIndex":17,"items":[{"name":"정가원","tel":"031-575-9112","addr":"경기도 남양주시 오남읍 오남리 23-5번지","indutype":"기타의료기관 - 기타의료기관 및 기타","category":"other"}]},{"lat":"37.686852451","long":"127.20566869","imageIndex":17,"items":[{"name":"제이엔에스환경","tel":"031-574-4118","addr":"경기도 남양주시 오남읍 오남리 590-1","indutype":"용역 서비스 - 종합용역","category":"other"}]},{"lat":"37.678722154","long":"127.20775503","imageIndex":17,"items":[{"name":"제일공업","tel":"031-574-7334","addr":"경기도 남양주시 오남읍 오남리 474-3번지","indutype":"레져용품 - 스포츠·레져용품","category":"other"}]},{"lat":"37.677243467","long":"127.21349813","imageIndex":17,"items":[{"name":"조안드림닷컴","tel":"031-568-6170","addr":"경기도 남양주시 오남읍 오남리 429번지 108-1401(신우아이딜1차아108동1401호~1401호)","indutype":"회원제형태 - 기타1","category":"other"}]},{"lat":"37.697328733","long":"127.21192216","imageIndex":17,"items":[{"name":"주식회사 루프트케어","tel":"031-8080-2247","addr":"경기도 남양주시 오남읍 오남리 108-29번지 나동 2층","indutype":"전기제품 - 기타전기제품","category":"other"}]},{"lat":"37.685771203","long":"127.20572243","imageIndex":17,"items":[{"name":"주식회사 보아스","tel":"031-564-1170","addr":"경기도 남양주시 오남읍 오남리 591-24번지 나동 1층","indutype":"가구 - 일반가구","category":"other"}]},{"lat":"37.684357243","long":"127.21058203","imageIndex":17,"items":[{"name":"주식회사 엠에스텔레콤","tel":"031-575-5011","addr":"경기도 남양주시 오남읍 오남리 329번지","indutype":"사무통신 - 통신기기","category":"other"}]},{"lat":"37.690714813","long":"127.2020058","imageIndex":17,"items":[{"name":"주식회사 영림","tel":"031-574-0508","addr":"경기도 남양주시 오남읍 오남리 823-2번지","indutype":"의류 - 정장","category":"other"}]},{"lat":"37.688799961","long":"127.20483503","imageIndex":17,"items":[{"name":"주식회사 율컴퍼니","tel":"031-575-5295","addr":"경기도 남양주시 오남읍 오남리 583-7번지","indutype":"의류 - 아동의류","category":"other"}]},{"lat":"37.691520926","long":"127.19946829","imageIndex":17,"items":[{"name":"주식회사 이룸","tel":"070-4639-6011","addr":"경기도 남양주시 오남읍 오남리 836-14번지","indutype":"용역 서비스 - 기타용역서비스","category":"other"}]},{"lat":"37.682742986","long":"127.21145044","imageIndex":17,"items":[{"name":"주식회사 파미고","tel":"070-7017-3399","addr":"경기도 남양주시 오남읍 오남리 350번지","indutype":"레져용품 - 스포츠·레져용품","category":"other"}]},{"lat":"37.697495812","long":"127.21422439","imageIndex":17,"items":[{"name":"주식회사금산윈테크","tel":"031-574-9141","addr":"경기도 남양주시 오남읍 오남리 107","indutype":"기타 - 기계공구","category":"other"}]},{"lat":"37.688300531","long":"127.20182929","imageIndex":17,"items":[{"name":"주식회사알로텍","tel":"031-555-7308","addr":"경기도 남양주시 오남읍 오남리 580-10","indutype":"기타의료기관 - 기타의료기관 및 기타","category":"other"}]},{"lat":"37.678966808","long":"127.20695086","imageIndex":17,"items":[{"name":"중소기업가구","tel":"031-1529-4692","addr":"경기도 남양주시 오남읍 오남리 470번지","indutype":"가구 - 일반가구","category":"other"}]},{"lat":"37.683411316","long":"127.21053405","imageIndex":17,"items":[{"name":"창성철물건재","tel":"031-529-5552","addr":"경기도 남양주시 오남읍 오남리 333-1번지","indutype":"건축자재 - 목재·석재·철물","category":"other"}]},{"lat":"37.695022402","long":"127.20670005","imageIndex":17,"items":[{"name":"창진하우징디자인공방","tel":"02-934-2301","addr":"경기도 남양주시 오남읍 오남리 742번지","indutype":"용역 서비스 - 기타용역서비스","category":"other"}]},{"lat":"37.69616536","long":"127.20216778","imageIndex":17,"items":[{"name":"채널미디어","tel":"02-302-9830","addr":"경기도 남양주시 오남읍 오남리 784-15번지 402호","indutype":"용역 서비스 - 사무서비스","category":"other"}]},{"lat":"37.686416012","long":"127.20796892","imageIndex":17,"items":[{"name":"초이스소파","tel":"031-575-1588","addr":"경기도 남양주시 오남읍 오남리 609-2번지","indutype":"가구 - 일반가구","category":"other"}]},{"lat":"37.687614698","long":"127.21285856","imageIndex":17,"items":[{"name":"칼의 명장 가위 명장","tel":"070-5646-2244","addr":"경기도 남양주시 오남읍 오남리 250번지 파라다이스빌 103동 102호","indutype":"수리서비스 - 기타수리서비스","category":"other"}]},{"lat":"37.6806368","long":"127.21027692","imageIndex":17,"items":[{"name":"컴닥터","tel":"031-527-3119","addr":"경기도 남양주시 오남읍 오남리 481번지 1층","indutype":"사무통신 - 컴퓨터","category":"other"}]},{"lat":"37.684771995","long":"127.2052209","imageIndex":17,"items":[{"name":"케이슈퍼실러","tel":"031-527-5177","addr":"경기도 남양주시 오남읍 오남리 572-33번지 1동","indutype":"기타 - 기계공구","category":"other"}]},{"lat":"37.685636059","long":"127.20572207","imageIndex":17,"items":[{"name":"킨 블라인드","tel":"070-8877-3336","addr":"경기도 남양주시 오남읍 오남리 591-5번지 나동 202호","indutype":"직물 - 카페트,커튼,천막,지물","category":"other"}]},{"lat":"37.688830008","long":"127.20830435","imageIndex":17,"items":[{"name":"탑스크린골프연습장","tel":"031-575-4422","addr":"경기도 남양주시 오남읍 오남리 616-1","indutype":"회원제형태 - 레져업소","category":"other"}]},{"lat":"37.690694153","long":"127.21388763","imageIndex":17,"items":[{"name":"토마토","tel":"031-575-0780","addr":"경기도 남양주시 오남읍 오남리 203-7 지하 103","indutype":"의류 - 정장","category":"other"}]},{"lat":"37.68138587","long":"127.20955349","imageIndex":17,"items":[{"name":"투애니원(2NE1)","tel":"031-574-3413","addr":"경기도 남양주시 오남읍 오남리 490-15번지","indutype":"신변잡화 - 액세서리","category":"other"}]},{"lat":"37.693358158","long":"127.21547117","imageIndex":17,"items":[{"name":"트루 바이오톱(True Biotope)","tel":"","addr":"경기도 남양주시 오남읍 오남리 129-10번지 103호","indutype":"문화.취미 - 수족관","category":"other"}]},{"lat":"37.690936823","long":"127.21421711","imageIndex":17,"items":[{"name":"팡팡노래뮤비방","tel":"070-8959-0368","addr":"경기도 남양주시 오남읍 오남리 203-16번지 지층","indutype":"용역 서비스 - 종합용역","category":"other"}]},{"lat":"37.684969155","long":"127.2110032","imageIndex":17,"items":[{"name":"폰세상휴대폰백화점","tel":"031-527-6001","addr":"경기도 남양주시 오남읍 오남리 326번지","indutype":"사무통신 - 통신기기","category":"other"}]},{"lat":"37.680718265","long":"127.21006176","imageIndex":17,"items":[{"name":"프라임기획","tel":"031-573-9184","addr":"경기도 남양주시 오남읍 오남리 493-8번지","indutype":"용역 서비스 - 종합용역","category":"other"}]},{"lat":"37.696248737","long":"127.20080738","imageIndex":17,"items":[{"name":"피엘컴퍼니","tel":"070-7677-8333","addr":"경기도 남양주시 오남읍 오남리 891번지 오남아이파크 104동 802호","indutype":"용역 서비스 - 종합용역","category":"other"}]},{"lat":"37.693357503","long":"127.21583399","imageIndex":17,"items":[{"name":"하나수족관","tel":"031-515-5155","addr":"경기도 남양주시 오남읍 오남리 128-3번지 외2필지 1층","indutype":"문화.취미 - 수족관","category":"other"}]},{"lat":"37.679409977","long":"127.21113504","imageIndex":17,"items":[{"name":"하늘디자인","tel":"031-516-2500","addr":"경기도 남양주시 오남읍 오남리 412-2번지","indutype":"용역 서비스 - 종합용역","category":"other"}]},{"lat":"37.687769141","long":"127.20699765","imageIndex":17,"items":[{"name":"한국기업","tel":"031-558-1181","addr":"경기도 남양주시 오남읍 오남리 612번지","indutype":"용역 서비스 - 종합용역","category":"other"}]},{"lat":"37.685996748","long":"127.21072265","imageIndex":17,"items":[{"name":"한양종합가구","tel":"031-575-0009","addr":"경기도 남양주시 오남읍 오남리 263-2번지","indutype":"가구 - 일반가구","category":"other"}]},{"lat":"37.678192539","long":"127.21177778","imageIndex":17,"items":[{"name":"해승","tel":"02-3392-0285","addr":"경기도 남양주시 오남읍 오남리 419번지 카사빌라","indutype":"건축자재 - 인테리어전문","category":"other"}]},{"lat":"37.68643321","long":"127.21354679","imageIndex":17,"items":[{"name":"행운시스템","tel":"031-569-9827","addr":"경기도 남양주시 오남읍 오남리 250번지 파라다이스빌 106동 905호","indutype":"전기제품 - 기타전기제품","category":"other"}]},{"lat":"37.6882161","long":"127.20380175","imageIndex":17,"items":[{"name":"홍익에듀컴퍼니","tel":"031-529-5648","addr":"경기도 남양주시 오남읍 오남리 582번지","indutype":"사무통신 - 기타 사무용품","category":"other"}]},{"lat":"37.693831962","long":"127.22241147","imageIndex":17,"items":[{"name":"효가원","tel":"070-7772-6951","addr":"경기도 남양주시 오남읍 오남리 23-6번지","indutype":"기타의료기관 - 기타의료기관 및 기타","category":"other"}]},{"lat":"37.684158932","long":"127.21063816","imageIndex":17,"items":[{"name":"휴대폰DC마트","tel":"","addr":"경기도 남양주시 오남읍 오남리 535-7번지","indutype":"사무통신 - 통신기기","category":"other"}]},{"lat":"37.69629989","long":"127.20253097","imageIndex":17,"items":[{"name":"희목가구","tel":"031-111-1111","addr":"경기도 남양주시 오남읍 오남리 760-1번지 784-34","indutype":"가구 - 일반가구","category":"other"}]},{"lat":"37.684519994","long":"127.21025372","imageIndex":17,"items":[{"name":"힐링9988","tel":"031-565-5002","addr":"경기도 남양주시 오남읍 오남리 536번지 호정빌딩 1층 104호","indutype":"회원제형태 - 레져업소","category":"other"}]}]