[{"lat":"37.429510951","long":"127.61799744","imageIndex":9,"items":[{"name":"(주)참좋은에너지민기주유소","tel":"031-771-4738","addr":"경기도 양평군 지평면 옥현리 804-2번지","indutype":"연료판매점 - 현대정유(오일뱅크)","category":"oil"}]},{"lat":"37.451230332","long":"127.60819621","imageIndex":16,"items":[{"name":"(주)한국은퇴설계연구소","tel":"02-1666-2050","addr":"경기도 양평군 지평면 옥현리 산75-8번지","indutype":"학원 - 기타 교육기관","category":"study"}]},{"lat":"37.447029851","long":"127.62246899","imageIndex":17,"items":[{"name":"강한건축","tel":"031-774-2990","addr":"경기도 양평군 지평면 옥현리 528-2번지","indutype":"건축자재 - 기타건축자재","category":"other"}]},{"lat":"37.450502165","long":"127.63877131","imageIndex":17,"items":[{"name":"루스켄넬","tel":"","addr":"경기도 양평군 지평면 옥현리 373-3번지","indutype":"문화.취미 - 애완동물","category":"other"}]},{"lat":"37.429088209","long":"127.61785841","imageIndex":4,"items":[{"name":"고가양평해장국","tel":"031-774-8208","addr":"경기도 양평군 지평면 옥현리 804-5번지","indutype":"일반휴게음식 - 일반한식","category":"restaurant"},{"name":"엄마집손만두","tel":"031-771-4979","addr":"경기도 양평군 지평면 옥현리 804-5번지","indutype":"일반휴게음식 - 일반한식","category":"restaurant"},{"name":"홀인원그늘집","tel":"031-771-8555","addr":"경기도 양평군 지평면 옥현리 804-5번지 1층","indutype":"일반휴게음식 - 일반한식","category":"restaurant"}]},{"lat":"37.447920249","long":"127.62277015","imageIndex":4,"items":[{"name":"미사랑설렁탕","tel":"031-772-1667","addr":"경기도 양평군 지평면 옥현리 525-1번지","indutype":"일반휴게음식 - 일반한식","category":"restaurant"}]},{"lat":"37.438029759","long":"127.61714062","imageIndex":4,"items":[{"name":"영푸드","tel":"","addr":"경기도 양평군 지평면 옥현리 1062-1번지 1층","indutype":"일반휴게음식 - 서양음식","category":"restaurant"}]},{"lat":"37.436866358","long":"127.61735709","imageIndex":4,"items":[{"name":"한우리정육식당","tel":"031-774-2196","addr":"경기도 양평군 지평면 옥현리 1054-1번지","indutype":"일반휴게음식 - 일반한식","category":"restaurant"}]},{"lat":"37.452029956","long":"127.61388726","imageIndex":7,"items":[{"name":"농업회사법인 미디안농산 주식회사","tel":"031-772-9300","addr":"경기도 양평군 지평면 옥현리 1452번지","indutype":"음료식품 - 농·축·수산품","category":"food"}]},{"lat":"37.451588199","long":"127.61394017","imageIndex":7,"items":[{"name":"농업회사법인 양평가루매마을 주식회사","tel":"031-774-3908","addr":"경기도 양평군 지평면 옥현리 1451번지","indutype":"음료식품 - 농·축·수산품","category":"food"}]},{"lat":"37.440786136","long":"127.62072255","imageIndex":7,"items":[{"name":"농업회사법인그로위드(주)","tel":"070-5101-7755","addr":"경기도 양평군 지평면 옥현리 1247-2번지","indutype":"음료식품 - 기타음료식품","category":"food"}]},{"lat":"37.434649676","long":"127.61913548","imageIndex":7,"items":[{"name":"농업회사법인주식회사효성","tel":"031-771-8562","addr":"경기도 양평군 지평면 옥현리 948번지","indutype":"음료식품 - 농·축·수산품","category":"food"}]},{"lat":"37.452175159","long":"127.61368501","imageIndex":7,"items":[{"name":"미디안농산","tel":"031-772-9300","addr":"경기도 양평군 지평면 옥현리 1453","indutype":"음료식품 - 기타음료식품","category":"food"}]},{"lat":"37.432894352","long":"127.61882732","imageIndex":7,"items":[{"name":"영농조합법인 미사랑","tel":"031-775-7747","addr":"경기도 양평군 지평면 옥현리 916번지","indutype":"음료식품 - 미곡상","category":"food"}]},{"lat":"37.436866358","long":"127.61735709","imageIndex":7,"items":[{"name":"한우리정육식당","tel":"031-774-2196","addr":"경기도 양평군 지평면 옥현리 1054-1번지","indutype":"음료식품 - 정육점","category":"food"}]},{"lat":"37.449089338","long":"127.61280105","imageIndex":7,"items":[{"name":"허니포트","tel":"031-774-7339","addr":"경기도 양평군 지평면 옥현리 1504-1","indutype":"음료식품 - 기타음료식품","category":"food"}]},{"lat":"37.429088209","long":"127.61785841","imageIndex":7,"items":[{"name":"카페인","tel":"","addr":"경기도 양평군 지평면 옥현리 804-5번지","indutype":"유통업 영리 - 슈퍼마켓","category":"mart"}]}]