[{"lat":"37.544149831","long":"127.31923931","imageIndex":7,"items":[{"name":"OK정육","tel":"031-774-8486","addr":"경기도 양평군 양서면 양수리 651-6번지","indutype":"음료식품 - 정육점","category":"food"},{"name":"오케이수산","tel":"031-774-3891","addr":"경기도 양평군 양서면 양수리 651-6번지","indutype":"음료식품 - 농·축·수산품","category":"food"}]},{"lat":"37.544317415","long":"127.31721456","imageIndex":7,"items":[{"name":"곽지원과자공방","tel":"031-774-0375","addr":"경기도 양평군 양서면 양수리 647-20번지 1층","indutype":"음료식품 - 제과점","category":"food"}]},{"lat":"37.544156112","long":"127.31688573","imageIndex":7,"items":[{"name":"곽지원빵공방","tel":"031-774-0376","addr":"경기도 양평군 양서면 양수리 647-17번지","indutype":"음료식품 - 제과점","category":"food"}]},{"lat":"37.544906709","long":"127.31921988","imageIndex":7,"items":[{"name":"그랜드코나코리아","tel":"070-8865-0260","addr":"경기도 양평군 양서면 양수리 559-23번지 가동 1층","indutype":"음료식품 - 기타음료식품","category":"food"},{"name":"라온","tel":"070-4696-3887","addr":"경기도 양평군 양서면 양수리 559-23번지 가동 1호","indutype":"음료식품 - 기타음료식품","category":"food"}]},{"lat":"37.534988462","long":"127.3152407","imageIndex":7,"items":[{"name":"꽃동산","tel":"031-771-9297","addr":"경기도 양평군 양서면 양수리 756-7","indutype":"음료식품 - 농·축·수산품","category":"food"}]},{"lat":"37.538407783","long":"127.31690689","imageIndex":7,"items":[{"name":"농업회사법인 두물주식회사","tel":"","addr":"경기도 양평군 양서면 양수리 788-2번지","indutype":"음료식품 - 농·축·수산품","category":"food"}]},{"lat":"37.54351229","long":"127.31843323","imageIndex":7,"items":[{"name":"농업회사법인 자연으로농지보존 주식회사","tel":"031-771-6107","addr":"경기도 양평군 양서면 양수리 657-18번지 2층 205호","indutype":"음료식품 - 농·축·수산품","category":"food"},{"name":"지니홀릭수제디저트","tel":"031-771-1470","addr":"경기도 양평군 양서면 양수리 657-18번지 2층","indutype":"음료식품 - 제과점","category":"food"}]},{"lat":"37.536602462","long":"127.31477223","imageIndex":7,"items":[{"name":"농업회사법인양평두물머리생태학습농원합명","tel":"031-771-0551","addr":"경기도 양평군 양서면 양수리 756-1번지","indutype":"음료식품 - 농·축·수산품","category":"food"}]},{"lat":"37.534048271","long":"127.31643605","imageIndex":7,"items":[{"name":"늘솜두물머리핫도그","tel":"031-774-8204","addr":"경기도 양평군 양서면 양수리 772-1번지","indutype":"음료식품 - 기타음료식품","category":"food"},{"name":"다온","tel":"070-7722-7667","addr":"경기도 양평군 양서면 양수리 772-1번지","indutype":"음료식품 - 기타음료식품","category":"food"}]},{"lat":"37.544600226","long":"127.31927516","imageIndex":7,"items":[{"name":"다올포크","tel":"031-775-8384","addr":"경기도 양평군 양서면 양수리 557-15번지","indutype":"음료식품 - 정육점","category":"food"}]},{"lat":"37.544349014","long":"127.31887806","imageIndex":7,"items":[{"name":"뚜레쥬르 양수리(2)","tel":"031-773-4077","addr":"경기도 양평군 양서면 양수리 650-14번지 외1필지","indutype":"음료식품 - 제과점","category":"food"}]},{"lat":"37.533409899","long":"127.31593557","imageIndex":7,"items":[{"name":"만경","tel":"031-773-0199","addr":"경기도 양평군 양서면 양수리 707-3번지","indutype":"음료식품 - 기타음료식품","category":"food"}]},{"lat":"37.544876339","long":"127.32046446","imageIndex":7,"items":[{"name":"송월슈퍼","tel":"031-772-2867","addr":"경기도 양평군 양서면 양수리 996번지 점포 3호","indutype":"음료식품 - 기타음료식품","category":"food"}]},{"lat":"37.544291589","long":"127.32013383","imageIndex":7,"items":[{"name":"수정방앗간","tel":"031-772-6114","addr":"경기도 양평군 양서면 양수리 1093번지","indutype":"음료식품 - 제과점","category":"food"}]},{"lat":"37.544572378","long":"127.31958056","imageIndex":7,"items":[{"name":"아이스드림 양수점","tel":"031-111-1111","addr":"경기도 양평군 양서면 양수리 556-18번지","indutype":"음료식품 - 기타음료식품","category":"food"}]},{"lat":"37.550014826","long":"127.31938858","imageIndex":7,"items":[{"name":"양수3리 부녀회","tel":"","addr":"경기도 양평군 양서면 양수리 511-2번지","indutype":"음료식품 - 기타음료식품","category":"food"}]},{"lat":"37.538824964","long":"127.31587901","imageIndex":7,"items":[{"name":"양수리딸기체험농장","tel":"031-774-2143","addr":"경기도 양평군 양서면 양수리 796-1,797","indutype":"음료식품 - 농·축·수산품","category":"food"}]},{"lat":"37.544377375","long":"127.3183803","imageIndex":7,"items":[{"name":"양수우리의원","tel":"031-774-8120","addr":"경기도 양평군 양서면 양수리 649-2번지","indutype":"건강식품 - 기타건강식품","category":"food"}]},{"lat":"37.534461667","long":"127.31683377","imageIndex":7,"items":[{"name":"어린농부딸기체험","tel":"031-771-1653","addr":"경기도 양평군 양서면 양수리 781-3","indutype":"음료식품 - 농·축·수산품","category":"food"}]},{"lat":"37.544038556","long":"127.32041565","imageIndex":7,"items":[{"name":"어반","tel":"031-775-0707","addr":"경기도 양평군 양서면 양수리 1107번지","indutype":"음료식품 - 기타음료식품","category":"food"}]},{"lat":"37.534875995","long":"127.31688076","imageIndex":7,"items":[{"name":"연뜨락","tel":"031-7772-6370","addr":"경기도 양평군 양서면 양수리 784","indutype":"음료식품 - 기타음료식품","category":"food"}]},{"lat":"37.544345282","long":"127.32026985","imageIndex":7,"items":[{"name":"용씨기름집","tel":"031-772-6171","addr":"경기도 양평군 양서면 양수리 1092번지","indutype":"음료식품 - 기타음료식품","category":"food"}]},{"lat":"37.540016166","long":"127.31515984","imageIndex":7,"items":[{"name":"우리딸기농장","tel":"031-772-4770","addr":"경기도 양평군 양서면 양수리 802-1","indutype":"음료식품 - 농·축·수산품","category":"food"}]},{"lat":"37.562234782","long":"127.33160728","imageIndex":7,"items":[{"name":"이호농원","tel":"031-773-4139","addr":"경기도 양평군 양서면 양수리 226-2번지","indutype":"음료식품 - 농·축·수산품","category":"food"}]},{"lat":"37.544268805","long":"127.31854958","imageIndex":7,"items":[{"name":"젤라떼리아빤나","tel":"031-775-4904","addr":"경기도 양평군 양서면 양수리 649-5번지 1층","indutype":"음료식품 - 제과점","category":"food"}]},{"lat":"37.54531745","long":"127.32060212","imageIndex":7,"items":[{"name":"조령축산물도매센터","tel":"031-774-2429","addr":"경기도 양평군 양서면 양수리 982번지 외1필지","indutype":"음료식품 - 정육점","category":"food"}]},{"lat":"37.544712667","long":"127.31765752","imageIndex":7,"items":[{"name":"종로복떡집","tel":"031-774-4554","addr":"경기도 양평군 양서면 양수리 563-6","indutype":"음료식품 - 제과점","category":"food"}]},{"lat":"37.545039639","long":"127.32004648","imageIndex":7,"items":[{"name":"종점방아간","tel":"031-771-6370","addr":"경기도 양평군 양서면 양수리 1033번지","indutype":"음료식품 - 기타음료식품","category":"food"}]},{"lat":"37.53370794","long":"127.31566529","imageIndex":7,"items":[{"name":"청정스마트팜","tel":"","addr":"경기도 양평군 양서면 양수리 708-1번지","indutype":"음료식품 - 농·축·수산품","category":"food"}]},{"lat":"37.536406537","long":"127.31730581","imageIndex":7,"items":[{"name":"초필당","tel":"070-7630-7223","addr":"경기도 양평군 양서면 양수리 787-3번지 외2필지","indutype":"음료식품 - 농·축·수산품","category":"food"}]},{"lat":"37.551901755","long":"127.32129775","imageIndex":7,"items":[{"name":"치유의 정원 수수","tel":"031-773-8919","addr":"경기도 양평군 양서면 양수리 506-19번지","indutype":"음료식품 - 기타음료식품","category":"food"}]},{"lat":"37.533238984","long":"127.31583304","imageIndex":7,"items":[{"name":"카페가람","tel":"031-774-7480","addr":"경기도 양평군 양서면 양수리 704-3번지","indutype":"음료식품 - 기타음료식품","category":"food"}]},{"lat":"37.533266912","long":"127.31549374","imageIndex":7,"items":[{"name":"카페공감","tel":"070-8134-6224","addr":"경기도 양평군 양서면 양수리 708-3번지","indutype":"음료식품 - 기타음료식품","category":"food"}]},{"lat":"37.546011198","long":"127.32060506","imageIndex":7,"items":[{"name":"클라라의떡앤커피","tel":"031-772-6349","addr":"경기도 양평군 양서면 양수리 1006번지","indutype":"음료식품 - 기타음료식품","category":"food"}]},{"lat":"37.543986685","long":"127.31960072","imageIndex":7,"items":[{"name":"파리바게뜨 양수리점","tel":"031-771-8202","addr":"경기도 양평군 양서면 양수리 1075번지","indutype":"음료식품 - 제과점","category":"food"}]},{"lat":"37.534650962","long":"127.31680062","imageIndex":7,"items":[{"name":"팔당상수원유기농업영농조합법","tel":"031-577-8021","addr":"경기도 양평군 양서면 양수리 781번지","indutype":"음료식품 - 농·축·수산품","category":"food"}]},{"lat":"37.548317261","long":"127.32077328","imageIndex":7,"items":[{"name":"한국자연건강회","tel":"031-772-2247","addr":"경기도 양평군 양서면 양수리 579-1번지 102동 202호","indutype":"건강식품 - 기타건강식품","category":"food"}]},{"lat":"37.544428829","long":"127.31935365","imageIndex":7,"items":[{"name":"형제정육점","tel":"031-772-0336","addr":"경기도 양평군 양서면 양수리 936번지 외2필지","indutype":"음료식품 - 정육점","category":"food"}]}]