[{"lat":"37.81984108","long":"127.34914634","imageIndex":13,"items":[{"name":"OK당구장","tel":"031-584-7855","addr":"경기도 가평군 조종면 현리 262-61번지","indutype":"레저업소 - 당 구 장","category":"leisure"},{"name":"OK당구장","tel":"031-584-7855","addr":"경기도 가평군 조종면 현리 262-61번지","indutype":"레저업소 - 당 구 장","category":"leisure"}]},{"lat":"37.829484202","long":"127.34501135","imageIndex":13,"items":[{"name":"가평맛있는자두체험농장","tel":"","addr":"경기도 가평군 조종면 현리 120-1번지","indutype":"레저업소 - 기타레져업소","category":"leisure"}]},{"lat":"37.819066182","long":"127.3491768","imageIndex":13,"items":[{"name":"궁전노래연습장","tel":"031-585-4996","addr":"경기도 가평군 조종면 현리 264-2번지","indutype":"레저업소 - 노 래 방","category":"leisure"},{"name":"궁전노래연습장","tel":"031-585-4996","addr":"경기도 가평군 조종면 현리 264-2번지","indutype":"레저업소 - 노 래 방","category":"leisure"}]},{"lat":"37.818452149","long":"127.34965093","imageIndex":13,"items":[{"name":"나인피씨존","tel":"02-000-0000","addr":"경기도 가평군 조종면 현리 411-1번지 3층","indutype":"레저업소 - 기타레져업소","category":"leisure"}]},{"lat":"37.818927431","long":"127.35040273","imageIndex":13,"items":[{"name":"노블레스PC","tel":"070-7130-7070","addr":"경기도 가평군 조종면 현리 260-9번지 2층(2층","indutype":"레저업소 - 기타레져업소","category":"leisure"}]},{"lat":"37.817507143","long":"127.34931716","imageIndex":13,"items":[{"name":"놀숲 가평현리점","tel":"031-585-5777","addr":"경기도 가평군 조종면 현리 410-42번지 2층","indutype":"레저업소 - 기타레져업소","category":"leisure"},{"name":"엠필라테스&요가","tel":"031-585-2999","addr":"경기도 가평군 조종면 현리 410-42번지 5층","indutype":"레저업소 - 헬스클럽","category":"leisure"}]},{"lat":"37.818124298","long":"127.35084189","imageIndex":13,"items":[{"name":"대박노래연습장","tel":"031-584-3393","addr":"경기도 가평군 조종면 현리 259-10번지 2층","indutype":"레저업소 - 노 래 방","category":"leisure"}]},{"lat":"37.820065076","long":"127.34956762","imageIndex":13,"items":[{"name":"똘방구노래연습장","tel":"031-585-2374","addr":"경기도 가평군 조종면 현리 262-2","indutype":"레저업소 - 노 래 방","category":"leisure"}]},{"lat":"37.819202723","long":"127.34870043","imageIndex":13,"items":[{"name":"뚱이네","tel":"031-585-0514","addr":"경기도 가평군 조종면 현리 264-12번지","indutype":"레저업소 - 기타레져업소","category":"leisure"}]},{"lat":"37.817819357","long":"127.35037482","imageIndex":13,"items":[{"name":"라이또PC 가평현리점","tel":"070-5006-0571","addr":"경기도 가평군 조종면 현리 410-24번지","indutype":"레저업소 - 기타레져업소","category":"leisure"}]},{"lat":"37.816923909","long":"127.34850809","imageIndex":13,"items":[{"name":"멋GYM 휘트니스 센터","tel":"031-584-9682","addr":"경기도 가평군 조종면 현리 410-14번지 2층","indutype":"레저업소 - 헬스클럽","category":"leisure"}]},{"lat":"37.818509875","long":"127.34840191","imageIndex":13,"items":[{"name":"버닝pc zone","tel":"","addr":"경기도 가평군 조종면 현리 265-12번지 3층","indutype":"레저업소 - 기타레져업소","category":"leisure"}]},{"lat":"37.819701525","long":"127.35064486","imageIndex":13,"items":[{"name":"보송볼링장","tel":"031-585-3363","addr":"경기도 가평군 조종면 현리 261-14번지","indutype":"레저업소 - 볼 링 장","category":"leisure"}]},{"lat":"37.817093518","long":"127.34904266","imageIndex":13,"items":[{"name":"봉당구클럽","tel":"031-585-5846","addr":"경기도 가평군 조종면 현리 410-44번지 2층 203호","indutype":"레저업소 - 당 구 장","category":"leisure"}]},{"lat":"37.818840618","long":"127.34621151","imageIndex":13,"items":[{"name":"산천실내스크린골프연습장","tel":"031-585-2553","addr":"경기도 가평군 조종면 현리 296-3번지","indutype":"레저업소 - 스크린골프","category":"leisure"}]},{"lat":"37.818535436","long":"127.34890175","imageIndex":13,"items":[{"name":"아이러브유 PC방","tel":"070-8611-5603","addr":"경기도 가평군 조종면 현리 265-5번지 2층","indutype":"레저업소 - 기타레져업소","category":"leisure"}]},{"lat":"37.81806311","long":"127.35020561","imageIndex":13,"items":[{"name":"에이스당구클럽","tel":"031-585-6553","addr":"경기도 가평군 조종면 현리 410-25번지","indutype":"레저업소 - 당 구 장","category":"leisure"},{"name":"에이스당구클럽","tel":"031-585-6553","addr":"경기도 가평군 조종면 현리 410-25번지","indutype":"레저업소 - 당 구 장","category":"leisure"}]},{"lat":"37.819007442","long":"127.35076654","imageIndex":13,"items":[{"name":"여기는PC방","tel":"070-2263-0409","addr":"경기도 가평군 조종면 현리 259-7번지","indutype":"레저업소 - 기타레져업소","category":"leisure"}]},{"lat":"37.819233847","long":"127.35037009","imageIndex":13,"items":[{"name":"중앙당구클럽","tel":"031-585-3634","addr":"경기도 가평군 조종면 현리 260-1번지","indutype":"레저업소 - 당 구 장","category":"leisure"},{"name":"중앙당구클럽","tel":"031-585-3634","addr":"경기도 가평군 조종면 현리 260-1번지","indutype":"레저업소 - 당 구 장","category":"leisure"}]},{"lat":"37.81867738","long":"127.34965198","imageIndex":13,"items":[{"name":"핸드타임당구장","tel":"","addr":"경기도 가평군 조종면 현리 263-11번지 2층","indutype":"레저업소 - 당 구 장","category":"leisure"}]}]