[{"lat":"37.194383309","long":"127.02697367","imageIndex":17,"items":[{"name":"(주)디에스비투비","tel":"031-233-5005","addr":"경기도 오산시 양산동 271-7번지","indutype":"전기제품 - 가전제품","category":"other"}]},{"lat":"37.193969655","long":"127.02250213","imageIndex":17,"items":[{"name":"(주)이안씨엔티","tel":"031-8055-8006","addr":"경기도 오산시 양산동 400번지 한신대학교 9205호","indutype":"용역 서비스 - 기타용역서비스","category":"other"},{"name":"(주)제영산업","tel":"031-8059-2821","addr":"경기도 오산시 양산동 400번지 한신대학교 창업보육센터동 9214호","indutype":"유통업 영리 - 기타유통업","category":"other"},{"name":"세븐일레븐한신대기숙사점","tel":"031-1577-0711","addr":"경기도 오산시 양산동 400번지 한신대학교 성빈학사","indutype":"유통업 영리 - 편 의 점","category":"other"},{"name":"세븐일레븐한신대송암관점","tel":"031-1577-0711","addr":"경기도 오산시 양산동 400번지 한신대학교 송암관","indutype":"유통업 영리 - 편 의 점","category":"other"},{"name":"씨유한신대60주년관점","tel":"080-080-3663","addr":"경기도 오산시 양산동 400번지 한신대학교60주년관","indutype":"유통업 영리 - 편 의 점","category":"other"},{"name":"에스에이치코리아 (SH KOREA)","tel":"070-8031-4038","addr":"경기도 오산시 양산동 400번지 창업보육센터 9201호","indutype":"사무통신 - 기타 사무용품","category":"other"},{"name":"옵티라제","tel":"070-7869-9964","addr":"경기도 오산시 양산동 400번지 한신대학교 창업보육센터 9309호","indutype":"서적문구 - 과학기자재","category":"other"},{"name":"이마트24 한신대임마누엘관점","tel":"031-000-0000","addr":"경기도 오산시 양산동 400번지 한신대학교 임마누엘관 1층","indutype":"유통업 영리 - 편 의 점","category":"other"},{"name":"한신서관","tel":"031-372-7880","addr":"경기도 오산시 양산동 411 한신대학교구내서점","indutype":"서적문구 - 일반서적","category":"other"}]},{"lat":"37.195805201","long":"127.0344304","imageIndex":17,"items":[{"name":"GS25오산세마대림점","tel":"","addr":"경기도 오산시 양산동 668-1번지 세마이편한세상 상가 101, 102호","indutype":"유통업 영리 - 편 의 점","category":"other"},{"name":"토이다에듀","tel":"031-295-6667","addr":"경기도 오산시 양산동 668-1번지 세마이편한세상 12동 902호","indutype":"회원제형태 - 서적","category":"other"}]},{"lat":"37.19582565","long":"127.02336988","imageIndex":17,"items":[{"name":"GS25한신대점","tel":"","addr":"경기도 오산시 양산동 382-4번지","indutype":"유통업 영리 - 편 의 점","category":"other"}]},{"lat":"37.193606712","long":"127.03424928","imageIndex":17,"items":[{"name":"강아지땡큐","tel":"031-372-2488","addr":"경기도 오산시 양산동 672-5","indutype":"문화.취미 - 애완동물","category":"other"},{"name":"세븐일레븐오산대림점","tel":"","addr":"경기도 오산시 양산동 672-5","indutype":"유통업 영리 - 편 의 점","category":"other"}]},{"lat":"37.184969633","long":"127.01053991","imageIndex":17,"items":[{"name":"경기ENG (경기이엔지)","tel":"031-375-5305","addr":"경기도 오산시 양산동 545번지","indutype":"기타 - 기계공구","category":"other"}]},{"lat":"37.193111249","long":"127.03383235","imageIndex":17,"items":[{"name":"고구려시스템 넘버원","tel":"031-8050-2999","addr":"경기도 오산시 양산동 671-6번지 103호","indutype":"건축자재 - 기타건축자재","category":"other"},{"name":"다메이드","tel":"031-373-7370","addr":"경기도 오산시 양산동 671-6번지 101호","indutype":"건축자재 - 인테리어전문","category":"other"}]},{"lat":"37.190660484","long":"127.03358358","imageIndex":17,"items":[{"name":"글라우베","tel":"055-352-5053","addr":"경기도 오산시 양산동 666번지 늘푸른오스카빌 102동 1704호","indutype":"회원제형태 - 기타1","category":"other"}]},{"lat":"37.196276321","long":"127.0224802","imageIndex":17,"items":[{"name":"농업회사법인 주식회사 굼벅스","tel":"","addr":"경기도 오산시 양산동 447번지","indutype":"용역 서비스 - 사무서비스","category":"other"}]},{"lat":"37.1921377","long":"127.03542","imageIndex":17,"items":[{"name":"누보디자인","tel":"031-268-6442","addr":"경기도 오산시 양산동 677-7번지 2층","indutype":"건축자재 - 인테리어전문","category":"other"}]},{"lat":"37.19002095","long":"127.03278369","imageIndex":17,"items":[{"name":"늘푸른세탁","tel":"031-375-2085","addr":"경기도 오산시 양산동 666번지 늘푸른오스카빌 상가 2층 201호","indutype":"수리서비스 - 세탁소","category":"other"}]},{"lat":"37.193606504","long":"127.03502643","imageIndex":17,"items":[{"name":"다은텔레콤","tel":"031-378-9407","addr":"경기도 오산시 양산동 673-1번지 1층 101호","indutype":"사무통신 - 통신기기","category":"other"},{"name":"백마크리닝","tel":"031-375-2615","addr":"경기도 오산시 양산동 673-1번지 102호","indutype":"수리서비스 - 세탁소","category":"other"}]},{"lat":"37.193553772","long":"127.02967651","imageIndex":17,"items":[{"name":"더사랑요양원","tel":"031-377-7211","addr":"경기도 오산시 양산동 256-3번지","indutype":"기타의료기관 - 기타의료기관 및 기타","category":"other"}]},{"lat":"37.192110783","long":"127.03500327","imageIndex":17,"items":[{"name":"라라패션","tel":"031-352-1673","addr":"경기도 오산시 양산동 671-15번지 301호","indutype":"의류 - 내의판매","category":"other"}]},{"lat":"37.189588597","long":"127.03219787","imageIndex":17,"items":[{"name":"라움건축","tel":"","addr":"경기도 오산시 양산동 666번지 늘푸른오스카빌 107동 503호","indutype":"건축자재 - 인테리어전문","category":"other"}]},{"lat":"37.192751397","long":"127.0315909","imageIndex":17,"items":[{"name":"루마프라임","tel":"031-374-1561","addr":"경기도 오산시 양산동 117-14번지 106호","indutype":"용역 서비스 - 기타용역서비스","category":"other"}]},{"lat":"37.195357106","long":"127.02339228","imageIndex":17,"items":[{"name":"미니스톱오산한신대점","tel":"031-340-4261","addr":"경기도 오산시 양산동 385번지","indutype":"유통업 영리 - 편 의 점","category":"other"}]},{"lat":"37.195355795","long":"127.02992494","imageIndex":17,"items":[{"name":"빈티지살롱","tel":"031-377-6799","addr":"경기도 오산시 양산동 669-4번지 1층 2호","indutype":"의류 - 정장","category":"other"},{"name":"세븐일레븐오산양산점","tel":"031-1577-0711","addr":"경기도 오산시 양산동 669-4번지 1층 101호","indutype":"유통업 영리 - 편 의 점","category":"other"},{"name":"크린토피아오산양산점","tel":"031-377-1166","addr":"경기도 오산시 양산동 669-4번지","indutype":"수리서비스 - 세탁소","category":"other"}]},{"lat":"37.194798546","long":"127.02289655","imageIndex":17,"items":[{"name":"삼원문구","tel":"031-372-3159","addr":"경기도 오산시 양산동 434번지","indutype":"서적문구 - 문구용품","category":"other"}]},{"lat":"37.191255212","long":"127.03342614","imageIndex":17,"items":[{"name":"성호휘트니스","tel":"031-378-2291","addr":"경기도 오산시 양산동 666번지 늘푸른오스카빌 101동 104호","indutype":"회원제형태 - 레져업소","category":"other"}]},{"lat":"37.195221716","long":"127.02469877","imageIndex":17,"items":[{"name":"세븐일레븐오산한신대점","tel":"031-1577-0711","addr":"경기도 오산시 양산동 306-5번지 1층","indutype":"유통업 영리 - 편 의 점","category":"other"}]},{"lat":"37.193245881","long":"127.03578089","imageIndex":17,"items":[{"name":"소모코리아","tel":"070-4007-7271","addr":"경기도 오산시 양산동 673-7번지 상가 1층","indutype":"건축자재 - 목재·석재·철물","category":"other"}]},{"lat":"37.196454983","long":"127.03027449","imageIndex":17,"items":[{"name":"수려한","tel":"02-1588-1654","addr":"경기도 오산시 양산동 667-1번지 오산세마효성백년가약 102동 301호","indutype":"회원제형태 - 기타3","category":"other"}]},{"lat":"37.194438171","long":"127.02264867","imageIndex":17,"items":[{"name":"씨유한신대점","tel":"070-8817-5032","addr":"경기도 오산시 양산동 417 외 1필지","indutype":"유통업 영리 - 편 의 점","category":"other"}]},{"lat":"37.19635726","long":"127.02339255","imageIndex":17,"items":[{"name":"에듀뱅크(edu bank)","tel":"031-225-3565","addr":"경기도 오산시 양산동 377-5번지","indutype":"서적문구 - 전문서적","category":"other"}]},{"lat":"37.190066053","long":"127.03258098","imageIndex":17,"items":[{"name":"올케어(ALL-care)","tel":"031-323-6016","addr":"경기도 오산시 양산동 666번지 늘푸른오스카빌 105동 601호","indutype":"용역 서비스 - 종합용역","category":"other"}]},{"lat":"37.193381655","long":"127.03347205","imageIndex":17,"items":[{"name":"워시피플셀프빨래방오산시양산동점","tel":"","addr":"경기도 오산시 양산동 671-3번지 102호","indutype":"수리서비스 - 세탁소","category":"other"},{"name":"이마트24오산양산점","tel":"","addr":"경기도 오산시 양산동 671-3번지 101호","indutype":"유통업 영리 - 편 의 점","category":"other"}]},{"lat":"37.195582633","long":"127.0217817","imageIndex":17,"items":[{"name":"이마트24 오산한신대점","tel":"","addr":"경기도 오산시 양산동 443-2번지 1층","indutype":"유통업 영리 - 편 의 점","category":"other"}]},{"lat":"37.195364749","long":"127.03017273","imageIndex":17,"items":[{"name":"이엔씨 학원(E&C ACADEMY)","tel":"031-377-3791","addr":"경기도 오산시 양산동 669-5번지 엠스퀘어빌딩 2층 202호","indutype":"서적문구 - 일반서적","category":"other"}]},{"lat":"37.184996684","long":"127.01022459","imageIndex":17,"items":[{"name":"이연건축사무소","tel":"031-372-6386","addr":"경기도 오산시 양산동 546번지","indutype":"용역 서비스 - 사무서비스","category":"other"}]},{"lat":"37.194501131","long":"127.0233132","imageIndex":17,"items":[{"name":"제일복사","tel":"031-372-3318","addr":"경기도 오산시 양산동 398-6번지","indutype":"용역 서비스 - 사무서비스","category":"other"}]},{"lat":"37.194690287","long":"127.02367368","imageIndex":17,"items":[{"name":"주식회사 제이디하이테크","tel":"031-375-1905","addr":"경기도 오산시 양산동 398-3번지 청명빌 1층 101호","indutype":"전기제품 - 기타전기제품","category":"other"}]},{"lat":"37.195112392","long":"127.03045422","imageIndex":17,"items":[{"name":"주식회사 한길알엠비","tel":"031-373-5302","addr":"경기도 오산시 양산동 669-6번지 평강빌딩 2층 201호","indutype":"건축자재 - 인테리어전문","category":"other"}]},{"lat":"37.194248335","long":"127.02606132","imageIndex":17,"items":[{"name":"주식회사큐텍","tel":"070-8291-6246","addr":"경기도 오산시 양산동 291번지","indutype":"전기제품 - 기타전기제품","category":"other"}]},{"lat":"37.193300532","long":"127.03358465","imageIndex":17,"items":[{"name":"지성타일","tel":"031-378-6317","addr":"경기도 오산시 양산동 671-4번지 1층","indutype":"용역 서비스 - 기타용역서비스","category":"other"}]},{"lat":"37.194996765","long":"127.02295292","imageIndex":17,"items":[{"name":"지에스코리아주식회사","tel":"031-233-0634","addr":"경기도 오산시 양산동 436번지","indutype":"레져용품 - 스포츠·레져용품","category":"other"}]},{"lat":"37.196500248","long":"127.02933965","imageIndex":17,"items":[{"name":"케이씨티","tel":"031-372-8409","addr":"경기도 오산시 양산동 246-1번지","indutype":"기타 - 기계공구","category":"other"}]},{"lat":"37.192771262","long":"127.02255813","imageIndex":17,"items":[{"name":"하이팜텍주식회사","tel":"031-378-9063","addr":"경기도 오산시 양산동 411한신대학교창업보육센타9214","indutype":"기타의료기관 - 기타의료기관 및 기타","category":"other"},{"name":"한신대학교","tel":"031-379-0075","addr":"경기도 오산시 양산동 411번지","indutype":"기타 - 비영리/대상","category":"other"},{"name":"한신대학우체국","tel":"031-372-3325","addr":"경기도 오산시 양산동 411번지","indutype":"용역 서비스 - 공공요금대행서비스/소","category":"other"}]},{"lat":"37.196132062","long":"127.02303206","imageIndex":17,"items":[{"name":"한신철물","tel":"031-376-0978","addr":"경기도 오산시 양산동 379-5번지 현대E마트 112호","indutype":"기타 - 기계공구","category":"other"}]}]