[{"lat":"37.490637772","long":"127.49614258","imageIndex":13,"items":[{"name":"고수당구장","tel":"031-772-6962","addr":"경기도 양평군 양평읍 양근리 176-7번지 2층","indutype":"레저업소 - 당 구 장","category":"leisure"}]},{"lat":"37.490830406","long":"127.49747811","imageIndex":13,"items":[{"name":"국가대표PC방","tel":"031-773-5003","addr":"경기도 양평군 양평읍 양근리 174-1번지 지하","indutype":"레저업소 - 기타레져업소","category":"leisure"}]},{"lat":"37.489417274","long":"127.49498123","imageIndex":13,"items":[{"name":"국선도양평수련원","tel":"031-775-3703","addr":"경기도 양평군 양평읍 양근리 192-153번지","indutype":"레저업소 - 기타레져업소","category":"leisure"}]},{"lat":"37.490522488","long":"127.49570084","imageIndex":13,"items":[{"name":"나이스당구장","tel":"031-771-1420","addr":"경기도 양평군 양평읍 양근리 178-4번지","indutype":"레저업소 - 당 구 장","category":"leisure"}]},{"lat":"37.492270871","long":"127.49558794","imageIndex":13,"items":[{"name":"더핫요가","tel":"031-771-8025","addr":"경기도 양평군 양평읍 양근리 170-5번지","indutype":"레저업소 - 헬스클럽","category":"leisure"}]},{"lat":"37.490000222","long":"127.49128761","imageIndex":13,"items":[{"name":"데몰리션노래방","tel":"031-771-8867","addr":"경기도 양평군 양평읍 양근리 410-12번지 데몰리션노래방","indutype":"레저업소 - 노 래 방","category":"leisure"},{"name":"데몰리션노래방","tel":"031-771-8867","addr":"경기도 양평군 양평읍 양근리 410-12번지 1층","indutype":"레저업소 - 노 래 방","category":"leisure"}]},{"lat":"37.490384454","long":"127.492059","imageIndex":13,"items":[{"name":"딩동댕노래방","tel":"031-771-6163","addr":"경기도 양평군 양평읍 양근리 358-3번지","indutype":"레저업소 - 노 래 방","category":"leisure"},{"name":"팝콘PC방","tel":"070-4685-1379","addr":"경기도 양평군 양평읍 양근리 358-3번지 2층","indutype":"레저업소 - 기타레져업소","category":"leisure"}]},{"lat":"37.49108146","long":"127.48908971","imageIndex":13,"items":[{"name":"레드볼하우스","tel":"031-772-4658","addr":"경기도 양평군 양평읍 양근리 422-2번지 태강빌딩 4,5층","indutype":"레저업소 - 볼 링 장","category":"leisure"},{"name":"태강당구장","tel":"070-8958-7945","addr":"경기도 양평군 양평읍 양근리 422-2번지 6층 태강당구장 (태강빌딩)","indutype":"레저업소 - 당 구 장","category":"leisure"},{"name":"태강볼링센타","tel":"031-772-4659","addr":"경기도 양평군 양평읍 양근리 422-2번지","indutype":"레저업소 - 볼 링 장","category":"leisure"}]},{"lat":"37.490688665","long":"127.4969005","imageIndex":13,"items":[{"name":"맘마미아 노래연습장","tel":"031-775-6979","addr":"경기도 양평군 양평읍 양근리 175-7번지 지하1층","indutype":"레저업소 - 노 래 방","category":"leisure"}]},{"lat":"37.490167436","long":"127.49006752","imageIndex":13,"items":[{"name":"명성노래연습장","tel":"031-775-5288","addr":"경기도 양평군 양평읍 양근리 414-3","indutype":"레저업소 - 노 래 방","category":"leisure"}]},{"lat":"37.490992681","long":"127.49095485","imageIndex":13,"items":[{"name":"백프로당구클럽","tel":"","addr":"경기도 양평군 양평읍 양근리 405-1번지","indutype":"레저업소 - 당 구 장","category":"leisure"}]},{"lat":"37.496578221","long":"127.49109297","imageIndex":13,"items":[{"name":"빠딴잘리요가","tel":"031-772-7450","addr":"경기도 양평군 양평읍 양근리 91-15번지 201호","indutype":"레저업소 - 헬스클럽","category":"leisure"}]},{"lat":"37.494972095","long":"127.48508931","imageIndex":13,"items":[{"name":"서연필라테스","tel":"","addr":"경기도 양평군 양평읍 양근리 527-9번지 2층 201호","indutype":"레저업소 - 헬스클럽","category":"leisure"}]},{"lat":"37.490746848","long":"127.48939284","imageIndex":13,"items":[{"name":"세븐 당구장","tel":"","addr":"경기도 양평군 양평읍 양근리 420-6번지","indutype":"레저업소 - 당 구 장","category":"leisure"}]},{"lat":"37.489305686","long":"127.49147531","imageIndex":13,"items":[{"name":"소울PC방","tel":"070-7684-2517","addr":"경기도 양평군 양평읍 양근리 308-1번지 2층","indutype":"레저업소 - 기타레져업소","category":"leisure"}]},{"lat":"37.49247345","long":"127.4880019","imageIndex":13,"items":[{"name":"슈퍼점프킹","tel":"031-772-8979","addr":"경기도 양평군 양평읍 양근리 396-17번지 동경빌딩 1층","indutype":"레저업소 - 기타레져업소","category":"leisure"}]},{"lat":"37.490583976","long":"127.4895614","imageIndex":13,"items":[{"name":"아이센스리그PC 양평본점","tel":"","addr":"경기도 양평군 양평읍 양근리 417-1번지 이레빌딩","indutype":"레저업소 - 기타레져업소","category":"leisure"}]},{"lat":"37.490832563","long":"127.49045629","imageIndex":13,"items":[{"name":"양평노래연습장","tel":"031-774-4317","addr":"경기도 양평군 양평읍 양근리 410-1번지 지하","indutype":"레저업소 - 노 래 방","category":"leisure"}]},{"lat":"37.486577662","long":"127.49317615","imageIndex":13,"items":[{"name":"양평읍주민자치위원회","tel":"031-770-3029","addr":"경기도 양평군 양평읍 양근리 234번지","indutype":"레저업소 - 헬스클럽","category":"leisure"}]},{"lat":"37.489633256","long":"127.49069725","imageIndex":13,"items":[{"name":"에코스PC","tel":"","addr":"경기도 양평군 양평읍 양근리 348-1번지 2층","indutype":"레저업소 - 기타레져업소","category":"leisure"}]},{"lat":"37.490437949","long":"127.49436603","imageIndex":13,"items":[{"name":"우리스크린골프","tel":"031-774-0047","addr":"경기도 양평군 양평읍 양근리 169-8번지","indutype":"레저업소 - 스크린골프","category":"leisure"}]},{"lat":"37.490109505","long":"127.49100564","imageIndex":13,"items":[{"name":"제닉스아레나 PC","tel":"031-775-1098","addr":"경기도 양평군 양평읍 양근리 410-11번지","indutype":"레저업소 - 기타레져업소","category":"leisure"}]},{"lat":"37.490493599","long":"127.49181095","imageIndex":13,"items":[{"name":"쥐잡는날","tel":"031-771-3204","addr":"경기도 양평군 양평읍 양근리 358-10","indutype":"레저업소 - 기타레져업소","category":"leisure"}]},{"lat":"37.490801984","long":"127.49131544","imageIndex":13,"items":[{"name":"즐겨찾기노래연습장","tel":"031-772-7896","addr":"경기도 양평군 양평읍 양근리 409-3번지","indutype":"레저업소 - 노 래 방","category":"leisure"}]},{"lat":"37.490524648","long":"127.49083873","imageIndex":13,"items":[{"name":"카니발노래방","tel":"031-771-3738","addr":"경기도 양평군 양평읍 양근리 410-6번지","indutype":"레저업소 - 노 래 방","category":"leisure"}]},{"lat":"37.488638133","long":"127.49167448","imageIndex":13,"items":[{"name":"큐당구장","tel":"031-774-4939","addr":"경기도 양평군 양평읍 양근리 293-2번지 3층","indutype":"레저업소 - 당 구 장","category":"leisure"}]},{"lat":"37.486835513","long":"127.49400323","imageIndex":13,"items":[{"name":"크로스핏 업템포","tel":"","addr":"경기도 양평군 양평읍 양근리 236번지","indutype":"레저업소 - 헬스클럽","category":"leisure"}]},{"lat":"37.490330542","long":"127.48984243","imageIndex":13,"items":[{"name":"킹노래연습장","tel":"031-773-5574","addr":"경기도 양평군 양평읍 양근리 420-21번지 1층","indutype":"레저업소 - 노 래 방","category":"leisure"}]},{"lat":"37.490416097","long":"127.48875749","imageIndex":13,"items":[{"name":"호텔 노래연습장","tel":"031-772-4489","addr":"경기도 양평군 양평읍 양근리 443-3번지 지하1층","indutype":"레저업소 - 노 래 방","category":"leisure"}]},{"lat":"37.490723354","long":"127.48853334","imageIndex":13,"items":[{"name":"흥날터","tel":"031-775-3858","addr":"경기도 양평군 양평읍 양근리 443-1번지","indutype":"레저업소 - 노 래 방","category":"leisure"}]}]