[{"lat":"37.909358682","long":"127.03307234","imageIndex":17,"items":[{"name":"(주)라온가구","tel":"031-866-9960","addr":"경기도 동두천시 상패동 466번지 1층","indutype":"가구 - 일반가구","category":"other"}]},{"lat":"37.914685181","long":"127.05348723","imageIndex":17,"items":[{"name":"25재활용","tel":"031-863-1416","addr":"경기도 동두천시 상패동 10-29번지","indutype":"기타 - 기타 전문점","category":"other"}]},{"lat":"37.906687529","long":"127.04701179","imageIndex":17,"items":[{"name":"GS25동두천조흥점","tel":"02-2006-2485","addr":"경기도 동두천시 상패동 53-14번지","indutype":"유통업 영리 - 편 의 점","category":"other"}]},{"lat":"37.910577289","long":"127.02179246","imageIndex":17,"items":[{"name":"가든어스","tel":"031-863-1596","addr":"경기도 동두천시 상패동 849-1번지","indutype":"문화.취미 - 화원","category":"other"},{"name":"연솔조경","tel":"","addr":"경기도 동두천시 상패동 849-1번지","indutype":"건축자재 - 인테리어전문","category":"other"}]},{"lat":"37.902383891","long":"127.0387318","imageIndex":17,"items":[{"name":"건우공업사","tel":"031-866-8287","addr":"경기도 동두천시 상패동 221-2번지","indutype":"용역 서비스 - 기타용역서비스","category":"other"}]},{"lat":"37.911407406","long":"127.04959594","imageIndex":17,"items":[{"name":"결우","tel":"031-837-9239","addr":"경기도 동두천시 상패동 31-28번지","indutype":"신변잡화 - 기타잡화","category":"other"}]},{"lat":"37.90190977","long":"127.02504207","imageIndex":17,"items":[{"name":"경기디지털OA서비스","tel":"031-866-6777","addr":"경기도 동두천시 상패동 686-7번지","indutype":"사무통신 - 사무용 OA기기","category":"other"}]},{"lat":"37.894967563","long":"127.04382149","imageIndex":17,"items":[{"name":"경동철재","tel":"031-865-2778","addr":"경기도 동두천시 상패동 311번지","indutype":"건축자재 - 목재·석재·철물","category":"other"}]},{"lat":"37.913273063","long":"127.0477094","imageIndex":17,"items":[{"name":"광덕사","tel":"031-862-5879","addr":"경기도 동두천시 상패동 산11번지","indutype":"기타 - 비영리/대상","category":"other"}]},{"lat":"37.907492428","long":"127.03787009","imageIndex":17,"items":[{"name":"금성PVC철물건재","tel":"031-862-6000","addr":"경기도 동두천시 상패동 195-6번지","indutype":"기타 - 기타 전문점","category":"other"}]},{"lat":"37.906382833","long":"127.04245196","imageIndex":17,"items":[{"name":"금토일스포렉스","tel":"031-866-7114","addr":"경기도 동두천시 상패동 137-2번지 외25필지","indutype":"회원제형태 - 레져업소","category":"other"},{"name":"주식회사 금토일골프","tel":"031-866-7114","addr":"경기도 동두천시 상패동 137-2번지","indutype":"레져용품 - 골프용품 전문점","category":"other"}]},{"lat":"37.915883372","long":"127.0535904","imageIndex":17,"items":[{"name":"금호환경","tel":"031-832-7994","addr":"경기도 동두천시 상패동 11-22번지","indutype":"용역 서비스 - 종합용역","category":"other"}]},{"lat":"37.909020357","long":"127.04853692","imageIndex":17,"items":[{"name":"나라시스템","tel":"031-867-9006","addr":"경기도 동두천시 상패동 51-22번지","indutype":"가구 - 일반가구","category":"other"}]},{"lat":"37.915684769","long":"127.02620616","imageIndex":17,"items":[{"name":"대산공사","tel":"031-864-3302","addr":"경기도 동두천시 상패동 548-1번지","indutype":"농업 - 기타농업관련","category":"other"}]},{"lat":"37.899689805","long":"127.03970828","imageIndex":17,"items":[{"name":"대산기계","tel":"031-841-5346","addr":"경기도 동두천시 상패동 247-1","indutype":"기타 - 기계공구","category":"other"}]},{"lat":"37.9097952","long":"127.04842368","imageIndex":17,"items":[{"name":"동두천울타리노인요양원","tel":"031-866-1192","addr":"경기도 동두천시 상패동 42-1번지","indutype":"기타의료기관 - 기타의료기관 및 기타","category":"other"}]},{"lat":"37.91112823","long":"127.04931148","imageIndex":17,"items":[{"name":"동반자","tel":"031-861-2342","addr":"경기도 동두천시 상패동 32-17번지 동두천문화회관","indutype":"수리서비스 - 기타수리서비스","category":"other"}]},{"lat":"37.905524332","long":"127.010648","imageIndex":17,"items":[{"name":"드림베딩","tel":"","addr":"경기도 동두천시 상패동 1070-3번지","indutype":"직물 - 침구·수예점","category":"other"}]},{"lat":"37.898664618","long":"127.03312482","imageIndex":17,"items":[{"name":"뚱냥이네","tel":"","addr":"경기도 동두천시 상패동 361-14번지","indutype":"문화.취미 - 애완동물","category":"other"}]},{"lat":"37.911655426","long":"127.03542718","imageIndex":17,"items":[{"name":"라이프에이팩 주식회사","tel":"02-713-6736","addr":"경기도 동두천시 상패동 176번지","indutype":"유통업 영리 - 기타유통업","category":"other"}]},{"lat":"37.908524845","long":"127.04853661","imageIndex":17,"items":[{"name":"레인포크","tel":"031-857-0939","addr":"경기도 동두천시 상패동 51-6번지","indutype":"의류 - 정장","category":"other"},{"name":"서울세차장","tel":"031-861-0467","addr":"경기도 동두천시 상패동 51-6번지","indutype":"회원제형태 - 기타3","category":"other"}]},{"lat":"37.912099463","long":"127.02412402","imageIndex":17,"items":[{"name":"명보ENG","tel":"031-862-6872","addr":"경기도 동두천시 상패동 559번지","indutype":"회원제형태 - 기타4","category":"other"},{"name":"쉼터씽크","tel":"031-862-3775","addr":"경기도 동두천시 상패동 559번지","indutype":"주방용구 - 주방용구","category":"other"}]},{"lat":"37.90899388","long":"127.04709277","imageIndex":17,"items":[{"name":"믿음상사","tel":"031-868-3977","addr":"경기도 동두천시 상패동 48-2번지","indutype":"신변잡화 - 기타잡화","category":"other"}]},{"lat":"37.909578814","long":"127.04884428","imageIndex":17,"items":[{"name":"바로기획","tel":"","addr":"경기도 동두천시 상패동 40-8번지","indutype":"서적문구 - 문구용품","category":"other"}]},{"lat":"37.908434836","long":"127.0483205","imageIndex":17,"items":[{"name":"복지종합상사","tel":"031-861-9742","addr":"경기도 동두천시 상패동 50-7번지","indutype":"기타 - 기계공구","category":"other"}]},{"lat":"37.91649617","long":"127.05320416","imageIndex":17,"items":[{"name":"삼성재활용센타","tel":"031-861-8832","addr":"경기도 동두천시 상패동 5-13번지","indutype":"전기제품 - 가전제품","category":"other"}]},{"lat":"37.909163991","long":"127.01204704","imageIndex":17,"items":[{"name":"삼원온스파주식회사","tel":"02-1600-8456","addr":"경기도 동두천시 상패동 1083-5번지","indutype":"전기제품 - 기타전기제품","category":"other"}]},{"lat":"37.90177463","long":"127.02504203","imageIndex":17,"items":[{"name":"샬롬","tel":"070-8877-0469","addr":"경기도 동두천시 상패동 686-9번지","indutype":"의류 - 내의판매","category":"other"}]},{"lat":"37.91265907","long":"127.01732393","imageIndex":17,"items":[{"name":"성우상사","tel":"031-863-8343","addr":"경기도 동두천시 상패동 941-2번지","indutype":"건축자재 - 보일러·펌프·샷시","category":"other"}]},{"lat":"37.904020838","long":"127.04683965","imageIndex":17,"items":[{"name":"성원목재","tel":"031-862-7373","addr":"경기도 동두천시 상패동 66-1번지","indutype":"건축자재 - 목재·석재·철물","category":"other"}]},{"lat":"37.909272564","long":"127.04867353","imageIndex":17,"items":[{"name":"세븐일레븐동두천경찰서점","tel":"031-1577-0711","addr":"경기도 동두천시 상패동 40-3번지","indutype":"유통업 영리 - 편 의 점","category":"other"}]},{"lat":"37.903328345","long":"127.04342816","imageIndex":17,"items":[{"name":"세븐일레븐동두천시민회관점","tel":"031-1577-0711","addr":"경기도 동두천시 상패동 74-1번지 1층","indutype":"유통업 영리 - 편 의 점","category":"other"}]},{"lat":"37.898630676","long":"127.02340388","imageIndex":17,"items":[{"name":"스마일","tel":"031-111-1111","addr":"경기도 동두천시 상패동 756번지","indutype":"직물 - 침구·수예점","category":"other"},{"name":"아라기술","tel":"031-222-2222","addr":"경기도 동두천시 상패동 756번지","indutype":"사무통신 - 컴퓨터","category":"other"}]},{"lat":"37.903855817","long":"127.02484936","imageIndex":17,"items":[{"name":"스피드기획","tel":"070-8225-3924","addr":"경기도 동두천시 상패동 679-11","indutype":"용역 서비스 - 종합용역","category":"other"}]},{"lat":"37.903853063","long":"127.0365153","imageIndex":17,"items":[{"name":"신한대학교제2캠퍼스구내서점","tel":"031-872-7204","addr":"경기도 동두천시 상패동 233-1번지","indutype":"서적문구 - 일반서적","category":"other"},{"name":"씨유동두천신한대캠퍼스점","tel":"031-866-8938","addr":"경기도 동두천시 상패동 233-1번지 브니엘관","indutype":"유통업 영리 - 편 의 점","category":"other"}]},{"lat":"37.904579373","long":"127.04695368","imageIndex":17,"items":[{"name":"씨스페이스 상패주공점","tel":"","addr":"경기도 동두천시 상패동 61-12번지 상패주공상가 1층 101~102호","indutype":"유통업 영리 - 편 의 점","category":"other"}]},{"lat":"37.904192108","long":"127.0465896","imageIndex":17,"items":[{"name":"씨유동두천신한대점","tel":"031-857-2065","addr":"경기도 동두천시 상패동 66-3번지","indutype":"유통업 영리 - 편 의 점","category":"other"}]},{"lat":"37.905661351","long":"127.04458924","imageIndex":17,"items":[{"name":"에프엠119","tel":"031-865-9119","addr":"경기도 동두천시 상패동 82-2번지","indutype":"용역 서비스 - 기타용역서비스","category":"other"}]},{"lat":"37.904993758","long":"127.04706763","imageIndex":17,"items":[{"name":"열방인테리어","tel":"031-866-6641","addr":"경기도 동두천시 상패동 65-15번지","indutype":"용역 서비스 - 기타용역서비스","category":"other"}]},{"lat":"37.905914877","long":"127.04084845","imageIndex":17,"items":[{"name":"영남철강","tel":"031-864-2835","addr":"경기도 동두천시 상패동 113-4","indutype":"기타 - 기계공구","category":"other"}]},{"lat":"37.908551722","long":"127.04892324","imageIndex":17,"items":[{"name":"영성전기콘트롤즈","tel":"031-865-1235","addr":"경기도 동두천시 상패동 51-11번지","indutype":"건축자재 - 조명기구","category":"other"}]},{"lat":"37.906717316","long":"127.03890446","imageIndex":17,"items":[{"name":"온돌백화점","tel":"031-856-9204","addr":"경기도 동두천시 상패동 208-4번지","indutype":"건축자재 - 기타건축자재","category":"other"}]},{"lat":"37.90310288","long":"127.04409888","imageIndex":17,"items":[{"name":"우성공업농기계","tel":"031-866-4800","addr":"경기도 동두천시 상패동 75-16번지","indutype":"수리서비스 - 기타수리서비스","category":"other"}]},{"lat":"37.90299536","long":"127.04237055","imageIndex":17,"items":[{"name":"유씨바이크","tel":"070-7783-9919","addr":"경기도 동두천시 상패동 91-1번지","indutype":"레져용품 - 스포츠·레져용품","category":"other"}]},{"lat":"37.911578328","long":"127.05023285","imageIndex":17,"items":[{"name":"유진넷","tel":"","addr":"경기도 동두천시 상패동 25-11번지 2층 1호","indutype":"용역 서비스 - 기타용역서비스","category":"other"},{"name":"이지코리아","tel":"","addr":"경기도 동두천시 상패동 25-11번지","indutype":"전기제품 - 기타전기제품","category":"other"},{"name":"티에프 코리아 (TF KOREA)","tel":"031-528-6263","addr":"경기도 동두천시 상패동 25-11번지 1층","indutype":"문화.취미 - 화원","category":"other"}]},{"lat":"37.908240753","long":"127.03596012","imageIndex":17,"items":[{"name":"이담장례식장","tel":"031-866-7300","addr":"경기도 동두천시 상패동 201-19번지","indutype":"용역 서비스 - 가례서비스업","category":"other"}]},{"lat":"37.910352053","long":"127.02181514","imageIndex":17,"items":[{"name":"이삭아울렛","tel":"031-000-0000","addr":"경기도 동두천시 상패동 849-4번지","indutype":"의류 - 기타의류","category":"other"}]},{"lat":"37.913046149","long":"127.05192818","imageIndex":17,"items":[{"name":"자연미인테리어","tel":"","addr":"경기도 동두천시 상패동 22-2번지","indutype":"건축자재 - 인테리어전문","category":"other"}]},{"lat":"37.904498462","long":"127.04648745","imageIndex":17,"items":[{"name":"제일제당배합사료동두천특약점","tel":"031-865-3535","addr":"경기도 동두천시 상패동 69-19번지","indutype":"농업 - 비료,사료,종자","category":"other"}]},{"lat":"37.896221121","long":"127.04001352","imageIndex":17,"items":[{"name":"주식회사 세라비","tel":"070-4036-5273","addr":"경기도 동두천시 상패동 330-1번지","indutype":"의류 - 정장","category":"other"}]},{"lat":"37.896663591","long":"127.03664846","imageIndex":17,"items":[{"name":"주식회사누보비앤티","tel":"02-975-2582","addr":"경기도 동두천시 상패동 335번지","indutype":"농업 - 비료,사료,종자","category":"other"}]},{"lat":"37.905242907","long":"127.02662357","imageIndex":17,"items":[{"name":"주식회사모컴테크","tel":"031-531-0498","addr":"경기도 동두천시 상패동 660-9번지","indutype":"기타 - 기타 전문점","category":"other"}]},{"lat":"37.9127114","long":"127.02768354","imageIndex":17,"items":[{"name":"주원","tel":"031-868-2561","addr":"경기도 동두천시 상패동 525-2번지","indutype":"유통업 영리 - 기타유통업","category":"other"}]},{"lat":"37.909548609","long":"127.03007043","imageIndex":17,"items":[{"name":"중앙상사","tel":"031-864-7585","addr":"경기도 동두천시 상패동 425-6번지","indutype":"건축자재 - 목재·석재·철물","category":"other"}]},{"lat":"37.898601617","long":"127.03287467","imageIndex":17,"items":[{"name":"참빛노인요양원","tel":"070-8849-8267","addr":"경기도 동두천시 상패동 361-13번지","indutype":"기타의료기관 - 기타의료기관 및 기타","category":"other"}]},{"lat":"37.905129464","long":"127.0455327","imageIndex":17,"items":[{"name":"태흥자동차유리","tel":"031-868-4806","addr":"경기도 동두천시 상패동 79-4번지","indutype":"건축자재 - 유리","category":"other"}]},{"lat":"37.915991683","long":"127.05312421","imageIndex":17,"items":[{"name":"풍경애드","tel":"031-858-7767","addr":"경기도 동두천시 상패동 13-14번지 1층","indutype":"건축자재 - 인테리어전문","category":"other"},{"name":"홈시스템","tel":"070-4001-7287","addr":"경기도 동두천시 상패동 13-14번지 1층","indutype":"용역 서비스 - 기타용역서비스","category":"other"}]},{"lat":"37.900937366","long":"127.02157397","imageIndex":17,"items":[{"name":"한국불교태고종덕수사","tel":"031-862-6686","addr":"경기도 동두천시 상패동 766-1번지","indutype":"기타 - 기타 전문점","category":"other"}]},{"lat":"37.903768252","long":"127.04770364","imageIndex":17,"items":[{"name":"형제건축자재","tel":"031-862-3723","addr":"경기도 동두천시 상패동 63-1","indutype":"건축자재 - 기타건축자재","category":"other"}]}]