[{"lat":"37.237053912","long":"127.20715109","imageIndex":7,"items":[{"name":"A.D농산","tel":"031-332-0419","addr":"경기도 용인시 처인구 김량장동 133-10번지 (김량장동133-10,133-81)","indutype":"음료식품 - 농·축·수산품","category":"food"},{"name":"용운식품","tel":"031-336-4987","addr":"경기도 용인시 처인구 김량장동 133-10번지 1층","indutype":"음료식품 - 농·축·수산품","category":"food"}]},{"lat":"37.236718563","long":"127.20828839","imageIndex":7,"items":[{"name":"가자백화점","tel":"031-338-8148","addr":"경기도 용인시 처인구 김량장동 139-5번지","indutype":"음료식품 - 기타음료식품","category":"food"}]},{"lat":"37.236162613","long":"127.20673173","imageIndex":7,"items":[{"name":"강경젓갈상회","tel":"031-321-4728","addr":"경기도 용인시 처인구 김량장동 133-28에이동160호~161호","indutype":"음료식품 - 기타음료식품","category":"food"}]},{"lat":"37.236830381","long":"127.20614752","imageIndex":7,"items":[{"name":"강원상회","tel":"031-333-5696","addr":"경기도 용인시 처인구 김량장동 133-140번지","indutype":"음료식품 - 농·축·수산품","category":"food"},{"name":"대진고추상회","tel":"031-335-2549","addr":"경기도 용인시 처인구 김량장동 133-140번지","indutype":"음료식품 - 기타음료식품","category":"food"},{"name":"서해 김마당","tel":"031-333-9289","addr":"경기도 용인시 처인구 김량장동 133-140번지","indutype":"음료식품 - 기타음료식품","category":"food"},{"name":"천안고추상회","tel":"031-335-2549","addr":"경기도 용인시 처인구 김량장동 133-140번지","indutype":"음료식품 - 기타음료식품","category":"food"}]},{"lat":"37.236629456","long":"127.20771341","imageIndex":7,"items":[{"name":"건강탕제원","tel":"031-335-1196","addr":"경기도 용인시 처인구 김량장동 133-14번지","indutype":"건강식품 - 기타건강식품","category":"food"}]},{"lat":"37.236721677","long":"127.20648531","imageIndex":7,"items":[{"name":"경기세분소","tel":"031-335-2405","addr":"경기도 용인시 처인구 김량장동 133-215","indutype":"음료식품 - 제과점","category":"food"},{"name":"민속전집","tel":"031-335-5453","addr":"경기도 용인시 처인구 김량장동 133-215","indutype":"음료식품 - 기타음료식품","category":"food"}]},{"lat":"37.237189882","long":"127.20667814","imageIndex":7,"items":[{"name":"경상도수산","tel":"031-335-6219","addr":"경기도 용인시 처인구 김량장동 133-188번지","indutype":"음료식품 - 농·축·수산품","category":"food"},{"name":"용인고추상회","tel":"031-336-7986","addr":"경기도 용인시 처인구 김량장동 133-188번지","indutype":"음료식품 - 기타음료식품","category":"food"},{"name":"홍일고추상회","tel":"031-335-7795","addr":"경기도 용인시 처인구 김량장동 133-188번지","indutype":"음료식품 - 기타음료식품","category":"food"}]},{"lat":"37.236883629","long":"127.20662097","imageIndex":7,"items":[{"name":"고향떡집","tel":"031-335-4405","addr":"경기도 용인시 처인구 김량장동 133-37번지 113호","indutype":"음료식품 - 제과점","category":"food"},{"name":"금산건강원","tel":"031-335-2837","addr":"경기도 용인시 처인구 김량장동 133-37번지","indutype":"건강식품 - 기타건강식품","category":"food"},{"name":"서울식품상회","tel":"031-335-2418","addr":"경기도 용인시 처인구 김량장동 133-37번지 111,211호","indutype":"음료식품 - 농·축·수산품","category":"food"},{"name":"양지정육점","tel":"031-332-0076","addr":"경기도 용인시 처인구 김량장동 133-37번지","indutype":"음료식품 - 정육점","category":"food"},{"name":"충북정육점","tel":"031-335-2935","addr":"경기도 용인시 처인구 김량장동 133-37번지","indutype":"음료식품 - 정육점","category":"food"}]},{"lat":"37.232471462","long":"127.21014747","imageIndex":7,"items":[{"name":"광승상회","tel":"031-335-2835","addr":"경기도 용인시 처인구 김량장동 23-1번지","indutype":"음료식품 - 기타음료식품","category":"food"},{"name":"바로구운빵","tel":"","addr":"경기도 용인시 처인구 김량장동 23-1번지 용인공용버스터미널 A동 1층","indutype":"음료식품 - 제과점","category":"food"}]},{"lat":"37.237215903","long":"127.20726422","imageIndex":7,"items":[{"name":"광주제분소","tel":"031-335-2652","addr":"경기도 용인시 처인구 김량장동 133-117번지 1층","indutype":"음료식품 - 기타음료식품","category":"food"}]},{"lat":"37.236715464","long":"127.20485124","imageIndex":7,"items":[{"name":"김재열축산도소매센터","tel":"031-339-5440","addr":"경기도 용인시 처인구 김량장동 254-366번지 101 (김량장동101호~102호)","indutype":"음료식품 - 정육점","category":"food"},{"name":"땅스부대찌개","tel":"031-334-8599","addr":"경기도 용인시 처인구 김량장동 254-366번지 1층","indutype":"음료식품 - 기타음료식품","category":"food"}]},{"lat":"37.236408062","long":"127.20012858","imageIndex":7,"items":[{"name":"김탁구빵집","tel":"031-367-6542","addr":"경기도 용인시 처인구 김량장동 316-3번지","indutype":"음료식품 - 제과점","category":"food"}]},{"lat":"37.236550423","long":"127.20651865","imageIndex":7,"items":[{"name":"낙원떡집","tel":"031-335-4631","addr":"경기도 용인시 처인구 김량장동 133-223번지","indutype":"음료식품 - 제과점","category":"food"}]},{"lat":"37.237136285","long":"127.20640753","imageIndex":7,"items":[{"name":"농사짓는집","tel":"031-338-0117","addr":"경기도 용인시 처인구 김량장동 133-190번지 1층","indutype":"음료식품 - 농·축·수산품","category":"food"},{"name":"충남수산","tel":"031-335-1884","addr":"경기도 용인시 처인구 김량장동 133-190번지","indutype":"음료식품 - 농·축·수산품","category":"food"}]},{"lat":"37.23674188","long":"127.20521192","imageIndex":7,"items":[{"name":"농심축산도매센타","tel":"031-321-3909","addr":"경기도 용인시 처인구 김량장동 254-319번지","indutype":"음료식품 - 농·축·수산품","category":"food"}]},{"lat":"37.236443016","long":"127.2061014","imageIndex":7,"items":[{"name":"늘푸른과일","tel":"031-339-0975","addr":"경기도 용인시 처인구 김량장동 133-51번지","indutype":"음료식품 - 농·축·수산품","category":"food"}]},{"lat":"37.234635336","long":"127.19873787","imageIndex":7,"items":[{"name":"달콤하이","tel":"031-339-3776","addr":"경기도 용인시 처인구 김량장동 333-1번지 1층","indutype":"음료식품 - 기타음료식품","category":"food"}]},{"lat":"37.237104987","long":"127.20887545","imageIndex":7,"items":[{"name":"대박집","tel":"070-7696-6203","addr":"경기도 용인시 처인구 김량장동 142-21번지 1층","indutype":"음료식품 - 농·축·수산품","category":"food"}]},{"lat":"37.238133236","long":"127.20825842","imageIndex":7,"items":[{"name":"대성떡방앗간","tel":"031-335-6531","addr":"경기도 용인시 처인구 김량장동 161-13번지","indutype":"음료식품 - 제과점","category":"food"}]},{"lat":"37.237082804","long":"127.20606931","imageIndex":7,"items":[{"name":"대연닭집","tel":"031-335-3396","addr":"경기도 용인시 처인구 김량장동 133-193번지 1층 1호","indutype":"음료식품 - 정육점","category":"food"},{"name":"대한건강원","tel":"031-339-4145","addr":"경기도 용인시 처인구 김량장동 133-193번지 1층","indutype":"음료식품 - 농·축·수산품","category":"food"},{"name":"신흥정육점","tel":"031-335-2386","addr":"경기도 용인시 처인구 김량장동 133-193번지 186호","indutype":"음료식품 - 정육점","category":"food"}]},{"lat":"37.236938446","long":"127.20618162","imageIndex":7,"items":[{"name":"대중정육점","tel":"031-336-2900","addr":"경기도 용인시 처인구 김량장동 133-44번지","indutype":"음료식품 - 정육점","category":"food"}]},{"lat":"37.235774099","long":"127.20206523","imageIndex":7,"items":[{"name":"더덕나라","tel":"031-321-8007","addr":"경기도 용인시 처인구 김량장동 325-10번지 더덕나라","indutype":"건강식품 - 기타건강식품","category":"food"},{"name":"마미의부엌","tel":"031-335-8007","addr":"경기도 용인시 처인구 김량장동 325-10번지 105호","indutype":"음료식품 - 기타음료식품","category":"food"},{"name":"안나네","tel":"031-111-1111","addr":"경기도 용인시 처인구 김량장동 325-10번지","indutype":"음료식품 - 농·축·수산품","category":"food"}]},{"lat":"37.237163084","long":"127.20654284","imageIndex":7,"items":[{"name":"돈마당축산","tel":"031-338-8777","addr":"경기도 용인시 처인구 김량장동 133-129번지","indutype":"음료식품 - 정육점","category":"food"},{"name":"충남상회","tel":"031-336-6792","addr":"경기도 용인시 처인구 김량장동 133-129번지","indutype":"음료식품 - 기타음료식품","category":"food"}]},{"lat":"37.237241492","long":"127.20809823","imageIndex":7,"items":[{"name":"동구제분소","tel":"031-335-8374","addr":"경기도 용인시 처인구 김량장동 139-2번지","indutype":"음료식품 - 기타음료식품","category":"food"},{"name":"화성쌀상회","tel":"031-338-9096","addr":"경기도 용인시 처인구 김량장동 139-2번지","indutype":"음료식품 - 미곡상","category":"food"}]},{"lat":"37.236686158","long":"127.20618094","imageIndex":7,"items":[{"name":"동선상회","tel":"031-332-2512","addr":"경기도 용인시 처인구 김량장동 133-151번지","indutype":"음료식품 - 정육점","category":"food"},{"name":"반찬동나라","tel":"031-336-8488","addr":"경기도 용인시 처인구 김량장동 133-151번지","indutype":"음료식품 - 기타음료식품","category":"food"},{"name":"장수건강원","tel":"031-335-4994","addr":"경기도 용인시 처인구 김량장동 133-151번지","indutype":"건강식품 - 기타건강식품","category":"food"},{"name":"제일상회","tel":"031-335-4668","addr":"경기도 용인시 처인구 김량장동 133-151번지","indutype":"음료식품 - 기타음료식품","category":"food"}]},{"lat":"37.234519692","long":"127.20323391","imageIndex":7,"items":[{"name":"로얄티코리아 (주)","tel":"031-321-2537","addr":"경기도 용인시 처인구 김량장동 295-1번지 위너스프라자 602호","indutype":"음료식품 - 기타음료식품","category":"food"}]},{"lat":"37.236135059","long":"127.20173937","imageIndex":7,"items":[{"name":"마니커 용인닭백화점","tel":"031-333-3019","addr":"경기도 용인시 처인구 김량장동 325-6번지","indutype":"음료식품 - 정육점","category":"food"}]},{"lat":"37.234909111","long":"127.19663127","imageIndex":7,"items":[{"name":"마임 용인명지대지사","tel":"031-336-3530","addr":"경기도 용인시 처인구 김량장동 293-20번지 2층","indutype":"건강식품 - 기타건강식품","category":"food"}]},{"lat":"37.237908115","long":"127.20817892","imageIndex":7,"items":[{"name":"마임믿음","tel":"031-321-3933","addr":"경기도 용인시 처인구 김량장동 145-22번지 문화빌딩 201호","indutype":"건강식품 - 기타건강식품","category":"food"}]},{"lat":"37.236801333","long":"127.20731945","imageIndex":7,"items":[{"name":"만인제분소","tel":"031-335-7767","addr":"경기도 용인시 처인구 김량장동 133-133번지","indutype":"음료식품 - 미곡상","category":"food"}]},{"lat":"37.236298097","long":"127.20654051","imageIndex":7,"items":[{"name":"맛뜰(용인강정)","tel":"02-794-9710","addr":"경기도 용인시 처인구 김량장동 133-137번지 1층","indutype":"음료식품 - 기타음료식품","category":"food"},{"name":"밥엔김","tel":"031-333-4199","addr":"경기도 용인시 처인구 김량장동 133-137번지 1층","indutype":"음료식품 - 기타음료식품","category":"food"},{"name":"영금이네식품","tel":"031-333-0070","addr":"경기도 용인시 처인구 김량장동 133-137번지","indutype":"음료식품 - 기타음료식품","category":"food"}]},{"lat":"37.235327362","long":"127.2051518","imageIndex":7,"items":[{"name":"멜팅+(melting+)","tel":"031-323-3314","addr":"경기도 용인시 처인구 김량장동 133-77번지 2층","indutype":"음료식품 - 기타음료식품","category":"food"}]},{"lat":"37.236687356","long":"127.20548224","imageIndex":7,"items":[{"name":"못난이꽈배기","tel":"031-323-1909","addr":"경기도 용인시 처인구 김량장동 133-71번지","indutype":"음료식품 - 기타음료식품","category":"food"}]},{"lat":"37.235407934","long":"127.20545628","imageIndex":7,"items":[{"name":"미라인","tel":"031-323-0923","addr":"경기도 용인시 처인구 김량장동 254-333번지 3층","indutype":"회원제형태 - 건강식품","category":"food"}]},{"lat":"37.236469428","long":"127.20646209","imageIndex":7,"items":[{"name":"민속떡집","tel":"031-337-2829","addr":"경기도 용인시 처인구 김량장동 133-213","indutype":"음료식품 - 제과점","category":"food"},{"name":"세광식품","tel":"031-332-0880","addr":"경기도 용인시 처인구 김량장동 133-213","indutype":"음료식품 - 기타음료식품","category":"food"},{"name":"용인반찬","tel":"031-332-0436","addr":"경기도 용인시 처인구 김량장동 133-213번지","indutype":"음료식품 - 기타음료식품","category":"food"},{"name":"평창쌀상회","tel":"031-335-2705","addr":"경기도 용인시 처인구 김량장동 133-213","indutype":"음료식품 - 미곡상","category":"food"}]},{"lat":"37.236662613","long":"127.19876566","imageIndex":7,"items":[{"name":"민재네과일","tel":"031-339-2060","addr":"경기도 용인시 처인구 김량장동 316번지","indutype":"음료식품 - 농·축·수산품","category":"food"},{"name":"뻥순이네","tel":"031-333-4393","addr":"경기도 용인시 처인구 김량장동 316번지 1층","indutype":"음료식품 - 기타음료식품","category":"food"}]},{"lat":"37.235692815","long":"127.20746296","imageIndex":7,"items":[{"name":"배스킨라빈스","tel":"031-321-0131","addr":"경기도 용인시 처인구 김량장동 130-6번지","indutype":"음료식품 - 제과점","category":"food"}]},{"lat":"37.238023113","long":"127.20940761","imageIndex":7,"items":[{"name":"별미떡방앗간","tel":"031-332-1498","addr":"경기도 용인시 처인구 김량장동 164-2번지","indutype":"음료식품 - 제과점","category":"food"}]},{"lat":"37.236246065","long":"127.20001547","imageIndex":7,"items":[{"name":"비젼유통","tel":"031-336-8528","addr":"경기도 용인시 처인구 김량장동 316-7번지","indutype":"음료식품 - 기타음료식품","category":"food"}]},{"lat":"37.235685376","long":"127.20124235","imageIndex":7,"items":[{"name":"산골정육점","tel":"031-335-5977","addr":"경기도 용인시 처인구 김량장동 324-10번지 1층","indutype":"음료식품 - 정육점","category":"food"}]},{"lat":"37.235301944","long":"127.20420512","imageIndex":7,"items":[{"name":"삼성떡방아간","tel":"031-335-7698","addr":"경기도 용인시 처인구 김량장동 254-105번지","indutype":"음료식품 - 제과점","category":"food"}]},{"lat":"37.232574537","long":"127.20259772","imageIndex":7,"items":[{"name":"서구정육점","tel":"031-335-5570","addr":"경기도 용인시 처인구 김량장동 343번지 2층","indutype":"음료식품 - 정육점","category":"food"}]},{"lat":"37.236747563","long":"127.20715027","imageIndex":7,"items":[{"name":"성수청과","tel":"031-335-0326","addr":"경기도 용인시 처인구 김량장동 133-147번지","indutype":"음료식품 - 농·축·수산품","category":"food"},{"name":"자연담은건강원","tel":"031-333-2750","addr":"경기도 용인시 처인구 김량장동 133-147번지","indutype":"건강식품 - 기타건강식품","category":"food"}]},{"lat":"37.236523838","long":"127.20625939","imageIndex":7,"items":[{"name":"수원닭집","tel":"031-335-2761","addr":"경기도 용인시 처인구 김량장동 133-50번지","indutype":"음료식품 - 정육점","category":"food"},{"name":"용천상회","tel":"031-335-7182","addr":"경기도 용인시 처인구 김량장동 133-50번지","indutype":"음료식품 - 농·축·수산품","category":"food"},{"name":"정일품","tel":"031-336-2160","addr":"경기도 용인시 처인구 김량장동 133-50번지","indutype":"건강식품 - 인삼제품","category":"food"}]},{"lat":"37.232302491","long":"127.19823602","imageIndex":7,"items":[{"name":"스위트피(Sweet Pea)","tel":"031-333-0876","addr":"경기도 용인시 처인구 김량장동 505-13번지 1층 일부","indutype":"음료식품 - 제과점","category":"food"}]},{"lat":"37.234965562","long":"127.20596221","imageIndex":7,"items":[{"name":"시네마건강식품","tel":"031-336-1111","addr":"경기도 용인시 처인구 김량장동 301-3번지 시네마일번가 1004호","indutype":"건강식품 - 기타건강식품","category":"food"}]},{"lat":"37.236046196","long":"127.20631445","imageIndex":7,"items":[{"name":"시장유통","tel":"031-332-0069","addr":"경기도 용인시 처인구 김량장동 133-221번지","indutype":"음료식품 - 정육점","category":"food"}]},{"lat":"37.234852888","long":"127.20859886","imageIndex":7,"items":[{"name":"신성 수제커피&담배","tel":"02-1111-1111","addr":"경기도 용인시 처인구 김량장동 111-8번지 2호","indutype":"음료식품 - 기타음료식품","category":"food"}]},{"lat":"37.236912265","long":"127.20568569","imageIndex":7,"items":[{"name":"싱싱과일나라","tel":"031-335-1703","addr":"경기도 용인시 처인구 김량장동 133-198번지 1층","indutype":"음료식품 - 농·축·수산품","category":"food"}]},{"lat":"37.235880647","long":"127.20826358","imageIndex":7,"items":[{"name":"어여사푸드","tel":"070-7725-0406","addr":"경기도 용인시 처인구 김량장동 115-6번지 3층","indutype":"음료식품 - 기타음료식품","category":"food"}]},{"lat":"37.237216194","long":"127.20709518","imageIndex":7,"items":[{"name":"엄마식품","tel":"031-321-1777","addr":"경기도 용인시 처인구 김량장동 133-120번지","indutype":"음료식품 - 농·축·수산품","category":"food"}]},{"lat":"37.237771622","long":"127.20370456","imageIndex":7,"items":[{"name":"옛날집","tel":"","addr":"경기도 용인시 처인구 김량장동 233-9번지","indutype":"음료식품 - 기타음료식품","category":"food"}]},{"lat":"37.232715492","long":"127.19912731","imageIndex":7,"items":[{"name":"오직평창한우","tel":"031-338-0844","addr":"경기도 용인시 처인구 김량장동 345-2번지","indutype":"음료식품 - 정육점","category":"food"}]},{"lat":"37.235241014","long":"127.2082055","imageIndex":7,"items":[{"name":"용인건식","tel":"031-336-0066","addr":"경기도 용인시 처인구 김량장동 96번지 에스타워 3층","indutype":"건강식품 - 기타건강식품","category":"food"}]},{"lat":"37.236658798","long":"127.20637244","imageIndex":7,"items":[{"name":"용인떡집","tel":"031-335-5480","addr":"경기도 용인시 처인구 김량장동 133-217번지","indutype":"음료식품 - 제과점","category":"food"}]},{"lat":"37.23718963","long":"127.20682465","imageIndex":7,"items":[{"name":"용인민물마을","tel":"031-323-6016","addr":"경기도 용인시 처인구 김량장동 133-186번지","indutype":"회원제형태 - 건강식품","category":"food"}]},{"lat":"37.23638356","long":"127.20398261","imageIndex":7,"items":[{"name":"용인약초백화점","tel":"","addr":"경기도 용인시 처인구 김량장동 254-370번지 대흥빌딩 1층 103, 104호","indutype":"건강식품 - 기타건강식품","category":"food"}]},{"lat":"37.233692002","long":"127.20248797","imageIndex":7,"items":[{"name":"우리인삼","tel":"031-336-0036","addr":"경기도 용인시 처인구 김량장동 341-1번지","indutype":"건강식품 - 기타건강식품","category":"food"}]},{"lat":"37.237214168","long":"127.2082672","imageIndex":7,"items":[{"name":"원타임용인점","tel":"031-336-1696","addr":"경기도 용인시 처인구 김량장동 140-2번지","indutype":"음료식품 - 기타음료식품","category":"food"}]},{"lat":"37.236857972","long":"127.20582078","imageIndex":7,"items":[{"name":"월드푸드","tel":"031-335-5388","addr":"경기도 용인시 처인구 김량장동 133-46번지 1층","indutype":"음료식품 - 기타음료식품","category":"food"}]},{"lat":"37.235218907","long":"127.19451347","imageIndex":7,"items":[{"name":"웰라이프","tel":"031-8031-0200","addr":"경기도 용인시 처인구 김량장동 292-6번지","indutype":"건강식품 - 기타건강식품","category":"food"},{"name":"제일봄소아청소년과의원","tel":"031-8031-0201","addr":"경기도 용인시 처인구 김량장동 292-6번지","indutype":"건강식품 - 기타건강식품","category":"food"}]},{"lat":"37.23729608","long":"127.2077941","imageIndex":7,"items":[{"name":"웰빙건강하우스","tel":"031-321-1811","addr":"경기도 용인시 처인구 김량장동 137-23번지","indutype":"음료식품 - 기타음료식품","category":"food"},{"name":"중국식품점","tel":"031-336-8776","addr":"경기도 용인시 처인구 김량장동 137-23번지","indutype":"음료식품 - 기타음료식품","category":"food"}]},{"lat":"37.235186896","long":"127.19756731","imageIndex":7,"items":[{"name":"이슬로건강원","tel":"031-335-5252","addr":"경기도 용인시 처인구 김량장동 293-14번지","indutype":"건강식품 - 기타건강식품","category":"food"}]},{"lat":"37.234991987","long":"127.19553838","imageIndex":7,"items":[{"name":"자연애","tel":"031-335-7707","addr":"경기도 용인시 처인구 김량장동 293-23번지 4층 존애드현수막","indutype":"건강식품 - 기타건강식품","category":"food"}]},{"lat":"37.234659996","long":"127.19468109","imageIndex":7,"items":[{"name":"잘빠짐","tel":"070-4325-7063","addr":"경기도 용인시 처인구 김량장동 409번지 수빌딩 2층 201호","indutype":"건강식품 - 기타건강식품","category":"food"}]},{"lat":"37.233302924","long":"127.20870734","imageIndex":7,"items":[{"name":"정관장(중앙동점)","tel":"031-336-5385","addr":"경기도 용인시 처인구 김량장동 70-5번지","indutype":"건강식품 - 홍삼제품","category":"food"},{"name":"정관장동경기중앙동점","tel":"031-336-5385","addr":"경기도 용인시 처인구 김량장동 70-5번지","indutype":"건강식품 - 홍삼제품","category":"food"}]},{"lat":"37.2345517","long":"127.20027024","imageIndex":7,"items":[{"name":"정관장홍삼용인전시판매장","tel":"031-333-5000","addr":"경기도 용인시 처인구 김량장동 334-2번지 거성빌딩 1층 1호","indutype":"건강식품 - 홍삼제품","category":"food"}]},{"lat":"37.236999423","long":"127.20739887","imageIndex":7,"items":[{"name":"정성건강원","tel":"031-335-4845","addr":"경기도 용인시 처인구 김량장동 133-9번지","indutype":"건강식품 - 기타건강식품","category":"food"}]},{"lat":"37.237357079","long":"127.20898883","imageIndex":7,"items":[{"name":"정원유통(정일11번)","tel":"070-4062-6229","addr":"경기도 용인시 처인구 김량장동 143번지","indutype":"음료식품 - 농·축·수산품","category":"food"}]},{"lat":"37.235798724","long":"127.19809854","imageIndex":7,"items":[{"name":"주공방아간","tel":"031-335-0288","addr":"경기도 용인시 처인구 김량장동 314-7번지","indutype":"음료식품 - 제과점","category":"food"}]},{"lat":"37.237242408","long":"127.20756857","imageIndex":7,"items":[{"name":"주북농장","tel":"031-335-5053","addr":"경기도 용인시 처인구 김량장동 133-100번지","indutype":"음료식품 - 정육점","category":"food"}]},{"lat":"37.236495935","long":"127.20676643","imageIndex":7,"items":[{"name":"중앙복떡","tel":"031-321-5484","addr":"경기도 용인시 처인구 김량장동 133-226번지 1층","indutype":"음료식품 - 제과점","category":"food"}]},{"lat":"37.23346881","long":"127.20656671","imageIndex":7,"items":[{"name":"진로식품용인대리점","tel":"031-338-4040","addr":"경기도 용인시 처인구 김량장동 77-12번지","indutype":"음료식품 - 기타음료식품","category":"food"}]},{"lat":"37.232521177","long":"127.20218063","imageIndex":7,"items":[{"name":"천년축산","tel":"031-321-0330","addr":"경기도 용인시 처인구 김량장동 344-7번지 7호","indutype":"음료식품 - 정육점","category":"food"}]},{"lat":"37.237825712","long":"127.20893376","imageIndex":7,"items":[{"name":"청송건강원","tel":"031-338-7213","addr":"경기도 용인시 처인구 김량장동 144-6번지","indutype":"건강식품 - 기타건강식품","category":"food"}]},{"lat":"37.237249064","long":"127.20368064","imageIndex":7,"items":[{"name":"태원축산","tel":"031-335-6917","addr":"경기도 용인시 처인구 김량장동 231-3번지","indutype":"음료식품 - 정육점","category":"food"}]},{"lat":"37.232521689","long":"127.20187638","imageIndex":7,"items":[{"name":"터미널떡방앗간","tel":"031-335-0010","addr":"경기도 용인시 처인구 김량장동 344-6번지 (1층3호중왼쪽)","indutype":"음료식품 - 제과점","category":"food"}]},{"lat":"37.234439997","long":"127.20768495","imageIndex":7,"items":[{"name":"통통식품","tel":"031-323-6163","addr":"경기도 용인시 처인구 김량장동 78-1번지 롱하트2차맨션","indutype":"음료식품 - 농·축·수산품","category":"food"}]},{"lat":"37.234824381","long":"127.19331795","imageIndex":7,"items":[{"name":"파리바게뜨 용인역삼점","tel":"031-335-2655","addr":"경기도 용인시 처인구 김량장동 508-2번지","indutype":"음료식품 - 제과점","category":"food"}]},{"lat":"37.235132241","long":"127.19792778","imageIndex":7,"items":[{"name":"파리바게뜨(용인김량장점)","tel":"031-308-9414","addr":"경기도 용인시 처인구 김량장동 294-21번지","indutype":"음료식품 - 제과점","category":"food"}]},{"lat":"37.231832303","long":"127.20981894","imageIndex":7,"items":[{"name":"팔뚝두부","tel":"031-336-7194","addr":"경기도 용인시 처인구 김량장동 23번지 101호","indutype":"음료식품 - 기타음료식품","category":"food"}]},{"lat":"37.23227661","long":"127.19753729","imageIndex":7,"items":[{"name":"포마스데이","tel":"031-238-7095","addr":"경기도 용인시 처인구 김량장동 503-3번지 신우아파트 104호","indutype":"음료식품 - 기타음료식품","category":"food"}]},{"lat":"37.233797568","long":"127.20923832","imageIndex":7,"items":[{"name":"플러스유","tel":"031-336-6221","addr":"경기도 용인시 처인구 김량장동 63-21번지","indutype":"음료식품 - 기타음료식품","category":"food"}]},{"lat":"37.237384404","long":"127.20881986","imageIndex":7,"items":[{"name":"한근축산","tel":"031-321-9292","addr":"경기도 용인시 처인구 김량장동 142-1","indutype":"음료식품 - 정육점","category":"food"}]},{"lat":"37.237052998","long":"127.20768075","imageIndex":7,"items":[{"name":"행복건강하우스","tel":"070-4221-0188","addr":"경기도 용인시 처인구 김량장동 136-3번지 1층","indutype":"건강식품 - 기타건강식품","category":"food"}]},{"lat":"37.236163407","long":"127.20626969","imageIndex":7,"items":[{"name":"현대고추,기름","tel":"031-336-2313","addr":"경기도 용인시 처인구 김량장동 133-55번지","indutype":"음료식품 - 농·축·수산품","category":"food"}]}]