[{"lat":"37.307684043","long":"127.57731016","imageIndex":4,"items":[{"name":"CAFE LOVIN카페러빈","tel":"","addr":"경기도 여주시 능서면 번도리 333-6번지 2층","indutype":"일반휴게음식 - 서양음식","category":"restaurant"}]},{"lat":"37.298270362","long":"127.6005848","imageIndex":4,"items":[{"name":"고래,숨","tel":"","addr":"경기도 여주시 능서면 번도리 887-35번지","indutype":"일반휴게음식 - 서양음식","category":"restaurant"},{"name":"맛집건강한 밥상","tel":"","addr":"경기도 여주시 능서면 번도리 887-35번지 1층","indutype":"일반휴게음식 - 일반한식","category":"restaurant"},{"name":"평양자장면","tel":"031-882-8284","addr":"경기도 여주시 능서면 번도리 887-35번지","indutype":"일반휴게음식 - 일반한식","category":"restaurant"}]},{"lat":"37.3016299520","long":"127.5990323400","imageIndex":4,"items":[{"name":"구능촌","tel":"031-882-4893","addr":"경기도 여주시 능서면 번도리 910번지","indutype":"일반휴게음식 - 일반한식","category":"restaurant"}]},{"lat":"37.299101672","long":"127.57269965","imageIndex":4,"items":[{"name":"능서단골집","tel":"031-886-6699","addr":"경기도 여주시 능서면 번도리 498-3번지 1층","indutype":"일반휴게음식 - 일반한식","category":"restaurant"}]},{"lat":"37.299164459","long":"127.596588","imageIndex":4,"items":[{"name":"능서식당","tel":"031-882-9849","addr":"경기도 여주시 능서면 번도리 918-86번지","indutype":"일반휴게음식 - 일반한식","category":"restaurant"}]},{"lat":"37.299659519","long":"127.57286176","imageIndex":4,"items":[{"name":"능서참숯돈갈비","tel":"031-882-4338","addr":"경기도 여주시 능서면 번도리 499-12번지","indutype":"일반휴게음식 - 일반한식","category":"restaurant"},{"name":"명당만두","tel":"031-884-8244","addr":"경기도 여주시 능서면 번도리 499-12번지 능서회관","indutype":"일반휴게음식 - 일반한식","category":"restaurant"},{"name":"정든식당","tel":"031-882-0598","addr":"경기도 여주시 능서면 번도리 499-12번지","indutype":"일반휴게음식 - 일반한식","category":"restaurant"}]},{"lat":"37.297860201","long":"127.59794243","imageIndex":4,"items":[{"name":"돈스","tel":"031-883-6588","addr":"경기도 여주시 능서면 번도리 918-27번지","indutype":"일반휴게음식 - 일반한식","category":"restaurant"}]},{"lat":"37.299019421","long":"127.57480811","imageIndex":4,"items":[{"name":"멕시카나","tel":"031-881-5535","addr":"경기도 여주시 능서면 번도리 486번지","indutype":"일반휴게음식 - 주점","category":"restaurant"}]},{"lat":"37.29937978","long":"127.57294988","imageIndex":4,"items":[{"name":"명가네민물매운탕","tel":"031-884-6712","addr":"경기도 여주시 능서면 번도리 499-18번지","indutype":"일반휴게음식 - 일반한식","category":"restaurant"}]},{"lat":"37.299136896","long":"127.57286909","imageIndex":4,"items":[{"name":"보리수 다방","tel":"031-882-4311","addr":"경기도 여주시 능서면 번도리 498-1번지","indutype":"일반휴게음식 - 서양음식","category":"restaurant"}]},{"lat":"37.299079794","long":"127.57350026","imageIndex":4,"items":[{"name":"부흥식당","tel":"031-882-4342","addr":"경기도 여주시 능서면 번도리 494-2번지","indutype":"일반휴게음식 - 일반한식","category":"restaurant"}]},{"lat":"37.299051025","long":"127.57386095","imageIndex":4,"items":[{"name":"세미식당","tel":"","addr":"경기도 여주시 능서면 번도리 493-1번지","indutype":"일반휴게음식 - 일반한식","category":"restaurant"}]},{"lat":"37.299434762","long":"127.57275856","imageIndex":4,"items":[{"name":"양지식당","tel":"031-883-7030","addr":"경기도 여주시 능서면 번도리 499-14번지","indutype":"일반휴게음식 - 일반한식","category":"restaurant"}]},{"lat":"37.297190246","long":"127.59858001","imageIndex":4,"items":[{"name":"여주함흥냉면","tel":"031-886-8682","addr":"경기도 여주시 능서면 번도리 918-173번지","indutype":"일반휴게음식 - 일반한식","category":"restaurant"}]},{"lat":"37.3004698566","long":"127.5729806601","imageIndex":4,"items":[{"name":"이서방양념치킨","tel":"031-882-4329","addr":"경기도 여주시 능서면 번도리 509-1번지","indutype":"일반휴게음식 - 일반한식","category":"restaurant"}]},{"lat":"37.299107585","long":"127.57334257","imageIndex":4,"items":[{"name":"제일식당","tel":"031-884-1817","addr":"경기도 여주시 능서면 번도리 499-29번지","indutype":"일반휴게음식 - 중국식","category":"restaurant"}]},{"lat":"37.298747916","long":"127.59700203","imageIndex":4,"items":[{"name":"짬뽕일번지","tel":"031-883-7717","addr":"경기도 여주시 능서면 번도리 918-74번지","indutype":"일반휴게음식 - 중국식","category":"restaurant"}]},{"lat":"37.299021274","long":"127.57442465","imageIndex":4,"items":[{"name":"탕아탕아매운탕","tel":"031-883-6711","addr":"경기도 여주시 능서면 번도리 487-7번지","indutype":"일반휴게음식 - 일반한식","category":"restaurant"}]},{"lat":"37.298774061","long":"127.58813738","imageIndex":4,"items":[{"name":"토속촌","tel":"031-884-5008","addr":"경기도 여주시 능서면 번도리 170번지","indutype":"일반휴게음식 - 일반한식","category":"restaurant"}]}]