[{"lat":"37.47084498","long":"126.8720109","imageIndex":8,"items":[{"name":"GM연세가정의학과의원","tel":"02-2039-0780","addr":"경기도 광명시 하안동 770번지 효현빌딩 4층","indutype":"의원 - 의원","category":"medical"},{"name":"송승헌치과의원","tel":"02-897-2804","addr":"경기도 광명시 하안동 770번지 경흥빌딩 3층 301호","indutype":"의원 - 치과의원","category":"medical"},{"name":"한솔약국","tel":"02-898-2307","addr":"경기도 광명시 하안동 770번지 경홍빌딩 103호","indutype":"약국 - 약국","category":"medical"}]},{"lat":"37.46246422","long":"126.8789882","imageIndex":8,"items":[{"name":"강소아청소년과의원","tel":"02-896-5275","addr":"경기도 광명시 하안동 34-7번지 우덕빌딩 3층 303호 304호","indutype":"의원 - 의원","category":"medical"},{"name":"문약국","tel":"02-802-5995","addr":"경기도 광명시 하안동 34-7번지 우덕빌딩 1층","indutype":"약국 - 약국","category":"medical"},{"name":"삼성푸른소아청소년과","tel":"02-899-5275","addr":"경기도 광명시 하안동 34-7번지 우덕빌딩 3층 303호, 304호","indutype":"의원 - 의원","category":"medical"}]},{"lat":"37.46174342","long":"126.8789894","imageIndex":8,"items":[{"name":"강한의원","tel":"02-897-6136","addr":"경기도 광명시 하안동 36-1번지 제일빌딩 3층 033호 3041호","indutype":"의원 - 한의원","category":"medical"},{"name":"초록약국","tel":"02-807-2730","addr":"경기도 광명시 하안동 36-1번지 제일빌딩 1층 101호","indutype":"약국 - 약국","category":"medical"}]},{"lat":"37.46076586","long":"126.8747863","imageIndex":8,"items":[{"name":"고려하나의원","tel":"02-899-1182","addr":"경기도 광명시 하안동 605-7번지 103호","indutype":"의원 - 의원","category":"medical"}]},{"lat":"37.46234836","long":"126.8802091","imageIndex":8,"items":[{"name":"골든힐약국","tel":"02-892-6920","addr":"경기도 광명시 하안동 53-1골든힐빌딩 110호","indutype":"약국 - 약국","category":"medical"},{"name":"예랑한의원","tel":"02-3286-1075","addr":"경기도 광명시 하안동 53-1번지 405~407호","indutype":"의원 - 한의원","category":"medical"}]},{"lat":"37.45871427","long":"126.8772877","imageIndex":8,"items":[{"name":"광명성심외과","tel":"02-896-2288","addr":"경기도 광명시 하안동 305-5번지 성심외과빌딩","indutype":"의원 - 의원","category":"medical"}]},{"lat":"37.46173505","long":"126.8795998","imageIndex":8,"items":[{"name":"광명연세흉부외과의원","tel":"02-899-7933","addr":"경기도 광명시 하안동 37-5번지 두원빌딩 5층","indutype":"의원 - 의원","category":"medical"}]},{"lat":"37.46234687","long":"126.8787849","imageIndex":8,"items":[{"name":"광명한의원","tel":"02-893-1074","addr":"경기도 광명시 하안동 34-8번지 301호","indutype":"의원 - 한의원","category":"medical"},{"name":"누가광명의원","tel":"02-894-2376","addr":"경기도 광명시 하안동 34-8번지","indutype":"의원 - 의원","category":"medical"},{"name":"하나약국","tel":"02-802-5850","addr":"경기도 광명시 하안동 34-8번지 제일프라자 102호","indutype":"약국 - 약국","category":"medical"}]},{"lat":"37.46187737","long":"126.8778476","imageIndex":8,"items":[{"name":"구암한의원","tel":"02-803-1075","addr":"경기도 광명시 하안동 651-1번지 3층","indutype":"의원 - 한의원","category":"medical"},{"name":"서울굿모닝치과","tel":"02-802-2815","addr":"경기도 광명시 하안동 651-1번지 송화빌딩 3층 303호","indutype":"의원 - 치과의원","category":"medical"},{"name":"서울굿모닝치과","tel":"02-802-2815","addr":"경기도 광명시 하안동 651-1번지 송화빌딩 3층 303호","indutype":"의원 - 치과의원","category":"medical"}]},{"lat":"37.46254686","long":"126.8804801","imageIndex":8,"items":[{"name":"굿닥터 정형외과의원","tel":"02-898-7958","addr":"경기도 광명시 하안동 53-3번지 남전빌딩 3층","indutype":"의원 - 의원","category":"medical"},{"name":"서울스페셜치과","tel":"02-897-2880","addr":"경기도 광명시 하안동 53-3번지 남전빌딩 7층","indutype":"의원 - 치과의원","category":"medical"}]},{"lat":"37.46213224","long":"126.8803225","imageIndex":8,"items":[{"name":"그린약국","tel":"02-804-7582","addr":"경기도 광명시 하안동 53번지 현대빌딩 101호","indutype":"약국 - 약국","category":"medical"},{"name":"청솔한의원","tel":"02-898-7555","addr":"경기도 광명시 하안동 53번지 현대빌딩 3층 3호","indutype":"의원 - 한의원","category":"medical"}]},{"lat":"37.46154641","long":"126.8801539","imageIndex":8,"items":[{"name":"금동한의원","tel":"02-804-7775","addr":"경기도 광명시 하안동 51번지 태흥빌딩 2층 201호","indutype":"의원 - 한의원","category":"medical"},{"name":"다사랑이비인후과","tel":"02-804-0171","addr":"경기도 광명시 하안동 51번지 태흥빌딩 202호","indutype":"의원 - 의원","category":"medical"}]},{"lat":"37.46290646","long":"126.8797109","imageIndex":8,"items":[{"name":"길한의원","tel":"02-897-1075","addr":"경기도 광명시 하안동 33-3세일빌딩602호603호","indutype":"의원 - 한의원","category":"medical"},{"name":"소순남피부과의원","tel":"02-806-5700","addr":"경기도 광명시 하안동 33-3번지 중심상업지구내세일빌딩 304호","indutype":"의원 - 의원","category":"medical"},{"name":"우리이비인후과","tel":"02-802-0705","addr":"경기도 광명시 하안동 33-3번지 세일빌딩 303호","indutype":"의원 - 의원","category":"medical"},{"name":"우주온누리약국","tel":"02-895-2835","addr":"경기도 광명시 하안동 33-3번지 세일빌딩 105,106호","indutype":"약국 - 약국","category":"medical"},{"name":"유명한의원","tel":"02-892-1500","addr":"경기도 광명시 하안동 33-3번지 세일빌딩 302호","indutype":"의원 - 한의원","category":"medical"},{"name":"유춘식치과의원","tel":"02-894-8920","addr":"경기도 광명시 하안동 33-3 세일404","indutype":"의원 - 치과의원","category":"medical"}]},{"lat":"37.46265519","long":"126.8806834","imageIndex":8,"items":[{"name":"김규태내과의원","tel":"031-805-4700","addr":"경기도 광명시 하안동 53-4번지 천일빌딩 503호","indutype":"의원 - 의원","category":"medical"},{"name":"세종약국","tel":"02-895-9135","addr":"경기도 광명시 하안동 53-4번지 천일빌딩 5층","indutype":"약국 - 약국","category":"medical"},{"name":"이종원소아과의원","tel":"02-806-0300","addr":"경기도 광명시 하안동 53-4번지 천일빌딩 4층","indutype":"의원 - 의원","category":"medical"}]},{"lat":"37.46262666","long":"126.8792366","imageIndex":8,"items":[{"name":"김민약국","tel":"02-892-5421","addr":"경기도 광명시 하안동 34-5번지","indutype":"약국 - 약국","category":"medical"},{"name":"꼬마이치과의원","tel":"02-803-5277","addr":"경기도 광명시 하안동 34-5번지 중심상업지구성원빌딩 6층","indutype":"의원 - 치과의원","category":"medical"},{"name":"라렌의원","tel":"02-894-7780","addr":"경기도 광명시 하안동 34-5번지 성원빌딩 5층","indutype":"의원 - 의원","category":"medical"},{"name":"서울튼튼소아청소년과의원","tel":"02-899-4093","addr":"경기도 광명시 하안동 34-5번지 성원빌딩 7층 701호","indutype":"의원 - 의원","category":"medical"},{"name":"세안이비인후과","tel":"02-891-2650","addr":"경기도 광명시 하안동 34-5번지 성원빌딩 201호","indutype":"의원 - 의원","category":"medical"},{"name":"연세미랑의원","tel":"02-894-7780","addr":"경기도 광명시 하안동 34-5번지 성원빌딩 5층 501호","indutype":"의원 - 의원","category":"medical"}]},{"lat":"37.46429705","long":"126.8741247","imageIndex":8,"items":[{"name":"다나약국","tel":"02-891-9989","addr":"경기도 광명시 하안동 682-1번지 하안주공1단지종합상가 1층 123호","indutype":"약국 - 약국","category":"medical"},{"name":"정소아과의원","tel":"02-809-6990","addr":"경기도 광명시 하안동 682-1번지 고층주공 상가 204호","indutype":"의원 - 의원","category":"medical"}]},{"lat":"37.4620685","long":"126.8796783","imageIndex":8,"items":[{"name":"다남한의원","tel":"02-898-7562","addr":"경기도 광명시 하안동 36-4번지 301호","indutype":"의원 - 한의원","category":"medical"},{"name":"피터팬치과","tel":"02-898-2875","addr":"경기도 광명시 하안동 36-4 2층4","indutype":"의원 - 치과의원","category":"medical"}]},{"lat":"37.45882745","long":"126.8821476","imageIndex":8,"items":[{"name":"대건약국","tel":"02-803-1211","addr":"경기도 광명시 하안동 260-2번지 8단지 상가 116호","indutype":"약국 - 약국","category":"medical"},{"name":"약손한의원","tel":"02-802-1177","addr":"경기도 광명시 하안동 260-2번지 8단지 상가 206호","indutype":"의원 - 한의원","category":"medical"}]},{"lat":"37.4630149","long":"126.8800159","imageIndex":8,"items":[{"name":"동양한의원","tel":"02-808-0058","addr":"경기도 광명시 하안동 33-5번지","indutype":"의원 - 한의원","category":"medical"},{"name":"서울명문치과의원","tel":"02-895-2282","addr":"경기도 광명시 하안동 33-5번지 유창빌딩 202호","indutype":"의원 - 치과의원","category":"medical"},{"name":"코모키이비인후과","tel":"031-894-4450","addr":"경기도 광명시 하안동 33-5번지 유창빌딩 2층","indutype":"의원 - 의원","category":"medical"},{"name":"코코약국","tel":"02-807-9010","addr":"경기도 광명시 하안동 33-5번지 유창빌딩 1층","indutype":"약국 - 약국","category":"medical"},{"name":"하안정신건강의학과의원","tel":"070-4923-4147","addr":"경기도 광명시 하안동 33-5번지 유창빌딩 302호","indutype":"의원 - 의원","category":"medical"}]},{"lat":"37.46349149","long":"126.8791221","imageIndex":8,"items":[{"name":"모아동물병원","tel":"02-6085-4777","addr":"경기도 광명시 하안동 33번지 1층","indutype":"기타의료기관 - 동물병원","category":"medical"}]},{"lat":"37.46548996","long":"126.8774572","imageIndex":8,"items":[{"name":"문화약국","tel":"02-808-7979","addr":"경기도 광명시 하안동 30-1번지 중앙상가 102호","indutype":"약국 - 약국","category":"medical"}]},{"lat":"37.45912563","long":"126.8829835","imageIndex":8,"items":[{"name":"문화한의원","tel":"02-898-0708","addr":"경기도 광명시 하안동 200-2번지 정산빌딩 2층 204호","indutype":"의원 - 한의원","category":"medical"},{"name":"새열린약국","tel":"02-892-0534","addr":"경기도 광명시 하안동 200-2번지 정산빌딩 103호","indutype":"약국 - 약국","category":"medical"},{"name":"우리내과의원","tel":"02-808-7515","addr":"경기도 광명시 하안동 200-2번지 정산빌딩 201동 202호","indutype":"의원 - 의원","category":"medical"}]},{"lat":"37.46090985","long":"126.8746278","imageIndex":8,"items":[{"name":"미소약국","tel":"02-899-2606","addr":"경기도 광명시 하안동 599-10번지","indutype":"약국 - 약국","category":"medical"}]},{"lat":"37.45935071","long":"126.8828136","imageIndex":8,"items":[{"name":"상쾌한이비인후과의원","tel":"02-899-7004","addr":"경기도 광명시 하안동 200-1번지 2층","indutype":"의원 - 의원","category":"medical"},{"name":"세종한의원","tel":"02-899-7720","addr":"경기도 광명시 하안동 200-1번지 경향빌딩 301,302호","indutype":"의원 - 한의원","category":"medical"},{"name":"하안약국","tel":"02-898-0232","addr":"경기도 광명시 하안동 200-1번지 1층","indutype":"약국 - 약국","category":"medical"}]},{"lat":"37.46190652","long":"126.8798708","imageIndex":8,"items":[{"name":"서울삼성내과","tel":"02-898-5560","addr":"경기도 광명시 하안동 36-5번지 노벨빌딩 2층","indutype":"의원 - 의원","category":"medical"},{"name":"아이사랑다연약국","tel":"02-897-5058","addr":"경기도 광명시 하안동 36-5번지 노벨빌딩 303호","indutype":"약국 - 약국","category":"medical"},{"name":"우리안과의원","tel":"02-898-4181","addr":"경기도 광명시 하안동 36-5번지 노벨빌딩 4층","indutype":"의원 - 의원","category":"medical"}]},{"lat":"37.45884927","long":"126.8771518","imageIndex":8,"items":[{"name":"소망약국","tel":"02-897-7470","addr":"경기도 광명시 하안동 305-4번지 창원빌딩 101호","indutype":"약국 - 약국","category":"medical"}]},{"lat":"37.46318545","long":"126.8794052","imageIndex":8,"items":[{"name":"신이화약국","tel":"031-457-7245","addr":"경기도 광명시 하안동 33-1번지 다래빌딩 304호","indutype":"약국 - 약국","category":"medical"},{"name":"하안경희한의원","tel":"02-807-7582","addr":"경기도 광명시 하안동 33-1번지 다래빌딩 302호","indutype":"의원 - 한의원","category":"medical"}]},{"lat":"37.46512676","long":"126.8667873","imageIndex":8,"items":[{"name":"안재현치과의원","tel":"02-898-8373","addr":"경기도 광명시 하안동 702-1번지 주공5단지복합상가 209호","indutype":"의원 - 치과의원","category":"medical"}]},{"lat":"37.46334687","long":"126.8786816","imageIndex":8,"items":[{"name":"연세류치과","tel":"02-891-2191","addr":"경기도 광명시 하안동 34번지 한일빌딩 304호","indutype":"의원 - 치과의원","category":"medical"}]},{"lat":"37.46215728","long":"126.8784236","imageIndex":8,"items":[{"name":"연세항외과","tel":"02-807-2345","addr":"경기도 광명시 하안동 34-10번지 삼성빌딩 5층","indutype":"의원 - 의원","category":"medical"}]},{"lat":"37.46223859","long":"126.8786269","imageIndex":8,"items":[{"name":"전정형외과의원","tel":"02-895-5555","addr":"경기도 광명시 하안동 34-9번지","indutype":"의원 - 의원","category":"medical"}]},{"lat":"37.46318486","long":"126.8788401","imageIndex":8,"items":[{"name":"참약국","tel":"02-807-8816","addr":"경기도 광명시 하안동 34-1번지 근영빌딩 1층 1호","indutype":"약국 - 약국","category":"medical"}]},{"lat":"37.46129688","long":"126.8742655","imageIndex":8,"items":[{"name":"하나치과","tel":"02-899-2275","addr":"경기도 광명시 하안동 598-7번지","indutype":"의원 - 치과의원","category":"medical"}]},{"lat":"37.46290582","long":"126.8791005","imageIndex":8,"items":[{"name":"하안동물병원","tel":"02-897-7580","addr":"경기도 광명시 하안동 34-3번지 세인빌딩 105호","indutype":"기타의료기관 - 동물병원","category":"medical"}]},{"lat":"37.4614661","long":"126.8809001","imageIndex":8,"items":[{"name":"하안봄치과","tel":"02-897-2822","addr":"경기도 광명시 하안동 62번지 금성빌딩 302호","indutype":"의원 - 치과의원","category":"medical"},{"name":"형제약국","tel":"02-806-5129","addr":"경기도 광명시 하안동 62번지 금성빌딩 101호","indutype":"약국 - 약국","category":"medical"}]},{"lat":"37.46212417","long":"126.8812381","imageIndex":8,"items":[{"name":"하안정형외과의원","tel":"02-898-9885","addr":"경기도 광명시 하안동 61-1번지 조일프라자빌딩 6층 603호","indutype":"의원 - 의원","category":"medical"}]}]