[{"lat":"37.140943785","long":"126.98718108","imageIndex":4,"items":[{"name":"가보자한식뷔페","tel":"031-353-3706","addr":"경기도 화성시 정남면 귀래리 380-2번지 가동","indutype":"일반휴게음식 - 일반한식","category":"restaurant"},{"name":"우리한식","tel":"031-353-3706","addr":"경기도 화성시 정남면 귀래리 380-2번지","indutype":"일반휴게음식 - 일반한식","category":"restaurant"}]},{"lat":"37.138421132","long":"126.98947757","imageIndex":4,"items":[{"name":"대가숯불갈비","tel":"031-353-8880","addr":"경기도 화성시 정남면 귀래리 340-1번지","indutype":"일반휴게음식 - 일반한식","category":"restaurant"}]},{"lat":"37.134194476","long":"126.98406508","imageIndex":4,"items":[{"name":"명가한식부페","tel":"031-8059-0112","addr":"경기도 화성시 정남면 귀래리 448번지 1층","indutype":"일반휴게음식 - 일반한식","category":"restaurant"}]},{"lat":"37.13461855","long":"126.98817275","imageIndex":4,"items":[{"name":"소담한식부페","tel":"031-378-0447","addr":"경기도 화성시 정남면 귀래리 466번지 1층","indutype":"일반휴게음식 - 일반한식","category":"restaurant"}]},{"lat":"37.134032226","long":"126.98368248","imageIndex":4,"items":[{"name":"전주한식뷔페","tel":"031-366-1334","addr":"경기도 화성시 정남면 귀래리 447-2번지 1층","indutype":"일반휴게음식 - 일반한식","category":"restaurant"}]},{"lat":"37.139114645","long":"126.98709142","imageIndex":4,"items":[{"name":"청송가든","tel":"031-352-6804","addr":"경기도 화성시 정남면 귀래리 403번지","indutype":"일반휴게음식 - 일반한식","category":"restaurant"}]},{"lat":"37.136834742","long":"126.98531368","imageIndex":4,"items":[{"name":"한샘한식","tel":"031-8059-0112","addr":"경기도 화성시 정남면 귀래리 437-37번지","indutype":"일반휴게음식 - 일반한식","category":"restaurant"}]},{"lat":"37.132195542","long":"126.99804284","imageIndex":4,"items":[{"name":"행복","tel":"031-366-4739","addr":"경기도 화성시 정남면 귀래리 179-4번지","indutype":"일반휴게음식 - 일반한식","category":"restaurant"}]},{"lat":"37.125617841","long":"126.99725556","imageIndex":4,"items":[{"name":"향미식당","tel":"031-353-3876","addr":"경기도 화성시 정남면 귀래리 209-44번지","indutype":"일반휴게음식 - 일반한식","category":"restaurant"}]}]