[{"lat":"37.654721467","long":"127.17922258","imageIndex":17,"items":[{"name":"(주)가나다건축사사무소","tel":"031-528-8858","addr":"경기도 남양주시 진건읍 용정리 794-124번지 광인빌딩 602호","indutype":"용역 서비스 - 사무서비스","category":"other"},{"name":"노바악기","tel":"031-1566-7127","addr":"경기도 남양주시 진건읍 용정리 794-124번지 지층","indutype":"레져용품 - 악기점","category":"other"},{"name":"세븐일레븐진건중학교점","tel":"","addr":"경기도 남양주시 진건읍 용정리 794-124번지 외1필지","indutype":"유통업 영리 - 편 의 점","category":"other"}]},{"lat":"37.680743188","long":"127.18974743","imageIndex":17,"items":[{"name":"(주)나눔터","tel":"031-572-2300","addr":"경기도 남양주시 진건읍 용정리 110-2번지 1층","indutype":"사무통신 - 기타 사무용품","category":"other"}]},{"lat":"37.656994628","long":"127.17739208","imageIndex":17,"items":[{"name":"(주)나진건설","tel":"031-592-7554","addr":"경기도 남양주시 진건읍 용정리 775-34번지","indutype":"용역 서비스 - 기타용역서비스","category":"other"},{"name":"티엔엠","tel":"031-1544-0393","addr":"경기도 남양주시 진건읍 용정리 775-34번지 3층 1호","indutype":"용역 서비스 - 종합용역","category":"other"}]},{"lat":"37.655999955","long":"127.17981488","imageIndex":17,"items":[{"name":"(주)대성관광","tel":"031-574-3395","addr":"경기도 남양주시 진건읍 용정리 794-4번지 2층","indutype":"여행 - 고속버스","category":"other"}]},{"lat":"37.684694067","long":"127.19799917","imageIndex":17,"items":[{"name":"(주)대진보일러","tel":"031-573-5144","addr":"경기도 남양주시 진건읍 용정리 35-5번지 2층","indutype":"건축자재 - 보일러·펌프·샷시","category":"other"},{"name":"세원용접기","tel":"031-574-7208","addr":"경기도 남양주시 진건읍 용정리 35-5번지 2층","indutype":"기타 - 기계공구","category":"other"},{"name":"효승보일러","tel":"031-573-5114","addr":"경기도 남양주시 진건읍 용정리 35-5","indutype":"건축자재 - 보일러·펌프·샷시","category":"other"}]},{"lat":"37.680274656","long":"127.19536895","imageIndex":17,"items":[{"name":"(주)더이앤토","tel":"031-529-9964","addr":"경기도 남양주시 진건읍 용정리 23-4번지","indutype":"서적문구 - 완구점","category":"other"}]},{"lat":"37.680075758","long":"127.1901992","imageIndex":17,"items":[{"name":"(주)마이오투존","tel":"031-527-2370","addr":"경기도 남양주시 진건읍 용정리 155-5번지","indutype":"전기제품 - 기타전기제품","category":"other"}]},{"lat":"37.680325823","long":"127.19158283","imageIndex":17,"items":[{"name":"(주)미림테크","tel":"031-575-8132","addr":"경기도 남양주시 진건읍 용정리 121번지","indutype":"건축자재 - 인테리어전문","category":"other"},{"name":"스마일휠","tel":"031-528-7568","addr":"경기도 남양주시 진건읍 용정리 121번지","indutype":"기타 - 기계공구","category":"other"}]},{"lat":"37.680051328","long":"127.18855541","imageIndex":17,"items":[{"name":"(주)에코폰아이엔씨","tel":"02-333-3877","addr":"경기도 남양주시 진건읍 용정리 173-2번지 2동","indutype":"사무통신 - 통신기기","category":"other"}]},{"lat":"37.66446719","long":"127.18691853","imageIndex":17,"items":[{"name":"(주)해동글로벌","tel":"","addr":"경기도 남양주시 진건읍 용정리 444-1번지","indutype":"신변잡화 - 기타잡화","category":"other"}]},{"lat":"37.670385239","long":"127.18774924","imageIndex":17,"items":[{"name":"21블럭 (21block)","tel":"031-529-6056","addr":"경기도 남양주시 진건읍 용정리 270-2번지 창고 1","indutype":"가구 - 기타가구","category":"other"}]},{"lat":"37.679382018","long":"127.19019745","imageIndex":17,"items":[{"name":"GS25용정공단점","tel":"02-2006-2118","addr":"경기도 남양주시 진건읍 용정리 148-3","indutype":"유통업 영리 - 편 의 점","category":"other"}]},{"lat":"37.656551625","long":"127.1784223","imageIndex":17,"items":[{"name":"GS25진건사랑점","tel":"","addr":"경기도 남양주시 진건읍 용정리 796-4번지","indutype":"유통업 영리 - 편 의 점","category":"other"},{"name":"엄마네옷방","tel":"031-594-5683","addr":"경기도 남양주시 진건읍 용정리 796-4","indutype":"의류 - 정장","category":"other"}]},{"lat":"37.6568306","long":"127.18458785","imageIndex":17,"items":[{"name":"GS25진건주공점","tel":"","addr":"경기도 남양주시 진건읍 용정리 856번지 101~102호(상가)","indutype":"유통업 영리 - 편 의 점","category":"other"}]},{"lat":"37.655667598","long":"127.17914549","imageIndex":17,"items":[{"name":"JK댄스스쿨","tel":"031-553-1374","addr":"경기도 남양주시 진건읍 용정리 794-32번지 2층","indutype":"회원제형태 - 레져업소","category":"other"},{"name":"화인하우스가구","tel":"031-574-0408","addr":"경기도 남양주시 진건읍 용정리 794-32","indutype":"가구 - 일반가구","category":"other"}]},{"lat":"37.659194786","long":"127.17617328","imageIndex":17,"items":[{"name":"J인테리어","tel":"02-1670-6704","addr":"경기도 남양주시 진건읍 용정리 806-10번지","indutype":"건축자재 - 인테리어전문","category":"other"},{"name":"필로프린트","tel":"031-925-3610","addr":"경기도 남양주시 진건읍 용정리 806-10번지","indutype":"문화.취미 - 화방·표구점","category":"other"}]},{"lat":"37.657696642","long":"127.17789236","imageIndex":17,"items":[{"name":"KCT","tel":"031-527-9356","addr":"경기도 남양주시 진건읍 용정리 780-4번지 심미에셈빌 3층 103호","indutype":"문화.취미 - 문화취미기타","category":"other"},{"name":"국제전기통신(주)","tel":"031-553-6677","addr":"경기도 남양주시 진건읍 용정리 780-4 심미에셈빌406호~407호","indutype":"전기제품 - 기타전기제품","category":"other"},{"name":"미요가","tel":"031-574-3553","addr":"경기도 남양주시 진건읍 용정리 780-4번지 심미에셈빌 309호","indutype":"회원제형태 - 레져업소","category":"other"},{"name":"유정","tel":"031-527-2573","addr":"경기도 남양주시 진건읍 용정리 780-4번지 심미에셈빌 109호","indutype":"의류 - 내의판매","category":"other"},{"name":"제이비건설 주식회사","tel":"031-572-0482","addr":"경기도 남양주시 진건읍 용정리 780-4번지 심미에셈빌 2층 204호","indutype":"용역 서비스 - 기타용역서비스","category":"other"},{"name":"크린토피아 (사능점)","tel":"031-529-3242","addr":"경기도 남양주시 진건읍 용정리 780-4번지 심미에셈빌 107호","indutype":"수리서비스 - 세탁소","category":"other"},{"name":"태조","tel":"070-8183-1800","addr":"경기도 남양주시 진건읍 용정리 780-4번지 심미에셈빌 3층 304호","indutype":"신변잡화 - 기타잡화","category":"other"},{"name":"해충크리닉","tel":"031-515-6004","addr":"경기도 남양주시 진건읍 용정리 780-4번지 심미에셈빌 213호","indutype":"용역 서비스 - 종합용역","category":"other"},{"name":"호성상사","tel":"070-8152-3535","addr":"경기도 남양주시 진건읍 용정리 780-4번지 심미에셈빌 121호,123호","indutype":"주방용구 - 주방용식기","category":"other"}]},{"lat":"37.657752142","long":"127.17691788","imageIndex":17,"items":[{"name":"K공조","tel":"031-1522-3558","addr":"경기도 남양주시 진건읍 용정리 775-9번지 101호","indutype":"전기제품 - 냉열기기","category":"other"}]},{"lat":"37.655749226","long":"127.17878304","imageIndex":17,"items":[{"name":"가람화원","tel":"031-573-5722","addr":"경기도 남양주시 진건읍 용정리 794-61번지","indutype":"문화.취미 - 화원","category":"other"},{"name":"김영규법무사사무소","tel":"031-575-6400","addr":"경기도 남양주시 진건읍 용정리 794-61, 794-97 2층","indutype":"용역 서비스 - 법률회계서비스(개인)","category":"other"}]},{"lat":"37.658141721","long":"127.17544553","imageIndex":17,"items":[{"name":"가족공인중개사사무소","tel":"031-573-8400","addr":"경기도 남양주시 진건읍 용정리 799-1번지","indutype":"용역 서비스 - 부동산 중개·임대","category":"other"},{"name":"진성기획인쇄","tel":"031-528-3321","addr":"경기도 남양주시 진건읍 용정리 799-1번지","indutype":"용역 서비스 - 종합용역","category":"other"}]},{"lat":"37.684745484","long":"127.19411079","imageIndex":17,"items":[{"name":"간판THE하기","tel":"031-559-0658","addr":"경기도 남양주시 진건읍 용정리 40-3번지","indutype":"건축자재 - 인테리어전문","category":"other"}]},{"lat":"37.660032899","long":"127.17602789","imageIndex":17,"items":[{"name":"강화도어 방화문 유리문 시공수리","tel":"070-4104-7514","addr":"경기도 남양주시 진건읍 용정리 809번지 한보하이츠2차 1동 402호","indutype":"건축자재 - 기타건축자재","category":"other"}]},{"lat":"37.657112367","long":"127.18297931","imageIndex":17,"items":[{"name":"개별화물","tel":"031-527-1852","addr":"경기도 남양주시 진건읍 용정리 367-42번지 성신빌라 마동 403호","indutype":"용역 서비스 - 기타용역서비스","category":"other"}]},{"lat":"37.663332753","long":"127.18641706","imageIndex":17,"items":[{"name":"거성","tel":"031-595-2183","addr":"경기도 남양주시 진건읍 용정리 401번지 CJ인터내셔널","indutype":"기타 - 기타 전문점","category":"other"}]},{"lat":"37.66627924","long":"127.18031531","imageIndex":17,"items":[{"name":"경기상사","tel":"031-528-4377","addr":"경기도 남양주시 진건읍 용정리 692-4번지","indutype":"건축자재 - 조명기구","category":"other"}]},{"lat":"37.656530536","long":"127.18047343","imageIndex":17,"items":[{"name":"골드라인","tel":"031-512-0403","addr":"경기도 남양주시 진건읍 용정리 791-18번지 101호","indutype":"의류 - 정장","category":"other"}]},{"lat":"37.687185466","long":"127.18950283","imageIndex":17,"items":[{"name":"공덕상회(주)","tel":"02-535-3909","addr":"경기도 남양주시 진건읍 용정리 64-5번지","indutype":"신변잡화 - 기타잡화","category":"other"}]},{"lat":"37.678442851","long":"127.19155539","imageIndex":17,"items":[{"name":"광일산소","tel":"031-573-7324","addr":"경기도 남양주시 진건읍 용정리 140-4","indutype":"기타 - 기타 전문점","category":"other"}]},{"lat":"37.685916768","long":"127.19409112","imageIndex":17,"items":[{"name":"구리퓨리스대리점","tel":"031-566-3592","addr":"경기도 남양주시 진건읍 용정리 55","indutype":"유통업 영리 - 기타유통업","category":"other"}]},{"lat":"37.659051446","long":"127.17561763","imageIndex":17,"items":[{"name":"국제타일","tel":"031-571-4104","addr":"경기도 남양주시 진건읍 용정리 803-1번지 1층","indutype":"건축자재 - 건축용 요업제품","category":"other"},{"name":"오피니오","tel":"031-573-3496","addr":"경기도 남양주시 진건읍 용정리 803-1번지 1층","indutype":"의류 - 정장","category":"other"},{"name":"주식회사 디케이엘물류","tel":"031-532-4093","addr":"경기도 남양주시 진건읍 용정리 803-1번지 1층 일부호","indutype":"의류 - 정장","category":"other"}]},{"lat":"37.680411884","long":"127.19408833","imageIndex":17,"items":[{"name":"그린에스앤지(그린S&G)","tel":"02-929-3300","addr":"경기도 남양주시 진건읍 용정리 20-2번지","indutype":"용역 서비스 - 종합용역","category":"other"}]},{"lat":"37.65796849","long":"127.17683905","imageIndex":17,"items":[{"name":"금목지물","tel":"031-574-4628","addr":"경기도 남양주시 진건읍 용정리 722-12번지","indutype":"직물 - 카페트,커튼,천막,지물","category":"other"}]},{"lat":"37.660022087","long":"127.17725183","imageIndex":17,"items":[{"name":"금아전기","tel":"031-527-0460","addr":"경기도 남양주시 진건읍 용정리 758번지","indutype":"전기제품 - 기타전기제품","category":"other"},{"name":"더(THE)꾸미다","tel":"031-528-6263","addr":"경기도 남양주시 진건읍 용정리 758번지 2층 3호","indutype":"의류 - 정장","category":"other"},{"name":"흥진건설기공","tel":"031-594-0108","addr":"경기도 남양주시 진건읍 용정리 758번지 2층 201호","indutype":"전기제품 - 냉열기기","category":"other"}]},{"lat":"37.655523444","long":"127.17914515","imageIndex":17,"items":[{"name":"까까멍멍","tel":"031-574-6553","addr":"경기도 남양주시 진건읍 용정리 794-45번지","indutype":"문화.취미 - 애완동물","category":"other"}]},{"lat":"37.674942414","long":"127.18883739","imageIndex":17,"items":[{"name":"까사비바(CASAVIVA)","tel":"031-528-7355","addr":"경기도 남양주시 진건읍 용정리 213-4번지","indutype":"가구 - 일반가구","category":"other"},{"name":"더나은","tel":"031-575-3988","addr":"경기도 남양주시 진건읍 용정리 213-4번지","indutype":"문화.취미 - 애완동물","category":"other"}]},{"lat":"37.656280339","long":"127.17909027","imageIndex":17,"items":[{"name":"나눔케어의료기","tel":"031-528-9355","addr":"경기도 남양주시 진건읍 용정리 781-14번지 2층","indutype":"기타의료기관 - 기타의료기관 및 기타","category":"other"},{"name":"신광","tel":"031-575-8683","addr":"경기도 남양주시 진건읍 용정리 781-14번지 1호","indutype":"사무통신 - 통신기기","category":"other"}]},{"lat":"37.665112576","long":"127.18902821","imageIndex":17,"items":[{"name":"나라아쿠아 (NARA AQUA)","tel":"02-1111-1111","addr":"경기도 남양주시 진건읍 용정리 289번지 1층","indutype":"문화.취미 - 수족관","category":"other"}]},{"lat":"37.659056897","long":"127.17803154","imageIndex":17,"items":[{"name":"나래이동통신","tel":"031-574-0016","addr":"경기도 남양주시 진건읍 용정리 772-12번지 1층 나래이동통신","indutype":"사무통신 - 통신기기","category":"other"},{"name":"사능열쇠","tel":"031-574-4000","addr":"경기도 남양주시 진건읍 용정리 772-12번지","indutype":"기타 - 기계공구","category":"other"}]},{"lat":"37.657724745","long":"127.17716713","imageIndex":17,"items":[{"name":"나무그늘","tel":"070-5022-4846","addr":"경기도 남양주시 진건읍 용정리 775-12번지","indutype":"의류 - 정장","category":"other"}]},{"lat":"37.66472131","long":"127.19145265","imageIndex":17,"items":[{"name":"남양주유기견보호소","tel":"031-000-0000","addr":"경기도 남양주시 진건읍 용정리 288-2번지","indutype":"문화.취미 - 애완동물","category":"other"}]},{"lat":"37.657886918","long":"127.17716751","imageIndex":17,"items":[{"name":"네버시스템 (never system)","tel":"031-000-0000","addr":"경기도 남양주시 진건읍 용정리 775-14번지 덕성빌라 101호","indutype":"용역 서비스 - 기타용역서비스","category":"other"}]},{"lat":"37.656997361","long":"127.18158513","imageIndex":17,"items":[{"name":"노바삭스 (NOVA SAX)","tel":"","addr":"경기도 남양주시 진건읍 용정리 791-35번지 현대주택 14동 201호","indutype":"레져용품 - 악기점","category":"other"}]},{"lat":"37.66113718","long":"127.17867109","imageIndex":17,"items":[{"name":"누에보(NUEVO)","tel":"031-1566-5586","addr":"경기도 남양주시 진건읍 용정리 721-10번지 1층","indutype":"가구 - 일반가구","category":"other"}]},{"lat":"37.658529251","long":"127.1753671","imageIndex":17,"items":[{"name":"늘푸른 하이테크","tel":"031-1899-3610","addr":"경기도 남양주시 진건읍 용정리 801번지 1층","indutype":"전기제품 - 가전제품","category":"other"},{"name":"주식회사 에코홀딩스","tel":"031-1811-9255","addr":"경기도 남양주시 진건읍 용정리 801번지","indutype":"신변잡화 - 기타잡화","category":"other"}]},{"lat":"37.656306673","long":"127.17955497","imageIndex":17,"items":[{"name":"능동종묘사","tel":"031-573-7140","addr":"경기도 남양주시 진건읍 용정리 795-1번지","indutype":"농업 - 비료,사료,종자","category":"other"},{"name":"씨유진건우량점","tel":"031-529-7680","addr":"경기도 남양주시 진건읍 용정리 795-1","indutype":"유통업 영리 - 편 의 점","category":"other"}]},{"lat":"37.656692334","long":"127.18072313","imageIndex":17,"items":[{"name":"다온사이언스","tel":"031-573-6266","addr":"경기도 남양주시 진건읍 용정리 792-5번지","indutype":"서적문구 - 과학기자재","category":"other"},{"name":"휴. .","tel":"070-3047-5814","addr":"경기도 남양주시 진건읍 용정리 792-5번지 102호","indutype":"직물 - 침구·수예점","category":"other"}]},{"lat":"37.657358877","long":"127.18083804","imageIndex":17,"items":[{"name":"다우","tel":"031-591-6124","addr":"경기도 남양주시 진건읍 용정리 786-70번지 오룡빌딩 104호","indutype":"서적문구 - 출판 및 인쇄물","category":"other"}]},{"lat":"37.655388265","long":"127.17916749","imageIndex":17,"items":[{"name":"다이소(진건점)","tel":"031-527-2340","addr":"경기도 남양주시 진건읍 용정리 794-47번지 (외2필지101-2호,201호)","indutype":"신변잡화 - 기타잡화","category":"other"},{"name":"두리서사능점","tel":"031-528-6012","addr":"경기도 남양주시 진건읍 용정리 794-47번지 794-48,794-49 외2필지","indutype":"사무통신 - 통신기기","category":"other"}]},{"lat":"37.656501779","long":"127.18161794","imageIndex":17,"items":[{"name":"대부설비","tel":"031-574-0733","addr":"경기도 남양주시 진건읍 용정리 793-13","indutype":"건축자재 - 보일러·펌프·샷시","category":"other"}]},{"lat":"37.656691325","long":"127.18139174","imageIndex":17,"items":[{"name":"대성공조","tel":"031-572-4464","addr":"경기도 남양주시 진건읍 용정리 793-8번지 3층 306호","indutype":"용역 서비스 - 기타용역서비스","category":"other"},{"name":"부성사(Drindi)","tel":"070-7864-1177","addr":"경기도 남양주시 진건읍 용정리 793-8번지","indutype":"건축자재 - 기타건축자재","category":"other"}]},{"lat":"37.656886227","long":"127.17758448","imageIndex":17,"items":[{"name":"대일샷시","tel":"031-573-7245","addr":"경기도 남양주시 진건읍 용정리 777-1번지 유성 상가 104호","indutype":"건축자재 - 보일러·펌프·샷시","category":"other"},{"name":"도그조아","tel":"031-527-1219","addr":"경기도 남양주시 진건읍 용정리 777-1번지 1층 유성상가","indutype":"문화.취미 - 애완동물","category":"other"}]},{"lat":"37.668496426","long":"127.17977654","imageIndex":17,"items":[{"name":"대진강화도어","tel":"031-573-3326","addr":"경기도 남양주시 진건읍 용정리 637","indutype":"건축자재 - 기타건축자재","category":"other"}]},{"lat":"37.655775714","long":"127.17914574","imageIndex":17,"items":[{"name":"대진상사","tel":"031-591-3434","addr":"경기도 남양주시 진건읍 용정리 794-31","indutype":"건축자재 - 기타건축자재","category":"other"}]},{"lat":"37.656308786","long":"127.17813841","imageIndex":17,"items":[{"name":"대한종합사무기","tel":"031-595-1003","addr":"경기도 남양주시 진건읍 용정리 794-138번지","indutype":"사무통신 - 사무용 OA기기","category":"other"},{"name":"디지털OA랜드","tel":"031-573-0433","addr":"경기도 남양주시 진건읍 용정리 794-138번지","indutype":"사무통신 - 사무용 OA기기","category":"other"},{"name":"복사기마트","tel":"031-573-0433","addr":"경기도 남양주시 진건읍 용정리 794-138번지 793-138번지상가4호","indutype":"사무통신 - 기타 사무용품","category":"other"},{"name":"유진ENG","tel":"031-529-5222","addr":"경기도 남양주시 진건읍 용정리 794-138번지 일부","indutype":"용역 서비스 - 기타용역서비스","category":"other"},{"name":"한성건철","tel":"031-575-0903","addr":"경기도 남양주시 진건읍 용정리 794-138번지 동북용정상가1동9호","indutype":"건축자재 - 기타건축자재","category":"other"}]},{"lat":"37.660640194","long":"127.17964457","imageIndex":17,"items":[{"name":"동성기와","tel":"031-592-1408","addr":"경기도 남양주시 진건읍 용정리 747-2","indutype":"건축자재 - 기타건축자재","category":"other"}]},{"lat":"37.657635951","long":"127.17628298","imageIndex":17,"items":[{"name":"동성종합공구","tel":"031-574-0945","addr":"경기도 남양주시 진건읍 용정리 722-8번지","indutype":"기타 - 기계공구","category":"other"}]},{"lat":"37.656530075","long":"127.1807794","imageIndex":17,"items":[{"name":"동신건축설비","tel":"031-527-5430","addr":"경기도 남양주시 진건읍 용정리 792-7번지 1층","indutype":"건축자재 - 보일러·펌프·샷시","category":"other"},{"name":"손발","tel":"070-4379-8134","addr":"경기도 남양주시 진건읍 용정리 792-7번지 재현주택 402호","indutype":"회원제형태 - 기타1","category":"other"},{"name":"와이텍","tel":"","addr":"경기도 남양주시 진건읍 용정리 792-7번지 재현주택 상가동 1층 2호","indutype":"전기제품 - 기타전기제품","category":"other"}]},{"lat":"37.655307669","long":"127.17883866","imageIndex":17,"items":[{"name":"동우세무회계사무소","tel":"031-573-5900","addr":"경기도 남양주시 진건읍 용정리 794-91번지 2층","indutype":"용역 서비스 - 법률회계서비스(개인)","category":"other"}]},{"lat":"37.68422032","long":"127.19011892","imageIndex":17,"items":[{"name":"두산공예사","tel":"031-527-0257","addr":"경기도 남양주시 진건읍 용정리 69","indutype":"문화.취미 - 민예·공예품","category":"other"}]},{"lat":"37.684384364","long":"127.19456333","imageIndex":17,"items":[{"name":"드래곤즈","tel":"031-575-4105","addr":"경기도 남양주시 진건읍 용정리 36-14번지 가동","indutype":"문화.취미 - 수족관","category":"other"}]},{"lat":"37.657305024","long":"127.18070192","imageIndex":17,"items":[{"name":"드림팩토리","tel":"031-527-4911","addr":"경기도 남양주시 진건읍 용정리 786-43번지","indutype":"건축자재 - 조명기구","category":"other"}]},{"lat":"37.655773965","long":"127.18031297","imageIndex":17,"items":[{"name":"디즈니컴퓨터","tel":"031-573-5606","addr":"경기도 남양주시 진건읍 용정리 794-121","indutype":"사무통신 - 컴퓨터","category":"other"},{"name":"미도파장식","tel":"031-573-8211","addr":"경기도 남양주시 진건읍 용정리 794-121번지","indutype":"직물 - 카페트,커튼,천막,지물","category":"other"},{"name":"썬LED전기조명","tel":"031-574-4665","addr":"경기도 남양주시 진건읍 용정리 794-121번지 1층 2호","indutype":"건축자재 - 조명기구","category":"other"}]},{"lat":"37.679329451","long":"127.18925644","imageIndex":17,"items":[{"name":"라인3D","tel":"031-575-5867","addr":"경기도 남양주시 진건읍 용정리 163번지 외5필지","indutype":"기타 - 기계공구","category":"other"}]},{"lat":"37.658723573","long":"127.1780081","imageIndex":17,"items":[{"name":"로즈피플(유아용품,완구할인매장)","tel":"031-575-9073","addr":"경기도 남양주시 진건읍 용정리 772-6번지 지하1층","indutype":"서적문구 - 완구점","category":"other"}]},{"lat":"37.661162124","long":"127.18006513","imageIndex":17,"items":[{"name":"마들렌정원","tel":"031-574-6111","addr":"경기도 남양주시 진건읍 용정리 736","indutype":"문화.취미 - 화원","category":"other"}]},{"lat":"37.656938017","long":"127.18504141","imageIndex":17,"items":[{"name":"마이엔 (maien)","tel":"031-111-1111","addr":"경기도 남양주시 진건읍 용정리 855번지 진건주공2단지 205동 1405호","indutype":"서적문구 - 완구점","category":"other"}]},{"lat":"37.658462731","long":"127.17771283","imageIndex":17,"items":[{"name":"맞춤홈패션","tel":"031-571-5083","addr":"경기도 남양주시 진건읍 용정리 772-9 경신1차 다-101 28/","indutype":"회원제형태 - 기타4","category":"other"}]},{"lat":"37.659467065","long":"127.17481396","imageIndex":17,"items":[{"name":"명성그린에어컨","tel":"031-527-9707","addr":"경기도 남양주시 진건읍 용정리 811-8번지 만정2차주택 201호","indutype":"회원제형태 - 기타1","category":"other"}]},{"lat":"37.65994247","long":"127.17625434","imageIndex":17,"items":[{"name":"명성종합가구유통","tel":"070-4109-0896","addr":"경기도 남양주시 진건읍 용정리 809-4번지 2차한보하이츠 5동 402호","indutype":"회원제형태 - 기타4","category":"other"}]},{"lat":"37.683717119","long":"127.19489037","imageIndex":17,"items":[{"name":"명진아크릴","tel":"031-573-1207","addr":"경기도 남양주시 진건읍 용정리 36-2번지","indutype":"건축자재 - 기타건축자재","category":"other"}]},{"lat":"37.658661158","long":"127.18934076","imageIndex":17,"items":[{"name":"몬스터","tel":"","addr":"경기도 남양주시 진건읍 용정리 326-18번지 외2필지","indutype":"문화.취미 - 화랑","category":"other"}]},{"lat":"37.685358944","long":"127.19361354","imageIndex":17,"items":[{"name":"묘한공간","tel":"031-527-5182","addr":"경기도 남양주시 진건읍 용정리 57-3번지","indutype":"문화.취미 - 애완동물","category":"other"}]},{"lat":"37.656161465","long":"127.18025723","imageIndex":17,"items":[{"name":"미성당","tel":"031-573-5117","addr":"경기도 남양주시 진건읍 용정리 786-2번지 노아쇼핑","indutype":"신변잡화 - 시계","category":"other"}]},{"lat":"37.656028441","long":"127.17884036","imageIndex":17,"items":[{"name":"바오","tel":"031-510-6473","addr":"경기도 남양주시 진건읍 용정리 794-3번지","indutype":"의류 - 정장","category":"other"},{"name":"해피인테리어","tel":"031-528-2928","addr":"경기도 남양주시 진건읍 용정리 794-3번지 외1필지","indutype":"건축자재 - 인테리어전문","category":"other"}]},{"lat":"37.656943972","long":"127.18114303","imageIndex":17,"items":[{"name":"백곰","tel":"031-527-1466","addr":"경기도 남양주시 진건읍 용정리 791-32번지 104호","indutype":"레져용품 - 스포츠·레져용품","category":"other"}]},{"lat":"37.656551001","long":"127.1788416","imageIndex":17,"items":[{"name":"백옥당","tel":"031-556-0903","addr":"경기도 남양주시 진건읍 용정리 781-4번지","indutype":"신변잡화 - 시계","category":"other"},{"name":"신이랑발이랑","tel":"070-7078-4488","addr":"경기도 남양주시 진건읍 용정리 781-4번지","indutype":"신변잡화 - 신발","category":"other"},{"name":"케이와이케이(KYK)","tel":"031-111-1111","addr":"경기도 남양주시 진건읍 용정리 781-4번지","indutype":"신변잡화 - 기타잡화","category":"other"}]},{"lat":"37.684413339","long":"127.19336171","imageIndex":17,"items":[{"name":"벨로엠 (Bello M)","tel":"070-7793-7078","addr":"경기도 남양주시 진건읍 용정리 39번지","indutype":"가구 - 일반가구","category":"other"}]},{"lat":"37.65744568","long":"127.17700782","imageIndex":17,"items":[{"name":"보니또(BONITO)","tel":"02-1111-1111","addr":"경기도 남양주시 진건읍 용정리 775-7번지 101호","indutype":"의류 - 정장","category":"other"}]},{"lat":"37.659363427","long":"127.17789627","imageIndex":17,"items":[{"name":"봉주르휘트니스","tel":"031-527-8338","addr":"경기도 남양주시 진건읍 용정리 768-1번지 3층","indutype":"회원제형태 - 레져업소","category":"other"},{"name":"씨유사능경진점","tel":"031-575-9283","addr":"경기도 남양주시 진건읍 용정리 768-1번지 경진빌딩 1층 101호","indutype":"유통업 영리 - 편 의 점","category":"other"}]},{"lat":"37.682194751","long":"127.183312","imageIndex":17,"items":[{"name":"봉화상사","tel":"031-592-6144","addr":"경기도 남양주시 진건읍 용정리 521-1번지","indutype":"신변잡화 - 기타잡화","category":"other"}]},{"lat":"37.657634145","long":"127.1775069","imageIndex":17,"items":[{"name":"비엔씨(B&C)","tel":"031-959-3781","addr":"경기도 남양주시 진건읍 용정리 775-17번지 심미에셈빌 204호","indutype":"서적문구 - 문구용품","category":"other"}]},{"lat":"37.67702132","long":"127.19030487","imageIndex":17,"items":[{"name":"비즈니스메이트","tel":"031-1644-5447","addr":"경기도 남양주시 진건읍 용정리 201-4번지 외2필지","indutype":"사무통신 - 사무용 OA기기","category":"other"}]},{"lat":"37.682021923","long":"127.19014741","imageIndex":17,"items":[{"name":"비즈테크(TecH)","tel":"031-572-6922","addr":"경기도 남양주시 진건읍 용정리 80-5번지 (80-5,81-1)","indutype":"문화.취미 - 수족관","category":"other"},{"name":"주식회사대농시스템","tel":"031-851-9497","addr":"경기도 남양주시 진건읍 용정리 80-5번지 주10동 1층","indutype":"전기제품 - 기타전기제품","category":"other"}]},{"lat":"37.657275648","long":"127.17622548","imageIndex":17,"items":[{"name":"사능부란자","tel":"031-573-6592","addr":"경기도 남양주시 진건읍 용정리 800-12","indutype":"전기제품 - 기타전기제품","category":"other"}]},{"lat":"37.65714022","long":"127.17641782","imageIndex":17,"items":[{"name":"사능엔진부품수리","tel":"031-573-7959","addr":"경기도 남양주시 진건읍 용정리 797-4번지","indutype":"수리서비스 - 기타수리서비스","category":"other"}]},{"lat":"37.656000209","long":"127.1796449","imageIndex":17,"items":[{"name":"삼보컴퓨터진건읍점","tel":"031-512-6787","addr":"경기도 남양주시 진건읍 용정리 794-14번지","indutype":"사무통신 - 컴퓨터","category":"other"},{"name":"삼보컴퓨터진건읍점","tel":"031-512-6787","addr":"경기도 남양주시 진건읍 용정리 794-14번지 1층","indutype":"사무통신 - 컴퓨터","category":"other"},{"name":"아트 코딱지","tel":"","addr":"경기도 남양주시 진건읍 용정리 794-14번지 1층 좌측","indutype":"의류 - 정장","category":"other"},{"name":"지원시스템","tel":"031-512-6787","addr":"경기도 남양주시 진건읍 용정리 794-14번지 1층","indutype":"사무통신 - 컴퓨터","category":"other"}]},{"lat":"37.657079407","long":"127.1809507","imageIndex":17,"items":[{"name":"삼우 유니크","tel":"","addr":"경기도 남양주시 진건읍 용정리 791-2번지 대명빌딩 205호","indutype":"수리서비스 - 기타수리서비스","category":"other"},{"name":"환 이앤지","tel":"02-1111-1111","addr":"경기도 남양주시 진건읍 용정리 791-2번지 301호","indutype":"용역 서비스 - 기타용역서비스","category":"other"}]},{"lat":"37.676133073","long":"127.19361259","imageIndex":17,"items":[{"name":"상아드림도어","tel":"031-571-0484","addr":"경기도 남양주시 진건읍 용정리 234-11번지","indutype":"건축자재 - 보일러·펌프·샷시","category":"other"}]},{"lat":"37.6808894","long":"127.18844413","imageIndex":17,"items":[{"name":"성균관","tel":"00-1566-1972","addr":"경기도 남양주시 진건읍 용정리 104-20","indutype":"용역 서비스 - 사무서비스","category":"other"}]},{"lat":"37.657752709","long":"127.17653257","imageIndex":17,"items":[{"name":"성진기업","tel":"031-573-5569","addr":"경기도 남양주시 진건읍 용정리 722-5번지","indutype":"건축자재 - 기타건축자재","category":"other"}]},{"lat":"37.656025227","long":"127.18098218","imageIndex":17,"items":[{"name":"세븐일레븐남양주사능점","tel":"031-1577-0711","addr":"경기도 남양주시 진건읍 용정리 793-24번지 1층","indutype":"유통업 영리 - 편 의 점","category":"other"}]},{"lat":"37.65794306","long":"127.17575106","imageIndex":17,"items":[{"name":"세븐일레븐사능점","tel":"","addr":"경기도 남양주시 진건읍 용정리 771-10","indutype":"유통업 영리 - 편 의 점","category":"other"},{"name":"용정낚시","tel":"031-528-2733","addr":"경기도 남양주시 진건읍 용정리 771-10","indutype":"레져용품 - 스포츠·레져용품","category":"other"}]},{"lat":"37.663274651","long":"127.17720277","imageIndex":17,"items":[{"name":"쇼 이펙트(Show Effect)","tel":"031-528-7725","addr":"경기도 남양주시 진건읍 용정리 732-3번지 나동","indutype":"신변잡화 - 기타잡화","category":"other"}]},{"lat":"37.656307046","long":"127.17930565","imageIndex":17,"items":[{"name":"쉬즈 아울렛","tel":"031-528-0192","addr":"경기도 남양주시 진건읍 용정리 795-3번지 1층","indutype":"의류 - 정장","category":"other"}]},{"lat":"37.658105714","long":"127.18733348","imageIndex":17,"items":[{"name":"스텔라하우징(STELLA HOUSING)","tel":"031-528-8821","addr":"경기도 남양주시 진건읍 용정리 348-2번지","indutype":"건축자재 - 건축용 요업제품","category":"other"}]},{"lat":"37.656973302","long":"127.17961321","imageIndex":17,"items":[{"name":"씨드(SEED)","tel":"031-575-0105","addr":"경기도 남양주시 진건읍 용정리 786-1번지 105호","indutype":"의류 - 정장","category":"other"}]},{"lat":"37.681943256","long":"127.1886168","imageIndex":17,"items":[{"name":"씨유진건용정공단점","tel":"080-080-3663","addr":"경기도 남양주시 진건읍 용정리 101-2번지 1층","indutype":"유통업 영리 - 편 의 점","category":"other"}]},{"lat":"37.660862634","long":"127.17545183","imageIndex":17,"items":[{"name":"씨유진건현대점","tel":"031-574-5550","addr":"경기도 남양주시 진건읍 용정리 816-5번지 상가-104(상가동104호~105호)","indutype":"유통업 영리 - 편 의 점","category":"other"},{"name":"언니랑","tel":"","addr":"경기도 남양주시 진건읍 용정리 816-5번지 현대아파트","indutype":"의류 - 정장","category":"other"}]},{"lat":"37.662474691","long":"127.18194959","imageIndex":17,"items":[{"name":"아론오츠카","tel":"031-529-0502","addr":"경기도 남양주시 진건읍 용정리 384-7번지","indutype":"가구 - 일반가구","category":"other"}]},{"lat":"37.660057706","long":"127.17753524","imageIndex":17,"items":[{"name":"아이파크공인중개사무소","tel":"031-575-8889","addr":"경기도 남양주시 진건읍 용정리 757번지 202호","indutype":"용역 서비스 - 부동산 중개·임대","category":"other"}]},{"lat":"37.687882984","long":"127.19278105","imageIndex":17,"items":[{"name":"아임키트(AIM KIT)","tel":"031-527-9542","addr":"경기도 남양주시 진건읍 용정리 산31번지","indutype":"가구 - 일반가구","category":"other"}]},{"lat":"37.658470562","long":"127.17850614","imageIndex":17,"items":[{"name":"안단테","tel":"031-527-7415","addr":"경기도 남양주시 진건읍 용정리 753-2번지 3호","indutype":"의류 - 정장","category":"other"}]},{"lat":"37.67663969","long":"127.1746722","imageIndex":17,"items":[{"name":"애완견돌봄원","tel":"031-527-3277","addr":"경기도 남양주시 진건읍 용정리 848-3번지","indutype":"문화.취미 - 애완동물","category":"other"}]},{"lat":"37.658723119","long":"127.17831408","imageIndex":17,"items":[{"name":"에스와이통신","tel":"","addr":"경기도 남양주시 진건읍 용정리 754-4번지 용정상가 1층 104호","indutype":"사무통신 - 통신기기","category":"other"}]},{"lat":"37.657164905","long":"127.17800444","imageIndex":17,"items":[{"name":"에스제이(SJ)","tel":"031-573-2181","addr":"경기도 남양주시 진건읍 용정리 779-3번지","indutype":"사무통신 - 통신기기","category":"other"},{"name":"진건철물","tel":"031-573-5656","addr":"경기도 남양주시 진건읍 용정리 779-3번지","indutype":"기타 - 기계공구","category":"other"}]},{"lat":"37.655857342","long":"127.1787833","imageIndex":17,"items":[{"name":"에스케이(SK)","tel":"070-7689-2564","addr":"경기도 남양주시 진건읍 용정리 794-60번지 1층","indutype":"기타 - 기계공구","category":"other"}]},{"lat":"37.658356189","long":"127.1766473","imageIndex":17,"items":[{"name":"엔터아트","tel":"031-528-3999","addr":"경기도 남양주시 진건읍 용정리 771-5번지","indutype":"직물 - 카페트,커튼,천막,지물","category":"other"},{"name":"은혜산업","tel":"031-573-8113","addr":"경기도 남양주시 진건읍 용정리 771-5번지","indutype":"직물 - 카페트,커튼,천막,지물","category":"other"}]},{"lat":"37.660273283","long":"127.17797774","imageIndex":17,"items":[{"name":"열쇠나라","tel":"031-574-6000","addr":"경기도 남양주시 진건읍 용정리 745-14번지","indutype":"건축자재 - 목재·석재·철물","category":"other"}]},{"lat":"37.677603485","long":"127.19247145","imageIndex":17,"items":[{"name":"영창기계","tel":"031-573-9720","addr":"경기도 남양주시 진건읍 용정리 231-8","indutype":"기타 - 기계공구","category":"other"}]},{"lat":"37.657356235","long":"127.17656564","imageIndex":17,"items":[{"name":"예성지물장식","tel":"031-573-9974","addr":"경기도 남양주시 진건읍 용정리 776-1번지","indutype":"직물 - 카페트,커튼,천막,지물","category":"other"}]},{"lat":"37.660857966","long":"127.17861377","imageIndex":17,"items":[{"name":"온누리공구","tel":"031-572-7909","addr":"경기도 남양주시 진건읍 용정리 721-1","indutype":"기타 - 기계공구","category":"other"}]},{"lat":"37.655388756","long":"127.17883886","imageIndex":17,"items":[{"name":"옷이 날개","tel":"031-510-6000","addr":"경기도 남양주시 진건읍 용정리 794-90번지 101호","indutype":"의류 - 정장","category":"other"}]},{"lat":"37.655469843","long":"127.17883905","imageIndex":17,"items":[{"name":"와이제이인터내셔널","tel":"031-573-7179","addr":"경기도 남양주시 진건읍 용정리 794-78번지 상가 1층","indutype":"레져용품 - 스포츠·레져용품","category":"other"}]},{"lat":"37.657889765","long":"127.17522963","imageIndex":17,"items":[{"name":"용진스포츠관","tel":"031-573-2484","addr":"경기도 남양주시 진건읍 용정리 800-5번지","indutype":"문화.취미 - 문화취미기타","category":"other"}]},{"lat":"37.67963836","long":"127.19328149","imageIndex":17,"items":[{"name":"우리쌤","tel":"031-544-1912","addr":"경기도 남양주시 진건읍 용정리 15번지 1층","indutype":"서적문구 - 기타서적문구","category":"other"}]},{"lat":"37.656720437","long":"127.18000925","imageIndex":17,"items":[{"name":"우링두링","tel":"031-512-6641","addr":"경기도 남양주시 진건읍 용정리 786-24번지 1층 101호","indutype":"신변잡화 - 귀금속","category":"other"}]},{"lat":"37.680465467","long":"127.18874915","imageIndex":17,"items":[{"name":"웅진","tel":"031-573-1537","addr":"경기도 남양주시 진건읍 용정리 104-16번지","indutype":"기타 - 기계공구","category":"other"}]},{"lat":"37.684745545","long":"127.19955244","imageIndex":17,"items":[{"name":"원패스트캣 (One Fast Cat)","tel":"070-8733-2662","addr":"경기도 남양주시 진건읍 용정리 34-23번지 2층 성진데코","indutype":"가구 - 일반가구","category":"other"}]},{"lat":"37.669304881","long":"127.19291505","imageIndex":17,"items":[{"name":"유. 소놀이공예사","tel":"031-571-0238","addr":"경기도 남양주시 진건읍 용정리 251","indutype":"회원제형태 - 기타4","category":"other"}]},{"lat":"37.656917815","long":"127.18056501","imageIndex":17,"items":[{"name":"유몬","tel":"0507-1358-6123","addr":"경기도 남양주시 진건읍 용정리 791-9번지","indutype":"주방용구 - 주방용구","category":"other"}]},{"lat":"37.668494875","long":"127.18080796","imageIndex":17,"items":[{"name":"유신개발","tel":"031-512-9791","addr":"경기도 남양주시 진건읍 용정리 639-2번지","indutype":"전기제품 - 기타전기제품","category":"other"}]},{"lat":"37.66027586","long":"127.17623245","imageIndex":17,"items":[{"name":"이데스포츠(IDEE SPORTS)","tel":"02-478-0441","addr":"경기도 남양주시 진건읍 용정리 761-5번지 동해빌딩 301호","indutype":"레져용품 - 스포츠·레져용품","category":"other"}]},{"lat":"37.679466903","long":"127.19345109","imageIndex":17,"items":[{"name":"인 메탈","tel":"031-528-8758","addr":"경기도 남양주시 진건읍 용정리 15-1번지 1층(15-1,15-6번지)","indutype":"용역 서비스 - 기타용역서비스","category":"other"},{"name":"태성상사","tel":"031-527-3403","addr":"경기도 남양주시 진건읍 용정리 15-1번지","indutype":"서적문구 - 완구점","category":"other"}]},{"lat":"37.656641975","long":"127.17825252","imageIndex":17,"items":[{"name":"잉어","tel":"031-573-5295","addr":"경기도 남양주시 진건읍 용정리 779-4번지","indutype":"의류 - 정장","category":"other"}]},{"lat":"37.679826455","long":"127.19944876","imageIndex":17,"items":[{"name":"작은결혼식","tel":"02-2212-2219","addr":"경기도 남양주시 진건읍 용정리 3-3번지","indutype":"용역 서비스 - 혼례서비스","category":"other"}]},{"lat":"37.655613963","long":"127.17886205","imageIndex":17,"items":[{"name":"주성텔레콤","tel":"070-7527-6139","addr":"경기도 남양주시 진건읍 용정리 794-77","indutype":"사무통신 - 통신기기","category":"other"}]},{"lat":"37.656079712","long":"127.180699","imageIndex":17,"items":[{"name":"주식회사 빅엔빅","tel":"031-852-3200","addr":"경기도 남양주시 진건읍 용정리 793-2번지 신한빌딩 2층","indutype":"의류 - 정장","category":"other"}]},{"lat":"37.686774749","long":"127.19281223","imageIndex":17,"items":[{"name":"주식회사 아이리스오토캠핑","tel":"070-8810-7011","addr":"경기도 남양주시 진건읍 용정리 59-1번지","indutype":"레져용품 - 스포츠·레져용품","category":"other"}]},{"lat":"37.684717949","long":"127.19989247","imageIndex":17,"items":[{"name":"주식회사 에이티에스코퍼레이션","tel":"02-996-7056","addr":"경기도 남양주시 진건읍 용정리 34-43번지","indutype":"유통업 영리 - 기타유통업","category":"other"}]},{"lat":"37.657208026","long":"127.18522339","imageIndex":17,"items":[{"name":"주식회사 운산미디어","tel":"070-7788-1654","addr":"경기도 남양주시 진건읍 용정리 855번지 진건주공2단지 204동 901호","indutype":"용역 서비스 - 종합용역","category":"other"}]},{"lat":"37.680575629","long":"127.18744577","imageIndex":17,"items":[{"name":"주식회사엠케이카라반","tel":"031-575-1988","addr":"경기도 남양주시 진건읍 용정리 508번지","indutype":"레져용품 - 스포츠·레져용품","category":"other"}]},{"lat":"37.657304358","long":"127.18114389","imageIndex":17,"items":[{"name":"주식회사와이에스케이","tel":"070-8758-1672","addr":"경기도 남양주시 진건읍 용정리 791-47번지","indutype":"서적문구 - 과학기자재","category":"other"}]},{"lat":"37.680304484","long":"127.19364594","imageIndex":17,"items":[{"name":"주식회사클립","tel":"031-524-9911","addr":"경기도 남양주시 진건읍 용정리 17번지","indutype":"서적문구 - 문구용품","category":"other"}]},{"lat":"37.681583015","long":"127.18852521","imageIndex":17,"items":[{"name":"지엠컴퍼니","tel":"031-527-0267","addr":"경기도 남양주시 진건읍 용정리 104-22번지","indutype":"건축자재 - 기타건축자재","category":"other"}]},{"lat":"37.657302027","long":"127.17666751","imageIndex":17,"items":[{"name":"진건공조","tel":"031-1588-3366","addr":"경기도 남양주시 진건읍 용정리 776-13번지","indutype":"용역 서비스 - 기타용역서비스","category":"other"}]},{"lat":"37.658331321","long":"127.17517399","imageIndex":17,"items":[{"name":"진건전기조명","tel":"031-574-0555","addr":"경기도 남양주시 진건읍 용정리 800-1번지","indutype":"건축자재 - 조명기구","category":"other"},{"name":"효성상사","tel":"031-573-6495","addr":"경기도 남양주시 진건읍 용정리 800-1번지","indutype":"기타 - 기타 전문점","category":"other"}]},{"lat":"37.660247864","long":"127.1768897","imageIndex":17,"items":[{"name":"집수리&홍반장","tel":"","addr":"경기도 남양주시 진건읍 용정리 761-8번지","indutype":"건축자재 - 인테리어전문","category":"other"}]},{"lat":"37.662584025","long":"127.18114518","imageIndex":17,"items":[{"name":"창원꽃농원","tel":"031-574-1881","addr":"경기도 남양주시 진건읍 용정리 713-1번지","indutype":"문화.취미 - 화원","category":"other"}]},{"lat":"37.657857473","long":"127.18473768","imageIndex":17,"items":[{"name":"천만텔레콤","tel":"031-568-3030","addr":"경기도 남양주시 진건읍 용정리 855번지 진건주공2단지 202동 102호","indutype":"회원제형태 - 기타1","category":"other"}]},{"lat":"37.657165476","long":"127.17761913","imageIndex":17,"items":[{"name":"칠성에이앤에스","tel":"","addr":"경기도 남양주시 진건읍 용정리 778-1번지 로얄하이빌 203호","indutype":"용역 서비스 - 기타용역서비스","category":"other"}]},{"lat":"37.678054402","long":"127.19220054","imageIndex":17,"items":[{"name":"콜드메이크","tel":"031-573-8444","addr":"경기도 남양주시 진건읍 용정리 231번지","indutype":"전기제품 - 냉열기기","category":"other"}]},{"lat":"37.658467149","long":"127.18078402","imageIndex":17,"items":[{"name":"크린위드편의점","tel":"031-574-2928","addr":"경기도 남양주시 진건읍 용정리 785-33","indutype":"수리서비스 - 세탁소","category":"other"}]},{"lat":"37.657417259","long":"127.17794837","imageIndex":17,"items":[{"name":"키친앤리빙(삼흥)","tel":"031-575-0187","addr":"경기도 남양주시 진건읍 용정리 779-7번지 1층","indutype":"주방용구 - 주방용구","category":"other"}]},{"lat":"37.656109731","long":"127.17870457","imageIndex":17,"items":[{"name":"탑인테리어","tel":"031-592-9737","addr":"경기도 남양주시 진건읍 용정리 794-56번지","indutype":"건축자재 - 인테리어전문","category":"other"}]},{"lat":"37.681357149","long":"127.18892142","imageIndex":17,"items":[{"name":"태성옻칠공방","tel":"031-573-3879","addr":"경기도 남양주시 진건읍 용정리 104-1번지","indutype":"문화.취미 - 민예·공예품","category":"other"}]},{"lat":"37.657752224","long":"127.18286753","imageIndex":17,"items":[{"name":"태양설비","tel":"","addr":"경기도 남양주시 진건읍 용정리 751-13번지 102호","indutype":"용역 서비스 - 기타용역서비스","category":"other"}]},{"lat":"37.660410972","long":"127.17625543","imageIndex":17,"items":[{"name":"토끼네창고","tel":"031-527-5281","addr":"경기도 남양주시 진건읍 용정리 816번지 2층","indutype":"신변잡화 - 신발","category":"other"}]},{"lat":"37.665855838","long":"127.1802803","imageIndex":17,"items":[{"name":"패밀리에어컨","tel":"","addr":"경기도 남양주시 진건읍 용정리 692번지","indutype":"전기제품 - 냉열기기","category":"other"}]},{"lat":"37.682078353","long":"127.18283559","imageIndex":17,"items":[{"name":"펫앤코","tel":"031-000-0000","addr":"경기도 남양주시 진건읍 용정리 520-1번지","indutype":"문화.취미 - 애완동물","category":"other"}]},{"lat":"37.682360841","long":"127.1866113","imageIndex":17,"items":[{"name":"포커스","tel":"031-185-0883","addr":"경기도 남양주시 진건읍 용정리 537-2번지","indutype":"유통업 영리 - 기타유통업","category":"other"}]},{"lat":"37.658167609","long":"127.18808159","imageIndex":17,"items":[{"name":"한국기독공사","tel":"031-527-5010","addr":"경기도 남양주시 진건읍 용정리 339","indutype":"건축자재 - 인테리어전문","category":"other"}]},{"lat":"37.660860185","long":"127.1771178","imageIndex":17,"items":[{"name":"한국바이오사이언스","tel":"031-575-8188","addr":"경기도 남양주시 진건읍 용정리 757-1 진건세아@상가동지하2호","indutype":"사무통신 - 컴퓨터","category":"other"}]},{"lat":"37.683634047","long":"127.19052557","imageIndex":17,"items":[{"name":"한국불교복지종","tel":"02-540-5811","addr":"경기도 남양주시 진건읍 용정리 86-3","indutype":"신변잡화 - 기념품점","category":"other"}]},{"lat":"37.684995946","long":"127.19522244","imageIndex":17,"items":[{"name":"한성네온","tel":"031-574-1538","addr":"경기도 남양주시 진건읍 용정리 36-9","indutype":"용역 서비스 - 종합용역","category":"other"}]},{"lat":"37.680769642","long":"127.19011025","imageIndex":17,"items":[{"name":"한스우드","tel":"031-527-2133","addr":"경기도 남양주시 진건읍 용정리 153-1번지 153-4,152-2","indutype":"가구 - 일반가구","category":"other"}]},{"lat":"37.659469652","long":"127.17916581","imageIndex":17,"items":[{"name":"한신공인중개사사무소","tel":"031-573-3307","addr":"경기도 남양주시 진건읍 용정리 750-1번지 한신그린아파트 101호","indutype":"용역 서비스 - 부동산 중개·임대","category":"other"},{"name":"한신로얄세탁소","tel":"031-574-8033","addr":"경기도 남양주시 진건읍 용정리 750-1","indutype":"수리서비스 - 세탁소","category":"other"}]},{"lat":"37.668501042","long":"127.17667095","imageIndex":17,"items":[{"name":"해밝음장애인화훼작업장","tel":"031-573-7123","addr":"경기도 남양주시 진건읍 용정리 670","indutype":"문화.취미 - 화원","category":"other"}]},{"lat":"37.656662782","long":"127.18238894","imageIndex":17,"items":[{"name":"행복의집","tel":"031-573-1956","addr":"경기도 남양주시 진건읍 용정리 367-24","indutype":"기타의료기관 - 기타의료기관 및 기타","category":"other"}]},{"lat":"37.663358854","long":"127.18114704","imageIndex":17,"items":[{"name":"헬스윈","tel":"031-529-2543","addr":"경기도 남양주시 진건읍 용정리 710-2번지","indutype":"레져용품 - 스포츠·레져용품","category":"other"}]},{"lat":"37.656747976","long":"127.17966934","imageIndex":17,"items":[{"name":"현대보수공사","tel":"031-574-8810","addr":"경기도 남양주시 진건읍 용정리 786-6번지 외1필지","indutype":"건축자재 - 목재·석재·철물","category":"other"}]},{"lat":"37.657473577","long":"127.17641859","imageIndex":17,"items":[{"name":"홍익공조시스템","tel":"02-1661-0336","addr":"경기도 남양주시 진건읍 용정리 776-8번지 노아5차 가동 103호","indutype":"회원제형태 - 기타4","category":"other"}]}]