[{"lat":"37.041563311","long":"126.7989467","imageIndex":4,"items":[{"name":"bhc 화성 이화점","tel":"031-358-0337","addr":"경기도 화성시 우정읍 이화리 436-6번지 3-1호","indutype":"일반휴게음식 - 스넥","category":"restaurant"}]},{"lat":"37.041871251","long":"126.79986759","imageIndex":4,"items":[{"name":"가마솥한식부페","tel":"031-358-9399","addr":"경기도 화성시 우정읍 이화리 709-22번지 1동","indutype":"일반휴게음식 - 일반한식","category":"restaurant"}]},{"lat":"37.041536472","long":"126.79905917","imageIndex":4,"items":[{"name":"고기굽는어부","tel":"031-351-9291","addr":"경기도 화성시 우정읍 이화리 436-6번지 2동 1층","indutype":"일반휴게음식 - 일반한식","category":"restaurant"},{"name":"집밥의 정석","tel":"031-351-5569","addr":"경기도 화성시 우정읍 이화리 436-6번지 2동 1층 102호","indutype":"일반휴게음식 - 일반한식","category":"restaurant"}]},{"lat":"37.045512951","long":"126.7954739","imageIndex":4,"items":[{"name":"고산골토종순대국","tel":"031-351-9333","addr":"경기도 화성시 우정읍 이화리 489-8번지 1층","indutype":"일반휴게음식 - 일반한식","category":"restaurant"}]},{"lat":"37.048761073","long":"126.79794943","imageIndex":4,"items":[{"name":"다담한식부페","tel":"031-351-6511","addr":"경기도 화성시 우정읍 이화리 384-5번지 1층","indutype":"일반휴게음식 - 일반한식","category":"restaurant"}]},{"lat":"37.032431145","long":"126.80164602","imageIndex":4,"items":[{"name":"대장금식당","tel":"031-351-2540","addr":"경기도 화성시 우정읍 이화리 1045-17번지","indutype":"일반휴게음식 - 일반한식","category":"restaurant"}]},{"lat":"37.033682145","long":"126.80613842","imageIndex":4,"items":[{"name":"명품설렁탕","tel":"031-358-6667","addr":"경기도 화성시 우정읍 이화리 1086-6번지 가동 1층 일부","indutype":"일반휴게음식 - 일반한식","category":"restaurant"}]},{"lat":"37.045008752","long":"126.79570009","imageIndex":4,"items":[{"name":"바니메이드","tel":"031-358-8454","addr":"경기도 화성시 우정읍 이화리 488-1번지 1층","indutype":"일반휴게음식 - 서양음식","category":"restaurant"}]},{"lat":"37.027677852","long":"126.79372426","imageIndex":4,"items":[{"name":"본식당","tel":"031-358-7766","addr":"경기도 화성시 우정읍 이화리 1105-48번지","indutype":"일반휴게음식 - 일반한식","category":"restaurant"}]},{"lat":"37.044594796","long":"126.79600472","imageIndex":4,"items":[{"name":"서해횟집","tel":"031-358-2686","addr":"경기도 화성시 우정읍 이화리 487번지","indutype":"일반휴게음식 - 일반한식","category":"restaurant"}]},{"lat":"37.046729241","long":"126.7953919","imageIndex":4,"items":[{"name":"이화부페식당","tel":"031-351-1448","addr":"경기도 화성시 우정읍 이화리 472-6번지","indutype":"일반휴게음식 - 일반한식","category":"restaurant"}]},{"lat":"37.027175982","long":"126.79527652","imageIndex":4,"items":[{"name":"이화횟집","tel":"031-358-0807","addr":"경기도 화성시 우정읍 이화리 1099-6번지","indutype":"일반휴게음식 - 일식·회집","category":"restaurant"}]},{"lat":"37.027292253","long":"126.79478172","imageIndex":4,"items":[{"name":"제이케이푸드(JK푸드)","tel":"031-358-0526","addr":"경기도 화성시 우정읍 이화리 1100-1번지 1층","indutype":"일반휴게음식 - 일반한식","category":"restaurant"}]},{"lat":"37.028064037","long":"126.79300394","imageIndex":4,"items":[{"name":"중화루","tel":"031-351-9481","addr":"경기도 화성시 우정읍 이화리 1105-55번지 1층","indutype":"일반휴게음식 - 중국식","category":"restaurant"}]},{"lat":"37.04536894","long":"126.79556422","imageIndex":4,"items":[{"name":"중화요리시원","tel":"031-223-5214","addr":"경기도 화성시 우정읍 이화리 489-1번지","indutype":"일반휴게음식 - 중국식","category":"restaurant"}]},{"lat":"37.044792891","long":"126.79592549","imageIndex":4,"items":[{"name":"창성식당","tel":"031-351-9997","addr":"경기도 화성시 우정읍 이화리 487-13번지","indutype":"일반휴게음식 - 일반한식","category":"restaurant"}]}]