[{"lat":"37.562177928","long":"127.19361601","imageIndex":7,"items":[{"name":"(주)에이치마트","tel":"031-796-6678","addr":"경기도 하남시 망월동 1131-1번지","indutype":"유통업 영리 - 슈퍼마켓","category":"mart"}]},{"lat":"37.571260953","long":"127.18136878","imageIndex":7,"items":[{"name":"(주)쿨마트","tel":"031-795-0600","addr":"경기도 하남시 망월동 1014번지 1층","indutype":"유통업 영리 - 슈퍼마켓","category":"mart"}]},{"lat":"37.570538265","long":"127.18262351","imageIndex":7,"items":[{"name":"고마트 미사강변점","tel":"031-796-5596","addr":"경기도 하남시 망월동 988번지","indutype":"유통업 영리 - 슈퍼마켓","category":"mart"}]},{"lat":"37.560062885","long":"127.18650301","imageIndex":7,"items":[{"name":"대웅마트","tel":"031-795-4042","addr":"경기도 하남시 망월동 1067번지 골드브릿지 112호","indutype":"유통업 영리 - 슈퍼마켓","category":"mart"}]},{"lat":"37.574787289","long":"127.19072758","imageIndex":7,"items":[{"name":"삼거리마트","tel":"031-791-7025","addr":"경기도 하남시 망월동 872번지","indutype":"유통업 영리 - 슈퍼마켓","category":"mart"}]},{"lat":"37.576149845","long":"127.18941785","imageIndex":7,"items":[{"name":"웰빙리빙아울렛","tel":"031-791-7249","addr":"경기도 하남시 망월동 839-3번지 1층","indutype":"유통업 영리 - 슈퍼마켓","category":"mart"}]},{"lat":"37.569985444","long":"127.18472759","imageIndex":7,"items":[{"name":"주식회사디더블유유통","tel":"031-794-4402","addr":"경기도 하남시 망월동 962-2번지 1층","indutype":"유통업 영리 - 슈퍼마켓","category":"mart"}]},{"lat":"37.568562021","long":"127.18464489","imageIndex":7,"items":[{"name":"초록마을 미사강변점","tel":"031-793-6285","addr":"경기도 하남시 망월동 968-1번지 미사센트럴프라자 112호","indutype":"유통업 영리 - 슈퍼마켓","category":"mart"}]},{"lat":"37.560681132","long":"127.19981443","imageIndex":7,"items":[{"name":"코끼리할인마트","tel":"031-792-1811","addr":"경기도 하남시 망월동 1186번지 1층 101호","indutype":"유통업 영리 - 슈퍼마켓","category":"mart"}]},{"lat":"37.563479148","long":"127.19681111","imageIndex":7,"items":[{"name":"팔당생명살림소비자생활 협동조합 미사점","tel":"031-8027-2440","addr":"경기도 하남시 망월동 1140번지 미사강변3단지 111,112호","indutype":"유통업 영리 - 슈퍼마켓","category":"mart"}]},{"lat":"37.560595587","long":"127.18577997","imageIndex":7,"items":[{"name":"프라임홈마트","tel":"031-791-6664","addr":"경기도 하남시 망월동 778-1번지 1상가 101호","indutype":"유통업 영리 - 슈퍼마켓","category":"mart"}]},{"lat":"37.565035415","long":"127.18120678","imageIndex":7,"items":[{"name":"홈마트","tel":"031-793-4901","addr":"경기도 하남시 망월동 1044번지 1,02호,103호,104호","indutype":"유통업 영리 - 슈퍼마켓","category":"mart"}]}]