[{"lat":"37.793780392","long":"126.99018878","imageIndex":4,"items":[{"name":"광릉불고기","tel":"031-872-9292","addr":"경기도 양주시 백석읍 오산리 17번지 1층","indutype":"일반휴게음식 - 일반한식","category":"restaurant"},{"name":"요일별식당","tel":"031-837-0335","addr":"경기도 양주시 백석읍 오산리 17번지 1,2호","indutype":"일반휴게음식 - 일반한식","category":"restaurant"}]},{"lat":"37.791950872","long":"126.98552295","imageIndex":4,"items":[{"name":"꿈나무식당","tel":"031-829-8749","addr":"경기도 양주시 백석읍 오산리 556-16번지 1층","indutype":"일반휴게음식 - 일반한식","category":"restaurant"}]},{"lat":"37.794365833","long":"126.98865596","imageIndex":4,"items":[{"name":"동해수산직판장","tel":"031-873-8855","addr":"경기도 양주시 백석읍 오산리 543-17번지","indutype":"일반휴게음식 - 일식·회집","category":"restaurant"},{"name":"해금강","tel":"031-855-0360","addr":"경기도 양주시 백석읍 오산리 543-17번지 1층","indutype":"일반휴게음식 - 중국식","category":"restaurant"}]},{"lat":"37.795807571","long":"126.99063123","imageIndex":4,"items":[{"name":"등촌샤브칼국수백석점","tel":"031-879-6070","addr":"경기도 양주시 백석읍 오산리 38-4번지 1층","indutype":"일반휴게음식 - 일반한식","category":"restaurant"}]},{"lat":"37.806751849","long":"126.97691208","imageIndex":4,"items":[{"name":"룡정루","tel":"031-878-1712","addr":"경기도 양주시 백석읍 오산리 631-4번지","indutype":"일반휴게음식 - 중국식","category":"restaurant"}]},{"lat":"37.804976297","long":"126.97396037","imageIndex":4,"items":[{"name":"맛드림","tel":"031-876-3535","addr":"경기도 양주시 백석읍 오산리 635-16번지 1층 일부","indutype":"일반휴게음식 - 일반한식","category":"restaurant"}]},{"lat":"37.795257814","long":"126.9890191","imageIndex":4,"items":[{"name":"백석반점","tel":"031-879-2096","addr":"경기도 양주시 백석읍 오산리 30-1번지","indutype":"일반휴게음식 - 중국식","category":"restaurant"}]},{"lat":"37.794149622","long":"126.98879224","imageIndex":4,"items":[{"name":"백석통삼겹살무한리필","tel":"031-894-5583","addr":"경기도 양주시 백석읍 오산리 543-23번지","indutype":"일반휴게음식 - 일반한식","category":"restaurant"}]},{"lat":"37.808311014","long":"126.97943249","imageIndex":4,"items":[{"name":"빨간지붕카페","tel":"031-823-5232","addr":"경기도 양주시 백석읍 오산리 312-1번지 1층","indutype":"일반휴게음식 - 서양음식","category":"restaurant"}]},{"lat":"37.796870649","long":"126.99024502","imageIndex":4,"items":[{"name":"산꼼장어민물장어","tel":"031-879-8788","addr":"경기도 양주시 백석읍 오산리 107-2번지 세아상가 105호","indutype":"일반휴게음식 - 일반한식","category":"restaurant"}]},{"lat":"37.795257654","long":"126.98771343","imageIndex":4,"items":[{"name":"양주불백","tel":"031-829-6038","addr":"경기도 양주시 백석읍 오산리 538-16번지 1층","indutype":"일반휴게음식 - 일반한식","category":"restaurant"},{"name":"우거지품은 순대국","tel":"031-829-1100","addr":"경기도 양주시 백석읍 오산리 538-16번지 1층","indutype":"일반휴게음식 - 일반한식","category":"restaurant"}]},{"lat":"37.807896518","long":"126.97912602","imageIndex":4,"items":[{"name":"어수정국수집","tel":"031-877-2085","addr":"경기도 양주시 백석읍 오산리 355-2번지","indutype":"일반휴게음식 - 일반한식","category":"restaurant"}]},{"lat":"37.80525574","long":"126.97457344","imageIndex":4,"items":[{"name":"여명양평해장국","tel":"031-855-1873","addr":"경기도 양주시 백석읍 오산리 635-2번지 가동","indutype":"일반휴게음식 - 일반한식","category":"restaurant"}]},{"lat":"37.795393068","long":"126.98999549","imageIndex":4,"items":[{"name":"오산식당","tel":"031-879-3442","addr":"경기도 양주시 백석읍 오산리 31-2번지 1호,2호","indutype":"일반휴게음식 - 일반한식","category":"restaurant"},{"name":"조선피자","tel":"031-836-6565","addr":"경기도 양주시 백석읍 오산리 31-2번지","indutype":"일반휴게음식 - 서양음식","category":"restaurant"}]},{"lat":"37.793311203","long":"126.98485279","imageIndex":4,"items":[{"name":"옹안식당","tel":"031-879-2468","addr":"경기도 양주시 백석읍 오산리 559-4","indutype":"일반휴게음식 - 일반한식","category":"restaurant"}]},{"lat":"37.79939139","long":"126.97818634","imageIndex":4,"items":[{"name":"원데이(one day)","tel":"031-829-5036","addr":"경기도 양주시 백석읍 오산리 463-1번지","indutype":"일반휴게음식 - 서양음식","category":"restaurant"}]},{"lat":"37.795005153","long":"126.98598774","imageIndex":4,"items":[{"name":"원분식&아이스크림 할인점","tel":"031-829-5598","addr":"경기도 양주시 백석읍 오산리 531-1번지","indutype":"일반휴게음식 - 일반한식","category":"restaurant"}]},{"lat":"37.795672136","long":"126.98807667","imageIndex":4,"items":[{"name":"원주 추어탕","tel":"031-855-5377","addr":"경기도 양주시 백석읍 오산리 516-10번지 1층","indutype":"일반휴게음식 - 일반한식","category":"restaurant"},{"name":"카니발","tel":"031-836-6953","addr":"경기도 양주시 백석읍 오산리 516-10번지 102호","indutype":"일반휴게음식 - 주점","category":"restaurant"}]},{"lat":"37.794843042","long":"126.98640786","imageIndex":4,"items":[{"name":"종화삼겹살","tel":"031-879-7476","addr":"경기도 양주시 백석읍 오산리 529-3번지","indutype":"일반휴게음식 - 일반한식","category":"restaurant"}]},{"lat":"37.798203191","long":"126.98385244","imageIndex":4,"items":[{"name":"착한한우","tel":"031-821-6680","addr":"경기도 양주시 백석읍 오산리 473-2번지","indutype":"일반휴게음식 - 일반한식","category":"restaurant"}]},{"lat":"37.80530987","long":"126.97488001","imageIndex":4,"items":[{"name":"청미식당","tel":"031-861-9552","addr":"경기도 양주시 백석읍 오산리 635-1번지","indutype":"일반휴게음식 - 일반한식","category":"restaurant"},{"name":"힐링커피숍","tel":"031-855-9681","addr":"경기도 양주시 백석읍 오산리 635-1번지","indutype":"일반휴게음식 - 서양음식","category":"restaurant"}]},{"lat":"37.793924946","long":"126.99474149","imageIndex":4,"items":[{"name":"플레이스 지안","tel":"031-874-6422","addr":"경기도 양주시 백석읍 오산리 58-4번지 1층 일부","indutype":"일반휴게음식 - 서양음식","category":"restaurant"}]},{"lat":"37.807752306","long":"126.97883082","imageIndex":4,"items":[{"name":"한방찻집","tel":"070-4175-9695","addr":"경기도 양주시 백석읍 오산리 358-2번지","indutype":"일반휴게음식 - 일반한식","category":"restaurant"}]},{"lat":"37.808256817","long":"126.97873982","imageIndex":4,"items":[{"name":"항아리갈비탕","tel":"031-826-1228","addr":"경기도 양주시 백석읍 오산리 308번지 1층","indutype":"일반휴게음식 - 일반한식","category":"restaurant"}]},{"lat":"37.794843423","long":"126.9894052","imageIndex":4,"items":[{"name":"해피니스","tel":"031-829-3315","addr":"경기도 양주시 백석읍 오산리 21번지","indutype":"일반휴게음식 - 주점","category":"restaurant"}]}]