[{"lat":"37.34367446","long":"126.95017954","imageIndex":13,"items":[{"name":"2030당구클럽","tel":"070-7737-8881","addr":"경기도 군포시 당정동 1011-1번지 대우프라자 201,205호","indutype":"레저업소 - 당 구 장","category":"leisure"},{"name":"미소노래연습장","tel":"031-453-9377","addr":"경기도 군포시 당정동 1011-1번지 대우프라자2차 301호","indutype":"레저업소 - 노 래 방","category":"leisure"}]},{"lat":"37.348361868","long":"126.95517597","imageIndex":13,"items":[{"name":"NEW당구클럽","tel":"031-444-3910","addr":"경기도 군포시 당정동 974-1번지 SK프라자 3층 302호","indutype":"레저업소 - 당 구 장","category":"leisure"}]},{"lat":"37.348748718","long":"126.95374239","imageIndex":13,"items":[{"name":"sk골프존","tel":"031-436-0889","addr":"경기도 군포시 당정동 522번지 SK벤티움 101동 3층 315호","indutype":"레저업소 - 스크린골프","category":"leisure"},{"name":"에스케이 (SK)당구클럽","tel":"031-458-4524","addr":"경기도 군포시 당정동 522번지 SK벤티움 101동 412호","indutype":"레저업소 - 당 구 장","category":"leisure"},{"name":"에스케이질러존노래연습장","tel":"031-452-3307","addr":"경기도 군포시 당정동 522번지 101동 316,317호","indutype":"레저업소 - 노 래 방","category":"leisure"},{"name":"장황노래연습장","tel":"031-477-7878","addr":"경기도 군포시 당정동 522번지 SK벤티움 101동 413호","indutype":"레저업소 - 노 래 방","category":"leisure"}]},{"lat":"37.346064783","long":"126.9564527","imageIndex":13,"items":[{"name":"골프존파크","tel":"031-454-7077","addr":"경기도 군포시 당정동 988-2번지 401,402호","indutype":"레저업소 - 스크린골프","category":"leisure"}]},{"lat":"37.34728068","long":"126.95525565","imageIndex":13,"items":[{"name":"글로리 휘트니스","tel":"031-458-1236","addr":"경기도 군포시 당정동 970-7번지 비젼프라자 401동 403호","indutype":"레저업소 - 헬스클럽","category":"leisure"}]},{"lat":"37.343007091","long":"126.94881449","imageIndex":13,"items":[{"name":"깜놀","tel":"031-445-5855","addr":"경기도 군포시 당정동 1015-1번지 모모빌딩 2층","indutype":"레저업소 - 기타레져업소","category":"leisure"}]},{"lat":"37.349199926","long":"126.95545759","imageIndex":13,"items":[{"name":"뉴스크린골프","tel":"031-427-3943","addr":"경기도 군포시 당정동 447-4번지 하이파크빌딩 3층","indutype":"레저업소 - 스크린골프","category":"leisure"},{"name":"봄노래연습장","tel":"031-429-4497","addr":"경기도 군포시 당정동 447-4번지 하이파크빌딩 402호","indutype":"레저업소 - 노 래 방","category":"leisure"}]},{"lat":"37.343863978","long":"126.95086781","imageIndex":13,"items":[{"name":"다락방PC카페","tel":"","addr":"경기도 군포시 당정동 1004-2번지 성원프라자 2층 201,202호","indutype":"레저업소 - 기타레져업소","category":"leisure"}]},{"lat":"37.349064422","long":"126.95458864","imageIndex":13,"items":[{"name":"디저트피시방(당정점)","tel":"070-5020-5330","addr":"경기도 군포시 당정동 545-6번지 맥시움빌딩 205호","indutype":"레저업소 - 기타레져업소","category":"leisure"},{"name":"맥시움골프스쿨","tel":"031-429-6789","addr":"경기도 군포시 당정동 545-6번지 맥시움빌딩 701호","indutype":"레저업소 - 골프연습장","category":"leisure"},{"name":"맥시움노래연습장","tel":"031-427-3671","addr":"경기도 군포시 당정동 545-6번지 맥시움빌딩 6층 602호","indutype":"레저업소 - 노 래 방","category":"leisure"}]},{"lat":"37.34806461","long":"126.95536801","imageIndex":13,"items":[{"name":"리썸기구필라테스","tel":"","addr":"경기도 군포시 당정동 974-3번지 3층 303,304호","indutype":"레저업소 - 헬스클럽","category":"leisure"},{"name":"한세 골프존","tel":"031-427-4449","addr":"경기도 군포시 당정동 974-3번지 신산본프라자 4층 402호","indutype":"레저업소 - 스크린골프","category":"leisure"}]},{"lat":"37.346947615","long":"126.95603458","imageIndex":13,"items":[{"name":"스토리방방","tel":"031-346-0086","addr":"경기도 군포시 당정동 980-3번지 신세기프라자 401,402호","indutype":"레저업소 - 기타레져업소","category":"leisure"}]},{"lat":"37.363086255","long":"126.95986255","imageIndex":13,"items":[{"name":"신세대노래방","tel":"031-456-8010","addr":"경기도 군포시 당정동 13-4번지","indutype":"레저업소 - 노 래 방","category":"leisure"}]},{"lat":"37.349452395","long":"126.95592016","imageIndex":13,"items":[{"name":"영당구장","tel":"031-455-7330","addr":"경기도 군포시 당정동 447-1번지 2층","indutype":"레저업소 - 당 구 장","category":"leisure"}]},{"lat":"37.356416369","long":"126.95375996","imageIndex":13,"items":[{"name":"오토크래프트코리아","tel":"031-451-2912","addr":"경기도 군포시 당정동 181-40번지 신광프라자 4층","indutype":"레저업소 - 기타레져업소","category":"leisure"}]},{"lat":"37.351695115","long":"126.95392105","imageIndex":13,"items":[{"name":"용당구장","tel":"031-429-6278","addr":"경기도 군포시 당정동 476-3번지 대준빌딩 302호","indutype":"레저업소 - 당 구 장","category":"leisure"}]},{"lat":"37.347586994","long":"126.95517646","imageIndex":13,"items":[{"name":"우성빌리어드클럽","tel":"031-456-3253","addr":"경기도 군포시 당정동 970-10번지 경산빌딩 3층","indutype":"레저업소 - 당 구 장","category":"leisure"}]},{"lat":"37.344368092","long":"126.94984049","imageIndex":13,"items":[{"name":"원당구장","tel":"031-459-4597","addr":"경기도 군포시 당정동 1008-3번지 2층 201호","indutype":"레저업소 - 당 구 장","category":"leisure"},{"name":"원당구장","tel":"02-1111-1111","addr":"경기도 군포시 당정동 1008-3번지 2층","indutype":"레저업소 - 당 구 장","category":"leisure"},{"name":"피디에스 (PDS) PC","tel":"070-5020-5323","addr":"경기도 군포시 당정동 1008-3번지 3층","indutype":"레저업소 - 기타레져업소","category":"leisure"}]},{"lat":"37.343422381","long":"126.95064241","imageIndex":13,"items":[{"name":"이센스PC","tel":"070-5020-5323","addr":"경기도 군포시 당정동 1011-3번지 대우프라자 2층 201호","indutype":"레저업소 - 기타레져업소","category":"leisure"}]},{"lat":"37.343953639","long":"126.94987464","imageIndex":13,"items":[{"name":"케어요가 필라테스","tel":"031-427-3177","addr":"경기도 군포시 당정동 1010-10번지 선경프라자 3층","indutype":"레저업소 - 헬스클럽","category":"leisure"}]},{"lat":"37.348361959","long":"126.95540169","imageIndex":13,"items":[{"name":"플라","tel":"","addr":"경기도 군포시 당정동 974-7번지 프라임타운2 2층 201호","indutype":"레저업소 - 헬스클럽","category":"leisure"}]},{"lat":"37.347253884","long":"126.95584253","imageIndex":13,"items":[{"name":"플라이복싱다이어트짐","tel":"031-427-6665","addr":"경기도 군포시 당정동 980-1번지 유영빌딩 3층","indutype":"레저업소 - 헬스클럽","category":"leisure"}]},{"lat":"37.347533177","long":"126.95578593","imageIndex":13,"items":[{"name":"하나탁구교실","tel":"031-477-0582","addr":"경기도 군포시 당정동 974-6번지 누리에뜰","indutype":"레저업소 - 기타레져업소","category":"leisure"}]}]