[{"lat":"37.866805125","long":"127.06301212","imageIndex":17,"items":[{"name":"(주)서부오에이","tel":"031-863-1992","addr":"경기도 양주시 봉양동 821-3번지","indutype":"사무통신 - 사무용 OA기기","category":"other"}]},{"lat":"37.854580973","long":"127.07614889","imageIndex":17,"items":[{"name":"GS25봉양사거리점","tel":"","addr":"경기도 양주시 봉양동 409-7번지 외 1필지","indutype":"유통업 영리 - 편 의 점","category":"other"}]},{"lat":"37.856498955","long":"127.07776433","imageIndex":17,"items":[{"name":"S&D통신","tel":"031-8082-4009","addr":"경기도 양주시 봉양동 413-9번지 1층","indutype":"사무통신 - 통신기기","category":"other"}]},{"lat":"37.8672747","long":"127.06084184","imageIndex":17,"items":[{"name":"가람낚시","tel":"031-861-1654","addr":"경기도 양주시 봉양동 811-1번지 1층","indutype":"레져용품 - 스포츠·레져용품","category":"other"},{"name":"미광상사","tel":"031-863-9979","addr":"경기도 양주시 봉양동 811-1번지","indutype":"신변잡화 - 기타잡화","category":"other"},{"name":"상록수도","tel":"031-859-0555","addr":"경기도 양주시 봉양동 811-1번지","indutype":"건축자재 - 보일러·펌프·샷시","category":"other"},{"name":"양주정밀","tel":"031-858-8990","addr":"경기도 양주시 봉양동 811-1번지","indutype":"기타 - 기계공구","category":"other"},{"name":"엘지엔지니어링","tel":"031-859-1311","addr":"경기도 양주시 봉양동 811-1번지","indutype":"건축자재 - 보일러·펌프·샷시","category":"other"}]},{"lat":"37.856947274","long":"127.06606079","imageIndex":17,"items":[{"name":"고려냉동ENG","tel":"031-837-6711","addr":"경기도 양주시 봉양동 702-22번지","indutype":"용역 서비스 - 기타용역서비스","category":"other"}]},{"lat":"37.860080498","long":"127.06975663","imageIndex":17,"items":[{"name":"골드24시편의점","tel":"031-859-7771","addr":"경기도 양주시 봉양동 544-13번지","indutype":"유통업 영리 - 편 의 점","category":"other"}]},{"lat":"37.86011178","long":"127.06179078","imageIndex":17,"items":[{"name":"구화산업","tel":"070-8847-4864","addr":"경기도 양주시 봉양동 886-3,11,12,15,17","indutype":"건축자재 - 기타건축자재","category":"other"}]},{"lat":"37.852393852","long":"127.07259029","imageIndex":17,"items":[{"name":"그린 홈 공조 냉동","tel":"031-858-5011","addr":"경기도 양주시 봉양동 621-15번지","indutype":"수리서비스 - 가정용품수리","category":"other"}]},{"lat":"37.870275371","long":"127.05970768","imageIndex":17,"items":[{"name":"금호정밀기계","tel":"031-867-7366","addr":"경기도 양주시 봉양동 801-13번지","indutype":"기타 - 기계공구","category":"other"}]},{"lat":"37.859808125","long":"127.05619967","imageIndex":17,"items":[{"name":"노아상사","tel":"031-862-6888","addr":"경기도 양주시 봉양동 939-12번지","indutype":"가구 - 일반가구","category":"other"}]},{"lat":"37.848748919","long":"127.08079011","imageIndex":17,"items":[{"name":"녹턴(NOCTURNE)","tel":"031-859-2377","addr":"경기도 양주시 봉양동 302-8번지","indutype":"기타 - 기타 전문점","category":"other"}]},{"lat":"37.866417095","long":"127.06422781","imageIndex":17,"items":[{"name":"뉴스포츠","tel":"031-894-6388","addr":"경기도 양주시 봉양동 788-12번지 2동","indutype":"레져용품 - 스포츠·레져용품","category":"other"}]},{"lat":"37.870446576","long":"127.05965099","imageIndex":17,"items":[{"name":"다가구","tel":"031-868-1164","addr":"경기도 양주시 봉양동 801-12번지 나동 1층","indutype":"가구 - 일반가구","category":"other"}]},{"lat":"37.861384783","long":"127.07331467","imageIndex":17,"items":[{"name":"대동알파산업","tel":"031-864-2980","addr":"경기도 양주시 봉양동 564-28번지","indutype":"주방용구 - 기타주방용구","category":"other"}]},{"lat":"37.866968354","long":"127.06089843","imageIndex":17,"items":[{"name":"대한도장공사","tel":"031-859-2887","addr":"경기도 양주시 봉양동 810-1번지","indutype":"건축자재 - 페인트","category":"other"}]},{"lat":"37.85680327","long":"127.06578795","imageIndex":17,"items":[{"name":"도그쇼","tel":"031-864-5777","addr":"경기도 양주시 봉양동 702-3번지 1층","indutype":"문화.취미 - 애완동물","category":"other"}]},{"lat":"37.853668468","long":"127.09283965","imageIndex":17,"items":[{"name":"메이커플레이스","tel":"031-000-0000","addr":"경기도 양주시 봉양동 12-10번지 1층","indutype":"건축자재 - 인테리어전문","category":"other"}]},{"lat":"37.854418299","long":"127.07695548","imageIndex":17,"items":[{"name":"미니스톱양주봉양점","tel":"031-1577-9621","addr":"경기도 양주시 봉양동 367-6번지","indutype":"유통업 영리 - 편 의 점","category":"other"}]},{"lat":"37.85333633","long":"127.07828381","imageIndex":17,"items":[{"name":"미도라","tel":"031-862-0233","addr":"경기도 양주시 봉양동 371-10번지","indutype":"신변잡화 - 가방","category":"other"}]},{"lat":"37.860084021","long":"127.06323393","imageIndex":17,"items":[{"name":"미래통상","tel":"070-7788-5900","addr":"경기도 양주시 봉양동 887-21번지","indutype":"주방용구 - 주방용구","category":"other"}]},{"lat":"37.866913561","long":"127.06237579","imageIndex":17,"items":[{"name":"봉양건축자재","tel":"031-879-3399","addr":"경기도 양주시 봉양동 820번지","indutype":"건축자재 - 기타건축자재","category":"other"},{"name":"성은공구상사","tel":"031-879-3399","addr":"경기도 양주시 봉양동 820번지","indutype":"기타 - 기계공구","category":"other"}]},{"lat":"37.866689103","long":"127.06081866","imageIndex":17,"items":[{"name":"부흥종합주방","tel":"031-858-8760","addr":"경기도 양주시 봉양동 810-4번지","indutype":"주방용구 - 주방용구","category":"other"}]},{"lat":"37.863528465","long":"127.07422584","imageIndex":17,"items":[{"name":"삼성건조기","tel":"02-2266-1327","addr":"경기도 양주시 봉양동 508-4번지","indutype":"기타 - 기계공구","category":"other"}]},{"lat":"37.866418867","long":"127.06072753","imageIndex":17,"items":[{"name":"삼성배관","tel":"031-859-0054","addr":"경기도 양주시 봉양동 806-6번지","indutype":"건축자재 - 기타건축자재","category":"other"},{"name":"일산공구볼트","tel":"031-847-4480","addr":"경기도 양주시 봉양동 806-6번지","indutype":"기타 - 기계공구","category":"other"}]},{"lat":"37.86108057","long":"127.06970071","imageIndex":17,"items":[{"name":"삼성정보통신","tel":"031-865-8733","addr":"경기도 양주시 봉양동 539번지 마동 2층 2호","indutype":"사무통신 - 통신기기","category":"other"}]},{"lat":"37.850498229","long":"127.07850817","imageIndex":17,"items":[{"name":"삼화공사","tel":"031-858-5525","addr":"경기도 양주시 봉양동 328-2번지","indutype":"용역 서비스 - 기타용역서비스","category":"other"}]},{"lat":"37.85064049","long":"127.08139429","imageIndex":17,"items":[{"name":"상현하우징","tel":"031-866-0366","addr":"경기도 양주시 봉양동 293-3번지","indutype":"건축자재 - 기타건축자재","category":"other"}]},{"lat":"37.851197395","long":"127.08387185","imageIndex":17,"items":[{"name":"성지섬유","tel":"070-7744-9672","addr":"경기도 양주시 봉양동 264번지","indutype":"의류 - 기타의류","category":"other"}]},{"lat":"37.8579413","long":"127.07642493","imageIndex":17,"items":[{"name":"성진산업","tel":"031-867-2513","addr":"경기도 양주시 봉양동 411-38","indutype":"주방용구 - 주방용식기","category":"other"}]},{"lat":"37.86672396","long":"127.06317116","imageIndex":17,"items":[{"name":"시온몰","tel":"031-858-1324","addr":"경기도 양주시 봉양동 821-2번지","indutype":"서적문구 - 일반서적","category":"other"}]},{"lat":"37.868806647","long":"127.06011569","imageIndex":17,"items":[{"name":"아트센타","tel":"031-867-0199","addr":"경기도 양주시 봉양동 802-7번지","indutype":"신변잡화 - 기타잡화","category":"other"}]},{"lat":"37.851137573","long":"127.07900876","imageIndex":17,"items":[{"name":"애니카랜드봉양점","tel":"031-858-1434","addr":"경기도 양주시 봉양동 326-1번지","indutype":"회원제형태 - 기타3","category":"other"}]},{"lat":"37.861113911","long":"127.05745062","imageIndex":17,"items":[{"name":"양주계량증명소","tel":"031-863-0646","addr":"경기도 양주시 봉양동 925-19번지","indutype":"용역 서비스 - 사무서비스","category":"other"}]},{"lat":"37.854805903","long":"127.08984125","imageIndex":17,"items":[{"name":"양천 수정 인테리어","tel":"","addr":"경기도 양주시 봉양동 78번지","indutype":"건축자재 - 인테리어전문","category":"other"},{"name":"양천환경(주)","tel":"031-861-4041","addr":"경기도 양주시 봉양동 78","indutype":"용역 서비스 - 종합용역","category":"other"}]},{"lat":"37.865222377","long":"127.07397746","imageIndex":17,"items":[{"name":"에스디그룹 주식회사","tel":"02-333-6843","addr":"경기도 양주시 봉양동 507-3번지","indutype":"회원제형태 - 레져업소","category":"other"}]},{"lat":"37.856722847","long":"127.06453795","imageIndex":17,"items":[{"name":"올드 브라더스(old brothers)","tel":"","addr":"경기도 양주시 봉양동 711번지 2동","indutype":"가구 - 일반가구","category":"other"}]},{"lat":"37.864193958","long":"127.0598962","imageIndex":17,"items":[{"name":"유일건철안전","tel":"031-861-7337","addr":"경기도 양주시 봉양동 854-1번지","indutype":"건축자재 - 기타건축자재","category":"other"}]},{"lat":"37.867914665","long":"127.06022865","imageIndex":17,"items":[{"name":"유한천막사","tel":"031-865-0308","addr":"경기도 양주시 봉양동 804-2번지","indutype":"직물 - 카페트,커튼,천막,지물","category":"other"}]},{"lat":"37.862836661","long":"127.07098643","imageIndex":17,"items":[{"name":"이케이앤(EKN)","tel":"031-847-2108","addr":"경기도 양주시 봉양동 497-6번지","indutype":"문화.취미 - 문화취미기타","category":"other"},{"name":"한진보일러","tel":"031-841-1495","addr":"경기도 양주시 봉양동 497-6번지","indutype":"건축자재 - 보일러·펌프·샷시","category":"other"}]},{"lat":"37.847360495","long":"127.0822543","imageIndex":17,"items":[{"name":"정우상사","tel":"031-858-6271","addr":"경기도 양주시 봉양동 308-2번지","indutype":"수리서비스 - 기타수리서비스","category":"other"}]},{"lat":"37.85130255","long":"127.08806463","imageIndex":17,"items":[{"name":"제이에스포장자재","tel":"031-841-4047","addr":"경기도 양주시 봉양동 41-3번지","indutype":"유통업 영리 - 기타유통업","category":"other"}]},{"lat":"37.866166627","long":"127.06068187","imageIndex":17,"items":[{"name":"제일미싱","tel":"031-867-6200","addr":"경기도 양주시 봉양동 806-1번지","indutype":"기타 - 기계공구","category":"other"}]},{"lat":"37.865136437","long":"127.06672691","imageIndex":17,"items":[{"name":"주식회사 아이티엠에스","tel":"070-4818-0400","addr":"경기도 양주시 봉양동 759-30번지","indutype":"용역 서비스 - 기타용역서비스","category":"other"}]},{"lat":"37.85441629","long":"127.09278374","imageIndex":17,"items":[{"name":"주식회사아웃피터스","tel":"070-8811-1975","addr":"경기도 양주시 봉양동 12-2번지 1층","indutype":"레져용품 - 스포츠·레져용품","category":"other"}]},{"lat":"37.8692752","long":"127.05997967","imageIndex":17,"items":[{"name":"주식회사케이엔테크","tel":"031-859-8588","addr":"경기도 양주시 봉양동 801-10번지 1층","indutype":"전기제품 - 기타전기제품","category":"other"}]},{"lat":"37.856996678","long":"127.07420818","imageIndex":17,"items":[{"name":"태광시스템 주식회사","tel":"031-862-8942","addr":"경기도 양주시 봉양동 577번지","indutype":"용역 서비스 - 기타용역서비스","category":"other"}]},{"lat":"37.858337349","long":"127.07700485","imageIndex":17,"items":[{"name":"태영정밀","tel":"031-859-9937","addr":"경기도 양주시 봉양동 411-27번지","indutype":"기타 - 기계공구","category":"other"}]},{"lat":"37.867057979","long":"127.06184177","imageIndex":17,"items":[{"name":"프블리즈","tel":"","addr":"경기도 양주시 봉양동 823-1번지 단독주택","indutype":"문화.취미 - 애완동물","category":"other"}]},{"lat":"37.859916976","long":"127.07209737","imageIndex":17,"items":[{"name":"한텍스","tel":"031-864-4052","addr":"경기도 양주시 봉양동 559-9번지","indutype":"직물 - 옷감·직물","category":"other"}]}]