[{"lat":"37.48104236","long":"126.8625074","imageIndex":17,"items":[{"name":"(주)남영코너비드","tel":"02-2066-8923","addr":"경기도 광명시 철산동 205-2번지","indutype":"건축자재 - 기타건축자재","category":"other"}]},{"lat":"37.47442928","long":"126.8705124","imageIndex":17,"items":[{"name":"(주)명진전기통신","tel":"02-2686-2493","addr":"경기도 광명시 철산동 441번지 503호","indutype":"용역 서비스 - 기타용역서비스","category":"other"},{"name":"북경체형스트레칭","tel":"02-2617-9966","addr":"경기도 광명시 철산동 441번지 304호","indutype":"회원제형태 - 레져업소","category":"other"},{"name":"정혜숙의 she's벨리","tel":"02-2066-0122","addr":"경기도 광명시 철산동 441번지 그랜드프라자 601호","indutype":"회원제형태 - 레져업소","category":"other"},{"name":"콜로세움 헬스크럽","tel":"02-2616-0888","addr":"경기도 광명시 철산동 441번지 그랜드프라자 4층 405호","indutype":"회원제형태 - 레져업소","category":"other"}]},{"lat":"37.47826845","long":"126.8634849","imageIndex":17,"items":[{"name":"(주)미주관광","tel":"02-895-8600","addr":"경기도 광명시 철산동 463-38번지 힐팰리스 B-1호","indutype":"여행 - 관광여행","category":"other"},{"name":"GS25광명시청점","tel":"","addr":"경기도 광명시 철산동 463-38번지 힐팰리스","indutype":"유통업 영리 - 편 의 점","category":"other"},{"name":"아이맥스 (IMEX)","tel":"02-597-6649","addr":"경기도 광명시 철산동 463-38번지 힐팰리스 B02-02호","indutype":"신변잡화 - 기타잡화","category":"other"}]},{"lat":"37.4751822","long":"126.867063","imageIndex":17,"items":[{"name":"(주)에스에스깁트","tel":"051-305-9955","addr":"경기도 광명시 철산동 261번지 파보레쇼핑몰 1층 292호","indutype":"의류 - 기타의류","category":"other"},{"name":"2001아울렛수선실","tel":"02-2067-7315","addr":"경기도 광명시 철산동 261번지 (2001아울렛2층수선실)","indutype":"수리서비스 - 기타수리서비스","category":"other"},{"name":"광명삼익악기","tel":"02-2067-7114","addr":"경기도 광명시 철산동 261이천일아울렛지하2층","indutype":"레져용품 - 악기점","category":"other"},{"name":"광명퀸 웨딩&파티","tel":"02-2067-7000","addr":"경기도 광명시 철산동 261번지 이천일아울렛 2층 32,41,42,196호","indutype":"용역 서비스 - 혼례서비스","category":"other"},{"name":"끽연구","tel":"02-2681-2967","addr":"경기도 광명시 철산동 261번지 파보레 상가 1층 148호","indutype":"신변잡화 - 기타잡화","category":"other"},{"name":"댑철산2001","tel":"02-2067-7129","addr":"경기도 광명시 철산동 261번지 이천일아울렛광명철산점 1층","indutype":"의류 - 내의판매","category":"other"},{"name":"싱싱플라워 한양동문플라워","tel":"02-2602-4288","addr":"경기도 광명시 철산동 261번지 이천일아울렛 2층 226호","indutype":"문화.취미 - 화원","category":"other"},{"name":"월드크린","tel":"02-2067-7575","addr":"경기도 광명시 철산동 261번지 이천일아울렛광명철산점 지하2층 이천일아울렛광명철산점","indutype":"수리서비스 - 세탁소","category":"other"},{"name":"젬코리아","tel":"02-2611-4159","addr":"경기도 광명시 철산동 261번지 이천일아울렛광명철산점","indutype":"신변잡화 - 액세서리","category":"other"}]},{"lat":"37.48610109","long":"126.8660369","imageIndex":17,"items":[{"name":"(주)에스제이렌트카","tel":"02-681-8103","addr":"경기도 광명시 철산동 92번지","indutype":"여행 - 렌터카","category":"other"}]},{"lat":"37.47731709","long":"126.8666521","imageIndex":17,"items":[{"name":"(주)이다소프트","tel":"02-2684-3696","addr":"경기도 광명시 철산동 254번지 미성오피스텔2차 1403호","indutype":"용역 서비스 - 소프트웨어","category":"other"},{"name":"(주)피티원","tel":"02-3666-0900","addr":"경기도 광명시 철산동 254번지 미성오피스텔2차 1403호","indutype":"용역 서비스 - 종합용역","category":"other"},{"name":"광명중앙로타리클럽","tel":"02-2617-7272","addr":"경기도 광명시 철산동 254번지 미성2차 801호","indutype":"기타 - 비영리/대상","category":"other"},{"name":"래몽하우스","tel":"02-2619-8768","addr":"경기도 광명시 철산동 254번지 미성오피스텔2차 1205호","indutype":"의류 - 아동의류","category":"other"},{"name":"신우기획","tel":"02-2069-2094","addr":"경기도 광명시 철산동 254번지 미성오피스텔2차 608호","indutype":"서적문구 - 출판 및 인쇄물","category":"other"},{"name":"신현옥세무회계사무","tel":"02-2617-0091","addr":"경기도 광명시 철산동 254번지 미성오피스텔2차 506호","indutype":"용역 서비스 - 법률회계서비스(개인)","category":"other"},{"name":"여여 심리상담 연구소","tel":"","addr":"경기도 광명시 철산동 254번지 미성오피스텔2차 306호","indutype":"용역 서비스 - 사무서비스","category":"other"},{"name":"콕스크리에이티브(coxcreative)","tel":"02-8523-8274","addr":"경기도 광명시 철산동 254번지 미성오피스텔2차 402호","indutype":"회원제형태 - 서적","category":"other"}]},{"lat":"37.4762414","long":"126.8636469","imageIndex":17,"items":[{"name":"(주)이즈맘","tel":"02-2066-3588","addr":"경기도 광명시 철산동 467-484 7,8층","indutype":"기타의료기관 - 산후조리원","category":"other"}]},{"lat":"37.47465075","long":"126.867177","imageIndex":17,"items":[{"name":"(주)일일콜라철산","tel":"070-4280-0835","addr":"경기도 광명시 철산동 413번지 한복빌딩 103호","indutype":"의류 - 정장","category":"other"},{"name":"GS25광명로데오점","tel":"02-2006-2485","addr":"경기도 광명시 철산동 413번지","indutype":"유통업 영리 - 편 의 점","category":"other"},{"name":"지디에스테틱","tel":"02-2616-0928","addr":"경기도 광명시 철산동 413번지 한복빌딩 401호","indutype":"회원제형태 - 기타4","category":"other"}]},{"lat":"37.48670966","long":"126.862542","imageIndex":17,"items":[{"name":"(주)지에스시스템","tel":"070-7706-3801","addr":"경기도 광명시 철산동 56-282번지 1층","indutype":"사무통신 - 컴퓨터","category":"other"}]},{"lat":"37.47585236","long":"126.8700689","imageIndex":17,"items":[{"name":"(주)케어트렌드","tel":"02-2619-2282","addr":"경기도 광명시 철산동 394번지 다모아빌딩 302호","indutype":"용역 서비스 - 소프트웨어","category":"other"},{"name":"주식회사 피카소큐브","tel":"02-717-0748","addr":"경기도 광명시 철산동 394번지 다모아빌딩 302호","indutype":"용역 서비스 - 소프트웨어","category":"other"}]},{"lat":"37.47417888","long":"126.8642951","imageIndex":17,"items":[{"name":"(주)토리","tel":"02-6339-7600","addr":"경기도 광명시 철산동 489-24번지","indutype":"신변잡화 - 기타잡화","category":"other"}]},{"lat":"37.48209973","long":"126.8652302","imageIndex":17,"items":[{"name":"(주)하이킹에너지","tel":"02-1666-2668","addr":"경기도 광명시 철산동 160-3번지","indutype":"기타 - 기타 전문점","category":"other"}]},{"lat":"37.48646207","long":"126.8665451","imageIndex":17,"items":[{"name":"(주)협성산업","tel":"02-2686-1451","addr":"경기도 광명시 철산동 91번지","indutype":"서적문구 - 문구용품","category":"other"},{"name":"청송디엠기획","tel":"02-3666-5959","addr":"경기도 광명시 철산동 91번지","indutype":"서적문구 - 출판 및 인쇄물","category":"other"}]},{"lat":"37.46940417","long":"126.8647787","imageIndex":17,"items":[{"name":"153수산","tel":"02-2613-5282","addr":"경기도 광명시 철산동 625번지 도덕파크타운 104동 1901호","indutype":"회원제형태 - 기타1","category":"other"},{"name":"소희콜렉션","tel":"070-8877-0469","addr":"경기도 광명시 철산동 625번지 도덕파크타운 104동 1903호","indutype":"의류 - 내의판매","category":"other"}]},{"lat":"37.48132397","long":"126.8644515","imageIndex":17,"items":[{"name":"21세기세탁소","tel":"02-2688-6336","addr":"경기도 광명시 철산동 168-3번지","indutype":"수리서비스 - 세탁소","category":"other"}]},{"lat":"37.477045","long":"126.8730628","imageIndex":17,"items":[{"name":"72쎄븐-투 골프클럽","tel":"02-2688-0755","addr":"경기도 광명시 철산동 449-2 지층14~21호,25호,26호","indutype":"회원제형태 - 레져업소","category":"other"},{"name":"삼천리자전거","tel":"02-2683-3441","addr":"경기도 광명시 철산동 449-2번지 주공12단지 사상가 1층","indutype":"레져용품 - 스포츠·레져용품","category":"other"},{"name":"세탁마을","tel":"02-2617-4508","addr":"경기도 광명시 철산동 449-2번지 주공상가 사동 104호","indutype":"수리서비스 - 세탁소","category":"other"},{"name":"예품","tel":"02-2682-8918","addr":"경기도 광명시 철산동 449-2번지 주공12단지 상가 102호","indutype":"문화.취미 - 민예·공예품","category":"other"},{"name":"한국상사","tel":"02-2060-0098","addr":"경기도 광명시 철산동 449-2번지 사 상가 13호","indutype":"레져용품 - 스포츠·레져용품","category":"other"}]},{"lat":"37.47478946","long":"126.8703195","imageIndex":17,"items":[{"name":"8지역","tel":"070-7076-5091","addr":"경기도 광명시 철산동 440번지 중앙시장 지하 5호","indutype":"사무통신 - 컴퓨터","category":"other"},{"name":"가나안","tel":"02-2615-8248","addr":"경기도 광명시 철산동 440 중앙시장1층21호","indutype":"의류 - 정장","category":"other"},{"name":"광명포톤테라피","tel":"02-2617-3370","addr":"경기도 광명시 철산동 440번지 중앙시장 2층 1호","indutype":"전기제품 - 기타전기제품","category":"other"},{"name":"그릇나라","tel":"02-2688-8192","addr":"경기도 광명시 철산동 440 중앙시장 1층 49호","indutype":"주방용구 - 주방용식기","category":"other"},{"name":"금보석","tel":"02-2685-8585","addr":"경기도 광명시 철산동 440중앙상가1층5호","indutype":"신변잡화 - 귀금속","category":"other"},{"name":"다온","tel":"02-2614-2152","addr":"경기도 광명시 철산동 440번지 중앙시장 1동 147호","indutype":"광학제품 - 사진관","category":"other"},{"name":"동원철물","tel":"02-2686-5572","addr":"경기도 광명시 철산동 440중앙시장1층57호","indutype":"건축자재 - 목재·석재·철물","category":"other"},{"name":"마스터골프스쿨","tel":"02-2613-0755","addr":"경기도 광명시 철산동 440번지 지하층1층","indutype":"회원제형태 - 레져업소","category":"other"},{"name":"보금당","tel":"02-2682-4848","addr":"경기도 광명시 철산동 440번지","indutype":"신변잡화 - 시계","category":"other"},{"name":"삶기획","tel":"02-2684-0880","addr":"경기도 광명시 철산동 440번지 중앙시장 3층 7호","indutype":"서적문구 - 출판 및 인쇄물","category":"other"},{"name":"삼성지물포","tel":"02-2681-2005","addr":"경기도 광명시 철산동 440 1-29","indutype":"직물 - 카페트,커튼,천막,지물","category":"other"},{"name":"시가크루","tel":"02-2611-3331","addr":"경기도 광명시 철산동 440번지 철산종합상가 1층 2호","indutype":"기타 - 기타 전문점","category":"other"},{"name":"에덴종합상사","tel":"02-2686-1094","addr":"경기도 광명시 철산동 440","indutype":"건축자재 - 목재·석재·철물","category":"other"},{"name":"에바다상회","tel":"02-2687-7566","addr":"경기도 광명시 철산동 440번지 중앙시장 2층","indutype":"의류 - 내의판매","category":"other"},{"name":"위드커뮤니케이션","tel":"02-2611-1808","addr":"경기도 광명시 철산동 440번지 철산중앙시장 3층 308호","indutype":"용역 서비스 - 종합용역","category":"other"},{"name":"이츠봄","tel":"02-1111-1111","addr":"경기도 광명시 철산동 440번지 철산종합상가 1층 54호","indutype":"의류 - 정장","category":"other"},{"name":"참새와방앗간","tel":"02-2066-2728","addr":"경기도 광명시 철산동 440번지 중앙시장 11호","indutype":"신변잡화 - 기타잡화","category":"other"},{"name":"천일전파사","tel":"02-2681-5912","addr":"경기도 광명시 철산동 440.1층69호","indutype":"수리서비스 - 가정용품수리","category":"other"},{"name":"철산개발(주)","tel":"02-2619-1080","addr":"경기도 광명시 철산동 440번지","indutype":"사무통신 - 통신기기","category":"other"},{"name":"컴정보기술","tel":"02-2060-6780","addr":"경기도 광명시 철산동 440번지 중앙시장 1층 9호","indutype":"사무통신 - 컴퓨터","category":"other"}]},{"lat":"37.48326292","long":"126.8660082","imageIndex":17,"items":[{"name":"9단지설비보수","tel":"02-2614-4341","addr":"경기도 광명시 철산동 156번지","indutype":"수리서비스 - 기타수리서비스","category":"other"},{"name":"롤로코리아 철산점","tel":"02-6338-2011","addr":"경기도 광명시 철산동 156번지 1층 103호","indutype":"기타 - 기타 전문점","category":"other"},{"name":"신풍실업","tel":"02-2060-3888","addr":"경기도 광명시 철산동 156번지","indutype":"신변잡화 - 기타잡화","category":"other"}]},{"lat":"37.47426275","long":"126.8666803","imageIndex":17,"items":[{"name":":you(치유)","tel":"02-2615-0276","addr":"경기도 광명시 철산동 519-4번지","indutype":"문화.취미 - 문화취미기타","category":"other"},{"name":"페이퍼문화","tel":"02-2681-3282","addr":"경기도 광명시 철산동 519-4번지","indutype":"서적문구 - 출판 및 인쇄물","category":"other"}]},{"lat":"37.4752916","long":"126.868182","imageIndex":17,"items":[{"name":"<W>더블유","tel":"02-111-1111","addr":"경기도 광명시 철산동 406번지 센타빌딩 1층 101호","indutype":"의류 - 정장","category":"other"}]},{"lat":"37.47835882","long":"126.8715795","imageIndex":17,"items":[{"name":"ARC1HIVE/0608","tel":"","addr":"경기도 광명시 철산동 241번지 철산13단지주공아파트","indutype":"의류 - 정장","category":"other"}]},{"lat":"37.48448943","long":"126.8670122","imageIndex":17,"items":[{"name":"BBF","tel":"02-325-1972","addr":"경기도 광명시 철산동 105-1번지 가동상가 202호","indutype":"의류 - 정장","category":"other"},{"name":"가제트전기","tel":"","addr":"경기도 광명시 철산동 105-1번지 1호 (10단지 상가)","indutype":"전기제품 - 기타전기제품","category":"other"},{"name":"주식회사세광종합건설","tel":"02-2689-0463","addr":"경기도 광명시 철산동 105-1 가동 2 1 1 호","indutype":"용역 서비스 - 기타용역서비스","category":"other"},{"name":"한국종이문화원","tel":"02-2634-1248","addr":"경기도 광명시 철산동 105-1번지 가동 1층 109호","indutype":"문화.취미 - 문화취미기타","category":"other"}]},{"lat":"37.48662117","long":"126.863899","imageIndex":17,"items":[{"name":"DIX멀티솔루션(광명점)","tel":"02-2682-8051","addr":"경기도 광명시 철산동 56-120번지 1층","indutype":"사무통신 - 컴퓨터","category":"other"},{"name":"신도OA서비스","tel":"02-2616-7746","addr":"경기도 광명시 철산동 56-120번지 1층","indutype":"사무통신 - 사무용 OA기기","category":"other"},{"name":"아기사랑포토지오","tel":"02-2688-2858","addr":"경기도 광명시 철산동 56-120번지","indutype":"광학제품 - 사진관","category":"other"}]},{"lat":"37.47373785","long":"126.8646803","imageIndex":17,"items":[{"name":"ECS","tel":"02-2617-4094","addr":"경기도 광명시 철산동 490-2번지 202호","indutype":"전기제품 - 가전제품","category":"other"},{"name":"원종합건재철물공사","tel":"02-2687-0234","addr":"경기도 광명시 철산동 490-2번지","indutype":"건축자재 - 목재·석재·철물","category":"other"}]},{"lat":"37.47662706","long":"126.8699319","imageIndex":17,"items":[{"name":"GS25S철산역점","tel":"02-2006-2118","addr":"경기도 광명시 철산동 526번지 7호선 철산역내","indutype":"유통업 영리 - 편 의 점","category":"other"},{"name":"두바이준","tel":"02-2687-9712","addr":"경기도 광명시 철산동 526번지 철산역 지하1층 1002호","indutype":"신변잡화 - 신발","category":"other"},{"name":"엔터","tel":"031-565-4058","addr":"경기도 광명시 철산동 526번지 철산역 지하1층 1005호","indutype":"의류 - 캐주얼의류","category":"other"},{"name":"제이엠","tel":"","addr":"경기도 광명시 철산동 526번지 철산역 지하1층 1002-1003호","indutype":"의류 - 정장","category":"other"}]},{"lat":"37.48101763","long":"126.8644521","imageIndex":17,"items":[{"name":"GS25광명모세로점","tel":"","addr":"경기도 광명시 철산동 162-2번지","indutype":"유통업 영리 - 편 의 점","category":"other"}]},{"lat":"37.48742864","long":"126.8687369","imageIndex":17,"items":[{"name":"GS25광명북점","tel":"02-2006-2118","addr":"경기도 광명시 철산동 62-2번지","indutype":"유통업 영리 - 편 의 점","category":"other"}]},{"lat":"37.47459799","long":"126.8683189","imageIndex":17,"items":[{"name":"GS25광명새인트점","tel":"02-2683-9841","addr":"경기도 광명시 철산동 420.1층1호","indutype":"유통업 영리 - 편 의 점","category":"other"}]},{"lat":"37.48501069","long":"126.8658693","imageIndex":17,"items":[{"name":"GS25광명시청로점","tel":"","addr":"경기도 광명시 철산동 142-1번지","indutype":"유통업 영리 - 편 의 점","category":"other"}]},{"lat":"37.48990329","long":"126.8660413","imageIndex":17,"items":[{"name":"GS25철산사성로점","tel":"","addr":"경기도 광명시 철산동 56-8번지 외 1필지 1층","indutype":"유통업 영리 - 편 의 점","category":"other"},{"name":"대억장식","tel":"02-2684-5460","addr":"경기도 광명시 철산동 56-8번지","indutype":"직물 - 카페트,커튼,천막,지물","category":"other"},{"name":"크린토피아철산현대점","tel":"02-2618-8597","addr":"경기도 광명시 철산동 56-8번지","indutype":"수리서비스 - 세탁소","category":"other"}]},{"lat":"37.4863226","long":"126.862848","imageIndex":17,"items":[{"name":"GeumJeongam Shamanism(금정)","tel":"","addr":"경기도 광명시 철산동 72-10번지 2층 201호","indutype":"신변잡화 - 기념품점","category":"other"}]},{"lat":"37.48751286","long":"126.8636486","imageIndex":17,"items":[{"name":"LS공조","tel":"070-7502-4300","addr":"경기도 광명시 철산동 56-105번지 한양빌라 101호","indutype":"용역 서비스 - 기타용역서비스","category":"other"}]},{"lat":"37.48623472","long":"126.8647364","imageIndex":17,"items":[{"name":"NEO인테리어필름","tel":"02-865-3883","addr":"경기도 광명시 철산동 66-13번지","indutype":"직물 - 카페트,커튼,천막,지물","category":"other"}]},{"lat":"37.48689813","long":"126.8696876","imageIndex":17,"items":[{"name":"PLOT","tel":"","addr":"경기도 광명시 철산동 105번지 철산11단지주공아파트","indutype":"용역 서비스 - 기타용역서비스","category":"other"},{"name":"아주건설","tel":"02-2685-7838","addr":"경기도 광명시 철산동 105번지 철산11단지주공아파트","indutype":"회원제형태 - 기타4","category":"other"}]},{"lat":"37.47576535","long":"126.8649027","imageIndex":17,"items":[{"name":"Rocca","tel":"02-2625-4327","addr":"경기도 광명시 철산동 472-1번지","indutype":"의류 - 정장","category":"other"}]},{"lat":"37.47740047","long":"126.868653","imageIndex":17,"items":[{"name":"e포토갤러리","tel":"02-2614-3354","addr":"경기도 광명시 철산동 245-1번지 지하1층 101호","indutype":"광학제품 - 사진관","category":"other"},{"name":"오션모바일","tel":"02-2685-8088","addr":"경기도 광명시 철산동 245-1번지 효도프라자 1층 16호","indutype":"사무통신 - 통신기기","category":"other"},{"name":"체리핑크","tel":"02-2687-9351","addr":"경기도 광명시 철산동 245-1번지 효도프라자 104호","indutype":"서적문구 - 문구용품","category":"other"},{"name":"체인지원","tel":"","addr":"경기도 광명시 철산동 245-1번지 효도프라자 1층 4호","indutype":"의류 - 정장","category":"other"},{"name":"효도부동산","tel":"02-2618-2323","addr":"경기도 광명시 철산동 245-1번지 효도프라자 1층 10호","indutype":"용역 서비스 - 부동산 중개·임대","category":"other"}]},{"lat":"37.47319491","long":"126.8705032","imageIndex":17,"items":[{"name":"in clay(인 클레이)","tel":"","addr":"경기도 광명시 철산동 637번지 철산푸르지오하늘채 101동 1301호","indutype":"문화.취미 - 문화취미기타","category":"other"}]},{"lat":"37.48875224","long":"126.8679769","imageIndex":17,"items":[{"name":"paper art world","tel":"02-6298-5193","addr":"경기도 광명시 철산동 58번지 우성아파트","indutype":"문화.취미 - 문화취미기타","category":"other"},{"name":"리치모바일","tel":"","addr":"경기도 광명시 철산동 58번지 우성아파트","indutype":"사무통신 - 통신기기","category":"other"},{"name":"해냄디자인","tel":"02-2687-4194","addr":"경기도 광명시 철산동 58번지 우성아파트","indutype":"회원제형태 - 기타4","category":"other"}]},{"lat":"37.48096164","long":"126.8628128","imageIndex":17,"items":[{"name":"가나안 인테리어","tel":"02-2066-6180","addr":"경기도 광명시 철산동 205-4번지","indutype":"건축자재 - 목재·석재·철물","category":"other"},{"name":"예랑천연염색","tel":"02-2618-8049","addr":"경기도 광명시 철산동 205-4번지","indutype":"회원제형태 - 기타1","category":"other"}]},{"lat":"37.48282076","long":"126.8654324","imageIndex":17,"items":[{"name":"가내액자","tel":"02-2615-9052","addr":"경기도 광명시 철산동 159-3번지 1층","indutype":"문화.취미 - 화방·표구점","category":"other"},{"name":"대신상사","tel":"031-685-5937","addr":"경기도 광명시 철산동 159-3번지","indutype":"전기제품 - 기타전기제품","category":"other"},{"name":"우진정밀","tel":"02-2685-5937","addr":"경기도 광명시 철산동 159-3번지","indutype":"전기제품 - 냉열기기","category":"other"}]},{"lat":"37.47740322","long":"126.871095","imageIndex":17,"items":[{"name":"가락지","tel":"02-2612-0959","addr":"경기도 광명시 철산동 241-1 효도프라자 1층 11","indutype":"신변잡화 - 액세서리","category":"other"}]},{"lat":"37.47381361","long":"126.8759963","imageIndex":17,"items":[{"name":"가림홈케어","tel":"070-8889-9591","addr":"경기도 광명시 철산동 367번지 철산한신아파트","indutype":"용역 서비스 - 종합용역","category":"other"}]},{"lat":"37.4857943","long":"126.8656531","imageIndex":17,"items":[{"name":"강남인테리어","tel":"02-2689-3479","addr":"경기도 광명시 철산동 140번지 마상가 103호","indutype":"건축자재 - 인테리어전문","category":"other"}]},{"lat":"37.47721353","long":"126.8628424","imageIndex":17,"items":[{"name":"강림아울렛","tel":"070-7622-0101","addr":"경기도 광명시 철산동 220-2번지 금산빌딩 지하1층 1호","indutype":"주방용구 - 주방용구","category":"other"},{"name":"보람메디칼","tel":"02-2681-5288","addr":"경기도 광명시 철산동 220-2번지 금산빌딩 202호","indutype":"기타의료기관 - 기타의료기관 및 기타","category":"other"},{"name":"웅비법무사사무소","tel":"02-2689-7900","addr":"경기도 광명시 철산동 220-2번지 금산빌딩 204호","indutype":"용역 서비스 - 법률회계서비스(개인)","category":"other"}]},{"lat":"37.47701222","long":"126.8679302","imageIndex":17,"items":[{"name":"강문섭세무회계사무소","tel":"02-2684-3913","addr":"경기도 광명시 철산동 245번지 쌍마한신 상가 지하층 3호","indutype":"용역 서비스 - 법률회계서비스(개인)","category":"other"},{"name":"대우인쇄사","tel":"02-2688-3100","addr":"경기도 광명시 철산동 245번지 쌍마한신아파트","indutype":"서적문구 - 출판 및 인쇄물","category":"other"},{"name":"홍순주세무회계사무소","tel":"02-2611-3456","addr":"경기도 광명시 철산동 245번지 쌍마한신 상가 지하층 102호","indutype":"용역 서비스 - 법률회계서비스(개인)","category":"other"}]},{"lat":"37.48734934","long":"126.8625182","imageIndex":17,"items":[{"name":"개과천선","tel":"02-2688-9198","addr":"경기도 광명시 철산동 56-188번지","indutype":"문화.취미 - 애완동물","category":"other"}]},{"lat":"37.48269198","long":"126.8710179","imageIndex":17,"items":[{"name":"개명패션","tel":"02-2614-4592","addr":"경기도 광명시 철산동 235번지 철산9단지주공아파트","indutype":"의류 - 정장","category":"other"}]},{"lat":"37.48301046","long":"126.8658504","imageIndex":17,"items":[{"name":"건산E&C","tel":"02-899-2860","addr":"경기도 광명시 철산동 156-2번지 지층","indutype":"용역 서비스 - 기타용역서비스","category":"other"}]},{"lat":"37.49089532","long":"126.8668536","imageIndex":17,"items":[{"name":"검도명가","tel":"02-2615-8231","addr":"경기도 광명시 철산동 55-1번지 광복현대아파트","indutype":"회원제형태 - 기타4","category":"other"},{"name":"신성교육","tel":"02-6092-1492","addr":"경기도 광명시 철산동 55-1번지 광복현대아파트","indutype":"회원제형태 - 서적","category":"other"}]},{"lat":"37.47556928","long":"126.8748176","imageIndex":17,"items":[{"name":"격투기체육관","tel":"02-2625-9183","addr":"경기도 광명시 철산동 449-3번지","indutype":"회원제형태 - 레져업소","category":"other"}]},{"lat":"37.4761517","long":"126.8639862","imageIndex":17,"items":[{"name":"경애유통","tel":"031-386-6333","addr":"경기도 광명시 철산동 472-169번지 보보스텔지하 13","indutype":"신변잡화 - 기타잡화","category":"other"},{"name":"광명수정로타리클럽","tel":"02-2685-6113","addr":"경기도 광명시 철산동 472-169번지 보보스텔 201호","indutype":"기타 - 비영리/비대상","category":"other"},{"name":"광명스포츠","tel":"02-2613-0445","addr":"경기도 광명시 철산동 472-169번지 보보스텔 상가 101호","indutype":"레져용품 - 스포츠·레져용품","category":"other"},{"name":"광명스포츠","tel":"02-2613-0445","addr":"경기도 광명시 철산동 472-169번지 보보스텔 101호","indutype":"레져용품 - 스포츠·레져용품","category":"other"},{"name":"동광명로타리클럽","tel":"02-2685-6113","addr":"경기도 광명시 철산동 472-169번지 보보스텔 201호","indutype":"기타 - 비영리/대상","category":"other"},{"name":"벤토나이트","tel":"02-2683-8515","addr":"경기도 광명시 철산동 472-169번지 보보스텔 B5층","indutype":"회원제형태 - 기타4","category":"other"},{"name":"세무사권구문사무소","tel":"02-2066-9741","addr":"경기도 광명시 철산동 472-169번지 보보스텔 상가 208호","indutype":"용역 서비스 - 법률회계서비스(개인)","category":"other"},{"name":"아름다운세상","tel":"02-2614-6928","addr":"경기도 광명시 철산동 472-169번지 보보스텔 B3호","indutype":"회원제형태 - 기타4","category":"other"},{"name":"주식회사영창디지털피아노","tel":"02-2614-0150","addr":"경기도 광명시 철산동 472-169번지 보보스텔 206호","indutype":"레져용품 - 악기점","category":"other"},{"name":"파박닷컴","tel":"070-7560-7520","addr":"경기도 광명시 철산동 472-169번지 보보스텔 1011호","indutype":"전기제품 - 가전제품","category":"other"}]},{"lat":"37.48543404","long":"126.8657668","imageIndex":17,"items":[{"name":"고당표구사","tel":"02-2614-7115","addr":"경기도 광명시 철산동 141번지","indutype":"문화.취미 - 화방·표구점","category":"other"}]},{"lat":"37.47704029","long":"126.8688459","imageIndex":17,"items":[{"name":"골드쉘광명철산점","tel":"02-2060-4428","addr":"경기도 광명시 철산동 245-3번지 은성빌딩 102호","indutype":"신변잡화 - 귀금속","category":"other"}]},{"lat":"37.47193203","long":"126.8774012","imageIndex":17,"items":[{"name":"골드플라워","tel":"","addr":"경기도 광명시 철산동 367번지 철산한신아파트","indutype":"문화.취미 - 화원","category":"other"}]},{"lat":"37.47526695","long":"126.8702848","imageIndex":17,"items":[{"name":"골프존테라스","tel":"02-2687-0070","addr":"경기도 광명시 철산동 438번지 서창빌딩 2층","indutype":"회원제형태 - 레져업소","category":"other"}]},{"lat":"37.48559377","long":"126.8636748","imageIndex":17,"items":[{"name":"공감팩토리","tel":"02-8299-8835","addr":"경기도 광명시 철산동 76-28번지","indutype":"용역 서비스 - 소프트웨어","category":"other"}]},{"lat":"37.48928922","long":"126.8648439","imageIndex":17,"items":[{"name":"광명당","tel":"02-2684-6932","addr":"경기도 광명시 철산동 56-16번지 1층","indutype":"신변잡화 - 액세서리","category":"other"},{"name":"정일통신","tel":"02-2687-0088","addr":"경기도 광명시 철산동 56-16번지","indutype":"사무통신 - 통신기기","category":"other"}]},{"lat":"37.47726727","long":"126.862571","imageIndex":17,"items":[{"name":"광명상공회의소","tel":"02-2066-3057","addr":"경기도 광명시 철산동 220-1번지","indutype":"기타 - 비영리/대상","category":"other"},{"name":"법무법인광명","tel":"031-212-2800","addr":"경기도 광명시 철산동 220-1번지 영우프라자빌딩 9층","indutype":"용역 서비스 - 법률회계서비스(법인)","category":"other"}]},{"lat":"37.47212923","long":"126.8764513","imageIndex":17,"items":[{"name":"광명세이브존 3층수선실","tel":"02-2625-5623","addr":"경기도 광명시 철산동 367번지 철산한신아파트 3층","indutype":"수리서비스 - 세탁소","category":"other"},{"name":"모아텔레콤","tel":"02-2611-8885","addr":"경기도 광명시 철산동 367 세이브존1층","indutype":"사무통신 - 통신기기","category":"other"},{"name":"몽벨 세이브존 광명점","tel":"02-2616-8848","addr":"경기도 광명시 철산동 367번지 세이브존","indutype":"의류 - 정장","category":"other"},{"name":"진성수산/올리브물대","tel":"02-898-4031","addr":"경기도 광명시 철산동 367","indutype":"별도관리 - 자체물품대금","category":"other"}]},{"lat":"37.47753992","long":"126.8645715","imageIndex":17,"items":[{"name":"광명시청청우회","tel":"02-2680-6366","addr":"경기도 광명시 철산동 222-1번지","indutype":"용역 서비스 - 기타용역서비스","category":"other"},{"name":"광명업사이클아트센터/광명시청","tel":"02-2680-6928","addr":"경기도 광명시 철산동 222-1번지 광명시청 1층","indutype":"신변잡화 - 기념품점","category":"other"},{"name":"민주평화통일자문회의광명시협의회","tel":"02-2613-0017","addr":"경기도 광명시 철산동 221-1,광명시청내","indutype":"기타 - 비영리/대상","category":"other"},{"name":"한국예총광명지회","tel":"02-2681-0912","addr":"경기도 광명시 철산동 222-1번지 시민회관 2층","indutype":"기타 - 비영리/대상","category":"other"}]},{"lat":"37.47640279","long":"126.8629796","imageIndex":17,"items":[{"name":"광명오에이","tel":"02-2617-1991","addr":"경기도 광명시 철산동 464-10번지","indutype":"사무통신 - 사무용 OA기기","category":"other"},{"name":"롯데캐논광명오에이(특별할부)","tel":"02-2617-1992","addr":"경기도 광명시 철산동 464-10번지","indutype":"사무통신 - 사무용 OA기기","category":"other"},{"name":"사진나라","tel":"02-338-7470","addr":"경기도 광명시 철산동 464-10번지","indutype":"광학제품 - 사진관","category":"other"},{"name":"스마트학생복","tel":"02-2614-8901","addr":"경기도 광명시 철산동 464-10번지 1층","indutype":"의류 - 단체복","category":"other"},{"name":"쎈텐SSEN10 학생복","tel":"02-1111-0000","addr":"경기도 광명시 철산동 464-10번지 2층","indutype":"의류 - 단체복","category":"other"}]},{"lat":"37.4740692","long":"126.8707956","imageIndex":17,"items":[{"name":"광명의료기","tel":"02-2613-7117","addr":"경기도 광명시 철산동 448번지 정인코아빌딩 108호","indutype":"기타의료기관 - 기타의료기관 및 기타","category":"other"},{"name":"카뱅크","tel":"02-2686-5440","addr":"경기도 광명시 철산동 448번지 정인코아빌딩 130호","indutype":"신변잡화 - 귀금속","category":"other"}]},{"lat":"37.47626789","long":"126.8631833","imageIndex":17,"items":[{"name":"광명제일금은거래소","tel":"02-2611-2900","addr":"경기도 광명시 철산동 466-1번지 2층","indutype":"신변잡화 - 귀금속","category":"other"},{"name":"미션디자인","tel":"02-2686-0838","addr":"경기도 광명시 철산동 466-1번지","indutype":"건축자재 - 인테리어전문","category":"other"}]},{"lat":"37.477292","long":"126.860649","imageIndex":17,"items":[{"name":"광명제일라이온스클럽","tel":"02-2684-0006","addr":"경기도 광명시 철산동 465-7번지 대경베스트빌 101호","indutype":"용역 서비스 - 기타용역서비스","category":"other"},{"name":"종합목공소","tel":"02-683-5993","addr":"경기도 광명시 철산동 465-7번지 대경베스트빌","indutype":"건축자재 - 기타건축자재","category":"other"}]},{"lat":"37.47934971","long":"126.8635394","imageIndex":17,"items":[{"name":"광명종합공사","tel":"02-2683-0236","addr":"경기도 광명시 철산동 211-4번지","indutype":"건축자재 - 목재·석재·철물","category":"other"}]},{"lat":"37.48051877","long":"126.869405","imageIndex":17,"items":[{"name":"광명종합미터","tel":"","addr":"경기도 광명시 철산동 240번지 마상가 211호","indutype":"용역 서비스 - 기타용역서비스","category":"other"},{"name":"리더전산","tel":"02-3666-4088","addr":"경기도 광명시 철산동 240번지 마상가 125호","indutype":"사무통신 - 기타 사무용품","category":"other"},{"name":"아름홈패션","tel":"02-2612-4163","addr":"경기도 광명시 철산동 240번지 주공상가 마동 110호","indutype":"직물 - 침구·수예점","category":"other"},{"name":"옷(수선판매)","tel":"02-2687-2687","addr":"경기도 광명시 철산동 240번지 한화스토아내","indutype":"수리서비스 - 세탁소","category":"other"},{"name":"프리화원","tel":"02-2615-5678","addr":"경기도 광명시 철산동 240번지 철산주공마상가 공유지","indutype":"문화.취미 - 화원","category":"other"},{"name":"한양종합보수","tel":"02-2682-2960","addr":"경기도 광명시 철산동 240번지 마상가 105호","indutype":"기타 - 기계공구","category":"other"}]},{"lat":"37.47434106","long":"126.8721969","imageIndex":17,"items":[{"name":"광명크린냉열","tel":"02-2686-7278","addr":"경기도 광명시 철산동 449번지 철산12단지주공아파트","indutype":"전기제품 - 냉열기기","category":"other"},{"name":"파이로테크","tel":"070-7702-5114","addr":"경기도 광명시 철산동 449번지 철산12단지주공아파트","indutype":"회원제형태 - 기타4","category":"other"}]},{"lat":"37.48671216","long":"126.8646564","imageIndex":17,"items":[{"name":"광명트렌스포머","tel":"02-2614-3714","addr":"경기도 광명시 철산동 56-180번지","indutype":"전기제품 - 기타전기제품","category":"other"}]},{"lat":"37.48551311","long":"126.8640367","imageIndex":17,"items":[{"name":"광일사","tel":"02-2612-8702","addr":"경기도 광명시 철산동 76-13번지","indutype":"서적문구 - 일반서적","category":"other"}]},{"lat":"37.48823382","long":"126.8637943","imageIndex":17,"items":[{"name":"구그(Goog)","tel":"","addr":"경기도 광명시 철산동 56-30번지 라인빌라 4층 2호","indutype":"용역 서비스 - 사무서비스","category":"other"}]},{"lat":"37.48584891","long":"126.8661278","imageIndex":17,"items":[{"name":"구상디자인","tel":"02-2060-7786","addr":"경기도 광명시 철산동 93번지","indutype":"건축자재 - 인테리어전문","category":"other"}]},{"lat":"37.47798901","long":"126.8633723","imageIndex":17,"items":[{"name":"구영시스템","tel":"02-2682-1105","addr":"경기도 광명시 철산동 463-92번지 동원빌딩 101호","indutype":"서적문구 - 문구용품","category":"other"},{"name":"선진건축사사무소","tel":"02-2625-0494","addr":"경기도 광명시 철산동 463-92번지 동원빌딩 3층 2호","indutype":"건축자재 - 인테리어전문","category":"other"},{"name":"성은사","tel":"02-2689-0080","addr":"경기도 광명시 철산동 463-92번지 동원빌딩 102호","indutype":"서적문구 - 출판 및 인쇄물","category":"other"},{"name":"성은인쇄사","tel":"02-2689-0080","addr":"경기도 광명시 철산동 463-92번지 동원빌딩 103호","indutype":"서적문구 - 문구용품","category":"other"}]},{"lat":"37.47637955","long":"126.8742396","imageIndex":17,"items":[{"name":"굿차일드투어몰","tel":"02-2688-0632","addr":"경기도 광명시 철산동 449번지 철산12단지주공아파트","indutype":"용역 서비스 - 사무서비스","category":"other"}]},{"lat":"37.48246039","long":"126.8654557","imageIndex":17,"items":[{"name":"그레이스정장","tel":"062-383-8887","addr":"경기도 광명시 철산동 160번지 1층 18호","indutype":"의류 - 정장","category":"other"},{"name":"파이어코리아","tel":"02-2066-6565","addr":"경기도 광명시 철산동 160번지 2층","indutype":"기타 - 기계공구","category":"other"}]},{"lat":"37.48554303","long":"126.8745631","imageIndex":17,"items":[{"name":"금강공업사","tel":"02-2687-4535","addr":"경기도 광명시 철산동 123-2번지","indutype":"기타 - 기타 전문점","category":"other"}]},{"lat":"37.47478979","long":"126.8627904","imageIndex":17,"items":[{"name":"금송개발","tel":"02-111-1111","addr":"경기도 광명시 철산동 467-238번지 2층","indutype":"용역 서비스 - 기타용역서비스","category":"other"}]},{"lat":"37.47082056","long":"126.8663474","imageIndex":17,"items":[{"name":"기독교대한감리회온유교회","tel":"02-2682-9842","addr":"경기도 광명시 철산동 617번지 도덕파크타운가상가 지층 102호","indutype":"기타 - 비영리/비대상","category":"other"},{"name":"주방규칙","tel":"070-7591-0329","addr":"경기도 광명시 철산동 617번지","indutype":"주방용구 - 주방용식기","category":"other"},{"name":"채움인테리어","tel":"02-2682-0433","addr":"경기도 광명시 철산동 617번지 도덕파크타운가 상가 104호","indutype":"건축자재 - 인테리어전문","category":"other"},{"name":"철산사진관","tel":"02-1111-1111","addr":"경기도 광명시 철산동 617번지 도덕파크타운 3층 301호","indutype":"광학제품 - 사진관","category":"other"},{"name":"코지인테리어","tel":"02-809-5574","addr":"경기도 광명시 철산동 617번지 도덕파크 상가 103호","indutype":"건축자재 - 인테리어전문","category":"other"},{"name":"한빛컴닥터","tel":"02-2615-9117","addr":"경기도 광명시 철산동 617번지 도덕파크 상가 206호","indutype":"사무통신 - 컴퓨터","category":"other"},{"name":"한화토탈인테리어","tel":"02-2684-6771","addr":"경기도 광명시 철산동 617번지 도덕파크가 상가 204호","indutype":"건축자재 - 인테리어전문","category":"other"},{"name":"힐링체형","tel":"02-2686-2088","addr":"경기도 광명시 철산동 617번지 도덕파크타운 상가 102호","indutype":"회원제형태 - 레져업소","category":"other"}]},{"lat":"37.47050551","long":"126.8746567","imageIndex":17,"items":[{"name":"기술과감성","tel":"070-4000-9708","addr":"경기도 광명시 철산동 634번지 철산래미안자이","indutype":"회원제형태 - 서적","category":"other"}]},{"lat":"37.47637217","long":"126.8676261","imageIndex":17,"items":[{"name":"김종수세무회계사무소","tel":"02-685-1415","addr":"경기도 광명시 철산동 245-9번지 웅진빌딩 310호","indutype":"용역 서비스 - 법률회계서비스(개인)","category":"other"},{"name":"라파사우나탕피부관리실","tel":"02-2616-3969","addr":"경기도 광명시 철산동 245-9번지","indutype":"회원제형태 - 기타4","category":"other"},{"name":"최병섭법무사","tel":"02-2616-2000","addr":"경기도 광명시 철산동 245-9번지 웅진빌딩 402호","indutype":"용역 서비스 - 법률회계서비스(개인)","category":"other"},{"name":"포토글로리","tel":"02-683-0033","addr":"경기도 광명시 철산동 245-9번지","indutype":"광학제품 - 사진관","category":"other"}]},{"lat":"37.48640432","long":"126.8633793","imageIndex":17,"items":[{"name":"꽃강아지","tel":"070-4084-0624","addr":"경기도 광명시 철산동 72-3번지","indutype":"문화.취미 - 애완동물","category":"other"},{"name":"삼성열쇠","tel":"02-3666-1313","addr":"경기도 광명시 철산동 72-3번지","indutype":"건축자재 - 목재·석재·철물","category":"other"}]},{"lat":"37.47443492","long":"126.8675392","imageIndex":17,"items":[{"name":"꽃이예쁜집","tel":"02-2685-4700","addr":"경기도 광명시 철산동 415번지 철화빌딩 1층 1-1","indutype":"문화.취미 - 화원","category":"other"},{"name":"꽃이예쁜집","tel":"02-2685-4700","addr":"경기도 광명시 철산동 415철화빌딩1층1-1","indutype":"문화.취미 - 화원","category":"other"}]},{"lat":"37.47842986","long":"126.8706523","imageIndex":17,"items":[{"name":"꽃처럼","tel":"02-2685-5633","addr":"경기도 광명시 철산동 241번지 철산13단지주공아파트","indutype":"회원제형태 - 기타4","category":"other"}]},{"lat":"37.47090048","long":"126.8653412","imageIndex":17,"items":[{"name":"꾸꾸블럭","tel":"","addr":"경기도 광명시 철산동 625-2번지 광명힐타운 205호","indutype":"서적문구 - 완구점","category":"other"},{"name":"동네명품세탁소","tel":"02-2614-2822","addr":"경기도 광명시 철산동 625-2번지 힐타운 상가 B10호","indutype":"수리서비스 - 세탁소","category":"other"},{"name":"쎄미 2 (ssemi 2)","tel":"","addr":"경기도 광명시 철산동 625-2번지 광명힐타운 108호","indutype":"의류 - 정장","category":"other"},{"name":"트윙클","tel":"02-2613-3190","addr":"경기도 광명시 철산동 625-2번지 B-10호","indutype":"서적문구 - 문구용품","category":"other"}]},{"lat":"37.48001194","long":"126.8674047","imageIndex":17,"items":[{"name":"꿈나라","tel":"02-2616-4948","addr":"경기도 광명시 철산동 233번지","indutype":"의류 - 정장","category":"other"}]},{"lat":"37.48476749","long":"126.8659263","imageIndex":17,"items":[{"name":"나무모바일","tel":"","addr":"경기도 광명시 철산동 143-1번지","indutype":"사무통신 - 통신기기","category":"other"},{"name":"반디인테리어","tel":"02-681-5458","addr":"경기도 광명시 철산동 143-1번지","indutype":"건축자재 - 인테리어전문","category":"other"}]},{"lat":"37.48140543","long":"126.8647679","imageIndex":17,"items":[{"name":"나무와 생활","tel":"02-2616-1033","addr":"경기도 광명시 철산동 161-4번지 지층","indutype":"가구 - 일반가구","category":"other"}]},{"lat":"37.48457205","long":"126.8683462","imageIndex":17,"items":[{"name":"낙원종합물산","tel":"02-1111-1111","addr":"경기도 광명시 철산동 105-2번지 401호","indutype":"서적문구 - 출판 및 인쇄물","category":"other"}]},{"lat":"37.47450916","long":"126.8616831","imageIndex":17,"items":[{"name":"네비스토리","tel":"02-842-2065","addr":"경기도 광명시 철산동 467-225 산장연립 나-101 7/2","indutype":"회원제형태 - 기타3","category":"other"}]},{"lat":"37.47676107","long":"126.8689255","imageIndex":17,"items":[{"name":"네이트","tel":"02-2618-8982","addr":"경기도 광명시 철산동 245-4번지 명동빌딩 1층 106-1호","indutype":"사무통신 - 통신기기","category":"other"},{"name":"포토갤러리","tel":"02-2614-3355","addr":"경기도 광명시 철산동 245-4번지 명동프라자빌딩 103호","indutype":"광학제품 - 사진관","category":"other"}]},{"lat":"37.47138181","long":"126.8686525","imageIndex":17,"items":[{"name":"네임리스워커(Nameless Worker)","tel":"070-8031-4038","addr":"경기도 광명시 철산동 637번지 철산푸르지오하늘채 110동 2201호","indutype":"신변잡화 - 액세서리","category":"other"}]},{"lat":"37.48240027","long":"126.8680109","imageIndex":17,"items":[{"name":"농심가","tel":"02-2619-9756","addr":"경기도 광명시 철산동 235-3번지 철산8단지 상가 102호","indutype":"신변잡화 - 기타잡화","category":"other"}]},{"lat":"37.47617791","long":"126.8632853","imageIndex":17,"items":[{"name":"다니엘코리아","tel":"02-2066-1192","addr":"경기도 광명시 철산동 466-2번지 103호","indutype":"신변잡화 - 기타잡화","category":"other"}]},{"lat":"37.47063889","long":"126.8650816","imageIndex":17,"items":[{"name":"다림","tel":"02-2688-2300","addr":"경기도 광명시 철산동 625번지 도덕파크타운 204동 308호","indutype":"회원제형태 - 기타4","category":"other"}]},{"lat":"37.47521272","long":"126.8701266","imageIndex":17,"items":[{"name":"다빈탁구장","tel":"02-898-9779","addr":"경기도 광명시 철산동 439번지 4층","indutype":"레져용품 - 스포츠·레져용품","category":"other"}]},{"lat":"37.48234537","long":"126.8672761","imageIndex":17,"items":[{"name":"다손나무","tel":"","addr":"경기도 광명시 철산동 235번지 철산8단지주공아파트","indutype":"문화.취미 - 문화취미기타","category":"other"}]},{"lat":"37.48068302","long":"126.8634012","imageIndex":17,"items":[{"name":"다크린세탁소","tel":"02-2688-6030","addr":"경기도 광명시 철산동 206-1번지 1층 1호","indutype":"수리서비스 - 세탁소","category":"other"},{"name":"화인기획","tel":"050-5557-1384","addr":"경기도 광명시 철산동 206-1번지 104호","indutype":"서적문구 - 출판 및 인쇄물","category":"other"}]},{"lat":"37.4721117","long":"126.868719","imageIndex":17,"items":[{"name":"담다-DamDa","tel":"02-898-8030","addr":"경기도 광명시 철산동 637번지 철산푸르지오하늘채 종합상가동 지1층 B135호","indutype":"문화.취미 - 문화취미기타","category":"other"},{"name":"도그에몽","tel":"","addr":"경기도 광명시 철산동 637번지 지1층 B134호","indutype":"문화.취미 - 애완동물","category":"other"},{"name":"렘브란트의풍차광명센터","tel":"02-2631-1231","addr":"경기도 광명시 철산동 637 종합상가226호~229호","indutype":"용역 서비스 - 사무서비스","category":"other"},{"name":"릴리","tel":"02-2612-0117","addr":"경기도 광명시 철산동 637번지 종합 상가동 B145호","indutype":"의류 - 정장","category":"other"},{"name":"뷰띠끄베죠르","tel":"02-2611-5989","addr":"경기도 광명시 철산동 637번지 철산푸르지오하늘채 제종합상가동 지1층 비115호","indutype":"의류 - 정장","category":"other"},{"name":"쁠리에","tel":"","addr":"경기도 광명시 철산동 637번지 종합상가동 G동 1층 비130호","indutype":"의류 - 정장","category":"other"},{"name":"신광명열쇠","tel":"02-2060-1304","addr":"경기도 광명시 철산동 637","indutype":"수리서비스 - 기타수리서비스","category":"other"},{"name":"쎄미","tel":"031-266-0712","addr":"경기도 광명시 철산동 637번지 지1층B112호 철산푸르지오하늘체","indutype":"의류 - 정장","category":"other"},{"name":"씨유광명온동네점","tel":"02-2066-9090","addr":"경기도 광명시 철산동 637 푸르지오하늘채근린상가 109","indutype":"유통업 영리 - 편 의 점","category":"other"},{"name":"에이치디 컴퍼니","tel":"02-2687-8848","addr":"경기도 광명시 철산동 637번지 종합상가동 제지1층 제비 139호","indutype":"건축자재 - 인테리어전문","category":"other"},{"name":"옷이 다시 태어나는 집","tel":"031-000-0000","addr":"경기도 광명시 철산동 637번지 푸르지오하늘채종합상가 지-층 B114호","indutype":"수리서비스 - 세탁소","category":"other"},{"name":"초블 (CHOBLE) 청순해비누","tel":"070-8806-1465","addr":"경기도 광명시 철산동 637번지 종합 상가동 지하1층 B117호","indutype":"문화.취미 - 문화취미기타","category":"other"},{"name":"크린토피아","tel":"02-2687-6677","addr":"경기도 광명시 철산동 637번지 종합 상가동 지1층B122호","indutype":"수리서비스 - 세탁소","category":"other"},{"name":"플로리스트 다솜","tel":"","addr":"경기도 광명시 철산동 637번지 철산푸르지오하늘채 2층 235호","indutype":"문화.취미 - 문화취미기타","category":"other"}]},{"lat":"37.48946087","long":"126.8652393","imageIndex":17,"items":[{"name":"대구지물인테리크럽","tel":"02-2612-6248","addr":"경기도 광명시 철산동 56-14번지","indutype":"직물 - 카페트,커튼,천막,지물","category":"other"},{"name":"로즈클로젯","tel":"","addr":"경기도 광명시 철산동 56-14번지 1층 계단옆","indutype":"의류 - 정장","category":"other"}]},{"lat":"37.47532252","long":"126.8637617","imageIndex":17,"items":[{"name":"대로종합상사","tel":"02-2617-6030","addr":"경기도 광명시 철산동 466-10번지 2층 2호","indutype":"의류 - 정장","category":"other"}]},{"lat":"37.47506767","long":"126.8615916","imageIndex":17,"items":[{"name":"대박과일","tel":"02-809-8119","addr":"경기도 광명시 철산동 467-94번지 별장연립 4동 202호","indutype":"회원제형태 - 기타1","category":"other"}]},{"lat":"37.47049378","long":"126.864268","imageIndex":17,"items":[{"name":"대영공조,에어컨119","tel":"02-2681-8005","addr":"경기도 광명시 철산동 625번지 도덕파크타운 102동 1602호","indutype":"용역 서비스 - 기타용역서비스","category":"other"}]},{"lat":"37.47905105","long":"126.8702103","imageIndex":17,"items":[{"name":"더 시호(the siho)","tel":"","addr":"경기도 광명시 철산동 241번지 철산13단지주공아파트","indutype":"용역 서비스 - 사무서비스","category":"other"}]},{"lat":"37.48495554","long":"126.864931","imageIndex":17,"items":[{"name":"더마더메이드","tel":"070-2699-0807","addr":"경기도 광명시 철산동 149-2번지 2층 202호","indutype":"직물 - 침구·수예점","category":"other"}]},{"lat":"37.47615062","long":"126.8630705","imageIndex":17,"items":[{"name":"더미니어쳐에듀","tel":"02-898-6818","addr":"경기도 광명시 철산동 466-20번지 102호","indutype":"신변잡화 - 기타잡화","category":"other"},{"name":"신용사부동산중개인","tel":"02-2613-0037","addr":"경기도 광명시 철산동 466-20 1층","indutype":"용역 서비스 - 부동산 중개·임대","category":"other"},{"name":"제일사","tel":"031-446-3336","addr":"경기도 광명시 철산동 466-20번지","indutype":"의류 - 단체복","category":"other"}]},{"lat":"37.47655593","long":"126.8707799","imageIndex":17,"items":[{"name":"더플라워바라","tel":"","addr":"경기도 광명시 철산동 449번지 철산12단지주공아파트","indutype":"문화.취미 - 화원","category":"other"}]},{"lat":"37.47332233","long":"126.8716561","imageIndex":17,"items":[{"name":"데이앤데이 광명성애병원점","tel":"02-844-4441","addr":"경기도 광명시 철산동 389번지 광명성애병원 별관B동 1층","indutype":"유통업 영리 - 편 의 점","category":"other"}]},{"lat":"37.48047761","long":"126.8649505","imageIndex":17,"items":[{"name":"도서출판 어떤책","tel":"02-897-1395","addr":"경기도 광명시 철산동 233번지","indutype":"서적문구 - 출판 및 인쇄물","category":"other"},{"name":"정주","tel":"02-000-0000","addr":"경기도 광명시 철산동 233번지","indutype":"신변잡화 - 액세서리","category":"other"}]},{"lat":"37.47676237","long":"126.8622893","imageIndex":17,"items":[{"name":"도서출판광명인쇄","tel":"031-2619-3544","addr":"경기도 광명시 철산동 464-5번지","indutype":"서적문구 - 출판 및 인쇄물","category":"other"}]},{"lat":"37.48148337","long":"126.8620996","imageIndex":17,"items":[{"name":"도움 씨앤에이","tel":"","addr":"경기도 광명시 철산동 202-1번지 B04호","indutype":"주방용구 - 주방용구","category":"other"}]},{"lat":"37.48668302","long":"126.86287","imageIndex":17,"items":[{"name":"도토리무역","tel":"02-2060-4637","addr":"경기도 광명시 철산동 56-149번지 오성하이츠 B02호","indutype":"의류 - 아동의류","category":"other"}]},{"lat":"37.47027052","long":"126.8739901","imageIndex":17,"items":[{"name":"동서정보통신","tel":"02-2611-6675","addr":"경기도 광명시 철산동 634번지 철산래미안자이","indutype":"사무통신 - 통신기기","category":"other"}]},{"lat":"37.48864841","long":"126.8639066","imageIndex":17,"items":[{"name":"동아종합공사","tel":"031-683-4696","addr":"경기도 광명시 철산동 56-204번지","indutype":"건축자재 - 유리","category":"other"},{"name":"투게더","tel":"02-2687-6105","addr":"경기도 광명시 철산동 56-204번지","indutype":"의류 - 정장","category":"other"}]},{"lat":"37.47523868","long":"126.8691769","imageIndex":17,"items":[{"name":"동원서점","tel":"02-2625-9686","addr":"경기도 광명시 철산동 399번지 신명빌딩 102호","indutype":"서적문구 - 일반서적","category":"other"},{"name":"백송이 전문점(광명점)","tel":"02-2066-5553","addr":"경기도 광명시 철산동 399번지 신명빌딩 104호","indutype":"문화.취미 - 화원","category":"other"}]},{"lat":"37.48504285","long":"126.8703693","imageIndex":17,"items":[{"name":"동혜 에어컨","tel":"070-7607-8717","addr":"경기도 광명시 철산동 105번지 철산11단지주공아파트","indutype":"용역 서비스 - 기타용역서비스","category":"other"}]},{"lat":"37.48664853","long":"126.8641816","imageIndex":17,"items":[{"name":"두리앤창작","tel":"02-2615-5341","addr":"경기도 광명시 철산동 56-263번지 1층","indutype":"서적문구 - 문구용품","category":"other"}]},{"lat":"37.4893435","long":"126.865036","imageIndex":17,"items":[{"name":"두산문구","tel":"02-2066-6609","addr":"경기도 광명시 철산동 56-15번지","indutype":"서적문구 - 문구용품","category":"other"},{"name":"신진사","tel":"02-2682-8127","addr":"경기도 광명시 철산동 56-15번지","indutype":"수리서비스 - 세탁소","category":"other"}]},{"lat":"37.47414497","long":"126.8661153","imageIndex":17,"items":[{"name":"두원유통","tel":"070-4799-0252","addr":"경기도 광명시 철산동 496-4번지 광덕아트빌 B동 201호","indutype":"회원제형태 - 기타4","category":"other"}]},{"lat":"37.48745997","long":"126.8646437","imageIndex":17,"items":[{"name":"또띵이네","tel":"","addr":"경기도 광명시 철산동 56-70번지 영진빌라 나동 101호","indutype":"가구 - 기타가구","category":"other"}]},{"lat":"37.4855148","long":"126.865484","imageIndex":17,"items":[{"name":"라렌바이연","tel":"03-111-1111","addr":"경기도 광명시 철산동 139-2번지","indutype":"문화.취미 - 화원","category":"other"}]},{"lat":"37.48615249","long":"126.8637642","imageIndex":17,"items":[{"name":"랩시스","tel":"02-2619-1412","addr":"경기도 광명시 철산동 70-12번지 B01호","indutype":"가구 - 기타가구","category":"other"}]},{"lat":"37.47632138","long":"126.8627084","imageIndex":17,"items":[{"name":"러브러브","tel":"02-2684-3619","addr":"경기도 광명시 철산동 464-26번지","indutype":"직물 - 침구·수예점","category":"other"}]},{"lat":"37.48374394","long":"126.86906","imageIndex":17,"items":[{"name":"럭스(LUX)","tel":"","addr":"경기도 광명시 철산동 235번지 철산8단지주공아파트","indutype":"의류 - 정장","category":"other"}]},{"lat":"37.48967755","long":"126.8656233","imageIndex":17,"items":[{"name":"루카스 스터디 카페","tel":"","addr":"경기도 광명시 철산동 56-11번지 3층","indutype":"용역 서비스 - 사무서비스","category":"other"}]},{"lat":"37.47718439","long":"126.8687891","imageIndex":17,"items":[{"name":"르하임스터디카페 철산점","tel":"","addr":"경기도 광명시 철산동 245-2번지 동화빌딩 지층","indutype":"용역 서비스 - 사무서비스","category":"other"},{"name":"르하임스터디카페 철산점","tel":"032-000-0000","addr":"경기도 광명시 철산동 245-2번지 동화빌딩 지층","indutype":"용역 서비스 - 사무서비스","category":"other"}]},{"lat":"37.48456914","long":"126.8658136","imageIndex":17,"items":[{"name":"멈스서울서부총판","tel":"","addr":"경기도 광명시 철산동 144번지 4층 2호","indutype":"주방용구 - 주방용구","category":"other"}]},{"lat":"37.47545814","long":"126.8641571","imageIndex":17,"items":[{"name":"모던트랜드","tel":"02-457-3990","addr":"경기도 광명시 철산동 473-3번지 103호","indutype":"의류 - 정장","category":"other"}]},{"lat":"37.48841037","long":"126.8684185","imageIndex":17,"items":[{"name":"모아시큐리티","tel":"02-1899-9625","addr":"경기도 광명시 철산동 58번지 우성아파트 102동 106호","indutype":"용역 서비스 - 종합용역","category":"other"}]},{"lat":"37.4791235","long":"126.870538","imageIndex":17,"items":[{"name":"모정","tel":"02-2615-1031","addr":"경기도 광명시 철산동 241번지 주공마 상가 121호","indutype":"의류 - 정장","category":"other"}]},{"lat":"37.47479548","long":"126.8676742","imageIndex":17,"items":[{"name":"못된고양이(주식회사 드림즈팩토리 철산점)","tel":"070-4296-5548","addr":"경기도 광명시 철산동 411번지 금봉빌딩 103호","indutype":"신변잡화 - 액세서리","category":"other"},{"name":"삼일육(316)","tel":"02-2066-0316","addr":"경기도 광명시 철산동 411번지 금봉빌딩 102호","indutype":"신변잡화 - 액세서리","category":"other"},{"name":"홈스타","tel":"02-2060-5879","addr":"경기도 광명시 철산동 411번지 금봉빌딩 5층 501호","indutype":"주방용구 - 주방용구","category":"other"}]},{"lat":"37.47406915","long":"126.8629274","imageIndex":17,"items":[{"name":"미디어스","tel":"02-583-1471","addr":"경기도 광명시 철산동 472-86번지","indutype":"광학제품 - 사진관","category":"other"}]},{"lat":"37.47662756","long":"126.8625722","imageIndex":17,"items":[{"name":"미스터플라워","tel":"02-2619-5003","addr":"경기도 광명시 철산동 464-7번지","indutype":"문화.취미 - 화원","category":"other"},{"name":"이앤윤세무회계컨설팅","tel":"02-2614-0913","addr":"경기도 광명시 철산동 464-7번지 이도빌딩 2층","indutype":"용역 서비스 - 법률회계서비스(개인)","category":"other"}]},{"lat":"37.47445806","long":"126.8641815","imageIndex":17,"items":[{"name":"민규네고가구","tel":"02-2612-2128","addr":"경기도 광명시 철산동 472-57번지 2층","indutype":"가구 - 일반가구","category":"other"},{"name":"철산가구","tel":"031-2612-2128","addr":"경기도 광명시 철산동 472-57번지","indutype":"가구 - 일반가구","category":"other"}]},{"lat":"37.48227606","long":"126.8697184","imageIndex":17,"items":[{"name":"민효상사","tel":"031-582-3400","addr":"경기도 광명시 철산동 235번지 철산8단지주공아파트","indutype":"회원제형태 - 기타1","category":"other"}]},{"lat":"37.47346124","long":"126.8670096","imageIndex":17,"items":[{"name":"믿음사","tel":"02-2683-1304","addr":"경기도 광명시 철산동 519-17번지 정양빌딩 B1층","indutype":"건축자재 - 목재·석재·철물","category":"other"},{"name":"아름다운사진","tel":"02-2616-3939","addr":"경기도 광명시 철산동 519-17번지","indutype":"광학제품 - 사진관","category":"other"}]},{"lat":"37.48807105","long":"126.8632857","imageIndex":17,"items":[{"name":"바닐라","tel":"02-2682-5566","addr":"경기도 광명시 철산동 56-109번지 1층","indutype":"의류 - 정장","category":"other"}]},{"lat":"37.47757417","long":"126.8630452","imageIndex":17,"items":[{"name":"바이온텍","tel":"02-3666-0095","addr":"경기도 광명시 철산동 219-1번지 오피스텔 806호","indutype":"기타의료기관 - 기타의료기관 및 기타","category":"other"},{"name":"법무사 김태민사무소","tel":"02-2614-9911","addr":"경기도 광명시 철산동 219-1번지 506호","indutype":"용역 서비스 - 법률회계서비스(개인)","category":"other"},{"name":"법무사김원선사무소","tel":"02-2613-0300","addr":"경기도 광명시 철산동 219-1 에이스텔 505호~506호","indutype":"용역 서비스 - 법률회계서비스(개인)","category":"other"},{"name":"샵인테리어","tel":"02-2615-9245","addr":"경기도 광명시 철산동 219-1번지","indutype":"건축자재 - 인테리어전문","category":"other"},{"name":"성혜세무회계사무소","tel":"02-2066-1251","addr":"경기도 광명시 철산동 219-1번지 홍신에이스텔 707호","indutype":"용역 서비스 - 법률회계서비스(개인)","category":"other"},{"name":"주식회사 엠에스이","tel":"031-715-1604","addr":"경기도 광명시 철산동 219-1번지 에이스텔 4층","indutype":"회원제형태 - 서적","category":"other"}]},{"lat":"37.47196405","long":"126.8736707","imageIndex":17,"items":[{"name":"바인교육","tel":"","addr":"경기도 광명시 철산동 634번지 철산래미안자이","indutype":"서적문구 - 기타서적문구","category":"other"}]},{"lat":"37.47618235","long":"126.8670951","imageIndex":17,"items":[{"name":"박준서세무회계사무소","tel":"02-2611-2585","addr":"경기도 광명시 철산동 249번지 신안빌딩 501호","indutype":"용역 서비스 - 법률회계서비스(개인)","category":"other"},{"name":"장영기법률사무소","tel":"02-2687-7200","addr":"경기도 광명시 철산동 249번지 신안빌딩 9층 1호","indutype":"용역 서비스 - 법률회계서비스(개인)","category":"other"}]},{"lat":"37.47203945","long":"126.8767454","imageIndex":17,"items":[{"name":"반딧불","tel":"","addr":"경기도 광명시 철산동 367번지 철산한신아파트","indutype":"주방용구 - 정수기","category":"other"}]},{"lat":"37.48068374","long":"126.8640118","imageIndex":17,"items":[{"name":"반지하40","tel":"","addr":"경기도 광명시 철산동 163-5번지 지하 5호","indutype":"신변잡화 - 기타잡화","category":"other"}]},{"lat":"37.48301341","long":"126.8684169","imageIndex":17,"items":[{"name":"밤열한시","tel":"031-000-0000","addr":"경기도 광명시 철산동 235번지 철산8단지주공아파트","indutype":"신변잡화 - 기타잡화","category":"other"}]},{"lat":"37.48628757","long":"126.8637074","imageIndex":17,"items":[{"name":"백송 Flower","tel":"02-2681-7482","addr":"경기도 광명시 철산동 70-10번지 1층 101호","indutype":"문화.취미 - 화원","category":"other"}]},{"lat":"37.48229636","long":"126.8638731","imageIndex":17,"items":[{"name":"백양사","tel":"02-2688-4768","addr":"경기도 광명시 철산동 190-3번지","indutype":"수리서비스 - 세탁소","category":"other"}]},{"lat":"37.47657366","long":"126.8627079","imageIndex":17,"items":[{"name":"법무사김수영사무소","tel":"02-2611-8700","addr":"경기도 광명시 철산동 464-8번지 1층","indutype":"용역 서비스 - 법률회계서비스(개인)","category":"other"},{"name":"씨유광명시민점","tel":"031-2615-7170","addr":"경기도 광명시 철산동 464-8번지","indutype":"유통업 영리 - 편 의 점","category":"other"},{"name":"준학생복","tel":"02-2617-7676","addr":"경기도 광명시 철산동 464-8번지","indutype":"의류 - 단체복","category":"other"},{"name":"행복한세상광명점","tel":"02-2685-3458","addr":"경기도 광명시 철산동 464-8번지","indutype":"의류 - 맞춤복점","category":"other"}]},{"lat":"37.47635251","long":"126.8662017","imageIndex":17,"items":[{"name":"법무사이기덕사무소","tel":"02-2689-4646","addr":"경기도 광명시 철산동 257번지 성림빌딩 201호","indutype":"용역 서비스 - 법률회계서비스(개인)","category":"other"},{"name":"제이앤제이서적","tel":"02-2066-2200","addr":"경기도 광명시 철산동 257번지 성림빌딩 203-1호","indutype":"서적문구 - 일반서적","category":"other"},{"name":"주식회사광명지역신문","tel":"02-2611-7961","addr":"경기도 광명시 철산동 257번지 성림빌딩 502호","indutype":"서적문구 - 출판 및 인쇄물","category":"other"},{"name":"캥거루바디스쿨","tel":"02-2060-6606","addr":"경기도 광명시 철산동 257번지 성림빌딩 302호","indutype":"회원제형태 - 레져업소","category":"other"},{"name":"토즈 멤버십라운지 철산센터","tel":"02-2611-6892","addr":"경기도 광명시 철산동 257번지 성림빌딩 7층","indutype":"용역 서비스 - 사무서비스","category":"other"}]},{"lat":"37.49093075","long":"126.8663221","imageIndex":17,"items":[{"name":"벨라(bella)","tel":"","addr":"경기도 광명시 철산동 55-1번지 광복현대아파트","indutype":"의류 - 내의판매","category":"other"}]},{"lat":"37.48051226","long":"126.8637633","imageIndex":17,"items":[{"name":"별당인테리어","tel":"02-2689-8244","addr":"경기도 광명시 철산동 208-3번지 1층","indutype":"직물 - 카페트,커튼,천막,지물","category":"other"}]},{"lat":"37.4717395","long":"126.8743154","imageIndex":17,"items":[{"name":"북스토어","tel":"02-897-5430","addr":"경기도 광명시 철산동 634번지 철산래미안자이 상가 310호","indutype":"서적문구 - 일반서적","category":"other"},{"name":"삼성인테리어","tel":"02-2686-7006","addr":"경기도 광명시 철산동 634번지 철산래미안자이 2층 205호","indutype":"건축자재 - 인테리어전문","category":"other"},{"name":"솔향기 세탁소","tel":"02-2611-7736","addr":"경기도 광명시 철산동 634번지 철산래미안자이 상가동 103호","indutype":"수리서비스 - 세탁소","category":"other"},{"name":"어썸제이플라워","tel":"031-000-0000","addr":"경기도 광명시 철산동 634번지 철산래미안자이 1층 112-2호","indutype":"문화.취미 - 화원","category":"other"},{"name":"피부미인","tel":"02-2682-4199","addr":"경기도 광명시 철산동 634번지 철산래미안자이","indutype":"회원제형태 - 기타4","category":"other"}]},{"lat":"37.49098499","long":"126.8664803","imageIndex":17,"items":[{"name":"블럭쟁이","tel":"02-2687-2577","addr":"경기도 광명시 철산동 55-1번지 광복현대상가 102호","indutype":"서적문구 - 완구점","category":"other"}]},{"lat":"37.4773445","long":"126.8669799","imageIndex":17,"items":[{"name":"비스켓","tel":"02-893-9438","addr":"경기도 광명시 철산동 253번지 미성오피스텔1차 102호","indutype":"의류 - 정장","category":"other"},{"name":"일신컴","tel":"02-2613-1308","addr":"경기도 광명시 철산동 253번지 미성오피스텔1차 703호","indutype":"사무통신 - 컴퓨터","category":"other"}]},{"lat":"37.4741804","long":"126.8655952","imageIndex":17,"items":[{"name":"비쥬","tel":"02-2060-3816","addr":"경기도 광명시 철산동 493-5번지 가동 1층","indutype":"의류 - 정장","category":"other"}]},{"lat":"37.49125577","long":"126.8668982","imageIndex":17,"items":[{"name":"빠삐몽몽","tel":"","addr":"경기도 광명시 철산동 55-1번지 광복현대아파트","indutype":"문화.취미 - 애완동물","category":"other"}]},{"lat":"37.47371104","long":"126.8648725","imageIndex":17,"items":[{"name":"사운드 박스 스튜디오","tel":"070-4064-9902","addr":"경기도 광명시 철산동 491번지 지하","indutype":"용역 서비스 - 종합용역","category":"other"}]},{"lat":"37.4812341","long":"126.8646552","imageIndex":17,"items":[{"name":"삼성전자","tel":"02-689-5238","addr":"경기도 광명시 철산동 162번지","indutype":"전기제품 - 가전제품","category":"other"},{"name":"성보당","tel":"02-2615-5694","addr":"경기도 광명시 철산동 162번지","indutype":"신변잡화 - 시계","category":"other"}]},{"lat":"37.486706","long":"126.8671213","imageIndex":17,"items":[{"name":"삼천리자전거","tel":"02-2615-3023","addr":"경기도 광명시 철산동 89번지","indutype":"레져용품 - 스포츠·레져용품","category":"other"},{"name":"플라워비나","tel":"","addr":"경기도 광명시 철산동 89번지","indutype":"문화.취미 - 화원","category":"other"}]},{"lat":"37.48256724","long":"126.8643701","imageIndex":17,"items":[{"name":"삼희기획","tel":"070-8632-6577","addr":"경기도 광명시 철산동 180번지","indutype":"용역 서비스 - 종합용역","category":"other"}]},{"lat":"37.46913465","long":"126.8654461","imageIndex":17,"items":[{"name":"상일큐리어스","tel":"031-923-2002","addr":"경기도 광명시 철산동 625번지 도덕파크타운 105동 1502호","indutype":"회원제형태 - 기타4","category":"other"}]},{"lat":"37.48229482","long":"126.8625729","imageIndex":17,"items":[{"name":"새턴바이오텍","tel":"02-2681-7766","addr":"경기도 광명시 철산동 198-2번지","indutype":"농업 - 비료,사료,종자","category":"other"}]},{"lat":"37.48879276","long":"126.8640646","imageIndex":17,"items":[{"name":"생활용품백화점","tel":"02-2614-4859","addr":"경기도 광명시 철산동 56-22번지","indutype":"서적문구 - 문구용품","category":"other"}]},{"lat":"37.48757309","long":"126.8689854","imageIndex":17,"items":[{"name":"샤인줄눈","tel":"","addr":"경기도 광명시 철산동 62번지 202호","indutype":"용역 서비스 - 기타용역서비스","category":"other"}]},{"lat":"37.47649002","long":"126.868259","imageIndex":17,"items":[{"name":"서광문고","tel":"02-2688-4711","addr":"경기도 광명시 철산동 245-7번지 광명빌딩 지층 1호","indutype":"서적문구 - 일반서적","category":"other"},{"name":"스카이정보통신","tel":"02-2618-0654","addr":"경기도 광명시 철산동 245-7번지 광명빌딩","indutype":"사무통신 - 통신기기","category":"other"},{"name":"신세계문고","tel":"02-2684-2773","addr":"경기도 광명시 철산동 245-7번지 광명빌딩 지층 1호","indutype":"서적문구 - 문구용품","category":"other"}]},{"lat":"37.47279343","long":"126.8740988","imageIndex":17,"items":[{"name":"선진유압","tel":"02-837-9289","addr":"경기도 광명시 철산동 634번지 철산래미안자이","indutype":"회원제형태 - 기타4","category":"other"},{"name":"씨트로이스","tel":"02-6084-8004","addr":"경기도 광명시 철산동 634번지 철산래미안자이","indutype":"서적문구 - 기타서적문구","category":"other"},{"name":"캔들브런치 candlebrunch","tel":"","addr":"경기도 광명시 철산동 634번지 철산래미안자이","indutype":"문화.취미 - 문화취미기타","category":"other"}]},{"lat":"37.47424172","long":"126.8640915","imageIndex":17,"items":[{"name":"성신종합인테리어","tel":"02-2619-3456","addr":"경기도 광명시 철산동 472-73","indutype":"건축자재 - 보일러·펌프·샷시","category":"other"},{"name":"진명","tel":"","addr":"경기도 광명시 철산동 472-73번지 1층","indutype":"건축자재 - 인테리어전문","category":"other"}]},{"lat":"37.48024316","long":"126.8647814","imageIndex":17,"items":[{"name":"성실종합설비공사","tel":"02-2617-6930","addr":"경기도 광명시 철산동 233번지","indutype":"용역 서비스 - 기타용역서비스","category":"other"}]},{"lat":"37.4747913","long":"126.8640679","imageIndex":17,"items":[{"name":"성주개발","tel":"02-2684-8988","addr":"경기도 광명시 철산동 472-101번지","indutype":"건축자재 - 인테리어전문","category":"other"},{"name":"킹스펫","tel":"02-2611-9595","addr":"경기도 광명시 철산동 472-101번지 1층","indutype":"문화.취미 - 애완동물","category":"other"}]},{"lat":"37.47629456","long":"126.862878","imageIndex":17,"items":[{"name":"세계불교평화종","tel":"055-335-0314","addr":"경기도 광명시 철산동 464-11번지","indutype":"회원제형태 - 기타4","category":"other"}]},{"lat":"37.47590702","long":"126.8627883","imageIndex":17,"items":[{"name":"세미통상","tel":"02-2618-0389","addr":"경기도 광명시 철산동 467-19번지 지하층","indutype":"건축자재 - 기타건축자재","category":"other"},{"name":"씨씨캅통신","tel":"070-4191-8115","addr":"경기도 광명시 철산동 467-19번지 1층 103호","indutype":"사무통신 - 통신기기","category":"other"},{"name":"중앙전기.철물.지물","tel":"02-2681-1837","addr":"경기도 광명시 철산동 467-19번지","indutype":"기타 - 기계공구","category":"other"}]},{"lat":"37.47363022","long":"126.8650988","imageIndex":17,"items":[{"name":"세븐일레븐철산푸르지오점","tel":"031-1577-0711","addr":"경기도 광명시 철산동 491-3번지 1층 2호","indutype":"유통업 영리 - 편 의 점","category":"other"}]},{"lat":"37.48784636","long":"126.863761","imageIndex":17,"items":[{"name":"세살터울","tel":"02-2066-0997","addr":"경기도 광명시 철산동 56-88에덴하이츠빌라102.8/4","indutype":"의류 - 아동의류","category":"other"}]},{"lat":"37.48429595","long":"126.8633493","imageIndex":17,"items":[{"name":"세진아쿠아","tel":"032-566-4717","addr":"경기도 광명시 철산동 77-70번지 101호","indutype":"수리서비스 - 가정용품수리","category":"other"}]},{"lat":"37.47446039","long":"126.8661825","imageIndex":17,"items":[{"name":"센스 타투","tel":"02-6105-0807","addr":"경기도 광명시 철산동 495-3번지 상지빌딩 4층","indutype":"문화.취미 - 화랑","category":"other"},{"name":"페이퍼 문화","tel":"02-2681-3282","addr":"경기도 광명시 철산동 495-3","indutype":"서적문구 - 출판 및 인쇄물","category":"other"}]},{"lat":"37.47255321","long":"126.8769254","imageIndex":17,"items":[{"name":"속옷천국","tel":"070-8283-9691","addr":"경기도 광명시 철산동 367번지 철산한신아파트","indutype":"의류 - 내의판매","category":"other"}]},{"lat":"37.47291778","long":"126.8645461","imageIndex":17,"items":[{"name":"수미공방","tel":"070-8831-3397","addr":"경기도 광명시 철산동 628번지 브라운스톤1차아파트","indutype":"문화.취미 - 문화취미기타","category":"other"}]},{"lat":"37.4728379","long":"126.8735674","imageIndex":17,"items":[{"name":"수산유압특장","tel":"031-403-9031","addr":"경기도 광명시 철산동 634번지 철산래미안자이","indutype":"기타 - 기계공구","category":"other"},{"name":"정박사하수구","tel":"","addr":"경기도 광명시 철산동 634번지 철산래미안자이","indutype":"용역 서비스 - 기타용역서비스","category":"other"}]},{"lat":"37.48556912","long":"126.86571","imageIndex":17,"items":[{"name":"스마일노래영상제작실","tel":"02-2060-3740","addr":"경기도 광명시 철산동 140-2번지 지하1층","indutype":"용역 서비스 - 종합용역","category":"other"},{"name":"지원글로발","tel":"02-2612-0493","addr":"경기도 광명시 철산동 140-2번지 1층","indutype":"레져용품 - 스포츠·레져용품","category":"other"}]},{"lat":"37.4754595","long":"126.8653215","imageIndex":17,"items":[{"name":"스쿨룩스철산점","tel":"02-2613-1318","addr":"경기도 광명시 철산동 579번지","indutype":"의류 - 단체복","category":"other"}]},{"lat":"37.47570626","long":"126.8683508","imageIndex":17,"items":[{"name":"스타일 핫요가 앤 필라테스","tel":"02-2612-5985","addr":"경기도 광명시 철산동 272번지 야우리빌딩 1201호","indutype":"회원제형태 - 레져업소","category":"other"},{"name":"씨유광명철산역점","tel":"02-2618-8266","addr":"경기도 광명시 철산동 272번지 야우리빌딩 103호","indutype":"유통업 영리 - 편 의 점","category":"other"},{"name":"옥션플라워","tel":"02-2683-8825","addr":"경기도 광명시 철산동 272번지 야우리빌딩 1층","indutype":"문화.취미 - 화원","category":"other"},{"name":"필","tel":"02-2681-0159","addr":"경기도 광명시 철산동 272번지 야우리빌딩 3층 302호","indutype":"회원제형태 - 기타4","category":"other"}]},{"lat":"37.4867393","long":"126.8647581","imageIndex":17,"items":[{"name":"승리","tel":"02-2684-8914","addr":"경기도 광명시 철산동 56-76번지","indutype":"유통업 영리 - 기타유통업","category":"other"}]},{"lat":"37.46948406","long":"126.8637612","imageIndex":17,"items":[{"name":"승진컴유지보수","tel":"070-8759-8255","addr":"경기도 광명시 철산동 622번지 제4가동1층 101호","indutype":"사무통신 - 컴퓨터","category":"other"},{"name":"씨유철산도덕파크점","tel":"032-662-3089","addr":"경기도 광명시 철산동 622번지 도덕파크타운 상가동 105, 106호","indutype":"유통업 영리 - 편 의 점","category":"other"}]},{"lat":"37.48645896","long":"126.8638767","imageIndex":17,"items":[{"name":"승희철물건재","tel":"02-2683-1914","addr":"경기도 광명시 철산동 572-10번지","indutype":"건축자재 - 목재·석재·철물","category":"other"}]},{"lat":"37.48665172","long":"126.8669292","imageIndex":17,"items":[{"name":"신도네트광명센타/특별할부","tel":"02-689-8710","addr":"경기도 광명시 철산동 90번지","indutype":"사무통신 - 통신기기(무이자할부)","category":"other"},{"name":"푸른기차","tel":"","addr":"경기도 광명시 철산동 90번지 1층","indutype":"문화.취미 - 문화취미기타","category":"other"}]},{"lat":"37.48781861","long":"126.8631505","imageIndex":17,"items":[{"name":"신세계노래","tel":"02-778-4169","addr":"경기도 광명시 철산동 56-174번지 2층","indutype":"용역 서비스 - 종합용역","category":"other"}]},{"lat":"37.48637816","long":"126.8641256","imageIndex":17,"items":[{"name":"신속열쇠","tel":"070-5654-1303","addr":"경기도 광명시 철산동 70-1번지 경일연립 나동 201호","indutype":"건축자재 - 목재·석재·철물","category":"other"}]},{"lat":"37.48762906","long":"126.8628682","imageIndex":17,"items":[{"name":"신영전기.조명","tel":"02-2685-6322","addr":"경기도 광명시 철산동 56-135번지","indutype":"건축자재 - 조명기구","category":"other"}]},{"lat":"37.47476137","long":"126.86937","imageIndex":17,"items":[{"name":"신화디자인","tel":"031-2066-0101","addr":"경기도 광명시 철산동 432번지 대연빌딩 3층","indutype":"레져용품 - 스포츠·레져용품","category":"other"}]},{"lat":"37.48220792","long":"126.8652865","imageIndex":17,"items":[{"name":"심스전자담배","tel":"","addr":"경기도 광명시 철산동 160-2번지 101호","indutype":"기타 - 기타 전문점","category":"other"}]},{"lat":"37.48609672","long":"126.862317","imageIndex":17,"items":[{"name":"심플마켓","tel":"","addr":"경기도 광명시 철산동 74-49번지 태원빌라 B01호","indutype":"의류 - 정장","category":"other"}]},{"lat":"37.47468363","long":"126.8644524","imageIndex":17,"items":[{"name":"쎌프세탁소","tel":"02-2687-0093","addr":"경기도 광명시 철산동 472-24번지 102호","indutype":"수리서비스 - 세탁소","category":"other"}]},{"lat":"37.48001737","long":"126.8643182","imageIndex":17,"items":[{"name":"씨앤피아동교육연구소","tel":"02-2682-0579","addr":"경기도 광명시 철산동 229번지 지층 101호","indutype":"용역 서비스 - 사무서비스","category":"other"}]},{"lat":"37.47495824","long":"126.8681826","imageIndex":17,"items":[{"name":"씨엔에이","tel":"02-2612-8218","addr":"경기도 광명시 철산동 409번지 세영빌딩 1층 101호","indutype":"서적문구 - 문구용품","category":"other"}]},{"lat":"37.4803775","long":"126.8640915","imageIndex":17,"items":[{"name":"씨유광명모세로점","tel":"02-2616-1819","addr":"경기도 광명시 철산동 210-1번지","indutype":"유통업 영리 - 편 의 점","category":"other"}]},{"lat":"37.48595642","long":"126.8655962","imageIndex":17,"items":[{"name":"씨유철산2동점","tel":"02-2612-3088","addr":"경기도 광명시 철산동 131번지 1층","indutype":"유통업 영리 - 편 의 점","category":"other"}]},{"lat":"37.47598781","long":"126.8625395","imageIndex":17,"items":[{"name":"아담슈퍼","tel":"02-2685-5431","addr":"경기도 광명시 철산동 467-214번지","indutype":"유통업 영리 - 기타유통업","category":"other"}]},{"lat":"37.47395976","long":"126.8696201","imageIndex":17,"items":[{"name":"아리나(Arina)","tel":"02-6671-1120","addr":"경기도 광명시 철산동 426번지 서림빌딩 1층 105호","indutype":"의류 - 정장","category":"other"}]},{"lat":"37.47451332","long":"126.8652102","imageIndex":17,"items":[{"name":"아리랑여행사","tel":"02-2066-6615","addr":"경기도 광명시 철산동 488-25번지 덕수빌라","indutype":"여행 - 관광여행","category":"other"}]},{"lat":"37.48639887","long":"126.8664321","imageIndex":17,"items":[{"name":"아몬드페페","tel":"02-6342-2772","addr":"경기도 광명시 철산동 91-1번지 1층","indutype":"의류 - 정장","category":"other"},{"name":"컨츄리엣홈","tel":"02-2688-8182","addr":"경기도 광명시 철산동 91-1번지","indutype":"건축자재 - 인테리어전문","category":"other"}]},{"lat":"37.47599179","long":"126.865931","imageIndex":17,"items":[{"name":"아미치두피피부관리실","tel":"02-2611-9710","addr":"경기도 광명시 철산동 259번지 11층","indutype":"회원제형태 - 기타4","category":"other"}]},{"lat":"37.47937616","long":"126.8630419","imageIndex":17,"items":[{"name":"아이오시큐리티","tel":"070-5104-2872","addr":"경기도 광명시 철산동 213-5번지 309호","indutype":"전기제품 - 기타전기제품","category":"other"}]},{"lat":"37.47773651","long":"126.8631806","imageIndex":17,"items":[{"name":"아이지트렌드(I.G.TREND)","tel":"02-6369-1062","addr":"경기도 광명시 철산동 463-20번지 신화빌딩 202호","indutype":"의류 - 아동의류","category":"other"},{"name":"유홍기법무사","tel":"02-2612-4306","addr":"경기도 광명시 철산동 463-20번지","indutype":"용역 서비스 - 법률회계서비스(개인)","category":"other"},{"name":"화륭","tel":"031-416-1965","addr":"경기도 광명시 철산동 463-20번지 2층","indutype":"레져용품 - 스포츠·레져용품","category":"other"}]},{"lat":"37.47551902","long":"126.8700921","imageIndex":17,"items":[{"name":"아이폰 클리닉 광명철산 아이폰 수리센터","tel":"","addr":"경기도 광명시 철산동 437번지 프라자빌딩 3층 305-1호","indutype":"수리서비스 - 사무·통신기기수리","category":"other"},{"name":"튼튼영어광명철산지사","tel":"02-2682-0582","addr":"경기도 광명시 철산동 437번지 프라자빌딩 405호","indutype":"회원제형태 - 서적","category":"other"}]},{"lat":"37.47451649","long":"126.8679573","imageIndex":17,"items":[{"name":"아이폰픽스존광명철산애플아이폰수리센터","tel":"070-4606-1115","addr":"경기도 광명시 철산동 416번지 다산캣츠빌딩 304-1호","indutype":"수리서비스 - 사무·통신기기수리","category":"other"},{"name":"철산스크린프러스","tel":"02-2611-5888","addr":"경기도 광명시 철산동 416번지 지하2층","indutype":"회원제형태 - 레져업소","category":"other"}]},{"lat":"37.47456809","long":"126.8658206","imageIndex":17,"items":[{"name":"아트","tel":"02-2687-0333","addr":"경기도 광명시 철산동 494번지 1층","indutype":"의류 - 정장","category":"other"}]},{"lat":"37.4820133","long":"126.8684187","imageIndex":17,"items":[{"name":"아트샵","tel":"","addr":"경기도 광명시 철산동 235번지 철산8단지주공아파트","indutype":"건축자재 - 인테리어전문","category":"other"}]},{"lat":"37.49328469","long":"126.8683758","imageIndex":17,"items":[{"name":"아트앤픽셀","tel":"02-6265-9763","addr":"경기도 광명시 철산동 626-1번지 리버빌주공아파트 101동 305호","indutype":"용역 서비스 - 사무서비스","category":"other"}]},{"lat":"37.47315662","long":"126.8685137","imageIndex":17,"items":[{"name":"안티에이징코스메틱","tel":"02-2612-5431","addr":"경기도 광명시 철산동 637번지 철산푸르지오하늘채 104동 2102호","indutype":"회원제형태 - 기타1","category":"other"}]},{"lat":"37.48570577","long":"126.86701","imageIndex":17,"items":[{"name":"알씨메카","tel":"02-1111-1111","addr":"경기도 광명시 철산동 100번지","indutype":"용역 서비스 - 종합용역","category":"other"}]},{"lat":"37.48707297","long":"126.8650175","imageIndex":17,"items":[{"name":"앤클라스","tel":"02-000-0000","addr":"경기도 광명시 철산동 56-249번지 은진빌라 401호","indutype":"문화.취미 - 문화취미기타","category":"other"}]},{"lat":"37.48673959","long":"126.8650068","imageIndex":17,"items":[{"name":"야산재검도구","tel":"02-808-4100","addr":"경기도 광명시 철산동 56-75번지 1동 2층","indutype":"레져용품 - 스포츠·레져용품","category":"other"}]},{"lat":"37.47162854","long":"126.8638476","imageIndex":17,"items":[{"name":"약손월드","tel":"02-588-7883","addr":"경기도 광명시 철산동 630번지 브라운스톤광명 207동 504호","indutype":"서적문구 - 출판 및 인쇄물","category":"other"}]},{"lat":"37.49009331","long":"126.866742","imageIndex":17,"items":[{"name":"에듀엔","tel":"02-261-1072","addr":"경기도 광명시 철산동 55-1번지 광복현대아파트","indutype":"서적문구 - 일반서적","category":"other"}]},{"lat":"37.47731583","long":"126.8735484","imageIndex":17,"items":[{"name":"에띠임","tel":"","addr":"경기도 광명시 철산동 449번지 철산12단지주공아파트","indutype":"의류 - 내의판매","category":"other"},{"name":"웰빙","tel":"02-561-4880","addr":"경기도 광명시 철산동 449번지 철산12단지주공아파트","indutype":"의류 - 정장","category":"other"},{"name":"하늘공조","tel":"","addr":"경기도 광명시 철산동 449번지 철산12단지주공아파트","indutype":"전기제품 - 냉열기기","category":"other"}]},{"lat":"37.48714999","long":"126.869314","imageIndex":17,"items":[{"name":"에스제이로지텍(부천지점)","tel":"02-2616-1384","addr":"경기도 광명시 철산동 81-2번지","indutype":"용역 서비스 - 기타용역서비스","category":"other"}]},{"lat":"37.48623492","long":"126.864906","imageIndex":17,"items":[{"name":"에스케이솔루션","tel":"02-1111-1111","addr":"경기도 광명시 철산동 66-26번지","indutype":"사무통신 - 기타 사무용품","category":"other"},{"name":"현하시스템/원격지","tel":"02-2688-8764","addr":"경기도 광명시 철산동 66-26번지 1층","indutype":"기타 - 기타 전문점","category":"other"}]},{"lat":"37.48154018","long":"126.8644285","imageIndex":17,"items":[{"name":"에이스교육","tel":"02-2685-9829","addr":"경기도 광명시 철산동 169-2번지 1호","indutype":"서적문구 - 일반서적","category":"other"},{"name":"자연빛 교육","tel":"02-2685-9829","addr":"경기도 광명시 철산동 169-2번지","indutype":"회원제형태 - 서적","category":"other"}]},{"lat":"37.48904553","long":"126.8644825","imageIndex":17,"items":[{"name":"에이치에스(HS)텔레콤","tel":"02-6083-7172","addr":"경기도 광명시 철산동 56-19번지 1층 101호","indutype":"사무통신 - 통신기기","category":"other"}]},{"lat":"37.4879551","long":"126.8642923","imageIndex":17,"items":[{"name":"에이프로사이언스","tel":"02-2614-6826","addr":"경기도 광명시 철산동 56-65번지 한양빌라 101호","indutype":"서적문구 - 과학기자재","category":"other"}]},{"lat":"37.47557254","long":"126.8618506","imageIndex":17,"items":[{"name":"에코프라임","tel":"070-7696-9986","addr":"경기도 광명시 철산동 467-282번지 봉일빌라","indutype":"건축자재 - 페인트","category":"other"}]},{"lat":"37.47590517","long":"126.868961","imageIndex":17,"items":[{"name":"엔투","tel":"02-2685-4688","addr":"경기도 광명시 철산동 382번지 1층","indutype":"의류 - 정장","category":"other"}]},{"lat":"37.48256574","long":"126.8630925","imageIndex":17,"items":[{"name":"엠에스넷","tel":"02-5925-3922","addr":"경기도 광명시 철산동 197번지 103호","indutype":"사무통신 - 컴퓨터","category":"other"}]},{"lat":"37.48112585","long":"126.8645423","imageIndex":17,"items":[{"name":"여우멋내기","tel":"02-2611-6780","addr":"경기도 광명시 철산동 162-1번지","indutype":"의류 - 정장","category":"other"}]},{"lat":"37.47578907","long":"126.8698769","imageIndex":17,"items":[{"name":"여우야","tel":"02-2684-1242","addr":"경기도 광명시 철산동 395번지 기린빌딩 101호","indutype":"의류 - 정장","category":"other"}]},{"lat":"37.47598314","long":"126.8662363","imageIndex":17,"items":[{"name":"열림통상","tel":"02-2066-9167","addr":"경기도 광명시 철산동 260번지 삼성생명빌딩 8층 매점","indutype":"유통업 영리 - 기타유통업","category":"other"}]},{"lat":"37.47187805","long":"126.8692621","imageIndex":17,"items":[{"name":"영광산업/원격지","tel":"02-6332-1392","addr":"경기도 광명시 철산동 373","indutype":"기타 - 기타 전문점","category":"other"}]},{"lat":"37.47161137","long":"126.8645712","imageIndex":17,"items":[{"name":"영일LED","tel":"02-899-8080","addr":"경기도 광명시 철산동 630번지 브라운스톤2차아파트","indutype":"건축자재 - 조명기구","category":"other"}]},{"lat":"37.48895977","long":"126.8682366","imageIndex":17,"items":[{"name":"예본꽃방","tel":"02-2615-2625","addr":"경기도 광명시 철산동 58번지 우성아파트","indutype":"문화.취미 - 화원","category":"other"},{"name":"우성서점","tel":"02-2615-2027","addr":"경기도 광명시 철산동 58번지 우성아파트","indutype":"서적문구 - 일반서적","category":"other"}]},{"lat":"37.4876273","long":"126.8691209","imageIndex":17,"items":[{"name":"예인전자","tel":"02-2686-5119","addr":"경기도 광명시 철산동 61-4번지 지층","indutype":"사무통신 - 컴퓨터","category":"other"}]},{"lat":"37.47743582","long":"126.8680425","imageIndex":17,"items":[{"name":"오렌지  락스 페이스","tel":"070-7124-1212","addr":"경기도 광명시 철산동 245번지 쌍마한신아파트","indutype":"레져용품 - 악기점","category":"other"}]},{"lat":"37.48673954","long":"126.8649616","imageIndex":17,"items":[{"name":"오성(친환경)코퍼레이션","tel":"070-4229-3019","addr":"경기도 광명시 철산동 56-211 1층","indutype":"의류 - 정장","category":"other"}]},{"lat":"37.47690418","long":"126.8603219","imageIndex":17,"items":[{"name":"오피스알파","tel":"02-865-3555","addr":"경기도 광명시 철산동 467-58 LG베스트빌 501 1/4","indutype":"회원제형태 - 기타4","category":"other"}]},{"lat":"37.47659763","long":"126.8601529","imageIndex":17,"items":[{"name":"온더덩 (on the dung)","tel":"02-2611-1808","addr":"경기도 광명시 철산동 467-194번지 1층 일부","indutype":"서적문구 - 출판 및 인쇄물","category":"other"}]},{"lat":"37.48107494","long":"126.8672558","imageIndex":17,"items":[{"name":"올웨이즈 컨설팅","tel":"","addr":"경기도 광명시 철산동 235번지 철산8단지주공아파트","indutype":"용역 서비스 - 종합용역","category":"other"}]},{"lat":"37.47482079","long":"126.8661819","imageIndex":17,"items":[{"name":"요가람핫요가","tel":"02-2066-7754","addr":"경기도 광명시 철산동 484-5번지 일청빌딩 301호","indutype":"회원제형태 - 레져업소","category":"other"},{"name":"휘트니스 베이","tel":"02-2066-7477","addr":"경기도 광명시 철산동 484-5번지 일청빌딩 지층","indutype":"레져용품 - 스포츠·레져용품","category":"other"}]},{"lat":"37.47334928","long":"126.8637088","imageIndex":17,"items":[{"name":"우리세탁","tel":"02-2681-8225","addr":"경기도 광명시 철산동 631번지 광명푸르지오 상가 202호","indutype":"수리서비스 - 세탁소","category":"other"}]},{"lat":"37.47126993","long":"126.8653744","imageIndex":17,"items":[{"name":"월드골프클럽","tel":"02-3666-1001","addr":"경기도 광명시 철산동 509-267번지 서빈빌딩 지층 1호","indutype":"회원제형태 - 레져업소","category":"other"}]},{"lat":"37.47648372","long":"126.8628438","imageIndex":17,"items":[{"name":"유담신인철건축사사무소","tel":"02-2682-3034","addr":"경기도 광명시 철산동 464-9번지 3층","indutype":"건축자재 - 인테리어전문","category":"other"},{"name":"유담왕현식건축사사무소","tel":"02-2682-3034","addr":"경기도 광명시 철산동 464-9번지 3층","indutype":"건축자재 - 인테리어전문","category":"other"}]},{"lat":"37.47456882","long":"126.8664536","imageIndex":17,"items":[{"name":"유명우범진권투","tel":"02-856-7250","addr":"경기도 광명시 철산동 480번지","indutype":"회원제형태 - 레져업소","category":"other"}]},{"lat":"37.48947078","long":"126.8660195","imageIndex":17,"items":[{"name":"윤'thing","tel":"031-911-0422","addr":"경기도 광명시 철산동 629번지 두산위브아파트","indutype":"직물 - 침구·수예점","category":"other"}]},{"lat":"37.48520813","long":"126.8652019","imageIndex":17,"items":[{"name":"은빛날개하우스","tel":"02-6013-1800","addr":"경기도 광명시 철산동 137-4번지","indutype":"의류 - 정장","category":"other"},{"name":"이센","tel":"070-5247-3667","addr":"경기도 광명시 철산동 137-4번지 103호","indutype":"건축자재 - 유리","category":"other"},{"name":"허브에듀2","tel":"02-362-0354","addr":"경기도 광명시 철산동 137-4번지 101호","indutype":"회원제형태 - 서적","category":"other"}]},{"lat":"37.47598948","long":"126.8639526","imageIndex":17,"items":[{"name":"은하수세탁","tel":"02-2060-2584","addr":"경기도 광명시 철산동 473-14 보보스텔 B14호","indutype":"수리서비스 - 세탁소","category":"other"}]},{"lat":"37.47437415","long":"126.8695628","imageIndex":17,"items":[{"name":"이루다","tel":"02-2612-5112","addr":"경기도 광명시 철산동 434번지 서울종합빌딩 1동","indutype":"의류 - 와이셔츠·타이","category":"other"}]},{"lat":"37.47151319","long":"126.865374","imageIndex":17,"items":[{"name":"이마트24 철산도덕파크점","tel":"","addr":"경기도 광명시 철산동 509-265번지 삼우빌딩 1층 3호","indutype":"유통업 영리 - 편 의 점","category":"other"},{"name":"크린토피아철산도덕점","tel":"02-2616-8855","addr":"경기도 광명시 철산동 509-265번지 삼우빌딩 101호","indutype":"수리서비스 - 세탁소","category":"other"}]},{"lat":"37.47498929","long":"126.8638753","imageIndex":17,"items":[{"name":"이불커텐할인매장","tel":"02-2618-8126","addr":"경기도 광명시 철산동 472-183번지","indutype":"직물 - 침구·수예점","category":"other"}]},{"lat":"37.48634972","long":"126.8629271","imageIndex":17,"items":[{"name":"이온하이텍","tel":"02-6053-1554","addr":"경기도 광명시 철산동 72-9번지","indutype":"주방용구 - 정수기","category":"other"},{"name":"준호어패럴","tel":"02-685-4954","addr":"경기도 광명시 철산동 72-9번지","indutype":"의류 - 정장","category":"other"}]},{"lat":"37.48045833","long":"126.8638765","imageIndex":17,"items":[{"name":"인데코","tel":"02-2616-8721","addr":"경기도 광명시 철산동 208-4번지 지층","indutype":"직물 - 카페트,커튼,천막,지물","category":"other"}]},{"lat":"37.47295621","long":"126.8746525","imageIndex":17,"items":[{"name":"인비트윈 스투디오","tel":"","addr":"경기도 광명시 철산동 634번지 철산래미안자이","indutype":"용역 서비스 - 사무서비스","category":"other"}]},{"lat":"37.47874366","long":"126.8692724","imageIndex":17,"items":[{"name":"인치_인치_인치(inch_inch_inch)","tel":"","addr":"경기도 광명시 철산동 241번지 철산13단지주공아파트","indutype":"의류 - 정장","category":"other"}]},{"lat":"37.4837277","long":"126.8706429","imageIndex":17,"items":[{"name":"인하자동문","tel":"02-2689-8111","addr":"경기도 광명시 철산동 235번지 철산9단지주공아파트","indutype":"회원제형태 - 기타4","category":"other"}]},{"lat":"37.47317527","long":"126.8690676","imageIndex":17,"items":[{"name":"임병혁세무사","tel":"","addr":"경기도 광명시 철산동 637번지 철산푸르지오하늘채 103동 1304호","indutype":"용역 서비스 - 법률회계서비스(개인)","category":"other"}]},{"lat":"37.49180631","long":"126.8677113","imageIndex":17,"items":[{"name":"잉크가이나누우리점","tel":"02-2619-3128","addr":"경기도 광명시 철산동 627번지 롯데낙천대아파트","indutype":"사무통신 - 사무용 OA기기","category":"other"}]},{"lat":"37.48835107","long":"126.8638958","imageIndex":17,"items":[{"name":"자원공인중개사사무소","tel":"031-2611-8844","addr":"경기도 광명시 철산동 56-31번지 1층 101호","indutype":"용역 서비스 - 부동산 중개·임대","category":"other"}]},{"lat":"37.48176327","long":"126.8625965","imageIndex":17,"items":[{"name":"자전거와 함께","tel":"070-8877-0469","addr":"경기도 광명시 철산동 199-3번지","indutype":"레져용품 - 스포츠·레져용품","category":"other"}]},{"lat":"37.48676187","long":"126.8687041","imageIndex":17,"items":[{"name":"정문","tel":"","addr":"경기도 광명시 철산동 86-1번지 상가 104호","indutype":"의류 - 기타의류","category":"other"}]},{"lat":"37.47807017","long":"126.8634287","imageIndex":17,"items":[{"name":"정스튜디오","tel":"02-2689-4788","addr":"경기도 광명시 철산동 463-15번지 1층 1호","indutype":"광학제품 - 사진관","category":"other"},{"name":"한일기획","tel":"02-2689-3713","addr":"경기도 광명시 철산동 463-15번지","indutype":"기타 - 기타 전문점","category":"other"}]},{"lat":"37.48684477","long":"126.8625079","imageIndex":17,"items":[{"name":"정원사","tel":"02-2688-3396","addr":"경기도 광명시 철산동 56-145번지 1층","indutype":"수리서비스 - 세탁소","category":"other"}]},{"lat":"37.47406901","long":"126.870626","imageIndex":17,"items":[{"name":"정인","tel":"02-2060-4844","addr":"경기도 광명시 철산동 447-1 448B 156호","indutype":"용역 서비스 - 부동산 중개·임대","category":"other"}]},{"lat":"37.48259512","long":"126.8650936","imageIndex":17,"items":[{"name":"정풍산업/원격지","tel":"02-2066-9996","addr":"경기도 광명시 철산동 177-1번지 용현하늘채","indutype":"기타 - 기타 전문점","category":"other"}]},{"lat":"37.4730805","long":"126.8650093","imageIndex":17,"items":[{"name":"제노바제화","tel":"02-867-3906","addr":"경기도 광명시 철산동 628번지 브라운스톤1차아파트","indutype":"신변잡화 - 신발","category":"other"},{"name":"카도쉬북","tel":"070-7629-1663","addr":"경기도 광명시 철산동 628번지 브라운스톤1차아파트","indutype":"회원제형태 - 서적","category":"other"}]},{"lat":"37.47546203","long":"126.8675147","imageIndex":17,"items":[{"name":"제어전자담배","tel":"02-2613-5121","addr":"경기도 광명시 철산동 264번지 로데오빌딩 3층","indutype":"기타 - 기타 전문점","category":"other"}]},{"lat":"37.48492918","long":"126.8655077","imageIndex":17,"items":[{"name":"제이투","tel":"","addr":"경기도 광명시 철산동 146-1번지","indutype":"신변잡화 - 기타잡화","category":"other"}]},{"lat":"37.47643574","long":"126.8680669","imageIndex":17,"items":[{"name":"조순희","tel":"02-2618-1078","addr":"경기도 광명시 철산동 245-8번지 나미빌딩 101호","indutype":"의류 - 정장","category":"other"},{"name":"조순희","tel":"02-2688-7755","addr":"경기도 광명시 철산동 245-8번지 나미빌딩 101호","indutype":"의류 - 정장","category":"other"},{"name":"프렌즈스크린골프","tel":"02-2681-5577","addr":"경기도 광명시 철산동 245-8번지 지층 나미빌딩 전체","indutype":"회원제형태 - 레져업소","category":"other"}]},{"lat":"37.48087338","long":"126.8643732","imageIndex":17,"items":[{"name":"조은시스템","tel":"02-2060-5777","addr":"경기도 광명시 철산동 162-3번지 1층","indutype":"사무통신 - 컴퓨터","category":"other"}]},{"lat":"37.47568325","long":"126.8640436","imageIndex":17,"items":[{"name":"조은시스템","tel":"02-2619-1212","addr":"경기도 광명시 철산동 473-17번지 1층","indutype":"건축자재 - 보일러·펌프·샷시","category":"other"},{"name":"창가시스템","tel":"02-2619-1212","addr":"경기도 광명시 철산동 473-17번지","indutype":"기타 - 기타 전문점","category":"other"}]},{"lat":"37.48196941","long":"126.8694363","imageIndex":17,"items":[{"name":"좋은하루","tel":"","addr":"경기도 광명시 철산동 235번지 철산8단지주공아파트","indutype":"건축자재 - 건축용 요업제품","category":"other"}]},{"lat":"37.47526192","long":"126.8658758","imageIndex":17,"items":[{"name":"주식회사 닥터리프","tel":"02-533-9687","addr":"경기도 광명시 철산동 482번지 철산빌딩 501호","indutype":"용역 서비스 - 사무서비스","category":"other"}]},{"lat":"37.4771863","long":"126.8704849","imageIndex":17,"items":[{"name":"주식회사 제일디자인","tel":"02-2689-5009","addr":"경기도 광명시 철산동 241-2번지 바상가 A-5호","indutype":"용역 서비스 - 기타용역서비스","category":"other"},{"name":"철산(간지)","tel":"02-1111-1111","addr":"경기도 광명시 철산동 241-2번지 바 상가동 109호","indutype":"의류 - 정장","category":"other"},{"name":"행운사","tel":"02-2614-0028","addr":"경기도 광명시 철산동 241-2 바상가1 2 0 호","indutype":"건축자재 - 목재·석재·철물","category":"other"}]},{"lat":"37.4779077","long":"126.8631803","imageIndex":17,"items":[{"name":"주식회사 중부투데이","tel":"02-1899-7882","addr":"경기도 광명시 철산동 463-18번지 3층","indutype":"서적문구 - 정기간행물","category":"other"}]},{"lat":"37.49268118","long":"126.8685126","imageIndex":17,"items":[{"name":"주식회사에너위즈","tel":"02-2060-5930","addr":"경기도 광명시 철산동 626-3 광명테크노타운602-1호","indutype":"신변잡화 - 기타잡화","category":"other"},{"name":"지엘피코리아","tel":"02-3663-7014","addr":"경기도 광명시 철산동 626-3 광명테크노타운703호","indutype":"서적문구 - 과학기자재","category":"other"}]},{"lat":"37.47504367","long":"126.8641465","imageIndex":17,"items":[{"name":"지역사회열린학교","tel":"02-2614-0682","addr":"경기도 광명시 철산동 472-11번지 2층","indutype":"기타 - 비영리/대상","category":"other"}]},{"lat":"37.48592903","long":"126.865291","imageIndex":17,"items":[{"name":"진영기획","tel":"02-2614-1645","addr":"경기도 광명시 철산동 131-2번지 지층","indutype":"용역 서비스 - 종합용역","category":"other"}]},{"lat":"37.48740392","long":"126.8629591","imageIndex":17,"items":[{"name":"진인테리어","tel":"02-2688-5244","addr":"경기도 광명시 철산동 56-133번지 대성빌라 A동 302호","indutype":"용역 서비스 - 기타용역서비스","category":"other"}]},{"lat":"37.47992559","long":"126.8707175","imageIndex":17,"items":[{"name":"참진유통","tel":"02-2683-7587","addr":"경기도 광명시 철산동 241번지 철산13단지주공아파트","indutype":"회원제형태 - 기타1","category":"other"}]},{"lat":"37.48142947","long":"126.8622353","imageIndex":17,"items":[{"name":"천문유통","tel":"02-2617-8132","addr":"경기도 광명시 철산동 202-2번지","indutype":"사무통신 - 기타 사무용품","category":"other"}]},{"lat":"37.48117828","long":"126.8631516","imageIndex":17,"items":[{"name":"천재교육","tel":"02-2625-4542","addr":"경기도 광명시 철산동 184-3번지","indutype":"회원제형태 - 서적","category":"other"}]},{"lat":"37.48301004","long":"126.8654886","imageIndex":17,"items":[{"name":"철산종합사회복지관","tel":"02-2617-0410","addr":"경기도 광명시 철산동 158번지 3호 철산종합사회복지관","indutype":"용역 서비스 - 기타용역서비스","category":"other"}]},{"lat":"37.4747412","long":"126.8674821","imageIndex":17,"items":[{"name":"철산플라워","tel":"02-2687-0401","addr":"경기도 광명시 철산동 412번지","indutype":"문화.취미 - 화원","category":"other"}]},{"lat":"37.48706855","long":"126.8690089","imageIndex":17,"items":[{"name":"캐롤","tel":"02-2060-2415","addr":"경기도 광명시 철산동 83-2번지 대흥아이빌 201호","indutype":"신변잡화 - 액세서리","category":"other"}]},{"lat":"37.48140314","long":"126.870647","imageIndex":17,"items":[{"name":"컬리지","tel":"02-833-4266","addr":"경기도 광명시 철산동 235-4번지 주공상가 102호","indutype":"의류 - 정장","category":"other"}]},{"lat":"37.48651629","long":"126.8666807","imageIndex":17,"items":[{"name":"컴퓨터25시","tel":"02-2066-7119","addr":"경기도 광명시 철산동 90-3번지 1층","indutype":"수리서비스 - 사무·통신기기수리","category":"other"}]},{"lat":"37.47212406","long":"126.8638241","imageIndex":17,"items":[{"name":"컴퓨터수리","tel":"070-8683-4679","addr":"경기도 광명시 철산동 630번지 브라운스톤2차아파트","indutype":"수리서비스 - 사무·통신기기수리","category":"other"}]},{"lat":"37.47424205","long":"126.8643741","imageIndex":17,"items":[{"name":"케이엔엘","tel":"070-8868-8706","addr":"경기도 광명시 철산동 488-6번지 1층 103호","indutype":"용역 서비스 - 종합용역","category":"other"}]},{"lat":"37.48167912","long":"126.867707","imageIndex":17,"items":[{"name":"케이투아이","tel":"","addr":"경기도 광명시 철산동 235번지 철산8단지주공아파트","indutype":"광학제품 - 기타광학제품","category":"other"}]},{"lat":"37.4734608","long":"126.8666252","imageIndex":17,"items":[{"name":"코리아브리스","tel":"","addr":"경기도 광명시 철산동 518-1번지 다동 9-1호","indutype":"의류 - 내의판매","category":"other"}]},{"lat":"37.47473678","long":"126.8636836","imageIndex":17,"items":[{"name":"코리아엘이디(KOREA LED)","tel":"031-406-4421","addr":"경기도 광명시 철산동 472-107번지 1층","indutype":"건축자재 - 조명기구","category":"other"}]},{"lat":"37.48294417","long":"126.8709383","imageIndex":17,"items":[{"name":"쿠숍","tel":"02-2681-9381","addr":"경기도 광명시 철산동 235번지 철산9단지주공아파트","indutype":"신변잡화 - 액세서리","category":"other"}]},{"lat":"37.48856715","long":"126.8637597","imageIndex":17,"items":[{"name":"퀸스튜디오","tel":"02-2615-7044","addr":"경기도 광명시 철산동 56-24번지 1층 1호","indutype":"광학제품 - 사진관","category":"other"}]},{"lat":"37.4859318","long":"126.867688","imageIndex":17,"items":[{"name":"크린에어닥터","tel":"02-1522-1865","addr":"경기도 광명시 철산동 105번지 철산10단지주공아파트","indutype":"용역 서비스 - 기타용역서비스","category":"other"}]},{"lat":"37.47432197","long":"126.8633791","imageIndex":17,"items":[{"name":"킹스맨","tel":"02-2066-5053","addr":"경기도 광명시 철산동 472-130번지","indutype":"의류 - 정장","category":"other"}]},{"lat":"37.4736044","long":"126.8741653","imageIndex":17,"items":[{"name":"태신","tel":"070-2699-0807","addr":"경기도 광명시 철산동 634번지 철산래미안자이","indutype":"기타 - 기계공구","category":"other"}]},{"lat":"37.48107006","long":"126.8630726","imageIndex":17,"items":[{"name":"태양사","tel":"02-2615-5030","addr":"경기도 광명시 철산동 183-3번지 1층","indutype":"수리서비스 - 세탁소","category":"other"},{"name":"현대종합철물","tel":"02-2681-3336","addr":"경기도 광명시 철산동 183-3번지 1층 104호","indutype":"건축자재 - 목재·석재·철물","category":"other"}]},{"lat":"37.4851265","long":"126.8647385","imageIndex":17,"items":[{"name":"태현도장방수(주)","tel":"031-2688-6704","addr":"경기도 광명시 철산동 134-4번지 1층 3호","indutype":"건축자재 - 페인트","category":"other"}]},{"lat":"37.47451897","long":"126.86235","imageIndex":17,"items":[{"name":"테크앤시스","tel":"02-6679-9226","addr":"경기도 광명시 철산동 467-81 대부빌라 308 8/2","indutype":"회원제형태 - 기타2","category":"other"}]},{"lat":"37.48609372","long":"126.8674616","imageIndex":17,"items":[{"name":"토로건담샵","tel":"070-4220-3557","addr":"경기도 광명시 철산동 101-2번지 1층","indutype":"서적문구 - 완구점","category":"other"}]},{"lat":"37.48915375","long":"126.8645727","imageIndex":17,"items":[{"name":"파워댄스","tel":"02-2060-6167","addr":"경기도 광명시 철산동 56-18번지 지층","indutype":"회원제형태 - 레져업소","category":"other"}]},{"lat":"37.47623976","long":"126.8700457","imageIndex":17,"items":[{"name":"포튼가먼트","tel":"02-2612-2548","addr":"경기도 광명시 철산동 385번지 양정타워 2층 203호","indutype":"의류 - 맞춤복점","category":"other"}]},{"lat":"37.47512882","long":"126.867651","imageIndex":17,"items":[{"name":"폰케이스몰","tel":"02-2060-5949","addr":"경기도 광명시 철산동 265번지 1층105","indutype":"신변잡화 - 기타잡화","category":"other"}]},{"lat":"37.46994634","long":"126.8661342","imageIndex":17,"items":[{"name":"프리덴트","tel":"","addr":"경기도 광명시 철산동 625번지 도덕파크타운 205동 707호","indutype":"용역 서비스 - 소프트웨어","category":"other"}]},{"lat":"37.47468051","long":"126.8618184","imageIndex":17,"items":[{"name":"플레인바닐라","tel":"02-3141-2044","addr":"경기도 광명시 철산동 467-454 풍원빌라 201 8/3","indutype":"회원제형태 - 기타4","category":"other"}]},{"lat":"37.47179141","long":"126.8644352","imageIndex":17,"items":[{"name":"피부귀족","tel":"02-2625-1199","addr":"경기도 광명시 철산동 630번지 브라운스톤광명 204호 상가","indutype":"회원제형태 - 기타4","category":"other"}]},{"lat":"37.47241877","long":"126.8693628","imageIndex":17,"items":[{"name":"하늘기획","tel":"02-2055-0040","addr":"경기도 광명시 철산동 373번지 철산푸르지오하늘채 106-2603","indutype":"용역 서비스 - 종합용역","category":"other"}]},{"lat":"37.4705226","long":"126.8658053","imageIndex":17,"items":[{"name":"하영리본비누꽃","tel":"","addr":"경기도 광명시 철산동 625번지 도덕파크타운 202동 802호","indutype":"문화.취미 - 민예·공예품","category":"other"}]},{"lat":"37.48923526","long":"126.8649344","imageIndex":17,"items":[{"name":"한빛서점","tel":"031-2619-1988","addr":"경기도 광명시 철산동 56-246번지","indutype":"회원제형태 - 서적","category":"other"}]},{"lat":"37.46858453","long":"126.8650063","imageIndex":17,"items":[{"name":"한성전자","tel":"02-2613-2826","addr":"경기도 광명시 철산동 625번지 도덕파크타운 106동 804호","indutype":"회원제형태 - 기타4","category":"other"}]},{"lat":"37.4743752","long":"126.8626781","imageIndex":17,"items":[{"name":"행복공작소","tel":"070-7818-3026","addr":"경기도 광명시 철산동 467-476번지 2층 201호","indutype":"건축자재 - 인테리어전문","category":"other"}]},{"lat":"37.47451936","long":"126.8626779","imageIndex":17,"items":[{"name":"행복한사진","tel":"031-432-1666","addr":"경기도 광명시 철산동 467-256번지 102호","indutype":"광학제품 - 사진관","category":"other"}]},{"lat":"37.47601527","long":"126.8629012","imageIndex":17,"items":[{"name":"현대건재","tel":"02-2619-2779","addr":"경기도 광명시 철산동 467-18번지 현대연립 102호","indutype":"건축자재 - 기타건축자재","category":"other"}]},{"lat":"37.47801548","long":"126.8628974","imageIndex":17,"items":[{"name":"현대세탁","tel":"02-2668-7290","addr":"경기도 광명시 철산동 463-8번지 1층 3호","indutype":"수리서비스 - 세탁소","category":"other"}]},{"lat":"37.48890105","long":"126.8642114","imageIndex":17,"items":[{"name":"현대전기철물","tel":"02-2616-9326","addr":"경기도 광명시 철산동 56-21번지","indutype":"기타 - 기계공구","category":"other"}]},{"lat":"37.48714914","long":"126.8685678","imageIndex":17,"items":[{"name":"형제철물","tel":"02-2613-1300","addr":"경기도 광명시 철산동 85번지 1층 103호","indutype":"건축자재 - 목재·석재·철물","category":"other"}]},{"lat":"37.47266063","long":"126.8762696","imageIndex":17,"items":[{"name":"호국불교효예종여래사","tel":"02-2689-3556","addr":"경기도 광명시 철산동 367번지 철산한신아파트","indutype":"기타 - 비영리/대상","category":"other"}]},{"lat":"37.47670848","long":"126.8624251","imageIndex":17,"items":[{"name":"호호야소잉(HOHOYASEWING)","tel":"02-2685-6399","addr":"경기도 광명시 철산동 464-6번지 1층 3호","indutype":"신변잡화 - 기타잡화","category":"other"}]},{"lat":"37.48059387","long":"126.8642041","imageIndex":17,"items":[{"name":"황금색소폰","tel":"02-6402-7202","addr":"경기도 광명시 철산동 162-5번지 지하","indutype":"레져용품 - 악기점","category":"other"}]},{"lat":"37.47227181","long":"126.8749815","imageIndex":17,"items":[{"name":"효성프린팩","tel":"031-000-0000","addr":"경기도 광명시 철산동 634번지 철산래미안자이 106동 2305호","indutype":"서적문구 - 출판 및 인쇄물","category":"other"}]},{"lat":"37.47457544","long":"126.8643961","imageIndex":17,"items":[{"name":"희정지물포","tel":"02-2684-6391","addr":"경기도 광명시 철산동 472-48","indutype":"직물 - 카페트,커튼,천막,지물","category":"other"}]}]