[{"lat":"37.529010564","long":"126.8164861","imageIndex":7,"items":[{"name":"(주)바다세상","tel":"031-752-2515","addr":"경기도 부천시 고강동 350-15번지","indutype":"음료식품 - 농·축·수산품","category":"food"}]},{"lat":"37.525342055","long":"126.81554497","imageIndex":7,"items":[{"name":"(주)씨알트레이딩 부천지점","tel":"070-4700-3530","addr":"경기도 부천시 고강동 480-1번지 스카이빌딩 4층 비호","indutype":"음료식품 - 주류 판매점","category":"food"}]},{"lat":"37.525451544","long":"126.82220783","imageIndex":7,"items":[{"name":"(주)약이본가","tel":"032-681-5300","addr":"경기도 부천시 고강동 398-5번지 지층","indutype":"회원제형태 - 건강식품","category":"food"},{"name":"화남정육점","tel":"032-682-4266","addr":"경기도 부천시 고강동 398-5번지","indutype":"음료식품 - 기타음료식품","category":"food"},{"name":"화남정육점","tel":"032-681-4266","addr":"경기도 부천시 고강동 398-5번지","indutype":"음료식품 - 정육점","category":"food"}]},{"lat":"37.530898191","long":"126.81940027","imageIndex":7,"items":[{"name":"SK유통","tel":"032-285-1010","addr":"경기도 부천시 고강동 354-10번지 한울팰리스 가동 101호","indutype":"음료식품 - 기타음료식품","category":"food"}]},{"lat":"37.529397527","long":"126.82198336","imageIndex":7,"items":[{"name":"SM유통","tel":"032-673-2269","addr":"경기도 부천시 고강동 359-14번지 거성빌라7차제 102호","indutype":"음료식품 - 정육점","category":"food"}]},{"lat":"37.525817096","long":"126.81970685","imageIndex":7,"items":[{"name":"dietyes(다이어트예스)","tel":"","addr":"경기도 부천시 고강동 385-17번지 대덕빌라 201호","indutype":"건강식품 - 기타건강식품","category":"food"}]},{"lat":"37.5281737528","long":"126.8115443874","imageIndex":7,"items":[{"name":"가나안야채","tel":"032-682-8884","addr":"경기도 부천시 고강동 291-5번지 현대연립 D-105","indutype":"음료식품 - 농·축·수산품","category":"food"}]},{"lat":"37.527504776","long":"126.81576582","imageIndex":7,"items":[{"name":"감사건어물","tel":"032-676-4593","addr":"경기도 부천시 고강동 471-1번지 왕자빌딩 1층","indutype":"음료식품 - 농·축·수산품","category":"food"},{"name":"베스킨라빈스 (부천고강점)","tel":"032-684-0045","addr":"경기도 부천시 고강동 471-1번지","indutype":"음료식품 - 제과점","category":"food"}]},{"lat":"37.529337496","long":"126.8181257","imageIndex":7,"items":[{"name":"강덕원흑염소","tel":"032-679-2400","addr":"경기도 부천시 고강동 364-11번지 샘물교회1층오른쪽끝","indutype":"건강식품 - 기타건강식품","category":"food"}]},{"lat":"37.523338726","long":"126.82517675","imageIndex":7,"items":[{"name":"경성수입정육점","tel":"032-671-5124","addr":"경기도 부천시 고강동 557-11번지","indutype":"음료식품 - 정육점","category":"food"}]},{"lat":"37.527980139","long":"126.81440707","imageIndex":7,"items":[{"name":"경희약초마을","tel":"032-683-8892","addr":"경기도 부천시 고강동 320번지","indutype":"음료식품 - 농·축·수산품","category":"food"}]},{"lat":"37.528230149","long":"126.81299231","imageIndex":7,"items":[{"name":"고강건어물","tel":"032-678-6146","addr":"경기도 부천시 고강동 311-8번지 일부 1층","indutype":"음료식품 - 농·축·수산품","category":"food"}]},{"lat":"37.527949623","long":"126.81223505","imageIndex":7,"items":[{"name":"고강닭집","tel":"032-677-7784","addr":"경기도 부천시 고강동 310번지 동호빌딩 1층","indutype":"음료식품 - 정육점","category":"food"},{"name":"고려왕족발","tel":"032-672-3321","addr":"경기도 부천시 고강동 310번지","indutype":"음료식품 - 기타음료식품","category":"food"},{"name":"그린식품","tel":"032-679-9551","addr":"경기도 부천시 고강동 310번지 1층","indutype":"음료식품 - 기타음료식품","category":"food"},{"name":"맛나반찬","tel":"032-671-4527","addr":"경기도 부천시 고강동 310번지 동호빌딩 1층","indutype":"음료식품 - 기타음료식품","category":"food"},{"name":"종로떡집","tel":"032-679-6354","addr":"경기도 부천시 고강동 310번지","indutype":"음료식품 - 제과점","category":"food"}]},{"lat":"37.528449493","long":"126.82068465","imageIndex":7,"items":[{"name":"고강방앗간","tel":"032-671-6839","addr":"경기도 부천시 고강동 392-21번지","indutype":"음료식품 - 제과점","category":"food"}]},{"lat":"37.527005172","long":"126.82479473","imageIndex":7,"items":[{"name":"고강본동주민자치위원회","tel":"032-679-7004","addr":"경기도 부천시 고강동 324-4번지 고강1동주민센터","indutype":"음료식품 - 기타음료식품","category":"food"}]},{"lat":"37.526009687","long":"126.82190104","imageIndex":7,"items":[{"name":"고강생선","tel":"032-671-2954","addr":"경기도 부천시 고강동 398-10번지","indutype":"음료식품 - 농·축·수산품","category":"food"},{"name":"벧엘감사축산","tel":"032-678-9290","addr":"경기도 부천시 고강동 398-10번지","indutype":"음료식품 - 정육점","category":"food"},{"name":"전라도반찬","tel":"070-7465-0733","addr":"경기도 부천시 고강동 398-10번지 1층 2호","indutype":"음료식품 - 기타음료식품","category":"food"}]},{"lat":"37.528394681","long":"126.81446259","imageIndex":7,"items":[{"name":"고강식품","tel":"032-671-1394","addr":"경기도 부천시 고강동 318번지 고강제일시장제 9동 1층","indutype":"음료식품 - 기타음료식품","category":"food"},{"name":"김세경떡집","tel":"032-747-8874","addr":"경기도 부천시 고강동 318번지 11동일부 1층","indutype":"음료식품 - 제과점","category":"food"},{"name":"눈꽃아이스크림할인점","tel":"032-348-2345","addr":"경기도 부천시 고강동 318번지 고강제일시장 9동","indutype":"음료식품 - 기타음료식품","category":"food"},{"name":"진영잡화","tel":"032-681-7197","addr":"경기도 부천시 고강동 318번지 고강제일시장3동1층3호","indutype":"음료식품 - 농·축·수산품","category":"food"},{"name":"청해수산","tel":"032-678-0566","addr":"경기도 부천시 고강동 318번지 고강제일시장 8동1층 동쪽 측면점포","indutype":"음료식품 - 농·축·수산품","category":"food"}]},{"lat":"37.5281484231","long":"126.8125965641","imageIndex":7,"items":[{"name":"고광야채","tel":"032-675-9078","addr":"경기도 부천시 고강동 311-22","indutype":"음료식품 - 농·축·수산품","category":"food"}]},{"lat":"37.528365898","long":"126.81906709","imageIndex":7,"items":[{"name":"고기파는 총각네","tel":"070-7314-5620","addr":"경기도 부천시 고강동 379-29번지 우성빌라 102호","indutype":"음료식품 - 정육점","category":"food"}]},{"lat":"37.528148423","long":"126.81259656","imageIndex":7,"items":[{"name":"고려떡방","tel":"032-676-0209","addr":"경기도 부천시 고강동 311-22번지 나호","indutype":"음료식품 - 제과점","category":"food"},{"name":"싱싱과일","tel":"","addr":"경기도 부천시 고강동 311-22번지 가호","indutype":"음료식품 - 농·축·수산품","category":"food"}]},{"lat":"37.527288582","long":"126.82156988","imageIndex":7,"items":[{"name":"고리울축산","tel":"032-684-0606","addr":"경기도 부천시 고강동 390-4번지 고강빌딩 1층 일부","indutype":"음료식품 - 정육점","category":"food"}]},{"lat":"37.52573154","long":"126.82265966","imageIndex":7,"items":[{"name":"과일나라","tel":"032-675-6215","addr":"경기도 부천시 고강동 407번지","indutype":"음료식품 - 농·축·수산품","category":"food"},{"name":"궁중떡집","tel":"032-683-2045","addr":"경기도 부천시 고강동 407번지","indutype":"음료식품 - 제과점","category":"food"},{"name":"동헌생선마트","tel":"032-681-1515","addr":"경기도 부천시 고강동 407번지","indutype":"음료식품 - 농·축·수산품","category":"food"}]},{"lat":"37.525451976","long":"126.82249065","imageIndex":7,"items":[{"name":"괴산야채","tel":"032-674-5670","addr":"경기도 부천시 고강동 407-1번지 1층 104호","indutype":"음료식품 - 농·축·수산품","category":"food"},{"name":"김치전문점","tel":"032-681-4418","addr":"경기도 부천시 고강동 407-1번지 1층","indutype":"음료식품 - 기타음료식품","category":"food"},{"name":"싱싱한 야채 청과","tel":"02-1599-7670","addr":"경기도 부천시 고강동 407-1번지","indutype":"음료식품 - 농·축·수산품","category":"food"},{"name":"오복건강원","tel":"032-684-4482","addr":"경기도 부천시 고강동 407-1번지 1층","indutype":"건강식품 - 기타건강식품","category":"food"}]},{"lat":"37.529150803","long":"126.81401948","imageIndex":7,"items":[{"name":"국쟁이","tel":"","addr":"경기도 부천시 고강동 287-12번지 옥산주택 지층 2호","indutype":"음료식품 - 농·축·수산품","category":"food"}]},{"lat":"37.529368681","long":"126.81504843","imageIndex":7,"items":[{"name":"그랜마수","tel":"070-7355-4085","addr":"경기도 부천시 고강동 283-8번지 1층","indutype":"음료식품 - 기타음료식품","category":"food"}]},{"lat":"37.527951062","long":"126.81312878","imageIndex":7,"items":[{"name":"금산인삼건강원","tel":"032-679-2303","addr":"경기도 부천시 고강동 310-2번지 1층","indutype":"건강식품 - 기타건강식품","category":"food"},{"name":"충남정육점","tel":"032-671-4840","addr":"경기도 부천시 고강동 310-2번지","indutype":"음료식품 - 정육점","category":"food"}]},{"lat":"37.524597487","long":"126.81194946","imageIndex":7,"items":[{"name":"김선달식품","tel":"","addr":"경기도 부천시 고강동 294-19번지 경인빌라 가동 지층 2호","indutype":"음료식품 - 농·축·수산품","category":"food"}]},{"lat":"37.526814292","long":"126.81218138","imageIndex":7,"items":[{"name":"꼭두닭","tel":"032-676-7677","addr":"경기도 부천시 고강동 309-7번지 지하1층","indutype":"음료식품 - 정육점","category":"food"},{"name":"진도아재","tel":"032-205-0116","addr":"경기도 부천시 고강동 309-7번지 중앙 1층 가운데 점포","indutype":"음료식품 - 농·축·수산품","category":"food"}]},{"lat":"37.528094184","long":"126.82401154","imageIndex":7,"items":[{"name":"꽃나래케이크","tel":"032-000-0000","addr":"경기도 부천시 고강동 413-10번지 신탁골드빌 106동 103호","indutype":"음료식품 - 제과점","category":"food"}]},{"lat":"37.526481055","long":"126.81226142","imageIndex":7,"items":[{"name":"남양우유고강보급소","tel":"032-681-5285","addr":"경기도 부천시 고강동 308-34번지","indutype":"음료식품 - 기타음료식품","category":"food"}]},{"lat":"37.525839227","long":"126.82237659","imageIndex":7,"items":[{"name":"농부축산","tel":"032-671-4272","addr":"경기도 부천시 고강동 398-7번지","indutype":"음료식품 - 정육점","category":"food"},{"name":"보라매닭","tel":"032-683-9989","addr":"경기도 부천시 고강동 398-7번지","indutype":"음료식품 - 정육점","category":"food"}]},{"lat":"37.525893026","long":"126.82220677","imageIndex":7,"items":[{"name":"다온축산","tel":"032-1111-1111","addr":"경기도 부천시 고강동 398-6번지 1층","indutype":"음료식품 - 정육점","category":"food"},{"name":"새낙원방앗간","tel":"032-677-9070","addr":"경기도 부천시 고강동 398-6번지","indutype":"음료식품 - 제과점","category":"food"},{"name":"태초식품고강점","tel":"032-677-5992","addr":"경기도 부천시 고강동 398-6번지 1층 2호","indutype":"음료식품 - 기타음료식품","category":"food"}]},{"lat":"37.527977509","long":"126.81276669","imageIndex":7,"items":[{"name":"대림축산고강판매점","tel":"032-678-9966","addr":"경기도 부천시 고강동 310-17번지 1층","indutype":"음료식품 - 정육점","category":"food"},{"name":"옛날손두부","tel":"032-674-6557","addr":"경기도 부천시 고강동 310-17번지","indutype":"음료식품 - 기타음료식품","category":"food"},{"name":"오성축산물백화점5호점","tel":"032-225-4660","addr":"경기도 부천시 고강동 310-17번지 1층","indutype":"음료식품 - 정육점","category":"food"}]},{"lat":"37.527621651","long":"126.82137675","imageIndex":7,"items":[{"name":"동신축산","tel":"070-8281-9606","addr":"경기도 부천시 고강동 390-11번지 성산행복마을 101호","indutype":"음료식품 - 정육점","category":"food"}]},{"lat":"37.527978854","long":"126.81360385","imageIndex":7,"items":[{"name":"떡고을","tel":"070-684-0807","addr":"경기도 부천시 고강동 321번지 1층","indutype":"음료식품 - 제과점","category":"food"}]},{"lat":"37.527198477","long":"126.81578921","imageIndex":7,"items":[{"name":"뚜레쥬르 부천고강(2)","tel":"032-671-7410","addr":"경기도 부천시 고강동 473-1번지 1층","indutype":"음료식품 - 제과점","category":"food"}]},{"lat":"37.527951335","long":"126.81329847","imageIndex":7,"items":[{"name":"록시엔빵집","tel":"032-683-7040","addr":"경기도 부천시 고강동 310-3번지","indutype":"음료식품 - 제과점","category":"food"}]},{"lat":"37.527317498","long":"126.81698808","imageIndex":7,"items":[{"name":"마장동형제고깃간","tel":"","addr":"경기도 부천시 고강동 370-11번지 성산빌딩 1층 일부","indutype":"음료식품 - 정육점","category":"food"}]},{"lat":"37.525623284","long":"126.82256942","imageIndex":7,"items":[{"name":"매일방앗간","tel":"032-674-5656","addr":"경기도 부천시 고강동 407-2","indutype":"음료식품 - 제과점","category":"food"},{"name":"영두부","tel":"032-673-5960","addr":"경기도 부천시 고강동 407-2번지 1층","indutype":"음료식품 - 기타음료식품","category":"food"}]},{"lat":"37.528231166","long":"126.81362584","imageIndex":7,"items":[{"name":"명가반찬","tel":"032-674-6694","addr":"경기도 부천시 고강동 312-1번지 105호","indutype":"음료식품 - 기타음료식품","category":"food"},{"name":"청춘축산물백화점","tel":"032-671-8520","addr":"경기도 부천시 고강동 312-1번지 1층","indutype":"음료식품 - 정육점","category":"food"}]},{"lat":"37.531425275","long":"126.81090252","imageIndex":7,"items":[{"name":"모네정원","tel":"070-4922-1261","addr":"경기도 부천시 고강동 185-3번지","indutype":"음료식품 - 농·축·수산품","category":"food"}]},{"lat":"37.526226391","long":"126.82220596","imageIndex":7,"items":[{"name":"목포수산젓갈","tel":"032-677-2986","addr":"경기도 부천시 고강동 397번지 새보미아파트","indutype":"음료식품 - 농·축·수산품","category":"food"}]},{"lat":"37.527816223","long":"126.81332144","imageIndex":7,"items":[{"name":"미트민","tel":"032-672-9289","addr":"경기도 부천시 고강동 310-4번지 1층","indutype":"음료식품 - 정육점","category":"food"}]},{"lat":"37.528292726","long":"126.81836586","imageIndex":7,"items":[{"name":"바다수산","tel":"","addr":"경기도 부천시 고강동 379-30번지 뉴월드맨션 4동 302호","indutype":"음료식품 - 농·축·수산품","category":"food"}]},{"lat":"37.528674203","long":"126.81459765","imageIndex":7,"items":[{"name":"바삭바삭","tel":"043-000-0000","addr":"경기도 부천시 고강동 286-5번지","indutype":"음료식품 - 기타음료식품","category":"food"},{"name":"풍성푸드","tel":"031-678-4220","addr":"경기도 부천시 고강동 286-5번지 101,102,103호","indutype":"음료식품 - 기타음료식품","category":"food"},{"name":"해주식품","tel":"032-681-8909","addr":"경기도 부천시 고강동 286-5번지 115호","indutype":"음료식품 - 기타음료식품","category":"food"}]},{"lat":"37.528566535","long":"126.81488075","imageIndex":7,"items":[{"name":"바삭바삭","tel":"063-000-0000","addr":"경기도 부천시 고강동 286-6번지 1층","indutype":"음료식품 - 농·축·수산품","category":"food"}]},{"lat":"37.528258467","long":"126.81379547","imageIndex":7,"items":[{"name":"바삭바삭","tel":"02-7533-8142","addr":"경기도 부천시 고강동 312-4번지 1층 일부","indutype":"음료식품 - 농·축·수산품","category":"food"}]},{"lat":"37.525981337","long":"126.82104135","imageIndex":7,"items":[{"name":"보해건강원","tel":"032-684-7719","addr":"경기도 부천시 고강동 388-9번지 킹스빌","indutype":"건강식품 - 기타건강식품","category":"food"}]},{"lat":"37.529422506","long":"126.81490123","imageIndex":7,"items":[{"name":"부강상회","tel":"032-672-6055","addr":"경기도 부천시 고강동 283-9번지 지층 105호","indutype":"음료식품 - 농·축·수산품","category":"food"}]},{"lat":"37.528006499","long":"126.81398842","imageIndex":7,"items":[{"name":"부흥상회","tel":"032-677-1607","addr":"경기도 부천시 고강동 321-2번지 A동 1층 일부","indutype":"음료식품 - 농·축·수산품","category":"food"}]},{"lat":"37.526277579","long":"126.82033924","imageIndex":7,"items":[{"name":"비어앤크림 고강본점(Beer&Cream 픽미픽미","tel":"","addr":"경기도 부천시 고강동 388-15번지 덕용주택 가동 103호","indutype":"음료식품 - 기타음료식품","category":"food"}]},{"lat":"37.527531899","long":"126.82160323","imageIndex":7,"items":[{"name":"빵고을제과점","tel":"032-677-1428","addr":"경기도 부천시 고강동 390-3번지","indutype":"음료식품 - 제과점","category":"food"}]},{"lat":"37.52314928","long":"126.82501883","imageIndex":7,"items":[{"name":"성산농산","tel":"032-271-0588","addr":"경기도 부천시 고강동 558번지 1층","indutype":"음료식품 - 농·축·수산품","category":"food"},{"name":"찐한베이킹(찐hanBaking)","tel":"031-111-1111","addr":"경기도 부천시 고강동 558번지 1층 안쪽 찐HANBAKING","indutype":"음료식품 - 기타음료식품","category":"food"}]},{"lat":"37.526734341","long":"126.81857332","imageIndex":7,"items":[{"name":"성심건강원","tel":"032-674-9890","addr":"경기도 부천시 고강동 377-30번지","indutype":"건강식품 - 기타건강식품","category":"food"}]},{"lat":"37.525343505","long":"126.81646129","imageIndex":7,"items":[{"name":"성주유통","tel":"032-672-3591","addr":"경기도 부천시 고강동 346-17번지 1층","indutype":"음료식품 - 정육점","category":"food"}]},{"lat":"37.528147035","long":"126.81173678","imageIndex":7,"items":[{"name":"수경수산","tel":"032-681-3410","addr":"경기도 부천시 고강동 291-5번지 현대연립 D동 105호","indutype":"음료식품 - 농·축·수산품","category":"food"},{"name":"임대감축산","tel":"032-673-9271","addr":"경기도 부천시 고강동 291-5번지 현대연립 D동 101호","indutype":"음료식품 - 정육점","category":"food"}]},{"lat":"37.528148113","long":"126.81240424","imageIndex":7,"items":[{"name":"수산마켓","tel":"031-111-1111","addr":"경기도 부천시 고강동 311-11번지 1층","indutype":"음료식품 - 농·축·수산품","category":"food"}]},{"lat":"37.528066364","long":"126.81765369","imageIndex":7,"items":[{"name":"신풍년방앗간","tel":"032-677-8449","addr":"경기도 부천시 고강동 369-2번지","indutype":"음료식품 - 미곡상","category":"food"}]},{"lat":"37.522425986","long":"126.81187581","imageIndex":7,"items":[{"name":"씨드앤푸드","tel":"032-207-7560","addr":"경기도 부천시 고강동 296-2번지 진성빌딩 1호","indutype":"음료식품 - 농·축·수산품","category":"food"}]},{"lat":"37.525646435","long":"126.82004665","imageIndex":7,"items":[{"name":"아이스킹 마트","tel":"","addr":"경기도 부천시 고강동 387-1번지 파크하우스 1층 101호","indutype":"음료식품 - 기타음료식품","category":"food"}]},{"lat":"37.526535309","long":"126.82390214","imageIndex":7,"items":[{"name":"애플스토리","tel":"070-2699-0807","addr":"경기도 부천시 고강동 409-5번지 홍익아파트","indutype":"음료식품 - 농·축·수산품","category":"food"}]},{"lat":"37.528456067","long":"126.81341032","imageIndex":7,"items":[{"name":"약이본가","tel":"032-681-5564","addr":"경기도 부천시 고강동 311-6번지 1층","indutype":"건강식품 - 기타건강식품","category":"food"}]},{"lat":"37.525425706","long":"126.82298847","imageIndex":7,"items":[{"name":"양념나라","tel":"032-1111-1111","addr":"경기도 부천시 고강동 407-6번지 선우아파트","indutype":"음료식품 - 기타음료식품","category":"food"}]},{"lat":"37.526977995","long":"126.81882161","imageIndex":7,"items":[{"name":"엄마네반찬","tel":"","addr":"경기도 부천시 고강동 377-26번지","indutype":"음료식품 - 기타음료식품","category":"food"}]},{"lat":"37.525146922","long":"126.81184625","imageIndex":7,"items":[{"name":"엘림건강원","tel":"032-682-1814","addr":"경기도 부천시 고강동 294-1번지","indutype":"건강식품 - 기타건강식품","category":"food"}]},{"lat":"37.525289245","long":"126.82212904","imageIndex":7,"items":[{"name":"여주쌀상회","tel":"032-677-9327","addr":"경기도 부천시 고강동 399-25번지","indutype":"음료식품 - 미곡상","category":"food"}]},{"lat":"37.529534333","long":"126.82306911","imageIndex":7,"items":[{"name":"영두부","tel":"032--681-8976","addr":"경기도 부천시 고강동 313-43번지 금강타운","indutype":"음료식품 - 기타음료식품","category":"food"}]},{"lat":"37.526036508","long":"126.82176523","imageIndex":7,"items":[{"name":"영시미떡볶이","tel":"032-682-0705","addr":"경기도 부천시 고강동 398-8번지 고강시장","indutype":"음료식품 - 기타음료식품","category":"food"}]},{"lat":"37.534727265","long":"126.81932301","imageIndex":7,"items":[{"name":"예당식품","tel":"","addr":"경기도 부천시 고강동 228-2번지","indutype":"음료식품 - 농·축·수산품","category":"food"}]},{"lat":"37.525955887","long":"126.82207086","imageIndex":7,"items":[{"name":"옛날누룽지","tel":"032-684-5388","addr":"경기도 부천시 고강동 398-12번지 G동 1층","indutype":"음료식품 - 기타음료식품","category":"food"}]},{"lat":"37.525482542","long":"126.82482098","imageIndex":7,"items":[{"name":"왕호네 푸줏간","tel":"032-283-4545","addr":"경기도 부천시 고강동 415-3번지 1층","indutype":"음료식품 - 정육점","category":"food"}]},{"lat":"37.526477435","long":"126.82140215","imageIndex":7,"items":[{"name":"우리축산마트","tel":"032-681-5254","addr":"경기도 부천시 고강동 389-4번지 1층 102호","indutype":"음료식품 - 정육점","category":"food"}]},{"lat":"37.535089674","long":"126.82062324","imageIndex":7,"items":[{"name":"웰빙토마토상추농장","tel":"032-208-8083","addr":"경기도 부천시 고강동 230-1","indutype":"음료식품 - 농·축·수산품","category":"food"}]},{"lat":"37.522318648","long":"126.82387827","imageIndex":7,"items":[{"name":"유진","tel":"070-7725-0406","addr":"경기도 부천시 고강동 567-4번지 정화빌라 201호","indutype":"음료식품 - 농·축·수산품","category":"food"}]},{"lat":"37.5349794879","long":"126.8192884493","imageIndex":7,"items":[{"name":"은행나무(축산)","tel":"032-672-5498","addr":"경기도 부천시 고강동 227번지","indutype":"음료식품 - 농·축·수산품","category":"food"}]},{"lat":"37.525009461","long":"126.81603224","imageIndex":7,"items":[{"name":"일오삼떡사랑","tel":"032-673-0153","addr":"경기도 부천시 고강동 345-26번지 대소빌리지 3동 101호","indutype":"음료식품 - 제과점","category":"food"}]},{"lat":"37.525173998","long":"126.82336239","imageIndex":7,"items":[{"name":"정희유통","tel":"","addr":"경기도 부천시 고강동 407-11번지 예원빌라 A동 101호","indutype":"음료식품 - 기타음료식품","category":"food"}]},{"lat":"37.527809781","long":"126.8149279","imageIndex":7,"items":[{"name":"제이한과강정","tel":"032-676-5557","addr":"경기도 부천시 고강동 470-2번지 부일빌딩 1층","indutype":"음료식품 - 제과점","category":"food"}]},{"lat":"37.527922063","long":"126.81190705","imageIndex":7,"items":[{"name":"제일","tel":"032-683-8999","addr":"경기도 부천시 고강동 292-2번지 제일빌딩 1층","indutype":"음료식품 - 농·축·수산품","category":"food"},{"name":"제일생선","tel":"032-675-7315","addr":"경기도 부천시 고강동 292-2번지","indutype":"음료식품 - 농·축·수산품","category":"food"},{"name":"제일수산물쎈타","tel":"032-673-8972","addr":"경기도 부천시 고강동 292-2번지","indutype":"음료식품 - 농·축·수산품","category":"food"}]},{"lat":"37.52697916","long":"126.81385526","imageIndex":7,"items":[{"name":"제주돈","tel":"032-677-1158","addr":"경기도 부천시 고강동 328번지 청광플러스원 106호","indutype":"음료식품 - 정육점","category":"food"}]},{"lat":"37.531361169","long":"126.82165053","imageIndex":7,"items":[{"name":"주식회사 선진특판","tel":"032-674-9013","addr":"경기도 부천시 고강동 257-4번지 남정빌라 가동 지 2호","indutype":"음료식품 - 기타음료식품","category":"food"}]},{"lat":"37.526065304","long":"126.81145927","imageIndex":7,"items":[{"name":"주식회사반가빈","tel":"02-517-3989","addr":"경기도 부천시 고강동 293-10번지 2층","indutype":"음료식품 - 제과점","category":"food"}]},{"lat":"37.527979741","long":"126.81415819","imageIndex":7,"items":[{"name":"참맛두부","tel":"032-684-4260","addr":"경기도 부천시 고강동 321-16번지","indutype":"음료식품 - 기타음료식품","category":"food"}]},{"lat":"37.52784026","long":"126.81146605","imageIndex":7,"items":[{"name":"천재축산유통","tel":"032-679-6600","addr":"경기도 부천시 고강동 292번지 1층","indutype":"음료식품 - 정육점","category":"food"},{"name":"청과일","tel":"032-683-6997","addr":"경기도 부천시 고강동 292번지","indutype":"음료식품 - 농·축·수산품","category":"food"}]},{"lat":"37.529227032","long":"126.81663263","imageIndex":7,"items":[{"name":"커피랜드","tel":"02-655-0708","addr":"경기도 부천시 고강동 350번지","indutype":"음료식품 - 기타음료식품","category":"food"}]},{"lat":"37.529005921","long":"126.81356732","imageIndex":7,"items":[{"name":"콩장군 푸드","tel":"","addr":"경기도 부천시 고강동 288-11번지 조흥빌라 201호","indutype":"음료식품 - 기타음료식품","category":"food"}]},{"lat":"37.529838252","long":"126.81571474","imageIndex":7,"items":[{"name":"크루아상","tel":"070-7317-3566","addr":"경기도 부천시 고강동 284-25번지 청담에비뉴제네시스102 102동 102호","indutype":"음료식품 - 제과점","category":"food"}]},{"lat":"37.527950024","long":"126.81248394","imageIndex":7,"items":[{"name":"탕국나라","tel":"070-8289-6861","addr":"경기도 부천시 고강동 310-23번지 1층","indutype":"음료식품 - 기타음료식품","category":"food"},{"name":"탕국나라","tel":"032-8996-6861","addr":"경기도 부천시 고강동 310-23번지 1층","indutype":"음료식품 - 기타음료식품","category":"food"}]},{"lat":"37.526228195","long":"126.81190005","imageIndex":7,"items":[{"name":"태양","tel":"070-8829-6954","addr":"경기도 부천시 고강동 293-22번지 진흥빌라","indutype":"음료식품 - 농·축·수산품","category":"food"}]},{"lat":"37.52556744","long":"126.82140436","imageIndex":7,"items":[{"name":"파리바게뜨(부천고강시장점)","tel":"070-4208-0910","addr":"경기도 부천시 고강동 399번지 대현맨션 1층","indutype":"음료식품 - 제과점","category":"food"}]},{"lat":"37.523701724","long":"126.8152097","imageIndex":7,"items":[{"name":"풍년 농수산물 왕도매소매","tel":"031-211-8331","addr":"경기도 부천시 고강동 338-13번지 1층","indutype":"음료식품 - 농·축·수산품","category":"food"}]},{"lat":"37.528335728","long":"126.81141953","imageIndex":7,"items":[{"name":"풍년건어물","tel":"032-677-5739","addr":"경기도 부천시 고강동 291-6번지 현대주택 A동 101호","indutype":"음료식품 - 농·축·수산품","category":"food"}]},{"lat":"37.527012638","long":"126.81792781","imageIndex":7,"items":[{"name":"픽미 아이스크림 할인점","tel":"","addr":"경기도 부천시 고강동 377-5번지 110호","indutype":"음료식품 - 기타음료식품","category":"food"},{"name":"홍이네반찬","tel":"032-344-6923","addr":"경기도 부천시 고강동 377-5번지 1층 102호","indutype":"음료식품 - 기타음료식품","category":"food"}]},{"lat":"37.526814085","long":"126.81771335","imageIndex":7,"items":[{"name":"한플러스축산물도매센터","tel":"032-673-5055","addr":"경기도 부천시 고강동 376번지 1층","indutype":"음료식품 - 정육점","category":"food"}]},{"lat":"37.534426936","long":"126.81740037","imageIndex":7,"items":[{"name":"해성정육식당","tel":"032-679-1114","addr":"경기도 부천시 고강동 30번지","indutype":"음료식품 - 정육점","category":"food"}]},{"lat":"37.527426878","long":"126.81779103","imageIndex":7,"items":[{"name":"햇살가득한집","tel":"070-8175-4328","addr":"경기도 부천시 고강동 377번지 1층","indutype":"음료식품 - 농·축·수산품","category":"food"}]},{"lat":"37.529480985","long":"126.81203883","imageIndex":7,"items":[{"name":"행복캐터링","tel":"031-000-0000","addr":"경기도 부천시 고강동 290-1번지 거성맨션 501호","indutype":"음료식품 - 기타음료식품","category":"food"}]},{"lat":"37.52530997","long":"126.82390507","imageIndex":7,"items":[{"name":"헨젤과그레텔","tel":"032-682-8914","addr":"경기도 부천시 고강동 416-1번지 1층 일부","indutype":"음료식품 - 제과점","category":"food"}]},{"lat":"37.528147748","long":"126.81217798","imageIndex":7,"items":[{"name":"현대야채","tel":"032-681-5811","addr":"경기도 부천시 고강동 311-34번지","indutype":"음료식품 - 농·축·수산품","category":"food"}]},{"lat":"37.527702113","long":"126.81521099","imageIndex":7,"items":[{"name":"홍성축산","tel":"032-675-6979","addr":"경기도 부천시 고강동 470제1층","indutype":"음료식품 - 정육점","category":"food"}]},{"lat":"37.527952078","long":"126.8137623","imageIndex":7,"items":[{"name":"황금축산","tel":"032-678-4300","addr":"경기도 부천시 고강동 321-1번지 1층","indutype":"음료식품 - 정육점","category":"food"}]},{"lat":"37.527234991","long":"126.82187546","imageIndex":7,"items":[{"name":"횡성한우전문점","tel":"032-673-0195","addr":"경기도 부천시 고강동 395-4번지","indutype":"음료식품 - 정육점","category":"food"}]}]