[{"lat":"37.621222368","long":"126.89247636","imageIndex":4,"items":[{"name":"거성영양탕","tel":"02-354-4149","addr":"경기도 고양시 덕양구 용두동","indutype":"일반휴게음식 - 일반한식","category":"restaurant"}]},{"lat":"37.62702809","long":"126.89622867","imageIndex":4,"items":[{"name":"경성빵공장/리앤권홀딩스 (주)고양지점","tel":"02-356-7826","addr":"경기도 고양시 덕양구 용두동 432-381번지","indutype":"일반휴게음식 - 서양음식","category":"restaurant"}]},{"lat":"37.622776625","long":"126.88784116","imageIndex":4,"items":[{"name":"고향맛집","tel":"02-354-3030","addr":"경기도 고양시 덕양구 용두동 349번지","indutype":"일반휴게음식 - 일반한식","category":"restaurant"}]},{"lat":"37.628326381","long":"126.88759472","imageIndex":4,"items":[{"name":"곽산","tel":"02-358-5512","addr":"경기도 고양시 덕양구 용두동 432-20번지","indutype":"일반휴게음식 - 일반한식","category":"restaurant"}]},{"lat":"37.627279094","long":"126.89483496","imageIndex":4,"items":[{"name":"김가네식당","tel":"02-388-7175","addr":"경기도 고양시 덕양구 용두동 432-77번지","indutype":"일반휴게음식 - 스넥","category":"restaurant"}]},{"lat":"37.628802111","long":"126.88578146","imageIndex":4,"items":[{"name":"나인블럭 서오릉점/(주)에스디인터내셔날","tel":"02-388-8812","addr":"경기도 고양시 덕양구 용두동 432-181번지","indutype":"일반휴게음식 - 일반한식","category":"restaurant"},{"name":"톰스비스트로","tel":"02-358-2480","addr":"경기도 고양시 덕양구 용두동 432-181번지","indutype":"일반휴게음식 - 서양음식","category":"restaurant"}]},{"lat":"37.631076304","long":"126.88058938","imageIndex":4,"items":[{"name":"내사랑동까스","tel":"02-353-3350","addr":"경기도 고양시 덕양구 용두동 622-12번지","indutype":"일반휴게음식 - 일반한식","category":"restaurant"}]},{"lat":"37.623884334","long":"126.88734105","imageIndex":4,"items":[{"name":"노띵커피","tel":"070-4410-7404","addr":"경기도 고양시 덕양구 용두동 285-9번지","indutype":"일반휴게음식 - 일반한식","category":"restaurant"}]},{"lat":"37.619997017","long":"126.9025365","imageIndex":4,"items":[{"name":"녹원생선굼터","tel":"02-353-6886","addr":"경기도 고양시 덕양구 용두동 1-48번지","indutype":"일반휴게음식 - 일반한식","category":"restaurant"},{"name":"명희네어탕","tel":"02-353-6886","addr":"경기도 고양시 덕양구 용두동 1-48번지","indutype":"일반휴게음식 - 일반한식","category":"restaurant"}]},{"lat":"37.625578766","long":"126.89761273","imageIndex":4,"items":[{"name":"능원가든","tel":"02-355-7767","addr":"경기도 고양시 덕양구 용두동 432-102번지","indutype":"일반휴게음식 - 일반한식","category":"restaurant"},{"name":"달카페","tel":"02-359-8808","addr":"경기도 고양시 덕양구 용두동 432-102번지","indutype":"일반휴게음식 - 서양음식","category":"restaurant"}]},{"lat":"37.627969221","long":"126.8909484","imageIndex":4,"items":[{"name":"돈까스클럽(서오릉점)","tel":"02-939-0011","addr":"경기도 고양시 덕양구 용두동 432-32번지","indutype":"일반휴게음식 - 일반한식","category":"restaurant"},{"name":"민속가든","tel":"031-352-7670","addr":"경기도 고양시 덕양구 용두동 432-32번지","indutype":"일반휴게음식 - 일반한식","category":"restaurant"}]},{"lat":"37.626271651","long":"126.89664888","imageIndex":4,"items":[{"name":"동해숯불갈비","tel":"02-359-1778","addr":"경기도 고양시 덕양구 용두동 432-94번지","indutype":"일반휴게음식 - 일반한식","category":"restaurant"}]},{"lat":"37.626577951","long":"126.89661446","imageIndex":4,"items":[{"name":"두부마을","tel":"02-386-4426","addr":"경기도 고양시 덕양구 용두동 432-92번지","indutype":"일반휴게음식 - 일반한식","category":"restaurant"}]},{"lat":"37.627914451","long":"126.89020083","imageIndex":4,"items":[{"name":"란주칼면","tel":"02-351-3111","addr":"경기도 고양시 덕양구 용두동 432-30번지","indutype":"일반휴게음식 - 중국식","category":"restaurant"}]},{"lat":"37.626720875","long":"126.8952549","imageIndex":4,"items":[{"name":"메종","tel":"02-357-7525","addr":"경기도 고양시 덕양구 용두동 432-124번지","indutype":"일반휴게음식 - 서양음식","category":"restaurant"}]},{"lat":"37.623466407","long":"126.8838415","imageIndex":4,"items":[{"name":"명가조림","tel":"031-739-8989","addr":"경기도 고양시 덕양구 용두동 258-1번지","indutype":"일반휴게음식 - 일반한식","category":"restaurant"}]},{"lat":"37.624723164","long":"126.89797642","imageIndex":4,"items":[{"name":"미소복원조양평해장국","tel":"031-836-5057","addr":"경기도 고양시 덕양구 용두동 432-213번지","indutype":"일반휴게음식 - 일반한식","category":"restaurant"}]},{"lat":"37.627719601","long":"126.89378081","imageIndex":4,"items":[{"name":"바다향왕코다리서오릉점","tel":"02-356-5898","addr":"경기도 고양시 덕양구 용두동 432-63번지","indutype":"일반휴게음식 - 일반한식","category":"restaurant"}]},{"lat":"37.624636153","long":"126.88234439","imageIndex":4,"items":[{"name":"밥차마루","tel":"02-3143-1277","addr":"경기도 고양시 덕양구 용두동 390-2번지","indutype":"일반휴게음식 - 일반한식","category":"restaurant"}]},{"lat":"37.630384468","long":"126.88244839","imageIndex":4,"items":[{"name":"벌말뚝배기보신탕","tel":"02-388-9254","addr":"경기도 고양시 덕양구 용두동 438-3번지","indutype":"일반휴게음식 - 일반한식","category":"restaurant"}]},{"lat":"37.623857172","long":"126.88720516","imageIndex":4,"items":[{"name":"별미밥집","tel":"02-385-5075","addr":"경기도 고양시 덕양구 용두동 285번지","indutype":"일반휴게음식 - 일반한식","category":"restaurant"}]},{"lat":"37.62496811","long":"126.89003536","imageIndex":4,"items":[{"name":"보금자리","tel":"02-357-8004","addr":"경기도 고양시 덕양구 용두동 361-102번지","indutype":"일반휴게음식 - 일반한식","category":"restaurant"}]},{"lat":"37.624077204","long":"126.89114681","imageIndex":4,"items":[{"name":"북촌조선탕반","tel":"02-583-2900","addr":"경기도 고양시 덕양구 용두동 326-4번지","indutype":"일반휴게음식 - 일반한식","category":"restaurant"}]},{"lat":"37.621023129","long":"126.90136842","imageIndex":4,"items":[{"name":"샘이깊은물/올리","tel":"02-3403-7868","addr":"경기도 고양시 덕양구 용두동 1-5번지","indutype":"일반휴게음식 - 서양음식","category":"restaurant"}]},{"lat":"37.625974177","long":"126.89647939","imageIndex":4,"items":[{"name":"샬롬카페","tel":"031-000-0000","addr":"경기도 고양시 덕양구 용두동 432-114번지","indutype":"일반휴게음식 - 서양음식","category":"restaurant"}]},{"lat":"37.627639161","long":"126.89448327","imageIndex":4,"items":[{"name":"서가낙지","tel":"02-388-6330","addr":"경기도 고양시 덕양구 용두동 432-71번지","indutype":"일반휴게음식 - 일반한식","category":"restaurant"}]},{"lat":"37.627854316","long":"126.89331616","imageIndex":4,"items":[{"name":"서오능남원추어탕","tel":"02-352-3555","addr":"경기도 고양시 덕양구 용두동 432-57번지","indutype":"일반휴게음식 - 일반한식","category":"restaurant"}]},{"lat":"37.624356249","long":"126.88175581","imageIndex":4,"items":[{"name":"서오능한식부페","tel":"02-352-2333","addr":"경기도 고양시 덕양구 용두동 394-4번지","indutype":"일반휴게음식 - 일반한식","category":"restaurant"}]},{"lat":"37.62547075","long":"126.89772616","imageIndex":4,"items":[{"name":"서오릉산책","tel":"02-384-1178","addr":"경기도 고양시 덕양구 용두동 432-171번지","indutype":"일반휴게음식 - 서양음식","category":"restaurant"}]},{"lat":"37.625383248","long":"126.89075971","imageIndex":4,"items":[{"name":"서오릉숯불생선구이","tel":"02-382-9292","addr":"경기도 고양시 덕양구 용두동 361-177번지","indutype":"일반휴게음식 - 일반한식","category":"restaurant"}]},{"lat":"37.625410062","long":"126.89053311","imageIndex":4,"items":[{"name":"서오릉코다리","tel":"02-357-7740","addr":"경기도 고양시 덕양구 용두동 361-257번지","indutype":"일반휴게음식 - 일반한식","category":"restaurant"}]},{"lat":"37.619862198","long":"126.90292179","imageIndex":4,"items":[{"name":"서오릉풍천민물장어","tel":"02-356-7792","addr":"경기도 고양시 덕양구 용두동 1-12번지","indutype":"일반휴게음식 - 일반한식","category":"restaurant"}]},{"lat":"37.620111215","long":"126.89914958","imageIndex":4,"items":[{"name":"서호영지가든","tel":"02-384-0706","addr":"경기도 고양시 덕양구 용두동 2-25번지","indutype":"일반휴게음식 - 일반한식","category":"restaurant"}]},{"lat":"37.62024869","long":"126.8918095","imageIndex":4,"items":[{"name":"소풍","tel":"031-1111-1111","addr":"경기도 고양시 덕양구 용두동 111번지","indutype":"일반휴게음식 - 일반한식","category":"restaurant"}]},{"lat":"37.619663396","long":"126.90223112","imageIndex":4,"items":[{"name":"시골마루","tel":"02-336-5292","addr":"경기도 고양시 덕양구 용두동 1-2번지","indutype":"일반휴게음식 - 일반한식","category":"restaurant"}]},{"lat":"37.627361173","long":"126.89592234","imageIndex":4,"items":[{"name":"연","tel":"02-355-4555","addr":"경기도 고양시 덕양구 용두동 432-75번지","indutype":"일반휴게음식 - 일반한식","category":"restaurant"}]},{"lat":"37.620113806","long":"126.90213989","imageIndex":4,"items":[{"name":"열두마당","tel":"02-354-4545","addr":"경기도 고양시 덕양구 용두동 1-9번지","indutype":"일반휴게음식 - 일반한식","category":"restaurant"}]},{"lat":"37.619888775","long":"126.90238939","imageIndex":4,"items":[{"name":"예원정","tel":"02-354-9600","addr":"경기도 고양시 덕양구 용두동 1-47번지","indutype":"일반휴게음식 - 일반한식","category":"restaurant"}]},{"lat":"37.623805184","long":"126.89912179","imageIndex":4,"items":[{"name":"오복미역서오릉점","tel":"02-384-0055","addr":"경기도 고양시 덕양구 용두동 2-56번지","indutype":"일반휴게음식 - 일반한식","category":"restaurant"}]},{"lat":"37.625299666","long":"126.89783968","imageIndex":4,"items":[{"name":"왕릉일가","tel":"02-386-8600","addr":"경기도 고양시 덕양구 용두동 432-103번지","indutype":"일반휴게음식 - 일반한식","category":"restaurant"}]},{"lat":"37.62372167","long":"126.88684289","imageIndex":4,"items":[{"name":"우온인안","tel":"02-389-1311","addr":"경기도 고양시 덕양구 용두동 280-1번지","indutype":"일반휴게음식 - 일반한식","category":"restaurant"}]},{"lat":"37.629332611","long":"126.88470443","imageIndex":4,"items":[{"name":"일산칼국수","tel":"02-382-6957","addr":"경기도 고양시 덕양구 용두동 433-5번지","indutype":"일반휴게음식 - 일반한식","category":"restaurant"}]},{"lat":"37.622524947","long":"126.88845323","imageIndex":4,"items":[{"name":"장금이감자탕","tel":"02-356-8841","addr":"경기도 고양시 덕양구 용두동 347-31번지","indutype":"일반휴게음식 - 일반한식","category":"restaurant"}]},{"lat":"37.626001451","long":"126.89675122","imageIndex":4,"items":[{"name":"장수수제갈비","tel":"02-386-2898","addr":"경기도 고양시 덕양구 용두동 432-115번지","indutype":"일반휴게음식 - 일반한식","category":"restaurant"}]},{"lat":"37.626305795","long":"126.8945645","imageIndex":4,"items":[{"name":"전라도집","tel":"02-354-7598","addr":"경기도 고양시 덕양구 용두동 432-48번지","indutype":"일반휴게음식 - 일반한식","category":"restaurant"}]},{"lat":"37.627000609","long":"126.89573028","imageIndex":4,"items":[{"name":"전주콩뿌리콩나물국밥","tel":"02-356-0766","addr":"경기도 고양시 덕양구 용두동 432-81번지","indutype":"일반휴게음식 - 일반한식","category":"restaurant"}]},{"lat":"37.618557668","long":"126.89483626","imageIndex":4,"items":[{"name":"정아농원(신관)","tel":"02-387-9252","addr":"경기도 고양시 덕양구 용두동 33-2번지","indutype":"일반휴게음식 - 일반한식","category":"restaurant"}]},{"lat":"37.626055886","long":"126.89717027","imageIndex":4,"items":[{"name":"제일숯불갈비","tel":"02-385-7116","addr":"경기도 고양시 덕양구 용두동 432-111번지","indutype":"일반휴게음식 - 일반한식","category":"restaurant"}]},{"lat":"37.63027627","long":"126.88236927","imageIndex":4,"items":[{"name":"종점식당","tel":"02-388-8627","addr":"경기도 고양시 덕양구 용두동 436-6번지","indutype":"일반휴게음식 - 일반한식","category":"restaurant"}]},{"lat":"37.625383431","long":"126.89095228","imageIndex":4,"items":[{"name":"주식회사정현푸드시스템","tel":"02-389-8245","addr":"경기도 고양시 덕양구 용두동 361-285번지","indutype":"일반휴게음식 - 일반한식","category":"restaurant"}]},{"lat":"37.625302211","long":"126.88169763","imageIndex":4,"items":[{"name":"창릉면옥","tel":"02-306-0058","addr":"경기도 고양시 덕양구 용두동 397-4번지","indutype":"일반휴게음식 - 일반한식","category":"restaurant"}]},{"lat":"37.626999001","long":"126.89397444","imageIndex":4,"items":[{"name":"최고집 칼국수","tel":"031-384-1223","addr":"경기도 고양시 덕양구 용두동 432-69번지","indutype":"일반휴게음식 - 일반한식","category":"restaurant"}]},{"lat":"37.627108798","long":"126.89580942","imageIndex":4,"items":[{"name":"탕 196","tel":"02-356-7752","addr":"경기도 고양시 덕양구 용두동 432-378번지","indutype":"일반휴게음식 - 일반한식","category":"restaurant"}]},{"lat":"37.627831871","long":"126.888649","imageIndex":4,"items":[{"name":"통일동산두부마을","tel":"02-388-6644","addr":"경기도 고양시 덕양구 용두동 432-194번지","indutype":"일반휴게음식 - 일반한식","category":"restaurant"}]},{"lat":"37.620663235","long":"126.90194659","imageIndex":4,"items":[{"name":"포레스트피크닉","tel":"","addr":"경기도 고양시 덕양구 용두동 1-18번지","indutype":"일반휴게음식 - 서양음식","category":"restaurant"}]},{"lat":"37.630663294","long":"126.88198347","imageIndex":4,"items":[{"name":"하우스36.5카페/(주)하우스삼십육점오","tel":"031-000-0000","addr":"경기도 고양시 덕양구 용두동 610-21번지","indutype":"일반휴게음식 - 서양음식","category":"restaurant"}]},{"lat":"37.620718961","long":"126.89370042","imageIndex":4,"items":[{"name":"한국전통비빔밥","tel":"02-386-7575","addr":"경기도 고양시 덕양구 용두동 19-10번지","indutype":"일반휴게음식 - 일반한식","category":"restaurant"}]},{"lat":"37.62010594","long":"126.88400544","imageIndex":4,"items":[{"name":"한스클럽","tel":"02-777-9964","addr":"경기도 고양시 덕양구 용두동 174번지","indutype":"일반휴게음식 - 일반한식","category":"restaurant"}]},{"lat":"37.627439109","long":"126.89250115","imageIndex":4,"items":[{"name":"한우만","tel":"02-382-2775","addr":"경기도 고양시 덕양구 용두동 432-40번지","indutype":"일반휴게음식 - 일반한식","category":"restaurant"}]},{"lat":"37.625528058","long":"126.89145049","imageIndex":4,"items":[{"name":"해신명가숯불맛","tel":"031-353-5270","addr":"경기도 고양시 덕양구 용두동 361-94번지","indutype":"일반휴게음식 - 일반한식","category":"restaurant"}]}]