[{"lat":"37.953296773","long":"127.23965652","imageIndex":9,"items":[{"name":"경기종합가스","tel":"031-534-6100","addr":"경기도 포천시 신북면 만세교리 364번지","indutype":"연료판매점 - LPG 취급점","category":"oil"}]},{"lat":"37.963965084","long":"127.24777026","imageIndex":9,"items":[{"name":"행복한주유소","tel":"031-531-3455","addr":"경기도 포천시 신북면 만세교리 46-1번지","indutype":"연료판매점 - SK주유소","category":"oil"}]},{"lat":"37.954349836","long":"127.24016054","imageIndex":17,"items":[{"name":"경윤시스템","tel":"031-531-9161","addr":"경기도 포천시 신북면 만세교리 264-3번지","indutype":"전기제품 - 기타전기제품","category":"other"}]},{"lat":"37.948768859","long":"127.23779888","imageIndex":17,"items":[{"name":"경화상사","tel":"031-834-1443","addr":"경기도 포천시 신북면 만세교리 325번지 2층","indutype":"용역 서비스 - 기타용역서비스","category":"other"},{"name":"진흥상사","tel":"031-531-0948","addr":"경기도 포천시 신북면 만세교리 325번지","indutype":"기타 - 기계공구","category":"other"}]},{"lat":"37.957436058","long":"127.24210482","imageIndex":17,"items":[{"name":"광진건설산업","tel":"031-535-0490","addr":"경기도 포천시 신북면 만세교리 220-10번지","indutype":"용역 서비스 - 기타용역서비스","category":"other"},{"name":"광진상사","tel":"535-0490","addr":"경기도 포천시 신북면 만세교리 220-10번지","indutype":"소매업 - 안전용품","category":"other"}]},{"lat":"37.959154672","long":"127.24315724","imageIndex":17,"items":[{"name":"금강토시","tel":"031-534-0695","addr":"경기도 포천시 신북면 만세교리 238번지","indutype":"문화.취미 - 골동품점","category":"other"}]},{"lat":"37.953962786","long":"127.23998862","imageIndex":17,"items":[{"name":"대성 ENG","tel":"534-2759","addr":"경기도 포천시 신북면 만세교리 264-8번지","indutype":"도소매 - 공구 등","category":"other"},{"name":"대성ENG","tel":"070-8811-6088","addr":"경기도 포천시 신북면 만세교리 264-8번지","indutype":"기타 - 기계공구","category":"other"}]},{"lat":"37.958604091","long":"127.24365611","imageIndex":17,"items":[{"name":"만세종합주방그룻","tel":"031-534-5250","addr":"경기도 포천시 신북면 만세교리 219-9번지","indutype":"기타 - 기타 전문점","category":"other"},{"name":"만세종합주방그릇","tel":"534-5250","addr":"경기도 포천시 신북면 만세교리 219-9번지","indutype":"도소매 - 주방가구","category":"other"}]},{"lat":"37.964853757","long":"127.24932085","imageIndex":17,"items":[{"name":"만세편의점","tel":"534-5347","addr":"경기도 포천시 신북면 만세교리 48-2번지","indutype":"소매업 - 잡화","category":"other"},{"name":"만세편의점","tel":"031-534-8411","addr":"경기도 포천시 신북면 만세교리 48-2번지","indutype":"유통업 영리 - 편 의 점","category":"other"}]},{"lat":"37.954549229","long":"127.23956952","imageIndex":17,"items":[{"name":"월드종합","tel":"031-534-7800","addr":"경기도 포천시 신북면 만세교리 365번지","indutype":"건축자재 - 목재·석재·철물","category":"other"}]},{"lat":"37.950019039","long":"127.23884959","imageIndex":17,"items":[{"name":"이마트24포천만세교지점","tel":"-","addr":"경기도 포천시 신북면 만세교리 328-3번지 가동","indutype":"편의점 - 잡화","category":"other"}]},{"lat":"37.957987588","long":"127.24554296","imageIndex":17,"items":[{"name":"제일파트너","tel":"02-466-2812","addr":"경기도 포천시 신북면 만세교리 219-22","indutype":"직물 - 침구·수예점","category":"other"}]},{"lat":"37.948800331","long":"127.24007443","imageIndex":17,"items":[{"name":"주식회사 한마당","tel":"031-534-9601","addr":"경기도 포천시 신북면 만세교리 314-8번지","indutype":"가구 - 일반가구","category":"other"}]},{"lat":"37.960186968","long":"127.24499262","imageIndex":17,"items":[{"name":"진흥판넬","tel":"031-534-5621","addr":"경기도 포천시 신북면 만세교리 198-2","indutype":"건축자재 - 기타건축자재","category":"other"},{"name":"포천황토마을","tel":"031-531-9406","addr":"경기도 포천시 신북면 만세교리 198-2번지","indutype":"건축자재 - 기타건축자재","category":"other"}]},{"lat":"37.958181917","long":"127.24304029","imageIndex":17,"items":[{"name":"포천페인트총판점","tel":"533-0472","addr":"경기도 포천시 신북면 만세교리 220-3번지","indutype":"도소매 - 페인트","category":"other"}]},{"lat":"37.952271785","long":"127.23862924","imageIndex":17,"items":[{"name":"한성아그로텍","tel":"031-534-6867","addr":"경기도 포천시 신북면 만세교리 361-2번지","indutype":"농업 - 기타농업관련","category":"other"}]},{"lat":"37.956824683","long":"127.2414884","imageIndex":17,"items":[{"name":"환경그린텍","tel":"031-534-5342","addr":"경기도 포천시 신북면 만세교리 235","indutype":"기타 - 기타 전문점","category":"other"}]},{"lat":"37.954349836","long":"127.24016054","imageIndex":4,"items":[{"name":"곰이 빠진탕","tel":"031-533-0208","addr":"경기도 포천시 신북면 만세교리 264-3번지","indutype":"일반휴게음식 - 일반한식","category":"restaurant"}]},{"lat":"37.958047174","long":"127.24284641","imageIndex":4,"items":[{"name":"만세식당","tel":"532-7227","addr":"경기도 포천시 신북면 만세교리 220번지","indutype":"음식 - 한식","category":"restaurant"},{"name":"만세식당","tel":"031-532-7227","addr":"경기도 포천시 신북면 만세교리 220번지","indutype":"일반휴게음식 - 일반한식","category":"restaurant"}]},{"lat":"37.964853757","long":"127.24932085","imageIndex":4,"items":[{"name":"만세치킨","tel":"031-534-5347","addr":"경기도 포천시 신북면 만세교리 48-2번지","indutype":"일반휴게음식 - 스넥","category":"restaurant"}]},{"lat":"37.951936596","long":"127.23954976","imageIndex":4,"items":[{"name":"목포가든","tel":"031-533-3309","addr":"경기도 포천시 신북면 만세교리 330번지","indutype":"일반휴게음식 - 일반한식","category":"restaurant"},{"name":"목포가든","tel":"533-3309","addr":"경기도 포천시 신북면 만세교리 330번지","indutype":"음식 - 한식","category":"restaurant"}]},{"lat":"37.950019039","long":"127.23884959","imageIndex":4,"items":[{"name":"무봉리토종순대국포천신북점","tel":"534-3357","addr":"경기도 포천시 신북면 만세교리 328-3번지 나동","indutype":"음식 - 한식","category":"restaurant"}]},{"lat":"37.949128839","long":"127.23799344","imageIndex":4,"items":[{"name":"솔로몬한식부페","tel":"031-532-5516","addr":"경기도 포천시 신북면 만세교리 326-3번지","indutype":"일반휴게음식 - 일반한식","category":"restaurant"}]},{"lat":"37.964494439","long":"127.24881894","imageIndex":4,"items":[{"name":"엄마손식당","tel":"031-543-2221","addr":"경기도 포천시 신북면 만세교리 45-6번지","indutype":"일반휴게음식 - 일반한식","category":"restaurant"}]},{"lat":"37.964074471","long":"127.24715612","imageIndex":4,"items":[{"name":"자유궁","tel":"031-542-8874","addr":"경기도 포천시 신북면 만세교리 47-14번지","indutype":"일반휴게음식 - 일반한식","category":"restaurant"}]},{"lat":"37.95893715","long":"127.24379375","imageIndex":4,"items":[{"name":"차이나","tel":"533-4293","addr":"경기도 포천시 신북면 만세교리 219-10번지","indutype":"음식 - 중식","category":"restaurant"}]},{"lat":"37.948768859","long":"127.23779888","imageIndex":4,"items":[{"name":"한방삼계탕","tel":"543-7507","addr":"경기도 포천시 신북면 만세교리 325번지","indutype":"음식 - 한식","category":"restaurant"},{"name":"한방삼계탕","tel":"031-543-7507","addr":"경기도 포천시 신북면 만세교리 325번지","indutype":"일반휴게음식 - 일반한식","category":"restaurant"}]},{"lat":"37.963903982","long":"127.24682555","imageIndex":5,"items":[{"name":"라스베가스","tel":"031-534-9097","addr":"경기도 포천시 신북면 만세교리 47-5번지","indutype":"숙박업 - 여관/기타숙박업","category":"hotel"},{"name":"라스베가스","tel":"031-531-9097","addr":"경기도 포천시 신북면 만세교리 47-5번지","indutype":"숙박업 - 여관/기타숙박업","category":"hotel"}]},{"lat":"37.958711408","long":"127.24404334","imageIndex":5,"items":[{"name":"렉스모텔","tel":"031-532-3695","addr":"경기도 포천시 신북면 만세교리 219-8번지","indutype":"숙박업 - 여관/기타숙박업","category":"hotel"}]},{"lat":"37.953962786","long":"127.23998862","imageIndex":7,"items":[{"name":"매일우유 철원가정대리점","tel":"031-532-7506","addr":"경기도 포천시 신북면 만세교리 264-8","indutype":"음료식품 - 기타음료식품","category":"food"}]},{"lat":"37.951576413","long":"127.23945758","imageIndex":0,"items":[{"name":"신동부자동차공업사","tel":"","addr":"경기도 포천시 신북면 만세교리 307-1번지","indutype":"서비스 - 자동차 수리","category":"car"},{"name":"신동부자동차공업사","tel":"031-532-7852","addr":"경기도 포천시 신북면 만세교리 307-1번지","indutype":"자동차정비 유지 - 자동차시트·타이어","category":"car"},{"name":"신동부자동차공업사","tel":"031-532-7851","addr":"경기도 포천시 신북면 만세교리 307-1번지","indutype":"자동차정비 유지 - 자동차정비","category":"car"}]},{"lat":"37.949488615","long":"127.2382904","imageIndex":0,"items":[{"name":"제일자동차공업사","tel":"031-531-5529","addr":"경기도 포천시 신북면 만세교리 326-9","indutype":"자동차정비 유지 - 자동차정비","category":"car"}]},{"lat":"37.964074471","long":"127.24715612","imageIndex":0,"items":[{"name":"타이어방","tel":"031-532-4212","addr":"경기도 포천시 신북면 만세교리 47-14번지","indutype":"자동차정비 유지 - 자동차시트·타이어","category":"car"}]},{"lat":"37.958410751","long":"127.25843641","imageIndex":13,"items":[{"name":"힐링하트","tel":"031-533-5600","addr":"경기도 포천시 신북면 만세교리 7-1번지","indutype":"레저업소 - 기타레져업소","category":"leisure"}]}]