[{"lat":"37.076089975","long":"126.91430088","imageIndex":17,"items":[{"name":"(주) 윈글라스","tel":"031-357-2107","addr":"경기도 화성시 양감면 요당리 712번지","indutype":"건축자재 - 유리","category":"other"},{"name":"(주)토도시스템코리아","tel":"031-000-0000","addr":"경기도 화성시 양감면 요당리 712번지","indutype":"건축자재 - 기타건축자재","category":"other"},{"name":"디엘(DL)","tel":"031-354-9862","addr":"경기도 화성시 양감면 요당리 712번지","indutype":"건축자재 - 기타건축자재","category":"other"}]},{"lat":"37.067093368","long":"126.93557414","imageIndex":17,"items":[{"name":"(주)몽크로스레져","tel":"","addr":"경기도 화성시 양감면 요당리 130-5번지","indutype":"레져용품 - 스포츠·레져용품","category":"other"}]},{"lat":"37.073403162","long":"126.93990919","imageIndex":17,"items":[{"name":"(주)이피엘이디","tel":"031-354-1131","addr":"경기도 화성시 양감면 요당리 3-5번지 2층","indutype":"건축자재 - 조명기구","category":"other"}]},{"lat":"37.069981498","long":"126.91524129","imageIndex":17,"items":[{"name":"cafe espresso 편의점","tel":"031-353-6004","addr":"경기도 화성시 양감면 요당리 346-6번지","indutype":"유통업 영리 - 편 의 점","category":"other"}]},{"lat":"37.075152522","long":"126.91382966","imageIndex":17,"items":[{"name":"개미천막기업","tel":"031-354-0485","addr":"경기도 화성시 양감면 요당리 712-4번지","indutype":"직물 - 카페트,커튼,천막,지물","category":"other"},{"name":"부민건설 주식회사","tel":"031-353-8568","addr":"경기도 화성시 양감면 요당리 712-4번지 2층","indutype":"용역 서비스 - 기타용역서비스","category":"other"}]},{"lat":"37.074783849","long":"126.92796549","imageIndex":17,"items":[{"name":"대성CH","tel":"031-354-9388","addr":"경기도 화성시 양감면 요당리 516-28번지 1동","indutype":"기타 - 기계공구","category":"other"},{"name":"판도코리아","tel":"031-111-1111","addr":"경기도 화성시 양감면 요당리 516-28번지","indutype":"기타 - 기계공구","category":"other"}]},{"lat":"37.071286703","long":"126.94187879","imageIndex":17,"items":[{"name":"동원유리제경","tel":"031-359-9391","addr":"경기도 화성시 양감면 요당리 19-40번지 L동","indutype":"건축자재 - 유리","category":"other"}]},{"lat":"37.070097421","long":"126.94210463","imageIndex":17,"items":[{"name":"성호테크","tel":"031-353-6722","addr":"경기도 화성시 양감면 요당리 75-27","indutype":"건축자재 - 목재·석재·철물","category":"other"}]},{"lat":"37.077287331","long":"126.91290502","imageIndex":17,"items":[{"name":"세븐일레븐화성요당점","tel":"","addr":"경기도 화성시 양감면 요당리 602-1번지 외1필지","indutype":"유통업 영리 - 편 의 점","category":"other"}]},{"lat":"37.066368254","long":"126.91524545","imageIndex":17,"items":[{"name":"승민산업벤딩","tel":"031-8059-6366","addr":"경기도 화성시 양감면 요당리 338-5","indutype":"기타 - 기계공구","category":"other"}]},{"lat":"37.066320196","long":"126.93871193","imageIndex":17,"items":[{"name":"승일레져","tel":"031-453-8876","addr":"경기도 화성시 양감면 요당리 110-26","indutype":"레져용품 - 스포츠·레져용품","category":"other"}]},{"lat":"37.076592521","long":"126.91160135","imageIndex":17,"items":[{"name":"유일콘크리트","tel":"031-354-2923","addr":"경기도 화성시 양감면 요당리 603-8번지","indutype":"건축자재 - 기타건축자재","category":"other"}]},{"lat":"37.065121199","long":"126.93763352","imageIndex":17,"items":[{"name":"이마트24 양감공단점","tel":"","addr":"경기도 화성시 양감면 요당리 110-54번지","indutype":"유통업 영리 - 편 의 점","category":"other"}]},{"lat":"37.074537685","long":"126.93840138","imageIndex":17,"items":[{"name":"정석건축천막","tel":"031-353-8577","addr":"경기도 화성시 양감면 요당리 9-1번지","indutype":"직물 - 카페트,커튼,천막,지물","category":"other"}]},{"lat":"37.077423371","long":"126.91407441","imageIndex":17,"items":[{"name":"제일빠우","tel":"031-352-2994","addr":"경기도 화성시 양감면 요당리 587-10번지","indutype":"용역 서비스 - 기타용역서비스","category":"other"}]},{"lat":"37.077955723","long":"126.91505218","imageIndex":17,"items":[{"name":"주식회사 엠피엠통상","tel":"070-1111-1111","addr":"경기도 화성시 양감면 요당리 590-1번지","indutype":"건축자재 - 기타건축자재","category":"other"}]},{"lat":"37.062624703","long":"126.93662374","imageIndex":17,"items":[{"name":"주식회사 영일우드","tel":"031-686-5902","addr":"경기도 화성시 양감면 요당리 215-28번지","indutype":"건축자재 - 목재·석재·철물","category":"other"}]},{"lat":"37.077116088","long":"126.91284899","imageIndex":17,"items":[{"name":"주식회사삼성에프엘티","tel":"031-353-1000","addr":"경기도 화성시 양감면 요당리 602-16번지","indutype":"기타 - 기계공구","category":"other"}]},{"lat":"37.077062864","long":"126.91396238","imageIndex":17,"items":[{"name":"한일특수","tel":"","addr":"경기도 화성시 양감면 요당리 582-5번지","indutype":"기타 - 기계공구","category":"other"}]},{"lat":"37.069260751","long":"126.91537705","imageIndex":17,"items":[{"name":"현대물류장비","tel":"031-353-5015","addr":"경기도 화성시 양감면 요당리 341-10번지 A동 101호","indutype":"기타 - 기계공구","category":"other"}]},{"lat":"37.074124706","long":"126.91302121","imageIndex":17,"items":[{"name":"효성천막기업","tel":"031-354-7228","addr":"경기도 화성시 양감면 요당리 490-10번지 A동","indutype":"직물 - 카페트,커튼,천막,지물","category":"other"}]},{"lat":"37.066180184","long":"126.91681983","imageIndex":17,"items":[{"name":"흥부산업","tel":"02-859-5151","addr":"경기도 화성시 양감면 요당리 334번지","indutype":"건축자재 - 목재·석재·철물","category":"other"}]}]