[{"lat":"37.787351349","long":"127.46289306","imageIndex":17,"items":[{"name":"GS25가평산천휴게소점","tel":"","addr":"경기도 가평군 청평면 상천리 142-1번지","indutype":"유통업 영리 - 편 의 점","category":"other"}]},{"lat":"37.766986035","long":"127.44750216","imageIndex":17,"items":[{"name":"GS25청평하나점","tel":"","addr":"경기도 가평군 청평면 상천리 1134번지","indutype":"유통업 영리 - 편 의 점","category":"other"},{"name":"가평연합건기","tel":"031-584-4280","addr":"경기도 가평군 청평면 상천리 1134","indutype":"기타 - 기계공구","category":"other"},{"name":"가평연합건기주식회사","tel":"031-585-7422","addr":"경기도 가평군 청평면 상천리 1134","indutype":"기타 - 기계공구","category":"other"},{"name":"강호중기","tel":"031-585-0555","addr":"경기도 가평군 청평면 상천리 1134","indutype":"기타 - 기계공구","category":"other"}]},{"lat":"37.740796704","long":"127.42006015","imageIndex":17,"items":[{"name":"가평 사랑의 요양원","tel":"031-582-8463","addr":"경기도 가평군 청평면 상천리 228번지","indutype":"기타의료기관 - 기타의료기관 및 기타","category":"other"}]},{"lat":"37.779652875","long":"127.46402587","imageIndex":17,"items":[{"name":"가평계량소","tel":"031-111-1111","addr":"경기도 가평군 청평면 상천리 205","indutype":"용역 서비스 - 사무서비스","category":"other"}]},{"lat":"37.76604609","long":"127.44589631","imageIndex":17,"items":[{"name":"가평연새장례식장","tel":"031-581-4444","addr":"경기도 가평군 청평면 상천리 1148-3번지","indutype":"용역 서비스 - 가례서비스업","category":"other"}]},{"lat":"37.77170859","long":"127.45183207","imageIndex":17,"items":[{"name":"굿윌스토어 청평점","tel":"031-584-9197","addr":"경기도 가평군 청평면 상천리 1722-6번지 1층","indutype":"신변잡화 - 기타잡화","category":"other"},{"name":"캠토리","tel":"031-581-3808","addr":"경기도 가평군 청평면 상천리 1722-6번지","indutype":"레져용품 - 스포츠·레져용품","category":"other"}]},{"lat":"37.768713026","long":"127.44825022","imageIndex":17,"items":[{"name":"니들아트하우스 아트십자수","tel":"031-584-5877","addr":"경기도 가평군 청평면 상천리 1275-21번지 아트십자수","indutype":"직물 - 침구·수예점","category":"other"}]},{"lat":"37.789401973","long":"127.43033496","imageIndex":17,"items":[{"name":"다온도예","tel":"031-585-9947","addr":"경기도 가평군 청평면 상천리 929","indutype":"주방용구 - 주방용식기","category":"other"}]},{"lat":"37.764354226","long":"127.44538687","imageIndex":17,"items":[{"name":"대동공업사","tel":"031-584-1209","addr":"경기도 가평군 청평면 상천리 1140-9번지","indutype":"수리서비스 - 기타수리서비스","category":"other"}]},{"lat":"37.788650487","long":"127.46703344","imageIndex":17,"items":[{"name":"별바우목장 태양광발전소","tel":"031-584-1815","addr":"경기도 가평군 청평면 상천리 115-5번지","indutype":"유통업 영리 - 기타유통업","category":"other"}]},{"lat":"37.766042845","long":"127.44675882","imageIndex":17,"items":[{"name":"본 광고기획","tel":"031-585-1005","addr":"경기도 가평군 청평면 상천리 1139-1번지","indutype":"건축자재 - 인테리어전문","category":"other"}]},{"lat":"37.773543349","long":"127.45735939","imageIndex":17,"items":[{"name":"서진","tel":"031-585-3191","addr":"경기도 가평군 청평면 상천리 3번지","indutype":"레져용품 - 스포츠·레져용품","category":"other"},{"name":"씨유가평상천점","tel":"031-584-4233","addr":"경기도 가평군 청평면 상천리 369-4번지","indutype":"유통업 영리 - 편 의 점","category":"other"}]},{"lat":"37.762327724","long":"127.44039279","imageIndex":17,"items":[{"name":"세븐일레븐가평상천대로점","tel":"","addr":"경기도 가평군 청평면 상천리 1156-4번지 1동3호","indutype":"유통업 영리 - 편 의 점","category":"other"},{"name":"팜독","tel":"070-8733-2582","addr":"경기도 가평군 청평면 상천리 1156-4번지","indutype":"문화.취미 - 애완동물","category":"other"}]},{"lat":"37.784762826","long":"127.46361489","imageIndex":17,"items":[{"name":"수경농원","tel":"031-585-8720","addr":"경기도 가평군 청평면 상천리 187-1","indutype":"문화.취미 - 화원","category":"other"},{"name":"은하수다육","tel":"031-585-8720","addr":"경기도 가평군 청평면 상천리 187-1번지","indutype":"문화.취미 - 화원","category":"other"},{"name":"한지공예 예다움","tel":"031-582-7760","addr":"경기도 가평군 청평면 상천리 187-1번지 한지공예 예다움","indutype":"문화.취미 - 문화취미기타","category":"other"}]},{"lat":"37.779236135","long":"127.43614494","imageIndex":17,"items":[{"name":"수리재공인중개사사무소","tel":"031-585-5440","addr":"경기도 가평군 청평면 상천리 1070-3번지","indutype":"용역 서비스 - 부동산 중개·임대","category":"other"},{"name":"수리제미니편의점","tel":"031-585-5440","addr":"경기도 가평군 청평면 상천리 1070-3번지","indutype":"유통업 영리 - 편 의 점","category":"other"}]},{"lat":"37.787986605","long":"127.42809037","imageIndex":17,"items":[{"name":"아가타","tel":"070-8833-4264","addr":"경기도 가평군 청평면 상천리 1017-2외 9필지","indutype":"회원제형태 - 레져업소","category":"other"}]},{"lat":"37.765215788","long":"127.44627722","imageIndex":17,"items":[{"name":"엠팩토리","tel":"031-000-0000","addr":"경기도 가평군 청평면 상천리 1140-2번지","indutype":"가구 - 일반가구","category":"other"},{"name":"집과정원","tel":"031-585-2686","addr":"경기도 가평군 청평면 상천리 1140-2번지","indutype":"신변잡화 - 기타잡화","category":"other"}]},{"lat":"37.763689531","long":"127.44244359","imageIndex":17,"items":[{"name":"우드빌편의점","tel":"031-585-2810","addr":"경기도 가평군 청평면 상천리 1151-59번지","indutype":"유통업 영리 - 편 의 점","category":"other"}]},{"lat":"37.780098977","long":"127.46514107","imageIndex":17,"items":[{"name":"우리동네중고","tel":"","addr":"경기도 가평군 청평면 상천리 253-5번지","indutype":"전기제품 - 가전제품","category":"other"}]},{"lat":"37.766042118","long":"127.44695175","imageIndex":17,"items":[{"name":"우성우드","tel":"031-585-3233","addr":"경기도 가평군 청평면 상천리 1137번지","indutype":"건축자재 - 목재·석재·철물","category":"other"}]},{"lat":"37.779235072","long":"127.46488596","imageIndex":17,"items":[{"name":"인정세탁소","tel":"031-581-7090","addr":"경기도 가평군 청평면 상천리 258번지 허니문웨딩홀 1층 3호","indutype":"수리서비스 - 세탁소","category":"other"},{"name":"허니문예식장","tel":"031-581-8007","addr":"경기도 가평군 청평면 상천리 258번지","indutype":"용역 서비스 - 혼례서비스","category":"other"}]},{"lat":"37.768438615","long":"127.47025518","imageIndex":17,"items":[{"name":"인투메이드","tel":"02-111-1111","addr":"경기도 가평군 청평면 상천리 1494번지 1층","indutype":"용역 서비스 - 사무서비스","category":"other"}]},{"lat":"37.75787747","long":"127.43539622","imageIndex":17,"items":[{"name":"주식회사 우리컴퍼니","tel":"","addr":"경기도 가평군 청평면 상천리 1136번지","indutype":"-","category":"other"}]},{"lat":"37.771932221","long":"127.45225338","imageIndex":17,"items":[{"name":"주식회사한신환경기업","tel":"031-585-9677","addr":"경기도 가평군 청평면 상천리 1722-10번지","indutype":"기타 - 기타 전문점","category":"other"}]},{"lat":"37.762438459","long":"127.44691886","imageIndex":17,"items":[{"name":"철철이벽난로","tel":"031-584-7001","addr":"경기도 가평군 청평면 상천리 1187-2","indutype":"전기제품 - 냉열기기","category":"other"}]},{"lat":"37.766186357","long":"127.44931323","imageIndex":17,"items":[{"name":"크린시스템","tel":"031-585-7582","addr":"경기도 가평군 청평면 상천리 1226-4번지 101호","indutype":"용역 서비스 - 종합용역","category":"other"}]},{"lat":"37.773516346","long":"127.46200147","imageIndex":17,"items":[{"name":"평원산업","tel":"031-584-0023","addr":"경기도 가평군 청평면 상천리 321-2번지","indutype":"건축자재 - 건축용 요업제품","category":"other"}]},{"lat":"37.76327077","long":"127.44600459","imageIndex":17,"items":[{"name":"포도나무365","tel":"070-7767-1248","addr":"경기도 가평군 청평면 상천리 1171-9번지","indutype":"유통업 영리 - 기타유통업","category":"other"}]},{"lat":"37.775014987","long":"127.45888936","imageIndex":17,"items":[{"name":"푸른조경","tel":"031-584-9777","addr":"경기도 가평군 청평면 상천리 402-1번지","indutype":"건축자재 - 인테리어전문","category":"other"}]},{"lat":"37.791015228","long":"127.465947","imageIndex":17,"items":[{"name":"현우중기","tel":"031-581-8346","addr":"경기도 가평군 청평면 상천리 129번지","indutype":"기타 - 기계공구","category":"other"}]}]