[{"lat":"37.653996592","long":"127.2428279","imageIndex":8,"items":[{"name":"365드림약국","tel":"031-594-3652","addr":"경기도 남양주시 호평동 638번지 성보빌딩 104호","indutype":"약국 - 약국","category":"medical"},{"name":"하나온누리약국","tel":"031-593-2961","addr":"경기도 남양주시 호평동 638번지 성보빌딩 1층 105호","indutype":"약국 - 약국","category":"medical"}]},{"lat":"37.660166937","long":"127.24783429","imageIndex":8,"items":[{"name":"365서울내과의원","tel":"031-593-7516","addr":"경기도 남양주시 호평동 617-1번지 금강프라자 403호","indutype":"의원 - 의원","category":"medical"},{"name":"도담한의원","tel":"031-559-0055","addr":"경기도 남양주시 호평동 617-1번지 금강프라자 304호","indutype":"의원 - 한의원","category":"medical"},{"name":"하얀치과","tel":"031-511-2369","addr":"경기도 남양주시 호평동 617-1번지 금강프라자 4층","indutype":"의원 - 치과의원","category":"medical"},{"name":"호평중앙약국","tel":"031-595-8475","addr":"경기도 남양주시 호평동 617-1번지 금강프라자 104호","indutype":"약국 - 약국","category":"medical"}]},{"lat":"37.655529946","long":"127.25496975","imageIndex":8,"items":[{"name":"K마트약국","tel":"031-595-4703","addr":"경기도 남양주시 호평동 672번지 107호","indutype":"약국 - 약국","category":"medical"}]},{"lat":"37.661975815","long":"127.24882623","imageIndex":8,"items":[{"name":"강남경희한의원","tel":"031-593-1075","addr":"경기도 남양주시 호평동 269-1번지","indutype":"의원 - 한의원","category":"medical"}]},{"lat":"37.659446646","long":"127.24321943","imageIndex":8,"items":[{"name":"경희동가원한의원","tel":"031-559-8875","addr":"경기도 남양주시 호평동 716-8번지","indutype":"의원 - 한의원","category":"medical"}]},{"lat":"37.654417595","long":"127.24403046","imageIndex":8,"items":[{"name":"경희예인한의원","tel":"031-559-7431","addr":"경기도 남양주시 호평동 640-2번지 CH리베로빌딩 4층","indutype":"의원 - 한의원","category":"medical"},{"name":"나비드치과의원","tel":"031-559-7527","addr":"경기도 남양주시 호평동 640-2번지 403(호평동CH리베로1403-1404호)","indutype":"의원 - 치과의원","category":"medical"},{"name":"나비드키즈치과의원","tel":"031-593-0235","addr":"경기도 남양주시 호평동 640-2CH리베로빌딩307호308호","indutype":"의원 - 치과의원","category":"medical"},{"name":"미래약국","tel":"031-591-9104","addr":"경기도 남양주시 호평동 640-2번지 CH리베로빌딩 406호","indutype":"약국 - 약국","category":"medical"},{"name":"서울본정형외과","tel":"031-591-7588","addr":"경기도 남양주시 호평동 640-2번지 CH리베로빌딩 6층 605,606호","indutype":"의원 - 의원","category":"medical"},{"name":"성모안과의원","tel":"031-595-8702","addr":"경기도 남양주시 호평동 640-2번지 CH리베로빌딩 305호","indutype":"의원 - 의원","category":"medical"},{"name":"속편한아산내과의원","tel":"031-592-5101","addr":"경기도 남양주시 호평동 640-2번지 506-508호","indutype":"의원 - 의원","category":"medical"},{"name":"수이비인후과","tel":"031-559-8275","addr":"경기도 남양주시 호평동 640-2 CH리베로 302","indutype":"의원 - 의원","category":"medical"},{"name":"연세마이피부과의원","tel":"031-559-8552","addr":"경기도 남양주시 호평동 640-2 CH리베로1401 402","indutype":"의원 - 의원","category":"medical"},{"name":"우리내과의원","tel":"031-559-9551","addr":"경기도 남양주시 호평동 640-2번지 CH리베로빌딩 307호 306호, 307호","indutype":"의원 - 의원","category":"medical"},{"name":"우리들연합소아청소년과","tel":"031-559-9120","addr":"경기도 남양주시 호평동 640-2번지 ch리베로빌딩 304호","indutype":"의원 - 의원","category":"medical"},{"name":"청담비뇨기과의원 진료과목 피부과","tel":"031-592-3698","addr":"경기도 남양주시 호평동 640-2번지 CH리베로1빌딩 407호","indutype":"의원 - 의원","category":"medical"},{"name":"호평종로약국","tel":"031-594-9731","addr":"경기도 남양주시 호평동 640-2번지 C.H리베로상가 1층 118호","indutype":"약국 - 약국","category":"medical"}]},{"lat":"37.654029231","long":"127.24449382","imageIndex":8,"items":[{"name":"금강한의원","tel":"031-593-9955","addr":"경기도 남양주시 호평동 641-1번지 샤르망프라자 604호","indutype":"의원 - 한의원","category":"medical"},{"name":"연세턱편한치과","tel":"031-591-2842","addr":"경기도 남양주시 호평동 641-1번지 샤르망메디칼프라자 201호,202호","indutype":"의원 - 치과의원","category":"medical"},{"name":"유앤성형외과의원","tel":"031-595-0400","addr":"경기도 남양주시 호평동 641-1번지 샤르망메디칼프라자 503,504호","indutype":"의원 - 의원","category":"medical"},{"name":"제일한의원","tel":"031-511-2275","addr":"경기도 남양주시 호평동 641-1번지 샤르망메디칼프라자 3층 301호,302호","indutype":"의원 - 한의원","category":"medical"}]},{"lat":"37.655003243","long":"127.24402103","imageIndex":8,"items":[{"name":"김인호한의원","tel":"031-595-2862","addr":"경기도 남양주시 호평동 640번지 메인시네마타워 406호","indutype":"의원 - 한의원","category":"medical"},{"name":"밝은성모안과의원","tel":"031-559-9931","addr":"경기도 남양주시 호평동 640번지 호평메인씨네마타워 404호","indutype":"의원 - 의원","category":"medical"},{"name":"석치과의원","tel":"031-592-2830","addr":"경기도 남양주시 호평동 640번지 호평메인씨네마타워 401호","indutype":"의원 - 치과의원","category":"medical"},{"name":"원치과의원","tel":"031-594-4884","addr":"경기도 남양주시 호평동 640번지 호평메인씨네마타워 602호","indutype":"의원 - 치과의원","category":"medical"},{"name":"이상현신경과의원","tel":"031-595-5277","addr":"경기도 남양주시 호평동 640번지 호평메인씨네마타워 508호","indutype":"의원 - 의원","category":"medical"},{"name":"조은미소치과의원","tel":"031-511-2879","addr":"경기도 남양주시 호평동 640번지 메인시네마타워 204호","indutype":"의원 - 치과의원","category":"medical"},{"name":"쥬니어치과의원","tel":"031-592-2837","addr":"경기도 남양주시 호평동 640번지 메인시네마타워 306호","indutype":"의원 - 치과의원","category":"medical"},{"name":"호평박비뇨기과","tel":"031-559-8030","addr":"경기도 남양주시 호평동 640번지 호평메인씨네마타워 408호","indutype":"의원 - 의원","category":"medical"},{"name":"호평성모마취통증의학과의원","tel":"031-592-0505","addr":"경기도 남양주시 호평동 640번지 호평메인씨네마타워 305호","indutype":"의원 - 의원","category":"medical"}]},{"lat":"37.655579905","long":"127.24400023","imageIndex":8,"items":[{"name":"남양주본한의원","tel":"031-559-7511","addr":"경기도 남양주시 호평동 639번지 호평프라자 301호","indutype":"의원 - 한의원","category":"medical"},{"name":"서울삼성치과","tel":"031-592-4040","addr":"경기도 남양주시 호평동 639번지 호평프라자 204호","indutype":"의원 - 치과의원","category":"medical"}]},{"lat":"37.654942256","long":"127.24300093","imageIndex":8,"items":[{"name":"다나소아청소년과의원","tel":"031-593-8270","addr":"경기도 남양주시 호평동 637번지 5층","indutype":"의원 - 의원","category":"medical"}]},{"lat":"37.656195345","long":"127.24702797","imageIndex":8,"items":[{"name":"동인동물병원","tel":"031-592-8275","addr":"경기도 남양주시 호평동 153-7번지","indutype":"기타의료기관 - 동물병원","category":"medical"}]},{"lat":"37.655529207","long":"127.25949134","imageIndex":8,"items":[{"name":"메디약국","tel":"031-593-1902","addr":"경기도 남양주시 호평동 14번지 메디피아 101호","indutype":"약국 - 약국","category":"medical"}]},{"lat":"37.656303061","long":"127.24722098","imageIndex":8,"items":[{"name":"사랑심는치과","tel":"031-591-9691","addr":"경기도 남양주시 호평동 165-4번지 4층","indutype":"의원 - 치과의원","category":"medical"},{"name":"호평이화약국","tel":"031-559-0856","addr":"경기도 남양주시 호평동 165-4번지","indutype":"약국 - 약국","category":"medical"}]},{"lat":"37.663447325","long":"127.24741439","imageIndex":8,"items":[{"name":"삼성 드림 소아청소년과","tel":"031-591-7569","addr":"경기도 남양주시 호평동 231-1번지 303-1호","indutype":"의원 - 의원","category":"medical"},{"name":"스마트약국","tel":"031-595-9575","addr":"경기도 남양주시 호평동 231-1번지","indutype":"약국 - 약국","category":"medical"}]},{"lat":"37.654030135","long":"127.24405187","imageIndex":8,"items":[{"name":"서울OK바른이치과의원","tel":"031-595-7521","addr":"경기도 남양주시 호평동 641번지 에이스프라자 701동 702호","indutype":"의원 - 치과의원","category":"medical"},{"name":"홍익한의원","tel":"031-593-2332","addr":"경기도 남양주시 호평동 641번지 에이스프라자 501호","indutype":"의원 - 한의원","category":"medical"}]},{"lat":"37.654004679","long":"127.24328121","imageIndex":8,"items":[{"name":"서울리온치과의원","tel":"031-592-9075","addr":"경기도 남양주시 호평동 638-1번지 늘봄타워 12층 1201호","indutype":"의원 - 치과의원","category":"medical"},{"name":"서울프라임치과의원","tel":"031-595-5300","addr":"경기도 남양주시 호평동 638-1번지 늘봄타워 403호","indutype":"병원 - 치과병원","category":"medical"},{"name":"현진한의원","tel":"031-591-1757","addr":"경기도 남양주시 호평동 638-1.늘봄스카이타워504호~505호","indutype":"의원 - 한의원","category":"medical"},{"name":"호평동물병원","tel":"031-511-7275","addr":"경기도 남양주시 호평동 638-1번지 늘봄타워 103호","indutype":"기타의료기관 - 동물병원","category":"medical"}]},{"lat":"37.656277985","long":"127.25485895","imageIndex":8,"items":[{"name":"시원한이비인후과","tel":"031-591-8722","addr":"경기도 남양주시 호평동 674-1번지 호평아카데미 203호","indutype":"의원 - 의원","category":"medical"},{"name":"올리브약국","tel":"031-559-5996","addr":"경기도 남양주시 호평동 674-1번지 호평아카데미 204호","indutype":"약국 - 약국","category":"medical"}]},{"lat":"37.667139447","long":"127.24829923","imageIndex":8,"items":[{"name":"연세후치과","tel":"031-594-4724","addr":"경기도 남양주시 호평동 386-4번지 동양프라자 302호","indutype":"의원 - 치과의원","category":"medical"}]},{"lat":"37.659636005","long":"127.24752655","imageIndex":8,"items":[{"name":"일심한의원","tel":"031-511-7322","addr":"경기도 남양주시 호평동 617-3번지 테마프라자 403호","indutype":"의원 - 한의원","category":"medical"}]},{"lat":"37.656277453","long":"127.25510826","imageIndex":8,"items":[{"name":"행복한미소치과","tel":"031-559-8484","addr":"경기도 남양주시 호평동 674-2번지 메디뷰빌딩 401호","indutype":"의원 - 치과의원","category":"medical"}]},{"lat":"37.656472174","long":"127.24821879","imageIndex":8,"items":[{"name":"호연한의원","tel":"031-511-7510","addr":"경기도 남양주시 호평동 194-29번지 2층","indutype":"의원 - 한의원","category":"medical"}]}]