[{"lat":"37.133951036","long":"127.02267795","imageIndex":17,"items":[{"name":"(주)라임시스/원격지","tel":"031-280-9088","addr":"경기도 화성시 정남면 덕절리 227","indutype":"기타 - 기타 전문점","category":"other"}]},{"lat":"37.141139668","long":"127.03123374","imageIndex":17,"items":[{"name":"EST (이에스티)","tel":"070-4076-5883","addr":"경기도 화성시 정남면 덕절리 465번지 B동","indutype":"전기제품 - 냉열기기","category":"other"}]},{"lat":"37.136555245","long":"127.02158694","imageIndex":17,"items":[{"name":"경기화환","tel":"031-372-3281","addr":"경기도 화성시 정남면 덕절리 315","indutype":"문화.취미 - 화원","category":"other"}]},{"lat":"37.140555353","long":"127.02478436","imageIndex":17,"items":[{"name":"경인상사","tel":"031-378-0887","addr":"경기도 화성시 정남면 덕절리 286-2번지","indutype":"건축자재 - 목재·석재·철물","category":"other"}]},{"lat":"37.135642678","long":"127.03361761","imageIndex":17,"items":[{"name":"고려베아링상사","tel":"031-373-7022","addr":"경기도 화성시 정남면 덕절리 6-10번지 상가제101","indutype":"건축자재 - 기타건축자재","category":"other"},{"name":"세창세이프랜드","tel":"031-372-4361","addr":"경기도 화성시 정남면 덕절리 6-10번지 1층","indutype":"기타 - 기계공구","category":"other"}]},{"lat":"37.134256472","long":"127.02758483","imageIndex":17,"items":[{"name":"그린마트 세탁소","tel":"031-373-0226","addr":"경기도 화성시 정남면 덕절리 498 근형심포니상가 101","indutype":"수리서비스 - 세탁소","category":"other"}]},{"lat":"37.134391238","long":"127.02939679","imageIndex":17,"items":[{"name":"그린산업","tel":"070-4606-2539","addr":"경기도 화성시 정남면 덕절리 27-11번지","indutype":"레져용품 - 골프용품 전문점","category":"other"}]},{"lat":"37.133778469","long":"127.02964417","imageIndex":17,"items":[{"name":"금강밴드","tel":"031-372-4091","addr":"경기도 화성시 정남면 덕절리 28-1번지","indutype":"기타 - 기계공구","category":"other"}]},{"lat":"37.130284466","long":"127.01789423","imageIndex":17,"items":[{"name":"대상천막기업","tel":"031-374-8531","addr":"경기도 화성시 정남면 덕절리 381-5","indutype":"직물 - 카페트,커튼,천막,지물","category":"other"}]},{"lat":"37.133670619","long":"127.02839493","imageIndex":17,"items":[{"name":"미광(MK)조명","tel":"031-378-5623","addr":"경기도 화성시 정남면 덕절리 46-5번지 1층","indutype":"건축자재 - 조명기구","category":"other"}]},{"lat":"37.13530964","long":"127.0322332","imageIndex":17,"items":[{"name":"배터리할인점(에이스특수)","tel":"031-378-0940","addr":"경기도 화성시 정남면 덕절리 11-1번지","indutype":"전기제품 - 가전제품","category":"other"}]},{"lat":"37.135111526","long":"127.03176044","imageIndex":17,"items":[{"name":"삼진기계","tel":"031-375-1438","addr":"경기도 화성시 정남면 덕절리 12-1번지","indutype":"기타 - 기계공구","category":"other"},{"name":"오산시재활용센타","tel":"","addr":"경기도 화성시 정남면 덕절리 12-1번지","indutype":"전기제품 - 가전제품","category":"other"}]},{"lat":"37.140420337","long":"127.02400773","imageIndex":17,"items":[{"name":"성민ENG","tel":"031-664-1726","addr":"경기도 화성시 정남면 덕절리 435-3","indutype":"수리서비스 - 기타수리서비스","category":"other"}]},{"lat":"37.138616274","long":"127.03308984","imageIndex":17,"items":[{"name":"세븐일레븐화성덕절리점","tel":"031-1577-0711","addr":"경기도 화성시 정남면 덕절리 486-16번지 101호","indutype":"유통업 영리 - 편 의 점","category":"other"},{"name":"에프앤에프","tel":"031-375-7721","addr":"경기도 화성시 정남면 덕절리 486-16번지 103호","indutype":"의류 - 정장","category":"other"}]},{"lat":"37.13386873","long":"127.02894645","imageIndex":17,"items":[{"name":"세븐일레븐화성정남로드점","tel":"","addr":"경기도 화성시 정남면 덕절리 29-7번지","indutype":"유통업 영리 - 편 의 점","category":"other"}]},{"lat":"37.135030513","long":"127.03142278","imageIndex":17,"items":[{"name":"신진상사","tel":"031-374-0058","addr":"경기도 화성시 정남면 덕절리 12-5번지","indutype":"건축자재 - 페인트","category":"other"},{"name":"피엔티","tel":"031-3782-7735","addr":"경기도 화성시 정남면 덕절리 12-5번지","indutype":"사무통신 - 기타 사무용품","category":"other"}]},{"lat":"37.139861926","long":"127.02262321","imageIndex":17,"items":[{"name":"씨유화성덕절리점","tel":"031-373-1620","addr":"경기도 화성시 정남면 덕절리 429번지","indutype":"유통업 영리 - 편 의 점","category":"other"}]},{"lat":"37.135777459","long":"127.03503572","imageIndex":17,"items":[{"name":"씨유화성수연점","tel":"031-374-8085","addr":"경기도 화성시 정남면 덕절리 2-4번지","indutype":"유통업 영리 - 편 의 점","category":"other"}]},{"lat":"37.134139169","long":"127.02837258","imageIndex":17,"items":[{"name":"아보컴퍼니(A&BO company)","tel":"031-375-4113","addr":"경기도 화성시 정남면 덕절리 43-1번지","indutype":"신변잡화 - 기타잡화","category":"other"}]},{"lat":"37.140112299","long":"127.03195368","imageIndex":17,"items":[{"name":"아트센터 움(WOM)","tel":"031-375-0315","addr":"경기도 화성시 정남면 덕절리 104-2번지","indutype":"문화.취미 - 민예·공예품","category":"other"}]},{"lat":"37.133085459","long":"127.02584009","imageIndex":17,"items":[{"name":"에스피코리아 (SPKOREA)","tel":"031-377-6621","addr":"경기도 화성시 정남면 덕절리 55-1번지 103호","indutype":"건축자재 - 기타건축자재","category":"other"},{"name":"제이디켐","tel":"031-376-9411","addr":"경기도 화성시 정남면 덕절리 55-1번지","indutype":"서적문구 - 과학기자재","category":"other"}]},{"lat":"37.137726117","long":"127.02447967","imageIndex":17,"items":[{"name":"웰토르","tel":"031-376-1668","addr":"경기도 화성시 정남면 덕절리 260-3번지","indutype":"전기제품 - 기타전기제품","category":"other"}]},{"lat":"37.131167315","long":"127.0192561","imageIndex":17,"items":[{"name":"이마트24 화성정남점","tel":"","addr":"경기도 화성시 정남면 덕절리 231-9번지","indutype":"유통업 영리 - 편 의 점","category":"other"}]},{"lat":"37.136309063","long":"127.03509221","imageIndex":17,"items":[{"name":"캘러웨이","tel":"031-376-8066","addr":"경기도 화성시 정남면 덕절리 495-4번지 4층 보화빌딩","indutype":"레져용품 - 스포츠·레져용품","category":"other"}]},{"lat":"37.140221268","long":"127.02828458","imageIndex":17,"items":[{"name":"케이에이앤(KAN, Korea Aqua Nax)","tel":"031-374-5624","addr":"경기도 화성시 정남면 덕절리 121-1번지","indutype":"신변잡화 - 기타잡화","category":"other"}]},{"lat":"37.133031796","long":"127.02366805","imageIndex":17,"items":[{"name":"코리아특장","tel":"031-378-7878","addr":"경기도 화성시 정남면 덕절리 213-1번지","indutype":"수리서비스 - 기타수리서비스","category":"other"}]},{"lat":"37.136921837","long":"127.03486738","imageIndex":17,"items":[{"name":"티지(TG)전기조명","tel":"031-372-4117","addr":"경기도 화성시 정남면 덕절리 103-23번지 101호","indutype":"전기제품 - 기타전기제품","category":"other"}]},{"lat":"37.134446622","long":"127.0226218","imageIndex":17,"items":[{"name":"티텍(T-TECH)","tel":"031-374-0809","addr":"경기도 화성시 정남면 덕절리 226-4","indutype":"사무통신 - 기타 사무용품","category":"other"}]},{"lat":"37.141392249","long":"127.03000702","imageIndex":17,"items":[{"name":"한신에어텍","tel":"031-375-8479","addr":"경기도 화성시 정남면 덕절리 463-2번지 가동","indutype":"기타 - 기계공구","category":"other"}]},{"lat":"37.139562523","long":"127.03250496","imageIndex":17,"items":[{"name":"현대지게차토탈서비스","tel":"","addr":"경기도 화성시 정남면 덕절리 104-3번지","indutype":"기타 - 기계공구","category":"other"}]},{"lat":"37.130807106","long":"127.01764675","imageIndex":17,"items":[{"name":"화성위생산업","tel":"031-372-7475","addr":"경기도 화성시 정남면 덕절리 381-3번지","indutype":"유통업 영리 - 기타유통업","category":"other"}]}]