[{"lat":"37.202385017","long":"126.98128842","imageIndex":17,"items":[{"name":"(주)다인퍼니처","tel":"031-223-4518","addr":"경기도 화성시 봉담읍 수기리 6-4번지","indutype":"주방용구 - 주방용구","category":"other"}]},{"lat":"37.198771689","long":"126.98042214","imageIndex":17,"items":[{"name":"(주)승협","tel":"031-393-3437","addr":"경기도 화성시 봉담읍 수기리 15-7번지","indutype":"사무통신 - 컴퓨터","category":"other"}]},{"lat":"37.200637626","long":"126.98503982","imageIndex":17,"items":[{"name":"(주)아리전기조명","tel":"031-253-3375","addr":"경기도 화성시 봉담읍 수기리 7-125번지","indutype":"건축자재 - 조명기구","category":"other"}]},{"lat":"37.200610205","long":"126.98261807","imageIndex":17,"items":[{"name":"(주)자연산업개발","tel":"031-224-1000","addr":"경기도 화성시 봉담읍 수기리 8-14번지 1층","indutype":"건축자재 - 기타건축자재","category":"other"}]},{"lat":"37.198915569","long":"126.97895781","imageIndex":17,"items":[{"name":"경기종합재활용센터","tel":"032-222-7249","addr":"경기도 화성시 봉담읍 수기리 20-2번지","indutype":"신변잡화 - 기타잡화","category":"other"}]},{"lat":"37.199772187","long":"126.98231417","imageIndex":17,"items":[{"name":"경인테크","tel":"031-221-5673","addr":"경기도 화성시 봉담읍 수기리 10-25번지 2층","indutype":"기타 - 기계공구","category":"other"},{"name":"한신공압기계","tel":"031-267-1771","addr":"경기도 화성시 봉담읍 수기리 10-25번지 1층","indutype":"기타 - 기타 전문점","category":"other"}]},{"lat":"37.199826004","long":"126.98095123","imageIndex":17,"items":[{"name":"금오종합철물","tel":"031-239-2996","addr":"경기도 화성시 봉담읍 수기리 10-24번지","indutype":"건축자재 - 목재·석재·철물","category":"other"}]},{"lat":"37.199546657","long":"126.98081614","imageIndex":17,"items":[{"name":"기펠(GIPFEL)아트팩토리","tel":"031-226-4255","addr":"경기도 화성시 봉담읍 수기리 10-10번지","indutype":"문화.취미 - 화랑","category":"other"},{"name":"명인우드","tel":"031-234-9998","addr":"경기도 화성시 봉담읍 수기리 10-10번지","indutype":"건축자재 - 목재·석재·철물","category":"other"}]},{"lat":"37.198075995","long":"126.97200843","imageIndex":17,"items":[{"name":"김토라","tel":"031-222-7550","addr":"경기도 화성시 봉담읍 수기리 158-1번지 1층 ,3호,1동","indutype":"신변잡화 - 기타잡화","category":"other"}]},{"lat":"37.199492056","long":"126.97809032","imageIndex":17,"items":[{"name":"대양케미칼","tel":"031-237-8050","addr":"경기도 화성시 봉담읍 수기리 47-1","indutype":"신변잡화 - 기타잡화","category":"other"}]},{"lat":"37.203078745","long":"126.98089397","imageIndex":17,"items":[{"name":"대청중공업","tel":"031-225-7789","addr":"경기도 화성시 봉담읍 수기리 3번지","indutype":"기타 - 기계공구","category":"other"}]},{"lat":"37.199744977","long":"126.9813117","imageIndex":17,"items":[{"name":"돌핀주방","tel":"031-252-8901","addr":"경기도 화성시 봉담읍 수기리 10-5번지","indutype":"주방용구 - 주방용구","category":"other"},{"name":"물사랑 파워풀","tel":"031-223-7171","addr":"경기도 화성시 봉담읍 수기리 10-5번지","indutype":"주방용구 - 주방용구","category":"other"}]},{"lat":"37.199609641","long":"126.98034304","imageIndex":17,"items":[{"name":"동국전자","tel":"070-4042-8887","addr":"경기도 화성시 봉담읍 수기리 23-4번지 2층","indutype":"전기제품 - 기타전기제품","category":"other"}]},{"lat":"37.204880863","long":"126.98111874","imageIndex":17,"items":[{"name":"디와이테크(DY Tech)","tel":"031-224-3116","addr":"경기도 화성시 봉담읍 수기리 1-142번지 한양타운 C동 102호","indutype":"서적문구 - 과학기자재","category":"other"},{"name":"올랩(All Lab)","tel":"","addr":"경기도 화성시 봉담읍 수기리 1-142번지 C동 101호","indutype":"서적문구 - 과학기자재","category":"other"}]},{"lat":"37.198943487","long":"126.98384627","imageIndex":17,"items":[{"name":"리배리볼트","tel":"031-233-5331","addr":"경기도 화성시 봉담읍 수기리 11-5번지 1층 1~3호","indutype":"기타 - 기계공구","category":"other"}]},{"lat":"37.199852471","long":"126.9780902","imageIndex":17,"items":[{"name":"바르다 중문 경기본사","tel":"","addr":"경기도 화성시 봉담읍 수기리 32-4번지 B동 1호","indutype":"건축자재 - 기타건축자재","category":"other"}]},{"lat":"37.201412418","long":"126.98437506","imageIndex":17,"items":[{"name":"비타민스크린골프","tel":"031-223-7733","addr":"경기도 화성시 봉담읍 수기리 7-48번지","indutype":"레져용품 - 골프용품 전문점","category":"other"}]},{"lat":"37.199942797","long":"126.9791715","imageIndex":17,"items":[{"name":"서울스톤","tel":"031-267-4353","addr":"경기도 화성시 봉담읍 수기리 29-1번지","indutype":"건축자재 - 인테리어전문","category":"other"}]},{"lat":"37.197853124","long":"126.98320452","imageIndex":17,"items":[{"name":"세븐일레븐화성세자로점","tel":"","addr":"경기도 화성시 봉담읍 수기리 11-52번지","indutype":"유통업 영리 - 편 의 점","category":"other"}]},{"lat":"37.205826772","long":"126.98014969","imageIndex":17,"items":[{"name":"솔리더","tel":"070-4242-6728","addr":"경기도 화성시 봉담읍 수기리 1-163번지","indutype":"전기제품 - 가전제품","category":"other"}]},{"lat":"37.197860016","long":"126.9730673","imageIndex":17,"items":[{"name":"수원재활용센타","tel":"031-226-7937","addr":"경기도 화성시 봉담읍 수기리 70-7번지","indutype":"수리서비스 - 기타수리서비스","category":"other"}]},{"lat":"37.200943797","long":"126.98386829","imageIndex":17,"items":[{"name":"씨유화성수기리점","tel":"031-234-5521","addr":"경기도 화성시 봉담읍 수기리 7-49번지","indutype":"유통업 영리 - 편 의 점","category":"other"}]},{"lat":"37.205880939","long":"126.98070165","imageIndex":17,"items":[{"name":"아쿠아리스모","tel":"031-223-6579","addr":"경기도 화성시 봉담읍 수기리 1-88번지 B1층","indutype":"문화.취미 - 수족관","category":"other"}]},{"lat":"37.201025051","long":"126.9848933","imageIndex":17,"items":[{"name":"아트앤조이","tel":"031-222-7655","addr":"경기도 화성시 봉담읍 수기리 7-46번지 외 1필지","indutype":"서적문구 - 기타서적문구","category":"other"}]},{"lat":"37.200051081","long":"126.97998247","imageIndex":17,"items":[{"name":"알파수원과학대점","tel":"031-222-4957","addr":"경기도 화성시 봉담읍 수기리 27번지","indutype":"서적문구 - 문구용품","category":"other"}]},{"lat":"37.205052036","long":"126.98098351","imageIndex":17,"items":[{"name":"에스앤케이","tel":"031-275-5827","addr":"경기도 화성시 봉담읍 수기리 1-54번지 한영타운 A동 102호","indutype":"전기제품 - 기타전기제품","category":"other"}]},{"lat":"37.204997762","long":"126.97986833","imageIndex":17,"items":[{"name":"에어컨 파워","tel":"","addr":"경기도 화성시 봉담읍 수기리 1-64번지 208호","indutype":"용역 서비스 - 기타용역서비스","category":"other"}]},{"lat":"37.203079052","long":"126.98261741","imageIndex":17,"items":[{"name":"예주상사","tel":"031-223-8565","addr":"경기도 화성시 봉담읍 수기리 6-31번지","indutype":"직물 - 카페트,커튼,천막,지물","category":"other"}]},{"lat":"37.203466566","long":"126.98301156","imageIndex":17,"items":[{"name":"윤견토이","tel":"031-298-8059","addr":"경기도 화성시 봉담읍 수기리 7-28번지","indutype":"서적문구 - 완구점","category":"other"}]},{"lat":"37.199302947","long":"126.97861978","imageIndex":17,"items":[{"name":"이가구","tel":"031-225-9901","addr":"경기도 화성시 봉담읍 수기리 20-3번지","indutype":"가구 - 일반가구","category":"other"}]},{"lat":"37.198492811","long":"126.98290023","imageIndex":17,"items":[{"name":"주식회사 벨라하우징","tel":"031-297-2144","addr":"경기도 화성시 봉담읍 수기리 11-30번지","indutype":"주방용구 - 주방용구","category":"other"}]},{"lat":"37.203051939","long":"126.98214432","imageIndex":17,"items":[{"name":"주식회사구구전기","tel":"031-237-9949","addr":"경기도 화성시 봉담읍 수기리 6-49번지 1동 101호","indutype":"전기제품 - 기타전기제품","category":"other"}]},{"lat":"37.203799561","long":"126.98081491","imageIndex":17,"items":[{"name":"준시멘트(주)","tel":"031-378-7939","addr":"경기도 화성시 봉담읍 수기리 1-69","indutype":"건축자재 - 기타건축자재","category":"other"}]},{"lat":"37.197526575","long":"126.97284216","imageIndex":17,"items":[{"name":"케이(K)-세라믹스","tel":"031-226-6639","addr":"경기도 화성시 봉담읍 수기리 181-6번지","indutype":"건축자재 - 건축용 요업제품","category":"other"}]},{"lat":"37.204691294","long":"126.97928266","imageIndex":17,"items":[{"name":"한담개발","tel":"031-356-6176","addr":"경기도 화성시 봉담읍 수기리 1-92번지 204호","indutype":"용역 서비스 - 기타용역서비스","category":"other"}]},{"lat":"37.200213791","long":"126.98286598","imageIndex":17,"items":[{"name":"한솔종합기계","tel":"031-226-8100","addr":"경기도 화성시 봉담읍 수기리 8-23번지","indutype":"기타 - 기계공구","category":"other"}]},{"lat":"37.197382589","long":"126.97356308","imageIndex":17,"items":[{"name":"화성H빔건축","tel":"031-309-0404","addr":"경기도 화성시 봉담읍 수기리 181-10번지","indutype":"건축자재 - 인테리어전문","category":"other"}]},{"lat":"37.197409553","long":"126.97329274","imageIndex":17,"items":[{"name":"화성블라인드 앤 커텐 전문점","tel":"031-239-9907","addr":"경기도 화성시 봉담읍 수기리 181-3번지","indutype":"직물 - 카페트,커튼,천막,지물","category":"other"}]},{"lat":"37.199580973","long":"126.97295398","imageIndex":17,"items":[{"name":"힌국IGA MART 수기점","tel":"","addr":"경기도 화성시 봉담읍 수기리 74-1번지","indutype":"유통업 영리 - 편 의 점","category":"other"}]}]