[{"lat":"37.138617357","long":"127.07308935","imageIndex":8,"items":[{"name":"e편한치과","tel":"031-376-2825","addr":"경기도 오산시 원동 360-17번지 신한플라자 3층 301호","indutype":"의원 - 치과의원","category":"medical"},{"name":"늘푸른온누리약국","tel":"031-376-4601","addr":"경기도 오산시 원동 360-17번지 신한플라자 A동 1층 108호 109호 110호","indutype":"약국 - 약국","category":"medical"},{"name":"두리이비인후과의원","tel":"031-378-2204","addr":"경기도 오산시 원동 360-17번지 신한프라자 303호","indutype":"의원 - 의원","category":"medical"}]},{"lat":"37.142950839","long":"127.07402756","imageIndex":8,"items":[{"name":"경기동물메디컬센터","tel":"031-375-8875","addr":"경기도 오산시 원동 299-1번지 201호","indutype":"기타의료기관 - 동물병원","category":"medical"},{"name":"경기동물메디컬센터","tel":"02-2635-2475","addr":"경기도 오산시 원동 299-1번지 101,201호","indutype":"기타의료기관 - 동물병원","category":"medical"}]},{"lat":"37.148530465","long":"127.07036324","imageIndex":8,"items":[{"name":"경희신통한의원","tel":"031-372-7585","addr":"경기도 오산시 원동 750-2번지","indutype":"의원 - 한의원","category":"medical"}]},{"lat":"37.138445729","long":"127.0738095","imageIndex":8,"items":[{"name":"고신경외과의원","tel":"031-374-2449","addr":"경기도 오산시 원동 391-1번지 원동 3층 304호~307호","indutype":"의원 - 의원","category":"medical"},{"name":"미소맘산부인과의원","tel":"031-374-8555","addr":"경기도 오산시 원동 391-1번지 5층","indutype":"의원 - 의원","category":"medical"},{"name":"연세준치과","tel":"031-373-1275","addr":"경기도 오산시 원동 391-1번지 폴라리스프라자 4층","indutype":"의원 - 치과의원","category":"medical"},{"name":"연한의원","tel":"031-378-0411","addr":"경기도 오산시 원동 391-1번지 패션폴라리스 301호","indutype":"의원 - 한의원","category":"medical"},{"name":"오산산부인과","tel":"031-374-8555","addr":"경기도 오산시 원동 391-1번지 5층","indutype":"의원 - 의원","category":"medical"},{"name":"우리들약국","tel":"031-372-6377","addr":"경기도 오산시 원동 391-1번지 패션폴라리스 110동 111호","indutype":"약국 - 약국","category":"medical"}]},{"lat":"37.146224753","long":"127.06863904","imageIndex":8,"items":[{"name":"광장약국","tel":"031-375-8747","addr":"경기도 오산시 원동 762-1번지","indutype":"약국 - 약국","category":"medical"},{"name":"백치과의원","tel":"031-375-0122","addr":"경기도 오산시 원동 762-1번지","indutype":"의원 - 치과의원","category":"medical"}]},{"lat":"37.144087534","long":"127.07169871","imageIndex":8,"items":[{"name":"구인원한약방","tel":"031-223-5540","addr":"경기도 오산시 원동 772-7번지","indutype":"약국 - 한약방","category":"medical"}]},{"lat":"37.146196786","long":"127.07030489","imageIndex":8,"items":[{"name":"김도완치과의원","tel":"031-376-2875","addr":"경기도 오산시 원동 763-2번지 2층","indutype":"의원 - 치과의원","category":"medical"}]},{"lat":"37.146170584","long":"127.06883034","imageIndex":8,"items":[{"name":"김피부과의원","tel":"031-372-1615","addr":"경기도 오산시 원동 762-3번지","indutype":"의원 - 의원","category":"medical"},{"name":"오즈신경과","tel":"031-375-0777","addr":"경기도 오산시 원동 762-3번지 역전빌딩 4층","indutype":"의원 - 의원","category":"medical"},{"name":"전성훈내과","tel":"031-372-8665","addr":"경기도 오산시 원동 762-3번지","indutype":"의원 - 의원","category":"medical"},{"name":"청담아이필 성형외과의원","tel":"031-8055-7712","addr":"경기도 오산시 원동 762-3번지 역전빌딩 3층 301호","indutype":"의원 - 의원","category":"medical"},{"name":"태평양약국","tel":"031-372-8210","addr":"경기도 오산시 원동 762-3번지 역전빌딩 1층","indutype":"약국 - 약국","category":"medical"},{"name":"황운정산부인과","tel":"031-378-9452","addr":"경기도 오산시 원동 762-3번지 외3필지 3층","indutype":"의원 - 의원","category":"medical"}]},{"lat":"37.145116465","long":"127.06863808","imageIndex":8,"items":[{"name":"마이홈치과의원","tel":"031-375-2804","addr":"경기도 오산시 원동 777-20번지","indutype":"의원 - 치과의원","category":"medical"},{"name":"서현석정형외과의원","tel":"031-304-1119","addr":"경기도 오산시 원동 777-20번지 정화프라자301호,4층전체","indutype":"의원 - 의원","category":"medical"},{"name":"열린약국","tel":"031-377-1217","addr":"경기도 오산시 원동 777-20번지 정화프라자 104호","indutype":"약국 - 약국","category":"medical"},{"name":"참사랑내과","tel":"031-372-3114","addr":"경기도 오산시 원동 777-20번지 201,202호","indutype":"의원 - 의원","category":"medical"},{"name":"행복주는의원","tel":"031-377-8274","addr":"경기도 오산시 원동 777-20번지 302-2호","indutype":"의원 - 의원","category":"medical"}]},{"lat":"37.140202806","long":"127.07375486","imageIndex":8,"items":[{"name":"메디슨약국","tel":"031-378-3004","addr":"경기도 오산시 원동 372-1번지 다모아프라자 105호","indutype":"약국 - 약국","category":"medical"},{"name":"이호수내과의원","tel":"031-375-7570","addr":"경기도 오산시 원동 372-1번지 다모아프라자빌딩 304동 305호","indutype":"의원 - 의원","category":"medical"}]},{"lat":"37.140590243","long":"127.07377774","imageIndex":8,"items":[{"name":"명인치과","tel":"031-375-7528","addr":"경기도 오산시 원동 874-4비전탑오피스텔303","indutype":"의원 - 치과의원","category":"medical"},{"name":"연세우리소아청소년과의원","tel":"031-376-9637","addr":"경기도 오산시 원동 374-4번지 비전탑 3층 302호","indutype":"의원 - 의원","category":"medical"},{"name":"우리동물병원","tel":"031-373-8486","addr":"경기도 오산시 원동 374-4번지 비젼탑오피스텔 102호","indutype":"기타의료기관 - 동물병원","category":"medical"},{"name":"우리팜약국","tel":"031-374-7006","addr":"경기도 오산시 원동 374-4번지 비전탑 114호","indutype":"약국 - 약국","category":"medical"},{"name":"토마토의원","tel":"031-373-8383","addr":"경기도 오산시 원동 374-4번지","indutype":"의원 - 의원","category":"medical"},{"name":"토마토의원","tel":"031-373-8383","addr":"경기도 오산시 원동 374-4번지 비전탑 2층 201호","indutype":"의원 - 의원","category":"medical"}]},{"lat":"37.138247928","long":"127.07308901","imageIndex":8,"items":[{"name":"문소아청소년과의원","tel":"031-376-4164","addr":"경기도 오산시 원동 404-1번지 신한프라자투 B동 402호","indutype":"의원 - 의원","category":"medical"}]},{"lat":"37.146088877","long":"127.0699221","imageIndex":8,"items":[{"name":"미치과","tel":"031-378-8228","addr":"경기도 오산시 원동 762-16번지 명동빌딩 3층","indutype":"의원 - 치과의원","category":"medical"}]},{"lat":"37.148392116","long":"127.07575486","imageIndex":8,"items":[{"name":"민트연합치과","tel":"031-378-2825","addr":"경기도 오산시 원동 811-8번지 중앙씨티월1 303호","indutype":"의원 - 치과의원","category":"medical"}]},{"lat":"37.14572694","long":"127.07255564","imageIndex":8,"items":[{"name":"밝은안과","tel":"031-378-4100","addr":"경기도 오산시 원동 764-10번지 2,3층 지하일부","indutype":"의원 - 의원","category":"medical"}]},{"lat":"37.146116194","long":"127.0694156","imageIndex":8,"items":[{"name":"서울내과의원","tel":"031-372-8275","addr":"경기도 오산시 원동 762-11번지","indutype":"의원 - 의원","category":"medical"},{"name":"행복약국","tel":"031-376-2789","addr":"경기도 오산시 원동 762-11번지","indutype":"약국 - 약국","category":"medical"}]},{"lat":"37.143365918","long":"127.07302621","imageIndex":8,"items":[{"name":"서울무지개약국","tel":"031-378-7937","addr":"경기도 오산시 원동 789-12번지 1층","indutype":"약국 - 약국","category":"medical"},{"name":"서울어린이병원","tel":"031-375-4197","addr":"경기도 오산시 원동 789-12번지 오산서울아동빌딩 3,4층","indutype":"병원 - 병원","category":"medical"},{"name":"서울어린이병원","tel":"031-375-4197","addr":"경기도 오산시 원동 789-12번지 3층 4층","indutype":"병원 - 병원","category":"medical"},{"name":"아이숲치과","tel":"031-375-1275","addr":"경기도 오산시 원동 789-12번지 3층","indutype":"의원 - 치과의원","category":"medical"},{"name":"안창욱항외과의원","tel":"031-374-2446","addr":"경기도 오산시 원동 789-12번지 2층 201호","indutype":"의원 - 의원","category":"medical"}]},{"lat":"37.14836605","long":"127.0741677","imageIndex":8,"items":[{"name":"서울햇빛어린이치과의원","tel":"031-378-3344","addr":"경기도 오산시 원동 231-16번지 3층","indutype":"의원 - 치과의원","category":"medical"}]},{"lat":"37.148419746","long":"127.07477559","imageIndex":8,"items":[{"name":"센타약국","tel":"031-372-5131","addr":"경기도 오산시 원동 811-5번지 메디칼프라자 102호","indutype":"약국 - 약국","category":"medical"},{"name":"이근찬내과의원","tel":"031-374-9221","addr":"경기도 오산시 원동 811-5번지 메디칼프라자 302호","indutype":"의원 - 의원","category":"medical"}]},{"lat":"37.1414467","long":"127.07300193","imageIndex":8,"items":[{"name":"속편한내과의원","tel":"031-377-3330","addr":"경기도 오산시 원동 373-1번지 4층","indutype":"의원 - 의원","category":"medical"},{"name":"오늘은 치과","tel":"031-374-2055","addr":"경기도 오산시 원동 373-1번지 3층","indutype":"의원 - 치과의원","category":"medical"},{"name":"청담맥의원","tel":"031-372-1264","addr":"경기도 오산시 원동 373-1번지 3층","indutype":"의원 - 의원","category":"medical"}]},{"lat":"37.146500544","long":"127.07472875","imageIndex":8,"items":[{"name":"수한의원","tel":"031-373-8275","addr":"경기도 오산시 원동 813-5번지 중앙씨티월3차 303호","indutype":"의원 - 한의원","category":"medical"},{"name":"한길치과의원","tel":"031-377-2874","addr":"경기도 오산시 원동 813-5번지 중앙씨티월3차 302호","indutype":"의원 - 치과의원","category":"medical"}]},{"lat":"37.145891366","long":"127.06863875","imageIndex":8,"items":[{"name":"시범약국","tel":"031-373-3443","addr":"경기도 오산시 원동 762-26번지","indutype":"약국 - 약국","category":"medical"},{"name":"장승호이비인후과","tel":"031-376-0121","addr":"경기도 오산시 원동 762-26 203","indutype":"의원 - 의원","category":"medical"}]},{"lat":"37.138256871","long":"127.07320157","imageIndex":8,"items":[{"name":"아가사랑약국","tel":"070-7594-4300","addr":"경기도 오산시 원동 404-1번지 신한프라자투B 111호","indutype":"약국 - 약국","category":"medical"}]},{"lat":"37.13856354","long":"127.07267288","imageIndex":8,"items":[{"name":"아람약국","tel":"031-375-0831","addr":"경기도 오산시 원동 404-15번지 대림프라자 105호","indutype":"약국 - 약국","category":"medical"},{"name":"아람약국","tel":"031-375-0831","addr":"경기도 오산시 원동 404-15번지 대림프라자 105호","indutype":"약국 - 약국","category":"medical"},{"name":"아이미즈한의원","tel":"031-378-1010","addr":"경기도 오산시 원동 404-15번지 대림프라자 303호","indutype":"의원 - 한의원","category":"medical"},{"name":"아이미즈한의원 · 의원","tel":"031-378-1010","addr":"경기도 오산시 원동 404-15번지 대림프라자 303호","indutype":"의원 - 한의원","category":"medical"},{"name":"연세올리브치과","tel":"031-378-2875","addr":"경기도 오산시 원동 404-15번지 대림프라자 302호","indutype":"의원 - 치과의원","category":"medical"}]},{"lat":"37.147755629","long":"127.07024999","imageIndex":8,"items":[{"name":"약초마당","tel":"070-8966-6992","addr":"경기도 오산시 원동 751-57번지 102호","indutype":"약국 - 한약방","category":"medical"}]},{"lat":"37.138644375","long":"127.07311189","imageIndex":8,"items":[{"name":"연세드림안과의원","tel":"031-378-7540","addr":"경기도 오산시 원동 360-17번지 신한프라자 A동 402호","indutype":"의원 - 의원","category":"medical"}]},{"lat":"37.148528803","long":"127.07322233","imageIndex":8,"items":[{"name":"예스치과의원","tel":"031-376-2804","addr":"경기도 오산시 원동 754-3번지","indutype":"의원 - 치과의원","category":"medical"},{"name":"오산동물병원","tel":"031-377-7582","addr":"경기도 오산시 원동 754-3번지","indutype":"기타의료기관 - 동물병원","category":"medical"}]},{"lat":"37.141699007","long":"127.07297965","imageIndex":8,"items":[{"name":"오산내과의원/오산다원의료소비자생활협동","tel":"031-831-3690","addr":"경기도 오산시 원동 333-18번지 메딕프라자 701호","indutype":"의원 - 의원","category":"medical"},{"name":"우리가족건강온누리약국","tel":"031-377-6161","addr":"경기도 오산시 원동 333-18번지 메딕프라자 104호~105호","indutype":"약국 - 약국","category":"medical"},{"name":"킹콩치과의원","tel":"031-375-2275","addr":"경기도 오산시 원동 333-18번지 메딕프라자 601호~604호","indutype":"의원 - 치과의원","category":"medical"},{"name":"함소아한의원","tel":"031-378-1065","addr":"경기도 오산시 원동 333-18번지 메딕프라자 2층","indutype":"의원 - 한의원","category":"medical"}]},{"lat":"37.146197459","long":"127.06911177","imageIndex":8,"items":[{"name":"오산맑은피부과","tel":"031-377-0041","addr":"경기도 오산시 원동 762-7번지 1층","indutype":"의원 - 의원","category":"medical"},{"name":"편한약국","tel":"031-375-2249","addr":"경기도 오산시 원동 762-7번지 하이웰치과 101호","indutype":"약국 - 약국","category":"medical"},{"name":"하이웰치과의원","tel":"031-373-2845","addr":"경기도 오산시 원동 762-7번지","indutype":"의원 - 치과의원","category":"medical"}]},{"lat":"37.14839325","long":"127.07388632","imageIndex":8,"items":[{"name":"오산성심의원","tel":"031-372-1116","addr":"경기도 오산시 원동 755-1번지","indutype":"의원 - 의원","category":"medical"}]},{"lat":"37.141111981","long":"127.07521888","imageIndex":8,"items":[{"name":"오산한국병원","tel":"031-379-8300","addr":"경기도 오산시 원동 560-70번지","indutype":"병원 - 종합병원","category":"medical"},{"name":"오산한국병원","tel":"031-379-8300","addr":"경기도 오산시 원동 560-70번지","indutype":"병원 - 종합병원","category":"medical"}]},{"lat":"37.13795022","long":"127.07369649","imageIndex":8,"items":[{"name":"오산현대정형외과의원","tel":"031-375-1667","addr":"경기도 오산시 원동 387번지 2층","indutype":"의원 - 의원","category":"medical"}]},{"lat":"37.148116016","long":"127.07030659","imageIndex":8,"items":[{"name":"오색한의원","tel":"031-378-3375","addr":"경기도 오산시 원동 751-1번지","indutype":"의원 - 한의원","category":"medical"}]},{"lat":"37.146006476","long":"127.07219571","imageIndex":8,"items":[{"name":"우먼필산부인과","tel":"031-378-5950","addr":"경기도 오산시 원동 764-6번지 외1필지","indutype":"의원 - 의원","category":"medical"}]},{"lat":"37.146447844","long":"127.07244374","imageIndex":8,"items":[{"name":"원종합동물병원","tel":"031-374-1175","addr":"경기도 오산시 원동 758-9번지","indutype":"기타의료기관 - 동물병원","category":"medical"}]},{"lat":"37.145585041","long":"127.06858221","imageIndex":8,"items":[{"name":"유노부부치과의원","tel":"031-373-2802","addr":"경기도 오산시 원동 777-1번지 2층 미금사건물 일부","indutype":"의원 - 치과의원","category":"medical"}]},{"lat":"37.140950073","long":"127.07475727","imageIndex":8,"items":[{"name":"윤온누리약국","tel":"031-375-7100","addr":"경기도 오산시 원동 560-41번지 101호","indutype":"약국 - 약국","category":"medical"}]},{"lat":"37.146583805","long":"127.07105938","imageIndex":8,"items":[{"name":"이안한방병원","tel":"031-378-1151","addr":"경기도 오산시 원동 761-16번지","indutype":"병원 - 한방병원","category":"medical"},{"name":"인성요양병원","tel":"031-375-0022","addr":"경기도 오산시 원동 761-16번지","indutype":"병원 - 병원","category":"medical"}]},{"lat":"37.141230088","long":"127.0736095","imageIndex":8,"items":[{"name":"이치과의원","tel":"031-375-4681","addr":"경기도 오산시 원동 373-4번지","indutype":"의원 - 치과의원","category":"medical"}]},{"lat":"37.141394921","long":"127.06902879","imageIndex":8,"items":[{"name":"이플러스부부치과의원","tel":"031-378-2888","addr":"경기도 오산시 원동 845외6양우프라자401호","indutype":"의원 - 치과의원","category":"medical"},{"name":"천지약국","tel":"031-375-5599","addr":"경기도 오산시 원동 845번지 양우프라자 110호","indutype":"약국 - 약국","category":"medical"}]},{"lat":"37.141980274","long":"127.06961458","imageIndex":8,"items":[{"name":"저스트벳동물병원","tel":"031-378-1514","addr":"경기도 오산시 원동 841번지 파크스퀘어105호~ 105 06호","indutype":"기타의료기관 - 동물병원","category":"medical"}]},{"lat":"37.146116238","long":"127.06933681","imageIndex":8,"items":[{"name":"조성구한의원","tel":"031-373-5504","addr":"경기도 오산시 원동 762-10번지","indutype":"의원 - 한의원","category":"medical"}]},{"lat":"37.146087504","long":"127.07230834","imageIndex":8,"items":[{"name":"중앙한의원","tel":"031-373-9284","addr":"경기도 오산시 원동 764-14번지","indutype":"의원 - 한의원","category":"medical"}]},{"lat":"37.146170722","long":"127.06858271","imageIndex":8,"items":[{"name":"코코이비인후과","tel":"031-376-8850","addr":"경기도 오산시 원동 762-27. 28(2층)","indutype":"의원 - 의원","category":"medical"}]},{"lat":"37.141472331","long":"127.07533178","imageIndex":8,"items":[{"name":"크로바약국","tel":"031-376-8536","addr":"경기도 오산시 원동 561-1번지 102~103호","indutype":"약국 - 약국","category":"medical"},{"name":"파랑새약국","tel":"031-375-8522","addr":"경기도 오산시 원동 561-1번지 정문약국 101호","indutype":"약국 - 약국","category":"medical"}]},{"lat":"37.134337756","long":"127.07244391","imageIndex":8,"items":[{"name":"해독한의원","tel":"031-373-2366","addr":"경기도 오산시 원동 806-3번지 대진빌딩 1층","indutype":"의원 - 한의원","category":"medical"}]}]