[{"lat":"37.126044544","long":"127.45733012","imageIndex":17,"items":[{"name":"(재)우성공원묘원","tel":"031-672-5008","addr":"경기도 안성시 일죽면 화곡리 산2","indutype":"회원제형태 - 기타4","category":"other"}]},{"lat":"37.106822054","long":"127.45107276","imageIndex":17,"items":[{"name":"우성금속","tel":"031-672-0530","addr":"경기도 안성시 일죽면 화곡리 649-4번지","indutype":"건축자재 - 목재·석재·철물","category":"other"},{"name":"유성메탈","tel":"031-672-0531","addr":"경기도 안성시 일죽면 화곡리 649-4번지","indutype":"건축자재 - 기타건축자재","category":"other"}]},{"lat":"37.119011855","long":"127.4608549","imageIndex":17,"items":[{"name":"유토피아","tel":"031-673-7904","addr":"경기도 안성시 일죽면 화곡리 213-1번지 2층","indutype":"용역 서비스 - 가례서비스업","category":"other"}]},{"lat":"37.10698783","long":"127.45957875","imageIndex":7,"items":[{"name":"민속흑염소","tel":"031-673-6769","addr":"경기도 안성시 일죽면 화곡리 380-3","indutype":"건강식품 - 기타건강식품","category":"food"}]},{"lat":"37.113683956","long":"127.46849599","imageIndex":7,"items":[{"name":"신흥정미소","tel":"031-672-0125","addr":"경기도 안성시 일죽면 화곡리 183-1번지","indutype":"음료식품 - 미곡상","category":"food"}]},{"lat":"37.103186702","long":"127.47535015","imageIndex":7,"items":[{"name":"영어영농조합법인정기","tel":"032-884-7479","addr":"경기도 안성시 일죽면 화곡리 57번지","indutype":"음료식품 - 농·축·수산품","category":"food"}]},{"lat":"37.107345595","long":"127.46026715","imageIndex":7,"items":[{"name":"주식회사 희래","tel":"070-4238-3199","addr":"경기도 안성시 일죽면 화곡리 345-1번지","indutype":"음료식품 - 농·축·수산품","category":"food"}]},{"lat":"37.101348633","long":"127.46388708","imageIndex":7,"items":[{"name":"천년수홍삼액","tel":"031-673-3384","addr":"경기도 안성시 일죽면 화곡리 495-20","indutype":"건강식품 - 홍삼제품","category":"food"}]},{"lat":"37.114935319","long":"127.45716246","imageIndex":13,"items":[{"name":"사단법인한국전통불교조계종","tel":"031-674-6003","addr":"경기도 안성시 일죽면 화곡리 850-3번지 천불사","indutype":"보건위생 - 기타대인서비스","category":"beauty"}]},{"lat":"37.107879199","long":"127.45505029","imageIndex":0,"items":[{"name":"주식회사모터카파트","tel":"031-672-9489","addr":"경기도 안성시 일죽면 화곡리 751-7","indutype":"자동차정비 유지 - 자동차부품","category":"car"}]},{"lat":"37.107461814","long":"127.45816408","imageIndex":16,"items":[{"name":"죽화초등학교","tel":"031-673-1941","addr":"경기도 안성시 일죽면 화곡리 730번지 죽화초등학교","indutype":"학원 - 초중고교육기관","category":"study"}]}]