[{"lat":"37.075744779","long":"127.42405828","imageIndex":8,"items":[{"name":"동진한의원","tel":"031-676-7300","addr":"경기도 안성시 죽산면 죽산리 475-1번지","indutype":"의원 - 한의원","category":"medical"}]},{"lat":"37.07518498","long":"127.42438129","imageIndex":8,"items":[{"name":"명성한의원","tel":"031-675-7588","addr":"경기도 안성시 죽산면 죽산리 498-1번지 1층","indutype":"의원 - 한의원","category":"medical"}]},{"lat":"37.075848986","long":"127.4251609","imageIndex":8,"items":[{"name":"미소약국","tel":"031-676-0711","addr":"경기도 안성시 죽산면 죽산리 492번지 1동","indutype":"약국 - 약국","category":"medical"},{"name":"우리들의원","tel":"031-671-0098","addr":"경기도 안성시 죽산면 죽산리 492번지 1동","indutype":"의원 - 의원","category":"medical"}]},{"lat":"37.074908294","long":"127.42363757","imageIndex":8,"items":[{"name":"성모의원","tel":"031-675-0644","addr":"경기도 안성시 죽산면 죽산리 435-2번지","indutype":"의원 - 의원","category":"medical"},{"name":"유희돈치과의원","tel":"031-675-9475","addr":"경기도 안성시 죽산면 죽산리 435-2번지","indutype":"의원 - 치과의원","category":"medical"},{"name":"인생약국","tel":"031-676-6053","addr":"경기도 안성시 죽산면 죽산리 435-2번지","indutype":"약국 - 약국","category":"medical"}]},{"lat":"37.076322484","long":"127.42629932","imageIndex":8,"items":[{"name":"세계로약국","tel":"031-676-9688","addr":"경기도 안성시 죽산면 죽산리 119-1번지 죽산훼미리타운 106호","indutype":"약국 - 약국","category":"medical"},{"name":"죽산중앙의원","tel":"031-675-8278","addr":"경기도 안성시 죽산면 죽산리 119-1번지 훼미리타운 207호","indutype":"의원 - 의원","category":"medical"}]},{"lat":"37.074298934","long":"127.42013695","imageIndex":8,"items":[{"name":"연세의원","tel":"031-676-6875","addr":"경기도 안성시 죽산면 죽산리 516-4번지","indutype":"의원 - 의원","category":"medical"}]},{"lat":"37.073711679","long":"127.42058354","imageIndex":8,"items":[{"name":"이화약국","tel":"031-676-6031","addr":"경기도 안성시 죽산면 죽산리 514-17번지","indutype":"약국 - 약국","category":"medical"}]},{"lat":"37.075571905","long":"127.42452963","imageIndex":8,"items":[{"name":"플러스서울치과의원","tel":"031-671-2875","addr":"경기도 안성시 죽산면 죽산리 476-2번지","indutype":"의원 - 치과의원","category":"medical"},{"name":"하나동물병원","tel":"031-677-5396","addr":"경기도 안성시 죽산면 죽산리 476-2번지","indutype":"기타의료기관 - 동물병원","category":"medical"}]}]