[{"lat":"37.277269786","long":"127.44646617","imageIndex":4,"items":[{"name":"24시전주명가콩나물국밥","tel":"","addr":"경기도 이천시 중리동 217-7번지","indutype":"일반휴게음식 - 일반한식","category":"restaurant"},{"name":"만화카페 통툰","tel":"031-633-2858","addr":"경기도 이천시 중리동 217-7번지","indutype":"일반휴게음식 - 일반한식","category":"restaurant"}]},{"lat":"37.275911976","long":"127.4457366","imageIndex":4,"items":[{"name":"24시호프","tel":"031-638-6669","addr":"경기도 이천시 중리동 458-8번지 1층","indutype":"일반휴게음식 - 주점","category":"restaurant"}]},{"lat":"37.277745188","long":"127.44220687","imageIndex":4,"items":[{"name":"7080친구","tel":"070-4763-5091","addr":"경기도 이천시 중리동 188-8번지 3층","indutype":"일반휴게음식 - 주점","category":"restaurant"}]},{"lat":"37.277884488","long":"127.44351562","imageIndex":4,"items":[{"name":"강원콩비지탕","tel":"031-633-6865","addr":"경기도 이천시 중리동 205-5번지","indutype":"일반휴게음식 - 일반한식","category":"restaurant"}]},{"lat":"37.2795452","long":"127.4378762","imageIndex":4,"items":[{"name":"계미정치킨","tel":"031-633-8617","addr":"경기도 이천시 중리동 2-21번지","indutype":"일반휴게음식 - 스넥","category":"restaurant"}]},{"lat":"37.279050744","long":"127.44487549","imageIndex":4,"items":[{"name":"고기선수","tel":"031-641-6164","addr":"경기도 이천시 중리동 202-3번지","indutype":"일반휴게음식 - 일반한식","category":"restaurant"},{"name":"치코치카슬라임","tel":"","addr":"경기도 이천시 중리동 202-3번지 2층","indutype":"일반휴게음식 - 서양음식","category":"restaurant"}]},{"lat":"37.276248965","long":"127.44957212","imageIndex":4,"items":[{"name":"고모네보리밥","tel":"031-638-2777","addr":"경기도 이천시 중리동 468-1번지","indutype":"일반휴게음식 - 일반한식","category":"restaurant"}]},{"lat":"37.278573383","long":"127.4448276","imageIndex":4,"items":[{"name":"고수","tel":"","addr":"경기도 이천시 중리동 211-3번지","indutype":"일반휴게음식 - 일식·회집","category":"restaurant"}]},{"lat":"37.279938986","long":"127.43860012","imageIndex":4,"items":[{"name":"고흥식당","tel":"031-631-7973","addr":"경기도 이천시 중리동 19번지","indutype":"일반휴게음식 - 일반한식","category":"restaurant"}]},{"lat":"37.279080466","long":"127.44415403","imageIndex":4,"items":[{"name":"곱덕후","tel":"","addr":"경기도 이천시 중리동 191-4번지 1층","indutype":"일반휴게음식 - 일반한식","category":"restaurant"}]},{"lat":"37.278798338","long":"127.44490784","imageIndex":4,"items":[{"name":"곱분이곱창","tel":"031-634-0744","addr":"경기도 이천시 중리동 212-3번지","indutype":"일반휴게음식 - 일반한식","category":"restaurant"},{"name":"노랑통닭 이천터미널점","tel":"031-000-0000","addr":"경기도 이천시 중리동 212-3번지 1층","indutype":"일반휴게음식 - 일반한식","category":"restaurant"},{"name":"돈통마늘보쌈(이천중리점)","tel":"031-634-5385","addr":"경기도 이천시 중리동 212-3번지","indutype":"일반휴게음식 - 일반한식","category":"restaurant"},{"name":"쭈꾸미아저씨","tel":"031-633-2311","addr":"경기도 이천시 중리동 212-3번지","indutype":"일반휴게음식 - 일반한식","category":"restaurant"}]},{"lat":"37.278937315","long":"127.44388258","imageIndex":4,"items":[{"name":"국가양푼쪽갈비","tel":"031-636-1604","addr":"경기도 이천시 중리동 191-7번지","indutype":"일반휴게음식 - 일반한식","category":"restaurant"},{"name":"소소한과자점","tel":"02-1111-1111","addr":"경기도 이천시 중리동 191-7번지 1층","indutype":"일반휴게음식 - 일반한식","category":"restaurant"},{"name":"어차피 인생은 고기서 고기다","tel":"","addr":"경기도 이천시 중리동 191-7번지 1동 1층","indutype":"일반휴게음식 - 일반한식","category":"restaurant"}]},{"lat":"37.276912343","long":"127.44807644","imageIndex":4,"items":[{"name":"국이네","tel":"031-633-9288","addr":"경기도 이천시 중리동 463-1번지","indutype":"일반휴게음식 - 일반한식","category":"restaurant"},{"name":"봉길이네순대국","tel":"031-633-6089","addr":"경기도 이천시 중리동 463-1번지","indutype":"일반휴게음식 - 일반한식","category":"restaurant"},{"name":"소위오리목","tel":"","addr":"경기도 이천시 중리동 463-1번지","indutype":"일반휴게음식 - 일반한식","category":"restaurant"},{"name":"숙이네삼겹살집","tel":"031-638-3357","addr":"경기도 이천시 중리동 463-1번지","indutype":"일반휴게음식 - 일반한식","category":"restaurant"},{"name":"순이네양꼬치구이","tel":"031-634-6668","addr":"경기도 이천시 중리동 463-1번지 1층","indutype":"일반휴게음식 - 일반한식","category":"restaurant"}]},{"lat":"37.277769007","long":"127.44548814","imageIndex":4,"items":[{"name":"국제시장","tel":"031-638-0434","addr":"경기도 이천시 중리동 214-7번지 소망빌딩 지하1층","indutype":"일반휴게음식 - 일반한식","category":"restaurant"},{"name":"숙이네","tel":"031-635-7672","addr":"경기도 이천시 중리동 214-7번지 소망빌딩","indutype":"일반휴게음식 - 주점","category":"restaurant"}]},{"lat":"37.276109205","long":"127.43626664","imageIndex":4,"items":[{"name":"굿커피 베데스다","tel":"031-631-9778","addr":"경기도 이천시 중리동 312-15번지 지하1층","indutype":"일반휴게음식 - 서양음식","category":"restaurant"}]},{"lat":"37.277435426","long":"127.44554257","imageIndex":4,"items":[{"name":"궁","tel":"031-631-3234","addr":"경기도 이천시 중리동 215-4번지 지하1층","indutype":"일반휴게음식 - 일반한식","category":"restaurant"}]},{"lat":"37.276158841","long":"127.4423555","imageIndex":4,"items":[{"name":"궁전관","tel":"031-633-9624","addr":"경기도 이천시 중리동 453-9번지","indutype":"일반휴게음식 - 중국식","category":"restaurant"}]},{"lat":"37.278437222","long":"127.44509741","imageIndex":4,"items":[{"name":"그린테일","tel":"031-0000-0000","addr":"경기도 이천시 중리동 211-6번지","indutype":"일반휴게음식 - 일반한식","category":"restaurant"},{"name":"먹어봐뒷고기","tel":"031-635-7810","addr":"경기도 이천시 중리동 211-6번지","indutype":"일반휴게음식 - 일반한식","category":"restaurant"},{"name":"작은밥집","tel":"","addr":"경기도 이천시 중리동 211-6번지 A동","indutype":"일반휴게음식 - 일반한식","category":"restaurant"}]},{"lat":"37.275878953","long":"127.4400763","imageIndex":4,"items":[{"name":"금마뼈다귀감자탕","tel":"031-633-2877","addr":"경기도 이천시 중리동 450-16번지 금마뼈다귀감자탕","indutype":"일반휴게음식 - 일반한식","category":"restaurant"}]},{"lat":"37.275602016","long":"127.44429157","imageIndex":4,"items":[{"name":"기쁨주는식당","tel":"031-633-2543","addr":"경기도 이천시 중리동 456-7번지","indutype":"일반휴게음식 - 일반한식","category":"restaurant"}]},{"lat":"37.279464396","long":"127.44024362","imageIndex":4,"items":[{"name":"길모퉁이","tel":"070-1111-1111","addr":"경기도 이천시 중리동 177-20번지","indutype":"일반휴게음식 - 일반한식","category":"restaurant"},{"name":"형제보쌈","tel":"02-1577-0000","addr":"경기도 이천시 중리동 177-20번지 1층 101호","indutype":"일반휴게음식 - 일반한식","category":"restaurant"}]},{"lat":"37.277636701","long":"127.44713357","imageIndex":4,"items":[{"name":"김밥천국","tel":"031-635-1444","addr":"경기도 이천시 중리동 219번지","indutype":"일반휴게음식 - 일반한식","category":"restaurant"},{"name":"덕평기사식당","tel":"031-633-2352","addr":"경기도 이천시 중리동 219번지","indutype":"일반휴게음식 - 일반한식","category":"restaurant"},{"name":"동부닭곰탕","tel":"031-634-3662","addr":"경기도 이천시 중리동 219번지","indutype":"일반휴게음식 - 일반한식","category":"restaurant"},{"name":"마라샹궈","tel":"031-638-9200","addr":"경기도 이천시 중리동 219번지 종합터미널 117-118호","indutype":"일반휴게음식 - 일반한식","category":"restaurant"},{"name":"송사부수제쌀고로케(이천터미널점)","tel":"","addr":"경기도 이천시 중리동 219번지 종합버스터미널 1층 152호","indutype":"일반휴게음식 - 서양음식","category":"restaurant"},{"name":"영돈분식","tel":"031-635-5089","addr":"경기도 이천시 중리동 219번지 종합버스터미널 120호","indutype":"일반휴게음식 - 일반한식","category":"restaurant"},{"name":"오뚜기스넥","tel":"031-637-2733","addr":"경기도 이천시 중리동 219번지","indutype":"일반휴게음식 - 스넥","category":"restaurant"},{"name":"이디야 이천터미널점","tel":"031-634-8087","addr":"경기도 이천시 중리동 219번지 1층 132-3호","indutype":"일반휴게음식 - 서양음식","category":"restaurant"},{"name":"이모네분식","tel":"031-634-4624","addr":"경기도 이천시 중리동 219번지 외1필지","indutype":"일반휴게음식 - 스넥","category":"restaurant"},{"name":"정원fs이천터미널점","tel":"031-638-4209","addr":"경기도 이천시 중리동 219번지 126호,127호","indutype":"일반휴게음식 - 일반한식","category":"restaurant"},{"name":"터미널스넥","tel":"031-633-6974","addr":"경기도 이천시 중리동 219번지 터미널스넥","indutype":"일반휴게음식 - 일반한식","category":"restaurant"},{"name":"토스피아","tel":"031-638-8595","addr":"경기도 이천시 중리동 219번지 이천종합터미널 121호","indutype":"일반휴게음식 - 일반한식","category":"restaurant"},{"name":"틈새라면(이천터미널점)","tel":"031-635-3901","addr":"경기도 이천시 중리동 219번지 종합버스터미널 131호","indutype":"일반휴게음식 - 스넥","category":"restaurant"}]},{"lat":"37.27835394","long":"127.44568325","imageIndex":4,"items":[{"name":"깐부치킨 라온팰리스점","tel":"031-631-2348","addr":"경기도 이천시 중리동 213번지 이천라온팰리스 1층 101호","indutype":"일반휴게음식 - 스넥","category":"restaurant"},{"name":"꿀, 달","tel":"031-631-1278","addr":"경기도 이천시 중리동 213번지 이천라온팰리스 1층 114호","indutype":"일반휴게음식 - 일반한식","category":"restaurant"},{"name":"마포 옛날 떡볶이","tel":"031-1111-1111","addr":"경기도 이천시 중리동 213번지 이천라온팰리스 1층 102호","indutype":"일반휴게음식 - 스넥","category":"restaurant"},{"name":"미친노가리","tel":"070-8182-2042","addr":"경기도 이천시 중리동 213번지 이천라온팰리스","indutype":"일반휴게음식 - 주점","category":"restaurant"},{"name":"본래순대 이천터미널점","tel":"031-633-5659","addr":"경기도 이천시 중리동 213번지 이천라온팰리스 108동 110호","indutype":"일반휴게음식 - 일반한식","category":"restaurant"},{"name":"설맥눈꽃맥주","tel":"070-7848-4869","addr":"경기도 이천시 중리동 213번지 이천라온팰리스 115호","indutype":"일반휴게음식 - 주점","category":"restaurant"},{"name":"아리솔","tel":"031-633-5688","addr":"경기도 이천시 중리동 213번지 라온팰래스 111호","indutype":"일반휴게음식 - 일반한식","category":"restaurant"},{"name":"오봉자싸롱(중리점)","tel":"031-631-5585","addr":"경기도 이천시 중리동 213번지 이천라온팰리스 106호","indutype":"일반휴게음식 - 주점","category":"restaurant"},{"name":"요거프레소(이천라온팰리스점)","tel":"031-637-2269","addr":"경기도 이천시 중리동 213 126호~127호","indutype":"일반휴게음식 - 스넥","category":"restaurant"},{"name":"피자마루","tel":"031-638-1082","addr":"경기도 이천시 중리동 213번지 이천라온팰리스 상가 1층 122호","indutype":"일반휴게음식 - 일반한식","category":"restaurant"}]},{"lat":"37.278687007","long":"127.44335117","imageIndex":4,"items":[{"name":"끝판왕국물떡볶이 이천점","tel":"031-635-1191","addr":"경기도 이천시 중리동 190번지 1층","indutype":"일반휴게음식 - 일반한식","category":"restaurant"}]},{"lat":"37.276301007","long":"127.4404621","imageIndex":4,"items":[{"name":"나귀당귀","tel":"031-771-9250","addr":"경기도 이천시 중리동 450-3번지","indutype":"일반휴게음식 - 일반한식","category":"restaurant"}]},{"lat":"37.277712458","long":"127.44374013","imageIndex":4,"items":[{"name":"날쌘카페 이천점","tel":"031-637-8163","addr":"경기도 이천시 중리동 205-7번지","indutype":"일반휴게음식 - 서양음식","category":"restaurant"},{"name":"다빈","tel":"031-636-0180","addr":"경기도 이천시 중리동 205-7번지 1층","indutype":"일반휴게음식 - 서양음식","category":"restaurant"}]},{"lat":"37.276411637","long":"127.44704745","imageIndex":4,"items":[{"name":"남도식당","tel":"031-636-0990","addr":"경기도 이천시 중리동 224번지 외1필지","indutype":"일반휴게음식 - 일반한식","category":"restaurant"}]},{"lat":"37.275519665","long":"127.44943251","imageIndex":4,"items":[{"name":"남원추어탕장인","tel":"031-631-9870","addr":"경기도 이천시 중리동 468-11번지","indutype":"일반휴게음식 - 일반한식","category":"restaurant"}]},{"lat":"37.27846829","long":"127.44401515","imageIndex":4,"items":[{"name":"남천묵은지족발탕","tel":"031-631-7333","addr":"경기도 이천시 중리동 203-5번지 1층","indutype":"일반휴게음식 - 일반한식","category":"restaurant"}]},{"lat":"37.27596249","long":"127.446684","imageIndex":4,"items":[{"name":"낫폽태국식당","tel":"031-632-7977","addr":"경기도 이천시 중리동 227번지 남선희산부인과 202호","indutype":"일반휴게음식 - 일반한식","category":"restaurant"}]},{"lat":"37.275608728","long":"127.4424876","imageIndex":4,"items":[{"name":"냉면과모밀","tel":"031-638-1470","addr":"경기도 이천시 중리동 451-4번지","indutype":"일반휴게음식 - 일반한식","category":"restaurant"}]},{"lat":"37.2793848","long":"127.44227277","imageIndex":4,"items":[{"name":"누드닭손만두국","tel":"031-634-5055","addr":"경기도 이천시 중리동 181-6번지","indutype":"일반휴게음식 - 일반한식","category":"restaurant"},{"name":"마산해물아구찜","tel":"031-635-5985","addr":"경기도 이천시 중리동 181-6번지","indutype":"일반휴게음식 - 일반한식","category":"restaurant"}]},{"lat":"37.279630497","long":"127.44404448","imageIndex":4,"items":[{"name":"뉴욕핫도그앤커피(이천CGV점)","tel":"031-633-0840","addr":"경기도 이천시 중리동 201-1번지","indutype":"일반휴게음식 - 서양음식","category":"restaurant"},{"name":"니뽕내뽕","tel":"031-638-8228","addr":"경기도 이천시 중리동 201-1번지 이천씨네마복합빌딩 1동 3층","indutype":"일반휴게음식 - 일반한식","category":"restaurant"},{"name":"멘야노유메","tel":"02-0000-0000","addr":"경기도 이천시 중리동 201-1번지 이천씨네마복합빌딩","indutype":"일반휴게음식 - 일반한식","category":"restaurant"},{"name":"스위트몬스터 랜드마크점","tel":"031-635-6416","addr":"경기도 이천시 중리동 201-1번지 이천씨네마복합빌딩 1동 3층","indutype":"일반휴게음식 - 일반한식","category":"restaurant"},{"name":"우리동네면반장","tel":"031-631-5490","addr":"경기도 이천시 중리동 201-1번지 이천씨네마복합빌딩 3층","indutype":"일반휴게음식 - 일반한식","category":"restaurant"},{"name":"울엄마 손만두","tel":"031-635-9090","addr":"경기도 이천시 중리동 201-1번지 이천씨네마복합빌딩 3층","indutype":"일반휴게음식 - 서양음식","category":"restaurant"},{"name":"캔디바","tel":"031-638-1636","addr":"경기도 이천시 중리동 201-1번지 이천씨네마복합빌딩 1동 1층","indutype":"일반휴게음식 - 칵테일바","category":"restaurant"},{"name":"킹콩부대찌개 이천cgv점","tel":"031-634-8993","addr":"경기도 이천시 중리동 201-1번지 이천씨네마복합빌딩 1동 3층","indutype":"일반휴게음식 - 일반한식","category":"restaurant"},{"name":"하루엔소쿠 이천CGV점","tel":"031-634-9338","addr":"경기도 이천시 중리동 201-1번지 이천씨네마복합빌딩 3층","indutype":"일반휴게음식 - 일식·회집","category":"restaurant"},{"name":"회전초밥스시루","tel":"031-8787-8887","addr":"경기도 이천시 중리동 201-1번지 이천씨네마복합빌딩 3층","indutype":"일반휴게음식 - 일반한식","category":"restaurant"}]},{"lat":"37.27402519","long":"127.43204918","imageIndex":4,"items":[{"name":"느티나무집","tel":"031-635-8532","addr":"경기도 이천시 중리동 390-1번지","indutype":"일반휴게음식 - 일반한식","category":"restaurant"}]},{"lat":"37.279297585","long":"127.44149425","imageIndex":4,"items":[{"name":"늘솜","tel":"031-632-8755","addr":"경기도 이천시 중리동 183-3번지","indutype":"일반휴게음식 - 일반한식","category":"restaurant"},{"name":"다도식당","tel":"031-631-7329","addr":"경기도 이천시 중리동 183-3번지","indutype":"일반휴게음식 - 일반한식","category":"restaurant"}]},{"lat":"37.275857709","long":"127.43605097","imageIndex":4,"items":[{"name":"다도회2호점","tel":"031-632-5131","addr":"경기도 이천시 중리동 313-5번지 1동 106호","indutype":"일반휴게음식 - 일반한식","category":"restaurant"},{"name":"커피에 반하다","tel":"031-000-0000","addr":"경기도 이천시 중리동 313-5번지 1층 103호","indutype":"일반휴게음식 - 서양음식","category":"restaurant"}]},{"lat":"37.27921248","long":"127.44257621","imageIndex":4,"items":[{"name":"다래손칼국수","tel":"031-638-3432","addr":"경기도 이천시 중리동 193-12번지","indutype":"일반휴게음식 - 일반한식","category":"restaurant"},{"name":"다인호프커피","tel":"031-123-4567","addr":"경기도 이천시 중리동 193-12번지 2층","indutype":"일반휴게음식 - 서양음식","category":"restaurant"}]},{"lat":"37.279966929","long":"127.43835221","imageIndex":4,"items":[{"name":"다리꼰돼지","tel":"031-633-5511","addr":"경기도 이천시 중리동 1-9번지 1층","indutype":"일반휴게음식 - 일반한식","category":"restaurant"}]},{"lat":"37.279990804","long":"127.4392093","imageIndex":4,"items":[{"name":"단골술집","tel":"031-635-1301","addr":"경기도 이천시 중리동 20-5번지","indutype":"일반휴게음식 - 일반한식","category":"restaurant"},{"name":"동네감자탕","tel":"","addr":"경기도 이천시 중리동 20-5번지 1층","indutype":"일반휴게음식 - 일반한식","category":"restaurant"}]},{"lat":"37.279108127","long":"127.44398506","imageIndex":4,"items":[{"name":"달리는커피이천중리점","tel":"031-631-9199","addr":"경기도 이천시 중리동 191-3번지 1층","indutype":"일반휴게음식 - 서양음식","category":"restaurant"},{"name":"젠","tel":"031-636-7775","addr":"경기도 이천시 중리동 191-3번지 1층","indutype":"일반휴게음식 - 일반한식","category":"restaurant"}]},{"lat":"37.277967227","long":"127.4454893","imageIndex":4,"items":[{"name":"달이야기","tel":"","addr":"경기도 이천시 중리동 214-1번지 1층","indutype":"일반휴게음식 - 일반한식","category":"restaurant"}]},{"lat":"37.279994581","long":"127.43818323","imageIndex":4,"items":[{"name":"담소한마리","tel":"031-000-0000","addr":"경기도 이천시 중리동 1-1번지 1층","indutype":"일반휴게음식 - 일반한식","category":"restaurant"}]},{"lat":"37.279550492","long":"127.44132658","imageIndex":4,"items":[{"name":"대구반야월막창","tel":"031-632-9995","addr":"경기도 이천시 중리동 177-12번지 1층","indutype":"일반휴게음식 - 일반한식","category":"restaurant"}]},{"lat":"37.277217453","long":"127.44840522","imageIndex":4,"items":[{"name":"대박","tel":"031-633-2993","addr":"경기도 이천시 중리동 462-5번지","indutype":"일반휴게음식 - 일반한식","category":"restaurant"},{"name":"백두네  등갈비찜&곱창","tel":"031-637-4242","addr":"경기도 이천시 중리동 462-5번지","indutype":"일반휴게음식 - 일반한식","category":"restaurant"},{"name":"설봉숯불구이","tel":"031-633-4256","addr":"경기도 이천시 중리동 462-5번지 101호","indutype":"일반휴게음식 - 갈비전문점","category":"restaurant"},{"name":"성순이묵은지","tel":"031-636-7937","addr":"경기도 이천시 중리동 462-5번지","indutype":"일반휴게음식 - 일반한식","category":"restaurant"},{"name":"이천 쪽갈비","tel":"031-635-2510","addr":"경기도 이천시 중리동 462-5번지 106호","indutype":"일반휴게음식 - 일반한식","category":"restaurant"},{"name":"자갈치산꼼장어","tel":"031-633-7692","addr":"경기도 이천시 중리동 462-5번지","indutype":"일반휴게음식 - 일반한식","category":"restaurant"},{"name":"제일뒷고기","tel":"031-631-5358","addr":"경기도 이천시 중리동 462-5번지","indutype":"일반휴게음식 - 일반한식","category":"restaurant"},{"name":"탄호프","tel":"031-634-6707","addr":"경기도 이천시 중리동 462-5번지","indutype":"일반휴게음식 - 주점","category":"restaurant"},{"name":"한짝","tel":"031-635-0461","addr":"경기도 이천시 중리동 462-5번지","indutype":"일반휴게음식 - 일반한식","category":"restaurant"},{"name":"한판돈덩어리","tel":"031-633-9290","addr":"경기도 이천시 중리동 462-5번지","indutype":"일반휴게음식 - 일반한식","category":"restaurant"}]},{"lat":"37.278802795","long":"127.44371266","imageIndex":4,"items":[{"name":"대흥당","tel":"031-635-2930","addr":"경기도 이천시 중리동 191-9번지","indutype":"일반휴게음식 - 중국식","category":"restaurant"},{"name":"정정아식당","tel":"031-635-7050","addr":"경기도 이천시 중리동 191-9번지","indutype":"일반휴게음식 - 일반한식","category":"restaurant"},{"name":"헤이미쉬","tel":"031-111-1111","addr":"경기도 이천시 중리동 191-9번지","indutype":"일반휴게음식 - 주점","category":"restaurant"}]},{"lat":"37.276131819","long":"127.4471811","imageIndex":4,"items":[{"name":"더 빈스 커피 (THE BEENS COFFE)","tel":"031-631-9035","addr":"경기도 이천시 중리동 224-3번지 1층","indutype":"일반휴게음식 - 서양음식","category":"restaurant"}]},{"lat":"37.277798417","long":"127.43755044","imageIndex":4,"items":[{"name":"도드람참숯불갈비","tel":"031-638-8254","addr":"경기도 이천시 중리동 443번지","indutype":"일반휴게음식 - 일반한식","category":"restaurant"}]},{"lat":"37.275103843","long":"127.44979086","imageIndex":4,"items":[{"name":"돈까스클럽 이천점","tel":"031-635-0222","addr":"경기도 이천시 중리동 468-17번지 우리빌딩","indutype":"일반휴게음식 - 일반한식","category":"restaurant"},{"name":"미소지소","tel":"031-633-6629","addr":"경기도 이천시 중리동 468-17번지","indutype":"일반휴게음식 - 일반한식","category":"restaurant"}]},{"lat":"37.277470538","long":"127.44579083","imageIndex":4,"items":[{"name":"돈돼지생고기","tel":"031-637-6666","addr":"경기도 이천시 중리동 215-5번지","indutype":"일반휴게음식 - 일반한식","category":"restaurant"}]},{"lat":"37.279801677","long":"127.43918566","imageIndex":4,"items":[{"name":"돌담토종순대국","tel":"031-636-1085","addr":"경기도 이천시 중리동 19-4번지","indutype":"일반휴게음식 - 일반한식","category":"restaurant"}]},{"lat":"37.279858187","long":"127.43852072","imageIndex":4,"items":[{"name":"동막골","tel":"031-638-2271","addr":"경기도 이천시 중리동 19-12번지","indutype":"일반휴게음식 - 일반한식","category":"restaurant"}]},{"lat":"37.27482649","long":"127.44927057","imageIndex":4,"items":[{"name":"동신참치이천점","tel":"031-638-1777","addr":"경기도 이천시 중리동 467-3번지","indutype":"일반휴게음식 - 일반한식","category":"restaurant"}]},{"lat":"37.277716065","long":"127.44277047","imageIndex":4,"items":[{"name":"동해해물탕","tel":"031-635-8381","addr":"경기도 이천시 중리동 206-14번지","indutype":"일반휴게음식 - 일반한식","category":"restaurant"}]},{"lat":"37.275824294","long":"127.447495","imageIndex":4,"items":[{"name":"두레박","tel":"02-1577-0000","addr":"경기도 이천시 중리동 223번지 1층","indutype":"일반휴게음식 - 일반한식","category":"restaurant"}]},{"lat":"37.279049318","long":"127.43796356","imageIndex":4,"items":[{"name":"두맛찜닭(이천점)","tel":"031-632-6264","addr":"경기도 이천시 중리동 2-25번지","indutype":"일반휴게음식 - 일반한식","category":"restaurant"}]},{"lat":"37.279132339","long":"127.44474066","imageIndex":4,"items":[{"name":"디저트39 이천점","tel":"031-634-0091","addr":"경기도 이천시 중리동 202-8번지","indutype":"일반휴게음식 - 서양음식","category":"restaurant"},{"name":"쉼","tel":"031-633-7321","addr":"경기도 이천시 중리동 202-8번지 1층","indutype":"일반휴게음식 - 일반한식","category":"restaurant"},{"name":"씨얌","tel":"031-635-2955","addr":"경기도 이천시 중리동 202-8번지","indutype":"일반휴게음식 - 서양음식","category":"restaurant"},{"name":"찬이네감자탕,갈비찜","tel":"031-633-7321","addr":"경기도 이천시 중리동 202-8번지 1층","indutype":"일반휴게음식 - 일반한식","category":"restaurant"},{"name":"휠","tel":"031-636-2228","addr":"경기도 이천시 중리동 202-8번지","indutype":"일반휴게음식 - 서양음식","category":"restaurant"}]},{"lat":"37.277663078","long":"127.4449012","imageIndex":4,"items":[{"name":"라무진 이천점","tel":"031-633-9202","addr":"경기도 이천시 중리동 209-3번지","indutype":"일반휴게음식 - 일반한식","category":"restaurant"}]},{"lat":"37.279661639","long":"127.44293965","imageIndex":4,"items":[{"name":"랑토","tel":"031-638-2479","addr":"경기도 이천시 중리동 193-2번지","indutype":"일반휴게음식 - 서양음식","category":"restaurant"},{"name":"랑토스레","tel":"031-638-2479","addr":"경기도 이천시 중리동 193-2번지","indutype":"일반휴게음식 - 일반한식","category":"restaurant"},{"name":"태능식당","tel":"031-635-0083","addr":"경기도 이천시 중리동 193-2번지","indutype":"일반휴게음식 - 일반한식","category":"restaurant"}]},{"lat":"37.276633457","long":"127.44796204","imageIndex":4,"items":[{"name":"레드바","tel":"031-631-0323","addr":"경기도 이천시 중리동 463-9번지","indutype":"일반휴게음식 - 일반한식","category":"restaurant"},{"name":"카네기","tel":"031-634-5280","addr":"경기도 이천시 중리동 463-9번지 지하1층","indutype":"일반휴게음식 - 주점","category":"restaurant"}]},{"lat":"37.275216602","long":"127.44616097","imageIndex":4,"items":[{"name":"로즈웨딩부페","tel":"031-635-5811","addr":"경기도 이천시 중리동 461-1번지","indutype":"일반휴게음식 - 일반한식","category":"restaurant"},{"name":"말보르맨레스토랑","tel":"031-635-7432","addr":"경기도 이천시 중리동 461-1번지","indutype":"일반휴게음식 - 서양음식","category":"restaurant"}]},{"lat":"37.278941361","long":"127.44521312","imageIndex":4,"items":[{"name":"롱고스(LONGOS)","tel":"031-123-4567","addr":"경기도 이천시 중리동 212-1번지 2층","indutype":"일반휴게음식 - 일반한식","category":"restaurant"},{"name":"큰맘할매순대국(중리점)","tel":"031-638-8824","addr":"경기도 이천시 중리동 212-1번지","indutype":"일반휴게음식 - 일반한식","category":"restaurant"}]},{"lat":"37.277716484","long":"127.44265772","imageIndex":4,"items":[{"name":"린슈가","tel":"031-633-8131","addr":"경기도 이천시 중리동 206-13번지 101호","indutype":"일반휴게음식 - 스넥","category":"restaurant"}]},{"lat":"37.278520374","long":"127.4445454","imageIndex":4,"items":[{"name":"마르시스","tel":"031-631-0702","addr":"경기도 이천시 중리동 211-10번지","indutype":"일반휴게음식 - 서양음식","category":"restaurant"},{"name":"수정","tel":"031-636-8655","addr":"경기도 이천시 중리동 211-10번지 3호","indutype":"일반휴게음식 - 일반한식","category":"restaurant"},{"name":"옛날로타리갈비","tel":"031-636-2181","addr":"경기도 이천시 중리동 211-10번지","indutype":"일반휴게음식 - 일반한식","category":"restaurant"},{"name":"플로렌스 플랜","tel":"","addr":"경기도 이천시 중리동 211-10번지 102호","indutype":"일반휴게음식 - 서양음식","category":"restaurant"}]},{"lat":"37.278827135","long":"127.44443444","imageIndex":4,"items":[{"name":"마포갈매기(이천점)","tel":"031-635-6092","addr":"경기도 이천시 중리동 203번지 극장빌딩","indutype":"일반휴게음식 - 일반한식","category":"restaurant"},{"name":"치즈를사랑한찜닭","tel":"031-633-5600","addr":"경기도 이천시 중리동 203번지 1층","indutype":"일반휴게음식 - 일반한식","category":"restaurant"}]},{"lat":"37.279744456","long":"127.44004228","imageIndex":4,"items":[{"name":"만복식당","tel":"031-633-1381","addr":"경기도 이천시 중리동 21-3번지","indutype":"일반휴게음식 - 일반한식","category":"restaurant"},{"name":"성골매삼겹살","tel":"031-635-9216","addr":"경기도 이천시 중리동 21-3번지","indutype":"일반휴게음식 - 일반한식","category":"restaurant"},{"name":"추억의포장마차","tel":"031-634-5387","addr":"경기도 이천시 중리동 21-3번지","indutype":"일반휴게음식 - 일반한식","category":"restaurant"}]},{"lat":"37.276303517","long":"127.44704681","imageIndex":4,"items":[{"name":"맛깔참죽","tel":"031-637-6233","addr":"경기도 이천시 중리동 224-7번지","indutype":"일반휴게음식 - 서양음식","category":"restaurant"},{"name":"처음","tel":"031-635-1314","addr":"경기도 이천시 중리동 224-7번지","indutype":"일반휴게음식 - 일반한식","category":"restaurant"}]},{"lat":"37.277240086","long":"127.4374683","imageIndex":4,"items":[{"name":"멕시칸치킨산호분점","tel":"031-633-1216","addr":"경기도 이천시 중리동 444번지 산호3차아파트","indutype":"일반휴게음식 - 주점","category":"restaurant"},{"name":"산호자수정치킨호프식당","tel":"031-635-7212","addr":"경기도 이천시 중리동 444번지 산호3차아파트","indutype":"일반휴게음식 - 일반한식","category":"restaurant"},{"name":"산호자수정커피숍","tel":"031-635-7212","addr":"경기도 이천시 중리동 444번지 산호3차아파트","indutype":"일반휴게음식 - 스넥","category":"restaurant"},{"name":"산호회집","tel":"031-637-4815","addr":"경기도 이천시 중리동 444번지 산호3차아파트","indutype":"일반휴게음식 - 일반한식","category":"restaurant"}]},{"lat":"37.277434839","long":"127.44810206","imageIndex":4,"items":[{"name":"명동돼지갈비","tel":"031-636-7335","addr":"경기도 이천시 중리동 462-3번지","indutype":"일반휴게음식 - 갈비전문점","category":"restaurant"},{"name":"명동뚝배기감자탕","tel":"031-636-7335","addr":"경기도 이천시 중리동 462-3번지","indutype":"일반휴게음식 - 일반한식","category":"restaurant"},{"name":"미하라 라멘","tel":"","addr":"경기도 이천시 중리동 462-3번지 1층","indutype":"일반휴게음식 - 일반한식","category":"restaurant"}]},{"lat":"37.279970705","long":"127.43977297","imageIndex":4,"items":[{"name":"명륜진사갈비(이천점)","tel":"031-635-5744","addr":"경기도 이천시 중리동 21-1번지 외2필지 2층","indutype":"일반휴게음식 - 일반한식","category":"restaurant"},{"name":"유로코피자 이천1호점","tel":"031-634-1828","addr":"경기도 이천시 중리동 21-1번지","indutype":"일반휴게음식 - 서양음식","category":"restaurant"},{"name":"유명통닭","tel":"031-632-8666","addr":"경기도 이천시 중리동 21-1번지 1층","indutype":"일반휴게음식 - 일반한식","category":"restaurant"},{"name":"할매안흥찐빵만두","tel":"031-636-1674","addr":"경기도 이천시 중리동 21-1번지 외2필지","indutype":"일반휴게음식 - 스넥","category":"restaurant"}]},{"lat":"37.27965681","long":"127.43937651","imageIndex":4,"items":[{"name":"모두의만족&보쌈","tel":"031-633-2065","addr":"경기도 이천시 중리동 21-13번지 1층","indutype":"일반휴게음식 - 일반한식","category":"restaurant"}]},{"lat":"37.279605907","long":"127.43851927","imageIndex":4,"items":[{"name":"무한리필 마포서서갈비 이천점","tel":"031-633-1973","addr":"경기도 이천시 중리동 18번지 1층","indutype":"일반휴게음식 - 일반한식","category":"restaurant"}]},{"lat":"37.278275042","long":"127.44509646","imageIndex":4,"items":[{"name":"미가도회쌀밥정식","tel":"031-637-3015","addr":"경기도 이천시 중리동 211-7번지","indutype":"일반휴게음식 - 일반한식","category":"restaurant"},{"name":"산청흑돼지","tel":"031-631-3727","addr":"경기도 이천시 중리동 211-7번지","indutype":"일반휴게음식 - 일반한식","category":"restaurant"},{"name":"외양간","tel":"031-631-9989","addr":"경기도 이천시 중리동 211-7번지","indutype":"일반휴게음식 - 일반한식","category":"restaurant"}]},{"lat":"37.277884788","long":"127.44584963","imageIndex":4,"items":[{"name":"미니펍이천터미널점","tel":"031-635-1117","addr":"경기도 이천시 중리동 214-2번지 101호","indutype":"일반휴게음식 - 서양음식","category":"restaurant"},{"name":"에이식스(A6)","tel":"031-638-1100","addr":"경기도 이천시 중리동 214-2번지 2층","indutype":"일반휴게음식 - 서양음식","category":"restaurant"}]},{"lat":"37.27863047","long":"127.44401609","imageIndex":4,"items":[{"name":"미스터 비","tel":"031-632-2777","addr":"경기도 이천시 중리동 203-3번지 2층","indutype":"일반휴게음식 - 주점","category":"restaurant"},{"name":"수피야(Soopiya)","tel":"031-635-5157","addr":"경기도 이천시 중리동 203-3번지 1층","indutype":"일반휴게음식 - 일반한식","category":"restaurant"}]},{"lat":"37.27674715","long":"127.448876","imageIndex":4,"items":[{"name":"미쳐버린파닭(중리점)","tel":"031-633-7753","addr":"경기도 이천시 중리동 463-5번지 동원 상가 101호","indutype":"일반휴게음식 - 스넥","category":"restaurant"},{"name":"비엘엔알(BL&R) 7080 LIVE","tel":"031-111-1111","addr":"경기도 이천시 중리동 463-5번지 동원상가 1동 202호","indutype":"일반휴게음식 - 주점","category":"restaurant"},{"name":"여우비","tel":"031-632-4383","addr":"경기도 이천시 중리동 463-5번지 1층5호6호","indutype":"일반휴게음식 - 주점","category":"restaurant"},{"name":"옥이참치","tel":"031-637-6589","addr":"경기도 이천시 중리동 463-5번지 동원 상가 103호","indutype":"일반휴게음식 - 일식·회집","category":"restaurant"},{"name":"전통항아리보쌈","tel":"031-638-2242","addr":"경기도 이천시 중리동 463-5번지","indutype":"일반휴게음식 - 일반한식","category":"restaurant"},{"name":"칸꼬시","tel":"031-636-2778","addr":"경기도 이천시 중리동 463-5번지","indutype":"일반휴게음식 - 일반한식","category":"restaurant"}]},{"lat":"37.279213009","long":"127.44485389","imageIndex":4,"items":[{"name":"민가네매운양푼갈비찜","tel":"031-635-9277","addr":"경기도 이천시 중리동 202번지 1층","indutype":"일반휴게음식 - 일반한식","category":"restaurant"},{"name":"어니스트스시","tel":"031-694-0005","addr":"경기도 이천시 중리동 202번지","indutype":"일반휴게음식 - 일반한식","category":"restaurant"}]},{"lat":"37.277691622","long":"127.44449546","imageIndex":4,"items":[{"name":"벌교식당","tel":"031-638-6690","addr":"경기도 이천시 중리동 209-8번지","indutype":"일반휴게음식 - 일반한식","category":"restaurant"},{"name":"회랑친구된 양식에 빠진 닭발","tel":"031-632-8050","addr":"경기도 이천시 중리동 209-8번지","indutype":"일반휴게음식 - 일반한식","category":"restaurant"}]},{"lat":"37.277691118","long":"127.44463076","imageIndex":4,"items":[{"name":"별밤","tel":"031-636-5906","addr":"경기도 이천시 중리동 209-9번지 외2필지","indutype":"일반휴게음식 - 일반한식","category":"restaurant"}]},{"lat":"37.279187956","long":"127.44432379","imageIndex":4,"items":[{"name":"별사탕","tel":"","addr":"경기도 이천시 중리동 201-5번지","indutype":"일반휴게음식 - 주점","category":"restaurant"}]},{"lat":"37.277913884","long":"127.44529731","imageIndex":4,"items":[{"name":"보림숯불갈비","tel":"031-634-8738","addr":"경기도 이천시 중리동 214번지","indutype":"일반휴게음식 - 일반한식","category":"restaurant"},{"name":"용인순대국집","tel":"031-638-7196","addr":"경기도 이천시 중리동 214번지","indutype":"일반휴게음식 - 일반한식","category":"restaurant"},{"name":"정실장술집","tel":"","addr":"경기도 이천시 중리동 214번지","indutype":"일반휴게음식 - 주점","category":"restaurant"},{"name":"제주흑돼지백팔번집","tel":"031-638-5486","addr":"경기도 이천시 중리동 214번지","indutype":"일반휴게음식 - 일반한식","category":"restaurant"}]},{"lat":"37.27901769","long":"127.44407473","imageIndex":4,"items":[{"name":"보통의술집","tel":"031-694-6600","addr":"경기도 이천시 중리동 191-5번지","indutype":"일반휴게음식 - 주점","category":"restaurant"}]},{"lat":"37.277017928","long":"127.44635194","imageIndex":4,"items":[{"name":"본도시락이천점","tel":"031-638-4282","addr":"경기도 이천시 중리동 217-2번지 동원빌딩","indutype":"일반휴게음식 - 스넥","category":"restaurant"}]},{"lat":"37.277019279","long":"127.44599114","imageIndex":4,"items":[{"name":"부부즉석손칼국수","tel":"031-637-8850","addr":"경기도 이천시 중리동 216-6번지","indutype":"일반휴게음식 - 일반한식","category":"restaurant"}]},{"lat":"37.280051038","long":"127.44241196","imageIndex":4,"items":[{"name":"부산복집","tel":"031-636-2253","addr":"경기도 이천시 중리동 180-6번지","indutype":"일반휴게음식 - 일반한식","category":"restaurant"}]},{"lat":"37.279662123","long":"127.43793326","imageIndex":4,"items":[{"name":"불타는곱창","tel":"031-631-9902","addr":"경기도 이천시 중리동 2번지","indutype":"일반휴게음식 - 일반한식","category":"restaurant"}]},{"lat":"37.27838615","long":"127.44429656","imageIndex":4,"items":[{"name":"붐디야다","tel":"031-635-9965","addr":"경기도 이천시 중리동 211-9번지 1층","indutype":"일반휴게음식 - 일반한식","category":"restaurant"}]},{"lat":"37.279271441","long":"127.44368157","imageIndex":4,"items":[{"name":"블리스","tel":"031-636-0900","addr":"경기도 이천시 중리동 191-16번지","indutype":"일반휴게음식 - 일반한식","category":"restaurant"}]},{"lat":"37.276468317","long":"127.44634872","imageIndex":4,"items":[{"name":"비스트로 (Bistro) 윤","tel":"031-631-2090","addr":"경기도 이천시 중리동 228-1번지","indutype":"일반휴게음식 - 일반한식","category":"restaurant"}]},{"lat":"37.279857301","long":"127.4436286","imageIndex":4,"items":[{"name":"빛담","tel":"031-631-2936","addr":"경기도 이천시 중리동 194-9번지","indutype":"일반휴게음식 - 서양음식","category":"restaurant"},{"name":"우동젠","tel":"","addr":"경기도 이천시 중리동 194-9번지","indutype":"일반휴게음식 - 일반한식","category":"restaurant"},{"name":"일파만파","tel":"","addr":"경기도 이천시 중리동 194-9번지 2층","indutype":"일반휴게음식 - 일반한식","category":"restaurant"}]},{"lat":"37.278492098","long":"127.44245927","imageIndex":4,"items":[{"name":"사랑채","tel":"031-637-2166","addr":"경기도 이천시 중리동 189-13번지","indutype":"일반휴게음식 - 일반한식","category":"restaurant"}]},{"lat":"37.277912147","long":"127.44334665","imageIndex":4,"items":[{"name":"삼일식당","tel":"031-633-2886","addr":"경기도 이천시 중리동 205-3번지","indutype":"일반휴게음식 - 일반한식","category":"restaurant"},{"name":"수카","tel":"031-111-1111","addr":"경기도 이천시 중리동 205-3번지","indutype":"일반휴게음식 - 일반한식","category":"restaurant"}]},{"lat":"37.279270601","long":"127.44390707","imageIndex":4,"items":[{"name":"삼화식당","tel":"031-635-3807","addr":"경기도 이천시 중리동 191-2번지","indutype":"일반휴게음식 - 일반한식","category":"restaurant"}]},{"lat":"37.27957883","long":"127.44340147","imageIndex":4,"items":[{"name":"삽다리막창골","tel":"031-636-2852","addr":"경기도 이천시 중리동 192-2번지","indutype":"일반휴게음식 - 일반한식","category":"restaurant"}]},{"lat":"37.276240678","long":"127.4493804","imageIndex":4,"items":[{"name":"서래양곱창구이","tel":"031-632-1592","addr":"경기도 이천시 중리동 468-2번지","indutype":"일반휴게음식 - 일반한식","category":"restaurant"},{"name":"수니네","tel":"031-636-4137","addr":"경기도 이천시 중리동 468-2번지 다복빌딩 201호","indutype":"일반휴게음식 - 일반한식","category":"restaurant"},{"name":"착한낙지","tel":"031-631-3354","addr":"경기도 이천시 중리동 468-2번지 다복빌딩 1층","indutype":"일반휴게음식 - 일반한식","category":"restaurant"}]},{"lat":"37.276103096","long":"127.44763194","imageIndex":4,"items":[{"name":"서울식당","tel":"031-637-6622","addr":"경기도 이천시 중리동 464-9번지","indutype":"일반휴게음식 - 일반한식","category":"restaurant"}]},{"lat":"37.278997905","long":"127.44454819","imageIndex":4,"items":[{"name":"서촌생고기","tel":"031-634-0627","addr":"경기도 이천시 중리동 202-6번지","indutype":"일반휴게음식 - 일반한식","category":"restaurant"},{"name":"청담동말자 (이천점)","tel":"031-694-6001","addr":"경기도 이천시 중리동 202-6번지","indutype":"일반휴게음식 - 주점","category":"restaurant"}]},{"lat":"37.279827963","long":"127.44182432","imageIndex":4,"items":[{"name":"설린","tel":"031-635-8561","addr":"경기도 이천시 중리동 182-1번지 101호","indutype":"일반휴게음식 - 서양음식","category":"restaurant"}]},{"lat":"37.279628532","long":"127.43971462","imageIndex":4,"items":[{"name":"설봉대박","tel":"031-638-9411","addr":"경기도 이천시 중리동 21-8번지","indutype":"일반휴게음식 - 일반한식","category":"restaurant"}]},{"lat":"37.279049939","long":"127.43779443","imageIndex":4,"items":[{"name":"설봉산묵집","tel":"031-635-1515","addr":"경기도 이천시 중리동 2-15번지","indutype":"일반휴게음식 - 일반한식","category":"restaurant"}]},{"lat":"37.276747121","long":"127.44648566","imageIndex":4,"items":[{"name":"세븐7080","tel":"031-631-6650","addr":"경기도 이천시 중리동 217-4번지","indutype":"일반휴게음식 - 주점","category":"restaurant"}]},{"lat":"37.280047936","long":"127.43837523","imageIndex":4,"items":[{"name":"소문난 생고기","tel":"031-637-1192","addr":"경기도 이천시 중리동 1-3번지","indutype":"일반휴게음식 - 일반한식","category":"restaurant"}]},{"lat":"37.278970075","long":"127.44476226","imageIndex":4,"items":[{"name":"소소식당","tel":"02-1111-1111","addr":"경기도 이천시 중리동 202-4번지 1층","indutype":"일반휴게음식 - 일식·회집","category":"restaurant"},{"name":"어락","tel":"031-638-8828","addr":"경기도 이천시 중리동 202-4번지 1층","indutype":"일반휴게음식 - 일반한식","category":"restaurant"}]},{"lat":"37.274884838","long":"127.44813215","imageIndex":4,"items":[{"name":"소호&노호","tel":"031-636-0552","addr":"경기도 이천시 중리동 466-4번지","indutype":"일반휴게음식 - 서양음식","category":"restaurant"}]},{"lat":"37.279302341","long":"127.44020886","imageIndex":4,"items":[{"name":"송가네동태찜","tel":"031-632-4913","addr":"경기도 이천시 중리동 175번지","indutype":"일반휴게음식 - 일반한식","category":"restaurant"}]},{"lat":"37.276351941","long":"127.44854669","imageIndex":4,"items":[{"name":"송하버섯마을","tel":"031-638-1426","addr":"경기도 이천시 중리동 464-3번지","indutype":"일반휴게음식 - 일반한식","category":"restaurant"},{"name":"참맛나리아","tel":"031-636-6751","addr":"경기도 이천시 중리동 464-3번지","indutype":"일반휴게음식 - 주점","category":"restaurant"}]},{"lat":"37.278549801","long":"127.44390287","imageIndex":4,"items":[{"name":"숯불쪽갈비 개미식당 (본점)","tel":"031-637-9992","addr":"경기도 이천시 중리동 203-6번지","indutype":"일반휴게음식 - 일반한식","category":"restaurant"}]},{"lat":"37.275970803","long":"127.44926605","imageIndex":4,"items":[{"name":"숯불풍천민물장어","tel":"031-638-1918","addr":"경기도 이천시 중리동 468-4번지","indutype":"일반휴게음식 - 일반한식","category":"restaurant"}]},{"lat":"37.279518443","long":"127.44267947","imageIndex":4,"items":[{"name":"슈슈(CHOU CHOU)","tel":"070-8808-5505","addr":"경기도 이천시 중리동 193-15번지 슈슈디저트카페","indutype":"일반휴게음식 - 일반한식","category":"restaurant"}]},{"lat":"37.276245391","long":"127.44812888","imageIndex":4,"items":[{"name":"스시야","tel":"031-637-3748","addr":"경기도 이천시 중리동 464-1번지 1층","indutype":"일반휴게음식 - 일반한식","category":"restaurant"}]},{"lat":"37.277553113","long":"127.44779832","imageIndex":4,"items":[{"name":"스카이부페","tel":"031-633-6565","addr":"경기도 이천시 중리동 462번지 그랜드웨딩홀 6층 601호","indutype":"일반휴게음식 - 서양음식","category":"restaurant"}]},{"lat":"37.274271451","long":"127.43370799","imageIndex":4,"items":[{"name":"신가네","tel":"031-636-3966","addr":"경기도 이천시 중리동 390-7번지","indutype":"일반휴게음식 - 일반한식","category":"restaurant"}]},{"lat":"37.274049398","long":"127.43282728","imageIndex":4,"items":[{"name":"신갈미생선국수추어탕","tel":"031-636-6699","addr":"경기도 이천시 중리동 391-1번지","indutype":"일반휴게음식 - 일반한식","category":"restaurant"}]},{"lat":"37.279941226","long":"127.43799124","imageIndex":4,"items":[{"name":"신사동","tel":"031-634-0017","addr":"경기도 이천시 중리동 1번지 1층","indutype":"일반휴게음식 - 일반한식","category":"restaurant"}]},{"lat":"37.276330267","long":"127.44951623","imageIndex":4,"items":[{"name":"쌍둥이돼지국밥","tel":"031-637-8875","addr":"경기도 이천시 중리동 468번지","indutype":"일반휴게음식 - 일반한식","category":"restaurant"}]},{"lat":"37.280076351","long":"127.44287441","imageIndex":4,"items":[{"name":"쎄미양념치킨","tel":"031-633-7574","addr":"경기도 이천시 중리동 194-1번지","indutype":"일반휴게음식 - 일반한식","category":"restaurant"}]},{"lat":"37.278744043","long":"127.44255094","imageIndex":4,"items":[{"name":"아지매","tel":"031-635-0710","addr":"경기도 이천시 중리동 189-17번지","indutype":"일반휴게음식 - 일반한식","category":"restaurant"}]},{"lat":"37.278212004","long":"127.44023638","imageIndex":4,"items":[{"name":"양촌오리","tel":"031-633-3203","addr":"경기도 이천시 중리동 172-9번지 A동 1층","indutype":"일반휴게음식 - 일반한식","category":"restaurant"}]},{"lat":"37.280161752","long":"127.4417135","imageIndex":4,"items":[{"name":"양평해장국","tel":"031-635-6659","addr":"경기도 이천시 중리동 180번지","indutype":"일반휴게음식 - 일반한식","category":"restaurant"}]},{"lat":"37.280162077","long":"127.43918774","imageIndex":4,"items":[{"name":"엄마식당묵은지찌개전문점","tel":"031-638-0701","addr":"경기도 이천시 중리동 20-4번지 엄마식당묵은지찌개전문점","indutype":"일반휴게음식 - 일반한식","category":"restaurant"},{"name":"포르스호프","tel":"031-631-6673","addr":"경기도 이천시 중리동 20-4번지","indutype":"일반휴게음식 - 주점","category":"restaurant"}]},{"lat":"37.279132938","long":"127.44215856","imageIndex":4,"items":[{"name":"엉클파닭(이천점)","tel":"031-631-9688","addr":"경기도 이천시 중리동 181-8번지 2호","indutype":"일반휴게음식 - 일반한식","category":"restaurant"}]},{"lat":"37.275685458","long":"127.44366066","imageIndex":4,"items":[{"name":"엔젤라 브랜드 앤 커피 (Angela's Bread&ca","tel":"031-633-5222","addr":"경기도 이천시 중리동 456-4번지 1층","indutype":"일반휴게음식 - 서양음식","category":"restaurant"}]},{"lat":"37.279358641","long":"127.44446009","imageIndex":4,"items":[{"name":"역전할머니맥주이천중리점","tel":"031-632-2228","addr":"경기도 이천시 중리동 201-3번지","indutype":"일반휴게음식 - 주점","category":"restaurant"},{"name":"이사육공일(24601)","tel":"02-1577-0000","addr":"경기도 이천시 중리동 201-3번지","indutype":"일반휴게음식 - 일반한식","category":"restaurant"},{"name":"카페오소브","tel":"031-633-5405","addr":"경기도 이천시 중리동 201-3번지","indutype":"일반휴게음식 - 서양음식","category":"restaurant"}]},{"lat":"37.278357479","long":"127.44473613","imageIndex":4,"items":[{"name":"옛날통닭 중리점","tel":"031-637-9259","addr":"경기도 이천시 중리동 211-8번지 103호","indutype":"일반휴게음식 - 일반한식","category":"restaurant"},{"name":"쭈발이","tel":"031-635-8298","addr":"경기도 이천시 중리동 211-8번지 1층 104호","indutype":"일반휴게음식 - 일반한식","category":"restaurant"}]},{"lat":"37.275296679","long":"127.44643204","imageIndex":4,"items":[{"name":"오가면옥","tel":"031-635-9897","addr":"경기도 이천시 중리동 461-2번지","indutype":"일반휴게음식 - 일반한식","category":"restaurant"}]},{"lat":"37.279855621","long":"127.44165535","imageIndex":4,"items":[{"name":"오대양횟집","tel":"031-632-0501","addr":"경기도 이천시 중리동 182번지","indutype":"일반휴게음식 - 일식·회집","category":"restaurant"}]},{"lat":"37.276273352","long":"127.44063107","imageIndex":4,"items":[{"name":"왕자식당","tel":"031-638-5262","addr":"경기도 이천시 중리동 450-4번지 1층","indutype":"일반휴게음식 - 일반한식","category":"restaurant"}]},{"lat":"37.275436788","long":"127.44990558","imageIndex":4,"items":[{"name":"용궁횟집","tel":"031-637-8281","addr":"경기도 이천시 중리동 468-22번지 1층","indutype":"일반휴게음식 - 일반한식","category":"restaurant"}]},{"lat":"37.27910436","long":"127.44257559","imageIndex":4,"items":[{"name":"우디당","tel":"","addr":"경기도 이천시 중리동 193-11번지 한생명감리교회 1층 101호","indutype":"일반휴게음식 - 서양음식","category":"restaurant"}]},{"lat":"37.276325633","long":"127.44835486","imageIndex":4,"items":[{"name":"우리식당","tel":"031-632-8895","addr":"경기도 이천시 중리동 464-2번지","indutype":"일반휴게음식 - 일반한식","category":"restaurant"}]},{"lat":"37.275826515","long":"127.44929903","imageIndex":4,"items":[{"name":"워낭소리","tel":"031-637-1616","addr":"경기도 이천시 중리동 468-7번지","indutype":"일반휴게음식 - 일반한식","category":"restaurant"}]},{"lat":"37.27902179","long":"127.4380987","imageIndex":4,"items":[{"name":"원돈가스","tel":"031-633-6266","addr":"경기도 이천시 중리동 2-13번지 중리동한송빌 1층","indutype":"일반휴게음식 - 일반한식","category":"restaurant"}]},{"lat":"37.275856639","long":"127.44123751","imageIndex":4,"items":[{"name":"월남쌈김상사 이천점","tel":"031-637-9249","addr":"경기도 이천시 중리동 450-27번지","indutype":"일반휴게음식 - 일반한식","category":"restaurant"}]},{"lat":"37.279247322","long":"127.44046788","imageIndex":4,"items":[{"name":"유명칼국수","tel":"031-632-1124","addr":"경기도 이천시 중리동 175-3번지 유명칼국수","indutype":"일반휴게음식 - 일반한식","category":"restaurant"},{"name":"은승이네 (미앤다한식)","tel":"031-635-6449","addr":"경기도 이천시 중리동 175-3번지","indutype":"일반휴게음식 - 일반한식","category":"restaurant"}]},{"lat":"37.27896384","long":"127.44401804","imageIndex":4,"items":[{"name":"육회공작소(이천중리점)","tel":"031-636-3560","addr":"경기도 이천시 중리동 191-6번지","indutype":"일반휴게음식 - 일반한식","category":"restaurant"}]},{"lat":"37.277942205","long":"127.43765275","imageIndex":4,"items":[{"name":"으리으리","tel":"031-637-4188","addr":"경기도 이천시 중리동 235번지","indutype":"일반휴게음식 - 일반한식","category":"restaurant"}]},{"lat":"37.2800261","long":"127.44184803","imageIndex":4,"items":[{"name":"은미네","tel":"031-631-4391","addr":"경기도 이천시 중리동 180-10번지","indutype":"일반휴게음식 - 일반한식","category":"restaurant"}]},{"lat":"37.276715818","long":"127.44762427","imageIndex":4,"items":[{"name":"이정식당","tel":"031-635-3694","addr":"경기도 이천시 중리동 463-11번지","indutype":"일반휴게음식 - 일반한식","category":"restaurant"},{"name":"포장마차","tel":"031-635-9286","addr":"경기도 이천시 중리동 463-11번지","indutype":"일반휴게음식 - 주점","category":"restaurant"}]},{"lat":"37.278690368","long":"127.44001363","imageIndex":4,"items":[{"name":"이조칼국수","tel":"031-635-0598","addr":"경기도 이천시 중리동 173-7번지","indutype":"일반휴게음식 - 일반한식","category":"restaurant"}]},{"lat":"37.278878691","long":"127.44268703","imageIndex":4,"items":[{"name":"이천 아구찜.코다리찜","tel":"031-637-5507","addr":"경기도 이천시 중리동 189-2번지","indutype":"일반휴게음식 - 일반한식","category":"restaurant"}]},{"lat":"37.276496065","long":"127.4461572","imageIndex":4,"items":[{"name":"이천광명소고기순대국","tel":"031-634-6664","addr":"경기도 이천시 중리동 228번지 1층","indutype":"일반휴게음식 - 일반한식","category":"restaurant"}]},{"lat":"37.279716537","long":"127.44271445","imageIndex":4,"items":[{"name":"이천삼계탕","tel":"031-634-3902","addr":"경기도 이천시 중리동 193번지 1층","indutype":"일반휴게음식 - 일반한식","category":"restaurant"}]},{"lat":"37.275969527","long":"127.4496043","imageIndex":4,"items":[{"name":"이천옥","tel":"031-631-3363","addr":"경기도 이천시 중리동 468-6번지","indutype":"일반휴게음식 - 일반한식","category":"restaurant"}]},{"lat":"37.277518942","long":"127.44004069","imageIndex":4,"items":[{"name":"장수왕족발보쌈","tel":"031-635-9554","addr":"경기도 이천시 중리동 233-2번지","indutype":"일반휴게음식 - 일반한식","category":"restaurant"}]},{"lat":"37.279435407","long":"127.44077341","imageIndex":4,"items":[{"name":"장충동왕족발보쌈","tel":"031-635-2200","addr":"경기도 이천시 중리동 177-17번지 1층","indutype":"일반휴게음식 - 일반한식","category":"restaurant"}]},{"lat":"37.280136376","long":"127.43882677","imageIndex":4,"items":[{"name":"장흥회관","tel":"031-635-3710","addr":"경기도 이천시 중리동 20-2번지","indutype":"일반휴게음식 - 일반한식","category":"restaurant"}]},{"lat":"37.276437524","long":"127.44735203","imageIndex":4,"items":[{"name":"재연식당","tel":"031-635-4568","addr":"경기도 이천시 중리동 224-2번지","indutype":"일반휴게음식 - 일반한식","category":"restaurant"}]},{"lat":"37.277218598","long":"127.44810079","imageIndex":4,"items":[{"name":"정원 꼬치향","tel":"031-638-6669","addr":"경기도 이천시 중리동 462-4번지","indutype":"일반휴게음식 - 일반한식","category":"restaurant"}]},{"lat":"37.276801899","long":"127.4462943","imageIndex":4,"items":[{"name":"정육식당","tel":"031-633-9716","addr":"경기도 이천시 중리동 217-5번지","indutype":"일반휴게음식 - 일반한식","category":"restaurant"}]},{"lat":"37.27652394","long":"127.44593186","imageIndex":4,"items":[{"name":"정타르","tel":"02-1111-1111","addr":"경기도 이천시 중리동 229-7번지 1층","indutype":"일반휴게음식 - 서양음식","category":"restaurant"}]},{"lat":"37.278272002","long":"127.44349533","imageIndex":4,"items":[{"name":"조마루감자탕","tel":"031-635-7570","addr":"경기도 이천시 중리동 204-7번지 2층","indutype":"일반휴게음식 - 일반한식","category":"restaurant"}]},{"lat":"37.279859431","long":"127.43818246","imageIndex":4,"items":[{"name":"주가네","tel":"031-635-0605","addr":"경기도 이천시 중리동 1-8번지","indutype":"일반휴게음식 - 일반한식","category":"restaurant"}]},{"lat":"37.277046942","long":"127.44582217","imageIndex":4,"items":[{"name":"주렁주렁앞고기","tel":"031-633-4716","addr":"경기도 이천시 중리동 216-5번지","indutype":"일반휴게음식 - 일반한식","category":"restaurant"}]},{"lat":"37.276912298","long":"127.44568608","imageIndex":4,"items":[{"name":"중리골염소탕","tel":"031-633-3332","addr":"경기도 이천시 중리동 216-9번지","indutype":"일반휴게음식 - 일반한식","category":"restaurant"}]},{"lat":"37.27727177","long":"127.44593624","imageIndex":4,"items":[{"name":"중리생선구이백반","tel":"031-632-3463","addr":"경기도 이천시 중리동 215-7번지","indutype":"일반휴게음식 - 일반한식","category":"restaurant"}]},{"lat":"37.278357058","long":"127.44484888","imageIndex":4,"items":[{"name":"중앙페리카나","tel":"031-634-0654","addr":"경기도 이천시 중리동 211-15번지","indutype":"일반휴게음식 - 주점","category":"restaurant"}]},{"lat":"37.278880354","long":"127.44466026","imageIndex":4,"items":[{"name":"즉석우동짜장","tel":"031-633-5682","addr":"경기도 이천시 중리동 202-5번지","indutype":"일반휴게음식 - 중국식","category":"restaurant"},{"name":"호반닭갈비","tel":"031-634-9916","addr":"경기도 이천시 중리동 202-5번지","indutype":"일반휴게음식 - 일반한식","category":"restaurant"}]},{"lat":"37.277580808","long":"127.44521643","imageIndex":4,"items":[{"name":"진미칡냉면","tel":"031-634-2222","addr":"경기도 이천시 중리동 215번지","indutype":"일반휴게음식 - 일반한식","category":"restaurant"}]},{"lat":"37.276824235","long":"127.44754598","imageIndex":4,"items":[{"name":"찬미김밥","tel":"031-000-0000","addr":"경기도 이천시 중리동 221번지 3층","indutype":"일반휴게음식 - 일반한식","category":"restaurant"},{"name":"터미널다방","tel":"031-631-2041","addr":"경기도 이천시 중리동 221번지","indutype":"일반휴게음식 - 서양음식","category":"restaurant"}]},{"lat":"37.279380846","long":"127.4409084","imageIndex":4,"items":[{"name":"채전치킨","tel":"031-631-9255","addr":"경기도 이천시 중리동 177-16번지","indutype":"일반휴게음식 - 주점","category":"restaurant"}]},{"lat":"37.278300793","long":"127.44302193","imageIndex":4,"items":[{"name":"청와대","tel":"031-638-3325","addr":"경기도 이천시 중리동 190-7번지 1층","indutype":"일반휴게음식 - 일반한식","category":"restaurant"}]},{"lat":"37.279887434","long":"127.44279438","imageIndex":4,"items":[{"name":"초막식당","tel":"031-635-9684","addr":"경기도 이천시 중리동 194-16번지","indutype":"일반휴게음식 - 일반한식","category":"restaurant"}]},{"lat":"37.279573765","long":"127.43990599","imageIndex":4,"items":[{"name":"초원빈대떡","tel":"031-634-8858","addr":"경기도 이천시 중리동 21-6번지","indutype":"일반휴게음식 - 일반한식","category":"restaurant"}]},{"lat":"37.280186314","long":"127.44237892","imageIndex":4,"items":[{"name":"초이꼬꼬뜰","tel":"031-637-9708","addr":"경기도 이천시 중리동 180-4번지","indutype":"일반휴게음식 - 일반한식","category":"restaurant"}]},{"lat":"37.279047324","long":"127.44337582","imageIndex":4,"items":[{"name":"초인목다례원","tel":"031-638-3308","addr":"경기도 이천시 중리동 192-8번지 1층","indutype":"일반휴게음식 - 일반한식","category":"restaurant"},{"name":"파스타","tel":"031-634-6297","addr":"경기도 이천시 중리동 192-8번지","indutype":"일반휴게음식 - 서양음식","category":"restaurant"}]},{"lat":"37.280158865","long":"127.44249151","imageIndex":4,"items":[{"name":"카페나무","tel":"031-631-2246","addr":"경기도 이천시 중리동 180-5번지 1층","indutype":"일반휴게음식 - 스넥","category":"restaurant"}]},{"lat":"37.27816501","long":"127.43831928","imageIndex":4,"items":[{"name":"카페드리","tel":"031-633-9041","addr":"경기도 이천시 중리동 4-11번지","indutype":"일반휴게음식 - 서양음식","category":"restaurant"}]},{"lat":"37.278966818","long":"127.43834645","imageIndex":4,"items":[{"name":"카페아홉","tel":"031-633-0902","addr":"경기도 이천시 중리동 16-8번지","indutype":"일반휴게음식 - 서양음식","category":"restaurant"}]},{"lat":"37.278157262","long":"127.44285196","imageIndex":4,"items":[{"name":"캇포","tel":"031-637-0031","addr":"경기도 이천시 중리동 190-11번지 1층","indutype":"일반휴게음식 - 일식·회집","category":"restaurant"}]},{"lat":"37.278914752","long":"127.44510021","imageIndex":4,"items":[{"name":"퀴즈노스 이천점","tel":"031-635-4344","addr":"경기도 이천시 중리동 212번지","indutype":"일반휴게음식 - 일반한식","category":"restaurant"}]},{"lat":"37.277747654","long":"127.44637877","imageIndex":4,"items":[{"name":"탐앤탐스 이천점","tel":"031-635-1771","addr":"경기도 이천시 중리동 218-2번지 1,2층","indutype":"일반휴게음식 - 서양음식","category":"restaurant"}]},{"lat":"37.278575906","long":"127.44415108","imageIndex":4,"items":[{"name":"태양부양꼬치","tel":"031-635-3332","addr":"경기도 이천시 중리동 203-2번지 1층","indutype":"일반휴게음식 - 중국식","category":"restaurant"}]},{"lat":"37.277939565","long":"127.44565827","imageIndex":4,"items":[{"name":"태영생막창","tel":"031-635-1301","addr":"경기도 이천시 중리동 214-6번지","indutype":"일반휴게음식 - 일반한식","category":"restaurant"},{"name":"화산불고기","tel":"031-633-9242","addr":"경기도 이천시 중리동 214-6번지","indutype":"일반휴게음식 - 일반한식","category":"restaurant"}]},{"lat":"37.278466819","long":"127.44440978","imageIndex":4,"items":[{"name":"토닥토닭","tel":"031-637-7866","addr":"경기도 이천시 중리동 211-14번지","indutype":"일반휴게음식 - 일반한식","category":"restaurant"}]},{"lat":"37.276605407","long":"127.43854708","imageIndex":4,"items":[{"name":"통달배 족발 보쌈 삼겹 이천점","tel":"031-637-3531","addr":"경기도 이천시 중리동 446번지","indutype":"일반휴게음식 - 일반한식","category":"restaurant"}]},{"lat":"37.277963598","long":"127.44645897","imageIndex":4,"items":[{"name":"투썸플레이스 이천터미널점","tel":"031-631-0435","addr":"경기도 이천시 중리동 218번지","indutype":"일반휴게음식 - 서양음식","category":"restaurant"}]},{"lat":"37.271602267","long":"127.4343016","imageIndex":4,"items":[{"name":"피스","tel":"070-6828-3868","addr":"경기도 이천시 중리동 490번지 이천아트홀 1층","indutype":"일반휴게음식 - 서양음식","category":"restaurant"}]},{"lat":"37.277188618","long":"127.44407533","imageIndex":4,"items":[{"name":"피자메카 이천점","tel":"031-633-1166","addr":"경기도 이천시 중리동 208-12번지","indutype":"일반휴게음식 - 서양음식","category":"restaurant"}]},{"lat":"37.280073846","long":"127.43867982","imageIndex":4,"items":[{"name":"학남이네","tel":"031-631-3529","addr":"경기도 이천시 중리동 20-1번지","indutype":"일반휴게음식 - 일반한식","category":"restaurant"}]},{"lat":"37.278358789","long":"127.44196237","imageIndex":4,"items":[{"name":"해진식당","tel":"031-635-6475","addr":"경기도 이천시 중리동 186-7번지","indutype":"일반휴게음식 - 일반한식","category":"restaurant"}]},{"lat":"37.279442421","long":"127.44373894","imageIndex":4,"items":[{"name":"핵스테이크","tel":"031-631-5849","addr":"경기도 이천시 중리동 191번지 1층","indutype":"일반휴게음식 - 일반한식","category":"restaurant"}]},{"lat":"37.279775497","long":"127.44381981","imageIndex":4,"items":[{"name":"호반닭갈비","tel":"031-637-9916","addr":"경기도 이천시 중리동 201번지","indutype":"일반휴게음식 - 일반한식","category":"restaurant"}]},{"lat":"37.275712687","long":"127.4411803","imageIndex":4,"items":[{"name":"호우가정식","tel":"031-634-6222","addr":"경기도 이천시 중리동 450-28번지 1층","indutype":"일반휴게음식 - 일반한식","category":"restaurant"}]},{"lat":"37.278518944","long":"127.44492876","imageIndex":4,"items":[{"name":"홍문골","tel":"031-631-1012","addr":"경기도 이천시 중리동 211-4번지","indutype":"일반휴게음식 - 일반한식","category":"restaurant"}]}]