[{"lat":"37.298841877","long":"126.99170486","imageIndex":4,"items":[{"name":"(주)옛마당/연잎사랑","tel":"031-268-7003","addr":"경기도 수원시 장안구 정자동 268-1번지","indutype":"일반휴게음식 - 일반한식","category":"restaurant"},{"name":"바우네 나주곰탕","tel":"031-268-4152","addr":"경기도 수원시 장안구 정자동 268-1번지","indutype":"일반휴게음식 - 일반한식","category":"restaurant"},{"name":"수준이 다른 치킨","tel":"031-268-2034","addr":"경기도 수원시 장안구 정자동 268-1번지 202호","indutype":"일반휴게음식 - 스넥","category":"restaurant"},{"name":"전국3대치킨오성통닭","tel":"031-268-2034","addr":"경기도 수원시 장안구 정자동 268-1번지 2층 202호","indutype":"일반휴게음식 - 스넥","category":"restaurant"}]},{"lat":"37.309536158","long":"126.98473211","imageIndex":4,"items":[{"name":"27도블랑제리","tel":"031-256-0991","addr":"경기도 수원시 장안구 정자동 600-28번지","indutype":"일반휴게음식 - 서양음식","category":"restaurant"},{"name":"국수나무","tel":"031-268-2882","addr":"경기도 수원시 장안구 정자동 600-28번지 스카이프라자 120호","indutype":"일반휴게음식 - 스넥","category":"restaurant"},{"name":"깐부치킨 스카이프라자점","tel":"031-268-9987","addr":"경기도 수원시 장안구 정자동 600-28번지 스카이프라자 1층 121호","indutype":"일반휴게음식 - 스넥","category":"restaurant"},{"name":"뉴욕야시장 수원정자점","tel":"031-271-2742","addr":"경기도 수원시 장안구 정자동 600-28번지 2층 209호","indutype":"일반휴게음식 - 서양음식","category":"restaurant"},{"name":"던킨 수원정자SK점","tel":"031-269-8828","addr":"경기도 수원시 장안구 정자동 600-28번지 스카이프라자 1층 103호","indutype":"일반휴게음식 - 서양음식","category":"restaurant"},{"name":"돈&부대","tel":"031-268-9977","addr":"경기도 수원시 장안구 정자동 600-28번지 2층 204호","indutype":"일반휴게음식 - 일반한식","category":"restaurant"},{"name":"릴리펏수원정자점","tel":"031-271-2008","addr":"경기도 수원시 장안구 정자동 600-28번지 스카이프라자 207,208호","indutype":"일반휴게음식 - 서양음식","category":"restaurant"},{"name":"맛깔참죽(정자점)","tel":"031-245-6288","addr":"경기도 수원시 장안구 정자동 600-28번지 스카이프라자 112호","indutype":"일반휴게음식 - 일반한식","category":"restaurant"},{"name":"몽구비어 수원정자점","tel":"031-268-4567","addr":"경기도 수원시 장안구 정자동 600-28번지 1층 116호","indutype":"일반휴게음식 - 일반한식","category":"restaurant"},{"name":"버거킹","tel":"031-271-0332","addr":"경기도 수원시 장안구 정자동 600-28번지 1층 107호","indutype":"일반휴게음식 - 서양음식","category":"restaurant"},{"name":"빽가네화족발","tel":"031-278-8887","addr":"경기도 수원시 장안구 정자동 600-28번지 110호","indutype":"일반휴게음식 - 일반한식","category":"restaurant"},{"name":"스시가게(sushi shop)","tel":"031-271-9950","addr":"경기도 수원시 장안구 정자동 600-28번지 1층 115호","indutype":"일반휴게음식 - 일반한식","category":"restaurant"},{"name":"오리지널시카고피자 수원정자점","tel":"031-268-8080","addr":"경기도 수원시 장안구 정자동 600-28번지 205호","indutype":"일반휴게음식 - 서양음식","category":"restaurant"},{"name":"원조쌈밥 수원정자점","tel":"031-268-0852","addr":"경기도 수원시 장안구 정자동 600-28번지 2층 20호","indutype":"일반휴게음식 - 일반한식","category":"restaurant"},{"name":"진짜배기명태촌","tel":"031-268-7646","addr":"경기도 수원시 장안구 정자동 600-28번지 202호","indutype":"일반휴게음식 - 일반한식","category":"restaurant"},{"name":"투다리","tel":"","addr":"경기도 수원시 장안구 정자동 600-28번지 1층 119호","indutype":"일반휴게음식 - 일반한식","category":"restaurant"},{"name":"투썸플레이스 수원정자점","tel":"031-269-2220","addr":"경기도 수원시 장안구 정자동 600-28번지 1층 105,106호","indutype":"일반휴게음식 - 서양음식","category":"restaurant"}]},{"lat":"37.292147768","long":"127.00050239","imageIndex":4,"items":[{"name":"292짬떡 수원정자점","tel":"031-254-0292","addr":"경기도 수원시 장안구 정자동 45-30번지 1층","indutype":"일반휴게음식 - 일반한식","category":"restaurant"}]},{"lat":"37.296427369","long":"126.99459245","imageIndex":4,"items":[{"name":"2도비어 (정자점)","tel":"031-0000-0000","addr":"경기도 수원시 장안구 정자동 875번지 선일주차타운빌딩 127호","indutype":"일반휴게음식 - 주점","category":"restaurant"},{"name":"깐부치킨수원정자점","tel":"031-268-3846","addr":"경기도 수원시 장안구 정자동 875번지 선일주차타운 114호","indutype":"일반휴게음식 - 스넥","category":"restaurant"},{"name":"남대문황금족발(정자점)","tel":"031-268-2235","addr":"경기도 수원시 장안구 정자동 875번지 선일주차타운빌딩 123호","indutype":"일반휴게음식 - 일반한식","category":"restaurant"},{"name":"등촌샤브칼국수","tel":"031-269-2626","addr":"경기도 수원시 장안구 정자동 875번지 선일주차타운빌딩 203호","indutype":"일반휴게음식 - 일반한식","category":"restaurant"},{"name":"로스타임","tel":"031-269-1566","addr":"경기도 수원시 장안구 정자동 875번지 선일주차타운 125호","indutype":"일반휴게음식 - 주점","category":"restaurant"},{"name":"맘스가든","tel":"031-209-8026","addr":"경기도 수원시 장안구 정자동 875번지 선일주차타운빌딩 103호","indutype":"일반휴게음식 - 일반한식","category":"restaurant"},{"name":"미참치","tel":"031-268-0639","addr":"경기도 수원시 장안구 정자동 875번지 선일주차타운빌딩 202호","indutype":"일반휴게음식 - 일식·회집","category":"restaurant"},{"name":"바다마을","tel":"031-111-1111","addr":"경기도 수원시 장안구 정자동 875번지 선일주차타운빌딩 2층 201호","indutype":"일반휴게음식 - 일반한식","category":"restaurant"},{"name":"부산아지매국밥 정자점","tel":"031-271-9882","addr":"경기도 수원시 장안구 정자동 875번지 선일주차타운빌딩 2동 205호","indutype":"일반휴게음식 - 일반한식","category":"restaurant"},{"name":"아지트","tel":"031-269-1211","addr":"경기도 수원시 장안구 정자동 875번지 선일주차타운 121호","indutype":"일반휴게음식 - 칵테일바","category":"restaurant"},{"name":"올리바바 양꼬치 훠궈","tel":"031-271-5088","addr":"경기도 수원시 장안구 정자동 875번지 선일주차타운빌딩 204호","indutype":"일반휴게음식 - 중국식","category":"restaurant"},{"name":"왕소곱창","tel":"031-248-6723","addr":"경기도 수원시 장안구 정자동 875번지 선일프주차타운 122호","indutype":"일반휴게음식 - 일반한식","category":"restaurant"},{"name":"우리고향감자탕","tel":"031-269-5277","addr":"경기도 수원시 장안구 정자동 875번지 선일주차타운 115동 116호","indutype":"일반휴게음식 - 일반한식","category":"restaurant"},{"name":"이군포차","tel":"031-268-5687","addr":"경기도 수원시 장안구 정자동 875번지 선일주차타운빌딩","indutype":"일반휴게음식 - 일반한식","category":"restaurant"},{"name":"정자동분자네","tel":"031-268-8944","addr":"경기도 수원시 장안구 정자동 875번지 선일주차타운빌딩 1층 131,132호","indutype":"일반휴게음식 - 일반한식","category":"restaurant"},{"name":"지슥이네심야식당","tel":"031-268-8666","addr":"경기도 수원시 장안구 정자동 875번지 선일주차타운빌딩 116호","indutype":"일반휴게음식 - 일반한식","category":"restaurant"},{"name":"카스엔락","tel":"031-269-5360","addr":"경기도 수원시 장안구 정자동 875번지 신일주차타운 204호","indutype":"일반휴게음식 - 주점","category":"restaurant"},{"name":"태양부양꼬치","tel":"031-269-9008","addr":"경기도 수원시 장안구 정자동 875번지 선일주차타운빌딩 2층 206호","indutype":"일반휴게음식 - 일반한식","category":"restaurant"},{"name":"펀비어킹수원정자연꽃마을점","tel":"031-268-2300","addr":"경기도 수원시 장안구 정자동 875번지 선일주차타운빌딩 1층 115호","indutype":"일반휴게음식 - 주점","category":"restaurant"},{"name":"포명천천","tel":"031-268-2134","addr":"경기도 수원시 장안구 정자동 875번지 선일주차타운빌딩 134호,135호","indutype":"일반휴게음식 - 중국식","category":"restaurant"},{"name":"황소부추소곱창","tel":"031-269-9239","addr":"경기도 수원시 장안구 정자동 875번지 선일주차타운빌딩 1층 124호","indutype":"일반휴게음식 - 일반한식","category":"restaurant"},{"name":"훌랄라참숯바베큐","tel":"031-268-6007","addr":"경기도 수원시 장안구 정자동 875번지 선일주차타운빌딩 128호","indutype":"일반휴게음식 - 주점","category":"restaurant"}]},{"lat":"37.306815123","long":"126.98508243","imageIndex":4,"items":[{"name":"59쌀피자","tel":"031-000-0000","addr":"경기도 수원시 장안구 정자동 945번지 수원SKSKYVIEW 603동 101호","indutype":"일반휴게음식 - 서양음식","category":"restaurant"},{"name":"김밥여행","tel":"031-268-1221","addr":"경기도 수원시 장안구 정자동 945번지 수원SKSKYVIEW 603동 101호","indutype":"일반휴게음식 - 일반한식","category":"restaurant"},{"name":"비에이치씨(BHC)치킨수원정자스카이뷰점","tel":"031-269-9285","addr":"경기도 수원시 장안구 정자동 945번지 에스케이스카이뷰 603동 104호","indutype":"일반휴게음식 - 스넥","category":"restaurant"},{"name":"수원마카롱프랑카롱","tel":"031-268-2744","addr":"경기도 수원시 장안구 정자동 945번지 수원에스케이스카이뷰 602동 103호","indutype":"일반휴게음식 - 서양음식","category":"restaurant"},{"name":"신통치킨","tel":"031-269-5592","addr":"경기도 수원시 장안구 정자동 945번지 수원에스케이스카이뷰 601동 107호","indutype":"일반휴게음식 - 스넥","category":"restaurant"},{"name":"올떡볶이","tel":"031-234-1232","addr":"경기도 수원시 장안구 정자동 945번지 수원에스케이스카이뷰 601동 102호","indutype":"일반휴게음식 - 일반한식","category":"restaurant"},{"name":"요거프레소","tel":"031-269-8086","addr":"경기도 수원시 장안구 정자동 945번지 수원에스케이스카이뷰 603동 102호","indutype":"일반휴게음식 - 서양음식","category":"restaurant"},{"name":"크레이지크림","tel":"031-269-1988","addr":"경기도 수원시 장안구 정자동 945번지 수원에스케이스카이뷰 603동 1층 103호","indutype":"일반휴게음식 - 주점","category":"restaurant"}]},{"lat":"37.295454502","long":"127.00638946","imageIndex":4,"items":[{"name":"59쌀피자송죽점","tel":"031-258-5949","addr":"경기도 수원시 장안구 정자동 10번지 1층","indutype":"일반휴게음식 - 서양음식","category":"restaurant"}]},{"lat":"37.296904961","long":"126.99531421","imageIndex":4,"items":[{"name":"7번가피자(정자점)","tel":"031-269-7767","addr":"경기도 수원시 장안구 정자동 874-1번지 선일프라자 1층 103-104호","indutype":"일반휴게음식 - 서양음식","category":"restaurant"},{"name":"국민김밥","tel":"031-269-8877","addr":"경기도 수원시 장안구 정자동 874-1번지 선일프라자 106호","indutype":"일반휴게음식 - 스넥","category":"restaurant"},{"name":"원조명동찌개마을","tel":"031-269-1991","addr":"경기도 수원시 장안구 정자동 874-1번지 선일프라자 101,102호","indutype":"일반휴게음식 - 일반한식","category":"restaurant"},{"name":"처갓집양념치킨 수원정자점","tel":"032-269-1001","addr":"경기도 수원시 장안구 정자동 874-1번지 선일프라자 1층 109호","indutype":"일반휴게음식 - 스넥","category":"restaurant"},{"name":"파파존스 수원정자점","tel":"031-269-8585","addr":"경기도 수원시 장안구 정자동 874-1번지 선일프라자 111,112호","indutype":"일반휴게음식 - 서양음식","category":"restaurant"},{"name":"하우디","tel":"","addr":"경기도 수원시 장안구 정자동 874-1번지 선일프라자 114호","indutype":"일반휴게음식 - 서양음식","category":"restaurant"}]},{"lat":"37.291598149","long":"127.00497959","imageIndex":4,"items":[{"name":"BHC정자중앙점","tel":"031-258-3392","addr":"경기도 수원시 장안구 정자동 79-15번지","indutype":"일반휴게음식 - 일반한식","category":"restaurant"},{"name":"구어조은닭","tel":"031-256-9279","addr":"경기도 수원시 장안구 정자동 79-15번지","indutype":"일반휴게음식 - 주점","category":"restaurant"},{"name":"영미식당","tel":"","addr":"경기도 수원시 장안구 정자동 79-15번지","indutype":"일반휴게음식 - 일반한식","category":"restaurant"},{"name":"제주횟집","tel":"031-245-6315","addr":"경기도 수원시 장안구 정자동 79-15번지 1층","indutype":"일반휴게음식 - 일식·회집","category":"restaurant"}]},{"lat":"37.295427505","long":"127.00084063","imageIndex":4,"items":[{"name":"IMJ(아엠제이)","tel":"031-111-1111","addr":"경기도 수원시 장안구 정자동 33-18번지 101호","indutype":"일반휴게음식 - 일반한식","category":"restaurant"}]},{"lat":"37.298896336","long":"126.99733289","imageIndex":4,"items":[{"name":"SK청솔노인복지관(카페)","tel":"031-257-6811","addr":"경기도 수원시 장안구 정자동 286번지","indutype":"일반휴게음식 - 서양음식","category":"restaurant"}]},{"lat":"37.305149141","long":"126.99280932","imageIndex":4,"items":[{"name":"THE삼성통닭","tel":"031-269-9191","addr":"경기도 수원시 장안구 정자동 429-30번지 1층","indutype":"일반휴게음식 - 일반한식","category":"restaurant"}]},{"lat":"37.302653193","long":"126.99155767","imageIndex":4,"items":[{"name":"cafe바를정","tel":"031-269-7230","addr":"경기도 수원시 장안구 정자동 462-1번지","indutype":"일반휴게음식 - 서양음식","category":"restaurant"},{"name":"피자꽁떼","tel":"031-271-0808","addr":"경기도 수원시 장안구 정자동 462-1번지 1층","indutype":"일반휴게음식 - 스넥","category":"restaurant"}]},{"lat":"37.305653563","long":"126.99117371","imageIndex":4,"items":[{"name":"가극레스토랑","tel":"031-253-5853","addr":"경기도 수원시 장안구 정자동 528-6번지","indutype":"일반휴게음식 - 서양음식","category":"restaurant"}]},{"lat":"37.290931404","long":"127.00188956","imageIndex":4,"items":[{"name":"각설이포차","tel":"031-256-3396","addr":"경기도 수원시 장안구 정자동 73-13번지","indutype":"일반휴게음식 - 일반한식","category":"restaurant"},{"name":"오빠가구운돼지","tel":"031-242-5895","addr":"경기도 수원시 장안구 정자동 73-13번지 1층 4호","indutype":"일반휴게음식 - 일반한식","category":"restaurant"}]},{"lat":"37.29209372","long":"127.0045285","imageIndex":4,"items":[{"name":"감동튀김","tel":"031-254-1806","addr":"경기도 수원시 장안구 정자동 70-46번지","indutype":"일반휴게음식 - 스넥","category":"restaurant"},{"name":"고향식당","tel":"031-244-1501","addr":"경기도 수원시 장안구 정자동 70-46번지 이숙자미용실 B동 1층","indutype":"일반휴게음식 - 일반한식","category":"restaurant"},{"name":"성국갈비","tel":"031-254-7674","addr":"경기도 수원시 장안구 정자동 70-46 비동1층","indutype":"일반휴게음식 - 일반한식","category":"restaurant"},{"name":"청렴스시","tel":"02-1600-7454","addr":"경기도 수원시 장안구 정자동 70-46번지 B동 1층 8호","indutype":"일반휴게음식 - 일식·회집","category":"restaurant"},{"name":"택시커피(TAXI COFFEE)","tel":"","addr":"경기도 수원시 장안구 정자동 70-46번지","indutype":"일반휴게음식 - 서양음식","category":"restaurant"}]},{"lat":"37.306761829","long":"126.9912525","imageIndex":4,"items":[{"name":"강가네다미","tel":"031-256-3466","addr":"경기도 수원시 장안구 정자동 534-17번지 201호","indutype":"일반휴게음식 - 중국식","category":"restaurant"}]},{"lat":"37.296238086","long":"126.99366766","imageIndex":4,"items":[{"name":"강식당","tel":"031-268-7436","addr":"경기도 수원시 장안구 정자동 876-8번지 대일프라자 101호","indutype":"일반휴게음식 - 일반한식","category":"restaurant"},{"name":"국수나무","tel":"031-268-1088","addr":"경기도 수원시 장안구 정자동 876-8번지 대일프라자 104호","indutype":"일반휴게음식 - 일반한식","category":"restaurant"},{"name":"박은자 맛사랑","tel":"031-269-5799","addr":"경기도 수원시 장안구 정자동 876-8번지 대일프라자 2층 201호","indutype":"일반휴게음식 - 일반한식","category":"restaurant"},{"name":"보용만두","tel":"031-268-7534","addr":"경기도 수원시 장안구 정자동 876-8번지 대일프라자 105호","indutype":"일반휴게음식 - 스넥","category":"restaurant"},{"name":"보통날엔파스타","tel":"031-278-2626","addr":"경기도 수원시 장안구 정자동 876-8번지","indutype":"일반휴게음식 - 일반한식","category":"restaurant"},{"name":"옛진미뼈다귀해장국감자탕","tel":"031-269-9881","addr":"경기도 수원시 장안구 정자동 876-8번지 대일프라자 203호","indutype":"일반휴게음식 - 일반한식","category":"restaurant"}]},{"lat":"37.292931544","long":"127.00864489","imageIndex":4,"items":[{"name":"강원칡냉면","tel":"031-254-7070","addr":"경기도 수원시 장안구 정자동 16-9번지 1층","indutype":"일반휴게음식 - 일반한식","category":"restaurant"}]},{"lat":"37.294039894","long":"126.99941966","imageIndex":4,"items":[{"name":"강정엔밥스 정자점","tel":"031-309-7073","addr":"경기도 수원시 장안구 정자동 30-25번지 1층","indutype":"일반휴게음식 - 일반한식","category":"restaurant"},{"name":"청하횟집","tel":"031-253-0083","addr":"경기도 수원시 장안구 정자동 30-25번지","indutype":"일반휴게음식 - 일식·회집","category":"restaurant"}]},{"lat":"37.293958803","long":"126.99947605","imageIndex":4,"items":[{"name":"격렬한참치","tel":"031-244-2780","addr":"경기도 수원시 장안구 정자동 30-26번지 1층","indutype":"일반휴게음식 - 일반한식","category":"restaurant"}]},{"lat":"37.295535601","long":"126.99964515","imageIndex":4,"items":[{"name":"경기푸드","tel":"031-243-7801","addr":"경기도 수원시 장안구 정자동 27-10번지","indutype":"일반휴게음식 - 일반한식","category":"restaurant"},{"name":"제이제이로스터스 경기도체육회관","tel":"02-1577-0000","addr":"경기도 수원시 장안구 정자동 27-10번지","indutype":"일반휴게음식 - 서양음식","category":"restaurant"}]},{"lat":"37.290345715","long":"127.00036712","imageIndex":4,"items":[{"name":"고구려","tel":"031-251-5241","addr":"경기도 수원시 장안구 정자동 74-32번지","indutype":"일반휴게음식 - 칵테일바","category":"restaurant"}]},{"lat":"37.306815885","long":"126.99119609","imageIndex":4,"items":[{"name":"고기굽네","tel":"031-000-0000","addr":"경기도 수원시 장안구 정자동 534-16번지 101호","indutype":"일반휴게음식 - 일반한식","category":"restaurant"}]},{"lat":"37.295400467","long":"127.0004459","imageIndex":4,"items":[{"name":"고기듬뿍대왕비빔밥","tel":"031-8067-6851","addr":"경기도 수원시 장안구 정자동 27-5번지 1층","indutype":"일반휴게음식 - 일반한식","category":"restaurant"},{"name":"신사동떡볶이 정자점","tel":"031-891-0083","addr":"경기도 수원시 장안구 정자동 27-5번지 1층","indutype":"일반휴게음식 - 스넥","category":"restaurant"},{"name":"후라이드참잘하는집","tel":"031-241-9290","addr":"경기도 수원시 장안구 정자동 27-5번지 1층","indutype":"일반휴게음식 - 스넥","category":"restaurant"}]},{"lat":"37.297094061","long":"126.99370139","imageIndex":4,"items":[{"name":"고깃집바를","tel":"031-271-4102","addr":"경기도 수원시 장안구 정자동 872-2번지 라이프스포츠 수원 201호","indutype":"일반휴게음식 - 일반한식","category":"restaurant"},{"name":"라이프분식","tel":"031-548-2005","addr":"경기도 수원시 장안구 정자동 872-2번지 라이프스포츠수원 1층 127호","indutype":"일반휴게음식 - 스넥","category":"restaurant"},{"name":"찬이네주먹고기","tel":"070-4624-8999","addr":"경기도 수원시 장안구 정자동 872-2번지 라이프스포츠 수원 108호","indutype":"일반휴게음식 - 일반한식","category":"restaurant"},{"name":"채담","tel":"031-268-4001","addr":"경기도 수원시 장안구 정자동 872-2라이프스포츠2층221,222호","indutype":"일반휴게음식 - 일반한식","category":"restaurant"},{"name":"카페테라랩","tel":"031-268-4692","addr":"경기도 수원시 장안구 정자동 872-2번지 124,125호","indutype":"일반휴게음식 - 서양음식","category":"restaurant"},{"name":"피지참치","tel":"031-268-9202","addr":"경기도 수원시 장안구 정자동 872-2번지 202,203호","indutype":"일반휴게음식 - 일반한식","category":"restaurant"}]},{"lat":"37.294733666","long":"126.998867","imageIndex":4,"items":[{"name":"고려대궁","tel":"031-256-4808","addr":"경기도 수원시 장안구 정자동 29-24번지","indutype":"일반휴게음식 - 중국식","category":"restaurant"},{"name":"배사장(북수원점)","tel":"031-241-7053","addr":"경기도 수원시 장안구 정자동 29-24번지","indutype":"일반휴게음식 - 일반한식","category":"restaurant"}]},{"lat":"37.295481217","long":"126.99356625","imageIndex":4,"items":[{"name":"고봉민 김밥인 수원정자점","tel":"031-268-5151","addr":"경기도 수원시 장안구 정자동 877-4번지 정연메이져 1동 101호","indutype":"일반휴게음식 - 일반한식","category":"restaurant"},{"name":"김밥촌","tel":"031-268-0888","addr":"경기도 수원시 장안구 정자동 877-4번지 114호","indutype":"일반휴게음식 - 일반한식","category":"restaurant"},{"name":"대박식당","tel":"031-268-8782","addr":"경기도 수원시 장안구 정자동 877-4번지 정연메이저 126호","indutype":"일반휴게음식 - 일반한식","category":"restaurant"},{"name":"마라떡볶이","tel":"031-271-0535","addr":"경기도 수원시 장안구 정자동 877-4번지 2층 204호","indutype":"일반휴게음식 - 일반한식","category":"restaurant"},{"name":"마리짱","tel":"","addr":"경기도 수원시 장안구 정자동 877-4번지 1동 125호","indutype":"일반휴게음식 - 일반한식","category":"restaurant"},{"name":"맘스터치수원정자점","tel":"031-268-1231","addr":"경기도 수원시 장안구 정자동 877-4번지 2층 202-1호, 203호","indutype":"일반휴게음식 - 서양음식","category":"restaurant"},{"name":"메가MGC커피 수원정자점","tel":"031-271-9781","addr":"경기도 수원시 장안구 정자동 877-4번지 정연메이저 129호","indutype":"일반휴게음식 - 서양음식","category":"restaurant"},{"name":"명랑핫도그","tel":"031-271-1677","addr":"경기도 수원시 장안구 정자동 877-4번지 115호","indutype":"일반휴게음식 - 일반한식","category":"restaurant"},{"name":"미소야","tel":"031-258-0095","addr":"경기도 수원시 장안구 정자동 877-4번지 정연메이져 102호","indutype":"일반휴게음식 - 일식·회집","category":"restaurant"},{"name":"아마스빈 수원정자점","tel":"031-268-0661","addr":"경기도 수원시 장안구 정자동 877-4번지 1동 130호","indutype":"일반휴게음식 - 일반한식","category":"restaurant"},{"name":"카페테라","tel":"031-268-4692","addr":"경기도 수원시 장안구 정자동 877-4번지 127호","indutype":"일반휴게음식 - 서양음식","category":"restaurant"}]},{"lat":"37.293760594","long":"127.00008506","imageIndex":4,"items":[{"name":"곱창골","tel":"031-244-7778","addr":"경기도 수원시 장안구 정자동 41-24번지 1층","indutype":"일반휴게음식 - 일반한식","category":"restaurant"},{"name":"네네치킨","tel":"031-255-4492","addr":"경기도 수원시 장안구 정자동 41-24번지 1층","indutype":"일반휴게음식 - 스넥","category":"restaurant"}]},{"lat":"37.295093806","long":"126.99394975","imageIndex":4,"items":[{"name":"공차 정자점","tel":"031-1111-1111","addr":"경기도 수원시 장안구 정자동 878-9번지 현대프라자 103 ,104호","indutype":"일반휴게음식 - 서양음식","category":"restaurant"},{"name":"신전떡볶이","tel":"031-268-6869","addr":"경기도 수원시 장안구 정자동 878-9번지 현대프라자 101호","indutype":"일반휴게음식 - 스넥","category":"restaurant"}]},{"lat":"37.291652179","long":"126.99947615","imageIndex":4,"items":[{"name":"광발이앤스시","tel":"031-898-3226","addr":"경기도 수원시 장안구 정자동 44-57번지 1층 3호","indutype":"일반휴게음식 - 일식·회집","category":"restaurant"},{"name":"미주","tel":"031-246-3906","addr":"경기도 수원시 장안구 정자동 44-57번지","indutype":"일반휴게음식 - 일반한식","category":"restaurant"},{"name":"오향한방족발","tel":"031-241-0142","addr":"경기도 수원시 장안구 정자동 44-57번지","indutype":"일반휴게음식 - 일반한식","category":"restaurant"}]},{"lat":"37.29184144","long":"127.00194593","imageIndex":4,"items":[{"name":"교촌치킨정자1호점","tel":"031-245-4599","addr":"경기도 수원시 장안구 정자동 72-12번지","indutype":"일반휴게음식 - 스넥","category":"restaurant"},{"name":"돌우물 수원정자점","tel":"031-241-0201","addr":"경기도 수원시 장안구 정자동 72-12번지 1층","indutype":"일반휴게음식 - 일반한식","category":"restaurant"}]},{"lat":"37.293012574","long":"127.00980651","imageIndex":4,"items":[{"name":"구어바베큐치킨","tel":"031-223-5214","addr":"경기도 수원시 장안구 정자동 5-37번지","indutype":"일반휴게음식 - 스넥","category":"restaurant"},{"name":"서당골토종순대국","tel":"031-253-0164","addr":"경기도 수원시 장안구 정자동 5-37번지 1층","indutype":"일반휴게음식 - 일반한식","category":"restaurant"},{"name":"수제비전문점","tel":"031-246-0707","addr":"경기도 수원시 장안구 정자동 5-37번지 1층","indutype":"일반휴게음식 - 일반한식","category":"restaurant"},{"name":"애니데이","tel":"031-426-7942","addr":"경기도 수원시 장안구 정자동 5-37번지 1층","indutype":"일반휴게음식 - 서양음식","category":"restaurant"}]},{"lat":"37.295571384","long":"126.99442338","imageIndex":4,"items":[{"name":"구이가","tel":"031-269-3545","addr":"경기도 수원시 장안구 정자동 878-1번지 1층","indutype":"일반휴게음식 - 일반한식","category":"restaurant"}]},{"lat":"37.305761851","long":"126.99297844","imageIndex":4,"items":[{"name":"구팔한우","tel":"031-268-9892","addr":"경기도 수원시 장안구 정자동 429-22번지 1층","indutype":"일반휴게음식 - 일반한식","category":"restaurant"}]},{"lat":"37.292120757","long":"127.00178804","imageIndex":4,"items":[{"name":"국수랑밥이랑","tel":"031-258-3455","addr":"경기도 수원시 장안구 정자동 46-34번지","indutype":"일반휴게음식 - 일반한식","category":"restaurant"}]},{"lat":"37.295265014","long":"126.9941189","imageIndex":4,"items":[{"name":"국수파동","tel":"031-295-0903","addr":"경기도 수원시 장안구 정자동 878-10번지 103호","indutype":"일반휴게음식 - 일반한식","category":"restaurant"},{"name":"뷰바","tel":"031-205-9007","addr":"경기도 수원시 장안구 정자동 878-10번지 202호","indutype":"일반휴게음식 - 주점","category":"restaurant"},{"name":"한솥도시락(중부경찰서옆점)","tel":"031-269-5513","addr":"경기도 수원시 장안구 정자동 878-10번지 101호","indutype":"일반휴게음식 - 일반한식","category":"restaurant"}]},{"lat":"37.300788045","long":"126.99125342","imageIndex":4,"items":[{"name":"굽네치킨","tel":"031-268-9211","addr":"경기도 수원시 장안구 정자동 327-13번지 1층","indutype":"일반휴게음식 - 주점","category":"restaurant"}]},{"lat":"37.291237731","long":"127.00042348","imageIndex":4,"items":[{"name":"그남자 브런치","tel":"031-244-8545","addr":"경기도 수원시 장안구 정자동 73-42번지 1층","indutype":"일반휴게음식 - 일반한식","category":"restaurant"}]},{"lat":"37.305761661","long":"126.99092554","imageIndex":4,"items":[{"name":"그린식당","tel":"031-251-1762","addr":"경기도 수원시 장안구 정자동 536-2번지","indutype":"일반휴게음식 - 일반한식","category":"restaurant"}]},{"lat":"37.295814963","long":"127.00302859","imageIndex":4,"items":[{"name":"그여자의맥주집","tel":"","addr":"경기도 수원시 장안구 정자동 35-5번지 2층","indutype":"일반휴게음식 - 주점","category":"restaurant"},{"name":"이삭토스트","tel":"031-245-2255","addr":"경기도 수원시 장안구 정자동 35-5번지","indutype":"일반휴게음식 - 스넥","category":"restaurant"}]},{"lat":"37.296148011","long":"126.99402857","imageIndex":4,"items":[{"name":"그집&고기","tel":"031-268-6567","addr":"경기도 수원시 장안구 정자동 876-2번지 투대일타운 106호","indutype":"일반휴게음식 - 일반한식","category":"restaurant"},{"name":"꼬지사께수원정자점","tel":"031-253-2257","addr":"경기도 수원시 장안구 정자동 876-2번지 투대일타운동 103호","indutype":"일반휴게음식 - 일반한식","category":"restaurant"},{"name":"롯데리아수원정자점","tel":"031-269-0069","addr":"경기도 수원시 장안구 정자동 876-2번지 투대일타운 107호","indutype":"일반휴게음식 - 서양음식","category":"restaurant"},{"name":"봄비어","tel":"031-1111-1111","addr":"경기도 수원시 장안구 정자동 876-2번지 투대일타운 2층 204호","indutype":"일반휴게음식 - 주점","category":"restaurant"},{"name":"빵빵돼지","tel":"031-268-0405","addr":"경기도 수원시 장안구 정자동 876-2번지 투대일타운 104호","indutype":"일반휴게음식 - 일반한식","category":"restaurant"},{"name":"빽다방 수원정자백설점","tel":"031-268-8777","addr":"경기도 수원시 장안구 정자동 876-2번지","indutype":"일반휴게음식 - 일반한식","category":"restaurant"},{"name":"소소한일상의별난주점수원정자점","tel":"031-268-7941","addr":"경기도 수원시 장안구 정자동 876-2번지 투대일타운 1층 105호","indutype":"일반휴게음식 - 주점","category":"restaurant"},{"name":"어촌생선구이전문점","tel":"031-244-3830","addr":"경기도 수원시 장안구 정자동 876-2번지 투대일타운 2층 202호","indutype":"일반휴게음식 - 일반한식","category":"restaurant"},{"name":"에이스","tel":"031-269-9943","addr":"경기도 수원시 장안구 정자동 876-2번지 투대일타운 202호","indutype":"일반휴게음식 - 주점","category":"restaurant"},{"name":"용형순대국","tel":"031-271-2333","addr":"경기도 수원시 장안구 정자동 876-2번지 무대일타운 2층 203호","indutype":"일반휴게음식 - 일반한식","category":"restaurant"},{"name":"잔비어스","tel":"031-252-3211","addr":"경기도 수원시 장안구 정자동 876-2번지 투대일타운 302호","indutype":"일반휴게음식 - 주점","category":"restaurant"},{"name":"치어스 정자점","tel":"031-269-3219","addr":"경기도 수원시 장안구 정자동 876-2번지 투대일타운 205호","indutype":"일반휴게음식 - 서양음식","category":"restaurant"},{"name":"휘영청","tel":"031-267-0279","addr":"경기도 수원시 장안구 정자동 876-2번지 투대일타운 2층 201호","indutype":"일반휴게음식 - 일반한식","category":"restaurant"}]},{"lat":"37.294292147","long":"127.00737059","imageIndex":4,"items":[{"name":"금강산풀한증막치킨","tel":"031-253-5677","addr":"경기도 수원시 장안구 정자동 13번지 기산아파트 지하1층","indutype":"일반휴게음식 - 일반한식","category":"restaurant"}]},{"lat":"37.292679293","long":"126.99791978","imageIndex":4,"items":[{"name":"김가네맛집","tel":"031-245-1694","addr":"경기도 수원시 장안구 정자동 43-94번지","indutype":"일반휴게음식 - 일반한식","category":"restaurant"}]},{"lat":"37.2917603","long":"126.99939721","imageIndex":4,"items":[{"name":"김도넛","tel":"031-255-6614","addr":"경기도 수원시 장안구 정자동 44-58번지 1층","indutype":"일반휴게음식 - 서양음식","category":"restaurant"},{"name":"생활커피 수원정자점","tel":"031-298-9490","addr":"경기도 수원시 장안구 정자동 44-58번지 1층","indutype":"일반휴게음식 - 서양음식","category":"restaurant"}]},{"lat":"37.303815701","long":"126.99372313","imageIndex":4,"items":[{"name":"김밥마을","tel":"031-246-5819","addr":"경기도 수원시 장안구 정자동 395동신상가1-7","indutype":"일반휴게음식 - 스넥","category":"restaurant"}]},{"lat":"37.30661768","long":"126.99139916","imageIndex":4,"items":[{"name":"김밥천국","tel":"031-242-8981","addr":"경기도 수원시 장안구 정자동 535-12번지 1층","indutype":"일반휴게음식 - 스넥","category":"restaurant"},{"name":"명가참치","tel":"031-269-3786","addr":"경기도 수원시 장안구 정자동 535-12번지 1층","indutype":"일반휴게음식 - 일식·회집","category":"restaurant"},{"name":"이삭토스트","tel":"031-254-2479","addr":"경기도 수원시 장안구 정자동 535-12번지","indutype":"일반휴게음식 - 스넥","category":"restaurant"}]},{"lat":"37.291039531","long":"127.0031188","imageIndex":4,"items":[{"name":"김밥천국","tel":"031-244-7636","addr":"경기도 수원시 장안구 정자동 79-1번지","indutype":"일반휴게음식 - 일반한식","category":"restaurant"}]},{"lat":"37.299040039","long":"126.99106195","imageIndex":4,"items":[{"name":"김밥하우스","tel":"031-271-2498","addr":"경기도 수원시 장안구 정자동 266-3번지 파크프라자 108호","indutype":"일반휴게음식 - 스넥","category":"restaurant"},{"name":"비너스커피","tel":"031-258-5000","addr":"경기도 수원시 장안구 정자동 266-3번지 (110-1호,110-2호)","indutype":"일반휴게음식 - 서양음식","category":"restaurant"},{"name":"사조회참치","tel":"031-268-1189","addr":"경기도 수원시 장안구 정자동 266-3번지 파크프라자 105,106A,106B호","indutype":"일반휴게음식 - 일식·회집","category":"restaurant"},{"name":"샐러드픽","tel":"031-268-2342","addr":"경기도 수원시 장안구 정자동 266-3번지 파크프라자 101호 102호","indutype":"일반휴게음식 - 중국식","category":"restaurant"},{"name":"수경수제만두","tel":"031-223-5214","addr":"경기도 수원시 장안구 정자동 266-3번지 파크프라자 1층","indutype":"일반휴게음식 - 스넥","category":"restaurant"},{"name":"알루어(ALLURE)","tel":"031-269-1423","addr":"경기도 수원시 장안구 정자동 266-3번지 파크프라자 117호","indutype":"일반휴게음식 - 서양음식","category":"restaurant"},{"name":"태영생막창","tel":"031-213-3775","addr":"경기도 수원시 장안구 정자동 266-3번지 파크프라자 115호","indutype":"일반휴게음식 - 일반한식","category":"restaurant"},{"name":"피자헤븐&눈치떡 수원정자점","tel":"","addr":"경기도 수원시 장안구 정자동 266-3번지 파크프라자 1층 103호","indutype":"일반휴게음식 - 서양음식","category":"restaurant"},{"name":"행복바지락팥칼국수","tel":"031-241-9996","addr":"경기도 수원시 장안구 정자동 266-3번지 파크프라자 116호","indutype":"일반휴게음식 - 칵테일바","category":"restaurant"}]},{"lat":"37.295373385","long":"127.00714509","imageIndex":4,"items":[{"name":"김여사찌개천지","tel":"031-891-6783","addr":"경기도 수원시 장안구 정자동 9-5번지 메디플라자 1층 102호","indutype":"일반휴게음식 - 일반한식","category":"restaurant"},{"name":"우리들의 아씨닭발","tel":"031-241-9282","addr":"경기도 수원시 장안구 정자동 9-5번지 메디플라자 1층 106호","indutype":"일반휴게음식 - 일반한식","category":"restaurant"},{"name":"코리안숯불바베큐","tel":"031-258-9229","addr":"경기도 수원시 장안구 정자동 9-5번지 메디프라자 104동 105호","indutype":"일반휴게음식 - 일반한식","category":"restaurant"},{"name":"투다리","tel":"031-295-2744","addr":"경기도 수원시 장안구 정자동 9-5번지 메디플라자 1층 103호","indutype":"일반휴게음식 - 스넥","category":"restaurant"}]},{"lat":"37.306041049","long":"126.9916474","imageIndex":4,"items":[{"name":"깨톡","tel":"","addr":"경기도 수원시 장안구 정자동 436-2번지","indutype":"일반휴게음식 - 주점","category":"restaurant"},{"name":"미르불오리","tel":"031-241-3858","addr":"경기도 수원시 장안구 정자동 436-2번지","indutype":"일반휴게음식 - 일반한식","category":"restaurant"},{"name":"우리집","tel":"070-4001-2284","addr":"경기도 수원시 장안구 정자동 436-2번지","indutype":"일반휴게음식 - 주점","category":"restaurant"}]},{"lat":"37.29070612","long":"127.00014156","imageIndex":4,"items":[{"name":"꺼벙이분식","tel":"031-223-5214","addr":"경기도 수원시 장안구 정자동 74-55번지","indutype":"일반휴게음식 - 일반한식","category":"restaurant"}]},{"lat":"37.305563558","long":"126.99220017","imageIndex":4,"items":[{"name":"꼬꼬C참숯불닭갈비","tel":"031-271-9291","addr":"경기도 수원시 장안구 정자동 433-8번지 진미빌딩","indutype":"일반휴게음식 - 일반한식","category":"restaurant"}]},{"lat":"37.296481484","long":"126.9953932","imageIndex":4,"items":[{"name":"꼬꼬리치","tel":"031-000-0000","addr":"경기도 수원시 장안구 정자동 874-2번지 롯데프라자 1층 102호","indutype":"일반휴게음식 - 스넥","category":"restaurant"},{"name":"로시망고","tel":"031-268-1802","addr":"경기도 수원시 장안구 정자동 874-2번지 롯데프라자 102호","indutype":"일반휴게음식 - 주점","category":"restaurant"},{"name":"청대문곤드레밥","tel":"031-245-2921","addr":"경기도 수원시 장안구 정자동 874-2번지 롯데프라자 1층","indutype":"일반휴게음식 - 일반한식","category":"restaurant"},{"name":"한상에 소두마리","tel":"031-268-1292","addr":"경기도 수원시 장안구 정자동 874-2번지 롯데프라자 208호","indutype":"일반휴게음식 - 일반한식","category":"restaurant"}]},{"lat":"37.291877431","long":"126.99930698","imageIndex":4,"items":[{"name":"꼬르륵","tel":"031-246-3529","addr":"경기도 수원시 장안구 정자동 44-60번지","indutype":"일반휴게음식 - 일반한식","category":"restaurant"}]},{"lat":"37.295238184","long":"127.00830673","imageIndex":4,"items":[{"name":"꽃다방","tel":"031-241-3644","addr":"경기도 수원시 장안구 정자동 9-1번지","indutype":"일반휴게음식 - 서양음식","category":"restaurant"},{"name":"팔팔식당","tel":"031-244-4191","addr":"경기도 수원시 장안구 정자동 9-1번지 1층","indutype":"일반휴게음식 - 일반한식","category":"restaurant"}]},{"lat":"37.296066992","long":"126.99506618","imageIndex":4,"items":[{"name":"꽃소","tel":"070-4251-0804","addr":"경기도 수원시 장안구 정자동 874-5번지 112호","indutype":"일반휴게음식 - 일반한식","category":"restaurant"},{"name":"다인양꼬치","tel":"031-268-6003","addr":"경기도 수원시 장안구 정자동 874-5번지 1층","indutype":"일반휴게음식 - 일반한식","category":"restaurant"},{"name":"본도시락 수원정자점","tel":"031-269-4288","addr":"경기도 수원시 장안구 정자동 874-5번지 레몬스포렉스 103호","indutype":"일반휴게음식 - 일반한식","category":"restaurant"},{"name":"소고기에소주한잔","tel":"031-269-2928","addr":"경기도 수원시 장안구 정자동 874-5번지 118호","indutype":"일반휴게음식 - 일반한식","category":"restaurant"},{"name":"솥뚜껑삼겹살&막창","tel":"031-268-1192","addr":"경기도 수원시 장안구 정자동 874-5번지 104호","indutype":"일반휴게음식 - 일반한식","category":"restaurant"},{"name":"인생꼬치","tel":"031-425-2062","addr":"경기도 수원시 장안구 정자동 874-5번지 117호","indutype":"일반휴게음식 - 일반한식","category":"restaurant"},{"name":"카페그랑","tel":"031-268-3628","addr":"경기도 수원시 장안구 정자동 874-5번지 1층 116호","indutype":"일반휴게음식 - 서양음식","category":"restaurant"},{"name":"티알씨.커피(TRC.COFFEE)","tel":"031-268-0156","addr":"경기도 수원시 장안구 정자동 874-5번지 레몬스포렉스 1층 113호","indutype":"일반휴게음식 - 서양음식","category":"restaurant"}]},{"lat":"37.301707276","long":"126.9933399","imageIndex":4,"items":[{"name":"꾼들이만든떡볶이","tel":"031-227-4825","addr":"경기도 수원시 장안구 정자동 383번지 범아 상가 113호","indutype":"일반휴게음식 - 스넥","category":"restaurant"},{"name":"올리브카페","tel":"031-245-9172","addr":"경기도 수원시 장안구 정자동 383번지 범야건설주식회사 128호","indutype":"일반휴게음식 - 서양음식","category":"restaurant"},{"name":"카페나무","tel":"031-000-0000","addr":"경기도 수원시 장안구 정자동 383번지 범야건설주식회사 상가 2층 204호","indutype":"일반휴게음식 - 서양음식","category":"restaurant"},{"name":"카페아띠","tel":"070-9043-0700","addr":"경기도 수원시 장안구 정자동 383번지 범야건설주식회사 101,102호","indutype":"일반휴게음식 - 서양음식","category":"restaurant"},{"name":"트윈스치킨","tel":"031-247-4137","addr":"경기도 수원시 장안구 정자동 383번지","indutype":"일반휴게음식 - 주점","category":"restaurant"}]},{"lat":"37.296147414","long":"126.9880624","imageIndex":4,"items":[{"name":"꾼떡(정자점)","tel":"031-269-7733","addr":"경기도 수원시 장안구 정자동 870-1번지 백설마을현대코오롱상가 103호","indutype":"일반휴게음식 - 스넥","category":"restaurant"}]},{"lat":"37.292012601","long":"127.00587053","imageIndex":4,"items":[{"name":"꿈볶는카페","tel":"031-253-6814","addr":"경기도 수원시 장안구 정자동 80-17번지 1층 상공회희소 로비","indutype":"일반휴게음식 - 서양음식","category":"restaurant"}]},{"lat":"37.294625545","long":"126.99894595","imageIndex":4,"items":[{"name":"꿈의대화","tel":"031-255-9551","addr":"경기도 수원시 장안구 정자동 29-23번지 지층","indutype":"일반휴게음식 - 주점","category":"restaurant"},{"name":"동지족발&보쌈","tel":"031-258-2507","addr":"경기도 수원시 장안구 정자동 29-23번지 1층","indutype":"일반휴게음식 - 일반한식","category":"restaurant"}]},{"lat":"37.291904336","long":"126.99636353","imageIndex":4,"items":[{"name":"나는카페수원점","tel":"031-252-9210","addr":"경기도 수원시 장안구 정자동 886-9번지 1층","indutype":"일반휴게음식 - 서양음식","category":"restaurant"}]},{"lat":"37.292012619","long":"127.00505855","imageIndex":4,"items":[{"name":"난다곱창 수원정자점","tel":"031-246-9595","addr":"경기도 수원시 장안구 정자동 80-1번지 외1필지 1층","indutype":"일반휴게음식 - 일반한식","category":"restaurant"},{"name":"엄마사랑분식","tel":"031-247-2981","addr":"경기도 수원시 장안구 정자동 80-1번지 1층 일부","indutype":"일반휴게음식 - 스넥","category":"restaurant"}]},{"lat":"37.307978065","long":"126.98986487","imageIndex":4,"items":[{"name":"남도포차","tel":"031-269-5149","addr":"경기도 수원시 장안구 정자동 541-19번지","indutype":"일반휴게음식 - 주점","category":"restaurant"}]},{"lat":"37.293571373","long":"127.00591571","imageIndex":4,"items":[{"name":"내방애 먹자골목","tel":"031-256-3330","addr":"경기도 수원시 장안구 정자동 68-20번지 1층","indutype":"일반휴게음식 - 일반한식","category":"restaurant"}]},{"lat":"37.296012785","long":"126.99311506","imageIndex":4,"items":[{"name":"놀러와","tel":"031-268-1225","addr":"경기도 수원시 장안구 정자동 877-1번지 화이트쇼핑몰 202호","indutype":"일반휴게음식 - 일반한식","category":"restaurant"},{"name":"손맛사랑","tel":"031-269-7999","addr":"경기도 수원시 장안구 정자동 877-1번지 화이트쇼핑몰 207호","indutype":"일반휴게음식 - 일반한식","category":"restaurant"},{"name":"솔베이지","tel":"031-245-1305","addr":"경기도 수원시 장안구 정자동 877-1번지","indutype":"일반휴게음식 - 일반한식","category":"restaurant"},{"name":"송탄부대찌개","tel":"031-269-9284","addr":"경기도 수원시 장안구 정자동 877-1번지 117호","indutype":"일반휴게음식 - 일반한식","category":"restaurant"},{"name":"엉클스치킨 수원정자점","tel":"031-268-1333","addr":"경기도 수원시 장안구 정자동 877-1번지 화이트쇼핑몰 118호","indutype":"일반휴게음식 - 스넥","category":"restaurant"},{"name":"올데","tel":"031-245-1305","addr":"경기도 수원시 장안구 정자동 877-1번지 화이트쇼핑몰 208호","indutype":"일반휴게음식 - 서양음식","category":"restaurant"},{"name":"청년떡볶이","tel":"031-269-8898","addr":"경기도 수원시 장안구 정자동 877-1번지 1층 115호","indutype":"일반휴게음식 - 일반한식","category":"restaurant"},{"name":"피자스쿨정자점","tel":"031-269-8588","addr":"경기도 수원시 장안구 정자동 877-1번지 화이트쇼핑몰 105호","indutype":"일반휴게음식 - 서양음식","category":"restaurant"},{"name":"홍짜장정자점","tel":"031-268-0169","addr":"경기도 수원시 장안구 정자동 877-1번지 화이트쇼핑몰 113호","indutype":"일반휴게음식 - 중국식","category":"restaurant"}]},{"lat":"37.296292458","long":"126.99950978","imageIndex":4,"items":[{"name":"느릅나무순대국","tel":"031-243-2229","addr":"경기도 수원시 장안구 정자동 25-9번지","indutype":"일반휴게음식 - 일반한식","category":"restaurant"}]},{"lat":"37.295373449","long":"127.00458496","imageIndex":4,"items":[{"name":"다담소담(느루식탁2019)","tel":"031-243-2019","addr":"경기도 수원시 장안구 정자동 36-37번지 1층","indutype":"일반휴게음식 - 일반한식","category":"restaurant"}]},{"lat":"37.29317489","long":"127.0069758","imageIndex":4,"items":[{"name":"다온 유기농쌈밥","tel":"031-246-5859","addr":"경기도 수원시 장안구 정자동 68-7번지 정자빌딩 1층","indutype":"일반휴게음식 - 일반한식","category":"restaurant"}]},{"lat":"37.301094406","long":"126.99138872","imageIndex":4,"items":[{"name":"달리는커피수원장안점","tel":"031-306-9151","addr":"경기도 수원시 장안구 정자동 327-2번지 영비디오 103호","indutype":"일반휴게음식 - 서양음식","category":"restaurant"}]},{"lat":"37.292787502","long":"127.00078432","imageIndex":4,"items":[{"name":"달콤해서그램","tel":"","addr":"경기도 수원시 장안구 정자동 46-1번지","indutype":"일반휴게음식 - 서양음식","category":"restaurant"}]},{"lat":"37.291652204","long":"127.00530664","imageIndex":4,"items":[{"name":"대구생막창(정자점)","tel":"031-242-0996","addr":"경기도 수원시 장안구 정자동 80-5번지 1층","indutype":"일반휴게음식 - 일반한식","category":"restaurant"}]},{"lat":"37.291931546","long":"127.00247598","imageIndex":4,"items":[{"name":"대림수산","tel":"031-251-2253","addr":"경기도 수원시 장안구 정자동 71-6번지","indutype":"일반휴게음식 - 일반한식","category":"restaurant"}]},{"lat":"37.291345863","long":"127.00488937","imageIndex":4,"items":[{"name":"대박고깃집","tel":"031-252-9259","addr":"경기도 수원시 장안구 정자동 79-13번지 1층","indutype":"일반휴게음식 - 일반한식","category":"restaurant"}]},{"lat":"37.294292125","long":"127.00792321","imageIndex":4,"items":[{"name":"대박분식","tel":"031-242-0155","addr":"경기도 수원시 장안구 정자동 8-6번지 1층","indutype":"일반휴게음식 - 스넥","category":"restaurant"}]},{"lat":"37.291291785","long":"127.00008515","imageIndex":4,"items":[{"name":"대왕만두","tel":"031-245-9555","addr":"경기도 수원시 장안구 정자동 45-55번지 1층","indutype":"일반휴게음식 - 일반한식","category":"restaurant"}]},{"lat":"37.294238156","long":"127.00105495","imageIndex":4,"items":[{"name":"더그레이(THE GREY)","tel":"","addr":"경기도 수원시 장안구 정자동 40-1번지 1층","indutype":"일반휴게음식 - 서양음식","category":"restaurant"}]},{"lat":"37.305347377","long":"126.99294465","imageIndex":4,"items":[{"name":"더웃소","tel":"031-271-9229","addr":"경기도 수원시 장안구 정자동 429-28번지 1층","indutype":"일반휴게음식 - 일반한식","category":"restaurant"}]},{"lat":"37.294454314","long":"127.00781044","imageIndex":4,"items":[{"name":"덕이네순대국","tel":"031-235-8895","addr":"경기도 수원시 장안구 정자동 8-4번지 102호","indutype":"일반휴게음식 - 일반한식","category":"restaurant"}]},{"lat":"37.292814458","long":"126.99820172","imageIndex":4,"items":[{"name":"덕이오색쌈밥","tel":"031-000-0000","addr":"경기도 수원시 장안구 정자동 43-97번지","indutype":"일반휴게음식 - 일반한식","category":"restaurant"}]},{"lat":"37.304923801","long":"126.99186187","imageIndex":4,"items":[{"name":"도도","tel":"031-246-7727","addr":"경기도 수원시 장안구 정자동 441-2번지","indutype":"일반휴게음식 - 일반한식","category":"restaurant"}]},{"lat":"37.290652014","long":"126.99861912","imageIndex":4,"items":[{"name":"도도한카페","tel":"031-309-2020","addr":"경기도 수원시 장안구 정자동 44-15번지 대원빌딩 101호","indutype":"일반휴게음식 - 서양음식","category":"restaurant"},{"name":"황철수피자","tel":"031-241-8055","addr":"경기도 수원시 장안구 정자동 44-15번지 대원빌딩 102호","indutype":"일반휴게음식 - 서양음식","category":"restaurant"}]},{"lat":"37.300896154","long":"126.99111805","imageIndex":4,"items":[{"name":"도림관","tel":"031-246-5845","addr":"경기도 수원시 장안구 정자동 371-1번지","indutype":"일반휴게음식 - 일반한식","category":"restaurant"}]},{"lat":"37.292679329","long":"127.00691939","imageIndex":4,"items":[{"name":"돈킹생삼겹살","tel":"031-247-1365","addr":"경기도 수원시 장안구 정자동 81-3번지","indutype":"일반휴게음식 - 일반한식","category":"restaurant"}]},{"lat":"37.301959308","long":"126.99058777","imageIndex":4,"items":[{"name":"동사무소가까운집","tel":"070-8796-4540","addr":"경기도 수원시 장안구 정자동 359-12번지","indutype":"일반휴게음식 - 일반한식","category":"restaurant"}]},{"lat":"37.292481059","long":"127.00805842","imageIndex":4,"items":[{"name":"동원성","tel":"031-246-3930","addr":"경기도 수원시 장안구 정자동 82-16번지","indutype":"일반휴게음식 - 중국식","category":"restaurant"}]},{"lat":"37.29350811","long":"127.01028022","imageIndex":4,"items":[{"name":"동트는농가","tel":"031-258-3341","addr":"경기도 수원시 장안구 정자동 2-21번지 1층","indutype":"일반휴게음식 - 일반한식","category":"restaurant"}]},{"lat":"37.291931486","long":"126.99911526","imageIndex":4,"items":[{"name":"돼랑이숯돌생고기","tel":"031-251-7578","addr":"경기도 수원시 장안구 정자동 44-1번지 1층","indutype":"일반휴게음식 - 일반한식","category":"restaurant"}]},{"lat":"37.29212076","long":"127.00219404","imageIndex":4,"items":[{"name":"두만이통닭","tel":"031-241-9232","addr":"경기도 수원시 장안구 정자동 71-7번지","indutype":"일반휴게음식 - 스넥","category":"restaurant"}]},{"lat":"37.291481007","long":"127.00539686","imageIndex":4,"items":[{"name":"드립하우스수원정자점","tel":"031-254-0970","addr":"경기도 수원시 장안구 정자동 80-7번지 1층","indutype":"일반휴게음식 - 서양음식","category":"restaurant"}]},{"lat":"37.29257124","long":"127.00572395","imageIndex":4,"items":[{"name":"떡깨비 정자점","tel":"031-242-3165","addr":"경기도 수원시 장안구 정자동 69-13번지 1층","indutype":"일반휴게음식 - 스넥","category":"restaurant"}]},{"lat":"37.296066605","long":"126.99053234","imageIndex":4,"items":[{"name":"또래오래치킨","tel":"031-268-0034","addr":"경기도 수원시 장안구 정자동 871-4번지 백석마을주공 상가동 102호 일부","indutype":"일반휴게음식 - 주점","category":"restaurant"}]},{"lat":"37.29214773","long":"126.99905886","imageIndex":4,"items":[{"name":"또와떡볶이","tel":"031-258-3690","addr":"경기도 수원시 장안구 정자동 43-12번지 1층","indutype":"일반휴게음식 - 스넥","category":"restaurant"},{"name":"만두쟁이","tel":"02-000-0000","addr":"경기도 수원시 장안구 정자동 43-12번지 1층","indutype":"일반휴게음식 - 일반한식","category":"restaurant"}]},{"lat":"37.295814647","long":"126.99423162","imageIndex":4,"items":[{"name":"뜰6","tel":"070-4649-1101","addr":"경기도 수원시 장안구 정자동 876-4번지 세경프라자 1층 102호","indutype":"일반휴게음식 - 서양음식","category":"restaurant"},{"name":"비어스데이","tel":"031-268-7631","addr":"경기도 수원시 장안구 정자동 876-4번지 세경프라자 3층","indutype":"일반휴게음식 - 주점","category":"restaurant"},{"name":"이디야커피(수원정자점)","tel":"031-271-3443","addr":"경기도 수원시 장안구 정자동 876-4번지 세경프라자 101호","indutype":"일반휴게음식 - 서양음식","category":"restaurant"},{"name":"착한고기","tel":"02-1111-1111","addr":"경기도 수원시 장안구 정자동 876-4번지 세경프라자 201호","indutype":"일반휴게음식 - 일반한식","category":"restaurant"},{"name":"피쉬엔드그릴","tel":"031-269-4450","addr":"경기도 수원시 장안구 정자동 876-4번지 세경프라자 103호","indutype":"일반휴게음식 - 주점","category":"restaurant"}]},{"lat":"37.309256853","long":"126.98481113","imageIndex":4,"items":[{"name":"라팽블랑","tel":"031-268-0330","addr":"경기도 수원시 장안구 정자동 600-31번지","indutype":"일반휴게음식 - 일반한식","category":"restaurant"},{"name":"바보스수원정자점","tel":"031-271-6605","addr":"경기도 수원시 장안구 정자동 600-31번지 2층 203호","indutype":"일반휴게음식 - 일반한식","category":"restaurant"},{"name":"업스테얼스","tel":"031-268-3220","addr":"경기도 수원시 장안구 정자동 600-31번지 201호","indutype":"일반휴게음식 - 서양음식","category":"restaurant"}]},{"lat":"37.302121736","long":"126.9932045","imageIndex":4,"items":[{"name":"로우다","tel":"031-000-0000","addr":"경기도 수원시 장안구 정자동 384번지 세하빌딩 2층 202호","indutype":"일반휴게음식 - 서양음식","category":"restaurant"},{"name":"봉순부대찌개","tel":"031-268-3085","addr":"경기도 수원시 장안구 정자동 384번지 세하빌딩 1층 3호","indutype":"일반휴게음식 - 일반한식","category":"restaurant"}]},{"lat":"37.304428264","long":"126.99214393","imageIndex":4,"items":[{"name":"롯데리아북수원점","tel":"031-255-1872","addr":"경기도 수원시 장안구 정자동 840-77번지 센타프라자빌딩 108동 109호","indutype":"일반휴게음식 - 서양음식","category":"restaurant"}]},{"lat":"37.292931677","long":"127.00158503","imageIndex":4,"items":[{"name":"리듬호프","tel":"","addr":"경기도 수원시 장안구 정자동 48-28번지 1층","indutype":"일반휴게음식 - 주점","category":"restaurant"}]},{"lat":"37.301562981","long":"126.99183981","imageIndex":4,"items":[{"name":"마린보이동태탕","tel":"031-242-5078","addr":"경기도 수원시 장안구 정자동 376-3번지","indutype":"일반휴게음식 - 일반한식","category":"restaurant"}]},{"lat":"37.293066776","long":"127.00672769","imageIndex":4,"items":[{"name":"마시따식당","tel":"031-245-7753","addr":"경기도 수원시 장안구 정자동 68-8번지 1층","indutype":"일반휴게음식 - 일반한식","category":"restaurant"},{"name":"배달의쌀국수(장안점)","tel":"031-255-7631","addr":"경기도 수원시 장안구 정자동 68-8번지 광일빌딩 103호","indutype":"일반휴게음식 - 일반한식","category":"restaurant"}]},{"lat":"37.296400603","long":"127.00038948","imageIndex":4,"items":[{"name":"만석풍천민물장어","tel":"031-256-3322","addr":"경기도 수원시 장안구 정자동 55-2번지 1층","indutype":"일반휴게음식 - 일반한식","category":"restaurant"}]},{"lat":"37.306401453","long":"126.99159095","imageIndex":4,"items":[{"name":"맘스터치 파장시장점","tel":"031-371-6133","addr":"경기도 수원시 장안구 정자동 537-2번지 1층","indutype":"일반휴게음식 - 서양음식","category":"restaurant"}]},{"lat":"37.305401621","long":"126.99542616","imageIndex":4,"items":[{"name":"맥땡","tel":"031-246-3405","addr":"경기도 수원시 장안구 정자동 419번지 1층","indutype":"일반휴게음식 - 주점","category":"restaurant"},{"name":"카페브루네띠","tel":"070-8991-9979","addr":"경기도 수원시 장안구 정자동 419번지 1층","indutype":"일반휴게음식 - 스넥","category":"restaurant"}]},{"lat":"37.306257249","long":"126.99117362","imageIndex":4,"items":[{"name":"멕시칸진미통닭","tel":"031-269-2792","addr":"경기도 수원시 장안구 정자동 535-30번지","indutype":"일반휴게음식 - 스넥","category":"restaurant"},{"name":"행복한고기집","tel":"031-269-9576","addr":"경기도 수원시 장안구 정자동 535-30번지","indutype":"일반휴게음식 - 일반한식","category":"restaurant"}]},{"lat":"37.296373547","long":"126.99939699","imageIndex":4,"items":[{"name":"멸치국수","tel":"031-247-7828","addr":"경기도 수원시 장안구 정자동 25-6번지 1층","indutype":"일반휴게음식 - 일반한식","category":"restaurant"},{"name":"황가네민물매운탕","tel":"070-4922-1261","addr":"경기도 수원시 장안구 정자동 25-6번지","indutype":"일반휴게음식 - 일반한식","category":"restaurant"}]},{"lat":"37.292210781","long":"127.00733663","imageIndex":4,"items":[{"name":"명동손칼국수","tel":"031-257-8984","addr":"경기도 수원시 장안구 정자동 81-15번지 알파빌딩 104호","indutype":"일반휴게음식 - 일반한식","category":"restaurant"},{"name":"박리분식","tel":"031-241-6959","addr":"경기도 수원시 장안구 정자동 81-15번지 알파빌딩 1층 103호","indutype":"일반휴게음식 - 일반한식","category":"restaurant"}]},{"lat":"37.290318707","long":"127.0019234","imageIndex":4,"items":[{"name":"명랑핫도그 정자시장점","tel":"031-245-1116","addr":"경기도 수원시 장안구 정자동 76-9번지 정자탁구장","indutype":"일반휴게음식 - 서양음식","category":"restaurant"},{"name":"오성Food","tel":"","addr":"경기도 수원시 장안구 정자동 76-9번지","indutype":"일반휴게음식 - 일반한식","category":"restaurant"},{"name":"황소불곱창","tel":"031-268-8989","addr":"경기도 수원시 장안구 정자동 76-9번지","indutype":"일반휴게음식 - 일반한식","category":"restaurant"}]},{"lat":"37.312068203","long":"126.9858934","imageIndex":4,"items":[{"name":"명품칼국수","tel":"031-248-2066","addr":"경기도 수원시 장안구 정자동 572-8번지","indutype":"일반휴게음식 - 일반한식","category":"restaurant"}]},{"lat":"37.293625402","long":"127.00700966","imageIndex":4,"items":[{"name":"모두의만족 수원정자점","tel":"031-251-8951","addr":"경기도 수원시 장안구 정자동 67-2번지 광동교회 1층 103호","indutype":"일반휴게음식 - 일반한식","category":"restaurant"},{"name":"오성백프로수제돈까스&한식","tel":"031-243-2901","addr":"경기도 수원시 장안구 정자동 67-2번지 1층","indutype":"일반휴게음식 - 일반한식","category":"restaurant"}]},{"lat":"37.290012303","long":"126.99914919","imageIndex":4,"items":[{"name":"모멜레","tel":"031-251-9293","addr":"경기도 수원시 장안구 정자동 74-19번지 정승빌딩","indutype":"일반휴게음식 - 일반한식","category":"restaurant"},{"name":"북경","tel":"031-254-7987","addr":"경기도 수원시 장안구 정자동 74-19번지 정승빌딩 109호","indutype":"일반휴게음식 - 중국식","category":"restaurant"},{"name":"장모님닭발","tel":"031-242-9551","addr":"경기도 수원시 장안구 정자동 74-19번지 정승빌딩 1층 108호","indutype":"일반휴게음식 - 일반한식","category":"restaurant"},{"name":"카페떼떼(cafetete)","tel":"070-8568-9856","addr":"경기도 수원시 장안구 정자동 74-19번지 정승빌딩 1층","indutype":"일반휴게음식 - 서양음식","category":"restaurant"}]},{"lat":"37.291120582","long":"126.99975811","imageIndex":4,"items":[{"name":"목동돈까스","tel":"031-252-7539","addr":"경기도 수원시 장안구 정자동 44-64번지 1층","indutype":"일반휴게음식 - 서양음식","category":"restaurant"},{"name":"참&COFFEE","tel":"031-252-0344","addr":"경기도 수원시 장안구 정자동 44-64번지 1층","indutype":"일반휴게음식 - 서양음식","category":"restaurant"}]},{"lat":"37.29178737","long":"127.00461872","imageIndex":4,"items":[{"name":"문전성시","tel":"031-257-8669","addr":"경기도 수원시 장안구 정자동 79-42번지 1층","indutype":"일반휴게음식 - 일반한식","category":"restaurant"}]},{"lat":"37.2952383","long":"127.00428045","imageIndex":4,"items":[{"name":"미남꼬마김밥","tel":"","addr":"경기도 수원시 장안구 정자동 36-8번지 1층 102호","indutype":"일반휴게음식 - 일반한식","category":"restaurant"}]},{"lat":"37.292625238","long":"127.00769754","imageIndex":4,"items":[{"name":"미소분식","tel":"031-223-5214","addr":"경기도 수원시 장안구 정자동 82-13번지 1층","indutype":"일반휴게음식 - 스넥","category":"restaurant"}]},{"lat":"37.305284338","long":"126.99333945","imageIndex":4,"items":[{"name":"미소참치","tel":"031-111-1111","addr":"경기도 수원시 장안구 정자동 429-43번지 1층","indutype":"일반휴게음식 - 일식·회집","category":"restaurant"},{"name":"불티족","tel":"031-256-1255","addr":"경기도 수원시 장안구 정자동 429-43번지 하모니마트 나동","indutype":"일반휴게음식 - 일반한식","category":"restaurant"},{"name":"우리감자탕","tel":"031-207-0556","addr":"경기도 수원시 장안구 정자동 429-43번지 하모니마트 나동 1층","indutype":"일반휴게음식 - 일반한식","category":"restaurant"},{"name":"우리동네솥뚜껑","tel":"070-4079-0425","addr":"경기도 수원시 장안구 정자동 429-43번지 하모니마트 나동","indutype":"일반휴게음식 - 일반한식","category":"restaurant"},{"name":"해송정","tel":"031-243-9594","addr":"경기도 수원시 장안구 정자동 429-43번지 하모니마트 다동","indutype":"일반휴게음식 - 일반한식","category":"restaurant"}]},{"lat":"37.295013","long":"126.99939706","imageIndex":4,"items":[{"name":"미정칼국수","tel":"031-251-9856","addr":"경기도 수원시 장안구 정자동 28-6번지","indutype":"일반휴게음식 - 일반한식","category":"restaurant"},{"name":"수정궁수정","tel":"031-252-0222","addr":"경기도 수원시 장안구 정자동 28-6번지","indutype":"일반휴게음식 - 중국식","category":"restaurant"}]},{"lat":"37.310311242","long":"126.9861194","imageIndex":4,"items":[{"name":"바닐라","tel":"031-268-4090","addr":"경기도 수원시 장안구 정자동 582-3번지 1층","indutype":"일반휴게음식 - 서양음식","category":"restaurant"}]},{"lat":"37.290625042","long":"127.00084076","imageIndex":4,"items":[{"name":"반찬진국","tel":"031-256-0880","addr":"경기도 수원시 장안구 정자동 73-10번지 정자종합시장 2층 214호","indutype":"일반휴게음식 - 일반한식","category":"restaurant"},{"name":"장군이할매순대국","tel":"031-245-6949","addr":"경기도 수원시 장안구 정자동 73-10번지 정자종합시장 103호","indutype":"일반휴게음식 - 일반한식","category":"restaurant"},{"name":"장호덕손만두","tel":"031-308-2020","addr":"경기도 수원시 장안구 정자동 73-10번지 정자종합시장 106,107호","indutype":"일반휴게음식 - 스넥","category":"restaurant"}]},{"lat":"37.295571664","long":"127.00519399","imageIndex":4,"items":[{"name":"밤안개","tel":"031-254-6840","addr":"경기도 수원시 장안구 정자동 36-22번지","indutype":"일반휴게음식 - 칵테일바","category":"restaurant"}]},{"lat":"37.290850312","long":"127.00183317","imageIndex":4,"items":[{"name":"배터지는생동까스","tel":"031-248-5161","addr":"경기도 수원시 장안구 정자동 73-36번지 1층","indutype":"일반휴게음식 - 일반한식","category":"restaurant"},{"name":"은혜식당","tel":"031-243-9295","addr":"경기도 수원시 장안구 정자동 73-36번지 1층","indutype":"일반휴게음식 - 일반한식","category":"restaurant"}]},{"lat":"37.292372969","long":"127.00722387","imageIndex":4,"items":[{"name":"백돈우가","tel":"031-255-3785","addr":"경기도 수원시 장안구 정자동 81-14번지 1층","indutype":"일반휴게음식 - 일반한식","category":"restaurant"}]},{"lat":"37.299292369","long":"126.99150178","imageIndex":4,"items":[{"name":"백반애찬","tel":"031-260-2347","addr":"경기도 수원시 장안구 정자동 332-6번지","indutype":"일반휴게음식 - 일반한식","category":"restaurant"}]},{"lat":"37.306041027","long":"126.9914218","imageIndex":4,"items":[{"name":"백원이네포차","tel":"031-271-9507","addr":"경기도 수원시 장안구 정자동 528-12번지","indutype":"일반휴게음식 - 주점","category":"restaurant"},{"name":"신신포차","tel":"070-7529-0126","addr":"경기도 수원시 장안구 정자동 528-12번지 대형약국 나동 1층","indutype":"일반휴게음식 - 일반한식","category":"restaurant"}]},{"lat":"37.3060681","long":"126.99186171","imageIndex":4,"items":[{"name":"번개막창","tel":"031-269-9282","addr":"경기도 수원시 장안구 정자동 435-8번지","indutype":"일반휴게음식 - 일반한식","category":"restaurant"}]},{"lat":"37.307734828","long":"126.99022587","imageIndex":4,"items":[{"name":"벤치","tel":"031-268-1628","addr":"경기도 수원시 장안구 정자동 540-2번지","indutype":"일반휴게음식 - 주점","category":"restaurant"}]},{"lat":"37.291814399","long":"127.00473149","imageIndex":4,"items":[{"name":"보고싶다 친구야","tel":"031-216-7474","addr":"경기도 수원시 장안구 정자동 79-23번지 1층","indutype":"일반휴게음식 - 일반한식","category":"restaurant"},{"name":"옛국시","tel":"031-247-1158","addr":"경기도 수원시 장안구 정자동 79-23번지","indutype":"일반휴게음식 - 일반한식","category":"restaurant"}]},{"lat":"37.294733395","long":"126.99392724","imageIndex":4,"items":[{"name":"본죽(백설마을점)","tel":"031-269-6233","addr":"경기도 수원시 장안구 정자동 878-6번지 선일프라자 104호","indutype":"일반휴게음식 - 일반한식","category":"restaurant"}]},{"lat":"37.304815741","long":"126.99256122","imageIndex":4,"items":[{"name":"본죽(파장점)","tel":"031-269-6288","addr":"경기도 수원시 장안구 정자동 389-2번지","indutype":"일반휴게음식 - 일반한식","category":"restaurant"},{"name":"에디스펍","tel":"070-883-3225","addr":"경기도 수원시 장안구 정자동 389-2번지 3층","indutype":"일반휴게음식 - 주점","category":"restaurant"}]},{"lat":"37.295679476","long":"126.99400607","imageIndex":4,"items":[{"name":"봉구스밥버거","tel":"031-269-3231","addr":"경기도 수원시 장안구 정자동 876-5번지 뱅뱅프라자 108호","indutype":"일반휴게음식 - 스넥","category":"restaurant"},{"name":"여기야생고기 (정자점)","tel":"031-268-2680","addr":"경기도 수원시 장안구 정자동 876-5번지 뱅뱅프라자 202호","indutype":"일반휴게음식 - 일반한식","category":"restaurant"},{"name":"이삭토스트","tel":"031-271-2456","addr":"경기도 수원시 장안구 정자동 876-5번지 뱅뱅프라자 101호","indutype":"일반휴게음식 - 일반한식","category":"restaurant"},{"name":"인디고블루","tel":"031-269-5671","addr":"경기도 수원시 장안구 정자동 876-5번지 뱅뱅프라자 107호","indutype":"일반휴게음식 - 서양음식","category":"restaurant"},{"name":"철이네스시카페","tel":"031-268-3651","addr":"경기도 수원시 장안구 정자동 876-5번지 뱅뱅프라자 201호","indutype":"일반휴게음식 - 일식·회집","category":"restaurant"},{"name":"팔공티","tel":"","addr":"경기도 수원시 장안구 정자동 876-5번지 뱅뱅프라자 102호","indutype":"일반휴게음식 - 서양음식","category":"restaurant"},{"name":"홍가네숯불오리회전구이","tel":"031-269-0092","addr":"경기도 수원시 장안구 정자동 876-5뱅뱅프라자101,102,203호","indutype":"일반휴게음식 - 일반한식","category":"restaurant"},{"name":"홍콩반점0410 수원정자점","tel":"031-268-0413","addr":"경기도 수원시 장안구 정자동 876-5번지 뱅뱅프라자 203호","indutype":"일반휴게음식 - 중국식","category":"restaurant"}]},{"lat":"37.305482588","long":"126.99364397","imageIndex":4,"items":[{"name":"봉이김선달숯불촌","tel":"031-251-3787","addr":"경기도 수원시 장안구 정자동 429-2번지","indutype":"일반휴게음식 - 일반한식","category":"restaurant"}]},{"lat":"37.302707177","long":"126.9907794","imageIndex":4,"items":[{"name":"부대고기","tel":"031-244-6503","addr":"경기도 수원시 장안구 정자동 466-2번지","indutype":"일반휴게음식 - 일반한식","category":"restaurant"}]},{"lat":"37.294931611","long":"126.99381443","imageIndex":4,"items":[{"name":"부리또인 수원정자점","tel":"031-271-6655","addr":"경기도 수원시 장안구 정자동 878-8번지 금강프라자 1층 101호","indutype":"일반휴게음식 - 일반한식","category":"restaurant"},{"name":"지지고 정자점","tel":"031-268-9060","addr":"경기도 수원시 장안구 정자동 878-8번지 금강프라자 102호","indutype":"일반휴게음식 - 일반한식","category":"restaurant"}]},{"lat":"37.290093434","long":"127.00067162","imageIndex":4,"items":[{"name":"부산어묵","tel":"031-234-0150","addr":"경기도 수원시 장안구 정자동 75-21번지","indutype":"일반휴게음식 - 일반한식","category":"restaurant"}]},{"lat":"37.292931498","long":"127.00953583","imageIndex":4,"items":[{"name":"불&구이돈","tel":"031-244-6868","addr":"경기도 수원시 장안구 정자동 5-25번지 성산빌딩 1층","indutype":"일반휴게음식 - 일반한식","category":"restaurant"}]},{"lat":"37.305815862","long":"126.99239189","imageIndex":4,"items":[{"name":"뼈나라감자탕","tel":"031-245-0902","addr":"경기도 수원시 장안구 정자동 433번지","indutype":"일반휴게음식 - 일반한식","category":"restaurant"}]},{"lat":"37.291481034","long":"127.00281431","imageIndex":4,"items":[{"name":"뼈다귀천국","tel":"031-242-2309","addr":"경기도 수원시 장안구 정자동 71-5번지","indutype":"일반휴게음식 - 일반한식","category":"restaurant"}]},{"lat":"37.291210716","long":"127.00444954","imageIndex":4,"items":[{"name":"뿌커피숍","tel":"031-111-1111","addr":"경기도 수원시 장안구 정자동 79-10번지 1층","indutype":"일반휴게음식 - 서양음식","category":"restaurant"}]},{"lat":"37.294012864","long":"127.00633301","imageIndex":4,"items":[{"name":"산약초식당","tel":"031-239-6043","addr":"경기도 수원시 장안구 정자동 68-47번지 1층","indutype":"일반휴게음식 - 일반한식","category":"restaurant"}]},{"lat":"37.302563072","long":"126.99136594","imageIndex":4,"items":[{"name":"삼국지","tel":"031-307-7034","addr":"경기도 수원시 장안구 정자동 464-3번지 1층 좌측","indutype":"일반휴게음식 - 주점","category":"restaurant"}]},{"lat":"37.294787784","long":"127.00452856","imageIndex":4,"items":[{"name":"삼대랑.주.율.족발","tel":"031-251-1233","addr":"경기도 수원시 장안구 정자동 36-12번지 1층","indutype":"일반휴게음식 - 일반한식","category":"restaurant"}]},{"lat":"37.291814391","long":"127.00517132","imageIndex":4,"items":[{"name":"삼성반점","tel":"031-244-3527","addr":"경기도 수원시 장안구 정자동 80-3번지","indutype":"일반휴게음식 - 중국식","category":"restaurant"}]},{"lat":"37.304788632","long":"126.99170398","imageIndex":4,"items":[{"name":"삼척횟집","tel":"031-245-6555","addr":"경기도 수원시 장안구 정자동 440-1번지","indutype":"일반휴게음식 - 일반한식","category":"restaurant"}]},{"lat":"37.295787933","long":"127.00289325","imageIndex":4,"items":[{"name":"삼총사푸드","tel":"031-258-2426","addr":"경기도 수원시 장안구 정자동 35-3번지 1층","indutype":"일반휴게음식 - 일반한식","category":"restaurant"}]},{"lat":"37.294346269","long":"127.00050232","imageIndex":4,"items":[{"name":"생생고기마을","tel":"031-207-6655","addr":"경기도 수원시 장안구 정자동 32-15번지","indutype":"일반휴게음식 - 일반한식","category":"restaurant"}]},{"lat":"37.295373167","long":"126.99453618","imageIndex":4,"items":[{"name":"소담촌 수원정자점","tel":"031-268-3322","addr":"경기도 수원시 장안구 정자동 878-2번지 경성빌딩 4층","indutype":"일반휴게음식 - 일반한식","category":"restaurant"},{"name":"토니버거수원정자점","tel":"031-271-5595","addr":"경기도 수원시 장안구 정자동 878-2번지 1층","indutype":"일반휴게음식 - 서양음식","category":"restaurant"}]},{"lat":"37.292679341","long":"126.99925055","imageIndex":4,"items":[{"name":"소문난먹거리","tel":"031-244-1094","addr":"경기도 수원시 장안구 정자동 42-6번지 목단연립","indutype":"일반휴게음식 - 일반한식","category":"restaurant"}]},{"lat":"37.304734596","long":"126.9919747","imageIndex":4,"items":[{"name":"소백산토종흙돼지구이","tel":"031-256-5592","addr":"경기도 수원시 장안구 정자동 441-10번지","indutype":"일반휴게음식 - 일반한식","category":"restaurant"}]},{"lat":"37.306149137","long":"126.99128643","imageIndex":4,"items":[{"name":"소세립","tel":"070-8115-0524","addr":"경기도 수원시 장안구 정자동 535-16 2층","indutype":"일반휴게음식 - 주점","category":"restaurant"}]},{"lat":"37.294931884","long":"126.99867527","imageIndex":4,"items":[{"name":"소풍","tel":"031-248-3327","addr":"경기도 수원시 장안구 정자동 29-9번지 1층","indutype":"일반휴게음식 - 스넥","category":"restaurant"},{"name":"프리프리피자","tel":"031-248-5643","addr":"경기도 수원시 장안구 정자동 29-9번지 차와그린비어 1층 102호","indutype":"일반휴게음식 - 서양음식","category":"restaurant"}]},{"lat":"37.290814243","long":"127.000119","imageIndex":4,"items":[{"name":"소풍가는날","tel":"031-252-7339","addr":"경기도 수원시 장안구 정자동 74-42번지","indutype":"일반휴게음식 - 일반한식","category":"restaurant"}]},{"lat":"37.292877577","long":"127.00619762","imageIndex":4,"items":[{"name":"솔대노리협동조합/카페노리","tel":"031-258-8418","addr":"경기도 수원시 장안구 정자동 68-18번지","indutype":"일반휴게음식 - 서양음식","category":"restaurant"}]},{"lat":"37.309203043","long":"126.98653701","imageIndex":4,"items":[{"name":"쇼카페","tel":"031-268-0427","addr":"경기도 수원시 장안구 정자동 947번지 수원SK아트리움 1층","indutype":"일반휴게음식 - 일반한식","category":"restaurant"}]},{"lat":"37.29614828","long":"126.9990361","imageIndex":4,"items":[{"name":"수다쟁이","tel":"031-000-0000","addr":"경기도 수원시 장안구 정자동 25-16번지","indutype":"일반휴게음식 - 서양음식","category":"restaurant"}]},{"lat":"37.293120892","long":"127.00422402","imageIndex":4,"items":[{"name":"수성스넥","tel":"031-241-2447","addr":"경기도 수원시 장안구 정자동 69-3번지","indutype":"일반휴게음식 - 스넥","category":"restaurant"}]},{"lat":"37.292760478","long":"127.00452852","imageIndex":4,"items":[{"name":"수성식당","tel":"031-242-1966","addr":"경기도 수원시 장안구 정자동 69-4번지","indutype":"일반휴게음식 - 일반한식","category":"restaurant"},{"name":"쭈꾸미식당","tel":"031-258-0969","addr":"경기도 수원시 장안구 정자동 69-4번지","indutype":"일반휴게음식 - 일반한식","category":"restaurant"}]},{"lat":"37.294733689","long":"126.99961135","imageIndex":4,"items":[{"name":"수원냉면콩국수전문점","tel":"031-245-2323","addr":"경기도 수원시 장안구 정자동 31-1번지 1층","indutype":"일반휴게음식 - 일반한식","category":"restaurant"}]},{"lat":"37.295427517","long":"127.00405489","imageIndex":4,"items":[{"name":"수원성","tel":"031-252-3353","addr":"경기도 수원시 장안구 정자동 36-6번지","indutype":"일반휴게음식 - 중국식","category":"restaurant"},{"name":"수제와플","tel":"","addr":"경기도 수원시 장안구 정자동 36-6번지 1층","indutype":"일반휴게음식 - 일반한식","category":"restaurant"},{"name":"헬로통큰삼겹 정자점","tel":"031-258-8828","addr":"경기도 수원시 장안구 정자동 36-6번지 1층","indutype":"일반휴게음식 - 일반한식","category":"restaurant"}]},{"lat":"37.291706214","long":"126.99864161","imageIndex":4,"items":[{"name":"수원영양탕","tel":"031-243-9556","addr":"경기도 수원시 장안구 정자동 44-2번지 1층","indutype":"일반휴게음식 - 일반한식","category":"restaurant"}]},{"lat":"37.29287761","long":"127.00116776","imageIndex":4,"items":[{"name":"수원정자2동점굽네치킨","tel":"031-256-9294","addr":"경기도 수원시 장안구 정자동 46-41번지","indutype":"일반휴게음식 - 주점","category":"restaurant"}]},{"lat":"37.289814093","long":"126.99966795","imageIndex":4,"items":[{"name":"수커피전문점","tel":"031-258-3553","addr":"경기도 수원시 장안구 정자동 75-3번지 삼화빌딩 103호","indutype":"일반휴게음식 - 서양음식","category":"restaurant"},{"name":"한마당(생고기전문점)","tel":"031-246-0288","addr":"경기도 수원시 장안구 정자동 75-3번지 101동 102호","indutype":"일반휴게음식 - 일반한식","category":"restaurant"}]},{"lat":"37.295868683","long":"126.99389327","imageIndex":4,"items":[{"name":"스시익스프레스","tel":"","addr":"경기도 수원시 장안구 정자동 876-6번지 서강프라자 102호","indutype":"일반휴게음식 - 일식·회집","category":"restaurant"},{"name":"시오도메","tel":"031-268-7787","addr":"경기도 수원시 장안구 정자동 876-6번지 서강프라자 101호","indutype":"일반휴게음식 - 일식·회집","category":"restaurant"},{"name":"주커피 수원정자점","tel":"031-269-6232","addr":"경기도 수원시 장안구 정자동 876-6번지 서강프라자 103호","indutype":"일반휴게음식 - 서양음식","category":"restaurant"}]},{"lat":"37.291454002","long":"127.00327668","imageIndex":4,"items":[{"name":"스쿨푸드 장안팔달점","tel":"031-252-2010","addr":"경기도 수원시 장안구 정자동 71-15번지 1층","indutype":"일반휴게음식 - 일반한식","category":"restaurant"}]},{"lat":"37.293733582","long":"127.0010324","imageIndex":4,"items":[{"name":"시골밥상","tel":"031-258-1204","addr":"경기도 수원시 장안구 정자동 40-5번지 평산시티텔 103동 104호","indutype":"일반휴게음식 - 일반한식","category":"restaurant"}]},{"lat":"37.293841691","long":"127.00028806","imageIndex":4,"items":[{"name":"신의주전통순대국","tel":"031-221-8853","addr":"경기도 수원시 장안구 정자동 41-1번지","indutype":"일반휴게음식 - 일반한식","category":"restaurant"}]},{"lat":"37.29226487","long":"126.99925057","imageIndex":4,"items":[{"name":"써머스","tel":"031-253-8633","addr":"경기도 수원시 장안구 정자동 42-29번지 장미슈퍼 102호","indutype":"일반휴게음식 - 주점","category":"restaurant"}]},{"lat":"37.293210797","long":"127.00986291","imageIndex":4,"items":[{"name":"아리아리호프","tel":"031-243-0182","addr":"경기도 수원시 장안구 정자동 5-32번지","indutype":"일반휴게음식 - 주점","category":"restaurant"}]},{"lat":"37.294508326","long":"127.00889313","imageIndex":4,"items":[{"name":"아재찜닭","tel":"031-258-3600","addr":"경기도 수원시 장안구 정자동 7-1번지 국제반석교회 103호","indutype":"일반휴게음식 - 일반한식","category":"restaurant"}]},{"lat":"37.291814373","long":"126.99981447","imageIndex":4,"items":[{"name":"안동밥집","tel":"031-241-8082","addr":"경기도 수원시 장안구 정자동 45-50번지","indutype":"일반휴게음식 - 일반한식","category":"restaurant"}]},{"lat":"37.294346282","long":"127.0012805","imageIndex":4,"items":[{"name":"앙블리케이크","tel":"","addr":"경기도 수원시 장안구 정자동 39-15번지","indutype":"일반휴게음식 - 서양음식","category":"restaurant"}]},{"lat":"37.291093562","long":"127.00019794","imageIndex":4,"items":[{"name":"얌얌","tel":"031-246-5356","addr":"경기도 수원시 장안구 정자동 73-7번지 1층 103호","indutype":"일반휴게음식 - 일반한식","category":"restaurant"},{"name":"쫄보왕족발","tel":"031-893-4222","addr":"경기도 수원시 장안구 정자동 73-7번지 1층","indutype":"일반휴게음식 - 일반한식","category":"restaurant"}]},{"lat":"37.2957609","long":"127.0035361","imageIndex":4,"items":[{"name":"양푼집","tel":"031-223-3989","addr":"경기도 수원시 장안구 정자동 35-9번지 1층","indutype":"일반휴게음식 - 일반한식","category":"restaurant"}]},{"lat":"37.293066627","long":"127.00995312","imageIndex":4,"items":[{"name":"엄지갈비","tel":"031-245-0092","addr":"경기도 수원시 장안구 정자동 5-9번지","indutype":"일반휴게음식 - 일반한식","category":"restaurant"},{"name":"옥이이모(정자점)","tel":"031-251-2603","addr":"경기도 수원시 장안구 정자동 5-9번지","indutype":"일반휴게음식 - 일반한식","category":"restaurant"}]},{"lat":"37.294319149","long":"126.99769412","imageIndex":4,"items":[{"name":"에스티카페","tel":"","addr":"경기도 수원시 장안구 정자동 29-5번지 1층","indutype":"일반휴게음식 - 일반한식","category":"restaurant"}]},{"lat":"37.298120516","long":"126.98697927","imageIndex":4,"items":[{"name":"엔젤프레소","tel":"031-248-2896","addr":"경기도 수원시 장안구 정자동 937번지 동남보건전문대학 지하1층","indutype":"일반휴게음식 - 서양음식","category":"restaurant"},{"name":"주식회사푸드사랑","tel":"031-271-1245","addr":"경기도 수원시 장안구 정자동 937번지 동남보건대학교","indutype":"일반휴게음식 - 위탁급식업","category":"restaurant"},{"name":"카페드림 동남보건대 사담기념관점/(주)더","tel":"02-866-6451","addr":"경기도 수원시 장안구 정자동 937번지 동남보건대학교 사담기념관 1층","indutype":"일반휴게음식 - 서양음식","category":"restaurant"}]},{"lat":"37.305950986","long":"126.99206476","imageIndex":4,"items":[{"name":"엔조이락","tel":"031-258-4708","addr":"경기도 수원시 장안구 정자동 435-1번지 1층","indutype":"일반휴게음식 - 주점","category":"restaurant"},{"name":"찌개지존","tel":"031-268-5353","addr":"경기도 수원시 장안구 정자동 435-1번지 송탄햄버거 A동","indutype":"일반휴게음식 - 일반한식","category":"restaurant"}]},{"lat":"37.294760733","long":"127.00014142","imageIndex":4,"items":[{"name":"엠투(M2)","tel":"031-243-1855","addr":"경기도 수원시 장안구 정자동 32-35번지 1층","indutype":"일반휴게음식 - 서양음식","category":"restaurant"}]},{"lat":"37.292481168","long":"127.00200231","imageIndex":4,"items":[{"name":"연가치킨호프","tel":"031-257-2255","addr":"경기도 수원시 장안구 정자동 48-5번지 101호","indutype":"일반휴게음식 - 스넥","category":"restaurant"}]},{"lat":"37.291291796","long":"127.00055881","imageIndex":4,"items":[{"name":"열두돌","tel":"031-248-5927","addr":"경기도 수원시 장안구 정자동 73-5번지 1층","indutype":"일반휴게음식 - 일반한식","category":"restaurant"}]},{"lat":"37.304292848","long":"126.98956096","imageIndex":4,"items":[{"name":"영분식","tel":"031-254-2084","addr":"경기도 수원시 장안구 정자동 520-1번지","indutype":"일반휴게음식 - 일반한식","category":"restaurant"}]},{"lat":"37.30276133","long":"126.99170428","imageIndex":4,"items":[{"name":"영심이네생고기","tel":"031-269-8889","addr":"경기도 수원시 장안구 정자동 462-3번지","indutype":"일반휴게음식 - 일반한식","category":"restaurant"}]},{"lat":"37.305896971","long":"126.99258363","imageIndex":4,"items":[{"name":"영해수산","tel":"031-268-3600","addr":"경기도 수원시 장안구 정자동 432번지 주연노래빠 A동","indutype":"일반휴게음식 - 일반한식","category":"restaurant"},{"name":"잇카페","tel":"031-236-9455","addr":"경기도 수원시 장안구 정자동 432번지","indutype":"일반휴게음식 - 서양음식","category":"restaurant"}]},{"lat":"37.296148174","long":"126.99656617","imageIndex":4,"items":[{"name":"옛고을빈대떡","tel":"031-251-6839","addr":"경기도 수원시 장안구 정자동 23-13번지","indutype":"일반휴게음식 - 칵테일바","category":"restaurant"},{"name":"춘양골추어탕","tel":"031-251-8005","addr":"경기도 수원시 장안구 정자동 23-13번지","indutype":"일반휴게음식 - 일반한식","category":"restaurant"}]},{"lat":"37.305509571","long":"126.99305743","imageIndex":4,"items":[{"name":"옛날멸치국수","tel":"031-269-5455","addr":"경기도 수원시 장안구 정자동 429-41번지 동신프라자 101호","indutype":"일반휴게음식 - 일반한식","category":"restaurant"},{"name":"오셰프''s 석쇠구이","tel":"031-268-1365","addr":"경기도 수원시 장안구 정자동 429-41번지 동신프라자","indutype":"일반휴게음식 - 일반한식","category":"restaurant"}]},{"lat":"37.305455423","long":"126.99206483","imageIndex":4,"items":[{"name":"오늘애커피","tel":"070-5033-1977","addr":"경기도 수원시 장안구 정자동 434-10번지 동우빌딩 1층 107호","indutype":"일반휴게음식 - 서양음식","category":"restaurant"}]},{"lat":"37.306374373","long":"126.99108336","imageIndex":4,"items":[{"name":"오빠닭발","tel":"031-241-2720","addr":"경기도 수원시 장안구 정자동 535-25번지","indutype":"일반휴게음식 - 일반한식","category":"restaurant"}]},{"lat":"37.292877607","long":"127.00097604","imageIndex":4,"items":[{"name":"옥이네","tel":"031-241-1181","addr":"경기도 수원시 장안구 정자동 46-36번지","indutype":"일반휴게음식 - 주점","category":"restaurant"}]},{"lat":"37.305257269","long":"126.99286571","imageIndex":4,"items":[{"name":"왕대박조개구이, 찜","tel":"070-4254-0160","addr":"경기도 수원시 장안구 정자동 429-29번지 1층","indutype":"일반휴게음식 - 일반한식","category":"restaurant"}]},{"lat":"37.307590679","long":"126.99036126","imageIndex":4,"items":[{"name":"왕뚜껑삼겹살","tel":"031-111-1111","addr":"경기도 수원시 장안구 정자동 540-6번지","indutype":"일반휴게음식 - 일반한식","category":"restaurant"}]},{"lat":"37.308176202","long":"126.98908652","imageIndex":4,"items":[{"name":"우리식당","tel":"031-257-3181","addr":"경기도 수원시 장안구 정자동 547-30번지","indutype":"일반휴게음식 - 일반한식","category":"restaurant"}]},{"lat":"37.292841503","long":"127.00720134","imageIndex":4,"items":[{"name":"우리집","tel":"031-244-0566","addr":"경기도 수원시 장안구 정자동 81-12번지 ,1,2층","indutype":"일반휴게음식 - 서양음식","category":"restaurant"}]},{"lat":"37.294652543","long":"126.99805499","imageIndex":4,"items":[{"name":"우림","tel":"031-258-8522","addr":"경기도 수원시 장안구 정자동 29-13번지 1층","indutype":"일반휴게음식 - 일반한식","category":"restaurant"}]},{"lat":"37.300229329","long":"126.99045271","imageIndex":4,"items":[{"name":"우림본갈비","tel":"031-243-0539","addr":"경기도 수원시 장안구 정자동 340-2번지 1층","indutype":"일반휴게음식 - 일반한식","category":"restaurant"},{"name":"팔당냉명수원정자점","tel":"031-271-8800","addr":"경기도 수원시 장안구 정자동 340-2번지 2층","indutype":"일반휴게음식 - 일반한식","category":"restaurant"}]},{"lat":"37.305761737","long":"126.99170384","imageIndex":4,"items":[{"name":"우시장할매집","tel":"","addr":"경기도 수원시 장안구 정자동 435-5번지 1층","indutype":"일반휴게음식 - 일반한식","category":"restaurant"}]},{"lat":"37.291652129","long":"126.99803263","imageIndex":4,"items":[{"name":"원가네","tel":"031-248-1666","addr":"경기도 수원시 장안구 정자동 43-46번지","indutype":"일반휴게음식 - 일반한식","category":"restaurant"}]},{"lat":"37.290147491","long":"127.00044607","imageIndex":4,"items":[{"name":"원조 장터보쌈","tel":"031-247-1110","addr":"경기도 수원시 장안구 정자동 75-1번지 1층","indutype":"일반휴게음식 - 일반한식","category":"restaurant"},{"name":"웰빙엄마손꼬마김밥","tel":"031-252-5023","addr":"경기도 수원시 장안구 정자동 75-1번지 1층","indutype":"일반휴게음식 - 일반한식","category":"restaurant"}]},{"lat":"37.301625818","long":"126.98956143","imageIndex":4,"items":[{"name":"원조세꼬시","tel":"031-223-9282","addr":"경기도 수원시 장안구 정자동 343-18번지","indutype":"일반휴게음식 - 일반한식","category":"restaurant"}]},{"lat":"37.291147615","long":"126.99983706","imageIndex":4,"items":[{"name":"원조장충왕족발(정자시장점)","tel":"031-254-7942","addr":"경기도 수원시 장안구 정자동 44-65번지","indutype":"일반휴게음식 - 일반한식","category":"restaurant"},{"name":"피자애(정자점)","tel":"031-255-8700","addr":"경기도 수원시 장안구 정자동 44-65번지","indutype":"일반휴게음식 - 서양음식","category":"restaurant"}]},{"lat":"37.290453863","long":"127.00219405","imageIndex":4,"items":[{"name":"육봉달정자점","tel":"031-247-3392","addr":"경기도 수원시 장안구 정자동 76-6번지 동호빌딩 1층","indutype":"일반휴게음식 - 일반한식","category":"restaurant"}]},{"lat":"37.305653744","long":"126.99317021","imageIndex":4,"items":[{"name":"육콩","tel":"031-269-6080","addr":"경기도 수원시 장안구 정자동 429-24번지 1층","indutype":"일반휴게음식 - 일반한식","category":"restaurant"}]},{"lat":"37.294760745","long":"127.00505863","imageIndex":4,"items":[{"name":"이공치킨","tel":"031-242-2010","addr":"경기도 수원시 장안구 정자동 51-13번지 1층","indutype":"일반휴게음식 - 스넥","category":"restaurant"},{"name":"이공치킨","tel":"031-246-6410","addr":"경기도 수원시 장안구 정자동 51-13번지 1층","indutype":"일반휴게음식 - 스넥","category":"restaurant"}]},{"lat":"37.306428469","long":"126.9914443","imageIndex":4,"items":[{"name":"이디야 파장시장점","tel":"031-269-4872","addr":"경기도 수원시 장안구 정자동 535-28번지 1층","indutype":"일반휴게음식 - 서양음식","category":"restaurant"},{"name":"황소소머리국밥","tel":"031-271-9222","addr":"경기도 수원시 장안구 정자동 535-28번지 1층","indutype":"일반휴게음식 - 일반한식","category":"restaurant"}]},{"lat":"37.290904323","long":"126.99928447","imageIndex":4,"items":[{"name":"이바돔","tel":"031-253-3131","addr":"경기도 수원시 장안구 정자동 44-47번지","indutype":"일반휴게음식 - 일반한식","category":"restaurant"},{"name":"프롬718","tel":"","addr":"경기도 수원시 장안구 정자동 44-47번지","indutype":"일반휴게음식 - 서양음식","category":"restaurant"}]},{"lat":"37.293265057","long":"127.00408869","imageIndex":4,"items":[{"name":"인생푸드","tel":"031-307-0809","addr":"경기도 수원시 장안구 정자동 50-53번지","indutype":"일반휴게음식 - 일반한식","category":"restaurant"}]},{"lat":"37.292237874","long":"127.00067156","imageIndex":4,"items":[{"name":"일레체 정자점","tel":"031-111-1111","addr":"경기도 수원시 장안구 정자동 45-38번지 101호","indutype":"일반휴게음식 - 서양음식","category":"restaurant"}]},{"lat":"37.294931924","long":"127.00000607","imageIndex":4,"items":[{"name":"장안생고기","tel":"031-241-1191","addr":"경기도 수원시 장안구 정자동 32-37번지","indutype":"일반휴게음식 - 일반한식","category":"restaurant"}]},{"lat":"37.295148053","long":"127.00889318","imageIndex":4,"items":[{"name":"장안칼국수","tel":"031-254-5488","addr":"경기도 수원시 장안구 정자동 1-2번지 2층","indutype":"일반휴게음식 - 스넥","category":"restaurant"}]},{"lat":"37.295040019","long":"126.99900232","imageIndex":4,"items":[{"name":"전통가마솥통닭","tel":"031-254-5592","addr":"경기도 수원시 장안구 정자동 28-12번지 청도연립 102호","indutype":"일반휴게음식 - 일반한식","category":"restaurant"}]},{"lat":"37.291372903","long":"127.00152867","imageIndex":4,"items":[{"name":"전통안동찜닭","tel":"031-257-8999","addr":"경기도 수원시 장안구 정자동 73-51번지","indutype":"일반휴게음식 - 일반한식","category":"restaurant"}]},{"lat":"37.290237586","long":"127.00008519","imageIndex":4,"items":[{"name":"정가네 손칼국수","tel":"031-252-9696","addr":"경기도 수원시 장안구 정자동 74-52번지 102호","indutype":"일반휴게음식 - 일반한식","category":"restaurant"}]},{"lat":"37.290904292","long":"126.99839355","imageIndex":4,"items":[{"name":"정가네순대국","tel":"031-247-4807","addr":"경기도 수원시 장안구 정자동 44-14번지","indutype":"일반휴게음식 - 일반한식","category":"restaurant"}]},{"lat":"37.295733871","long":"127.00319776","imageIndex":4,"items":[{"name":"정거장푸드","tel":"031-000-0000","addr":"경기도 수원시 장안구 정자동 35-30번지","indutype":"일반휴게음식 - 일반한식","category":"restaurant"}]},{"lat":"37.295986144","long":"127.00103235","imageIndex":4,"items":[{"name":"정성푸드","tel":"031-000-0000","addr":"경기도 수원시 장안구 정자동 33-38번지","indutype":"일반휴게음식 - 일반한식","category":"restaurant"}]},{"lat":"37.295427501","long":"127.00059252","imageIndex":4,"items":[{"name":"정자갈비","tel":"031-257-8637","addr":"경기도 수원시 장안구 정자동 27-4번지","indutype":"일반휴게음식 - 일반한식","category":"restaurant"}]},{"lat":"37.295706772","long":"126.99886695","imageIndex":4,"items":[{"name":"정참치","tel":"","addr":"경기도 수원시 장안구 정자동 28-1번지","indutype":"일반휴게음식 - 일반한식","category":"restaurant"}]},{"lat":"37.294400307","long":"126.99953242","imageIndex":4,"items":[{"name":"제주올레","tel":"031-111-1111","addr":"경기도 수원시 장안구 정자동 31-9번지","indutype":"일반휴게음식 - 일반한식","category":"restaurant"}]},{"lat":"37.296093893","long":"126.99330677","imageIndex":4,"items":[{"name":"주락","tel":"031-256-3279","addr":"경기도 수원시 장안구 정자동 877-2번지 한빛프라자 203동 204호","indutype":"일반휴게음식 - 주점","category":"restaurant"}]},{"lat":"37.301815273","long":"126.99189617","imageIndex":4,"items":[{"name":"주왕산막걸리","tel":"031-247-9402","addr":"경기도 수원시 장안구 정자동 375-2번지 1층","indutype":"일반휴게음식 - 일반한식","category":"restaurant"}]},{"lat":"37.304509553","long":"126.99459157","imageIndex":4,"items":[{"name":"주주클럽","tel":"031-268-4234","addr":"경기도 수원시 장안구 정자동 423-1번지 정자벽산블루밍 상가 2동 102호","indutype":"일반휴게음식 - 주점","category":"restaurant"}]},{"lat":"37.305095073","long":"126.99273038","imageIndex":4,"items":[{"name":"지리산생고기","tel":"031-252-7500","addr":"경기도 수원시 장안구 정자동 429-31번지 1층","indutype":"일반휴게음식 - 일반한식","category":"restaurant"}]},{"lat":"37.291066472","long":"126.99828077","imageIndex":4,"items":[{"name":"진미가마솥통닭","tel":"031-243-6999","addr":"경기도 수원시 장안구 정자동 44-76번지 1층","indutype":"일반휴게음식 - 스넥","category":"restaurant"}]},{"lat":"37.295706834","long":"127.00411129","imageIndex":4,"items":[{"name":"진선미식당","tel":"","addr":"경기도 수원시 장안구 정자동 36-2번지","indutype":"일반휴게음식 - 일반한식","category":"restaurant"},{"name":"컵오브커피정자점(CUP OF COFFEE)","tel":"031-257-1030","addr":"경기도 수원시 장안구 정자동 36-2번지 1층","indutype":"일반휴게음식 - 서양음식","category":"restaurant"}]},{"lat":"37.311869937","long":"126.98561143","imageIndex":4,"items":[{"name":"진진꼼지락","tel":"031-890-4472","addr":"경기도 수원시 장안구 정자동 575-2번지 대아권선기술(주) 105호","indutype":"일반휴게음식 - 일반한식","category":"restaurant"}]},{"lat":"37.305842813","long":"126.99153463","imageIndex":4,"items":[{"name":"집맛","tel":"031-269-2203","addr":"경기도 수원시 장안구 정자동 436-6번지","indutype":"일반휴게음식 - 일반한식","category":"restaurant"}]},{"lat":"37.29087732","long":"127.00036711","imageIndex":4,"items":[{"name":"짱치킨","tel":"031-241-7270","addr":"경기도 수원시 장안구 정자동 73-31번지 1층 좌측","indutype":"일반휴게음식 - 스넥","category":"restaurant"}]},{"lat":"37.29334615","long":"127.00400975","imageIndex":4,"items":[{"name":"쭈대가제육대가 (북수원점)","tel":"031-246-8005","addr":"경기도 수원시 장안구 정자동 50-52번지 1층 102호","indutype":"일반휴게음식 - 일반한식","category":"restaurant"}]},{"lat":"37.294598528","long":"126.99936324","imageIndex":4,"items":[{"name":"찌개나라","tel":"031-253-2004","addr":"경기도 수원시 장안구 정자동 31-11번지 1층","indutype":"일반휴게음식 - 일반한식","category":"restaurant"}]},{"lat":"37.295319396","long":"127.00386316","imageIndex":4,"items":[{"name":"챤스","tel":"031-242-1720","addr":"경기도 수원시 장안구 정자동 35-42번지 1층","indutype":"일반휴게음식 - 칵테일바","category":"restaurant"}]},{"lat":"37.299427455","long":"126.99081376","imageIndex":4,"items":[{"name":"청기와감자탕","tel":"031-269-4281","addr":"경기도 수원시 장안구 정자동 336-3번지 1층","indutype":"일반휴게음식 - 일반한식","category":"restaurant"}]},{"lat":"37.291760309","long":"126.9997017","imageIndex":4,"items":[{"name":"청양골","tel":"031-244-5705","addr":"경기도 수원시 장안구 정자동 45-51번지 1층","indutype":"일반휴게음식 - 일반한식","category":"restaurant"}]},{"lat":"37.305842672","long":"126.99014723","imageIndex":4,"items":[{"name":"청포도민물장어구이","tel":"031-243-5111","addr":"경기도 수원시 장안구 정자동 533-71번지","indutype":"일반휴게음식 - 일반한식","category":"restaurant"}]},{"lat":"37.303094627","long":"126.99086957","imageIndex":4,"items":[{"name":"초원","tel":"031-255-4511","addr":"경기도 수원시 장안구 정자동 467-1번지","indutype":"일반휴게음식 - 중국식","category":"restaurant"}]},{"lat":"37.29131876","long":"126.99828075","imageIndex":4,"items":[{"name":"춘향골남원추어탕","tel":"031-243-2873","addr":"경기도 수원시 장안구 정자동 44-50번지","indutype":"일반휴게음식 - 일반한식","category":"restaurant"}]},{"lat":"37.291877469","long":"127.00483299","imageIndex":4,"items":[{"name":"치어스 정자수성점","tel":"031-251-8003","addr":"경기도 수원시 장안구 정자동 79-14번지 1층","indutype":"일반휴게음식 - 일반한식","category":"restaurant"}]},{"lat":"37.294841774","long":"126.99847227","imageIndex":4,"items":[{"name":"치요남치킨","tel":"031-252-7677","addr":"경기도 수원시 장안구 정자동 29-27번지","indutype":"일반휴게음식 - 스넥","category":"restaurant"}]},{"lat":"37.291426928","long":"126.99963405","imageIndex":4,"items":[{"name":"치킨달인","tel":"","addr":"경기도 수원시 장안구 정자동 44-8번지 삼화연립 가동 101호","indutype":"일반휴게음식 - 스넥","category":"restaurant"}]},{"lat":"37.290958437","long":"127.00214894","imageIndex":4,"items":[{"name":"치피떡&혁명닭발","tel":"031-248-5226","addr":"경기도 수원시 장안구 정자동 72-17번지 선호식당 1층 102호","indutype":"일반휴게음식 - 서양음식","category":"restaurant"},{"name":"카롱앤쥬","tel":"070-7755-8811","addr":"경기도 수원시 장안구 정자동 72-17번지 선호식당 1층 101호","indutype":"일반휴게음식 - 일반한식","category":"restaurant"}]},{"lat":"37.296508688","long":"126.99900225","imageIndex":4,"items":[{"name":"카르페디엠","tel":"070-4217-3127","addr":"경기도 수원시 장안구 정자동 25-2번지 1층","indutype":"일반휴게음식 - 서양음식","category":"restaurant"}]},{"lat":"37.293346144","long":"127.00125797","imageIndex":4,"items":[{"name":"카페유연","tel":"031-252-5775","addr":"경기도 수원시 장안구 정자동 40-11번지 1층 102호","indutype":"일반휴게음식 - 서양음식","category":"restaurant"}]},{"lat":"37.292508181","long":"127.00064899","imageIndex":4,"items":[{"name":"카페일리터","tel":"031-111-1111","addr":"경기도 수원시 장안구 정자동 45-40번지 상가동 102호 SK빌","indutype":"일반휴게음식 - 서양음식","category":"restaurant"}]},{"lat":"37.294814826","long":"127.0026113","imageIndex":4,"items":[{"name":"커피나무","tel":"070-2913-5318","addr":"경기도 수원시 장안구 정자동 38-1번지","indutype":"일반휴게음식 - 서양음식","category":"restaurant"}]},{"lat":"37.291985555","long":"127.00642314","imageIndex":4,"items":[{"name":"커피메이드 수원정자점","tel":"031-1644-7039","addr":"경기도 수원시 장안구 정자동 80-23번지 1층","indutype":"일반휴게음식 - 서양음식","category":"restaurant"}]},{"lat":"37.293427163","long":"126.9983934","imageIndex":4,"items":[{"name":"커피베이 수원정자시장점","tel":"031-247-1006","addr":"경기도 수원시 장안구 정자동 30-27번지 1층","indutype":"일반휴게음식 - 서양음식","category":"restaurant"}]},{"lat":"37.303068048","long":"126.99675734","imageIndex":4,"items":[{"name":"커피에반하다","tel":"031-246-0615","addr":"경기도 수원시 장안구 정자동 297-4번지 경남프라임코아 102호","indutype":"일반휴게음식 - 서양음식","category":"restaurant"},{"name":"피자스쿨 동신점","tel":"031-244-1132","addr":"경기도 수원시 장안구 정자동 297-4번지 경남프라임코아 103호","indutype":"일반휴게음식 - 서양음식","category":"restaurant"}]},{"lat":"37.295094059","long":"127.00737064","imageIndex":4,"items":[{"name":"커피에반하다 캐슬일레븐점/캐슬일레븐(주)","tel":"031-215-2301","addr":"경기도 수원시 장안구 정자동 9-4번지 101호","indutype":"일반휴게음식 - 서양음식","category":"restaurant"}]},{"lat":"37.307311386","long":"126.9905869","imageIndex":4,"items":[{"name":"코다리명가","tel":"031-271-9662","addr":"경기도 수원시 장안구 정자동 534-11번지 1층","indutype":"일반휴게음식 - 일반한식","category":"restaurant"}]},{"lat":"37.301788216","long":"126.99161419","imageIndex":4,"items":[{"name":"코뚜레","tel":"031-253-8005","addr":"경기도 수원시 장안구 정자동 374-9번지","indutype":"일반휴게음식 - 일반한식","category":"restaurant"}]},{"lat":"37.298841905","long":"126.99200938","imageIndex":4,"items":[{"name":"코리안숯불바베큐","tel":"031-244-3392","addr":"경기도 수원시 장안구 정자동 333-5번지 1층","indutype":"일반휴게음식 - 스넥","category":"restaurant"}]},{"lat":"37.291372811","long":"126.99803265","imageIndex":4,"items":[{"name":"코리안숯불바베큐(정자2점)","tel":"031-244-8292","addr":"경기도 수원시 장안구 정자동 44-4번지","indutype":"일반휴게음식 - 주점","category":"restaurant"}]},{"lat":"37.293012703","long":"126.99873176","imageIndex":4,"items":[{"name":"크레마","tel":"031-256-7890","addr":"경기도 수원시 장안구 정자동 42-67번지 송정빌딩","indutype":"일반휴게음식 - 일반한식","category":"restaurant"}]},{"lat":"37.290372741","long":"127.00014158","imageIndex":4,"items":[{"name":"큰가마니","tel":"031-242-4578","addr":"경기도 수원시 장안구 정자동 74-3번지","indutype":"일반휴게음식 - 일반한식","category":"restaurant"}]},{"lat":"37.29065208","long":"127.00131441","imageIndex":4,"items":[{"name":"태백산포차","tel":"031-246-5001","addr":"경기도 수원시 장안구 정자동 73-11번지 1층","indutype":"일반휴게음식 - 주점","category":"restaurant"},{"name":"허니닭강정","tel":"031-223-1188","addr":"경기도 수원시 장안구 정자동 73-11번지 1층","indutype":"일반휴게음식 - 스넥","category":"restaurant"}]},{"lat":"37.29240007","long":"127.00439318","imageIndex":4,"items":[{"name":"테트리스찜닭","tel":"031-257-0701","addr":"경기도 수원시 장안구 정자동 70-78번지 수성프라자 1동 1층 104호","indutype":"일반휴게음식 - 일반한식","category":"restaurant"}]},{"lat":"37.304617403","long":"126.99134306","imageIndex":4,"items":[{"name":"토담골","tel":"031-251-9238","addr":"경기도 수원시 장안구 정자동 437-2","indutype":"일반휴게음식 - 일반한식","category":"restaurant"}]},{"lat":"37.302680198","long":"126.99128696","imageIndex":4,"items":[{"name":"통추어탕","tel":"","addr":"경기도 수원시 장안구 정자동 465번지","indutype":"일반휴게음식 - 일반한식","category":"restaurant"}]},{"lat":"37.290039362","long":"127.00014159","imageIndex":4,"items":[{"name":"투다리","tel":"031-256-9708","addr":"경기도 수원시 장안구 정자동 75-13번지 1층","indutype":"일반휴게음식 - 일반한식","category":"restaurant"}]},{"lat":"37.306230284","long":"126.99186168","imageIndex":4,"items":[{"name":"페리카나","tel":"031-247-7970","addr":"경기도 수원시 장안구 정자동 435-2번지","indutype":"일반휴게음식 - 칵테일바","category":"restaurant"}]},{"lat":"37.291904495","long":"127.00511493","imageIndex":4,"items":[{"name":"포나라","tel":"031-245-5431","addr":"경기도 수원시 장안구 정자동 80-2번지 1층","indutype":"일반휴게음식 - 서양음식","category":"restaurant"}]},{"lat":"37.293652481","long":"127.00055874","imageIndex":4,"items":[{"name":"풀코스","tel":"031-258-5450","addr":"경기도 수원시 장안구 정자동 41-9번지","indutype":"일반휴게음식 - 일반한식","category":"restaurant"},{"name":"피자브라더스 정자점","tel":"031-242-1989","addr":"경기도 수원시 장안구 정자동 41-9번지 1층","indutype":"일반휴게음식 - 서양음식","category":"restaurant"}]},{"lat":"37.290814263","long":"127.0011678","imageIndex":4,"items":[{"name":"풍년갈비","tel":"031-242-2233","addr":"경기도 수원시 장안구 정자동 73-67번지","indutype":"일반휴게음식 - 일반한식","category":"restaurant"}]},{"lat":"37.291598126","long":"126.99978065","imageIndex":4,"items":[{"name":"프리요","tel":"031-241-5777","addr":"경기도 수원시 장안구 정자동 45-5번지 1층","indutype":"일반휴게음식 - 일반한식","category":"restaurant"}]},{"lat":"37.294535483","long":"127.00042337","imageIndex":4,"items":[{"name":"피자알볼로수원정자점","tel":"031-241-8495","addr":"경기도 수원시 장안구 정자동 32-14번지 세기빌딩 1층","indutype":"일반휴게음식 - 서양음식","category":"restaurant"}]},{"lat":"37.306257302","long":"126.99172632","imageIndex":4,"items":[{"name":"하오츠","tel":"031-255-1364","addr":"경기도 수원시 장안구 정자동 436-3번지 1층","indutype":"일반휴게음식 - 중국식","category":"restaurant"}]},{"lat":"37.290093427","long":"127.00031074","imageIndex":4,"items":[{"name":"한일통닭호프","tel":"031-243-0621","addr":"경기도 수원시 장안구 정자동 75-14번지 1층","indutype":"일반휴게음식 - 일반한식","category":"restaurant"}]},{"lat":"37.305788867","long":"126.99280924","imageIndex":4,"items":[{"name":"한촌설렁탕파장점","tel":"031-268-0158","addr":"경기도 수원시 장안구 정자동 429-4번지 1층","indutype":"일반휴게음식 - 일반한식","category":"restaurant"}]},{"lat":"37.293841672","long":"126.999555","imageIndex":4,"items":[{"name":"할매떡볶이","tel":"031-253-0370","addr":"경기도 수원시 장안구 정자동 30-22번지","indutype":"일반휴게음식 - 일반한식","category":"restaurant"},{"name":"행복한밥상","tel":"031-253-4067","addr":"경기도 수원시 장안구 정자동 30-22번지 1층","indutype":"일반휴게음식 - 일반한식","category":"restaurant"}]},{"lat":"37.30628429","long":"126.99128641","imageIndex":4,"items":[{"name":"할매순대국","tel":"070-7788-5699","addr":"경기도 수원시 장안구 정자동 535-29번지","indutype":"일반휴게음식 - 일반한식","category":"restaurant"}]},{"lat":"37.30225662","long":"126.99033958","imageIndex":4,"items":[{"name":"호식이두마리치킨정자1호점","tel":"031-268-9911","addr":"경기도 수원시 장안구 정자동 493번지","indutype":"일반휴게음식 - 스넥","category":"restaurant"}]},{"lat":"37.306896966","long":"126.99108328","imageIndex":4,"items":[{"name":"황금알날나","tel":"031-269-8799","addr":"경기도 수원시 장안구 정자동 534-14번지","indutype":"일반휴게음식 - 일반한식","category":"restaurant"}]},{"lat":"37.292760411","long":"126.99858516","imageIndex":4,"items":[{"name":"황금어장","tel":"031-258-8580","addr":"경기도 수원시 장안구 정자동 43-29번지","indutype":"일반휴게음식 - 일식·회집","category":"restaurant"}]},{"lat":"37.292787453","long":"126.99888966","imageIndex":4,"items":[{"name":"훌랄라바베큐치킨","tel":"031-244-7707","addr":"경기도 수원시 장안구 정자동 42-43번지","indutype":"일반휴게음식 - 주점","category":"restaurant"}]},{"lat":"37.303950742","long":"126.99236959","imageIndex":4,"items":[{"name":"흥부네정육식당","tel":"031-269-0080","addr":"경기도 수원시 장안구 정자동 454번지 1층","indutype":"일반휴게음식 - 일반한식","category":"restaurant"}]},{"lat":"37.291508027","long":"126.99991598","imageIndex":4,"items":[{"name":"희망초이스","tel":"","addr":"경기도 수원시 장안구 정자동 45-47번지 1층","indutype":"일반휴게음식 - 스넥","category":"restaurant"}]}]