[{"lat":"37.131781043","long":"126.89940354","imageIndex":0,"items":[{"name":"RPM 셀프세차장","tel":"031-354-7717","addr":"경기도 화성시 향남읍 발안리 287","indutype":"자동차정비 유지 - 세차장","category":"car"},{"name":"스마일카서비스","tel":"031-8059-1455","addr":"경기도 화성시 향남읍 발안리 287번지","indutype":"자동차정비 유지 - 자동차부품","category":"car"},{"name":"카맥스발안점(외형복원)","tel":"031-8059-7767","addr":"경기도 화성시 향남읍 발안리 287번지","indutype":"자동차정비 유지 - 자동차정비","category":"car"}]},{"lat":"37.127503217","long":"126.90190756","imageIndex":0,"items":[{"name":"금강차유리","tel":"031-8059-6604","addr":"경기도 화성시 향남읍 발안리 152-12번지 동양빌딩","indutype":"자동차정비 유지 - 자동차부품","category":"car"}]},{"lat":"37.129006684","long":"126.90040886","imageIndex":0,"items":[{"name":"대성덴트칼라","tel":"031-353-7736","addr":"경기도 화성시 향남읍 발안리 214-2번지","indutype":"자동차정비 유지 - 자동차정비","category":"car"}]},{"lat":"37.13169912","long":"126.89845833","imageIndex":0,"items":[{"name":"마스터자동차 발안점","tel":"031-352-2512","addr":"경기도 화성시 향남읍 발안리 24-22","indutype":"자동차정비 유지 - 자동차부품","category":"car"}]},{"lat":"37.129394018","long":"126.9002733","imageIndex":0,"items":[{"name":"블루샵(BLUE.shop)","tel":"031-353-9788","addr":"경기도 화성시 향남읍 발안리 212번지 외2필지","indutype":"자동차정비 유지 - 자동차부품","category":"car"}]},{"lat":"37.12906096","long":"126.90065636","imageIndex":0,"items":[{"name":"성원카서비스","tel":"031-353-5197","addr":"경기도 화성시 향남읍 발안리 212-3번지","indutype":"자동차정비 유지 - 자동차정비","category":"car"}]},{"lat":"37.132670873","long":"126.89690396","imageIndex":0,"items":[{"name":"앰뷸런스코리아(송광상사)","tel":"031-352-2944","addr":"경기도 화성시 향남읍 발안리 23-1번지","indutype":"자동차판매 - 중고자동차판매","category":"car"},{"name":"프렌드모터스","tel":"031-354-1449","addr":"경기도 화성시 향남읍 발안리 23-1번지","indutype":"자동차판매 - 중고자동차판매","category":"car"}]},{"lat":"37.131725174","long":"126.89735543","imageIndex":0,"items":[{"name":"연합특장 (주)","tel":"031-000-0000","addr":"경기도 화성시 향남읍 발안리 23-2번지 2층 205호","indutype":"자동차판매 - 중고자동차판매","category":"car"}]},{"lat":"37.131770427","long":"126.89758044","imageIndex":0,"items":[{"name":"주식회사 티엠인터내셔날","tel":"031-354-6170","addr":"경기도 화성시 향남읍 발안리 23-2번지 가동 208호","indutype":"자동차판매 - 중고자동차판매","category":"car"},{"name":"주식회사 한백제이에스에스","tel":"031-359-8347","addr":"경기도 화성시 향남읍 발안리 23-2번지 가동 210호","indutype":"자동차판매 - 중고자동차판매","category":"car"},{"name":"한빛트럭","tel":"","addr":"경기도 화성시 향남읍 발안리 23-2번지 가동 206호","indutype":"자동차판매 - 중고자동차판매","category":"car"}]},{"lat":"37.130561117","long":"126.90590977","imageIndex":0,"items":[{"name":"호영카 마스타","tel":"031-354-5608","addr":"경기도 화성시 향남읍 발안리 130-37번지 1층","indutype":"자동차정비 유지 - 자동차정비","category":"car"}]}]