[{"lat":"37.244218439","long":"127.43229712","imageIndex":4,"items":[{"name":"구가짬뽕","tel":"","addr":"경기도 이천시 호법면 유산리 784-14번지","indutype":"일반휴게음식 - 중국식","category":"restaurant"},{"name":"바다양푼이동태탕(호법점)","tel":"031-637-2272","addr":"경기도 이천시 호법면 유산리 784-14번지 1층","indutype":"일반휴게음식 - 일반한식","category":"restaurant"}]},{"lat":"37.244941287","long":"127.43668545","imageIndex":4,"items":[{"name":"기사식당","tel":"031-635-0242","addr":"경기도 이천시 호법면 유산리 497-5번지","indutype":"일반휴게음식 - 일반한식","category":"restaurant"}]},{"lat":"37.246137823","long":"127.43963395","imageIndex":4,"items":[{"name":"다담옥설렁탕","tel":"031-633-3595","addr":"경기도 이천시 호법면 유산리 479-3","indutype":"일반휴게음식 - 일반한식","category":"restaurant"}]},{"lat":"37.24647377","long":"127.4389371","imageIndex":4,"items":[{"name":"동현 황제칼국수","tel":"031-635-9013","addr":"경기도 이천시 호법면 유산리 471-1번지","indutype":"일반휴게음식 - 일반한식","category":"restaurant"}]},{"lat":"37.246246188","long":"127.42968256","imageIndex":4,"items":[{"name":"두레손만두","tel":"031-633-1303","addr":"경기도 이천시 호법면 유산리 817번지 1동","indutype":"일반휴게음식 - 일반한식","category":"restaurant"}]},{"lat":"37.243499839","long":"127.43168445","imageIndex":4,"items":[{"name":"리얼바베큐","tel":"031-633-4888","addr":"경기도 이천시 호법면 유산리 799번지","indutype":"일반휴게음식 - 일반한식","category":"restaurant"},{"name":"호 메밀막국수","tel":"031-636-1771","addr":"경기도 이천시 호법면 유산리 799번지","indutype":"일반휴게음식 - 일반한식","category":"restaurant"}]},{"lat":"37.244720899","long":"127.43535427","imageIndex":4,"items":[{"name":"모락모락한식뷔페","tel":"031-637-5217","addr":"경기도 이천시 호법면 유산리 806-3번지","indutype":"일반휴게음식 - 일반한식","category":"restaurant"}]},{"lat":"37.244994232","long":"127.43699005","imageIndex":4,"items":[{"name":"부흥식당","tel":"031-636-8912","addr":"경기도 이천시 호법면 유산리 495-1","indutype":"일반휴게음식 - 일반한식","category":"restaurant"}]},{"lat":"37.248996815","long":"127.44132984","imageIndex":4,"items":[{"name":"브루","tel":"0000-0000-0000","addr":"경기도 이천시 호법면 유산리 367-8번지","indutype":"일반휴게음식 - 서양음식","category":"restaurant"}]},{"lat":"37.24994003","long":"127.44210175","imageIndex":4,"items":[{"name":"시골밥상","tel":"031-633-0733","addr":"경기도 이천시 호법면 유산리 365-1번지","indutype":"일반휴게음식 - 일반한식","category":"restaurant"}]},{"lat":"37.244355715","long":"127.43665955","imageIndex":4,"items":[{"name":"양평해장국","tel":"","addr":"경기도 이천시 호법면 유산리 517-1번지 104호","indutype":"일반휴게음식 - 일반한식","category":"restaurant"},{"name":"우동가","tel":"031-635-5595","addr":"경기도 이천시 호법면 유산리 517-1번지","indutype":"일반휴게음식 - 중국식","category":"restaurant"}]},{"lat":"37.25005737","long":"127.44204608","imageIndex":4,"items":[{"name":"용호육개장","tel":"031-637-7007","addr":"경기도 이천시 호법면 유산리 400번지 1동 1층","indutype":"일반휴게음식 - 일반한식","category":"restaurant"}]},{"lat":"37.243444145","long":"127.43213495","imageIndex":4,"items":[{"name":"유산리토종순대국","tel":"031-636-7450","addr":"경기도 이천시 호법면 유산리 800-2번지 외 1필지","indutype":"일반휴게음식 - 일반한식","category":"restaurant"}]},{"lat":"37.240946232","long":"127.43021617","imageIndex":4,"items":[{"name":"코리아2000구내식당","tel":"031-637-9366","addr":"경기도 이천시 호법면 유산리 769-8번지","indutype":"일반휴게음식 - 일반한식","category":"restaurant"}]},{"lat":"37.243693044","long":"127.42807905","imageIndex":4,"items":[{"name":"흥부네집","tel":"031-637-0458","addr":"경기도 이천시 호법면 유산리 821-7번지","indutype":"일반휴게음식 - 일반한식","category":"restaurant"}]}]