[{"lat":"37.293343033","long":"126.97570249","imageIndex":7,"items":[{"name":"Cafe Namu/(주)영우(지점)","tel":"02-123-1234","addr":"경기도 수원시 장안구 천천동 300번지 성균관대학교 1층 성균관대학교기숙사의관","indutype":"음료식품 - 기타음료식품","category":"food"},{"name":"비트커피 성균관대 수원점","tel":"031-697-1473","addr":"경기도 수원시 장안구 천천동 300번지 성균관대학교 삼성학술정보관 1층","indutype":"음료식품 - 기타음료식품","category":"food"},{"name":"주식회사 성균관생활건강","tel":"031-299-6781","addr":"경기도 수원시 장안구 천천동 300번지 성균관대학교 85116호","indutype":"음료식품 - 기타음료식품","category":"food"}]},{"lat":"37.297011497","long":"126.98208471","imageIndex":7,"items":[{"name":"THE고기","tel":"031-269-9249","addr":"경기도 수원시 장안구 천천동 524-2번지 천천동그린프라자 105호","indutype":"음료식품 - 정육점","category":"food"},{"name":"롯네나뚜루천천점","tel":"031-269-6855","addr":"경기도 수원시 장안구 천천동 524-2번지 천천그린프라자제1층 101동 1호","indutype":"음료식품 - 제과점","category":"food"}]},{"lat":"37.297092635","long":"126.98234409","imageIndex":7,"items":[{"name":"과일세상2","tel":"031-268-6500","addr":"경기도 수원시 장안구 천천동 524-3번지","indutype":"음료식품 - 농·축·수산품","category":"food"}]},{"lat":"37.300785757","long":"126.97687281","imageIndex":7,"items":[{"name":"꿈시루","tel":"031-242-4333","addr":"경기도 수원시 장안구 천천동 571-3번지 1층","indutype":"음료식품 - 제과점","category":"food"},{"name":"파리바게뜨 (천천점)","tel":"031-269-0829","addr":"경기도 수원시 장안구 천천동 571-3번지 대지빌딩 1층","indutype":"음료식품 - 제과점","category":"food"}]},{"lat":"37.295516057","long":"126.98361894","imageIndex":7,"items":[{"name":"낙원복떡집","tel":"031-269-0854","addr":"경기도 수원시 장안구 천천동 528-4번지 태영프자라 109호","indutype":"음료식품 - 제과점","category":"food"},{"name":"정관장천천점","tel":"031-271-2304","addr":"경기도 수원시 장안구 천천동 528-4번지 (천천동.태영프라자105,106호)","indutype":"건강식품 - 홍삼제품","category":"food"},{"name":"정관장천천점","tel":"031-271-2304","addr":"경기도 수원시 장안구 천천동 528-4번지","indutype":"건강식품 - 홍삼제품","category":"food"},{"name":"토리케이크","tel":"031-278-3924","addr":"경기도 수원시 장안구 천천동 528-4번지 태영프라자 2층","indutype":"음료식품 - 기타음료식품","category":"food"},{"name":"하나로축산","tel":"031-268-6671","addr":"경기도 수원시 장안구 천천동 528-4번지 태영프라자 111호","indutype":"음료식품 - 정육점","category":"food"}]},{"lat":"37.296759351","long":"126.98289681","imageIndex":7,"items":[{"name":"노블다이어트","tel":"031-271-8188","addr":"경기도 수원시 장안구 천천동 527-2번지 수정프라자 5층 501호","indutype":"건강식품 - 기타건강식품","category":"food"},{"name":"파리바게뜨수원마그넷점","tel":"031-271-0117","addr":"경기도 수원시 장안구 천천동 527-2번지 수정프라자 105,106호","indutype":"음료식품 - 제과점","category":"food"}]},{"lat":"37.29667822","long":"126.98267127","imageIndex":7,"items":[{"name":"농가축산","tel":"031-268-0278","addr":"경기도 수원시 장안구 천천동 527-1번지 롯데프라자 107호","indutype":"음료식품 - 정육점","category":"food"},{"name":"롯데공인중개사사무소","tel":"031-271-1117","addr":"경기도 수원시 장안구 천천동 527-1번지","indutype":"건강식품 - 기타건강식품","category":"food"},{"name":"스카이북카페","tel":"031-271-5080","addr":"경기도 수원시 장안구 천천동 527-1번지 롯데프라자 802호","indutype":"음료식품 - 기타음료식품","category":"food"},{"name":"장독대천천동점","tel":"031-111-1111","addr":"경기도 수원시 장안구 천천동 527-1번지 롯데프라자 105호","indutype":"음료식품 - 기타음료식품","category":"food"}]},{"lat":"37.303010972","long":"126.9754847","imageIndex":7,"items":[{"name":"동화","tel":"031-269-7055","addr":"경기도 수원시 장안구 천천동 550-8번지","indutype":"음료식품 - 기타음료식품","category":"food"}]},{"lat":"37.289370129","long":"126.97853449","imageIndex":7,"items":[{"name":"뚜레쥬르 천천점","tel":"031-295-8866","addr":"경기도 수원시 장안구 천천동 365-6번지 지하1층,1층","indutype":"음료식품 - 제과점","category":"food"}]},{"lat":"37.298011403","long":"126.98080996","imageIndex":7,"items":[{"name":"리코베이커리","tel":"031-269-0121","addr":"경기도 수원시 장안구 천천동 511번지 비단마을베스트타운 상가동 1층 108,109호","indutype":"음료식품 - 제과점","category":"food"},{"name":"허브다이어트클럽","tel":"070-4110-1439","addr":"경기도 수원시 장안구 천천동 511번지 비단마을베스트타운 204호 상가","indutype":"건강식품 - 기타건강식품","category":"food"}]},{"lat":"37.2991192","long":"126.9784524","imageIndex":7,"items":[{"name":"매일우유장안대리점","tel":"031-269-5952","addr":"경기도 수원시 장안구 천천동 503-5 102","indutype":"음료식품 - 기타음료식품","category":"food"},{"name":"핵산바이오(북수원점)","tel":"031-477-8007","addr":"경기도 수원시 장안구 천천동 503-5번지 1층","indutype":"건강식품 - 기타건강식품","category":"food"}]},{"lat":"37.292046733","long":"126.9814207","imageIndex":7,"items":[{"name":"물댄유통","tel":"041-541-2961","addr":"경기도 수원시 장안구 천천동 333번지 천천푸르지오 112동 12층 01호","indutype":"음료식품 - 기타음료식품","category":"food"}]},{"lat":"37.299290673","long":"126.97983962","imageIndex":7,"items":[{"name":"반가운찬","tel":"031-269-5878","addr":"경기도 수원시 장안구 천천동 506-6번지 1층","indutype":"음료식품 - 기타음료식품","category":"food"}]},{"lat":"37.296236811","long":"126.98322402","imageIndex":7,"items":[{"name":"베스킨라빈스 수원천천점","tel":"031-252-7731","addr":"경기도 수원시 장안구 천천동 527-8번지 107,108호","indutype":"음료식품 - 제과점","category":"food"},{"name":"코코호도과자(수원점)","tel":"031-256-8366","addr":"경기도 수원시 장안구 천천동 527-8번지 강민크리닉 102호","indutype":"음료식품 - 제과점","category":"food"}]},{"lat":"37.299236775","long":"126.98069682","imageIndex":7,"items":[{"name":"베스트점핑허브다이어트","tel":"031-269-7843","addr":"경기도 수원시 장안구 천천동 508-7번지 1층","indutype":"건강식품 - 기타건강식품","category":"food"}]},{"lat":"37.295903415","long":"126.9831226","imageIndex":7,"items":[{"name":"브라운하우스","tel":"031-269-4083","addr":"경기도 수원시 장안구 천천동 527-10번지 골든프라자 203호","indutype":"음료식품 - 제과점","category":"food"}]},{"lat":"37.29165045","long":"126.98236812","imageIndex":7,"items":[{"name":"서울소아청소년과의원","tel":"031-293-9618","addr":"경기도 수원시 장안구 천천동 334-2번지 천천 푸르지오 정문상가 201호","indutype":"회원제형태 - 건강식품","category":"food"},{"name":"쌀눈쌀현미와누룽지 (천천점)","tel":"02-1111-1111","addr":"경기도 수원시 장안구 천천동 334-2번지 천천푸르지오 104호","indutype":"음료식품 - 기타음료식품","category":"food"}]},{"lat":"37.299956791","long":"126.97676031","imageIndex":7,"items":[{"name":"성균유통","tel":"031-271-0457","addr":"경기도 수원시 장안구 천천동 573-6번지 휴먼빌라","indutype":"음료식품 - 기타음료식품","category":"food"}]},{"lat":"37.300839915","long":"126.97731267","imageIndex":7,"items":[{"name":"세울에프에스 한우전문 판매장 (천천점)","tel":"031-268-1255","addr":"경기도 수원시 장안구 천천동 571-5번지 골든프라자 105호","indutype":"음료식품 - 정육점","category":"food"}]},{"lat":"37.294181945","long":"126.98025846","imageIndex":7,"items":[{"name":"신나는점핑","tel":"","addr":"경기도 수원시 장안구 천천동 334-1번지 천천푸르지오 202호","indutype":"건강식품 - 기타건강식품","category":"food"},{"name":"하이축산","tel":"011-1111-1111","addr":"경기도 수원시 장안구 천천동 334-1번지 101,103호","indutype":"음료식품 - 정육점","category":"food"}]},{"lat":"37.299236696","long":"126.98027951","imageIndex":7,"items":[{"name":"아이스월드 천천점","tel":"070-8591-1398","addr":"경기도 수원시 장안구 천천동 507-7번지 1층","indutype":"음료식품 - 제과점","category":"food"}]},{"lat":"37.295398883","long":"126.98337085","imageIndex":7,"items":[{"name":"에스(S)점핑다이어트","tel":"070-4064-4052","addr":"경기도 수원시 장안구 천천동 528-3번지 대일 3층 303호","indutype":"건강식품 - 기타건강식품","category":"food"},{"name":"에스(S)점핑다이어트","tel":"070-4064-4052","addr":"경기도 수원시 장안구 천천동 528-3번지 대일 303호","indutype":"건강식품 - 기타건강식품","category":"food"}]},{"lat":"37.304317287","long":"126.97476234","imageIndex":7,"items":[{"name":"영생고등학교 매점","tel":"","addr":"경기도 수원시 장안구 천천동 555번지 영생고등학교 영생고매점","indutype":"음료식품 - 기타음료식품","category":"food"}]},{"lat":"37.301011865","long":"126.98109106","imageIndex":7,"items":[{"name":"오레시피수원천천점","tel":"031-271-5557","addr":"경기도 수원시 장안구 천천동 480-3번지 1층","indutype":"음료식품 - 기타음료식품","category":"food"}]},{"lat":"37.30234391","long":"126.97419912","imageIndex":7,"items":[{"name":"우리동네정육점","tel":"031-271-0132","addr":"경기도 수원시 장안구 천천동 561-1번지","indutype":"음료식품 - 정육점","category":"food"}]},{"lat":"37.295984549","long":"126.9833707","imageIndex":7,"items":[{"name":"우리청과","tel":"070-7727-8536","addr":"경기도 수원시 장안구 천천동 527-9번지 천경빌딩 1층 4호","indutype":"음료식품 - 농·축·수산품","category":"food"}]},{"lat":"37.299624147","long":"126.98033578","imageIndex":7,"items":[{"name":"원디디(1DD)","tel":"","addr":"경기도 수원시 장안구 천천동 508-11번지 1층","indutype":"음료식품 - 기타음료식품","category":"food"}]},{"lat":"37.299786316","long":"126.98025678","imageIndex":7,"items":[{"name":"유명농수산","tel":"031-244-1370","addr":"경기도 수원시 장안구 천천동 508-12번지","indutype":"음료식품 - 농·축·수산품","category":"food"}]},{"lat":"37.299264221","long":"126.9830315","imageIndex":7,"items":[{"name":"천천고등학교 교육공동체 사회적협동조합","tel":"031-416-1838","addr":"경기도 수원시 장안구 천천동 513번지 천천고등학교","indutype":"음료식품 - 기타음료식품","category":"food"}]},{"lat":"37.290036801","long":"126.97811702","imageIndex":7,"items":[{"name":"천천떡방앗간","tel":"031-293-7562","addr":"경기도 수원시 장안구 천천동 385-20번지 1층 103호","indutype":"음료식품 - 제과점","category":"food"}]},{"lat":"37.299542937","long":"126.97972676","imageIndex":7,"items":[{"name":"청수산","tel":"031-269-7339","addr":"경기도 수원시 장안구 천천동 506-4번지","indutype":"음료식품 - 농·축·수산품","category":"food"}]},{"lat":"37.299425548","long":"126.9784523","imageIndex":7,"items":[{"name":"푸드원","tel":"031-269-8884","addr":"경기도 수원시 장안구 천천동 504-11번지 1층","indutype":"음료식품 - 기타음료식품","category":"food"}]},{"lat":"37.291460876","long":"126.98039461","imageIndex":7,"items":[{"name":"한우농장","tel":"031-292-7779","addr":"경기도 수원시 장안구 천천동 333번지 천천푸르지오 108호","indutype":"음료식품 - 정육점","category":"food"}]},{"lat":"37.290316189","long":"126.97845525","imageIndex":7,"items":[{"name":"회뜨는집","tel":"031-546-0822","addr":"경기도 수원시 장안구 천천동 325-22번지 108호","indutype":"음료식품 - 농·축·수산품","category":"food"}]},{"lat":"37.299758892","long":"126.97828301","imageIndex":7,"items":[{"name":"횡성정육점","tel":"031-271-5991","addr":"경기도 수원시 장안구 천천동 501-5번지","indutype":"음료식품 - 정육점","category":"food"}]},{"lat":"37.301956741","long":"126.97533845","imageIndex":7,"items":[{"name":"힐스템건강(천천지점)","tel":"031-234-7083","addr":"경기도 수원시 장안구 천천동 563번지 신안한일 상가동 206호","indutype":"건강식품 - 기타건강식품","category":"food"}]}]