[{"lat":"37.4274691","long":"127.2437526","imageIndex":13,"items":[{"name":"노블헤어칼라","tel":"031-768-4019","addr":"경기도 광주시 회덕동 309-1번지","indutype":"보건위생 - 미용원","category":"beauty"}]},{"lat":"37.43844244","long":"127.244172","imageIndex":13,"items":[{"name":"녹차화장품","tel":"031-731-2275","addr":"경기도 광주시 회덕동 156-70번지","indutype":"보건위생 - 화장품","category":"beauty"}]},{"lat":"37.42955541","long":"127.241285","imageIndex":13,"items":[{"name":"더샵헤어(The # hair)","tel":"031-763-9413","addr":"경기도 광주시 회덕동 265-2번지","indutype":"보건위생 - 미용원","category":"beauty"}]},{"lat":"37.42805964","long":"127.2413368","imageIndex":13,"items":[{"name":"엠앤에스(M&S) 헤어스토리","tel":"031-797-2227","addr":"경기도 광주시 회덕동 271-12번지 1층","indutype":"보건위생 - 미용원","category":"beauty"}]},{"lat":"37.4275585","long":"127.2440918","imageIndex":13,"items":[{"name":"제이폭스 플랜비","tel":"031-763-7477","addr":"경기도 광주시 회덕동 299번지 103호 104호","indutype":"보건위생 - 미용원","category":"beauty"}]},{"lat":"37.42647117","long":"127.2426761","imageIndex":13,"items":[{"name":"지니헤어","tel":"031-767-5055","addr":"경기도 광주시 회덕동 274-1번지","indutype":"보건위생 - 미용원","category":"beauty"}]},{"lat":"37.43066643","long":"127.2487228","imageIndex":13,"items":[{"name":"헤바붙임머리","tel":"031-388-0078","addr":"경기도 광주시 회덕동 390-10번지","indutype":"보건위생 - 미용재료","category":"beauty"}]},{"lat":"37.42691323","long":"127.2423951","imageIndex":13,"items":[{"name":"헤어갤러리","tel":"031-766-7330","addr":"경기도 광주시 회덕동 272-1번지","indutype":"보건위생 - 미용원","category":"beauty"}]}]