[{"lat":"37.255933216","long":"127.02605765","imageIndex":13,"items":[{"name":"060노래연습장","tel":"031-226-6060","addr":"경기도 수원시 권선구 권선동 1048번지 세륜빌딩 지하1층","indutype":"레저업소 - 노 래 방","category":"leisure"}]},{"lat":"37.250020191","long":"127.03563648","imageIndex":13,"items":[{"name":"369노래연습장","tel":"031-224-2727","addr":"경기도 수원시 권선구 권선동 1297-3번지 권선프라자 202호","indutype":"레저업소 - 노 래 방","category":"leisure"},{"name":"힐링당구클럽","tel":"031-225-7243","addr":"경기도 수원시 권선구 권선동 1297-3번지 권선프라자 301호","indutype":"레저업소 - 당 구 장","category":"leisure"}]},{"lat":"37.253598783","long":"127.02967521","imageIndex":13,"items":[{"name":"KBS2 노래연습장","tel":"031-222-0797","addr":"경기도 수원시 권선구 권선동 1250-1번지","indutype":"레저업소 - 노 래 방","category":"leisure"},{"name":"KBS노래연습장","tel":"031-222-0797","addr":"경기도 수원시 권선구 권선동 1250-1번지 소소리빌딩 2층","indutype":"레저업소 - 노 래 방","category":"leisure"}]},{"lat":"37.25893495","long":"127.01799862","imageIndex":13,"items":[{"name":"KBS노래방","tel":"031-898-8535","addr":"경기도 수원시 권선구 권선동 999번지","indutype":"레저업소 - 노 래 방","category":"leisure"},{"name":"와와탁구클럽","tel":"","addr":"경기도 수원시 권선구 권선동 999번지 3층","indutype":"레저업소 - 기타레져업소","category":"leisure"}]},{"lat":"37.260015549","long":"127.02236142","imageIndex":13,"items":[{"name":"PC토랑 수원권선점","tel":"","addr":"경기도 수원시 권선구 권선동 967번지 2층","indutype":"레저업소 - 기타레져업소","category":"leisure"},{"name":"수원실내낚시터","tel":"031-233-2733","addr":"경기도 수원시 권선구 권선동 967번지 지하","indutype":"레저업소 - 기타레져업소","category":"leisure"}]},{"lat":"37.253652571","long":"127.03085877","imageIndex":13,"items":[{"name":"S골프존","tel":"031-253-0854","addr":"경기도 수원시 권선구 권선동 1247번지 3층 300호","indutype":"레저업소 - 골프연습장","category":"leisure"}]},{"lat":"37.255960714","long":"127.02353268","imageIndex":13,"items":[{"name":"개구리 노래연습장","tel":"031-225-5050","addr":"경기도 수원시 권선구 권선동 1057-11번지 지층","indutype":"레저업소 - 노 래 방","category":"leisure"}]},{"lat":"37.252463484","long":"127.02967481","imageIndex":13,"items":[{"name":"갤러리노래연습장","tel":"031-223-5214","addr":"경기도 수원시 권선구 권선동 1259-5번지 지층","indutype":"레저업소 - 노 래 방","category":"leisure"}]},{"lat":"37.257851445","long":"127.03055597","imageIndex":13,"items":[{"name":"갤럭시노래연습장","tel":"031-254-0002","addr":"경기도 수원시 권선구 권선동 1025번지 지층","indutype":"레저업소 - 노 래 방","category":"leisure"}]},{"lat":"37.256239905","long":"127.02425418","imageIndex":13,"items":[{"name":"고고 (gogo)당구장","tel":"031-225-3949","addr":"경기도 수원시 권선구 권선동 1056-8번지 2층","indutype":"레저업소 - 당 구 장","category":"leisure"},{"name":"토마토노래연습장","tel":"031-222-8667","addr":"경기도 수원시 권선구 권선동 1056-8번지 1층","indutype":"레저업소 - 노 래 방","category":"leisure"}]},{"lat":"37.25918676","long":"127.0213692","imageIndex":13,"items":[{"name":"골든벨노래연습장","tel":"031-221-1766","addr":"경기도 수원시 권선구 권선동 972-14번지 지층","indutype":"레저업소 - 노 래 방","category":"leisure"}]},{"lat":"37.259212492","long":"127.02836956","imageIndex":13,"items":[{"name":"골프존인 (in)","tel":"031-267-0909","addr":"경기도 수원시 권선구 권선동 1021-18번지 지층","indutype":"레저업소 - 골프연습장","category":"leisure"}]},{"lat":"37.258653592","long":"127.029553","imageIndex":13,"items":[{"name":"굿샷(G.shot)권선점","tel":"031-226-5454","addr":"경기도 수원시 권선구 권선동 1022-7번지 2층","indutype":"레저업소 - 스크린골프","category":"leisure"}]},{"lat":"37.253652896","long":"127.02944979","imageIndex":13,"items":[{"name":"권선당구장","tel":"031-223-4198","addr":"경기도 수원시 권선구 권선동 1250번지 위너스프라자 601호","indutype":"레저업소 - 당 구 장","category":"leisure"},{"name":"씨제이골프아카데미","tel":"032-222-0049","addr":"경기도 수원시 권선구 권선동 1250번지 위너스프라자 401호, 402호","indutype":"레저업소 - 골프연습장","category":"leisure"}]},{"lat":"37.255491522","long":"127.02700438","imageIndex":13,"items":[{"name":"권선탁구장","tel":"031-233-1357","addr":"경기도 수원시 권선구 권선동 1048-6번지 지하1층","indutype":"레저업소 - 기타레져업소","category":"leisure"}]},{"lat":"37.257041767","long":"127.02455876","imageIndex":13,"items":[{"name":"귀빈당구장","tel":"031-223-5214","addr":"경기도 수원시 권선구 권선동 1054-7번지 우신빌딩 3층","indutype":"레저업소 - 당 구 장","category":"leisure"},{"name":"뷰노래연습장","tel":"031-227-1830","addr":"경기도 수원시 권선구 권선동 1054-7번지 2층","indutype":"레저업소 - 노 래 방","category":"leisure"}]},{"lat":"37.260268078","long":"127.02083964","imageIndex":13,"items":[{"name":"나인 노래연습장","tel":"031-224-7784","addr":"경기도 수원시 권선구 권선동 965-17번지 지하1층","indutype":"레저업소 - 노 래 방","category":"leisure"}]},{"lat":"37.249185134","long":"127.02250515","imageIndex":13,"items":[{"name":"뉴바디&필라테스","tel":"031-226-5551","addr":"경기도 수원시 권선구 권선동 1193-2번지 미래타운빌딩 601호","indutype":"레저업소 - 헬스클럽","category":"leisure"},{"name":"폴PC방","tel":"","addr":"경기도 수원시 권선구 권선동 1193-2번지 미래타운빌딩 301,304호","indutype":"레저업소 - 기타레져업소","category":"leisure"}]},{"lat":"37.256401906","long":"127.02525746","imageIndex":13,"items":[{"name":"뉴팡팡노래연습장","tel":"031-224-0377","addr":"경기도 수원시 권선구 권선동 1052-11번지 지하1층","indutype":"레저업소 - 노 래 방","category":"leisure"},{"name":"핑클 노래연습장","tel":"031-236-2162","addr":"경기도 수원시 권선구 권선동 1052-11번지 지하1층","indutype":"레저업소 - 노 래 방","category":"leisure"}]},{"lat":"37.249878887","long":"127.0227533","imageIndex":13,"items":[{"name":"더리얼짐(THE REAL GYM)","tel":"","addr":"경기도 수원시 권선구 권선동 1192-1번지 효림트윈타워 202호","indutype":"레저업소 - 헬스클럽","category":"leisure"},{"name":"째즈노래방","tel":"031-223-6903","addr":"경기도 수원시 권선구 권선동 1192-1번지 효림트윈타워 5층","indutype":"레저업소 - 노 래 방","category":"leisure"},{"name":"효림GTS","tel":"031-221-5363","addr":"경기도 수원시 권선구 권선동 1192-1번지 4층,401,402호","indutype":"레저업소 - 골프연습장","category":"leisure"}]},{"lat":"37.255825231","long":"127.0253362","imageIndex":13,"items":[{"name":"덤보스크린골프","tel":"031-225-0707","addr":"경기도 수원시 권선구 권선동 1050번지 권선종합상가 2층 202호","indutype":"레저업소 - 스크린골프","category":"leisure"},{"name":"에스주짓수MMA","tel":"031-223-8747","addr":"경기도 수원시 권선구 권선동 1050번지 권선종합상가 210-2호","indutype":"레저업소 - 헬스클럽","category":"leisure"},{"name":"엘리제노래연습장","tel":"031-221-6835","addr":"경기도 수원시 권선구 권선동 1050번지 권선종합상가 지하1층","indutype":"레저업소 - 노 래 방","category":"leisure"},{"name":"휘트니스클럽S","tel":"031-222-6401","addr":"경기도 수원시 권선구 권선동 1050번지 권선종합상가 지하 1호","indutype":"레저업소 - 헬스클럽","category":"leisure"}]},{"lat":"37.264178568","long":"127.02069402","imageIndex":13,"items":[{"name":"도레미 노래연습장","tel":"031-221-1744","addr":"경기도 수원시 권선구 권선동 939번지 지층","indutype":"레저업소 - 노 래 방","category":"leisure"}]},{"lat":"37.257158835","long":"127.02491951","imageIndex":13,"items":[{"name":"둘리노래연습장","tel":"031-225-8472","addr":"경기도 수원시 권선구 권선동 1053번지 지하","indutype":"레저업소 - 노 래 방","category":"leisure"}]},{"lat":"37.252598564","long":"127.03000173","imageIndex":13,"items":[{"name":"딩동댕노래연습장","tel":"031-235-1998","addr":"경기도 수원시 권선구 권선동 1256-11번지 지층","indutype":"레저업소 - 노 래 방","category":"leisure"}]},{"lat":"37.253490567","long":"127.03008096","imageIndex":13,"items":[{"name":"라이또PC권선점","tel":"070-7579-2413","addr":"경기도 수원시 권선구 권선동 1250-3번지 202,203호","indutype":"레저업소 - 기타레져업소","category":"leisure"}]},{"lat":"37.255013925","long":"127.02725221","imageIndex":13,"items":[{"name":"루나요가","tel":"031-223-7027","addr":"경기도 수원시 권선구 권선동 1043-12번지 3층","indutype":"레저업소 - 헬스클럽","category":"leisure"}]},{"lat":"37.259151182","long":"127.01811139","imageIndex":13,"items":[{"name":"만남노래연습장","tel":"031-225-6261","addr":"경기도 수원시 권선구 권선동 979-8번지","indutype":"레저업소 - 노 래 방","category":"leisure"},{"name":"봉봉당구장","tel":"031-296-6690","addr":"경기도 수원시 권선구 권선동 979-8번지 효헌빌딩 2층","indutype":"레저업소 - 당 구 장","category":"leisure"}]},{"lat":"37.26185317","long":"127.02508998","imageIndex":13,"items":[{"name":"맘마미아당구클럽","tel":"031-222-5586","addr":"경기도 수원시 권선구 권선동 1010-6번지 새암빌딩 2층","indutype":"레저업소 - 당 구 장","category":"leisure"}]},{"lat":"37.257374053","long":"127.02989072","imageIndex":13,"items":[{"name":"메어리노래연습장","tel":"031-221-1462","addr":"경기도 수원시 권선구 권선동 1038-10번지 2층","indutype":"레저업소 - 노 래 방","category":"leisure"}]},{"lat":"37.256266652","long":"127.02577595","imageIndex":13,"items":[{"name":"뮤직일번가 노래연습장","tel":"031-237-4081","addr":"경기도 수원시 권선구 권선동 1052-4번지 지층","indutype":"레저업소 - 노 래 방","category":"leisure"}]},{"lat":"37.259626882","long":"127.02875297","imageIndex":13,"items":[{"name":"미니 필라테스","tel":"031-234-9035","addr":"경기도 수원시 권선구 권선동 1016-3번지 3층","indutype":"레저업소 - 헬스클럽","category":"leisure"},{"name":"이엠에스스튜디오","tel":"031-234-8035","addr":"경기도 수원시 권선구 권선동 1016-3번지","indutype":"레저업소 - 헬스클럽","category":"leisure"},{"name":"크로스핏 히어로","tel":"031-234-9035","addr":"경기도 수원시 권선구 권선동 1016-3번지 2층,3층","indutype":"레저업소 - 헬스클럽","category":"leisure"}]},{"lat":"37.250326569","long":"127.03553517","imageIndex":13,"items":[{"name":"미션당구장","tel":"031-225-2122","addr":"경기도 수원시 권선구 권선동 1297-5번지 태양프라자 603호","indutype":"레저업소 - 당 구 장","category":"leisure"},{"name":"쏠래노래방","tel":"031-225-0912","addr":"경기도 수원시 권선구 권선동 1297-5번지","indutype":"레저업소 - 노 래 방","category":"leisure"}]},{"lat":"37.250569441","long":"127.03697801","imageIndex":13,"items":[{"name":"밀리오레노래연습장","tel":"031-221-0266","addr":"경기도 수원시 권선구 권선동 1291-7번지","indutype":"레저업소 - 노 래 방","category":"leisure"}]},{"lat":"37.258429973","long":"127.02086175","imageIndex":13,"items":[{"name":"발리노래연습장","tel":"031-000-0000","addr":"경기도 수원시 권선구 권선동 986번지 1층","indutype":"레저업소 - 노 래 방","category":"leisure"},{"name":"영동볼링장","tel":"031-239-5280","addr":"경기도 수원시 권선구 권선동 986번지","indutype":"레저업소 - 볼 링 장","category":"leisure"},{"name":"유플러스당구장","tel":"","addr":"경기도 수원시 권선구 권선동 986번지 5층","indutype":"레저업소 - 당 구 장","category":"leisure"},{"name":"유플러스당구장","tel":"031-222-5609","addr":"경기도 수원시 권선구 권선동 986번지 5층","indutype":"레저업소 - 당 구 장","category":"leisure"}]},{"lat":"37.26006986","long":"127.02078323","imageIndex":13,"items":[{"name":"별빛노래연습장","tel":"031-236-6656","addr":"경기도 수원시 권선구 권선동 974-9번지 지하1층","indutype":"레저업소 - 노 래 방","category":"leisure"}]},{"lat":"37.248659555","long":"127.03591767","imageIndex":13,"items":[{"name":"보니따필라테스 수원권선점","tel":"031-222-1926","addr":"경기도 수원시 권선구 권선동 1311-8번지 404호,406호","indutype":"레저업소 - 헬스클럽","category":"leisure"},{"name":"에스바디휘트니스","tel":"031-237-1016","addr":"경기도 수원시 권선구 권선동 1311-8번지 권선종합프라자 204,206,207호","indutype":"레저업소 - 헬스클럽","category":"leisure"}]},{"lat":"37.261520161","long":"127.02300437","imageIndex":13,"items":[{"name":"붉은악마노래연습장","tel":"031-898-8527","addr":"경기도 수원시 권선구 권선동 958-2번지","indutype":"레저업소 - 노 래 방","category":"leisure"}]},{"lat":"37.258097047","long":"127.01755882","imageIndex":13,"items":[{"name":"비젼노래연습장","tel":"031-238-7634","addr":"경기도 수원시 권선구 권선동 999-6번지","indutype":"레저업소 - 노 래 방","category":"leisure"}]},{"lat":"37.256041859","long":"127.02322835","imageIndex":13,"items":[{"name":"삐에로","tel":"031-224-0134","addr":"경기도 수원시 권선구 권선동 1057-13번지 1층","indutype":"레저업소 - 노 래 방","category":"leisure"}]},{"lat":"37.260853447","long":"127.02272237","imageIndex":13,"items":[{"name":"성산","tel":"031-222-1991","addr":"경기도 수원시 권선구 권선동 958-9번지 2층전부","indutype":"레저업소 - 노 래 방","category":"leisure"}]},{"lat":"37.258709166","long":"127.02167345","imageIndex":13,"items":[{"name":"세븐노래연습장","tel":"031-232-3023","addr":"경기도 수원시 권선구 권선동 987-1번지 2층","indutype":"레저업소 - 노 래 방","category":"leisure"}]},{"lat":"37.255573286","long":"127.0234424","imageIndex":13,"items":[{"name":"송아지노래방","tel":"031-237-5656","addr":"경기도 수원시 권선구 권선동 1061-6번지 2층","indutype":"레저업소 - 노 래 방","category":"leisure"}]},{"lat":"37.256735382","long":"127.02475031","imageIndex":13,"items":[{"name":"수 노래연습장","tel":"031-234-7735","addr":"경기도 수원시 권선구 권선동 1052번지 2층전체","indutype":"레저업소 - 노 래 방","category":"leisure"}]},{"lat":"37.253850972","long":"127.0301149","imageIndex":13,"items":[{"name":"수원당구클럽","tel":"031-223-5214","addr":"경기도 수원시 권선구 권선동 1248-1번지 2층","indutype":"레저업소 - 당 구 장","category":"leisure"}]},{"lat":"37.258015516","long":"127.02074893","imageIndex":13,"items":[{"name":"스카이노래연습장","tel":"","addr":"경기도 수원시 권선구 권선동 993-8번지 지하1층","indutype":"레저업소 - 노 래 방","category":"leisure"}]},{"lat":"37.252716003","long":"127.02863789","imageIndex":13,"items":[{"name":"스타노래연습장","tel":"","addr":"경기도 수원시 권선구 권선동 1260-1번지","indutype":"레저업소 - 노 래 방","category":"leisure"}]},{"lat":"37.260349471","long":"127.01873164","imageIndex":13,"items":[{"name":"스타노래연습장","tel":"031-233-7678","addr":"경기도 수원시 권선구 권선동 978-1번지 지하1층","indutype":"레저업소 - 노 래 방","category":"leisure"}]},{"lat":"37.256573211","long":"127.02467135","imageIndex":13,"items":[{"name":"스타캐슬 PC존","tel":"","addr":"경기도 수원시 권선구 권선동 1052-8번지 2층","indutype":"레저업소 - 기타레져업소","category":"leisure"}]},{"lat":"37.250293339","long":"127.02288867","imageIndex":13,"items":[{"name":"스피드당구장","tel":"031-226-5517","addr":"경기도 수원시 권선구 권선동 1191-2금강타운501호~503호","indutype":"레저업소 - 당 구 장","category":"leisure"},{"name":"채플린노래연습장","tel":"031-237-0018","addr":"경기도 수원시 권선구 권선동 1191-2번지 금강타운 3층 302호","indutype":"레저업소 - 노 래 방","category":"leisure"}]},{"lat":"37.256319834","long":"127.0299467","imageIndex":13,"items":[{"name":"승리당구클럽","tel":"031-111-1111","addr":"경기도 수원시 권선구 권선동 1039-17번지 2층","indutype":"레저업소 - 당 구 장","category":"leisure"},{"name":"윙크노래연습장","tel":"031-226-6404","addr":"경기도 수원시 권선구 권선동 1039-17번지 지층","indutype":"레저업소 - 노 래 방","category":"leisure"}]},{"lat":"37.258763602","long":"127.01914839","imageIndex":13,"items":[{"name":"시크릿 노래연습장","tel":"031-223-9159","addr":"경기도 수원시 권선구 권선동 981-8번지 지층","indutype":"레저업소 - 노 래 방","category":"leisure"}]},{"lat":"37.259240979","long":"127.02033213","imageIndex":13,"items":[{"name":"싸이노래연습장","tel":"","addr":"경기도 수원시 권선구 권선동 983-14번지 지층","indutype":"레저업소 - 노 래 방","category":"leisure"},{"name":"준탁구클럽","tel":"031-891-8387","addr":"경기도 수원시 권선구 권선동 983-14번지 2층","indutype":"레저업소 - 기타레져업소","category":"leisure"}]},{"lat":"37.256374046","long":"127.02928166","imageIndex":13,"items":[{"name":"아이디얼 바디(Ideal Body)","tel":"031-111-1111","addr":"경기도 수원시 권선구 권선동 1038-4번지 1층","indutype":"레저업소 - 헬스클럽","category":"leisure"}]},{"lat":"37.250050074","long":"127.0228097","imageIndex":13,"items":[{"name":"아이엔지 필라테스","tel":"070-2699-0807","addr":"경기도 수원시 권선구 권선동 1192번지 효림트윈타워 2층 202호","indutype":"레저업소 - 헬스클럽","category":"leisure"},{"name":"타임노래연습장","tel":"031-236-5790","addr":"경기도 수원시 권선구 권선동 1192번지 효림트윈타워 2층 201호","indutype":"레저업소 - 노 래 방","category":"leisure"}]},{"lat":"37.263817934","long":"127.02211438","imageIndex":13,"items":[{"name":"아이엠아트 필라테스","tel":"031-221-8880","addr":"경기도 수원시 권선구 권선동 939-19번지 2층","indutype":"레저업소 - 헬스클럽","category":"leisure"}]},{"lat":"37.257571901","long":"127.03150275","imageIndex":13,"items":[{"name":"아이엠아트필라테스","tel":"","addr":"경기도 수원시 권선구 권선동 1154번지 상가 800동 211호","indutype":"레저업소 - 헬스클럽","category":"leisure"}]},{"lat":"37.252129789","long":"127.03102728","imageIndex":13,"items":[{"name":"아지트인터피아","tel":"031-000-0000","addr":"경기도 수원시 권선구 권선동 1257-3번지 2층","indutype":"레저업소 - 기타레져업소","category":"leisure"}]},{"lat":"37.257076738","long":"127.02977789","imageIndex":13,"items":[{"name":"앙코르 노래연습장","tel":"070-8947-4490","addr":"경기도 수원시 권선구 권선동 1038-17번지 산호빌딩","indutype":"레저업소 - 노 래 방","category":"leisure"}]},{"lat":"37.260601558","long":"127.02017462","imageIndex":13,"items":[{"name":"앵콜노래연습장","tel":"031-222-3622","addr":"경기도 수원시 권선구 권선동 965-6번지 지하1층","indutype":"레저업소 - 노 래 방","category":"leisure"},{"name":"오즈 피씨방 (OZ PC방)","tel":"","addr":"경기도 수원시 권선구 권선동 965-6번지 3층","indutype":"레저업소 - 기타레져업소","category":"leisure"}]},{"lat":"37.257267819","long":"127.0196666","imageIndex":13,"items":[{"name":"에스노래연습장","tel":"031-237-1566","addr":"경기도 수원시 권선구 권선동 994-15번지 지층","indutype":"레저업소 - 노 래 방","category":"leisure"}]},{"lat":"37.25090342","long":"127.03483658","imageIndex":13,"items":[{"name":"에스바디휘트니스(권선3호점)","tel":"031-222-1016","addr":"경기도 수원시 권선구 권선동 1296-2번지 외3필지 101~104호","indutype":"레저업소 - 헬스클럽","category":"leisure"},{"name":"와우고방방","tel":"031-224-2559","addr":"경기도 수원시 권선구 권선동 1296-2번지 201호","indutype":"레저업소 - 기타레져업소","category":"leisure"},{"name":"커브스 권선클럽","tel":"031-222-8130","addr":"경기도 수원시 권선구 권선동 1296-2번지 205호","indutype":"레저업소 - 헬스클럽","category":"leisure"},{"name":"타이혼GYM","tel":"031-222-1230","addr":"경기도 수원시 권선구 권선동 1296-2번지 2층 202호","indutype":"레저업소 - 헬스클럽","category":"leisure"}]},{"lat":"37.256763174","long":"127.02013993","imageIndex":13,"items":[{"name":"에쿠스노래연습장","tel":"031-233-5992","addr":"경기도 수원시 권선구 권선동 1001-6번지 덕원빌딩","indutype":"레저업소 - 노 래 방","category":"leisure"}]},{"lat":"37.25657291","long":"127.02624948","imageIndex":13,"items":[{"name":"엔젤노래연습장","tel":"031-233-2511","addr":"경기도 수원시 권선구 권선동 1046-13번지 양지빌딩","indutype":"레저업소 - 노 래 방","category":"leisure"},{"name":"프린스당구장","tel":"031-3154-8667","addr":"경기도 수원시 권선구 권선동 1046-13번지 양지빌딩 2층","indutype":"레저업소 - 당 구 장","category":"leisure"}]},{"lat":"37.255519185","long":"127.02366783","imageIndex":13,"items":[{"name":"오디션","tel":"031-238-2687","addr":"경기도 수원시 권선구 권선동 1061-7번지 한성빌딩","indutype":"레저업소 - 노 래 방","category":"leisure"}]},{"lat":"37.260763541","long":"127.02150487","imageIndex":13,"items":[{"name":"오로라 노래연습장","tel":"031-111-1111","addr":"경기도 수원시 권선구 권선동 963-8번지 지층","indutype":"레저업소 - 노 래 방","category":"leisure"}]},{"lat":"37.25677119","long":"127.025979","imageIndex":13,"items":[{"name":"오셀롯PC 수원권선점","tel":"","addr":"경기도 수원시 권선구 권선동 1053-7번지 SK프라자 2층 204,205호","indutype":"레저업소 - 기타레져업소","category":"leisure"}]},{"lat":"37.250326501","long":"127.03578314","imageIndex":13,"items":[{"name":"오케이(OK) PC방","tel":"","addr":"경기도 수원시 권선구 권선동 1297-2번지 2층 204,.205호","indutype":"레저업소 - 기타레져업소","category":"leisure"}]},{"lat":"37.249743742","long":"127.02269691","imageIndex":13,"items":[{"name":"오케이당구클럽","tel":"031-237-0979","addr":"경기도 수원시 권선구 권선동 1192-2번지 세일프라자 402호","indutype":"레저업소 - 당 구 장","category":"leisure"},{"name":"파브","tel":"031-267-1447","addr":"경기도 수원시 권선구 권선동 1192-2번지 세일프라자 401호","indutype":"레저업소 - 노 래 방","category":"leisure"}]},{"lat":"37.261520724","long":"127.01936317","imageIndex":13,"items":[{"name":"오페라노래방","tel":"031-225-0969","addr":"경기도 수원시 권선구 권선동 964번지","indutype":"레저업소 - 노 래 방","category":"leisure"}]},{"lat":"37.256627318","long":"127.02442338","imageIndex":13,"items":[{"name":"우리PC","tel":"070-3533-6968","addr":"경기도 수원시 권선구 권선동 1055-7번지 2층","indutype":"레저업소 - 기타레져업소","category":"leisure"},{"name":"카카오노래연습장","tel":"","addr":"경기도 수원시 권선구 권선동 1055-7번지 지하층","indutype":"레저업소 - 노 래 방","category":"leisure"}]},{"lat":"37.252184059","long":"127.03013684","imageIndex":13,"items":[{"name":"울프노래연습장","tel":"031-236-5243","addr":"경기도 수원시 권선구 권선동 1258-9번지","indutype":"레저업소 - 노 래 방","category":"leisure"}]},{"lat":"37.258069607","long":"127.02055731","imageIndex":13,"items":[{"name":"웃찾사 노래연습장","tel":"031-223-0036","addr":"경기도 수원시 권선구 권선동 993번지 2층","indutype":"레저업소 - 노 래 방","category":"leisure"}]},{"lat":"37.259457205","long":"127.02047872","imageIndex":13,"items":[{"name":"월드컵 노래연습장","tel":"031-238-4358","addr":"경기도 수원시 권선구 권선동 974-12번지 지하1층","indutype":"레저업소 - 노 래 방","category":"leisure"}]},{"lat":"37.255798088","long":"127.02592234","imageIndex":13,"items":[{"name":"율 댄스타임","tel":"031-222-3023","addr":"경기도 수원시 권선구 권선동 1048-16번지 3층","indutype":"레저업소 - 헬스클럽","category":"leisure"},{"name":"챌린져","tel":"031-222-3404","addr":"경기도 수원시 권선구 권선동 1048-16번지","indutype":"레저업소 - 당 구 장","category":"leisure"}]},{"lat":"37.257853783","long":"127.01744605","imageIndex":13,"items":[{"name":"인덕당구클럽","tel":"031-237-0749","addr":"경기도 수원시 권선구 권선동 999-9번지 2층","indutype":"레저업소 - 당 구 장","category":"leisure"}]},{"lat":"37.259735492","long":"127.02641955","imageIndex":13,"items":[{"name":"일이삼당구장(123당구장)","tel":"031-226-9027","addr":"경기도 수원시 권선구 권선동 1020번지 2층","indutype":"레저업소 - 당 구 장","category":"leisure"}]},{"lat":"37.253346687","long":"127.02880719","imageIndex":13,"items":[{"name":"자이골프존","tel":"031-222-2002","addr":"경기도 수원시 권선구 권선동 1066-5번지 201호","indutype":"레저업소 - 스크린골프","category":"leisure"},{"name":"짝 노래연습장","tel":"031-233-9938","addr":"경기도 수원시 권선구 권선동 1066-5번지 지하","indutype":"레저업소 - 노 래 방","category":"leisure"},{"name":"초콜릿PC방","tel":"","addr":"경기도 수원시 권선구 권선동 1066-5번지 3층","indutype":"레저업소 - 기타레져업소","category":"leisure"}]},{"lat":"37.25034773","long":"127.02083729","imageIndex":13,"items":[{"name":"주식회사 대건","tel":"031-267-7777","addr":"경기도 수원시 권선구 권선동 1189번지 3층","indutype":"레저업소 - 기타레져업소","category":"leisure"}]},{"lat":"37.256988336","long":"127.0207825","imageIndex":13,"items":[{"name":"주식회사 와이풀앤와이에스씨 (Y-POOL&YSC)","tel":"031-1644-5975","addr":"경기도 수원시 권선구 권선동 992-9번지 2층","indutype":"레저업소 - 수 영 장","category":"leisure"}]},{"lat":"37.252986026","long":"127.02992297","imageIndex":13,"items":[{"name":"준 노래연습장","tel":"","addr":"경기도 수원시 권선구 권선동 1253-6번지 지층","indutype":"레저업소 - 노 래 방","category":"leisure"}]},{"lat":"37.260736391","long":"127.02224887","imageIndex":13,"items":[{"name":"중앙노래연습장","tel":"031-238-6901","addr":"경기도 수원시 권선구 권선동 963-3번지","indutype":"레저업소 - 노 래 방","category":"leisure"}]},{"lat":"37.259015495","long":"127.0218088","imageIndex":13,"items":[{"name":"지넷(G.net)노래연습장","tel":"031-234-6688","addr":"경기도 수원시 권선구 권선동 971-5번지 2층","indutype":"레저업소 - 노 래 방","category":"leisure"}]},{"lat":"37.261104399","long":"127.02953132","imageIndex":13,"items":[{"name":"직진체육","tel":"031-8001-3330","addr":"경기도 수원시 권선구 권선동 1013-1번지 세종그랑시아 1동 14층 11호","indutype":"레저업소 - 헬스클럽","category":"leisure"},{"name":"필라리움","tel":"","addr":"경기도 수원시 권선구 권선동 1013-1번지 세종그랑시아 1013호","indutype":"레저업소 - 헬스클럽","category":"leisure"}]},{"lat":"37.255401671","long":"127.0257306","imageIndex":13,"items":[{"name":"짱 노래연습장","tel":"031-222-5990","addr":"경기도 수원시 권선구 권선동 1049-12번지 지하1층","indutype":"레저업소 - 노 래 방","category":"leisure"}]},{"lat":"37.252075838","long":"127.03055386","imageIndex":13,"items":[{"name":"짱 노래연습장","tel":"031-234-0848","addr":"경기도 수원시 권선구 권선동 1258-6번지","indutype":"레저업소 - 노 래 방","category":"leisure"}]},{"lat":"37.25782465","long":"127.02953016","imageIndex":13,"items":[{"name":"짱당구장","tel":"031-247-4400","addr":"경기도 수원시 권선구 권선동 1027-10번지 2층","indutype":"레저업소 - 당 구 장","category":"leisure"}]},{"lat":"37.250966273","long":"127.03563689","imageIndex":13,"items":[{"name":"채플린","tel":"031-232-2743","addr":"경기도 수원시 권선구 권선동 1295-4번지","indutype":"레저업소 - 노 래 방","category":"leisure"}]},{"lat":"37.252238042","long":"127.03047501","imageIndex":13,"items":[{"name":"채플린노래방","tel":"031-224-3512","addr":"경기도 수원시 권선구 권선동 1258-4번지","indutype":"레저업소 - 노 래 방","category":"leisure"}]},{"lat":"37.251020188","long":"127.03616667","imageIndex":13,"items":[{"name":"축제","tel":"031-226-7554","addr":"경기도 수원시 권선구 권선동 1293-9번지","indutype":"레저업소 - 노 래 방","category":"leisure"}]},{"lat":"37.252769804","long":"127.02981017","imageIndex":13,"items":[{"name":"카멜레온","tel":"031-221-7734","addr":"경기도 수원시 권선구 권선동 1255-5번지 지층","indutype":"레저업소 - 노 래 방","category":"leisure"}]},{"lat":"37.257376208","long":"127.01767141","imageIndex":13,"items":[{"name":"캐피탈노래연습장","tel":"031-234-6126","addr":"경기도 수원시 권선구 권선동 1000-8번지","indutype":"레저업소 - 노 래 방","category":"leisure"}]},{"lat":"37.259932908","long":"127.030196","imageIndex":13,"items":[{"name":"캘러웨이스크린골프","tel":"031-1644-1377","addr":"경기도 수원시 권선구 권선동 1015번지 동양덱스빌아파트 상가동 지하1층","indutype":"레저업소 - 스크린골프","category":"leisure"}]},{"lat":"37.252490548","long":"127.02952828","imageIndex":13,"items":[{"name":"캡틴노래방","tel":"031-222-6516","addr":"경기도 수원시 권선구 권선동 1259-4번지","indutype":"레저업소 - 노 래 방","category":"leisure"},{"name":"캡틴노래연습장","tel":"031-225-8367","addr":"경기도 수원시 권선구 권선동 1259-4번지","indutype":"레저업소 - 노 래 방","category":"leisure"}]},{"lat":"37.255465084","long":"127.02389326","imageIndex":13,"items":[{"name":"키즈플레잉","tel":"031-224-2229","addr":"경기도 수원시 권선구 권선동 1061-8번지 5층","indutype":"레저업소 - 기타레져업소","category":"leisure"}]},{"lat":"37.252409186","long":"127.03070051","imageIndex":13,"items":[{"name":"탈렌트노래연습장","tel":"031-222-0656","addr":"경기도 수원시 권선구 권선동 1256-6번지 지층","indutype":"레저업소 - 노 래 방","category":"leisure"}]},{"lat":"37.255572852","long":"127.02580955","imageIndex":13,"items":[{"name":"테마","tel":"031-238-2380","addr":"경기도 수원시 권선구 권선동 1049번지","indutype":"레저업소 - 노 래 방","category":"leisure"}]},{"lat":"37.249518497","long":"127.02261795","imageIndex":13,"items":[{"name":"팀앤조이멀티스튜디오","tel":"031-237-0705","addr":"경기도 수원시 권선구 권선동 1193번지","indutype":"레저업소 - 헬스클럽","category":"leisure"}]},{"lat":"37.257375985","long":"127.01936227","imageIndex":13,"items":[{"name":"파브노래연습장","tel":"031-225-1944","addr":"경기도 수원시 권선구 권선동 995-13번지","indutype":"레저업소 - 노 래 방","category":"leisure"}]},{"lat":"37.256600565","long":"127.02283397","imageIndex":13,"items":[{"name":"파브노래연습장","tel":"031-226-5118","addr":"경기도 수원시 권선구 권선동 1056-14번지 지하층 지","indutype":"레저업소 - 노 래 방","category":"leisure"}]},{"lat":"37.25226493","long":"127.03108369","imageIndex":13,"items":[{"name":"팡팡 노래연습장","tel":"031-225-0395","addr":"경기도 수원시 권선구 권선동 1257-2번지 지하","indutype":"레저업소 - 노 래 방","category":"leisure"}]},{"lat":"37.256877441","long":"127.03414022","imageIndex":13,"items":[{"name":"프랜즈 노래연습장","tel":"031-222-7421","addr":"경기도 수원시 권선구 권선동 1165-5번지 지하1층","indutype":"레저업소 - 노 래 방","category":"leisure"}]},{"lat":"37.250185158","long":"127.02322678","imageIndex":13,"items":[{"name":"하얀노래연습장","tel":"031-236-0386","addr":"경기도 수원시 권선구 권선동 1195-8번지 지하1층","indutype":"레저업소 - 노 래 방","category":"leisure"}]},{"lat":"37.256210817","long":"127.03361015","imageIndex":13,"items":[{"name":"학촌실내수영장","tel":"031-239-3072","addr":"경기도 수원시 권선구 권선동 1163-6번지 지하1층","indutype":"레저업소 - 수 영 장","category":"leisure"}]},{"lat":"37.258403005","long":"127.02044466","imageIndex":13,"items":[{"name":"해피노래연습장","tel":"031-237-0302","addr":"경기도 수원시 권선구 권선동 984-8번지 지하1층","indutype":"레저업소 - 노 래 방","category":"leisure"}]},{"lat":"37.25646502","long":"127.02503204","imageIndex":13,"items":[{"name":"해피앤딩 노래연습장","tel":"031-224-7373","addr":"경기도 수원시 권선구 권선동 1052-7번지 지하1층","indutype":"레저업소 - 노 래 방","category":"leisure"}]},{"lat":"37.253716068","long":"127.02899894","imageIndex":13,"items":[{"name":"해피탁구클럽","tel":"031-221-2717","addr":"경기도 수원시 권선구 권선동 1066-3번지 7층","indutype":"레저업소 - 기타레져업소","category":"leisure"}]},{"lat":"37.258520208","long":"127.01997124","imageIndex":13,"items":[{"name":"호반아 노래연습장","tel":"","addr":"경기도 수원시 권선구 권선동 983-8번지","indutype":"레저업소 - 노 래 방","category":"leisure"},{"name":"호반아노래방","tel":"031-221-1760","addr":"경기도 수원시 권선구 권선동 983-8번지","indutype":"레저업소 - 노 래 방","category":"leisure"}]},{"lat":"37.249542743","long":"127.03527559","imageIndex":13,"items":[{"name":"홀인원골프아카데미","tel":"031-236-3662","addr":"경기도 수원시 권선구 권선동 1296-7번지 베스토아 7층 702호","indutype":"레저업소 - 골프연습장","category":"leisure"},{"name":"홀인원골프아카데미","tel":"031-236-3662","addr":"경기도 수원시 권선구 권선동 1296-7번지 베스토아 702호","indutype":"레저업소 - 골프연습장","category":"leisure"}]},{"lat":"37.262294495","long":"127.02602578","imageIndex":13,"items":[{"name":"홈런왕","tel":"031-236-0507","addr":"경기도 수원시 권선구 권선동 1011-8번지","indutype":"레저업소 - 기타레져업소","category":"leisure"}]},{"lat":"37.260763916","long":"127.01894591","imageIndex":13,"items":[{"name":"활기원","tel":"031-225-6332","addr":"경기도 수원시 권선구 권선동 965-16번지 2층","indutype":"레저업소 - 헬스클럽","category":"leisure"}]}]