[{"lat":"36.96424661","long":"127.04914578","imageIndex":16,"items":[{"name":"국가대표 태권도","tel":"031-655-1991","addr":"경기도 평택시 팽성읍 안정리 48-51번지 305호","indutype":"학원 - 예·체능계학원","category":"study"},{"name":"꿈꾸는이화피아노교습소","tel":"031-000-0000","addr":"경기도 평택시 팽성읍 안정리 48-51번지 302호","indutype":"학원 - 예·체능계학원","category":"study"},{"name":"월드태권아카데미","tel":"031-655-1551","addr":"경기도 평택시 팽성읍 안정리 48-51번지 305호","indutype":"학원 - 예·체능계학원","category":"study"}]},{"lat":"36.965244533","long":"127.0546487","imageIndex":16,"items":[{"name":"꿈바라기 어린이집[아이행복]","tel":"031-691-4889","addr":"경기도 평택시 팽성읍 안정리 7-1번지 1층","indutype":"학원 - 유아원","category":"study"}]},{"lat":"36.965328031","long":"127.04880955","imageIndex":16,"items":[{"name":"브라운스톤어린이집[아이행복]","tel":"031-655-3535","addr":"경기도 평택시 팽성읍 안정리 360번지 평택브라운스톤험프리스","indutype":"학원 - 유아원","category":"study"}]},{"lat":"36.962138637","long":"127.04772968","imageIndex":16,"items":[{"name":"삼화당 디자인 갤러리","tel":"070-4922-1261","addr":"경기도 평택시 팽성읍 안정리 41-76번지","indutype":"학원 - 기타 교육기관","category":"study"}]},{"lat":"36.962329409","long":"127.04342916","imageIndex":16,"items":[{"name":"유앤미뮤직학원","tel":"031-651-5414","addr":"경기도 평택시 팽성읍 안정리 41-202번지","indutype":"학원 - 예·체능계학원","category":"study"}]},{"lat":"36.959164672","long":"127.04881708","imageIndex":16,"items":[{"name":"태양어린이집[아이행복]","tel":"031-691-2218","addr":"경기도 평택시 팽성읍 안정리 166-10번지 1층","indutype":"학원 - 유아원","category":"study"}]}]