[{"lat":"37.163809989","long":"127.37369197","imageIndex":13,"items":[{"name":"MBC노래연습방","tel":"031-321-9940","addr":"경기도 용인시 처인구 백암면 백암리 458-10번지 2층","indutype":"레저업소 - 노 래 방","category":"leisure"}]},{"lat":"37.16511623","long":"127.37377716","imageIndex":13,"items":[{"name":"SBS노래연습장","tel":"031-334-9597","addr":"경기도 용인시 처인구 백암면 백암리374-15","indutype":"레저업소 - 노 래 방","category":"leisure"}]},{"lat":"37.165808644","long":"127.37421963","imageIndex":13,"items":[{"name":"미니노래연습장","tel":"031-337-2224","addr":"경기도 용인시 처인구 백암면 백암리 364-10번지 1층","indutype":"레저업소 - 노 래 방","category":"leisure"}]},{"lat":"37.164922084","long":"127.37247021","imageIndex":13,"items":[{"name":"민당구장","tel":"031-322-0870","addr":"경기도 용인시 처인구 백암면 백암리 426번지 2층","indutype":"레저업소 - 당 구 장","category":"leisure"}]},{"lat":"37.139758921","long":"127.39402469","imageIndex":13,"items":[{"name":"백봉노래연습장","tel":"031-335-5256","addr":"경기도 용인시 처인구 백암면 백봉리 600-2번지 3층","indutype":"레저업소 - 노 래 방","category":"leisure"}]},{"lat":"37.135981618","long":"127.40002631","imageIndex":13,"items":[{"name":"세븐 노래연습장","tel":"","addr":"경기도 용인시 처인구 백암면 백봉리 234-4번지 1층","indutype":"레저업소 - 노 래 방","category":"leisure"}]},{"lat":"37.164534595","long":"127.37536178","imageIndex":13,"items":[{"name":"스마트 노래연습장","tel":"031-333-8841","addr":"경기도 용인시 처인구 백암면 백암리 468번지","indutype":"레저업소 - 노 래 방","category":"leisure"}]},{"lat":"37.164786882","long":"127.37536301","imageIndex":13,"items":[{"name":"스타골프존","tel":"031-2250-7200","addr":"경기도 용인시 처인구 백암면 백암리 341-3번지","indutype":"레저업소 - 골프연습장","category":"leisure"}]},{"lat":"37.163863522","long":"127.37386111","imageIndex":13,"items":[{"name":"쏠라 노래연습장","tel":"031-333-3617","addr":"경기도 용인시 처인구 백암면 백암리 459-20번지 지하1층","indutype":"레저업소 - 노 래 방","category":"leisure"}]},{"lat":"37.129762339","long":"127.41644628","imageIndex":13,"items":[{"name":"아곡낚시터","tel":"031-332-4042","addr":"경기도 용인시 처인구 백암면 고안리 산154번지","indutype":"레저업소 - 기타레져업소","category":"leisure"}]},{"lat":"37.165008106","long":"127.37377663","imageIndex":13,"items":[{"name":"앗싸노래연습장","tel":"031-323-4738","addr":"경기도 용인시 처인구 백암면 백암리 633-2번지","indutype":"레저업소 - 노 래 방","category":"leisure"}]},{"lat":"37.165420568","long":"127.37442039","imageIndex":13,"items":[{"name":"와와노래연습장","tel":"031-323-2269","addr":"경기도 용인시 처인구 백암면 백암리 365번지 백암빌딩 지하1층","indutype":"레저업소 - 노 래 방","category":"leisure"}]},{"lat":"37.165953584","long":"127.37397265","imageIndex":13,"items":[{"name":"이차로 노래연습장","tel":"031-4991-0439","addr":"경기도 용인시 처인구 백암면 백암리 364-3번지 2층","indutype":"레저업소 - 노 래 방","category":"leisure"}]},{"lat":"37.166869527","long":"127.37208563","imageIndex":13,"items":[{"name":"제이핏","tel":"031-338-2019","addr":"경기도 용인시 처인구 백암면 백암리 381-2번지 2층","indutype":"레저업소 - 헬스클럽","category":"leisure"}]},{"lat":"37.163784016","long":"127.37622499","imageIndex":13,"items":[{"name":"헐당구장","tel":"","addr":"경기도 용인시 처인구 백암면 백암리 493번지 2층","indutype":"레저업소 - 당 구 장","category":"leisure"}]},{"lat":"37.165060183","long":"127.37152516","imageIndex":13,"items":[{"name":"호수노래연습장","tel":"031-334-0671","addr":"경기도 용인시 처인구 백암면 백암리 407-10번지 호수노래방","indutype":"레저업소 - 노 래 방","category":"leisure"}]}]