[{"lat":"37.010329672","long":"127.32581097","imageIndex":16,"items":[{"name":"(주)안성맞춤에프씨","tel":"031-674-7022","addr":"경기도 안성시 금광면 신양복리 144-5번지 3층 303호","indutype":"학원 - 기타 교육기관","category":"study"}]},{"lat":"37.008159965","long":"127.32179073","imageIndex":16,"items":[{"name":"가연키즈어린이집[아이행복]","tel":"031-676-4279","addr":"경기도 안성시 금광면 신양복리 221번지","indutype":"학원 - 유아원","category":"study"}]},{"lat":"37.011051936","long":"127.33185894","imageIndex":16,"items":[{"name":"홍익도란도란어린이집[아이행복]","tel":"031-673-5750","addr":"경기도 안성시 금광면 신양복리 139-1번지 홍익아파트 118동","indutype":"학원 - 유아원","category":"study"}]},{"lat":"37.007775031","long":"127.32750795","imageIndex":16,"items":[{"name":"흙내음어린이집[아이행복]","tel":"031-674-4400","addr":"경기도 안성시 금광면 신양복리 106-22번지","indutype":"학원 - 유아원","category":"study"}]},{"lat":"37.007025095","long":"127.32825753","imageIndex":17,"items":[{"name":"(주)티켓팩토리","tel":"070-7010-3931","addr":"경기도 안성시 금광면 신양복리 106-14번지","indutype":"회원제형태 - 기타4","category":"other"}]},{"lat":"37.002722145","long":"127.31667871","imageIndex":17,"items":[{"name":"개산건재철물","tel":"031-671-9779","addr":"경기도 안성시 금광면 신양복리 453번지","indutype":"기타 - 기계공구","category":"other"}]},{"lat":"37.009138506","long":"127.3264576","imageIndex":17,"items":[{"name":"골든빌크리닝","tel":"031-676-8270","addr":"경기도 안성시 금광면 신양복리 125","indutype":"수리서비스 - 세탁소","category":"other"}]},{"lat":"36.999830365","long":"127.32650803","imageIndex":17,"items":[{"name":"금광우체국","tel":"031-672-3000","addr":"경기도 안성시 금광면 신양복리 358-1번지","indutype":"용역 서비스 - 공공요금대행서비스/소","category":"other"}]},{"lat":"37.009300849","long":"127.32640211","imageIndex":17,"items":[{"name":"세븐일레븐안성금광본점","tel":"","addr":"경기도 안성시 금광면 신양복리 124번지","indutype":"유통업 영리 - 편 의 점","category":"other"}]},{"lat":"37.000690828","long":"127.32487146","imageIndex":17,"items":[{"name":"세븐일레븐안성금광센터점","tel":"031-1577-0711","addr":"경기도 안성시 금광면 신양복리 354-2번지","indutype":"유통업 영리 - 편 의 점","category":"other"}]},{"lat":"37.009968945","long":"127.3259218","imageIndex":17,"items":[{"name":"씨유안성금광점","tel":"031-677-2713","addr":"경기도 안성시 금광면 신양복리 144-12","indutype":"유통업 영리 - 편 의 점","category":"other"}]},{"lat":"37.002495276","long":"127.31728445","imageIndex":17,"items":[{"name":"안성스포츠,산업안전용품","tel":"","addr":"경기도 안성시 금광면 신양복리 409-1번지 나동 맨끝 2번째칸","indutype":"레져용품 - 스포츠·레져용품","category":"other"},{"name":"제2경부공인중개사사무소","tel":"031-677-2701","addr":"경기도 안성시 금광면 신양복리 409-1번지 1층","indutype":"용역 서비스 - 부동산 중개·임대","category":"other"}]},{"lat":"37.009553848","long":"127.32614476","imageIndex":17,"items":[{"name":"징검다리부동산중개법인 주식회사","tel":"031-674-8945","addr":"경기도 안성시 금광면 신양복리 123번지 202호","indutype":"용역 서비스 - 사무서비스","category":"other"}]},{"lat":"37.009716344","long":"127.32603309","imageIndex":13,"items":[{"name":"BRAND NEW PC","tel":"","addr":"경기도 안성시 금광면 신양복리 143번지 2층","indutype":"레저업소 - 기타레져업소","category":"leisure"},{"name":"홍익노래연습장","tel":"031-674-9294","addr":"경기도 안성시 금광면 신양복리 143번지 지하1층","indutype":"레저업소 - 노 래 방","category":"leisure"}]},{"lat":"37.00963638","long":"127.32561703","imageIndex":13,"items":[{"name":"버팔로노래방","tel":"031-674-9294","addr":"경기도 안성시 금광면 신양복리 122-1번지","indutype":"레저업소 - 노 래 방","category":"leisure"}]},{"lat":"37.009468121","long":"127.32784098","imageIndex":13,"items":[{"name":"홍익 당구클럽","tel":"031-672-6007","addr":"경기도 안성시 금광면 신양복리 134-4번지","indutype":"레저업소 - 당 구 장","category":"leisure"}]},{"lat":"37.009806602","long":"127.3259773","imageIndex":13,"items":[{"name":"홍익노래방","tel":"031-673-8343","addr":"경기도 안성시 금광면 신양복리 144","indutype":"레저업소 - 노 래 방","category":"leisure"}]},{"lat":"37.002918353","long":"127.32417306","imageIndex":0,"items":[{"name":"JS모터스","tel":"031-674-8611","addr":"경기도 안성시 금광면 신양복리 288-1번지","indutype":"자동차정비 유지 - 자동차정비","category":"car"},{"name":"신양1급자동차정비","tel":"031-674-8611","addr":"경기도 안성시 금광면 신양복리 288-1","indutype":"자동차정비 유지 - 자동차정비","category":"car"}]},{"lat":"37.000690828","long":"127.32487146","imageIndex":0,"items":[{"name":"월드카공업사","tel":"031-674-5786","addr":"경기도 안성시 금광면 신양복리 354-2번지","indutype":"자동차정비 유지 - 자동차정비","category":"car"}]},{"lat":"37.001802265","long":"127.31697826","imageIndex":0,"items":[{"name":"유안","tel":"031-111-1111","addr":"경기도 안성시 금광면 신양복리 410-14번지","indutype":"자동차정비 유지 - 자동차부품","category":"car"}]},{"lat":"37.006386023","long":"127.32800763","imageIndex":7,"items":[{"name":"SM푸드","tel":"031-675-6145","addr":"경기도 안성시 금광면 신양복리 80","indutype":"음료식품 - 기타음료식품","category":"food"}]},{"lat":"37.009553848","long":"127.32614476","imageIndex":7,"items":[{"name":"다르네","tel":"031-673-2210","addr":"경기도 안성시 금광면 신양복리 123번지","indutype":"음료식품 - 기타음료식품","category":"food"}]},{"lat":"37.003529327","long":"127.32147928","imageIndex":7,"items":[{"name":"두레푸드 영농조합법인","tel":"031-677-1822","addr":"경기도 안성시 금광면 신양복리 260-4번지 두레푸드","indutype":"음료식품 - 기타음료식품","category":"food"}]},{"lat":"37.007862104","long":"127.32198049","imageIndex":7,"items":[{"name":"신기블루베리","tel":"031-677-1575","addr":"경기도 안성시 금광면 신양복리 220-2","indutype":"음료식품 - 농·축·수산품","category":"food"}]},{"lat":"36.999693091","long":"127.32728261","imageIndex":7,"items":[{"name":"쌩떼 ONLY GREEN","tel":"031-671-0122","addr":"경기도 안성시 금광면 신양복리 366-10번지","indutype":"음료식품 - 기타음료식품","category":"food"}]},{"lat":"37.008162023","long":"127.32767813","imageIndex":4,"items":[{"name":"가시연꽃","tel":"031-000-0000","addr":"경기도 안성시 금광면 신양복리 106-2번지","indutype":"일반휴게음식 - 일반한식","category":"restaurant"}]},{"lat":"37.008057088","long":"127.32650919","imageIndex":4,"items":[{"name":"고가네","tel":"031-673-7002","addr":"경기도 안성시 금광면 신양복리 111-1번지","indutype":"일반휴게음식 - 일반한식","category":"restaurant"},{"name":"홍익연탄구이","tel":"031-674-3292","addr":"경기도 안성시 금광면 신양복리 111-1번지","indutype":"일반휴게음식 - 일반한식","category":"restaurant"}]},{"lat":"37.010582486","long":"127.32562103","imageIndex":4,"items":[{"name":"고려원감자탕","tel":"031-675-1345","addr":"경기도 안성시 금광면 신양복리 144-13번지","indutype":"일반휴게음식 - 일반한식","category":"restaurant"}]},{"lat":"37.010329672","long":"127.32581097","imageIndex":4,"items":[{"name":"김밥나라","tel":"031-675-2289","addr":"경기도 안성시 금광면 신양복리 144-5번지 1층 101호","indutype":"일반휴게음식 - 일반한식","category":"restaurant"},{"name":"병천토종순대","tel":"031-674-3644","addr":"경기도 안성시 금광면 신양복리 144-5번지","indutype":"일반휴게음식 - 일반한식","category":"restaurant"}]},{"lat":"37.00780418","long":"127.32673283","imageIndex":4,"items":[{"name":"네네치킨","tel":"031-677-4492","addr":"경기도 안성시 금광면 신양복리 105-2번지","indutype":"일반휴게음식 - 스넥","category":"restaurant"},{"name":"순이네국수집","tel":"031-676-2939","addr":"경기도 안성시 금광면 신양복리 105-2번지","indutype":"일반휴게음식 - 일반한식","category":"restaurant"}]},{"lat":"37.009138506","long":"127.3264576","imageIndex":4,"items":[{"name":"만원의행복포차","tel":"031-672-8801","addr":"경기도 안성시 금광면 신양복리 125번지 1층","indutype":"일반휴게음식 - 일반한식","category":"restaurant"}]},{"lat":"37.009194551","long":"127.33228913","imageIndex":4,"items":[{"name":"물고기자리안성점","tel":"031-676-0069","addr":"경기도 안성시 금광면 신양복리 58-1번지","indutype":"일반휴게음식 - 일반한식","category":"restaurant"}]},{"lat":"37.002495276","long":"127.31728445","imageIndex":4,"items":[{"name":"바우네나주곰탕 안성1호점","tel":"031-673-0311","addr":"경기도 안성시 금광면 신양복리 409-1번지","indutype":"일반휴게음식 - 일반한식","category":"restaurant"},{"name":"안성디딤돌커피숍","tel":"031-111-1111","addr":"경기도 안성시 금광면 신양복리 409-1번지 나동 1층 우측호","indutype":"일반휴게음식 - 서양음식","category":"restaurant"}]},{"lat":"37.009417005","long":"127.32676214","imageIndex":4,"items":[{"name":"손가네찌개전문","tel":"031-673-8082","addr":"경기도 안성시 금광면 신양복리 124-2번지","indutype":"일반휴게음식 - 일반한식","category":"restaurant"}]},{"lat":"37.001000563","long":"127.32362574","imageIndex":4,"items":[{"name":"수복식당","tel":"031-657-4507","addr":"경기도 안성시 금광면 신양복리 374-6번지 1층 전체호","indutype":"일반휴게음식 - 일반한식","category":"restaurant"}]},{"lat":"37.009246994","long":"127.32961527","imageIndex":4,"items":[{"name":"시골할머니손두부","tel":"031-676-3378","addr":"경기도 안성시 금광면 신양복리 137-1번지","indutype":"일반휴게음식 - 일반한식","category":"restaurant"}]},{"lat":"37.009968945","long":"127.3259218","imageIndex":4,"items":[{"name":"씨엔피(C&P)","tel":"031-674-5831","addr":"경기도 안성시 금광면 신양복리 144-12번지","indutype":"일반휴게음식 - 주점","category":"restaurant"},{"name":"옹고집","tel":"031-676-1011","addr":"경기도 안성시 금광면 신양복리 144-12번지 1층 좌호","indutype":"일반휴게음식 - 중국식","category":"restaurant"}]},{"lat":"37.010607059","long":"127.3298121","imageIndex":4,"items":[{"name":"아미루","tel":"031-673-1393","addr":"경기도 안성시 금광면 신양복리 139-1번지 홍익아파트 2층 205호","indutype":"일반휴게음식 - 중국식","category":"restaurant"}]},{"lat":"37.009300849","long":"127.32640211","imageIndex":4,"items":[{"name":"오구쌀피자","tel":"031-677-5997","addr":"경기도 안성시 금광면 신양복리 124번지 1층 우측 2호","indutype":"일반휴게음식 - 서양음식","category":"restaurant"},{"name":"홍익치킨호프","tel":"031-675-2210","addr":"경기도 안성시 금광면 신양복리 124번지 1층","indutype":"일반휴게음식 - 스넥","category":"restaurant"}]},{"lat":"37.010167391","long":"127.32584399","imageIndex":4,"items":[{"name":"우리엄마손맛","tel":"031-672-1835","addr":"경기도 안성시 금광면 신양복리 144-6번지","indutype":"일반휴게음식 - 일반한식","category":"restaurant"}]},{"lat":"36.999775689","long":"127.32673248","imageIndex":4,"items":[{"name":"윤정식당","tel":"031-672-3032","addr":"경기도 안성시 금광면 신양복리 358-10번지","indutype":"일반휴게음식 - 중국식","category":"restaurant"}]},{"lat":"37.009716344","long":"127.32603309","imageIndex":4,"items":[{"name":"으뜸사골칼국수","tel":"031-673-8672","addr":"경기도 안성시 금광면 신양복리 143번지 1층","indutype":"일반휴게음식 - 일반한식","category":"restaurant"},{"name":"으뜸사골칼국수","tel":"031-673-8672","addr":"경기도 안성시 금광면 신양복리 143번지 1층","indutype":"일반휴게음식 - 일반한식","category":"restaurant"}]},{"lat":"37.00271581","long":"127.32243084","imageIndex":4,"items":[{"name":"이룸(IRum)","tel":"031-674-2282","addr":"경기도 안성시 금광면 신양복리 282-2번지 가동 1층","indutype":"일반휴게음식 - 서양음식","category":"restaurant"}]},{"lat":"37.001081901","long":"127.32353621","imageIndex":4,"items":[{"name":"제주통돼지","tel":"031-677-0755","addr":"경기도 안성시 금광면 신양복리 378-2번지 1층","indutype":"일반휴게음식 - 일반한식","category":"restaurant"}]},{"lat":"37.007495919","long":"127.32742812","imageIndex":4,"items":[{"name":"캔버스커피","tel":"031-673-0005","addr":"경기도 안성시 금광면 신양복리 106-10번지","indutype":"일반휴게음식 - 서양음식","category":"restaurant"}]},{"lat":"36.999525852","long":"127.32912431","imageIndex":4,"items":[{"name":"통돼지와도토리","tel":"031-676-2292","addr":"경기도 안성시 금광면 신양복리 370-18번지","indutype":"일반휴게음식 - 일반한식","category":"restaurant"}]},{"lat":"37.009553848","long":"127.32614476","imageIndex":13,"items":[{"name":"안성센트럴","tel":"031-674-1014","addr":"경기도 안성시 금광면 신양복리 123번지 2층","indutype":"보건위생 - 화장품","category":"beauty"}]},{"lat":"37.010329672","long":"127.32581097","imageIndex":13,"items":[{"name":"헤어뷰티","tel":"031-8052-0235","addr":"경기도 안성시 금광면 신양복리 144-5번지 1층","indutype":"보건위생 - 미용원","category":"beauty"}]},{"lat":"36.999363662","long":"127.32912362","imageIndex":5,"items":[{"name":"킹덤모텔","tel":"031-674-2447","addr":"경기도 안성시 금광면 신양복리 370-9번지","indutype":"숙박업 - 여관/기타숙박업","category":"hotel"}]},{"lat":"37.009553848","long":"127.32614476","imageIndex":7,"items":[{"name":"홍익마트로","tel":"031-674-8472","addr":"경기도 안성시 금광면 신양복리 123번지","indutype":"유통업 영리 - 슈퍼마켓","category":"mart"}]}]