[{"lat":"37.767293872","long":"127.22826906","imageIndex":17,"items":[{"name":"(주)대산우드랜드","tel":"070-5588-4584","addr":"경기도 포천시 내촌면 음현리 399-12번지","indutype":"건축자재 - 목재·석재·철물","category":"other"},{"name":"서광특수금속","tel":"031-534-9227","addr":"경기도 포천시 내촌면 음현리 399-12번지","indutype":"가구 - 일반가구","category":"other"}]},{"lat":"37.773122744","long":"127.2284116","imageIndex":17,"items":[{"name":"AJ스포츠","tel":"070-7659-3121","addr":"경기도 포천시 내촌면 음현리 295번지 103호","indutype":"레져용품 - 스포츠·레져용품","category":"other"},{"name":"대명광고기획","tel":"031-551-9973","addr":"경기도 포천시 내촌면 음현리 295번지","indutype":"용역 서비스 - 종합용역","category":"other"},{"name":"태정상사","tel":"031-533-8006","addr":"경기도 포천시 내촌면 음현리 295번지 SK주유소옆","indutype":"신변잡화 - 기타잡화","category":"other"}]},{"lat":"37.767845872","long":"127.2269996","imageIndex":17,"items":[{"name":"CU포천매화점","tel":"531-6959","addr":"경기도 포천시 내촌면 음현리 602-5번지","indutype":"소매업 - 편의점","category":"other"},{"name":"주원골프존","tel":"031-531-3353","addr":"경기도 포천시 내촌면 음현리 602-5번지 외2필지 2층","indutype":"회원제형태 - 레져업소","category":"other"},{"name":"한신콤푸레샤","tel":"031-536-5158","addr":"경기도 포천시 내촌면 음현리 602-5번지","indutype":"기타 - 기계공구","category":"other"}]},{"lat":"37.775484974","long":"127.22749938","imageIndex":17,"items":[{"name":"OK공구","tel":"031-532-0979","addr":"경기도 포천시 내촌면 음현리 681-5번지","indutype":"기타 - 기계공구","category":"other"},{"name":"위드미포천내촌점","tel":"02-6916-1500","addr":"경기도 포천시 내촌면 음현리 681-5번지","indutype":"유통업 영리 - 편 의 점","category":"other"}]},{"lat":"37.763292321","long":"127.22421676","imageIndex":17,"items":[{"name":"경일테크","tel":"031-531-8985","addr":"경기도 포천시 내촌면 음현리 559-1번지","indutype":"기타 - 기계공구","category":"other"}]},{"lat":"37.77973868","long":"127.22685388","imageIndex":17,"items":[{"name":"국제목공기계","tel":"031-533-8612","addr":"경기도 포천시 내촌면 음현리 723-4","indutype":"기타 - 기타 전문점","category":"other"}]},{"lat":"37.774789259","long":"127.23319523","imageIndex":17,"items":[{"name":"금성발전기상사","tel":"031-531-3330","addr":"경기도 포천시 내촌면 음현리 241번지","indutype":"건축자재 - 조명기구","category":"other"},{"name":"대일테크","tel":"031-531-6863","addr":"경기도 포천시 내촌면 음현리 241번지","indutype":"건축자재 - 유리","category":"other"}]},{"lat":"37.780623756","long":"127.22572141","imageIndex":17,"items":[{"name":"나무나라","tel":"031-533-3271","addr":"경기도 포천시 내촌면 음현리 760-3번지","indutype":"문화.취미 - 화원","category":"other"}]},{"lat":"37.78170448","long":"127.22594033","imageIndex":17,"items":[{"name":"내촌판넬","tel":"031-533-1721","addr":"경기도 포천시 내촌면 음현리 759-6번지","indutype":"건축자재 - 기타건축자재","category":"other"}]},{"lat":"37.770515669","long":"127.23477095","imageIndex":17,"items":[{"name":"녹색에너지열나라","tel":"031-528-1187","addr":"경기도 포천시 내촌면 음현리 80-3번지 1층","indutype":"전기제품 - 기타전기제품","category":"other"}]},{"lat":"37.778897387","long":"127.22388869","imageIndex":17,"items":[{"name":"누비엘","tel":"","addr":"경기도 포천시 내촌면 음현리 733-4번지","indutype":"가구 - 기타가구","category":"other"}]},{"lat":"37.772539583","long":"127.24090635","imageIndex":17,"items":[{"name":"대한불교조계종약천사","tel":"031-532-7374","addr":"경기도 포천시 내촌면 음현리 41-5","indutype":"신변잡화 - 기념품점","category":"other"}]},{"lat":"37.766017794","long":"127.22655146","imageIndex":17,"items":[{"name":"대희산업","tel":"031-532-5989","addr":"경기도 포천시 내촌면 음현리 588-1","indutype":"가구 - 일반가구","category":"other"},{"name":"주영레이저알곤용접","tel":"031-532-2345","addr":"경기도 포천시 내촌면 음현리 588-1번지","indutype":"기타 - 기계공구","category":"other"},{"name":"하승지게차","tel":"031-534-8098","addr":"경기도 포천시 내촌면 음현리 588-1번지","indutype":"기타 - 기계공구","category":"other"}]},{"lat":"37.76298506","long":"127.22471519","imageIndex":17,"items":[{"name":"동부상사","tel":"031-534-4868","addr":"경기도 포천시 내촌면 음현리 525-1번지 가동 1층","indutype":"유통업 영리 - 기타유통업","category":"other"}]},{"lat":"37.776953828","long":"127.23660719","imageIndex":17,"items":[{"name":"동신실업","tel":"031-487-0820","addr":"경기도 포천시 내촌면 음현리 138-4번지 139-3","indutype":"주방용구 - 주방용구","category":"other"}]},{"lat":"37.757983437","long":"127.22060365","imageIndex":17,"items":[{"name":"동양볼트공구철물","tel":"031-573-0409","addr":"경기도 포천시 내촌면 음현리 840-5번지","indutype":"기타 - 기계공구","category":"other"}]},{"lat":"37.782595209","long":"127.2265787","imageIndex":17,"items":[{"name":"맥스텔레콤","tel":"031-1688-7782","addr":"경기도 포천시 내촌면 음현리 765-4번지","indutype":"사무통신 - 통신기기","category":"other"}]},{"lat":"37.764766556","long":"127.22116828","imageIndex":17,"items":[{"name":"미래어패럴","tel":"031-532-3272","addr":"경기도 포천시 내촌면 음현리 813-2번지","indutype":"의류 - 정장","category":"other"}]},{"lat":"37.771711367","long":"127.23147183","imageIndex":17,"items":[{"name":"미래플러스","tel":"031-531-0942","addr":"경기도 포천시 내촌면 음현리 311-1번지 제2동","indutype":"가구 - 일반가구","category":"other"}]},{"lat":"37.77301723","long":"127.22704926","imageIndex":17,"items":[{"name":"바벤디자인","tel":"031-532-9546","addr":"경기도 포천시 내촌면 음현리 620-3번지","indutype":"가구 - 일반가구","category":"other"}]},{"lat":"37.763792178","long":"127.2266923","imageIndex":17,"items":[{"name":"보원산업","tel":"031-534-2554","addr":"경기도 포천시 내촌면 음현리 543번지 9호 외1필지","indutype":"기타 - 기계공구","category":"other"}]},{"lat":"37.762624938","long":"127.22457793","imageIndex":17,"items":[{"name":"사파리월드","tel":"070-7720-0949","addr":"경기도 포천시 내촌면 음현리 525-1번지 가동","indutype":"문화.취미 - 애완동물","category":"other"},{"name":"주식회사 보고산업","tel":"031-531-7102","addr":"경기도 포천시 내촌면 음현리 525-1번지 나동","indutype":"건축자재 - 기타건축자재","category":"other"}]},{"lat":"37.767906557","long":"127.22824822","imageIndex":17,"items":[{"name":"수공방","tel":"070-8210-6383","addr":"경기도 포천시 내촌면 음현리 396-9번지 가동","indutype":"문화.취미 - 민예·공예품","category":"other"}]},{"lat":"37.768205948","long":"127.22715958","imageIndex":17,"items":[{"name":"스타","tel":"544-8387","addr":"경기도 포천시 내촌면 음현리 602번지","indutype":"도소매 - 스포츠","category":"other"},{"name":"스타","tel":"031-544-8387","addr":"경기도 포천시 내촌면 음현리 602번지","indutype":"레져용품 - 골프용품 전문점","category":"other"}]},{"lat":"37.760205175","long":"127.22255072","imageIndex":17,"items":[{"name":"씨유포천금강로점","tel":"031-532-7978","addr":"경기도 포천시 내촌면 음현리 521-1번지","indutype":"유통업 영리 - 편 의 점","category":"other"}]},{"lat":"37.782955694","long":"127.22652303","imageIndex":17,"items":[{"name":"씨유포천내촌제일점","tel":"031-534-8885","addr":"경기도 포천시 내촌면 음현리 765번지","indutype":"유통업 영리 - 편 의 점","category":"other"}]},{"lat":"37.764316683","long":"127.22566113","imageIndex":17,"items":[{"name":"에스툴(S-TOOl)","tel":"031-531-0986","addr":"경기도 포천시 내촌면 음현리 549-1번지","indutype":"기타 - 기계공구","category":"other"}]},{"lat":"37.775648","long":"127.23633066","imageIndex":17,"items":[{"name":"엘에이치건설","tel":"031-542-4075","addr":"경기도 포천시 내촌면 음현리 139-17번지","indutype":"용역 서비스 - 기타용역서비스","category":"other"}]},{"lat":"37.767989289","long":"127.22738591","imageIndex":17,"items":[{"name":"여기야,주원골프존","tel":"031-531-3353","addr":"경기도 포천시 내촌면 음현리 604-2번지 602외1,602-5외2","indutype":"회원제형태 - 레져업소","category":"other"}]},{"lat":"37.773428957","long":"127.22846929","imageIndex":17,"items":[{"name":"영진산업","tel":"031-531-4748","addr":"경기도 포천시 내촌면 음현리 289","indutype":"기타 - 기타 전문점","category":"other"}]},{"lat":"37.781957066","long":"127.22577082","imageIndex":17,"items":[{"name":"영진포장비니루","tel":"031-531-0331","addr":"경기도 포천시 내촌면 음현리 759-1번지","indutype":"기타 - 기타 전문점","category":"other"},{"name":"원일산업","tel":"031-533-8407","addr":"경기도 포천시 내촌면 음현리 759-1번지","indutype":"건축자재 - 페인트","category":"other"}]},{"lat":"37.77732304","long":"127.24119411","imageIndex":17,"items":[{"name":"왕비가구","tel":"031-531-9715","addr":"경기도 포천시 내촌면 음현리 10-18","indutype":"가구 - 일반가구","category":"other"}]},{"lat":"37.76090139","long":"127.22602538","imageIndex":17,"items":[{"name":"원바운스","tel":"031-553-2148","addr":"경기도 포천시 내촌면 음현리 509-5번지","indutype":"서적문구 - 완구점","category":"other"}]},{"lat":"37.765127145","long":"127.22105585","imageIndex":17,"items":[{"name":"주식회사 반디오","tel":"031-533-4800","addr":"경기도 포천시 내촌면 음현리 810번지","indutype":"서적문구 - 과학기자재","category":"other"}]},{"lat":"37.764405575","long":"127.22629693","imageIndex":17,"items":[{"name":"주식회사대진판넬","tel":"031-534-7796","addr":"경기도 포천시 내촌면 음현리 548-5번지","indutype":"건축자재 - 기타건축자재","category":"other"}]},{"lat":"37.7774265","long":"127.22513291","imageIndex":17,"items":[{"name":"주신산업","tel":"031-527-8206","addr":"경기도 포천시 내촌면 음현리 695-10번지","indutype":"기타 - 기계공구","category":"other"}]},{"lat":"37.778486412","long":"127.2268274","imageIndex":17,"items":[{"name":"중고철제","tel":"031-573-8234","addr":"경기도 포천시 내촌면 음현리 718-7 .718-10","indutype":"신변잡화 - 기타잡화","category":"other"}]},{"lat":"37.755292341","long":"127.22396598","imageIndex":17,"items":[{"name":"타니전동차","tel":"02-3675-6186","addr":"경기도 포천시 내촌면 음현리 462번지","indutype":"용역 서비스 - 소프트웨어","category":"other"}]},{"lat":"37.758658413","long":"127.22100281","imageIndex":17,"items":[{"name":"태산기획","tel":"031-571-0942","addr":"경기도 포천시 내촌면 음현리 836-8번지","indutype":"기타 - 기계공구","category":"other"}]},{"lat":"37.759180368","long":"127.22613369","imageIndex":17,"items":[{"name":"태지상사","tel":"070-1111-1111","addr":"경기도 포천시 내촌면 음현리 489번지","indutype":"수리서비스 - 기타수리서비스","category":"other"}]},{"lat":"37.774989087","long":"127.22769084","imageIndex":17,"items":[{"name":"푸른들농원","tel":"031-531-2285","addr":"경기도 포천시 내촌면 음현리 223-6번지 일부","indutype":"문화.취미 - 화원","category":"other"}]},{"lat":"37.759316734","long":"127.2206643","imageIndex":17,"items":[{"name":"피엔에스","tel":"031-531-5925","addr":"경기도 포천시 내촌면 음현리 843-5번지 103호","indutype":"용역 서비스 - 종합용역","category":"other"}]},{"lat":"37.76751691","long":"127.22941602","imageIndex":17,"items":[{"name":"하은ENG","tel":"031-534-7145","addr":"경기도 포천시 내촌면 음현리 392-1","indutype":"기타 - 기계공구","category":"other"}]},{"lat":"37.775205681","long":"127.22749853","imageIndex":17,"items":[{"name":"현대철강","tel":"031-534-8500","addr":"경기도 포천시 내촌면 음현리 645-2","indutype":"건축자재 - 기타건축자재","category":"other"}]}]