[{"lat":"37.40792237","long":"127.258509","imageIndex":8,"items":[{"name":"가인정신건강의학과의원","tel":"031-763-3267","addr":"경기도 광주시 역동 8-20번지 서울클리닉센터 702호","indutype":"의원 - 의원","category":"medical"},{"name":"강남성모안과","tel":"031-798-3355","addr":"경기도 광주시 역동 8-20번지 2층 203호","indutype":"의원 - 의원","category":"medical"},{"name":"미래신경과의원","tel":"031-765-1116","addr":"경기도 광주시 역동 8-20번지 서울크리닉 A동 7층","indutype":"의원 - 의원","category":"medical"},{"name":"서울산부인과","tel":"031-798-0300","addr":"경기도 광주시 역동 8-20번지 광주종합메디컬센터 5층","indutype":"의원 - 의원","category":"medical"},{"name":"서울소아과","tel":"031-798-0900","addr":"경기도 광주시 역동 8-20번지 서울클리닉센터 5층","indutype":"의원 - 의원","category":"medical"},{"name":"서울청아치과","tel":"031-798-2875","addr":"경기도 광주시 역동 8-20번지","indutype":"의원 - 치과의원","category":"medical"},{"name":"윤내과","tel":"031-761-7151","addr":"경기도 광주시 역동 8-20번지 서울클리닉 3층 302호","indutype":"의원 - 의원","category":"medical"},{"name":"전영훈이비인후과","tel":"031-761-6224","addr":"경기도 광주시 역동 8-20번지 성루클리닉센터 2층 202호","indutype":"의원 - 의원","category":"medical"}]},{"lat":"37.40836411","long":"127.2583975","imageIndex":8,"items":[{"name":"광주으뜸약국","tel":"031-765-5010","addr":"경기도 광주시 역동 20-15번지","indutype":"약국 - 약국","category":"medical"},{"name":"굿모닝경희한의원","tel":"031-766-7525","addr":"경기도 광주시 역동 20-15번지","indutype":"의원 - 한의원","category":"medical"}]},{"lat":"37.40805454","long":"127.2598874","imageIndex":8,"items":[{"name":"광주한의원","tel":"031-762-3838","addr":"경기도 광주시 역동 23-10번지","indutype":"의원 - 한의원","category":"medical"}]},{"lat":"37.40808397","long":"127.2587806","imageIndex":8,"items":[{"name":"김경남치과의원","tel":"031-761-9674","addr":"경기도 광주시 역동 22-10번지","indutype":"의원 - 치과의원","category":"medical"},{"name":"삼성맑은비뇨기과의원","tel":"031-766-0360","addr":"경기도 광주시 역동 22-10","indutype":"의원 - 의원","category":"medical"}]},{"lat":"37.40630471","long":"127.2607511","imageIndex":8,"items":[{"name":"나비누리동물병원","tel":"031-763-7583","addr":"경기도 광주시 역동 27-9번지","indutype":"기타의료기관 - 동물병원","category":"medical"}]},{"lat":"37.40805801","long":"127.2582835","imageIndex":8,"items":[{"name":"더화이트치과의원","tel":"031-768-2002","addr":"경기도 광주시 역동 8-19번지 4층","indutype":"의원 - 치과의원","category":"medical"},{"name":"행복마취통증의학과의원","tel":"031-767-3375","addr":"경기도 광주시 역동 8-19번지 성환빌딩 6층","indutype":"의원 - 의원","category":"medical"}]},{"lat":"37.40784045","long":"127.2588927","imageIndex":8,"items":[{"name":"독일약국","tel":"031-762-4870","addr":"경기도 광주시 역동 22-14","indutype":"약국 - 약국","category":"medical"},{"name":"서울현치과의원","tel":"031-768-2080","addr":"경기도 광주시 역동 22-14번지 201호","indutype":"의원 - 치과의원","category":"medical"}]},{"lat":"37.4084177","long":"127.2586123","imageIndex":8,"items":[{"name":"밝은약국","tel":"031-761-3894","addr":"경기도 광주시 역동 20-12번지 1층","indutype":"약국 - 약국","category":"medical"}]},{"lat":"37.40783925","long":"127.2594462","imageIndex":8,"items":[{"name":"상현약국","tel":"031-768-2785","addr":"경기도 광주시 역동 23-2번지 1층","indutype":"약국 - 약국","category":"medical"},{"name":"조은가정의학과","tel":"031-768-3515","addr":"경기도 광주시 역동 23-2번지 대영빌딩 2층","indutype":"의원 - 의원","category":"medical"},{"name":"조은이비인후과","tel":"031-768-3515","addr":"경기도 광주시 역동 23-2번지 대영빌딩 2층","indutype":"의원 - 의원","category":"medical"},{"name":"한&고치과의원","tel":"031-766-2875","addr":"경기도 광주시 역동 23-2번지","indutype":"의원 - 치과의원","category":"medical"}]},{"lat":"37.40730796","long":"127.2593088","imageIndex":8,"items":[{"name":"스마일어게인치과","tel":"031-762-2882","addr":"경기도 광주시 역동 23-4 3층","indutype":"의원 - 치과의원","category":"medical"},{"name":"평화약국","tel":"031-768-5952","addr":"경기도 광주시 역동 23-4번지 신흥빌딩","indutype":"약국 - 약국","category":"medical"},{"name":"평화약국","tel":"031-768-5952","addr":"경기도 광주시 역동 23-4번지 신흥빌딩 1층","indutype":"약국 - 약국","category":"medical"},{"name":"행복한경희한의원","tel":"031-764-3075","addr":"경기도 광주시 역동 23-4번지 2층","indutype":"의원 - 한의원","category":"medical"}]},{"lat":"37.40697199","long":"127.2605049","imageIndex":8,"items":[{"name":"신장가축동물병원","tel":"031-762-2108","addr":"경기도 광주시 역동 27-63번지","indutype":"기타의료기관 - 동물병원","category":"medical"}]},{"lat":"37.40675526","long":"127.2565623","imageIndex":8,"items":[{"name":"유명약국","tel":"031-761-3172","addr":"경기도 광주시 역동 3-19번지","indutype":"약국 - 약국","category":"medical"}]},{"lat":"37.40836274","long":"127.25903","imageIndex":8,"items":[{"name":"협동가축병원","tel":"031-761-2259","addr":"경기도 광주시 역동 22-26번지","indutype":"기타의료기관 - 동물병원","category":"medical"}]},{"lat":"37.40825696","long":"127.2579454","imageIndex":8,"items":[{"name":"황제한의원","tel":"031-766-1441","addr":"경기도 광주시 역동 20-1번지 한미빌딩 2층","indutype":"의원 - 한의원","category":"medical"}]}]