[{"lat":"37.46168545","long":"126.8839515","imageIndex":7,"items":[{"name":"경일하이퍼마켓","tel":"070-8880-3186","addr":"경기도 광명시 하안동 110번지 하안12단지고층주공아파트 110(12단지상가)","indutype":"유통업 영리 - 슈퍼마켓","category":"mart"}]},{"lat":"37.46148617","long":"126.8829007","imageIndex":7,"items":[{"name":"광명와이엠씨에이등대소비자생활협동조합","tel":"02-899-2081","addr":"경기도 광명시 하안동 110-5번지 제1층 105","indutype":"유통업 영리 - 슈퍼마켓","category":"mart"}]},{"lat":"37.45715295","long":"126.883484","imageIndex":7,"items":[{"name":"농심가슈퍼","tel":"02-891-2199","addr":"경기도 광명시 하안동 260-3번지 8단지 상가 101호","indutype":"유통업 영리 - 슈퍼마켓","category":"mart"},{"name":"싱싱마트","tel":"02-891-2199","addr":"경기도 광명시 하안동 260-3번지 하안주공8단지일반상가 101호","indutype":"유통업 영리 - 슈퍼마켓","category":"mart"}]},{"lat":"37.46429705","long":"126.8741247","imageIndex":7,"items":[{"name":"럭키슈퍼","tel":"02-809-1676","addr":"경기도 광명시 하안동 682-1번지 1단지 상가 111호","indutype":"유통업 영리 - 슈퍼마켓","category":"mart"}]},{"lat":"37.46465525","long":"126.864211","imageIndex":7,"items":[{"name":"럭키슈퍼","tel":"02-898-9890","addr":"경기도 광명시 하안동 702-2번지 일반상가제1층 102호","indutype":"유통업 영리 - 슈퍼마켓","category":"mart"}]},{"lat":"37.45882571","long":"126.8720431","imageIndex":7,"items":[{"name":"럭키하이퍼마켓","tel":"02-897-0075","addr":"경기도 광명시 하안동 595-5번지","indutype":"유통업 영리 - 슈퍼마켓","category":"mart"}]},{"lat":"37.46512676","long":"126.8667873","imageIndex":7,"items":[{"name":"무지개마트","tel":"02-898-8603","addr":"경기도 광명시 하안동 702-1번지 (5단지종합상가108,109,112,113호)","indutype":"유통업 영리 - 슈퍼마켓","category":"mart"}]},{"lat":"37.45304742","long":"126.8617121","imageIndex":7,"items":[{"name":"부자마트","tel":"02-862-0123","addr":"경기도 광명시 하안동 877번지 1층","indutype":"유통업 영리 - 슈퍼마켓","category":"mart"}]},{"lat":"37.46854203","long":"126.8672107","imageIndex":7,"items":[{"name":"우리유기농(하안점)","tel":"02-899-3030","addr":"경기도 광명시 하안동 864 이편한세상센트레빌나상가102호2분의1(대로변쪽)","indutype":"유통업 영리 - 슈퍼마켓","category":"mart"}]},{"lat":"37.45990581","long":"126.8793993","imageIndex":7,"items":[{"name":"일진홈마트","tel":"02-898-8338","addr":"경기도 광명시 하안동 295-1 101호,102호","indutype":"유통업 영리 - 슈퍼마켓","category":"mart"}]},{"lat":"37.46334687","long":"126.8786816","imageIndex":7,"items":[{"name":"장미슈퍼","tel":"02-891-2880","addr":"경기도 광명시 하안동 34번지 한일빌딩 1층 106호","indutype":"유통업 영리 - 슈퍼마켓","category":"mart"}]},{"lat":"37.4610435","long":"126.87326","imageIndex":7,"items":[{"name":"정진슈퍼","tel":"02-898-0141","addr":"경기도 광명시 하안동 582번지 1층 101호","indutype":"유통업 영리 - 슈퍼마켓","category":"mart"}]},{"lat":"37.46925061","long":"126.8723641","imageIndex":7,"items":[{"name":"초록마을광명철산2호점","tel":"02-899-6255","addr":"경기도 광명시 하안동 863번지 광명두산위브트레지움 207동 109호","indutype":"유통업 영리 - 슈퍼마켓","category":"mart"}]},{"lat":"37.46096327","long":"126.87404","imageIndex":7,"items":[{"name":"코리아마트","tel":"02-897-0306","addr":"경기도 광명시 하안동 598-11번지","indutype":"유통업 영리 - 슈퍼마켓","category":"mart"}]},{"lat":"37.46610233","long":"126.8771736","imageIndex":7,"items":[{"name":"풍년마트","tel":"02-804-4900","addr":"경기도 광명시 하안동 13-2번지 112(9단지종합상가)","indutype":"유통업 영리 - 슈퍼마켓","category":"mart"}]},{"lat":"37.46265519","long":"126.8806834","imageIndex":7,"items":[{"name":"하안도깨비","tel":"02-806-4097","addr":"경기도 광명시 하안동 53-4번지 천일빌딩 지하1층","indutype":"유통업 영리 - 슈퍼마켓","category":"mart"}]},{"lat":"37.46262666","long":"126.8792366","imageIndex":7,"items":[{"name":"하안소비자마트","tel":"02-893-0831","addr":"경기도 광명시 하안동 34-5번지 성원빌딩 지하1층","indutype":"유통업 영리 - 슈퍼마켓","category":"mart"}]},{"lat":"37.46021462","long":"126.8732953","imageIndex":7,"items":[{"name":"해태마트","tel":"02-831-5252","addr":"경기도 광명시 하안동 601-6번지 1층","indutype":"유통업 영리 - 슈퍼마켓","category":"mart"}]}]