[{"lat":"36.953141284","long":"127.24082496","imageIndex":17,"items":[{"name":"(주)삼일이엔티","tel":"031-675-1862","addr":"경기도 안성시 미양면 양변리 296번지 B동","indutype":"용역 서비스 - 기타용역서비스","category":"other"},{"name":"케이프라스틱","tel":"070-5022-0467","addr":"경기도 안성시 미양면 양변리 296번지","indutype":"유통업 영리 - 기타유통업","category":"other"}]},{"lat":"36.950971032","long":"127.24015581","imageIndex":17,"items":[{"name":"(주)세창에스엠씨","tel":"041-558-4114","addr":"경기도 안성시 미양면 양변리 362-10번지","indutype":"건축자재 - 기타건축자재","category":"other"}]},{"lat":"36.951367662","long":"127.24454686","imageIndex":17,"items":[{"name":"(주)이엘에스/휴게편의점","tel":"031-673-5179","addr":"경기도 안성시 미양면 양변리 211","indutype":"유통업 영리 - 편 의 점","category":"other"}]},{"lat":"36.957001682","long":"127.24782077","imageIndex":17,"items":[{"name":"(주)코멕스카본","tel":"031-671-7964","addr":"경기도 안성시 미양면 양변리 464번지","indutype":"기타 - 기타 전문점","category":"other"}]},{"lat":"36.96099997","long":"127.24463344","imageIndex":17,"items":[{"name":"늑대와여우","tel":"031-671-0119","addr":"경기도 안성시 미양면 양변리 240-19번지 금화마을 상가동 105호","indutype":"사무통신 - 컴퓨터","category":"other"}]},{"lat":"36.9561095","long":"127.252208","imageIndex":17,"items":[{"name":"디지털라인","tel":"031-677-3361","addr":"경기도 안성시 미양면 양변리 16","indutype":"사무통신 - 컴퓨터","category":"other"}]},{"lat":"36.954838716","long":"127.24360347","imageIndex":17,"items":[{"name":"미니스톱안성미양점","tel":"031-1577-9621","addr":"경기도 안성시 미양면 양변리 245-2번지","indutype":"유통업 영리 - 편 의 점","category":"other"}]},{"lat":"36.958560379","long":"127.24349168","imageIndex":17,"items":[{"name":"삼원에스티산업","tel":"031-675-3585","addr":"경기도 안성시 미양면 양변리 240-7번지","indutype":"건축자재 - 기타건축자재","category":"other"}]},{"lat":"36.954450573","long":"127.24393908","imageIndex":17,"items":[{"name":"선진자원","tel":"031-677-4344","addr":"경기도 안성시 미양면 양변리 249번지","indutype":"기타 - 기타 전문점","category":"other"},{"name":"주식회사 선진환경자원","tel":"031-677-4344","addr":"경기도 안성시 미양면 양변리 249번지","indutype":"신변잡화 - 기타잡화","category":"other"}]},{"lat":"36.958477757","long":"127.2442437","imageIndex":17,"items":[{"name":"세븐일레븐안성미양점","tel":"","addr":"경기도 안성시 미양면 양변리 240-53번지","indutype":"유통업 영리 - 편 의 점","category":"other"}]},{"lat":"36.948447229","long":"127.24055215","imageIndex":17,"items":[{"name":"슈가플랜트","tel":"031-0000-0000","addr":"경기도 안성시 미양면 양변리 178-1번지","indutype":"문화.취미 - 화원","category":"other"}]},{"lat":"36.950949796","long":"127.2372367","imageIndex":17,"items":[{"name":"씨와이패키지 주식회사","tel":"031-677-9077","addr":"경기도 안성시 미양면 양변리 376번지","indutype":"유통업 영리 - 기타유통업","category":"other"}]},{"lat":"36.957117143","long":"127.24423941","imageIndex":17,"items":[{"name":"온통소통만물매장","tel":"031-656-1857","addr":"경기도 안성시 미양면 양변리 241-6번지 C동 4호","indutype":"전기제품 - 가전제품","category":"other"}]},{"lat":"36.954172084","long":"127.24352278","imageIndex":17,"items":[{"name":"창신산업","tel":"031-677-0902","addr":"경기도 안성시 미양면 양변리 248","indutype":"기타 - 기계공구","category":"other"}]},{"lat":"36.957698294","long":"127.2508209","imageIndex":4,"items":[{"name":"(주)아워홈 무진전자안성점","tel":"02-6966-9049","addr":"경기도 안성시 미양면 양변리 454번지","indutype":"일반휴게음식 - 위탁급식업","category":"restaurant"}]},{"lat":"36.95953004","long":"127.24521266","imageIndex":4,"items":[{"name":"과수원","tel":"031-677-5035","addr":"경기도 안성시 미양면 양변리 239-27번지 가동","indutype":"일반휴게음식 - 일반한식","category":"restaurant"}]},{"lat":"36.95792012","long":"127.24373668","imageIndex":4,"items":[{"name":"깡통구이","tel":"031-674-9655","addr":"경기도 안성시 미양면 양변리 240-56번지 가동 102호","indutype":"일반휴게음식 - 일반한식","category":"restaurant"},{"name":"맨도롱","tel":"031-676-9048","addr":"경기도 안성시 미양면 양변리 240-56번지 가동103,104,105호","indutype":"일반휴게음식 - 일반한식","category":"restaurant"}]},{"lat":"36.958081857","long":"127.24396175","imageIndex":4,"items":[{"name":"남애항","tel":"031-631-1345","addr":"경기도 안성시 미양면 양변리 240-58번지 1동 1층","indutype":"일반휴게음식 - 일식·회집","category":"restaurant"},{"name":"우미관","tel":"031-677-8702","addr":"경기도 안성시 미양면 양변리 240-58번지 1층","indutype":"일반휴게음식 - 중국식","category":"restaurant"}]},{"lat":"36.959891611","long":"127.24465239","imageIndex":4,"items":[{"name":"노걸대감자탕","tel":"031-672-1600","addr":"경기도 안성시 미양면 양변리 240-64번지 1동 1층","indutype":"일반휴게음식 - 일반한식","category":"restaurant"}]},{"lat":"36.95244378","long":"127.24265284","imageIndex":4,"items":[{"name":"모가네가마솥돼지국밥","tel":"031-676-8852","addr":"경기도 안성시 미양면 양변리 259번지","indutype":"일반휴게음식 - 일반한식","category":"restaurant"}]},{"lat":"36.953253903","long":"127.2430708","imageIndex":4,"items":[{"name":"밥House(하우스)","tel":"031-675-2709","addr":"경기도 안성시 미양면 양변리 265-5번지 가동 1층","indutype":"일반휴게음식 - 일반한식","category":"restaurant"}]},{"lat":"36.957864185","long":"127.24465721","imageIndex":4,"items":[{"name":"병천토종순대","tel":"031-677-2070","addr":"경기도 안성시 미양면 양변리 239-9번지","indutype":"일반휴게음식 - 일반한식","category":"restaurant"}]},{"lat":"36.956005028","long":"127.25474515","imageIndex":4,"items":[{"name":"산해진미","tel":"031-675-1074","addr":"경기도 안성시 미양면 양변리 3-1번지 1층","indutype":"일반휴게음식 - 일반한식","category":"restaurant"}]},{"lat":"36.9587838","long":"127.24440187","imageIndex":4,"items":[{"name":"이로푸드","tel":"031-677-7999","addr":"경기도 안성시 미양면 양변리 240-23번지","indutype":"일반휴게음식 - 일반한식","category":"restaurant"}]},{"lat":"36.952615867","long":"127.24221552","imageIndex":4,"items":[{"name":"정가네 돼지국밥","tel":"031-677-9669","addr":"경기도 안성시 미양면 양변리 269번지 C동 1층","indutype":"일반휴게음식 - 일반한식","category":"restaurant"},{"name":"천문대소국밥해물알탕","tel":"031-676-0063","addr":"경기도 안성시 미양면 양변리 269번지 A동","indutype":"일반휴게음식 - 일반한식","category":"restaurant"}]},{"lat":"36.957695012","long":"127.24365737","imageIndex":4,"items":[{"name":"파육장 안성점","tel":"031-676-8259","addr":"경기도 안성시 미양면 양변리 240-54번지 가동 103호","indutype":"일반휴게음식 - 일반한식","category":"restaurant"}]},{"lat":"36.953056621","long":"127.24259863","imageIndex":4,"items":[{"name":"한우설렁탕","tel":"031-675-6177","addr":"경기도 안성시 미양면 양변리 264-2번지 1층","indutype":"일반휴게음식 - 일반한식","category":"restaurant"}]},{"lat":"36.952776836","long":"127.2428223","imageIndex":4,"items":[{"name":"한중원","tel":"031-677-1989","addr":"경기도 안성시 미양면 양변리 265-1번지","indutype":"일반휴게음식 - 중국식","category":"restaurant"}]},{"lat":"36.951367662","long":"127.24454686","imageIndex":9,"items":[{"name":"(주)이엘에스/양변LPG충전소","tel":"031-673-5179","addr":"경기도 안성시 미양면 양변리 211","indutype":"연료판매점 - SK가스충전소","category":"oil"},{"name":"(주)이엘에스양변주유소","tel":"031-673-5179","addr":"경기도 안성시 미양면 양변리 211","indutype":"연료판매점 - SK주유소","category":"oil"}]},{"lat":"36.961389308","long":"127.25243856","imageIndex":0,"items":[{"name":"(주)코코썬루프","tel":"031-677-8885","addr":"경기도 안성시 미양면 양변리 446-3번지","indutype":"자동차정비 유지 - 자동차부품","category":"car"}]},{"lat":"36.959279091","long":"127.2445494","imageIndex":0,"items":[{"name":"오토테크","tel":"031-673-0077","addr":"경기도 안성시 미양면 양변리 240-1번지","indutype":"자동차정비 유지 - 자동차정비","category":"car"}]},{"lat":"36.950665057","long":"127.24443237","imageIndex":0,"items":[{"name":"카앤샵","tel":"031-499-3703","addr":"경기도 안성시 미양면 양변리 211-9번지 202호","indutype":"자동차정비 유지 - 자동차부품","category":"car"}]},{"lat":"36.958612757","long":"127.24432273","imageIndex":7,"items":[{"name":"(주)판라다푸드","tel":"","addr":"경기도 안성시 미양면 양변리 240번지 101호","indutype":"음료식품 - 농·축·수산품","category":"food"}]},{"lat":"36.957695012","long":"127.24365737","imageIndex":7,"items":[{"name":"마천농산","tel":"031-675-6871","addr":"경기도 안성시 미양면 양변리 240-54번지 가동 101호","indutype":"음료식품 - 정육점","category":"food"}]},{"lat":"36.950085127","long":"127.24157889","imageIndex":7,"items":[{"name":"미양농장","tel":"031-1111-1111","addr":"경기도 안성시 미양면 양변리 175-6번지","indutype":"음료식품 - 농·축·수산품","category":"food"}]},{"lat":"36.9587838","long":"127.24440187","imageIndex":7,"items":[{"name":"이로푸드","tel":"031-677-7999","addr":"경기도 안성시 미양면 양변리 240-23번지 2층","indutype":"음료식품 - 기타음료식품","category":"food"}]},{"lat":"36.957867217","long":"127.24757653","imageIndex":7,"items":[{"name":"주식회사 현대에프앤비","tel":"070-4948-1735","addr":"경기도 안성시 미양면 양변리 463번지","indutype":"음료식품 - 기타음료식품","category":"food"}]},{"lat":"36.957864185","long":"127.24465721","imageIndex":13,"items":[{"name":"달빛노래연습장","tel":"031-677-2004","addr":"경기도 안성시 미양면 양변리 239-9","indutype":"레저업소 - 노 래 방","category":"leisure"}]},{"lat":"36.958477757","long":"127.2442437","imageIndex":8,"items":[{"name":"미양성심약국","tel":"031-677-6174","addr":"경기도 안성시 미양면 양변리 240-53번지","indutype":"약국 - 약국","category":"medical"}]},{"lat":"36.957864185","long":"127.24465721","imageIndex":7,"items":[{"name":"오대슈퍼","tel":"031-675-3566","addr":"경기도 안성시 미양면 양변리 239-9번지","indutype":"유통업 영리 - 슈퍼마켓","category":"mart"}]}]