[{"lat":"37.749898848","long":"127.11247988","imageIndex":7,"items":[{"name":"(주)도드람푸드 도드람미트마켓(민락점)","tel":"031-777-3361","addr":"경기도 의정부시 민락동 889번지 의정부민락우미린더스카이 상가동 1층 110호","indutype":"음료식품 - 정육점","category":"food"}]},{"lat":"37.737178513","long":"127.08943123","imageIndex":7,"items":[{"name":"180도 오븐","tel":"031-851-7845","addr":"경기도 의정부시 민락동 750-10번지 푸른빌 1층 지상 1층","indutype":"음료식품 - 제과점","category":"food"}]},{"lat":"37.746625158","long":"127.09520611","imageIndex":7,"items":[{"name":"CORE(코레)","tel":"031-846-0450","addr":"경기도 의정부시 민락동 837번지 도영빌딩 1층 106호","indutype":"음료식품 - 제과점","category":"food"}]},{"lat":"37.737293418","long":"127.0924037","imageIndex":7,"items":[{"name":"H점핑프로틴 다이어트","tel":"031-853-2988","addr":"경기도 의정부시 민락동 573-4번지 세종빌딩 3층","indutype":"회원제형태 - 건강식품","category":"food"},{"name":"뚜레쥬르 의정부민락행복(2)","tel":"031-846-1314","addr":"경기도 의정부시 민락동 573-4번지 204~205호","indutype":"음료식품 - 제과점","category":"food"},{"name":"에이치와이트레이딩","tel":"070-4710-0011","addr":"경기도 의정부시 민락동 573-4번지 세종빌딩 501호","indutype":"건강식품 - 기타건강식품","category":"food"}]},{"lat":"37.745488257","long":"127.0973491","imageIndex":7,"items":[{"name":"JS스크린골프연습장","tel":"031-875-2700","addr":"경기도 의정부시 민락동 838번지","indutype":"음료식품 - 기타음료식품","category":"food"}]},{"lat":"37.740959098","long":"127.09398512","imageIndex":7,"items":[{"name":"경기축산물직매장","tel":"031-851-3477","addr":"경기도 의정부시 민락동 693거성빌딩103","indutype":"음료식품 - 정육점","category":"food"},{"name":"알뜰유통","tel":"031-827-9288","addr":"경기도 의정부시 민락동 693-1번지 거성프라자빌딩 1층 102호","indutype":"음료식품 - 농·축·수산품","category":"food"},{"name":"춤추는 왕만두","tel":"031-852-0851","addr":"경기도 의정부시 민락동 693-1번지 거성프라자빌딩","indutype":"음료식품 - 기타음료식품","category":"food"}]},{"lat":"37.737824749","long":"127.09271065","imageIndex":7,"items":[{"name":"구구부대찌개","tel":"031-861-8832","addr":"경기도 의정부시 민락동 574번지 삼보빌딩 2층 202호","indutype":"음료식품 - 기타음료식품","category":"food"},{"name":"오투바디슬림","tel":"070-269-2312","addr":"경기도 의정부시 민락동 574번지 삼보빌딩 302호","indutype":"건강식품 - 기타건강식품","category":"food"},{"name":"위드유","tel":"031-821-6088","addr":"경기도 의정부시 민락동 574번지 삼보빌딩 1층 104호","indutype":"음료식품 - 기타음료식품","category":"food"},{"name":"해바라기축산물","tel":"031-852-8340","addr":"경기도 의정부시 민락동 574번지 삼보빌딩","indutype":"음료식품 - 정육점","category":"food"}]},{"lat":"37.744876413","long":"127.09633853","imageIndex":7,"items":[{"name":"구환희마약단팥빵","tel":"","addr":"경기도 의정부시 민락동 809-1번지 마운틴프라자 1층 102호","indutype":"음료식품 - 제과점","category":"food"},{"name":"아이스케키","tel":"070-4124-5695","addr":"경기도 의정부시 민락동 809-1번지 마운틴프라자 1층 102호","indutype":"음료식품 - 제과점","category":"food"}]},{"lat":"37.739516794","long":"127.09498172","imageIndex":7,"items":[{"name":"그로벌유통","tel":"070-7786-2100","addr":"경기도 의정부시 민락동 533-7번지 201호","indutype":"음료식품 - 농·축·수산품","category":"food"}]},{"lat":"37.749652898","long":"127.11533888","imageIndex":7,"items":[{"name":"깨금족발","tel":"","addr":"경기도 의정부시 민락동 890번지 민락엘레트19단지 1902동 2701호","indutype":"음료식품 - 기타음료식품","category":"food"}]},{"lat":"37.746317651","long":"127.09670342","imageIndex":7,"items":[{"name":"나주 축산물 도소매센터","tel":"031-111-1111","addr":"경기도 의정부시 민락동 833-2번지 1층","indutype":"음료식품 - 정육점","category":"food"}]},{"lat":"37.74079697","long":"127.09392819","imageIndex":7,"items":[{"name":"나주축산물도.소매센타","tel":"031-853-0282","addr":"경기도 의정부시 민락동 693-2번지 105호","indutype":"음료식품 - 정육점","category":"food"},{"name":"진이찬방","tel":"031-853-7771","addr":"경기도 의정부시 민락동 693-2번지 106호 , 상가","indutype":"음료식품 - 기타음료식품","category":"food"}]},{"lat":"37.745904217","long":"127.09543213","imageIndex":7,"items":[{"name":"네이처시가(의정부민락점)","tel":"031-528-6263","addr":"경기도 의정부시 민락동 813-2번지 로데오프라자 102호","indutype":"음료식품 - 기타음료식품","category":"food"},{"name":"탱자점핑","tel":"","addr":"경기도 의정부시 민락동 813-2번지 로데오프라자 2층 203호","indutype":"건강식품 - 기타건강식품","category":"food"}]},{"lat":"37.744848515","long":"127.09742771","imageIndex":7,"items":[{"name":"노마진아이스크림 (민락점)","tel":"02-1111-1111","addr":"경기도 의정부시 민락동 812-4번지 골드프라자3차 1층 123호","indutype":"음료식품 - 기타음료식품","category":"food"},{"name":"브리에","tel":"031-852-1778","addr":"경기도 의정부시 민락동 812-4번지 407호","indutype":"음료식품 - 기타음료식품","category":"food"},{"name":"브리에","tel":"031-851-1777","addr":"경기도 의정부시 민락동 812-4번지 101,102,103호","indutype":"음료식품 - 제과점","category":"food"}]},{"lat":"37.74659498","long":"127.09914321","imageIndex":7,"items":[{"name":"농업회사법인 한빛에프앤비주식회사","tel":"031-852-2280","addr":"경기도 의정부시 민락동 822-8번지 102호","indutype":"건강식품 - 인삼제품","category":"food"}]},{"lat":"37.746541569","long":"127.0983489","imageIndex":7,"items":[{"name":"다찬","tel":"031-852-5140","addr":"경기도 의정부시 민락동 824-4번지 1층 지상 1층","indutype":"음료식품 - 기타음료식품","category":"food"}]},{"lat":"37.750704405","long":"127.11804101","imageIndex":7,"items":[{"name":"다채랑","tel":"070-8623-3658","addr":"경기도 의정부시 민락동 902-4번지 보광프라자 104호","indutype":"음료식품 - 기타음료식품","category":"food"},{"name":"떡 맛스러움","tel":"031-851-1375","addr":"경기도 의정부시 민락동 902-4번지 보광프라자 117호","indutype":"음료식품 - 제과점","category":"food"},{"name":"싱싱야채","tel":"","addr":"경기도 의정부시 민락동 902-4번지 보광프라자 1층 110호","indutype":"음료식품 - 농·축·수산품","category":"food"}]},{"lat":"37.738709879","long":"127.08978471","imageIndex":7,"items":[{"name":"달콤아이스크림","tel":"070-8616-2223","addr":"경기도 의정부시 민락동 617-16번지 103호","indutype":"음료식품 - 기타음료식품","category":"food"},{"name":"아이스따봉","tel":"070-8262-7646","addr":"경기도 의정부시 민락동 617-16번지 103호","indutype":"음료식품 - 기타음료식품","category":"food"}]},{"lat":"37.744541698","long":"127.09803999","imageIndex":7,"items":[{"name":"대만언니 대왕카스테라","tel":"031-853-7888","addr":"경기도 의정부시 민락동 804번지,지상1층 116호(예스타워포시즌)","indutype":"음료식품 - 제과점","category":"food"},{"name":"아싸비어 민락점","tel":"","addr":"경기도 의정부시 민락동 804번지 1층 104호","indutype":"음료식품 - 기타음료식품","category":"food"}]},{"lat":"37.740654471","long":"127.09176107","imageIndex":7,"items":[{"name":"대웅건강원","tel":"031-851-3737","addr":"경기도 의정부시 민락동 705-2번지 태원프라자 103호","indutype":"건강식품 - 기타건강식품","category":"food"}]},{"lat":"37.739347156","long":"127.09298477","imageIndex":7,"items":[{"name":"더가루","tel":"031-853-1008","addr":"경기도 의정부시 민락동 551-2번지","indutype":"음료식품 - 기타음료식품","category":"food"}]},{"lat":"37.742568024","long":"127.08695282","imageIndex":7,"items":[{"name":"더드림","tel":"000-000-0000","addr":"경기도 의정부시 민락동 733-5번지 102호","indutype":"음료식품 - 기타음료식품","category":"food"},{"name":"킹아이스크림할인점 (민락점)","tel":"031-915-1096","addr":"경기도 의정부시 민락동 733-5번지 105호","indutype":"음료식품 - 제과점","category":"food"}]},{"lat":"37.745237341","long":"127.09564688","imageIndex":7,"items":[{"name":"던킨도너츠(의정부민락점)","tel":"031-853-1744","addr":"경기도 의정부시 민락동 808-4번지 폴리프라자2 1층 104호,105호","indutype":"음료식품 - 제과점","category":"food"}]},{"lat":"37.746903559","long":"127.09634108","imageIndex":7,"items":[{"name":"드미엘","tel":"031-855-8110","addr":"경기도 의정부시 민락동 830-1번지 대산빌딩 103호","indutype":"음료식품 - 제과점","category":"food"}]},{"lat":"37.744149358","long":"127.0928431","imageIndex":7,"items":[{"name":"떡맛스러움","tel":"031-853-9599","addr":"경기도 의정부시 민락동 794-3번지 1층","indutype":"음료식품 - 제과점","category":"food"}]},{"lat":"37.74237768","long":"127.08854098","imageIndex":7,"items":[{"name":"리즈허브다이어트클럽","tel":"070-4154-3882","addr":"경기도 의정부시 민락동 735-5번지 송산푸르지오 109호","indutype":"건강식품 - 기타건강식품","category":"food"},{"name":"잔치떡집","tel":"031-827-9019","addr":"경기도 의정부시 민락동 735-5프르지오상가104","indutype":"음료식품 - 제과점","category":"food"}]},{"lat":"37.744488379","long":"127.09712091","imageIndex":7,"items":[{"name":"마더스베베","tel":"02-0000-0000","addr":"경기도 의정부시 민락동 811-1번지 폴리프라자 501호","indutype":"음료식품 - 기타음료식품","category":"food"},{"name":"빵공장리오","tel":"031-851-9667","addr":"경기도 의정부시 민락동 811-1번지 폴리프라자 1층 106호","indutype":"음료식품 - 제과점","category":"food"}]},{"lat":"37.74575985","long":"127.09570426","imageIndex":7,"items":[{"name":"마마쿡","tel":"031-851-2610","addr":"경기도 의정부시 민락동 813-3번지 107,108호","indutype":"음료식품 - 기타음료식품","category":"food"}]},{"lat":"37.740319935","long":"127.09331497","imageIndex":7,"items":[{"name":"마이찬","tel":"","addr":"경기도 의정부시 민락동 700-3번지 한영빌딩 1층","indutype":"음료식품 - 기타음료식품","category":"food"},{"name":"행복한 고기마을","tel":"031-851-5664","addr":"경기도 의정부시 민락동 700-3번지 민락한영프라자 107호","indutype":"음료식품 - 정육점","category":"food"}]},{"lat":"37.745544102","long":"127.0950913","imageIndex":7,"items":[{"name":"마카롱작업실","tel":"070-8836-8221","addr":"경기도 의정부시 민락동 808-2번지 트윈타워 108호,204호","indutype":"음료식품 - 기타음료식품","category":"food"},{"name":"마카롱작업실","tel":"070-8836-8221","addr":"경기도 의정부시 민락동 808-2번지 1층 108호","indutype":"음료식품 - 기타음료식품","category":"food"}]},{"lat":"37.741378658","long":"127.08709896","imageIndex":7,"items":[{"name":"민락동정육점","tel":"031-852-8008","addr":"경기도 의정부시 민락동 732-13번지","indutype":"음료식품 - 정육점","category":"food"}]},{"lat":"37.744374066","long":"127.09353547","imageIndex":7,"items":[{"name":"민락떡방아간","tel":"031-847-1121","addr":"경기도 의정부시 민락동 793-5번지","indutype":"음료식품 - 제과점","category":"food"}]},{"lat":"37.745568271","long":"127.09867669","imageIndex":7,"items":[{"name":"민락육가공","tel":"031-851-9412","addr":"경기도 의정부시 민락동 842-5번지 1층 좌측","indutype":"음료식품 - 정육점","category":"food"}]},{"lat":"37.745070644","long":"127.10122889","imageIndex":7,"items":[{"name":"배감독의 국대과일","tel":"","addr":"경기도 의정부시 민락동 847번지 호반베르디움1차 125동 104호","indutype":"음료식품 - 기타음료식품","category":"food"},{"name":"보다축산","tel":"031-851-4551","addr":"경기도 의정부시 민락동 847번지 호반베르디움1차 상가동 124동 104호","indutype":"음료식품 - 정육점","category":"food"}]},{"lat":"37.744847618","long":"127.09853961","imageIndex":7,"items":[{"name":"베스킨라빈스 (의정부송산점)","tel":"031-851-6616","addr":"경기도 의정부시 민락동 844-2번지 104호,105호","indutype":"음료식품 - 제과점","category":"food"}]},{"lat":"37.740871575","long":"127.09059276","imageIndex":7,"items":[{"name":"베스킨라빈스민락점","tel":"031-879-4609","addr":"경기도 의정부시 민락동 738-8번지 1층","indutype":"음료식품 - 제과점","category":"food"}]},{"lat":"37.745373697","long":"127.09409264","imageIndex":7,"items":[{"name":"베이커리카페순수","tel":"031-853-2257","addr":"경기도 의정부시 민락동 805번지 1층 105호","indutype":"음료식품 - 제과점","category":"food"},{"name":"천보산 사우나 (매점)","tel":"031-928-4131","addr":"경기도 의정부시 민락동 805번지","indutype":"음료식품 - 기타음료식품","category":"food"},{"name":"천보산사우나 스넥코너","tel":"031-9285-5818","addr":"경기도 의정부시 민락동 805번지 7층 천보산사우나","indutype":"음료식품 - 기타음료식품","category":"food"}]},{"lat":"37.746039582","long":"127.09514865","imageIndex":7,"items":[{"name":"베이프랩 의정부점","tel":"","addr":"경기도 의정부시 민락동 813-1번지 파워프라자 112호","indutype":"음료식품 - 기타음료식품","category":"food"}]},{"lat":"37.74654044","long":"127.09973314","imageIndex":7,"items":[{"name":"베품떡","tel":"031-852-6160","addr":"경기도 의정부시 민락동 821-2번지 성진메디컬프라자 1층 105호","indutype":"음료식품 - 제과점","category":"food"},{"name":"혜원이네 찬","tel":"031-852-0020","addr":"경기도 의정부시 민락동 821-2번지 1층 102호","indutype":"음료식품 - 기타음료식품","category":"food"}]},{"lat":"37.740401273","long":"127.09298605","imageIndex":7,"items":[{"name":"본시루","tel":"031-852-9666","addr":"경기도 의정부시 민락동 700-2번지","indutype":"음료식품 - 제과점","category":"food"},{"name":"파리바게뜨(민락점)","tel":"031-851-8282","addr":"경기도 의정부시 민락동 700-2번지","indutype":"음료식품 - 제과점","category":"food"}]},{"lat":"37.738956335","long":"127.0973408","imageIndex":7,"items":[{"name":"새미","tel":"031-853-9626","addr":"경기도 의정부시 민락동 695-1번지 민락주공2단지 206동 1204호","indutype":"회원제형태 - 건강식품","category":"food"}]},{"lat":"37.744128728","long":"127.09620144","imageIndex":7,"items":[{"name":"서울드림건강식품","tel":"031-928-6030","addr":"경기도 의정부시 민락동 804-6번지 10층","indutype":"건강식품 - 기타건강식품","category":"food"}]},{"lat":"37.74579351","long":"127.09867698","imageIndex":7,"items":[{"name":"슈큐랑","tel":"031-852-2521","addr":"경기도 의정부시 민락동 842-7번지 1층","indutype":"음료식품 - 제과점","category":"food"}]},{"lat":"37.739907486","long":"127.09068238","imageIndex":7,"items":[{"name":"스타25시","tel":"031-853-2451","addr":"경기도 의정부시 민락동 707-1번지","indutype":"음료식품 - 기타음료식품","category":"food"}]},{"lat":"37.745207779","long":"127.09881238","imageIndex":7,"items":[{"name":"신흥청과","tel":"","addr":"경기도 의정부시 민락동 844번지 예스프라자로얄 1층 108호","indutype":"음료식품 - 농·축·수산품","category":"food"},{"name":"이두부야 민락점","tel":"","addr":"경기도 의정부시 민락동 844번지 에스프라자로얄 1층 107호","indutype":"음료식품 - 기타음료식품","category":"food"},{"name":"파리바게뜨 (민락중앙점)","tel":"031-852-8283","addr":"경기도 의정부시 민락동 844번지 105호 106","indutype":"음료식품 - 제과점","category":"food"}]},{"lat":"37.749902069","long":"127.11853903","imageIndex":7,"items":[{"name":"아이스크림할인점","tel":"031-852-9249","addr":"경기도 의정부시 민락동 905번지 1층 110호","indutype":"음료식품 - 기타음료식품","category":"food"},{"name":"오레시피 민락점","tel":"","addr":"경기도 의정부시 민락동 905번지 엘스퀘어 1층 116호","indutype":"음료식품 - 기타음료식품","category":"food"},{"name":"파리바게뜨 민락스퀘어점","tel":"031-853-8278","addr":"경기도 의정부시 민락동 905번지 114,115호","indutype":"음료식품 - 제과점","category":"food"}]},{"lat":"37.74526358","long":"127.09664536","imageIndex":7,"items":[{"name":"야구왕","tel":"031-851-8273","addr":"경기도 의정부시 민락동 812-1번지 진산프라자투 301,302,303,304,305호","indutype":"음료식품 - 기타음료식품","category":"food"}]},{"lat":"37.739375532","long":"127.09120363","imageIndex":7,"items":[{"name":"엘치코","tel":"070-8226-8769","addr":"경기도 의정부시 민락동 709-6번지 1층","indutype":"음료식품 - 기타음료식품","category":"food"}]},{"lat":"37.742126435","long":"127.0871225","imageIndex":7,"items":[{"name":"영은미트(고기마을)","tel":"031-878-7400","addr":"경기도 의정부시 민락동 734-3번지 완빌딩 1층","indutype":"음료식품 - 정육점","category":"food"}]},{"lat":"37.745680389","long":"127.09361648","imageIndex":7,"items":[{"name":"오늘도 맛있는 반찬","tel":"","addr":"경기도 의정부시 민락동 806-1번지 1층 123호","indutype":"음료식품 - 기타음료식품","category":"food"}]},{"lat":"37.740266536","long":"127.09245266","imageIndex":7,"items":[{"name":"올때아이스크림","tel":"031-000-0000","addr":"경기도 의정부시 민락동 701-1번지 1층","indutype":"음료식품 - 제과점","category":"food"}]},{"lat":"37.741928701","long":"127.08645289","imageIndex":7,"items":[{"name":"우리동네 육부장 정육식당","tel":"031-851-0440","addr":"경기도 의정부시 민락동 732-9번지 서림빌딩 101호","indutype":"음료식품 - 정육점","category":"food"}]},{"lat":"37.739570594","long":"127.0953108","imageIndex":7,"items":[{"name":"우리선식건강원","tel":"031-852-7030","addr":"경기도 의정부시 민락동 696-2번지","indutype":"건강식품 - 기타건강식품","category":"food"}]},{"lat":"37.738121917","long":"127.09290387","imageIndex":7,"items":[{"name":"원두막","tel":"031-851-2450","addr":"경기도 의정부시 민락동 572-3번지","indutype":"음료식품 - 농·축·수산품","category":"food"},{"name":"원두막","tel":"031-853-5955","addr":"경기도 의정부시 민락동 572-3번지","indutype":"음료식품 - 농·축·수산품","category":"food"}]},{"lat":"37.742739246","long":"127.08689628","imageIndex":7,"items":[{"name":"유우승 단팥빵","tel":"031-853-0289","addr":"경기도 의정부시 민락동 733-4번지 이프라자 1층 104호","indutype":"음료식품 - 제과점","category":"food"}]},{"lat":"37.740961957","long":"127.09020712","imageIndex":7,"items":[{"name":"유우승 단팥빵","tel":"031-852-0289","addr":"경기도 의정부시 민락동 738-5번지 1층 101호","indutype":"음료식품 - 제과점","category":"food"}]},{"lat":"37.743487216","long":"127.08664752","imageIndex":7,"items":[{"name":"으뜸복권방","tel":"070-7420-0124","addr":"경기도 의정부시 민락동 732-1번지 이프라자 105호","indutype":"음료식품 - 기타음료식품","category":"food"},{"name":"의정부 용현비전지사","tel":"02-1544-2549","addr":"경기도 의정부시 민락동 732-1번지 이프라자 5층 502호","indutype":"건강식품 - 기타건강식품","category":"food"},{"name":"참조은축산물할인점","tel":"031-852-6634","addr":"경기도 의정부시 민락동 732-1번지 이프라자 108호","indutype":"음료식품 - 정육점","category":"food"},{"name":"파리바게뜨 의정부송산점","tel":"031-852-8202","addr":"경기도 의정부시 민락동 732-1번지 이프라자 1층 103,104호","indutype":"음료식품 - 제과점","category":"food"}]},{"lat":"37.741432537","long":"127.08734863","imageIndex":7,"items":[{"name":"은별축산","tel":"031-852-9595","addr":"경기도 의정부시 민락동 732-14번지","indutype":"음료식품 - 정육점","category":"food"}]},{"lat":"37.737572594","long":"127.09256286","imageIndex":7,"items":[{"name":"일품수산","tel":"031-851-5778","addr":"경기도 의정부시 민락동 574-3번지 101호","indutype":"음료식품 - 농·축·수산품","category":"food"}]},{"lat":"37.741181092","long":"127.09809242","imageIndex":7,"items":[{"name":"잉꼬정육점","tel":"031-851-7234","addr":"경기도 의정부시 민락동 694 산들마을4단지상가 110","indutype":"음료식품 - 정육점","category":"food"}]},{"lat":"37.740598804","long":"127.09387122","imageIndex":7,"items":[{"name":"정소아과","tel":"031-852-1515","addr":"경기도 의정부시 민락동 693-3번지 2층","indutype":"건강식품 - 기타건강식품","category":"food"}]},{"lat":"37.745399727","long":"127.09537478","imageIndex":7,"items":[{"name":"제이힐링스포렉스여매점","tel":"031-899-8899","addr":"경기도 의정부시 민락동 808-3번지 트윈타워2 7층","indutype":"음료식품 - 기타음료식품","category":"food"}]},{"lat":"37.743100239","long":"127.08603442","imageIndex":7,"items":[{"name":"조은매점","tel":"031-851-1338","addr":"경기도 의정부시 민락동 732-5번지","indutype":"음료식품 - 기타음료식품","category":"food"}]},{"lat":"37.74562194","long":"127.09915329","imageIndex":7,"items":[{"name":"진이찬방 민락2지구점","tel":"031-853-6431","addr":"경기도 의정부시 민락동 843-2번지 송민프라자 1층 101호","indutype":"음료식품 - 기타음료식품","category":"food"}]},{"lat":"37.746318397","long":"127.09576169","imageIndex":7,"items":[{"name":"찬사랑","tel":"031-851-1224","addr":"경기도 의정부시 민락동 837-2번지 테라스프라자 1층 110호","indutype":"음료식품 - 기타음료식품","category":"food"}]},{"lat":"37.746324257","long":"127.09967613","imageIndex":7,"items":[{"name":"찬사랑","tel":"031-1111-1111","addr":"경기도 의정부시 민락동 821-3번지 예스프라자센텀 102호","indutype":"음료식품 - 기타음료식품","category":"food"},{"name":"형제정육점","tel":"031-852-1358","addr":"경기도 의정부시 민락동 821-3번지 예스프라자센텀 108호","indutype":"음료식품 - 정육점","category":"food"}]},{"lat":"37.73898884","long":"127.09023884","imageIndex":7,"items":[{"name":"창대유통","tel":"031-851-9243","addr":"경기도 의정부시 민락동 614-9번지","indutype":"음료식품 - 주류 판매점","category":"food"}]},{"lat":"37.738267772","long":"127.09064641","imageIndex":7,"items":[{"name":"커피나라","tel":"070-8683-4978","addr":"경기도 의정부시 민락동 607번지 1층","indutype":"음료식품 - 기타음료식품","category":"food"}]},{"lat":"37.738679769","long":"127.09386888","imageIndex":7,"items":[{"name":"퀸스도너츠","tel":"031-877-6144","addr":"경기도 의정부시 민락동 544번지 1층","indutype":"음료식품 - 기타음료식품","category":"food"}]},{"lat":"37.74448946","long":"127.0957594","imageIndex":7,"items":[{"name":"통큰축산","tel":"031-852-4544","addr":"경기도 의정부시 민락동 804-8번지 씨티프라자 102호","indutype":"음료식품 - 정육점","category":"food"}]},{"lat":"37.74118395","long":"127.09448459","imageIndex":7,"items":[{"name":"한혜련디미방","tel":"031-853-5352","addr":"경기도 의정부시 민락동 692-4번지 1층 101호","indutype":"음료식품 - 기타음료식품","category":"food"}]},{"lat":"37.74582002","long":"127.09931239","imageIndex":7,"items":[{"name":"행복 로또 판매점","tel":"031-853-6114","addr":"경기도 의정부시 민락동 843-1번지 106호","indutype":"음료식품 - 기타음료식품","category":"food"}]},{"lat":"37.751426632","long":"127.11653299","imageIndex":7,"items":[{"name":"헬시더마켓","tel":"","addr":"경기도 의정부시 민락동 894번지 민락2지구18단지호반베르디움 1803동 10층 3호","indutype":"건강식품 - 기타건강식품","category":"food"}]},{"lat":"37.742122184","long":"127.09287468","imageIndex":7,"items":[{"name":"홍천방앗간","tel":"","addr":"경기도 의정부시 민락동 691-1 유마트지하매장","indutype":"음료식품 - 제과점","category":"food"}]},{"lat":"37.738876698","long":"127.09551415","imageIndex":7,"items":[{"name":"희망나눔식품","tel":"031-852-0202","addr":"경기도 의정부시 민락동 533-33번지","indutype":"음료식품 - 기타음료식품","category":"food"}]}]