[{"lat":"37.724478168","long":"126.71810884","imageIndex":4,"items":[{"name":"109스터디카페","tel":"031-943-0128","addr":"경기도 파주시 동패동 1694-3번지","indutype":"일반휴게음식 - 일반한식","category":"restaurant"},{"name":"고봉민김밥인  파주교하점","tel":"031-945-1788","addr":"경기도 파주시 동패동 1694-3번지","indutype":"일반휴게음식 - 일반한식","category":"restaurant"},{"name":"교하닭꼬치","tel":"031-945-1525","addr":"경기도 파주시 동패동 1694-3번지","indutype":"일반휴게음식 - 일반한식","category":"restaurant"},{"name":"구루메회전추밥","tel":"031-947-1216","addr":"경기도 파주시 동패동 1694-3번지","indutype":"일반휴게음식 - 일식·회집","category":"restaurant"},{"name":"꿀먹은강정","tel":"031-942-1977","addr":"경기도 파주시 동패동 1694-3번지","indutype":"일반휴게음식 - 일반한식","category":"restaurant"},{"name":"롯데리아파주교하점","tel":"031-949-9427","addr":"경기도 파주시 동패동 1694-3번지","indutype":"일반휴게음식 - 서양음식","category":"restaurant"},{"name":"옛날왕만두","tel":"031-945-0382","addr":"경기도 파주시 동패동 1694-3번지","indutype":"일반휴게음식 - 스넥","category":"restaurant"},{"name":"피엠푸드교하점","tel":"031-957-1087","addr":"경기도 파주시 동패동 1694-3번지","indutype":"일반휴게음식 - 서양음식","category":"restaurant"},{"name":"한솥도시락","tel":"031-943-4858","addr":"경기도 파주시 동패동 1694-3 웰스피아105호","indutype":"일반휴게음식 - 일반한식","category":"restaurant"},{"name":"핫짱쌀핫도그","tel":"031-942-5977","addr":"경기도 파주시 동패동 1694-3번지","indutype":"일반휴게음식 - 일반한식","category":"restaurant"},{"name":"핫짱쌀핫도그 교하점","tel":"","addr":"경기도 파주시 동패동 1694-3번지","indutype":"일반휴게음식 - 서양음식","category":"restaurant"}]},{"lat":"37.71120448","long":"126.74435686","imageIndex":4,"items":[{"name":"1등정육식당","tel":"031-946-6602","addr":"경기도 파주시 동패동 1758-3번지","indutype":"일반휴게음식 - 일반한식","category":"restaurant"}]},{"lat":"37.719289617","long":"126.71479415","imageIndex":4,"items":[{"name":"25블럭(25BLOCKS)","tel":"031-943-2252","addr":"경기도 파주시 동패동 1741-10번지","indutype":"일반휴게음식 - 일반한식","category":"restaurant"},{"name":"굳잡굳커피","tel":"031-8071-0508","addr":"경기도 파주시 동패동 1741-10번지","indutype":"일반휴게음식 - 서양음식","category":"restaurant"}]},{"lat":"37.725450177","long":"126.71768543","imageIndex":4,"items":[{"name":"2대이창현참치","tel":"031-943-8873","addr":"경기도 파주시 동패동 1695-4번지","indutype":"일반휴게음식 - 일식·회집","category":"restaurant"},{"name":"교하황소곱창","tel":"031-947-5545","addr":"경기도 파주시 동패동 1695-4 스타프라자 102","indutype":"일반휴게음식 - 일반한식","category":"restaurant"},{"name":"꿀벌닭강정","tel":"031-941-6696","addr":"경기도 파주시 동패동 1695-4번지","indutype":"일반휴게음식 - 스넥","category":"restaurant"},{"name":"손으로 꿈꾸는 이야기","tel":"070-4042-7517","addr":"경기도 파주시 동패동 1695-4번지","indutype":"일반휴게음식 - 서양음식","category":"restaurant"},{"name":"야키모노","tel":"031-943-1433","addr":"경기도 파주시 동패동 1695-4 스타프라자 201호","indutype":"일반휴게음식 - 일반한식","category":"restaurant"}]},{"lat":"37.710954149","long":"126.74524231","imageIndex":4,"items":[{"name":"33떡볶이 운정점","tel":"031-949-3033","addr":"경기도 파주시 동패동 1761-3번지","indutype":"일반휴게음식 - 스넥","category":"restaurant"},{"name":"강순자 옛맛 김치찌개 운정2호점","tel":"031-949-3420","addr":"경기도 파주시 동패동 1761-3번지","indutype":"일반휴게음식 - 일반한식","category":"restaurant"},{"name":"더맛떡볶이","tel":"031-941-7759","addr":"경기도 파주시 동패동 1761-3번지","indutype":"일반휴게음식 - 스넥","category":"restaurant"},{"name":"정성한쌈","tel":"070-8748-4839","addr":"경기도 파주시 동패동 1761-3번지","indutype":"일반휴게음식 - 일반한식","category":"restaurant"},{"name":"카페비행기. 서진여행사","tel":"031-945-2013","addr":"경기도 파주시 동패동 1761-3번지","indutype":"일반휴게음식 - 일반한식","category":"restaurant"}]},{"lat":"37.724813325","long":"126.71885619","imageIndex":4,"items":[{"name":"33떡볶이교하점","tel":"031-943-3312","addr":"경기도 파주시 동패동 1701번지","indutype":"일반휴게음식 - 스넥","category":"restaurant"},{"name":"누구나 홀딱반한닭 (교하점)","tel":"031-948-5092","addr":"경기도 파주시 동패동 1701번지","indutype":"일반휴게음식 - 일반한식","category":"restaurant"},{"name":"더 좋은고기","tel":"031-000-0000","addr":"경기도 파주시 동패동 1701번지","indutype":"일반휴게음식 - 일반한식","category":"restaurant"},{"name":"돗토리","tel":"031-8071-3777","addr":"경기도 파주시 동패동 1701번지","indutype":"일반휴게음식 - 일식·회집","category":"restaurant"},{"name":"마시마니문어전복갈비찜 교하점","tel":"031-941-7930","addr":"경기도 파주시 동패동 1701번지","indutype":"일반휴게음식 - 일반한식","category":"restaurant"},{"name":"배금화 낙지 전문점","tel":"031-948-9866","addr":"경기도 파주시 동패동 1701번지","indutype":"일반휴게음식 - 일반한식","category":"restaurant"},{"name":"보타니크카페","tel":"031-946-4442","addr":"경기도 파주시 동패동 1701번지","indutype":"일반휴게음식 - 서양음식","category":"restaurant"},{"name":"불닭발땡초동대문엽기떡볶이교하점","tel":"031-948-8591","addr":"경기도 파주시 동패동 1701번지","indutype":"일반휴게음식 - 일반한식","category":"restaurant"},{"name":"서가네닭갈비","tel":"031-941-9592","addr":"경기도 파주시 동패동 1701번지","indutype":"일반휴게음식 - 일반한식","category":"restaurant"},{"name":"신전떡볶이","tel":"031-943-0289","addr":"경기도 파주시 동패동 1701번지","indutype":"일반휴게음식 - 일반한식","category":"restaurant"},{"name":"여기오면","tel":"031-945-9838","addr":"경기도 파주시 동패동 1701번지","indutype":"일반휴게음식 - 일반한식","category":"restaurant"},{"name":"옛날장터치킨동패2호점(교하점)","tel":"031-941-0909","addr":"경기도 파주시 동패동 1701번지","indutype":"일반휴게음식 - 일반한식","category":"restaurant"},{"name":"오슈오슈","tel":"070-4170-6406","addr":"경기도 파주시 동패동 1701번지","indutype":"일반휴게음식 - 주점","category":"restaurant"},{"name":"육감만족 교하점","tel":"031-947-9212","addr":"경기도 파주시 동패동 1701번지","indutype":"일반휴게음식 - 일반한식","category":"restaurant"},{"name":"윤설참치","tel":"031-941-3634","addr":"경기도 파주시 동패동 1701번지","indutype":"일반휴게음식 - 일반한식","category":"restaurant"},{"name":"인글라스","tel":"031-111-1111","addr":"경기도 파주시 동패동 1701번지","indutype":"일반휴게음식 - 서양음식","category":"restaurant"},{"name":"자담치킨","tel":"031-957-2472","addr":"경기도 파주시 동패동 1701번지","indutype":"일반휴게음식 - 스넥","category":"restaurant"},{"name":"큰맘 할매순대국","tel":"031-945-6945","addr":"경기도 파주시 동패동 1701번지","indutype":"일반휴게음식 - 일반한식","category":"restaurant"},{"name":"탕수육상회","tel":"","addr":"경기도 파주시 동패동 1701번지","indutype":"일반휴게음식 - 주점","category":"restaurant"},{"name":"파파살롱","tel":"031-947-8846","addr":"경기도 파주시 동패동 1701번지","indutype":"일반휴게음식 - 서양음식","category":"restaurant"},{"name":"한우소야(K&P)","tel":"031-948-2356","addr":"경기도 파주시 동패동 1701번지","indutype":"일반휴게음식 - 일반한식","category":"restaurant"}]},{"lat":"37.711431703","long":"126.74526334","imageIndex":4,"items":[{"name":"60계치킨 운정이마트점","tel":"","addr":"경기도 파주시 동패동 1761-1번지","indutype":"일반휴게음식 - 스넥","category":"restaurant"},{"name":"군산오징어 파주운정점","tel":"031-8071-5454","addr":"경기도 파주시 동패동 1761-1번지","indutype":"일반휴게음식 - 일반한식","category":"restaurant"},{"name":"대관령황소곱창","tel":"031-943-9497","addr":"경기도 파주시 동패동 1761-1번지","indutype":"일반휴게음식 - 일반한식","category":"restaurant"},{"name":"이삭토스트 파주운정이마트점","tel":"031-8071-3535","addr":"경기도 파주시 동패동 1761-1번지","indutype":"일반휴게음식 - 일반한식","category":"restaurant"}]},{"lat":"37.711315743","long":"126.74579675","imageIndex":4,"items":[{"name":"9라파 부대찌개","tel":"031-945-4568","addr":"경기도 파주시 동패동 1759-5번지","indutype":"일반휴게음식 - 일반한식","category":"restaurant"},{"name":"비어힐","tel":"031-916-0923","addr":"경기도 파주시 동패동 1759-5번지","indutype":"일반휴게음식 - 주점","category":"restaurant"},{"name":"샤브야월남쌈구이&샤브","tel":"031-948-9960","addr":"경기도 파주시 동패동 1759-5번지","indutype":"일반휴게음식 - 일반한식","category":"restaurant"},{"name":"용만이네김밥","tel":"031-944-7493","addr":"경기도 파주시 동패동 1759-5번지","indutype":"일반휴게음식 - 일반한식","category":"restaurant"},{"name":"투썸플레이스 파주운정점","tel":"031-000-0000","addr":"경기도 파주시 동패동 1759-5번지","indutype":"일반휴게음식 - 서양음식","category":"restaurant"}]},{"lat":"37.711952394","long":"126.74441097","imageIndex":4,"items":[{"name":"A카페","tel":"","addr":"경기도 파주시 동패동 1758번지","indutype":"일반휴게음식 - 서양음식","category":"restaurant"}]},{"lat":"37.725845279","long":"126.72088265","imageIndex":4,"items":[{"name":"BBQ","tel":"031-946-8592","addr":"경기도 파주시 동패동 1698 동문굿모닝힐 상가-204","indutype":"일반휴게음식 - 주점","category":"restaurant"},{"name":"떡볶이세상","tel":"031-942-8144","addr":"경기도 파주시 동패동 1698번지","indutype":"일반휴게음식 - 스넥","category":"restaurant"},{"name":"알렙교하","tel":"031-942-1033","addr":"경기도 파주시 동패동 1698번지 책향기마을10단지동문굿모닝힐","indutype":"일반휴게음식 - 서양음식","category":"restaurant"},{"name":"장길수피자","tel":"031-949-7141","addr":"경기도 파주시 동패동 1698번지 책향기마을10단지동문굿모닝힐","indutype":"일반휴게음식 - 서양음식","category":"restaurant"}]},{"lat":"37.712537445","long":"126.74007667","imageIndex":4,"items":[{"name":"BHC (비에이치씨)운정점","tel":"031-949-0099","addr":"경기도 파주시 동패동 211-37번지","indutype":"일반휴게음식 - 스넥","category":"restaurant"},{"name":"명품임실치즈피자","tel":"031-939-7030","addr":"경기도 파주시 동패동 211-37번지","indutype":"일반휴게음식 - 서양음식","category":"restaurant"},{"name":"영희네포차","tel":"031-945-2681","addr":"경기도 파주시 동패동 211-37번지","indutype":"일반휴게음식 - 주점","category":"restaurant"},{"name":"치킨파티","tel":"031-947-9288","addr":"경기도 파주시 동패동 211-37번지","indutype":"일반휴게음식 - 주점","category":"restaurant"}]},{"lat":"37.719173851","long":"126.71535036","imageIndex":4,"items":[{"name":"B형상점","tel":"031-949-4974","addr":"경기도 파주시 동패동 1739-8번지","indutype":"일반휴게음식 - 일반한식","category":"restaurant"}]},{"lat":"37.725702388","long":"126.71766178","imageIndex":4,"items":[{"name":"가르텐비어파주교하점","tel":"031-946-7704","addr":"경기도 파주시 동패동 1695-3번지 미소시티 206호","indutype":"일반휴게음식 - 주점","category":"restaurant"},{"name":"강순자옛맛김치찌개 교하점","tel":"031-947-3533","addr":"경기도 파주시 동패동 1695-3번지 미소시티","indutype":"일반휴게음식 - 일반한식","category":"restaurant"},{"name":"봉구스밥버거 교하점","tel":"031-949-5094","addr":"경기도 파주시 동패동 1695-3번지 미소시티","indutype":"일반휴게음식 - 일반한식","category":"restaurant"}]},{"lat":"37.709236567","long":"126.70458128","imageIndex":4,"items":[{"name":"강남면옥파주점","tel":"031-949-9715","addr":"경기도 파주시 동패동 1100-2번지","indutype":"일반휴게음식 - 일반한식","category":"restaurant"},{"name":"스테이씨(STAY SEE)","tel":"031-949-9716","addr":"경기도 파주시 동패동 1100-2번지","indutype":"일반휴게음식 - 서양음식","category":"restaurant"}]},{"lat":"37.709710399","long":"126.73693398","imageIndex":4,"items":[{"name":"고소한가게","tel":"031-941-7949","addr":"경기도 파주시 동패동 1938-3번지","indutype":"일반휴게음식 - 일반한식","category":"restaurant"}]},{"lat":"37.724981685","long":"126.71768723","imageIndex":4,"items":[{"name":"공차","tel":"031-111-1111","addr":"경기도 파주시 동패동 1694-1번지","indutype":"일반휴게음식 - 서양음식","category":"restaurant"},{"name":"놀부보쌈 앤 부대찌개","tel":"031-941-6566","addr":"경기도 파주시 동패동 1694-1번지","indutype":"일반휴게음식 - 일반한식","category":"restaurant"},{"name":"미소야","tel":"031-942-5452","addr":"경기도 파주시 동패동 1694-1트리플메디칼102","indutype":"일반휴게음식 - 스넥","category":"restaurant"},{"name":"본죽 (교하점)","tel":"031-942-6388","addr":"경기도 파주시 동패동 1694-1번지 트리플메디칼타워 106호","indutype":"일반휴게음식 - 일반한식","category":"restaurant"},{"name":"오옛떡 교하지점","tel":"031-973-8864","addr":"경기도 파주시 동패동 1694-1번지","indutype":"일반휴게음식 - 일반한식","category":"restaurant"},{"name":"이디야(파주교하점)","tel":"031-945-5141","addr":"경기도 파주시 동패동 1694-1번지 트리플메디칼타워 114호","indutype":"일반휴게음식 - 서양음식","category":"restaurant"}]},{"lat":"37.725257071","long":"126.71607548","imageIndex":4,"items":[{"name":"교촌치킨","tel":"031-945-9285","addr":"경기도 파주시 동패동 1690번지 숲속길마을월드메르디앙센트럴파크","indutype":"일반휴게음식 - 스넥","category":"restaurant"},{"name":"러브엔","tel":"031-949-0594","addr":"경기도 파주시 동패동 1690번지 숲속길마을월드메르디앙센트럴파크","indutype":"일반휴게음식 - 서양음식","category":"restaurant"},{"name":"복숭아꽃살구꽃","tel":"031-942-3605","addr":"경기도 파주시 동패동 1690번지 숲속길마을월드메르디앙센트럴파크","indutype":"일반휴게음식 - 일반한식","category":"restaurant"},{"name":"티바두마리치킨(교하점)","tel":"031-948-9122","addr":"경기도 파주시 동패동 1690번지 숲속길마을월드메르디앙센트럴파크","indutype":"일반휴게음식 - 스넥","category":"restaurant"}]},{"lat":"37.725981873","long":"126.71774011","imageIndex":4,"items":[{"name":"교하2층집","tel":"031-947-1977","addr":"경기도 파주시 동패동 1695-2번지","indutype":"일반휴게음식 - 일반한식","category":"restaurant"},{"name":"더킹","tel":"031-945-3528","addr":"경기도 파주시 동패동 1695-2번지","indutype":"일반휴게음식 - 주점","category":"restaurant"},{"name":"뽕짜우","tel":"031-947-6282","addr":"경기도 파주시 동패동 1695-2번지","indutype":"일반휴게음식 - 중국식","category":"restaurant"},{"name":"스마일꽈배기","tel":"","addr":"경기도 파주시 동패동 1695-2번지","indutype":"일반휴게음식 - 스넥","category":"restaurant"},{"name":"오늘통닭 1977","tel":"031-943-0909","addr":"경기도 파주시 동패동 1695-2번지","indutype":"일반휴게음식 - 스넥","category":"restaurant"},{"name":"옹다래감자탕뼈찜&찜닭","tel":"031-949-8766","addr":"경기도 파주시 동패동 1695-2번지","indutype":"일반휴게음식 - 일반한식","category":"restaurant"},{"name":"청수담","tel":"031-943-8993","addr":"경기도 파주시 동패동 3011-3센타프라자203","indutype":"일반휴게음식 - 일반한식","category":"restaurant"},{"name":"피자스쿨","tel":"031-946-6885","addr":"경기도 파주시 동패동 1695-2 센타프라자l 113","indutype":"일반휴게음식 - 서양음식","category":"restaurant"},{"name":"해피뚱땡이 만두분식","tel":"031-943-2704","addr":"경기도 파주시 동패동 1695-2번지","indutype":"일반휴게음식 - 스넥","category":"restaurant"}]},{"lat":"37.723037809","long":"126.71488172","imageIndex":4,"items":[{"name":"교하도서관마트","tel":"02-1111-1111","addr":"경기도 파주시 동패동 1692번지","indutype":"일반휴게음식 - 일반한식","category":"restaurant"}]},{"lat":"37.706926794","long":"126.7141049","imageIndex":4,"items":[{"name":"궁수타해물짬뽕","tel":"031-943-6776","addr":"경기도 파주시 동패동 642-2번지 외1필지 1층","indutype":"일반휴게음식 - 중국식","category":"restaurant"},{"name":"심학골 가마솥","tel":"031-948-8838","addr":"경기도 파주시 동패동 642-2번지","indutype":"일반휴게음식 - 일반한식","category":"restaurant"}]},{"lat":"37.708900313","long":"126.70343724","imageIndex":4,"items":[{"name":"그냥","tel":"","addr":"경기도 파주시 동패동 1080-1번지","indutype":"일반휴게음식 - 서양음식","category":"restaurant"}]},{"lat":"37.70707189","long":"126.7144899","imageIndex":4,"items":[{"name":"글로리아(Gloria)","tel":"031-949-2457","addr":"경기도 파주시 동패동 643-6번지","indutype":"일반휴게음식 - 서양음식","category":"restaurant"}]},{"lat":"37.725235238","long":"126.71821937","imageIndex":4,"items":[{"name":"금촌뼈다귀감자탕","tel":"031-947-6080","addr":"경기도 파주시 동패동 1696-2번지","indutype":"일반휴게음식 - 일반한식","category":"restaurant"},{"name":"돈통마늘보쌈 파주교하점","tel":"031-941-7939","addr":"경기도 파주시 동패동 1696-2번지","indutype":"일반휴게음식 - 일반한식","category":"restaurant"},{"name":"마산아구찜","tel":"031-946-4947","addr":"경기도 파주시 동패동 1696-2번지","indutype":"일반휴게음식 - 일반한식","category":"restaurant"},{"name":"빽다방 파주교하중앙점","tel":"031-945-3354","addr":"경기도 파주시 동패동 1696-2번지","indutype":"일반휴게음식 - 서양음식","category":"restaurant"},{"name":"설빙 파주교하점","tel":"031-945-7137","addr":"경기도 파주시 동패동 1696-2번지","indutype":"일반휴게음식 - 스넥","category":"restaurant"},{"name":"수철이네왕새우튀김 교하점","tel":"031-949-2090","addr":"경기도 파주시 동패동 1696-2번지","indutype":"일반휴게음식 - 일반한식","category":"restaurant"},{"name":"올레포차","tel":"031-949-6672","addr":"경기도 파주시 동패동 1696-2번지","indutype":"일반휴게음식 - 주점","category":"restaurant"},{"name":"요거프레스","tel":"031-943-5877","addr":"경기도 파주시 동패동 1696-2번지","indutype":"일반휴게음식 - 서양음식","category":"restaurant"},{"name":"이삭토스트(파주교화점)","tel":"031-533-2432","addr":"경기도 파주시 동패동 1696-2번지","indutype":"일반휴게음식 - 서양음식","category":"restaurant"},{"name":"추억의옛날통닭","tel":"031-948-5530","addr":"경기도 파주시 동패동 1696-2번지 이지타운 114호","indutype":"일반휴게음식 - 일반한식","category":"restaurant"},{"name":"통뼈감자탕 교하점","tel":"031-949-0160","addr":"경기도 파주시 동패동 1696-2번지","indutype":"일반휴게음식 - 일반한식","category":"restaurant"},{"name":"해물땡기는날","tel":"031-941-8850","addr":"경기도 파주시 동패동 1696-2번지","indutype":"일반휴게음식 - 일반한식","category":"restaurant"}]},{"lat":"37.711205622","long":"126.74487853","imageIndex":4,"items":[{"name":"기억상실","tel":"031-943-9987","addr":"경기도 파주시 동패동 1761-5번지","indutype":"일반휴게음식 - 주점","category":"restaurant"},{"name":"육회본가","tel":"031-1111-1111","addr":"경기도 파주시 동패동 1761-5번지","indutype":"일반휴게음식 - 일반한식","category":"restaurant"}]},{"lat":"37.72554156","long":"126.7182182","imageIndex":4,"items":[{"name":"김대표","tel":"031-948-2827","addr":"경기도 파주시 동패동 1696-1번지","indutype":"일반휴게음식 - 스넥","category":"restaurant"},{"name":"남대문황금족발교하신도시점","tel":"031-8071-5333","addr":"경기도 파주시 동패동 1696-1 거묵프라자 107","indutype":"일반휴게음식 - 일반한식","category":"restaurant"},{"name":"메가엠지씨커피 파주교하점","tel":"031-945-8884","addr":"경기도 파주시 동패동 1696-1번지","indutype":"일반휴게음식 - 서양음식","category":"restaurant"},{"name":"문어야","tel":"031-944-1909","addr":"경기도 파주시 동패동 1696-1번지","indutype":"일반휴게음식 - 일반한식","category":"restaurant"},{"name":"백년손님서서갈비무한리필","tel":"031-948-3592","addr":"경기도 파주시 동패동 1696-1번지","indutype":"일반휴게음식 - 일반한식","category":"restaurant"},{"name":"에비뉴엘","tel":"031-942-2548","addr":"경기도 파주시 동패동 1696-1번지","indutype":"일반휴게음식 - 일반한식","category":"restaurant"},{"name":"쥬씨(파주교하점)","tel":"031-942-8817","addr":"경기도 파주시 동패동 1696-1번지","indutype":"일반휴게음식 - 서양음식","category":"restaurant"},{"name":"투썸플레이스 파주교하점","tel":"031-949-2127","addr":"경기도 파주시 동패동 1696-1번지","indutype":"일반휴게음식 - 서양음식","category":"restaurant"}]},{"lat":"37.709675051","long":"126.7372403","imageIndex":4,"items":[{"name":"김대표김밥","tel":"031-942-8703","addr":"경기도 파주시 동패동 1927-3번지","indutype":"일반휴게음식 - 일반한식","category":"restaurant"}]},{"lat":"37.724594277","long":"126.71768871","imageIndex":4,"items":[{"name":"김밥레스토랑","tel":"031-941-2904","addr":"경기도 파주시 동패동 1694-2번지","indutype":"일반휴게음식 - 일반한식","category":"restaurant"},{"name":"놀란곱창","tel":"031-943-3343","addr":"경기도 파주시 동패동 1694-2번지 교하일번가 122호","indutype":"일반휴게음식 - 일반한식","category":"restaurant"},{"name":"리드림스터디카페","tel":"","addr":"경기도 파주시 동패동 1694-2번지","indutype":"일반휴게음식 - 서양음식","category":"restaurant"},{"name":"미스사이공 교하점","tel":"031-943-0420","addr":"경기도 파주시 동패동 1694-2번지","indutype":"일반휴게음식 - 서양음식","category":"restaurant"},{"name":"설악추어탕","tel":"031-946-6880","addr":"경기도 파주시 동패동 3012-2교하일번가201호~202호","indutype":"일반휴게음식 - 일반한식","category":"restaurant"},{"name":"식샤","tel":"031-948-0506","addr":"경기도 파주시 동패동 1694-2번지","indutype":"일반휴게음식 - 일반한식","category":"restaurant"},{"name":"예당골 토종삼계탕","tel":"031-946-6880","addr":"경기도 파주시 동패동 1694-2 교하일번지201호~202호","indutype":"일반휴게음식 - 일반한식","category":"restaurant"},{"name":"오아시스","tel":"031-000-0000","addr":"경기도 파주시 동패동 1694-2번지","indutype":"일반휴게음식 - 일반한식","category":"restaurant"},{"name":"쪼끼쪼끼","tel":"031-946-6411","addr":"경기도 파주시 동패동 3012-2,교하일번가2층206호","indutype":"일반휴게음식 - 주점","category":"restaurant"},{"name":"카페게이트 교하점","tel":"","addr":"경기도 파주시 동패동 1694-2번지","indutype":"일반휴게음식 - 서양음식","category":"restaurant"},{"name":"포메인(교하점)","tel":"031-944-1173","addr":"경기도 파주시 동패동 1694-2번지","indutype":"일반휴게음식 - 일반한식","category":"restaurant"}]},{"lat":"37.712097986","long":"126.74506823","imageIndex":4,"items":[{"name":"김밥천국","tel":"031-945-2209","addr":"경기도 파주시 동패동 1759번지","indutype":"일반휴게음식 - 일반한식","category":"restaurant"},{"name":"돌깨마을 맷돌순두부 운정점","tel":"031-946-6509","addr":"경기도 파주시 동패동 1759번지","indutype":"일반휴게음식 - 일반한식","category":"restaurant"},{"name":"맘스터치 운정1호점","tel":"031-945-6368","addr":"경기도 파주시 동패동 1759번지","indutype":"일반휴게음식 - 서양음식","category":"restaurant"},{"name":"맘스터치 운정1호점","tel":"031-945-6368","addr":"경기도 파주시 동패동 1759번지","indutype":"일반휴게음식 - 일반한식","category":"restaurant"},{"name":"모모 닭강정","tel":"031-957-9530","addr":"경기도 파주시 동패동 1759번지","indutype":"일반휴게음식 - 일반한식","category":"restaurant"},{"name":"미스터피자 운정점","tel":"031-941-9289","addr":"경기도 파주시 동패동 1759번지","indutype":"일반휴게음식 - 서양음식","category":"restaurant"},{"name":"봉추찜닭 파주운정점","tel":"031-948-6981","addr":"경기도 파주시 동패동 1759번지","indutype":"일반휴게음식 - 일반한식","category":"restaurant"},{"name":"이모네 찹쌀순대국 만드는집","tel":"031-949-0944","addr":"경기도 파주시 동패동 1759번지","indutype":"일반휴게음식 - 일반한식","category":"restaurant"},{"name":"죽이야기 운정1호점","tel":"031-943-6288","addr":"경기도 파주시 동패동 1759번지","indutype":"일반휴게음식 - 일반한식","category":"restaurant"},{"name":"취산","tel":"031-944-0065","addr":"경기도 파주시 동패동 1759번지 형성프라자 201호","indutype":"일반휴게음식 - 중국식","category":"restaurant"},{"name":"카페베네","tel":"070-8818-7922","addr":"경기도 파주시 동패동 1759번지","indutype":"일반휴게음식 - 서양음식","category":"restaurant"},{"name":"키키카페","tel":"031-947-7170","addr":"경기도 파주시 동패동 1759번지","indutype":"일반휴게음식 - 일반한식","category":"restaurant"}]},{"lat":"37.726036999","long":"126.71818227","imageIndex":4,"items":[{"name":"김밥천국교하점","tel":"031-948-2204","addr":"경기도 파주시 동패동 3011-4아이비타워103","indutype":"일반휴게음식 - 일반한식","category":"restaurant"},{"name":"맛나슈퍼","tel":"","addr":"경기도 파주시 동패동 1695-1번지","indutype":"일반휴게음식 - 일반한식","category":"restaurant"},{"name":"별&밤 LIVE BAR","tel":"031-946-4246","addr":"경기도 파주시 동패동 1695-1번지","indutype":"일반휴게음식 - 주점","category":"restaurant"},{"name":"본도시락파주교하산내","tel":"031-949-4280","addr":"경기도 파주시 동패동 1695-1번지","indutype":"일반휴게음식 - 일반한식","category":"restaurant"},{"name":"오뎅애한잔","tel":"031-945-5052","addr":"경기도 파주시 동패동 1695-1번지","indutype":"일반휴게음식 - 일반한식","category":"restaurant"},{"name":"인생고기집 파주점","tel":"031-0000-0000","addr":"경기도 파주시 동패동 1695-1번지","indutype":"일반휴게음식 - 일반한식","category":"restaurant"},{"name":"치킨마루 (교하점)","tel":"031-946-4792","addr":"경기도 파주시 동패동 1695-1번지","indutype":"일반휴게음식 - 스넥","category":"restaurant"},{"name":"홍루이젠 파주교하점","tel":"031-947-0464","addr":"경기도 파주시 동패동 1695-1번지","indutype":"일반휴게음식 - 서양음식","category":"restaurant"}]},{"lat":"37.710953356","long":"126.74487941","imageIndex":4,"items":[{"name":"깡's쭈꾸미","tel":"031-949-3366","addr":"경기도 파주시 동패동 1761-4번지","indutype":"일반휴게음식 - 일반한식","category":"restaurant"},{"name":"명랑쌀핫도그 파주운정점","tel":"","addr":"경기도 파주시 동패동 1761-4번지","indutype":"일반휴게음식 - 일반한식","category":"restaurant"},{"name":"몬스터","tel":"031-111-1111","addr":"경기도 파주시 동패동 1761-4번지","indutype":"일반휴게음식 - 일반한식","category":"restaurant"},{"name":"본죽앤비빔밥(운정신도시점)","tel":"031-957-6288","addr":"경기도 파주시 동패동 1761-4번지","indutype":"일반휴게음식 - 일반한식","category":"restaurant"}]},{"lat":"37.709847518","long":"126.70390973","imageIndex":4,"items":[{"name":"꿈꾸는 카페","tel":"00-1600-5845","addr":"경기도 파주시 동패동 1096-12번지","indutype":"일반휴게음식 - 서양음식","category":"restaurant"}]},{"lat":"37.71084685","long":"126.73748562","imageIndex":4,"items":[{"name":"나는 바다다","tel":"031-942-0404","addr":"경기도 파주시 동패동 1906-1번지","indutype":"일반휴게음식 - 일반한식","category":"restaurant"}]},{"lat":"37.706844767","long":"126.73271436","imageIndex":4,"items":[{"name":"남도한식뷔페","tel":"031-957-7313","addr":"경기도 파주시 동패동 285-10번지","indutype":"일반휴게음식 - 일반한식","category":"restaurant"},{"name":"안동각","tel":"031-943-3808","addr":"경기도 파주시 동패동 285-10번지","indutype":"일반휴게음식 - 중국식","category":"restaurant"}]},{"lat":"37.71114836","long":"126.73935577","imageIndex":4,"items":[{"name":"놀란돼지(운정점)","tel":"031-948-9180","addr":"경기도 파주시 동패동 1891번지","indutype":"일반휴게음식 - 일반한식","category":"restaurant"},{"name":"비어비워","tel":"","addr":"경기도 파주시 동패동 1891번지","indutype":"일반휴게음식 - 주점","category":"restaurant"},{"name":"사계절물회","tel":"031-946-2332","addr":"경기도 파주시 동패동 1891번지","indutype":"일반휴게음식 - 일반한식","category":"restaurant"},{"name":"솥뚜껑삼겹살","tel":"031-948-0098","addr":"경기도 파주시 동패동 1891번지","indutype":"일반휴게음식 - 일반한식","category":"restaurant"},{"name":"열린마당","tel":"031-946-1458","addr":"경기도 파주시 동패동 1891번지 열린프라자 108호","indutype":"일반휴게음식 - 일반한식","category":"restaurant"},{"name":"최가네곱창","tel":"031-948-9758","addr":"경기도 파주시 동패동 1891번지","indutype":"일반휴게음식 - 일반한식","category":"restaurant"}]},{"lat":"37.703875677","long":"126.71910619","imageIndex":4,"items":[{"name":"대박이야 한식뷔페","tel":"031-942-6990","addr":"경기도 파주시 동패동 588-2번지","indutype":"일반휴게음식 - 일반한식","category":"restaurant"}]},{"lat":"37.709928134","long":"126.7376023","imageIndex":4,"items":[{"name":"더 셰프 연탄불고기&한돈곰탕","tel":"070-4297-6782","addr":"경기도 파주시 동패동 1923-1번지","indutype":"일반휴게음식 - 일반한식","category":"restaurant"}]},{"lat":"37.710064908","long":"126.73832761","imageIndex":4,"items":[{"name":"더착한커피 운정점","tel":"031-941-1140","addr":"경기도 파주시 동패동 1913-2번지","indutype":"일반휴게음식 - 서양음식","category":"restaurant"}]},{"lat":"37.710730491","long":"126.73782625","imageIndex":4,"items":[{"name":"더패럿(The Parrot)","tel":"031-111-1111","addr":"경기도 파주시 동패동 1906-3번지","indutype":"일반휴게음식 - 서양음식","category":"restaurant"}]},{"lat":"37.709235091","long":"126.73791096","imageIndex":4,"items":[{"name":"도깨비 전가네","tel":"031-945-3681","addr":"경기도 파주시 동패동 1933-2번지","indutype":"일반휴게음식 - 일반한식","category":"restaurant"}]},{"lat":"37.715097282","long":"126.740578","imageIndex":4,"items":[{"name":"도브리덴","tel":"031-969-6865","addr":"경기도 파주시 동패동 1822-4번지","indutype":"일반휴게음식 - 일반한식","category":"restaurant"}]},{"lat":"37.715404336","long":"126.74090581","imageIndex":4,"items":[{"name":"동궁찜닭 파주점","tel":"031-947-8727","addr":"경기도 파주시 동패동 1821-3번지","indutype":"일반휴게음식 - 일반한식","category":"restaurant"}]},{"lat":"37.710900549","long":"126.73732666","imageIndex":4,"items":[{"name":"동오부대찌개","tel":"031-941-7100","addr":"경기도 파주시 동패동 1906번지","indutype":"일반휴게음식 - 일반한식","category":"restaurant"}]},{"lat":"37.708042292","long":"126.70976858","imageIndex":4,"items":[{"name":"둘레길 한식부페","tel":"","addr":"경기도 파주시 동패동 1033-3번지","indutype":"일반휴게음식 - 일반한식","category":"restaurant"}]},{"lat":"37.709622568","long":"126.70402404","imageIndex":4,"items":[{"name":"둘레길한정식","tel":"031-000-0000","addr":"경기도 파주시 동패동 1096-6번지","indutype":"일반휴게음식 - 일반한식","category":"restaurant"}]},{"lat":"37.711011466","long":"126.73857374","imageIndex":4,"items":[{"name":"드마루","tel":"031-1599-3347","addr":"경기도 파주시 동패동 1901번지","indutype":"일반휴게음식 - 일반한식","category":"restaurant"}]},{"lat":"37.710899782","long":"126.73698644","imageIndex":4,"items":[{"name":"등촌샤브칼국수","tel":"031-962-2288","addr":"경기도 파주시 동패동 1936-1번지","indutype":"일반휴게음식 - 일반한식","category":"restaurant"}]},{"lat":"37.711682034","long":"126.74437788","imageIndex":4,"items":[{"name":"디저트39","tel":"031-942-2998","addr":"경기도 파주시 동패동 1758-1번지","indutype":"일반휴게음식 - 일반한식","category":"restaurant"},{"name":"메이크샐러드","tel":"031-941-2232","addr":"경기도 파주시 동패동 1758-1번지","indutype":"일반휴게음식 - 서양음식","category":"restaurant"},{"name":"본도시락 파주운정점","tel":"031-946-4288","addr":"경기도 파주시 동패동 1758-1번지","indutype":"일반휴게음식 - 일반한식","category":"restaurant"},{"name":"운정국수","tel":"031-942-0099","addr":"경기도 파주시 동패동 1758-1번지","indutype":"일반휴게음식 - 일반한식","category":"restaurant"}]},{"lat":"37.708599124","long":"126.73956892","imageIndex":4,"items":[{"name":"떡뽀꼬","tel":"031-957-9949","addr":"경기도 파주시 동패동 1768번지 휴먼시아한울마을","indutype":"일반휴게음식 - 스넥","category":"restaurant"},{"name":"처갓집 양념치킨 운정점","tel":"070-6253-3253","addr":"경기도 파주시 동패동 1768번지 휴먼시아한울마을","indutype":"일반휴게음식 - 스넥","category":"restaurant"}]},{"lat":"37.710119702","long":"126.73865629","imageIndex":4,"items":[{"name":"또봉이통닭","tel":"031-943-6999","addr":"경기도 파주시 동패동 1918번지","indutype":"일반휴게음식 - 스넥","category":"restaurant"}]},{"lat":"37.709316431","long":"126.73802408","imageIndex":4,"items":[{"name":"또와분식","tel":"02-1234-1234","addr":"경기도 파주시 동패동 1933-1번지","indutype":"일반휴게음식 - 일반한식","category":"restaurant"}]},{"lat":"37.705481518","long":"126.73149459","imageIndex":4,"items":[{"name":"로커스치킨","tel":"031-948-9279","addr":"경기도 파주시 동패동 303-5번지","indutype":"일반휴게음식 - 서양음식","category":"restaurant"},{"name":"백반명가","tel":"031-947-2503","addr":"경기도 파주시 동패동 303-5번지","indutype":"일반휴게음식 - 일반한식","category":"restaurant"},{"name":"빠샤카페","tel":"070-8163-6238","addr":"경기도 파주시 동패동 303-5번지 지하1층","indutype":"일반휴게음식 - 서양음식","category":"restaurant"},{"name":"삽다리집","tel":"031-946-2087","addr":"경기도 파주시 동패동 303-5번지","indutype":"일반휴게음식 - 일반한식","category":"restaurant"}]},{"lat":"37.711982274","long":"126.74571507","imageIndex":4,"items":[{"name":"롯데리아운정한빛점","tel":"031-949-7186","addr":"경기도 파주시 동패동 1759-2번지","indutype":"일반휴게음식 - 서양음식","category":"restaurant"},{"name":"만족오향족발","tel":"031-949-2050","addr":"경기도 파주시 동패동 1759-2번지","indutype":"일반휴게음식 - 일반한식","category":"restaurant"},{"name":"봉구스밥버거파주운정중앙점","tel":"031-957-9933","addr":"경기도 파주시 동패동 1759-2번지","indutype":"일반휴게음식 - 서양음식","category":"restaurant"},{"name":"빽다방 파주운정이마트점","tel":"031-947-8751","addr":"경기도 파주시 동패동 1759-2번지","indutype":"일반휴게음식 - 일반한식","category":"restaurant"},{"name":"커피에반하다","tel":"031-944-8320","addr":"경기도 파주시 동패동 1759-2번지","indutype":"일반휴게음식 - 서양음식","category":"restaurant"},{"name":"한솥도시락운정한울점","tel":"031-948-7227","addr":"경기도 파주시 동패동 1759-2번지","indutype":"일반휴게음식 - 일반한식","category":"restaurant"}]},{"lat":"37.710982391","long":"126.74579791","imageIndex":4,"items":[{"name":"메가엠지씨커피운정이마트점","tel":"","addr":"경기도 파주시 동패동 1759-6번지","indutype":"일반휴게음식 - 서양음식","category":"restaurant"},{"name":"불닭발동대문엽기떡볶이","tel":"031-945-8593","addr":"경기도 파주시 동패동 1759-6번지","indutype":"일반휴게음식 - 일반한식","category":"restaurant"},{"name":"신바람회장님불냉면","tel":"031-946-3371","addr":"경기도 파주시 동패동 1759-6번지","indutype":"일반휴게음식 - 일반한식","category":"restaurant"},{"name":"이게만두","tel":"031-946-3371","addr":"경기도 파주시 동패동 1759-6번지","indutype":"일반휴게음식 - 일반한식","category":"restaurant"},{"name":"쥬커피","tel":"031-941-6343","addr":"경기도 파주시 동패동 1759-6번지 씨티타워 110호, 204호","indutype":"일반휴게음식 - 서양음식","category":"restaurant"},{"name":"카페 조용한라이브","tel":"","addr":"경기도 파주시 동패동 1759-6번지","indutype":"일반휴게음식 - 서양음식","category":"restaurant"},{"name":"팬시어쿠파(FANCY A CUPPA)","tel":"031-111-1111","addr":"경기도 파주시 동패동 1759-6번지","indutype":"일반휴게음식 - 서양음식","category":"restaurant"}]},{"lat":"37.711539156","long":"126.74087406","imageIndex":4,"items":[{"name":"메리김밥","tel":"031-944-4869","addr":"경기도 파주시 동패동 1752번지","indutype":"일반휴게음식 - 스넥","category":"restaurant"},{"name":"피자스쿨한울마을점","tel":"031-941-1092","addr":"경기도 파주시 동패동 1752번지","indutype":"일반휴게음식 - 일반한식","category":"restaurant"}]},{"lat":"37.710647388","long":"126.73693063","imageIndex":4,"items":[{"name":"메이플가든","tel":"031-947-7977","addr":"경기도 파주시 동패동 1936-3번지","indutype":"일반휴게음식 - 서양음식","category":"restaurant"},{"name":"파이애","tel":"031-360-7624","addr":"경기도 파주시 동패동 1936-3번지","indutype":"일반휴게음식 - 서양음식","category":"restaurant"}]},{"lat":"37.706429745","long":"126.74865999","imageIndex":4,"items":[{"name":"명륜진사갈비동패점","tel":"","addr":"경기도 파주시 동패동 36-11번지","indutype":"일반휴게음식 - 일반한식","category":"restaurant"},{"name":"투썸플레이스 파주동패점","tel":"031-111-1111","addr":"경기도 파주시 동패동 36-11번지","indutype":"일반휴게음식 - 서양음식","category":"restaurant"}]},{"lat":"37.711179387","long":"126.74524153","imageIndex":4,"items":[{"name":"명품왕뼈다귀","tel":"031-943-8166","addr":"경기도 파주시 동패동 1761-2번지","indutype":"일반휴게음식 - 일반한식","category":"restaurant"},{"name":"오닭꼬치","tel":"","addr":"경기도 파주시 동패동 1761-2번지","indutype":"일반휴게음식 - 일반한식","category":"restaurant"},{"name":"커피홀 운정이마트점","tel":"031-943-8140","addr":"경기도 파주시 동패동 1761-2번지","indutype":"일반휴게음식 - 서양음식","category":"restaurant"},{"name":"타요키즈카페 파주운정점","tel":"031-949-0988","addr":"경기도 파주시 동패동 1761-2번지","indutype":"일반휴게음식 - 서양음식","category":"restaurant"}]},{"lat":"37.719874901","long":"126.71465578","imageIndex":4,"items":[{"name":"미가","tel":"031-941-5922","addr":"경기도 파주시 동패동 1740-3번지","indutype":"일반휴게음식 - 일반한식","category":"restaurant"}]},{"lat":"37.711263679","long":"126.74259883","imageIndex":4,"items":[{"name":"민들레 김밥","tel":"031-949-1124","addr":"경기도 파주시 동패동 1753번지 휴먼시아한울마을","indutype":"일반휴게음식 - 스넥","category":"restaurant"},{"name":"썬더치킨","tel":"031-9443-0742","addr":"경기도 파주시 동패동 1753번지 휴먼시아한울마을","indutype":"일반휴게음식 - 스넥","category":"restaurant"},{"name":"참맛깔곱창","tel":"031-944-9294","addr":"경기도 파주시 동패동 1753번지 휴먼시아한울마을","indutype":"일반휴게음식 - 일반한식","category":"restaurant"},{"name":"호식이두마리치킨 운정한울점","tel":"031-941-2090","addr":"경기도 파주시 동패동 1753번지 휴먼시아한울마을","indutype":"일반휴게음식 - 스넥","category":"restaurant"}]},{"lat":"37.71164751","long":"126.74506979","imageIndex":4,"items":[{"name":"밀칼국수","tel":"031-944-1858","addr":"경기도 파주시 동패동 1761번지","indutype":"일반휴게음식 - 일반한식","category":"restaurant"}]},{"lat":"37.709179349","long":"126.73716269","imageIndex":4,"items":[{"name":"밀팟","tel":"031-946-5580","addr":"경기도 파주시 동패동 1940번지","indutype":"일반휴게음식 - 일반한식","category":"restaurant"},{"name":"밀팟/주식회사씨지웍스(CG Work Co.Ltd.)","tel":"031-946-5580","addr":"경기도 파주시 동패동 1940번지","indutype":"일반휴게음식 - 일반한식","category":"restaurant"}]},{"lat":"37.710621433","long":"126.73740704","imageIndex":4,"items":[{"name":"바보식당","tel":"031-000-0000","addr":"경기도 파주시 동패동 1910-1번지","indutype":"일반휴게음식 - 일반한식","category":"restaurant"}]},{"lat":"37.710787346","long":"126.73907353","imageIndex":4,"items":[{"name":"바푸리 김밥","tel":"031-941-4350","addr":"경기도 파주시 동패동 1901-2번지","indutype":"일반휴게음식 - 스넥","category":"restaurant"},{"name":"커피에 반하다(한울마을점)","tel":"","addr":"경기도 파주시 동패동 1901-2번지","indutype":"일반휴게음식 - 서양음식","category":"restaurant"},{"name":"포앤 사이공 파주점","tel":"031-544-5630","addr":"경기도 파주시 동패동 1901-2번지","indutype":"일반휴게음식 - 일반한식","category":"restaurant"}]},{"lat":"37.706653169","long":"126.71274515","imageIndex":4,"items":[{"name":"방태막국수","tel":"031-943-9809","addr":"경기도 파주시 동패동 638-7번지","indutype":"일반휴게음식 - 일반한식","category":"restaurant"}]},{"lat":"37.710153194","long":"126.73752211","imageIndex":4,"items":[{"name":"배달저장소","tel":"031-946-4120","addr":"경기도 파주시 동패동 1922-1번지","indutype":"일반휴게음식 - 일반한식","category":"restaurant"},{"name":"슈파스타","tel":"031-943-3118","addr":"경기도 파주시 동패동 1922-1번지","indutype":"일반휴게음식 - 서양음식","category":"restaurant"}]},{"lat":"37.7156812618","long":"126.7166340989","imageIndex":4,"items":[{"name":"베스트푸드","tel":"031-944-7270","addr":"경기도 파주시 동패동 735","indutype":"일반휴게음식 - 일반한식","category":"restaurant"}]},{"lat":"37.709902279","long":"126.73812406","imageIndex":4,"items":[{"name":"별빛카페 달빛차 3호","tel":"031-946-3306","addr":"경기도 파주시 동패동 1920번지","indutype":"일반휴게음식 - 일반한식","category":"restaurant"}]},{"lat":"37.71026299","long":"126.7382702","imageIndex":4,"items":[{"name":"봉구비어 파주운정한울마을점","tel":"031-943-1977","addr":"경기도 파주시 동패동 1913번지","indutype":"일반휴게음식 - 일반한식","category":"restaurant"},{"name":"운정푸드","tel":"031-943-3700","addr":"경기도 파주시 동패동 1913번지","indutype":"일반휴게음식 - 일반한식","category":"restaurant"}]},{"lat":"37.70204445","long":"126.71816066","imageIndex":4,"items":[{"name":"부르고뉴","tel":"031-949-2077","addr":"경기도 파주시 동패동 612-14번지1층","indutype":"일반휴게음식 - 서양음식","category":"restaurant"}]},{"lat":"37.711008024","long":"126.73704275","imageIndex":4,"items":[{"name":"부부국수","tel":"031-943-1103","addr":"경기도 파주시 동패동 1936번지","indutype":"일반휴게음식 - 일반한식","category":"restaurant"}]},{"lat":"37.70982053","long":"126.73782949","imageIndex":4,"items":[{"name":"북촌손만두 한울한빛점","tel":"02-1588-0397","addr":"경기도 파주시 동패동 1924번지","indutype":"일반휴게음식 - 일반한식","category":"restaurant"}]},{"lat":"37.714071282","long":"126.74106928","imageIndex":4,"items":[{"name":"불소식당 파주운정점","tel":"031-952-6692","addr":"경기도 파주시 동패동 1832-3번지","indutype":"일반휴게음식 - 일반한식","category":"restaurant"},{"name":"홍익돈까스","tel":"031-944-5677","addr":"경기도 파주시 동패동 1832-3번지","indutype":"일반휴게음식 - 일반한식","category":"restaurant"}]},{"lat":"37.70845256","long":"126.74254062","imageIndex":4,"items":[{"name":"비비큐(BBQ)운정 한울점","tel":"031-946-1800","addr":"경기도 파주시 동패동 1771번지","indutype":"일반휴게음식 - 스넥","category":"restaurant"}]},{"lat":"37.714647286","long":"126.74079507","imageIndex":4,"items":[{"name":"빨강떡볶이","tel":"031-947-2294","addr":"경기도 파주시 동패동 1827번지","indutype":"일반휴게음식 - 일반한식","category":"restaurant"}]},{"lat":"37.710291264","long":"126.73882579","imageIndex":4,"items":[{"name":"뽕뜨락피자 운정1호점","tel":"031-947-4456","addr":"경기도 파주시 동패동 1908-4번지","indutype":"일반휴게음식 - 서양음식","category":"restaurant"}]},{"lat":"37.710425644","long":"126.7384851","imageIndex":4,"items":[{"name":"뿔발운정점","tel":"","addr":"경기도 파주시 동패동 1908-2번지","indutype":"일반휴게음식 - 일반한식","category":"restaurant"}]},{"lat":"37.705922828","long":"126.73142495","imageIndex":4,"items":[{"name":"사거리사철탕","tel":"031-941-9358","addr":"경기도 파주시 동패동 284나동2층","indutype":"일반휴게음식 - 일반한식","category":"restaurant"}]},{"lat":"37.709314364","long":"126.73710551","imageIndex":4,"items":[{"name":"사누끼우동카에","tel":"","addr":"경기도 파주시 동패동 1938-6번지","indutype":"일반휴게음식 - 일식·회집","category":"restaurant"}]},{"lat":"37.709180183","long":"126.70366292","imageIndex":4,"items":[{"name":"산뜨락곤드레","tel":"031-947-5225","addr":"경기도 파주시 동패동 1096-5","indutype":"일반휴게음식 - 일반한식","category":"restaurant"},{"name":"심학산 두부마을","tel":"031-941-7760","addr":"경기도 파주시 동패동 1096-5번지","indutype":"일반휴게음식 - 일반한식","category":"restaurant"}]},{"lat":"37.706929487","long":"126.70791318","imageIndex":4,"items":[{"name":"산마루가든","tel":"031-943-9356","addr":"경기도 파주시 동패동 1023-2번지","indutype":"일반휴게음식 - 일반한식","category":"restaurant"}]},{"lat":"37.706900571","long":"126.71443387","imageIndex":4,"items":[{"name":"삼시세끼한식뷔페","tel":"","addr":"경기도 파주시 동패동 643-2번지","indutype":"일반휴게음식 - 일반한식","category":"restaurant"}]},{"lat":"37.710515434","long":"126.73834869","imageIndex":4,"items":[{"name":"삼척포구(파주운정점)","tel":"031-948-8800","addr":"경기도 파주시 동패동 1908-1번지","indutype":"일반휴게음식 - 일반한식","category":"restaurant"}]},{"lat":"37.710209238","long":"126.73840648","imageIndex":4,"items":[{"name":"석이네민물매운탕","tel":"031-942-8811","addr":"경기도 파주시 동패동 1913-1번지","indutype":"일반휴게음식 - 일반한식","category":"restaurant"}]},{"lat":"37.705596154","long":"126.74648557","imageIndex":4,"items":[{"name":"섬마을게장님","tel":"031-944-8308","addr":"경기도 파주시 동패동 22-5번지","indutype":"일반휴게음식 - 일반한식","category":"restaurant"},{"name":"이북본가","tel":"031-946-6751","addr":"경기도 파주시 동패동 22-5번지","indutype":"일반휴게음식 - 일반한식","category":"restaurant"},{"name":"협재삼춘네횟집","tel":"031-8074-0049","addr":"경기도 파주시 동패동 22-5번지","indutype":"일반휴게음식 - 일반한식","category":"restaurant"}]},{"lat":"37.71025997","long":"126.74504058","imageIndex":4,"items":[{"name":"송사부수제쌀고로케 이마트운정점","tel":"","addr":"경기도 파주시 동패동 1763번지","indutype":"일반휴게음식 - 일반한식","category":"restaurant"}]},{"lat":"37.724979101","long":"126.71293457","imageIndex":4,"items":[{"name":"수피자","tel":"031-947-5955","addr":"경기도 파주시 동패동 1687번지","indutype":"일반휴게음식 - 서양음식","category":"restaurant"}]},{"lat":"37.710432284","long":"126.73743039","imageIndex":4,"items":[{"name":"스시어왕 운정점","tel":"031-943-1577","addr":"경기도 파주시 동패동 1915-2번지","indutype":"일반휴게음식 - 일반한식","category":"restaurant"}]},{"lat":"37.709568366","long":"126.73787575","imageIndex":4,"items":[{"name":"신전떡볶이(파주운정점)","tel":"031-942-0211","addr":"경기도 파주시 동패동 1929-1번지","indutype":"일반휴게음식 - 스넥","category":"restaurant"}]},{"lat":"37.7099608","long":"126.7401198","imageIndex":4,"items":[{"name":"심퉁즉석떡볶이2호점","tel":"031-946-0858","addr":"경기도 파주시 동패동 1768번지 휴먼시아한울마을","indutype":"일반휴게음식 - 일반한식","category":"restaurant"},{"name":"이대떡볶이","tel":"031-957-9949","addr":"경기도 파주시 동패동 1768번지 휴먼시아한울마을","indutype":"일반휴게음식 - 일반한식","category":"restaurant"},{"name":"티바두마리치킨 운정2호점","tel":"031-947-9266","addr":"경기도 파주시 동패동 1768번지 휴먼시아한울마을","indutype":"일반휴게음식 - 스넥","category":"restaurant"}]},{"lat":"37.709233462","long":"126.70335652","imageIndex":4,"items":[{"name":"심학산 한우곰탕","tel":"031-948-7768","addr":"경기도 파주시 동패동 1093번지","indutype":"일반휴게음식 - 일반한식","category":"restaurant"},{"name":"전라도 무지개 밥상","tel":"031-942-7508","addr":"경기도 파주시 동패동 1093번지","indutype":"일반휴게음식 - 일반한식","category":"restaurant"}]},{"lat":"37.705176639","long":"126.72059809","imageIndex":4,"items":[{"name":"심학산숯불화로구이","tel":"031-945-1144","addr":"경기도 파주시 동패동 581-6번지","indutype":"일반휴게음식 - 일반한식","category":"restaurant"}]},{"lat":"37.706873731","long":"126.71085049","imageIndex":4,"items":[{"name":"심학산우아한비빔밥","tel":"031-949-6209","addr":"경기도 파주시 동패동 1049번지","indutype":"일반휴게음식 - 일반한식","category":"restaurant"},{"name":"우아한커피","tel":"031-944-6209","addr":"경기도 파주시 동패동 1049번지","indutype":"일반휴게음식 - 서양음식","category":"restaurant"}]},{"lat":"37.704985377","long":"126.7473495","imageIndex":4,"items":[{"name":"쏘렌토","tel":"031-942-5305","addr":"경기도 파주시 동패동 29-7번지","indutype":"일반휴게음식 - 서양음식","category":"restaurant"}]},{"lat":"37.715015388","long":"126.74021536","imageIndex":4,"items":[{"name":"아몬드꽃","tel":"070-4151-1114","addr":"경기도 파주시 동패동 1828-2번지","indutype":"일반휴게음식 - 서양음식","category":"restaurant"},{"name":"피자브라더스 운정점","tel":"031-941-8891","addr":"경기도 파주시 동패동 1828-2번지","indutype":"일반휴게음식 - 서양음식","category":"restaurant"}]},{"lat":"37.715091342","long":"126.74196166","imageIndex":4,"items":[{"name":"알단테 (aldente)","tel":"031-949-5229","addr":"경기도 파주시 동패동 1810-2번지","indutype":"일반휴게음식 - 서양음식","category":"restaurant"}]},{"lat":"37.710793175","long":"126.73765592","imageIndex":4,"items":[{"name":"양계장집아들","tel":"031-945-7904","addr":"경기도 파주시 동패동 1906-2번지","indutype":"일반휴게음식 - 스넥","category":"restaurant"}]},{"lat":"37.71010384","long":"126.7396203","imageIndex":4,"items":[{"name":"언니네포차2","tel":"031-941-8797","addr":"경기도 파주시 동패동 1768번지 휴먼시아한울마을","indutype":"일반휴게음식 - 일반한식","category":"restaurant"},{"name":"운정2호점 굽네치킨","tel":"031-948-9282","addr":"경기도 파주시 동패동 1768번지 휴먼시아한울마을","indutype":"일반휴게음식 - 스넥","category":"restaurant"},{"name":"운정2호점굽네치킨","tel":"031-948-9282","addr":"경기도 파주시 동패동 1768번지 휴먼시아한울마을","indutype":"일반휴게음식 - 스넥","category":"restaurant"}]},{"lat":"37.70664827","long":"126.73346352","imageIndex":4,"items":[{"name":"엄니밥상","tel":"031-946-7833","addr":"경기도 파주시 동패동 291-1번지","indutype":"일반휴게음식 - 일반한식","category":"restaurant"}]},{"lat":"37.71528585","long":"126.7402938","imageIndex":4,"items":[{"name":"엄마손 한식뷔페 파주점","tel":"","addr":"경기도 파주시 동패동 1822-6번지","indutype":"일반휴게음식 - 일반한식","category":"restaurant"}]},{"lat":"37.710404208","long":"126.73696552","imageIndex":4,"items":[{"name":"에이플렛","tel":"","addr":"경기도 파주시 동패동 1936-5번지","indutype":"일반휴게음식 - 서양음식","category":"restaurant"}]},{"lat":"37.706317237","long":"126.7466305","imageIndex":4,"items":[{"name":"오야스미 운정점","tel":"","addr":"경기도 파주시 동패동 22-4번지","indutype":"일반휴게음식 - 일식·회집","category":"restaurant"}]},{"lat":"37.70567863","long":"126.7310176","imageIndex":4,"items":[{"name":"올가","tel":"031-957-2474","addr":"경기도 파주시 동패동 283-6","indutype":"일반휴게음식 - 주점","category":"restaurant"}]},{"lat":"37.711430935","long":"126.74491177","imageIndex":4,"items":[{"name":"올리앤파주동패점","tel":"031-000-0000","addr":"경기도 파주시 동패동 1761-6번지","indutype":"일반휴게음식 - 일반한식","category":"restaurant"},{"name":"히노데","tel":"031-994-5998","addr":"경기도 파주시 동패동 1761-6번지","indutype":"일반휴게음식 - 일식·회집","category":"restaurant"}]},{"lat":"37.706429074","long":"126.71321097","imageIndex":4,"items":[{"name":"완도바다 생태한마리","tel":"031-945-8289","addr":"경기도 파주시 동패동 624-1번지","indutype":"일반휴게음식 - 일반한식","category":"restaurant"}]},{"lat":"37.702485259","long":"126.71788683","imageIndex":4,"items":[{"name":"완행열차멀티카페","tel":"031-942-7786","addr":"경기도 파주시 동패동 612-8번지","indutype":"일반휴게음식 - 서양음식","category":"restaurant"}]},{"lat":"37.70537577","long":"126.71354393","imageIndex":4,"items":[{"name":"우농가든","tel":"031-949-5630","addr":"경기도 파주시 동패동 616-1번지","indutype":"일반휴게음식 - 일반한식","category":"restaurant"}]},{"lat":"37.715565902","long":"126.74063305","imageIndex":4,"items":[{"name":"우마이","tel":"","addr":"경기도 파주시 동패동 1821-1번지","indutype":"일반휴게음식 - 일반한식","category":"restaurant"}]},{"lat":"37.710371969","long":"126.7386554","imageIndex":4,"items":[{"name":"운정삼양골","tel":"031-944-6050","addr":"경기도 파주시 동패동 1908-3번지","indutype":"일반휴게음식 - 일반한식","category":"restaurant"}]},{"lat":"37.714925596","long":"126.74035177","imageIndex":4,"items":[{"name":"운정쭈꾸미와샤브칼국수","tel":"031-945-8259","addr":"경기도 파주시 동패동 1828-3번지","indutype":"일반휴게음식 - 일반한식","category":"restaurant"}]},{"lat":"37.70900896","long":"126.73751485","imageIndex":4,"items":[{"name":"운정한우국밥","tel":"031-941-2293","addr":"경기도 파주시 동패동 1933-5번지","indutype":"일반휴게음식 - 일반한식","category":"restaurant"},{"name":"카페혜원","tel":"","addr":"경기도 파주시 동패동 1933-5번지","indutype":"일반휴게음식 - 서양음식","category":"restaurant"}]},{"lat":"37.715205068","long":"126.74043018","imageIndex":4,"items":[{"name":"웅이네 오돌뼈 닭발도","tel":"032-941-9276","addr":"경기도 파주시 동패동 1822-5번지","indutype":"일반휴게음식 - 일반한식","category":"restaurant"}]},{"lat":"37.709982931","long":"126.73793098","imageIndex":4,"items":[{"name":"원두막","tel":"031-948-0799","addr":"경기도 파주시 동패동 1920-1번지","indutype":"일반휴게음식 - 일반한식","category":"restaurant"}]},{"lat":"37.715375642","long":"126.74015738","imageIndex":4,"items":[{"name":"유로코 피자","tel":"031-944-1828","addr":"경기도 파주시 동패동 1822-7번지","indutype":"일반휴게음식 - 서양음식","category":"restaurant"}]},{"lat":"37.706736003","long":"126.73243125","imageIndex":4,"items":[{"name":"유명해물찜.최고집칼국수","tel":"031-945-3412","addr":"경기도 파주시 동패동 285-2번지","indutype":"일반휴게음식 - 일반한식","category":"restaurant"}]},{"lat":"37.710988226","long":"126.74434627","imageIndex":4,"items":[{"name":"으르렁애견카페","tel":"031-947-1981","addr":"경기도 파주시 동패동 1758-4번지","indutype":"일반휴게음식 - 일반한식","category":"restaurant"},{"name":"자담치킨 운정한울점","tel":"031-949-6667","addr":"경기도 파주시 동패동 1758-4번지","indutype":"일반휴게음식 - 스넥","category":"restaurant"},{"name":"청수산","tel":"031-944-8253","addr":"경기도 파주시 동패동 1758-4번지","indutype":"일반휴게음식 - 일식·회집","category":"restaurant"}]},{"lat":"37.708874637","long":"126.70397034","imageIndex":4,"items":[{"name":"이가네봉평메밀향","tel":"031-941-1626","addr":"경기도 파주시 동패동 1101-1번지","indutype":"일반휴게음식 - 일반한식","category":"restaurant"}]},{"lat":"37.71484796","long":"126.74190581","imageIndex":4,"items":[{"name":"이끌림","tel":"031-944-1812","addr":"경기도 파주시 동패동 1812번지","indutype":"일반휴게음식 - 서양음식","category":"restaurant"}]},{"lat":"37.71000871","long":"126.7373752","imageIndex":4,"items":[{"name":"이응주수제도넛","tel":"031-948-0482","addr":"경기도 파주시 동패동 1923번지","indutype":"일반휴게음식 - 일반한식","category":"restaurant"}]},{"lat":"37.709566323","long":"126.73696852","imageIndex":4,"items":[{"name":"인도 밥집","tel":"031-944-7003","addr":"경기도 파주시 동패동 1938-4번지","indutype":"일반휴게음식 - 일반한식","category":"restaurant"}]},{"lat":"37.706405229","long":"126.7498281","imageIndex":4,"items":[{"name":"일산칼국수파주점","tel":"031-946-9111","addr":"경기도 파주시 동패동 43-5번지","indutype":"일반휴게음식 - 일반한식","category":"restaurant"}]},{"lat":"37.711154881","long":"126.73824435","imageIndex":4,"items":[{"name":"장충당운정1호점","tel":"031-949-5393","addr":"경기도 파주시 동패동 1899-1번지 올리브프라자101호~102호 101","indutype":"일반휴게음식 - 일반한식","category":"restaurant"},{"name":"호치킨(한울마을점)","tel":"031-943-1181","addr":"경기도 파주시 동패동 1899-1번지","indutype":"일반휴게음식 - 스넥","category":"restaurant"}]},{"lat":"37.705958709","long":"126.73135677","imageIndex":4,"items":[{"name":"장터돼지국밥","tel":"031-942-5670","addr":"경기도 파주시 동패동 284번지","indutype":"일반휴게음식 - 일반한식","category":"restaurant"}]},{"lat":"37.70660801","long":"126.71269997","imageIndex":4,"items":[{"name":"점례네 시골밥상","tel":"031-945-5692","addr":"경기도 파주시 동패동 638-7번지","indutype":"일반휴게음식 - 일반한식","category":"restaurant"}]},{"lat":"37.71001141","long":"126.73857729","imageIndex":4,"items":[{"name":"정이가네아구 운정점","tel":"031-957-2253","addr":"경기도 파주시 동패동 1918-1번지","indutype":"일반휴게음식 - 일반한식","category":"restaurant"}]},{"lat":"37.710460257","long":"126.7378499","imageIndex":4,"items":[{"name":"정정아식당","tel":"031-946-4818","addr":"경기도 파주시 동패동 1910-4번지","indutype":"일반휴게음식 - 일반한식","category":"restaurant"}]},{"lat":"37.706598646","long":"126.73146784","imageIndex":4,"items":[{"name":"종가한식","tel":"031-957-7313","addr":"경기도 파주시 동패동 287번지","indutype":"일반휴게음식 - 일반한식","category":"restaurant"}]},{"lat":"37.704425437","long":"126.72676977","imageIndex":4,"items":[{"name":"주식회사세가","tel":"031-947-0808","addr":"경기도 파주시 동패동 325-3번지","indutype":"일반휴게음식 - 일반한식","category":"restaurant"}]},{"lat":"37.709426147","long":"126.73474628","imageIndex":4,"items":[{"name":"준차이나","tel":"031-957-0081","addr":"경기도 파주시 동패동 1981-2번지","indutype":"일반휴게음식 - 중국식","category":"restaurant"}]},{"lat":"37.705870465","long":"126.73216223","imageIndex":4,"items":[{"name":"중흥각","tel":"031-948-0884","addr":"경기도 파주시 동패동 300-2번지","indutype":"일반휴게음식 - 중국식","category":"restaurant"}]},{"lat":"37.710649711","long":"126.73796263","imageIndex":4,"items":[{"name":"지코바","tel":"031-8071-0092","addr":"경기도 파주시 동패동 1906-4번지","indutype":"일반휴게음식 - 스넥","category":"restaurant"}]},{"lat":"37.706148023","long":"126.71249764","imageIndex":4,"items":[{"name":"지푸라기동태한마리","tel":"031-945-7021","addr":"경기도 파주시 동패동 638-4번지","indutype":"일반휴게음식 - 일반한식","category":"restaurant"}]},{"lat":"37.709785791","long":"126.73840799","imageIndex":4,"items":[{"name":"짝태앤노가리","tel":"","addr":"경기도 파주시 동패동 1918-3번지","indutype":"일반휴게음식 - 주점","category":"restaurant"}]},{"lat":"37.719024696","long":"126.72073837","imageIndex":4,"items":[{"name":"처음사랑카페","tel":"031-946-5305","addr":"경기도 파주시 동패동 1711번지","indutype":"일반휴게음식 - 서양음식","category":"restaurant"}]},{"lat":"37.710063532","long":"126.73771522","imageIndex":4,"items":[{"name":"치쿡","tel":"031-949-5757","addr":"경기도 파주시 동패동 1922번지","indutype":"일반휴게음식 - 일반한식","category":"restaurant"}]},{"lat":"37.714954365","long":"126.74113423","imageIndex":4,"items":[{"name":"치피떡&더함카페","tel":"031-948-3724","addr":"경기도 파주시 동패동 1817-1번지","indutype":"일반휴게음식 - 서양음식","category":"restaurant"}]},{"lat":"37.705347653","long":"126.73205074","imageIndex":4,"items":[{"name":"친구네","tel":"031-947-7975","addr":"경기도 파주시 동패동 299-10","indutype":"일반휴게음식 - 일반한식","category":"restaurant"}]},{"lat":"37.71487426","long":"126.74157682","imageIndex":4,"items":[{"name":"카페 07 에이엠","tel":"03-111-1111","addr":"경기도 파주시 동패동 1814-1번지","indutype":"일반휴게음식 - 서양음식","category":"restaurant"}]},{"lat":"37.710764588","long":"126.73696424","imageIndex":4,"items":[{"name":"카페데니빗(Cafe Dainty Bits) 운정점","tel":"031-942-9530","addr":"경기도 파주시 동패동 1936-2번지","indutype":"일반휴게음식 - 일반한식","category":"restaurant"}]},{"lat":"37.71036955","long":"126.73757804","imageIndex":4,"items":[{"name":"카페블란도","tel":"070-7799-2521","addr":"경기도 파주시 동패동 1915-1번지","indutype":"일반휴게음식 - 서양음식","category":"restaurant"}]},{"lat":"37.709513748","long":"126.73762646","imageIndex":4,"items":[{"name":"카페아키 (Cafe Aki)","tel":"031-947-3730","addr":"경기도 파주시 동패동 1929-3번지","indutype":"일반휴게음식 - 일반한식","category":"restaurant"}]},{"lat":"37.715037536","long":"126.74207527","imageIndex":4,"items":[{"name":"카페제이","tel":"031-943-8669","addr":"경기도 파주시 동패동 1810-3번지","indutype":"일반휴게음식 - 서양음식","category":"restaurant"}]},{"lat":"37.710127644","long":"126.73817996","imageIndex":4,"items":[{"name":"카프리1995","tel":"070-7743-1995","addr":"경기도 파주시 동패동 1913-3번지","indutype":"일반휴게음식 - 서양음식","category":"restaurant"}]},{"lat":"37.709953784","long":"126.73698982","imageIndex":4,"items":[{"name":"커피와 요리하다","tel":"031-941-0672","addr":"경기도 파주시 동패동 1938-1번지","indutype":"일반휴게음식 - 서양음식","category":"restaurant"}]},{"lat":"37.707542982","long":"126.71927365","imageIndex":4,"items":[{"name":"케이엠 식품(주) 파주25식당","tel":"02-748-8809","addr":"경기도 파주시 동패동 568-1번지","indutype":"일반휴게음식 - 일반한식","category":"restaurant"}]},{"lat":"37.713571056","long":"126.71582565","imageIndex":4,"items":[{"name":"케이엠식품 (주)파주30식당","tel":"","addr":"경기도 파주시 동패동 725-4","indutype":"일반휴게음식 - 일반한식","category":"restaurant"}]},{"lat":"37.709072358","long":"126.73766205","imageIndex":4,"items":[{"name":"코드박스","tel":"070-8822-9317","addr":"경기도 파주시 동패동 1933-4번지","indutype":"일반휴게음식 - 서양음식","category":"restaurant"}]},{"lat":"37.706625107","long":"126.71232568","imageIndex":4,"items":[{"name":"콩닥콩닥두부사랑","tel":"031-949-4141","addr":"경기도 파주시 동패동 638-2번지","indutype":"일반휴게음식 - 일반한식","category":"restaurant"}]},{"lat":"37.714621441","long":"126.7413282","imageIndex":4,"items":[{"name":"쿠지라 스시","tel":"031-949-4302","addr":"경기도 파주시 동패동 1814-3번지","indutype":"일반휴게음식 - 일식·회집","category":"restaurant"}]},{"lat":"37.702622672","long":"126.71882748","imageIndex":4,"items":[{"name":"큐(Cafe&Dining)","tel":"031-942-7356","addr":"경기도 파주시 동패동 612-24번지","indutype":"일반휴게음식 - 일반한식","category":"restaurant"}]},{"lat":"37.711342832","long":"126.73768798","imageIndex":4,"items":[{"name":"큐이디","tel":"031-0000-0000","addr":"경기도 파주시 동패동 1898번지","indutype":"일반휴게음식 - 서양음식","category":"restaurant"}]},{"lat":"37.710569135","long":"126.73818973","imageIndex":4,"items":[{"name":"탕수육","tel":"031-949-0539","addr":"경기도 파주시 동패동 1908번지","indutype":"일반휴게음식 - 중국식","category":"restaurant"}]},{"lat":"37.715484009","long":"126.74027041","imageIndex":4,"items":[{"name":"파운커피(paun coffee)","tel":"","addr":"경기도 파주시 동패동 1822번지","indutype":"일반휴게음식 - 서양음식","category":"restaurant"}]},{"lat":"37.710233845","long":"126.73732903","imageIndex":4,"items":[{"name":"팬케익팬트리운정점","tel":"031-944-8833","addr":"경기도 파주시 동패동 1922-2번지","indutype":"일반휴게음식 - 일반한식","category":"restaurant"}]},{"lat":"37.723596964","long":"126.7188268","imageIndex":4,"items":[{"name":"푸라닭치킨 파주교하신도시점","tel":"031-948-9206","addr":"경기도 파주시 동패동 1703번지","indutype":"일반휴게음식 - 스넥","category":"restaurant"}]},{"lat":"37.714844763","long":"126.74046547","imageIndex":4,"items":[{"name":"피자이탈리","tel":"","addr":"경기도 파주시 동패동 1828-4번지","indutype":"일반휴게음식 - 서양음식","category":"restaurant"}]},{"lat":"37.706482518","long":"126.71296128","imageIndex":4,"items":[{"name":"한마음푸드","tel":"070-4060-1093","addr":"경기도 파주시 동패동 624-1번지","indutype":"일반휴게음식 - 일반한식","category":"restaurant"}]},{"lat":"37.720118379","long":"126.71474557","imageIndex":4,"items":[{"name":"해밀애선인장칼국수","tel":"031-946-3353","addr":"경기도 파주시 동패동 1737-2번지","indutype":"일반휴게음식 - 일반한식","category":"restaurant"}]},{"lat":"37.723594211","long":"126.72143563","imageIndex":4,"items":[{"name":"행복한구이마을","tel":"031-949-4811","addr":"경기도 파주시 동패동 1702번지 진흥효자아파트","indutype":"일반휴게음식 - 일반한식","category":"restaurant"}]},{"lat":"37.705762403","long":"126.73218531","imageIndex":4,"items":[{"name":"화정족발운정점","tel":"031-943-3307","addr":"경기도 파주시 동패동 301-1번지","indutype":"일반휴게음식 - 일반한식","category":"restaurant"}]},{"lat":"37.714595091","long":"126.74163451","imageIndex":4,"items":[{"name":"히세의 카페","tel":"070-8245-2628","addr":"경기도 파주시 동패동 1812-2번지","indutype":"일반휴게음식 - 일반한식","category":"restaurant"}]}]