[{"lat":"37.955830903","long":"127.47280539","imageIndex":5,"items":[{"name":"가평 베이스캠프 펜션","tel":"","addr":"경기도 가평군 북면 도대리 336-62번지","indutype":"숙박업 - 여관/기타숙박업","category":"hotel"}]},{"lat":"37.952465168","long":"127.47637931","imageIndex":5,"items":[{"name":"가평 하이랜드","tel":"031-3524-7013","addr":"경기도 가평군 북면 도대리 319-17번지","indutype":"숙박업 - 여관/기타숙박업","category":"hotel"},{"name":"가평하이랜드호텔","tel":"031-581-2256","addr":"경기도 가평군 북면 도대리 319-17번지","indutype":"숙박업 - 여관/기타숙박업","category":"hotel"}]},{"lat":"37.954021834","long":"127.47685579","imageIndex":5,"items":[{"name":"가평미즈베베키풀빌라","tel":"","addr":"경기도 가평군 북면 도대리 324-1번지","indutype":"숙박업 - 여관/기타숙박업","category":"hotel"}]},{"lat":"37.954717274","long":"127.47865799","imageIndex":5,"items":[{"name":"가평에프키즈풀빌라","tel":"","addr":"경기도 가평군 북면 도대리 324-43번지","indutype":"숙박업 - 여관/기타숙박업","category":"hotel"}]},{"lat":"37.964299695","long":"127.46594059","imageIndex":5,"items":[{"name":"가평파라디소","tel":"031-581-6660","addr":"경기도 가평군 북면 도대리 493-2번지","indutype":"숙박업 - 여관/기타숙박업","category":"hotel"}]},{"lat":"37.935886883","long":"127.48996863","imageIndex":5,"items":[{"name":"가평하늘정원","tel":"031-582-9612","addr":"경기도 가평군 북면 도대리 234-1번지","indutype":"숙박업 - 여관/기타숙박업","category":"hotel"}]},{"lat":"37.968658692","long":"127.45939021","imageIndex":5,"items":[{"name":"거림내쉼터","tel":"031-111-1111","addr":"경기도 가평군 북면 도대리 522번지 가동","indutype":"숙박업 - 여관/기타숙박업","category":"hotel"}]},{"lat":"37.952801381","long":"127.47566466","imageIndex":5,"items":[{"name":"계곡풍경","tel":"031-582-9317","addr":"경기도 가평군 북면 도대리 319-5","indutype":"숙박업 - 여관/기타숙박업","category":"hotel"}]},{"lat":"37.949748383","long":"127.4798547","imageIndex":5,"items":[{"name":"너나드리민박","tel":"031-582-9787","addr":"경기도 가평군 북면 도대리 306-6번지","indutype":"숙박업 - 여관/기타숙박업","category":"hotel"}]},{"lat":"37.954636608","long":"127.47855507","imageIndex":5,"items":[{"name":"라무리조트 E","tel":"","addr":"경기도 가평군 북면 도대리 324-42번지","indutype":"숙박업 - 여관/기타숙박업","category":"hotel"}]},{"lat":"37.954546979","long":"127.47844071","imageIndex":5,"items":[{"name":"라무리조트4","tel":"03-100-0000","addr":"경기도 가평군 북면 도대리 324-29번지","indutype":"숙박업 - 여관/기타숙박업","category":"hotel"}]},{"lat":"37.954305669","long":"127.47796128","imageIndex":5,"items":[{"name":"라무캠핑장","tel":"","addr":"경기도 가평군 북면 도대리 324-9번지","indutype":"숙박업 - 여관/기타숙박업","category":"hotel"}]},{"lat":"37.966108612","long":"127.46183246","imageIndex":5,"items":[{"name":"루펜션","tel":"031-582-2509","addr":"경기도 가평군 북면 도대리 475-2번지","indutype":"숙박업 - 여관/기타숙박업","category":"hotel"}]},{"lat":"37.96446638","long":"127.4670796","imageIndex":5,"items":[{"name":"리치하우스","tel":"031-582-6555","addr":"경기도 가평군 북면 도대리 492-8","indutype":"숙박업 - 여관/기타숙박업","category":"hotel"}]},{"lat":"37.964495471","long":"127.46655632","imageIndex":5,"items":[{"name":"리치하우스","tel":"031-582-6555","addr":"경기도 가평군 북면 도대리 491번지","indutype":"숙박업 - 여관/기타숙박업","category":"hotel"}]},{"lat":"37.967965535","long":"127.45924935","imageIndex":5,"items":[{"name":"명지산 패밀리 펜션","tel":"070-8616-2223","addr":"경기도 가평군 북면 도대리 530-3번지 1층","indutype":"숙박업 - 여관/기타숙박업","category":"hotel"}]},{"lat":"37.950191388","long":"127.47947073","imageIndex":5,"items":[{"name":"밤비니펜션","tel":"","addr":"경기도 가평군 북면 도대리 306-3번지","indutype":"숙박업 - 여관/기타숙박업","category":"hotel"}]},{"lat":"37.954047164","long":"127.47727694","imageIndex":5,"items":[{"name":"보니또","tel":"031-581-7885","addr":"경기도 가평군 북면 도대리 324-5번지","indutype":"숙박업 - 여관/기타숙박업","category":"hotel"}]},{"lat":"37.967549181","long":"127.4597475","imageIndex":5,"items":[{"name":"산수펜션","tel":"031-581-7968","addr":"경기도 가평군 북면 도대리 532-1번지","indutype":"숙박업 - 여관/기타숙박업","category":"hotel"}]},{"lat":"37.9548337","long":"127.47882942","imageIndex":5,"items":[{"name":"스위트 아이 풀빌라","tel":"","addr":"경기도 가평군 북면 도대리 324-46번지","indutype":"숙박업 - 여관/기타숙박업","category":"hotel"}]},{"lat":"37.960272373","long":"127.4773056","imageIndex":5,"items":[{"name":"스토리(story)","tel":"031-581-7171","addr":"경기도 가평군 북면 도대리 436-4번지 가동","indutype":"숙박업 - 여관/기타숙박업","category":"hotel"}]},{"lat":"37.954272066","long":"127.47735803","imageIndex":5,"items":[{"name":"안젤로펜션","tel":"031-581-7508","addr":"경기도 가평군 북면 도대리 324-14번지","indutype":"숙박업 - 여관/기타숙박업","category":"hotel"}]},{"lat":"37.968132897","long":"127.45790753","imageIndex":5,"items":[{"name":"에비뉴펜션","tel":"031-582-0497","addr":"경기도 가평군 북면 도대리 526-2번지","indutype":"숙박업 - 여관/기타숙박업","category":"hotel"}]},{"lat":"37.954496647","long":"127.47751877","imageIndex":5,"items":[{"name":"엘사","tel":"031-582-0304","addr":"경기도 가평군 북면 도대리 328-1번지","indutype":"숙박업 - 여관/기타숙박업","category":"hotel"}]},{"lat":"37.903005647","long":"127.5023044","imageIndex":5,"items":[{"name":"연인산온천랜드 주식회사","tel":"031-581-8842","addr":"경기도 가평군 북면 도대리 70-111번지","indutype":"숙박업 - 여관/기타숙박업","category":"hotel"}]},{"lat":"37.96798959","long":"127.45769043","imageIndex":5,"items":[{"name":"우리집펜션유원지","tel":"031-581-9959","addr":"경기도 가평군 북면 도대리 527번지","indutype":"숙박업 - 여관/기타숙박업","category":"hotel"}]},{"lat":"37.935827631","long":"127.48904685","imageIndex":5,"items":[{"name":"인천하우스","tel":"031-582-7895","addr":"경기도 가평군 북면 도대리 240-13번지","indutype":"숙박업 - 여관/기타숙박업","category":"hotel"}]},{"lat":"37.964242818","long":"127.46665715","imageIndex":5,"items":[{"name":"자연속의 휴식공간","tel":"031-582-7393","addr":"경기도 가평군 북면 도대리 492-6번지","indutype":"숙박업 - 여관/기타숙박업","category":"hotel"}]},{"lat":"37.95171841","long":"127.48280285","imageIndex":5,"items":[{"name":"제스밸리펜션","tel":"070-4922-1261","addr":"경기도 가평군 북면 도대리 310-24번지","indutype":"숙박업 - 여관/기타숙박업","category":"hotel"}]},{"lat":"37.960110809","long":"127.47715664","imageIndex":5,"items":[{"name":"펜션 띠아모","tel":"","addr":"경기도 가평군 북면 도대리 436번지 가동","indutype":"숙박업 - 여관/기타숙박업","category":"hotel"}]},{"lat":"37.956444321","long":"127.4748574","imageIndex":5,"items":[{"name":"프리마 베라","tel":"031-582-2819","addr":"경기도 가평군 북면 도대리 375번지","indutype":"숙박업 - 여관/기타숙박업","category":"hotel"}]},{"lat":"37.953415209","long":"127.47760283","imageIndex":5,"items":[{"name":"하야타펜션","tel":"031-581-3005","addr":"경기도 가평군 북면 도대리 324-13번지","indutype":"숙박업 - 여관/기타숙박업","category":"hotel"}]},{"lat":"37.940747812","long":"127.48657656","imageIndex":5,"items":[{"name":"해누리펜션","tel":"031-582-1481","addr":"경기도 가평군 북면 도대리 283번지","indutype":"숙박업 - 여관/기타숙박업","category":"hotel"}]},{"lat":"37.95366216","long":"127.47444137","imageIndex":5,"items":[{"name":"해바라기","tel":"031-581-1881","addr":"경기도 가평군 북면 도대리 336-20번지","indutype":"숙박업 - 여관/기타숙박업","category":"hotel"}]},{"lat":"37.947994085","long":"127.47924037","imageIndex":5,"items":[{"name":"휴림","tel":"031-581-9100","addr":"경기도 가평군 북면 도대리 301-1번지","indutype":"숙박업 - 여관/기타숙박업","category":"hotel"}]}]