[{"lat":"37.255349112","long":"126.9900092","imageIndex":0,"items":[{"name":"(주)바이더카","tel":"031-295-0500","addr":"경기도 수원시 권선구 고색동 173-9번지","indutype":"자동차판매 - 중고자동차판매","category":"car"}]},{"lat":"37.253907501","long":"126.99037015","imageIndex":0,"items":[{"name":"(주)원자동차정비","tel":"031-295-7430","addr":"경기도 수원시 권선구 고색동 165번지","indutype":"자동차정비 유지 - 자동차정비","category":"car"}]},{"lat":"37.256430139","long":"126.98820545","imageIndex":0,"items":[{"name":"1급다온모터스","tel":"031-296-8272","addr":"경기도 수원시 권선구 고색동 7-8번지 1층","indutype":"자동차정비 유지 - 자동차부품","category":"car"}]},{"lat":"37.254159611","long":"126.98878076","imageIndex":0,"items":[{"name":"1급미르모터스","tel":"031-296-4972","addr":"경기도 수원시 권선구 고색동 19-1번지","indutype":"자동차정비 유지 - 자동차정비","category":"car"},{"name":"1급미르모터스","tel":"031-296-4973","addr":"경기도 수원시 권선구 고색동 19-1번지","indutype":"자동차정비 유지 - 자동차정비","category":"car"}]},{"lat":"37.252429943","long":"126.99170045","imageIndex":0,"items":[{"name":"AP오토서비스","tel":"031-296-8225","addr":"경기도 수원시 권선구 고색동 214-4번지","indutype":"자동차정비 유지 - 자동차정비","category":"car"}]},{"lat":"37.247320205","long":"126.98456671","imageIndex":0,"items":[{"name":"J카랜드","tel":"031-295-9929","addr":"경기도 수원시 권선구 고색동 303-1번지","indutype":"자동차정비 유지 - 자동차정비","category":"car"}]},{"lat":"37.245074256","long":"126.97290218","imageIndex":0,"items":[{"name":"PDI CENTER","tel":"031-222-2222","addr":"경기도 수원시 권선구 고색동 912-3번지 2동","indutype":"자동차정비 유지 - 카인테리어","category":"car"},{"name":"피디아이센터(PDI CENTER)","tel":"031-224-7282","addr":"경기도 수원시 권선구 고색동 912-3번지 2층","indutype":"자동차정비 유지 - 자동차정비","category":"car"}]},{"lat":"37.257014588","long":"126.9804274","imageIndex":0,"items":[{"name":"SK모터스","tel":"031-293-9997","addr":"경기도 수원시 권선구 고색동 888-8번지 라동","indutype":"자동차정비 유지 - 자동차정비","category":"car"}]},{"lat":"37.254186903","long":"126.99117041","imageIndex":0,"items":[{"name":"YD모터스","tel":"032-291-3668","addr":"경기도 수원시 권선구 고색동 165-2번지 1층","indutype":"자동차정비 유지 - 자동차시트·타이어","category":"car"}]},{"lat":"37.255601543","long":"126.99139564","imageIndex":0,"items":[{"name":"경수모터스","tel":"031-298-2261","addr":"경기도 수원시 권선구 고색동 178-9번지","indutype":"자동차정비 유지 - 자동차정비","category":"car"},{"name":"경수자동차정비공업사","tel":"031-36-2260","addr":"경기도 수원시 권선구 고색동 178-9번지","indutype":"자동차정비 유지 - 자동차정비","category":"car"}]},{"lat":"37.253042617","long":"126.99141857","imageIndex":0,"items":[{"name":"고색자동차공업사","tel":"031-293-0331","addr":"경기도 수원시 권선구 고색동 160-1번지","indutype":"자동차정비 유지 - 자동차정비","category":"car"}]},{"lat":"37.25373609","long":"126.9884765","imageIndex":0,"items":[{"name":"고색자동차서비스","tel":"031-292-0028","addr":"경기도 수원시 권선구 고색동 21-2번지","indutype":"자동차정비 유지 - 자동차정비","category":"car"}]},{"lat":"37.256151155","long":"126.99122647","imageIndex":0,"items":[{"name":"광진광택","tel":"031-295-8685","addr":"경기도 수원시 권선구 고색동 177-8","indutype":"자동차정비 유지 - 카인테리어","category":"car"},{"name":"도원오토","tel":"031-295-8552","addr":"경기도 수원시 권선구 고색동 177-8번지","indutype":"자동차정비 유지 - 자동차부품","category":"car"},{"name":"비엠모터스정비주식회사","tel":"","addr":"경기도 수원시 권선구 고색동 177-8번지","indutype":"자동차정비 유지 - 자동차부품","category":"car"}]},{"lat":"37.250069246","long":"126.99175716","imageIndex":0,"items":[{"name":"규엔카 용품점","tel":"","addr":"경기도 수원시 권선구 고색동 117-10번지 외1필지","indutype":"자동차정비 유지 - 자동차부품","category":"car"}]},{"lat":"37.247851391","long":"126.98200806","imageIndex":0,"items":[{"name":"김사일정비공업사","tel":"031-292-7262","addr":"경기도 수원시 권선구 고색동 74-35번지","indutype":"자동차정비 유지 - 자동차정비","category":"car"}]},{"lat":"37.251961018","long":"126.98814996","imageIndex":0,"items":[{"name":"뉴샤인모터스","tel":"031-223-5214","addr":"경기도 수원시 권선구 고색동 269-1번지","indutype":"자동차정비 유지 - 자동차정비","category":"car"}]},{"lat":"37.250375618","long":"126.99198254","imageIndex":0,"items":[{"name":"다함자동차","tel":"031-292-9904","addr":"경기도 수원시 권선구 고색동 118-4번지","indutype":"자동차정비 유지 - 자동차정비","category":"car"}]},{"lat":"37.254403265","long":"126.99239903","imageIndex":0,"items":[{"name":"대건기획","tel":"031-294-6479","addr":"경기도 수원시 권선구 고색동 185-9번지","indutype":"자동차정비 유지 - 카인테리어","category":"car"},{"name":"연합자동차공업사","tel":"031-294-9422","addr":"경기도 수원시 권선구 고색동 185-9번지","indutype":"자동차정비 유지 - 자동차정비","category":"car"}]},{"lat":"37.24534791","long":"126.99253553","imageIndex":0,"items":[{"name":"대신적재함","tel":"031-247-0055","addr":"경기도 수원시 권선구 고색동 138-2번지","indutype":"자동차정비 유지 - 자동차부품","category":"car"}]},{"lat":"37.248014367","long":"126.9871138","imageIndex":0,"items":[{"name":"대우바로코너고색점","tel":"031-291-1515","addr":"경기도 수원시 권선구 고색동 281-6번지","indutype":"자동차정비 유지 - 자동차정비","category":"car"}]},{"lat":"37.253492865","long":"126.98892742","imageIndex":0,"items":[{"name":"대원자동차정비공장","tel":"031-291-2294","addr":"경기도 수원시 권선구 고색동 21-6번지","indutype":"자동차정비 유지 - 자동차정비","category":"car"}]},{"lat":"37.25226727","long":"126.98737216","imageIndex":0,"items":[{"name":"대창모터스","tel":"031-227-3110","addr":"경기도 수원시 권선구 고색동 151-3번지","indutype":"자동차정비 유지 - 자동차정비","category":"car"}]},{"lat":"37.253546826","long":"126.98809329","imageIndex":0,"items":[{"name":"대창타이어","tel":"031-227-3110","addr":"경기도 수원시 권선구 고색동 21-9번지","indutype":"자동차정비 유지 - 자동차시트·타이어","category":"car"},{"name":"맥스 자동차 용품","tel":"031-291-3900","addr":"경기도 수원시 권선구 고색동 21-9번지 101호","indutype":"자동차정비 유지 - 자동차부품","category":"car"},{"name":"신흥오토","tel":"031-252-3474","addr":"경기도 수원시 권선구 고색동 21-9번지","indutype":"자동차정비 유지 - 자동차정비","category":"car"}]},{"lat":"37.241824234","long":"126.98681079","imageIndex":0,"items":[{"name":"명진자동차정비센타","tel":"031-293-2223","addr":"경기도 수원시 권선구 고색동 1101번지 A동","indutype":"자동차정비 유지 - 자동차정비","category":"car"},{"name":"미라모터스","tel":"031-294-6605","addr":"경기도 수원시 권선구 고색동 1101번지 B동,C동","indutype":"자동차정비 유지 - 자동차정비","category":"car"}]},{"lat":"37.255709545","long":"126.99020077","imageIndex":0,"items":[{"name":"미르모터스","tel":"","addr":"경기도 수원시 권선구 고색동 177-1번지","indutype":"자동차판매 - 중고자동차판매","category":"car"}]},{"lat":"37.248823143","long":"126.97534654","imageIndex":0,"items":[{"name":"바우무역","tel":"031-295-8080","addr":"경기도 수원시 권선구 고색동 533-7번지","indutype":"자동차판매 - 이륜차판매","category":"car"},{"name":"승리카인테리어","tel":"031-298-8133","addr":"경기도 수원시 권선구 고색동 533-7번지 1층","indutype":"자동차정비 유지 - 카인테리어","category":"car"}]},{"lat":"37.2521317","long":"126.98447537","imageIndex":0,"items":[{"name":"배터리마트","tel":"031-296-6666","addr":"경기도 수원시 권선구 고색동 38-12번지","indutype":"자동차정비 유지 - 자동차부품","category":"car"}]},{"lat":"37.255123657","long":"126.98830716","imageIndex":0,"items":[{"name":"베스트자동차","tel":"031-296-7766","addr":"경기도 수원시 권선구 고색동 12-2번지","indutype":"자동차판매 - 중고자동차판매","category":"car"},{"name":"카카오토","tel":"","addr":"경기도 수원시 권선구 고색동 12-2번지 106호","indutype":"자동차판매 - 중고자동차판매","category":"car"}]},{"lat":"37.253799033","long":"126.98745075","imageIndex":0,"items":[{"name":"상용상사","tel":"031-298-4812","addr":"경기도 수원시 권선구 고색동 10-6번지","indutype":"자동차정비 유지 - 자동차부품","category":"car"}]},{"lat":"37.251599787","long":"126.98261569","imageIndex":0,"items":[{"name":"서광모터피아","tel":"031-278-5345","addr":"경기도 수원시 권선구 고색동 890-152번지","indutype":"자동차정비 유지 - 자동차부품","category":"car"},{"name":"현대카월드","tel":"031-293-1763","addr":"경기도 수원시 권선구 고색동 890-152번지","indutype":"자동차정비 유지 - 자동차정비","category":"car"}]},{"lat":"37.254880696","long":"126.99117031","imageIndex":0,"items":[{"name":"서광상사","tel":"031-294-8585","addr":"경기도 수원시 권선구 고색동 175-1번지","indutype":"자동차판매 - 중고자동차판매","category":"car"}]},{"lat":"37.254736371","long":"126.9896486","imageIndex":0,"items":[{"name":"서수원공업사","tel":"031-292-7970","addr":"경기도 수원시 권선구 고색동 173-7번지","indutype":"자동차정비 유지 - 자동차정비","category":"car"},{"name":"유달 타이어","tel":"031-298-6221","addr":"경기도 수원시 권선구 고색동 173-7번지","indutype":"자동차정비 유지 - 자동차시트·타이어","category":"car"}]},{"lat":"37.256103277","long":"126.97450974","imageIndex":0,"items":[{"name":"선인자동차(주) 서수원서비스센터","tel":"031-292-6340","addr":"경기도 수원시 권선구 고색동 894-6번지","indutype":"자동차정비 유지 - 자동차정비","category":"car"}]},{"lat":"37.238382227","long":"126.98637201","imageIndex":0,"items":[{"name":"수원벤처밸리2 관리위원회","tel":"","addr":"경기도 수원시 권선구 고색동 1152번지","indutype":"자동차정비 유지 - 주차장","category":"car"}]},{"lat":"37.256598757","long":"126.97414884","imageIndex":0,"items":[{"name":"수원센터","tel":"031-278-1078","addr":"경기도 수원시 권선구 고색동 894-14번지","indutype":"자동차정비 유지 - 자동차정비","category":"car"}]},{"lat":"37.252880462","long":"126.9917342","imageIndex":0,"items":[{"name":"수원제일공업사","tel":"031-291-3922","addr":"경기도 수원시 권선구 고색동 186-5번지","indutype":"자동차정비 유지 - 자동차정비","category":"car"}]},{"lat":"37.255213324","long":"126.98511713","imageIndex":0,"items":[{"name":"수원종합공구단지","tel":"031-278-0906","addr":"경기도 수원시 권선구 고색동 986번지 수원종합공구단지 지하B호 1동","indutype":"자동차정비 유지 - 주차장","category":"car"}]},{"lat":"37.253790602","long":"126.99283872","imageIndex":0,"items":[{"name":"스피드모터스","tel":"031-297-1854","addr":"경기도 수원시 권선구 고색동 185-6번지","indutype":"자동차정비 유지 - 자동차정비","category":"car"}]},{"lat":"37.248852185","long":"126.98608795","imageIndex":0,"items":[{"name":"신은성공업사","tel":"031-000-0000","addr":"경기도 수원시 권선구 고색동 286-17번지 101호","indutype":"자동차정비 유지 - 자동차부품","category":"car"}]},{"lat":"37.252096631","long":"126.9924557","imageIndex":0,"items":[{"name":"썬모터스","tel":"031-893-7119","addr":"경기도 수원시 권선구 고색동 212-1번지 1층","indutype":"자동차정비 유지 - 자동차정비","category":"car"}]},{"lat":"37.245435804","long":"126.97778223","imageIndex":0,"items":[{"name":"아트론","tel":"070-4618-6840","addr":"경기도 수원시 권선구 고색동 432-1번지 1층 장애인실","indutype":"자동차정비 유지 - 자동차부품","category":"car"}]},{"lat":"37.254907115","long":"126.9860866","imageIndex":0,"items":[{"name":"아트트럭","tel":"","addr":"경기도 수원시 권선구 고색동 7-27번지 2층 212호","indutype":"자동차정비 유지 - 카인테리어","category":"car"}]},{"lat":"37.255484376","long":"126.99105749","imageIndex":0,"items":[{"name":"에이스모터스","tel":"031-292-5587","addr":"경기도 수원시 권선구 고색동 178-14번지 1층","indutype":"자동차정비 유지 - 자동차정비","category":"car"}]},{"lat":"37.245879504","long":"126.9923664","imageIndex":0,"items":[{"name":"영타이어","tel":"031-293-7111","addr":"경기도 수원시 권선구 고색동 136-1번지 성화빌딩","indutype":"자동차정비 유지 - 자동차시트·타이어","category":"car"}]},{"lat":"37.251015368","long":"126.99217407","imageIndex":0,"items":[{"name":"오토라인모터스","tel":"031-291-6691","addr":"경기도 수원시 권선구 고색동 224-1번지","indutype":"자동차정비 유지 - 자동차정비","category":"car"},{"name":"월드기획","tel":"070-3222-8629","addr":"경기도 수원시 권선구 고색동 224-1번지","indutype":"자동차정비 유지 - 세차장","category":"car"}]},{"lat":"37.253574065","long":"126.98986297","imageIndex":0,"items":[{"name":"우성공업사","tel":"031-296-7100","addr":"경기도 수원시 권선구 고색동 163-1번지","indutype":"자동차정비 유지 - 자동차정비","category":"car"}]},{"lat":"37.253546978","long":"126.98936701","imageIndex":0,"items":[{"name":"우성중앙부란자","tel":"031-213-7908","addr":"경기도 수원시 권선구 고색동 163-7번지 1층","indutype":"자동차정비 유지 - 자동차정비","category":"car"}]},{"lat":"37.238354051","long":"126.97956518","imageIndex":0,"items":[{"name":"워시박스 수원","tel":"031-296-9999","addr":"경기도 수원시 권선구 고색동 988-4번지 201호","indutype":"자동차정비 유지 - 세차장","category":"car"}]},{"lat":"37.252742692","long":"126.97561563","imageIndex":0,"items":[{"name":"웰스킨","tel":"031-293-1451","addr":"경기도 수원시 권선구 고색동 886-50번지 1층","indutype":"자동차정비 유지 - 자동차부품","category":"car"}]},{"lat":"37.254601188","long":"126.98940064","imageIndex":0,"items":[{"name":"유달중고타이어","tel":"031-225-0367","addr":"경기도 수원시 권선구 고색동 171-2번지","indutype":"자동차정비 유지 - 자동차시트·타이어","category":"car"}]},{"lat":"37.254268212","long":"126.99361642","imageIndex":0,"items":[{"name":"유송카센타","tel":"031-293-6695","addr":"경기도 수원시 권선구 고색동 184-2번지","indutype":"자동차정비 유지 - 자동차정비","category":"car"},{"name":"타이어마트","tel":"031-244-3773","addr":"경기도 수원시 권선구 고색동 184-2번지","indutype":"자동차정비 유지 - 자동차시트·타이어","category":"car"}]},{"lat":"37.252240209","long":"126.98714673","imageIndex":0,"items":[{"name":"인성밧데리","tel":"031-291-7555","addr":"경기도 수원시 권선구 고색동 149-1번지","indutype":"자동차정비 유지 - 자동차부품","category":"car"}]},{"lat":"37.249652669","long":"126.9779499","imageIndex":0,"items":[{"name":"일주카센타","tel":"031-292-6944","addr":"경기도 수원시 권선구 고색동 390-1번지","indutype":"자동차정비 유지 - 자동차정비","category":"car"}]},{"lat":"37.253988843","long":"126.99300777","imageIndex":0,"items":[{"name":"제이에스(JS)모터스","tel":"031-296-3369","addr":"경기도 수원시 권선구 고색동 185-8번지 1층","indutype":"자동차정비 유지 - 자동차정비","category":"car"}]},{"lat":"37.255076246","long":"126.97511882","imageIndex":0,"items":[{"name":"제일차바닥","tel":"031-294-5288","addr":"경기도 수원시 권선구 고색동 886-225번지","indutype":"자동차정비 유지 - 자동차부품","category":"car"}]},{"lat":"37.25237545","long":"126.98781173","imageIndex":0,"items":[{"name":"조이오토 리페어","tel":"031-278-5293","addr":"경기도 수원시 권선구 고색동 151-1번지","indutype":"자동차정비 유지 - 자동차정비","category":"car"}]},{"lat":"37.2530695681","long":"126.9906182684","imageIndex":0,"items":[{"name":"조흥시트","tel":"031-892-5171","addr":"경기도 수원시 권선구 고색동 162번지","indutype":"자동차정비 유지 - 자동차시트·타이어","category":"car"}]},{"lat":"37.252267636","long":"126.99048314","imageIndex":0,"items":[{"name":"주식회사 녹스제로코리아","tel":"","addr":"경기도 수원시 권선구 고색동 111-2번지","indutype":"자동차정비 유지 - 자동차정비","category":"car"}]},{"lat":"37.253069766","long":"126.99270355","imageIndex":0,"items":[{"name":"주식회사 대산자동차공업사","tel":"031-546-8116","addr":"경기도 수원시 권선구 고색동 188-2번지","indutype":"자동차정비 유지 - 자동차정비","category":"car"},{"name":"주식회사 대산자동차공업사","tel":"031-546-8116","addr":"경기도 수원시 권선구 고색동 188-2번지","indutype":"자동차정비 유지 - 자동차정비","category":"car"}]},{"lat":"37.253403133","long":"126.99253443","imageIndex":0,"items":[{"name":"주식회사 메이져모터스","tel":"031-227-1223","addr":"경기도 수원시 권선구 고색동 186-24번지 외 5필지","indutype":"자동차정비 유지 - 자동차정비","category":"car"}]},{"lat":"37.252573746","long":"126.98836401","imageIndex":0,"items":[{"name":"주식회사 아프니카공업사","tel":"031-293-4101","addr":"경기도 수원시 권선구 고색동 152-1번지","indutype":"자동차정비 유지 - 자동차정비","category":"car"}]},{"lat":"37.241660737","long":"126.97903447","imageIndex":0,"items":[{"name":"주식회사 오카","tel":"031-295-0292","addr":"경기도 수원시 권선구 고색동 926번지 3층","indutype":"자동차정비 유지 - 자동차부품","category":"car"}]},{"lat":"37.25318688","long":"126.9924781","imageIndex":0,"items":[{"name":"주식회사 탑모터스","tel":"031-298-8683","addr":"경기도 수원시 권선구 고색동 186-29번지","indutype":"자동차정비 유지 - 자동차정비","category":"car"},{"name":"주식회사메이져모터스","tel":"031-227-1223","addr":"경기도 수원시 권선구 고색동 186-29번지 외5필지","indutype":"자동차정비 유지 - 자동차정비","category":"car"}]},{"lat":"37.25334867","long":"126.9886682","imageIndex":0,"items":[{"name":"주식회사제아","tel":"031-252-8541","addr":"경기도 수원시 권선구 고색동 21-7번지","indutype":"자동차정비 유지 - 자동차부품","category":"car"},{"name":"현대자동차공업사","tel":"031-292-6741","addr":"경기도 수원시 권선구 고색동 21-7번지","indutype":"자동차정비 유지 - 자동차정비","category":"car"}]},{"lat":"37.253573176","long":"126.98339292","imageIndex":0,"items":[{"name":"주식회사탑코리아모터스","tel":"031-293-6215","addr":"경기도 수원시 권선구 고색동 888-188번지","indutype":"자동차정비 유지 - 자동차정비","category":"car"}]},{"lat":"37.253907034","long":"126.9865377","imageIndex":0,"items":[{"name":"중앙카서비스","tel":"031-278-1535","addr":"경기도 수원시 권선구 고색동 7-68번지","indutype":"자동차정비 유지 - 자동차정비","category":"car"}]},{"lat":"37.253736157","long":"126.9890401","imageIndex":0,"items":[{"name":"청안자동차정비공업사","tel":"031-292-7900","addr":"경기도 수원시 권선구 고색동 21-1번지","indutype":"자동차정비 유지 - 자동차정비","category":"car"}]},{"lat":"37.251762658","long":"126.98711301","imageIndex":0,"items":[{"name":"케이(K)모터스","tel":"031-296-3072","addr":"경기도 수원시 권선구 고색동 270번지 2층","indutype":"자동차정비 유지 - 자동차정비","category":"car"}]},{"lat":"37.246742395","long":"126.97823263","imageIndex":0,"items":[{"name":"코리아 배터리 할인마트","tel":"031-294-2490","addr":"경기도 수원시 권선구 고색동 365-6번지 서수원마트","indutype":"자동차정비 유지 - 자동차부품","category":"car"}]},{"lat":"37.255319445","long":"126.97478057","imageIndex":0,"items":[{"name":"타다 아우토","tel":"031-291-7577","addr":"경기도 수원시 권선구 고색동 886-7번지 1층","indutype":"자동차정비 유지 - 카인테리어","category":"car"}]},{"lat":"37.255625758","long":"126.97462264","imageIndex":0,"items":[{"name":"토센(TORSEN)","tel":"","addr":"경기도 수원시 권선구 고색동 886-1번지","indutype":"자동차정비 유지 - 자동차부품","category":"car"}]},{"lat":"37.253907259","long":"126.9882623","imageIndex":0,"items":[{"name":"티제이(TJ) 휠","tel":"","addr":"경기도 수원시 권선구 고색동 19-8번지","indutype":"자동차정비 유지 - 자동차시트·타이어","category":"car"}]},{"lat":"37.254907762","long":"126.99153101","imageIndex":0,"items":[{"name":"퍼스트오토","tel":"031-278-6567","addr":"경기도 수원시 권선구 고색동 176-4번지","indutype":"자동차정비 유지 - 자동차부품","category":"car"}]},{"lat":"37.254931225","long":"126.97168089","imageIndex":0,"items":[{"name":"현대카서비스","tel":"031-227-8005","addr":"경기도 수원시 권선구 고색동 1179번지","indutype":"자동차정비 유지 - 자동차정비","category":"car"}]},{"lat":"37.248158566","long":"126.987373","imageIndex":0,"items":[{"name":"현엔지니어링","tel":"031-291-9753","addr":"경기도 수원시 권선구 고색동 281-14번지","indutype":"자동차정비 유지 - 중장비수리","category":"car"}]},{"lat":"37.249464419","long":"126.98306711","imageIndex":0,"items":[{"name":"휠마스터","tel":"","addr":"경기도 수원시 권선구 고색동 80-2번지","indutype":"자동차정비 유지 - 세차장","category":"car"}]},{"lat":"37.242633304","long":"126.97645327","imageIndex":0,"items":[{"name":"휴먼스카이밸리 관리단","tel":"070-7731-1083","addr":"경기도 수원시 권선구 고색동 959번지","indutype":"자동차정비 유지 - 주차장","category":"car"},{"name":"휴먼카정비","tel":"031-298-8192","addr":"경기도 수원시 권선구 고색동 959번지 휴먼스카이밸리 105호","indutype":"자동차정비 유지 - 자동차정비","category":"car"}]}]