[{"lat":"37.344169827","long":"126.7847242","imageIndex":8,"items":[{"name":"e-조은치과의원","tel":"031-497-2875","addr":"경기도 시흥시 거모동 1742-5번지","indutype":"보건업 - 치과의원","category":"medical"},{"name":"도일의원","tel":"031-495-8738","addr":"경기도 시흥시 거모동 1742-5번지","indutype":"보건업 - 일반의원","category":"medical"},{"name":"센타온누리약국","tel":"031-491-0640","addr":"경기도 시흥시 거모동 1742-5번지 106~107호","indutype":"보건업 - 약국","category":"medical"}]},{"lat":"37.341392586","long":"126.78358117","imageIndex":8,"items":[{"name":"녹십자약국","tel":"031-494-4930","addr":"경기도 시흥시 거모동 1553-1번지","indutype":"보건업 - 약국","category":"medical"}]},{"lat":"37.343890451","long":"126.78469116","imageIndex":8,"items":[{"name":"보람의원","tel":"031-508-4999","addr":"경기도 시흥시 거모동 1756-1번지 동운디오빌아파트 206호","indutype":"보건업 - 일반의원","category":"medical"},{"name":"참사랑한의원","tel":"031-508-3001","addr":"경기도 시흥시 거모동 1756-1번지 동운디오빌아파트 205호","indutype":"보건업 - 한의원","category":"medical"}]},{"lat":"37.345169532","long":"126.7844956","imageIndex":8,"items":[{"name":"서광약국","tel":"031-491-3181","addr":"경기도 시흥시 거모동 1733-8번지","indutype":"보건업 - 약국","category":"medical"}]},{"lat":"37.341249406","long":"126.78411198","imageIndex":8,"items":[{"name":"유성온누리약국","tel":"031-492-5275","addr":"경기도 시흥시 거모동 1656-8번지 102호","indutype":"보건업 - 약국","category":"medical"}]}]