[{"lat":"37.663404701","long":"126.76843644","imageIndex":17,"items":[{"name":"JJin Homme","tel":"031-924-8005","addr":"경기도 고양시 일산동구 무궁화로","indutype":"의류 - 정장","category":"other"}]},{"lat":"37.661324225","long":"126.76881698","imageIndex":17,"items":[{"name":"JOO#","tel":"","addr":"경기도 고양시 일산동구 무궁화로","indutype":"의류 - 정장","category":"other"},{"name":"SECRET","tel":"031-905-3550","addr":"경기도 고양시 일산동구 무궁화로","indutype":"의류 - 정장","category":"other"}]},{"lat":"37.661938001","long":"126.76938171","imageIndex":17,"items":[{"name":"Lakemall","tel":"031-906-5611","addr":"경기도 고양시 일산동구 무궁화로","indutype":"레져용품 - 스포츠·레져용품","category":"other"},{"name":"이엔엠(E&M)","tel":"031-938-6603","addr":"경기도 고양시 일산동구 무궁화로","indutype":"서적문구 - 전문서적","category":"other"}]},{"lat":"37.663712476","long":"126.76466139","imageIndex":17,"items":[{"name":"Purple K ent.","tel":"031-944-5445","addr":"경기도 고양시 일산동구 무궁화로","indutype":"문화.취미 - 화원","category":"other"}]},{"lat":"37.660439684","long":"126.76801511","imageIndex":17,"items":[{"name":"ampm24편의점","tel":"031-932-6748","addr":"경기도 고양시 일산동구 무궁화로","indutype":"유통업 영리 - 편 의 점","category":"other"},{"name":"바디오프퍼스널짐","tel":"031-932-8253","addr":"경기도 고양시 일산동구 무궁화로","indutype":"회원제형태 - 레져업소","category":"other"}]},{"lat":"37.666795309","long":"126.77454615","imageIndex":17,"items":[{"name":"고양시니어클럽","tel":"031-904-2611","addr":"경기도 고양시 일산동구 무궁화로","indutype":"신변잡화 - 기타잡화","category":"other"}]},{"lat":"37.66190433","long":"126.76604983","imageIndex":17,"items":[{"name":"바둑아놀자","tel":"031-916-1300","addr":"경기도 고양시 일산동구 무궁화로","indutype":"문화.취미 - 애완동물","category":"other"}]},{"lat":"37.659716427","long":"126.76677076","imageIndex":17,"items":[{"name":"법무사조재경사무소","tel":"031-912-3300","addr":"경기도 고양시 일산동구 무궁화로","indutype":"용역 서비스 - 법률회계서비스(개인)","category":"other"}]},{"lat":"37.662106552","long":"126.76805519","imageIndex":17,"items":[{"name":"세인트","tel":"031-901-5420","addr":"경기도 고양시 일산동구 무궁화로","indutype":"의류 - 정장","category":"other"},{"name":"코데즈컴바인이너웨어","tel":"070-4117-9111","addr":"경기도 고양시 일산동구 무궁화로","indutype":"의류 - 내의판매","category":"other"}]},{"lat":"37.663800358","long":"126.76804985","imageIndex":17,"items":[{"name":"유니테크","tel":"031-817-9801","addr":"경기도 고양시 일산동구 무궁화로","indutype":"서적문구 - 전문서적","category":"other"}]},{"lat":"37.66162669","long":"126.76687804","imageIndex":17,"items":[{"name":"인포비즈","tel":"031-812-9933","addr":"경기도 고양시 일산동구 무궁화로","indutype":"용역 서비스 - 사무서비스","category":"other"},{"name":"함지사","tel":"031-911-2882","addr":"경기도 고양시 일산동구 무궁화로","indutype":"서적문구 - 문구용품","category":"other"}]},{"lat":"37.66226816","long":"126.76777135","imageIndex":17,"items":[{"name":"제이커머스","tel":"031-914-7952","addr":"경기도 고양시 일산동구 무궁화로","indutype":"의류 - 정장","category":"other"}]},{"lat":"37.661418516","long":"126.76640271","imageIndex":17,"items":[{"name":"케어세븐","tel":"031-906-3085","addr":"경기도 고양시 일산동구 무궁화로","indutype":"회원제형태 - 기타1","category":"other"}]},{"lat":"37.663378044","long":"126.76412979","imageIndex":17,"items":[{"name":"퀼트드수아레","tel":"070-8800-3691","addr":"경기도 고양시 일산동구 무궁화로","indutype":"신변잡화 - 기타잡화","category":"other"}]},{"lat":"37.662851066","long":"126.76640949","imageIndex":17,"items":[{"name":"플러스","tel":"031-919-9388","addr":"경기도 고양시 일산동구 무궁화로","indutype":"용역 서비스 - 종합용역","category":"other"}]},{"lat":"37.660076085","long":"126.76640696","imageIndex":17,"items":[{"name":"허밍버드","tel":"031-905-2363","addr":"경기도 고양시 일산동구 무궁화로","indutype":"문화.취미 - 화원","category":"other"}]}]