[{"lat":"37.645336098","long":"127.23491382","imageIndex":13,"items":[{"name":"HU PC","tel":"031-0000-0000","addr":"경기도 남양주시 평내동 578-3번지 메인프라자 3층","indutype":"레저업소 - 기타레져업소","category":"leisure"},{"name":"THE 멋 GYM","tel":"031-595-2885","addr":"경기도 남양주시 평내동 578-3번지 메인프라자 2층 201호","indutype":"레저업소 - 헬스클럽","category":"leisure"},{"name":"사이버파크PC방","tel":"031-511-4279","addr":"경기도 남양주시 평내동 578-3번지 평내메인프라자상가 502호","indutype":"레저업소 - 기타레져업소","category":"leisure"},{"name":"와와노래연습장","tel":"031-559-4363","addr":"경기도 남양주시 평내동 578-3번지 평내메인프라자 302호","indutype":"레저업소 - 노 래 방","category":"leisure"},{"name":"점프아이","tel":"031-511-8144","addr":"경기도 남양주시 평내동 578-3번지 메인프라자 505호","indutype":"레저업소 - 기타레져업소","category":"leisure"},{"name":"프로당구장","tel":"031-559-5975","addr":"경기도 남양주시 평내동 578-3번지 메인프라자 5층 501호","indutype":"레저업소 - 당 구 장","category":"leisure"}]},{"lat":"37.645588902","long":"127.23464267","imageIndex":13,"items":[{"name":"JJ빌리아드","tel":"031-559-1748","addr":"경기도 남양주시 평내동 578-2번지 평내프라자 205호","indutype":"레저업소 - 당 구 장","category":"leisure"},{"name":"나비노래연습장","tel":"031-595-4585","addr":"경기도 남양주시 평내동 578-2번지 평내프라자 302호","indutype":"레저업소 - 노 래 방","category":"leisure"},{"name":"쁘띠아이 키즈카페","tel":"031-593-5265","addr":"경기도 남양주시 평내동 578-2번지 평내프라자 501호 일부","indutype":"레저업소 - 기타레져업소","category":"leisure"},{"name":"평내나이스볼링센터","tel":"031-559-8620","addr":"경기도 남양주시 평내동 578-2번지 평내프라자 7층","indutype":"레저업소 - 볼 링 장","category":"leisure"},{"name":"평내스크린골프","tel":"031-592-9907","addr":"경기도 남양주시 평내동 578-2번지 평내프라자 303,304호","indutype":"레저업소 - 스크린골프","category":"leisure"}]},{"lat":"37.643394076","long":"127.23741182","imageIndex":13,"items":[{"name":"MS노래연습장","tel":"031-559-7077","addr":"경기도 남양주시 평내동 603번지 시티프라자 304,305호","indutype":"레저업소 - 노 래 방","category":"leisure"},{"name":"점폴린파크평내점","tel":"031-592-7340","addr":"경기도 남양주시 평내동 603번지","indutype":"레저업소 - 기타레져업소","category":"leisure"}]},{"lat":"37.642663957","long":"127.23757948","imageIndex":13,"items":[{"name":"W골프","tel":"031-559-1449","addr":"경기도 남양주시 평내동 604-4번지 성원프라자 4층 401호","indutype":"레저업소 - 골프연습장","category":"leisure"}]},{"lat":"37.64514399","long":"127.23638622","imageIndex":13,"items":[{"name":"고고랜드(남양주점)","tel":"","addr":"경기도 남양주시 평내동 580-1번지 CH리베로2 B101호","indutype":"레저업소 - 기타레져업소","category":"leisure"}]},{"lat":"37.646029015","long":"127.23533522","imageIndex":13,"items":[{"name":"골프 카페","tel":"031-595-9644","addr":"경기도 남양주시 평내동 579-2번지 오렌지웰빙타워 9층 904-907호","indutype":"레저업소 - 골프연습장","category":"leisure"},{"name":"라이또PC방","tel":"070-7997-4034","addr":"경기도 남양주시 평내동 579-2번지 209호,210호","indutype":"레저업소 - 기타레져업소","category":"leisure"},{"name":"무지개 팡팡","tel":"070-4219-9081","addr":"경기도 남양주시 평내동 579-2번지 오렌지웰빙타워 강남프라자 901,908호","indutype":"레저업소 - 기타레져업소","category":"leisure"},{"name":"아쉬탕가제니요가 4호점","tel":"070-4922-1261","addr":"경기도 남양주시 평내동 579-2번지 오렌지웰빙타워 402호 강남프라자","indutype":"레저업소 - 헬스클럽","category":"leisure"},{"name":"장찬주탁구클럽","tel":"031-591-0925","addr":"경기도 남양주시 평내동 579-2번지 강남프라자 207호","indutype":"레저업소 - 기타레져업소","category":"leisure"},{"name":"평내당구클럽","tel":"031-591-9442","addr":"경기도 남양주시 평내동 579-2번지 오렌지웰빙타워 302,303호","indutype":"레저업소 - 당 구 장","category":"leisure"},{"name":"필(FEEL)코인노래연습장","tel":"031-592-3457","addr":"경기도 남양주시 평내동 579-2번지 오렌지웰빙타워 상가동 2층 201호","indutype":"레저업소 - 노 래 방","category":"leisure"}]},{"lat":"37.6466158","long":"127.23474784","imageIndex":13,"items":[{"name":"굿샷 골프존스크린","tel":"031-591-0702","addr":"경기도 남양주시 평내동 579번지 하나프라자 702,703호","indutype":"레저업소 - 스크린골프","category":"leisure"}]},{"lat":"37.647391294","long":"127.24341853","imageIndex":13,"items":[{"name":"남양주기독교청년회","tel":"031-595-6677","addr":"경기도 남양주시 평내동 597-2번지 늘봄프라자 4층","indutype":"레저업소 - 기타레져업소","category":"leisure"},{"name":"늘봄스크린골프","tel":"031-529-1212","addr":"경기도 남양주시 평내동 597-2번지 늘봄프라자 지층 제비 104호","indutype":"레저업소 - 스크린골프","category":"leisure"},{"name":"평내무술원","tel":"031-592-5332","addr":"경기도 남양주시 평내동 597-2번지 늘봄프라자 502호","indutype":"레저업소 - 기타레져업소","category":"leisure"}]},{"lat":"37.65022037","long":"127.23894037","imageIndex":13,"items":[{"name":"남양주탁구클럽","tel":"031-595-9555","addr":"경기도 남양주시 평내동 117-5번지 2층","indutype":"레저업소 - 기타레져업소","category":"leisure"},{"name":"스타힐골프","tel":"031-591-3696","addr":"경기도 남양주시 평내동 117-5번지 2층","indutype":"레저업소 - 스크린골프","category":"leisure"}]},{"lat":"37.649280977","long":"127.23560598","imageIndex":13,"items":[{"name":"도토리노래연습장","tel":"031-592-1417","addr":"경기도 남양주시 평내동 206-3번지","indutype":"레저업소 - 노 래 방","category":"leisure"}]},{"lat":"37.642944696","long":"127.23685522","imageIndex":13,"items":[{"name":"라인피트니스(Line fitness)","tel":"031-595-0721","addr":"경기도 남양주시 평내동 604-10번지 우영프라자 2층 201호,202-1호","indutype":"레저업소 - 헬스클럽","category":"leisure"},{"name":"탑 멀티방","tel":"","addr":"경기도 남양주시 평내동 604-10번지 우영프라자 204호","indutype":"레저업소 - 기타레져업소","category":"leisure"}]},{"lat":"37.650274905","long":"127.2431672","imageIndex":13,"items":[{"name":"리치 스크린 골프","tel":"031-593-0752","addr":"경기도 남양주시 평내동 140번지 리치플러스 5층 501호","indutype":"레저업소 - 스크린골프","category":"leisure"},{"name":"리치당구장","tel":"031-595-7244","addr":"경기도 남양주시 평내동 140번지 리치플러스제3층 308","indutype":"레저업소 - 당 구 장","category":"leisure"},{"name":"바나나노래연습장","tel":"031-559-0349","addr":"경기도 남양주시 평내동 140번지 리치플러스 2층 203호","indutype":"레저업소 - 노 래 방","category":"leisure"}]},{"lat":"37.642555548","long":"127.23772643","imageIndex":13,"items":[{"name":"미술로생각하기남양주교육원","tel":"031-511-2780","addr":"경기도 남양주시 평내동 604-5번지 동부프라자 504호","indutype":"레저업소 - 기타레져업소","category":"leisure"},{"name":"월드당구장","tel":"031-591-2207","addr":"경기도 남양주시 평내동 604-5번지 동부프라자 301호","indutype":"레저업소 - 당 구 장","category":"leisure"},{"name":"지세븐노래연습장","tel":"031-593-5556","addr":"경기도 남양주시 평내동 604-5번지 동부프라자 303,304호","indutype":"레저업소 - 노 래 방","category":"leisure"}]},{"lat":"37.643196898","long":"127.23689","imageIndex":13,"items":[{"name":"샹떼PC방 남양주평내본점","tel":"","addr":"경기도 남양주시 평내동 604번지 드림코아 상가동 204호,205호","indutype":"레저업소 - 기타레져업소","category":"leisure"}]},{"lat":"37.649891594","long":"127.23663905","imageIndex":13,"items":[{"name":"슈퍼마린키즈 수영장","tel":"031-559-9556","addr":"경기도 남양주시 평내동 211-6번지 가남빌딩 지하1층 102호","indutype":"레저업소 - 수 영 장","category":"leisure"}]},{"lat":"37.645776254","long":"127.23558371","imageIndex":13,"items":[{"name":"쓰리팝 피씨 카페(3 POP PC CAFE)","tel":"070-8666-9458","addr":"경기도 남양주시 평내동 579-3번지 평내엠투프라자 2층 204,205호","indutype":"레저업소 - 기타레져업소","category":"leisure"},{"name":"이자벨 필라테스","tel":"031-0000-0000","addr":"경기도 남양주시 평내동 579-3번지 평내엠투프라자 401호","indutype":"레저업소 - 헬스클럽","category":"leisure"},{"name":"점프노리","tel":"070-8285-8333","addr":"경기도 남양주시 평내동 579-3번지 엠투프라자 310,311호","indutype":"레저업소 - 기타레져업소","category":"leisure"},{"name":"킹콩점프","tel":"031-593-1579","addr":"경기도 남양주시 평내동 579-3번지 평내엠투프라자 804~806호","indutype":"레저업소 - 기타레져업소","category":"leisure"}]},{"lat":"37.642970893","long":"127.23727452","imageIndex":13,"items":[{"name":"아이비스 PC","tel":"070-7997-4034","addr":"경기도 남양주시 평내동 604-2번지 우리빌딩 3층","indutype":"레저업소 - 기타레져업소","category":"leisure"}]},{"lat":"37.645886821","long":"127.23433766","imageIndex":13,"items":[{"name":"여자의봄","tel":"031-510-7473","addr":"경기도 남양주시 평내동 578-1번지 다모아프라자 810호","indutype":"레저업소 - 헬스클럽","category":"leisure"},{"name":"킹노래연습장","tel":"031-559-1121","addr":"경기도 남양주시 평내동 578-1번지 다모아프라자 310호","indutype":"레저업소 - 노 래 방","category":"leisure"}]},{"lat":"37.649359464","long":"127.23692066","imageIndex":13,"items":[{"name":"용인대 다이어트 복싱클럽","tel":"031-594-1215","addr":"경기도 남양주시 평내동 203-2번지 3층 302,303호","indutype":"레저업소 - 헬스클럽","category":"leisure"}]},{"lat":"37.642664835","long":"127.2371376","imageIndex":13,"items":[{"name":"이지탁구클럽","tel":"031-595-1417","addr":"경기도 남양주시 평내동 604-10 외2필지 우영프라자3층303,304호","indutype":"레저업소 - 기타레져업소","category":"leisure"}]},{"lat":"37.649639773","long":"127.23641163","imageIndex":13,"items":[{"name":"코리아나노래연습장","tel":"031-592-8464","addr":"경기도 남양주시 평내동 205-1번지 지하1층","indutype":"레저업소 - 노 래 방","category":"leisure"}]},{"lat":"37.650581638","long":"127.23849959","imageIndex":13,"items":[{"name":"퀸노래연습장","tel":"031-591-5093","addr":"경기도 남양주시 평내동 121-2번지 제일빌딩 지하1층","indutype":"레저업소 - 노 래 방","category":"leisure"}]},{"lat":"37.649835443","long":"127.2376927","imageIndex":13,"items":[{"name":"티제이 빌리아드","tel":"031-593-1509","addr":"경기도 남양주시 평내동 202-5번지 중앙빌딩 301호","indutype":"레저업소 - 당 구 장","category":"leisure"}]}]