[{"lat":"37.345724604","long":"126.85138379","imageIndex":0,"items":[{"name":"(주)마르","tel":"031-487-8991","addr":"경기도 안산시 상록구 양상동 215-5번지","indutype":"자동차정비 유지 - 자동차부품","category":"car"}]},{"lat":"37.343417458","long":"126.85095959","imageIndex":0,"items":[{"name":"주식회사경기태평양충전소","tel":"031-413-0557","addr":"경기도 안산시 상록구 양상동 247번지","indutype":"자동차정비 유지 - 자동차정비","category":"car"}]},{"lat":"37.355528521","long":"126.8451562","imageIndex":0,"items":[{"name":"티티모터스","tel":"031-401-6502","addr":"경기도 안산시 상록구 양상동 58-6번지","indutype":"자동차정비 유지 - 자동차시트·타이어","category":"car"}]},{"lat":"37.346085255","long":"126.85157493","imageIndex":17,"items":[{"name":"(주)시노가구","tel":"031-482-7861","addr":"경기도 안산시 상록구 양상동 215-1번지","indutype":"가구 - 기타가구","category":"other"}]},{"lat":"37.352530678","long":"126.84706991","imageIndex":17,"items":[{"name":"(주)아셀푸드","tel":"031-486-7011","addr":"경기도 안산시 상록구 양상동 101-1번지","indutype":"유통업 영리 - 기타유통업","category":"other"}]},{"lat":"37.345862677","long":"126.84001888","imageIndex":17,"items":[{"name":"(주)에이디에스건설","tel":"031-486-0489","addr":"경기도 안산시 상록구 양상동 168-1번지","indutype":"건축자재 - 인테리어전문","category":"other"},{"name":"삼풍산업","tel":"031-410-3816","addr":"경기도 안산시 상록구 양상동 168-1번지","indutype":"가구 - 기타가구","category":"other"},{"name":"삼풍창호","tel":"031-482-3923","addr":"경기도 안산시 상록구 양상동 168-1번지","indutype":"건축자재 - 기타건축자재","category":"other"}]},{"lat":"37.344311423","long":"126.8524926","imageIndex":17,"items":[{"name":"가람365","tel":"031-408-6123","addr":"경기도 안산시 상록구 양상동 228-7번지 2층","indutype":"신변잡화 - 기타잡화","category":"other"},{"name":"만인제일주식회사","tel":"031-480-1205","addr":"경기도 안산시 상록구 양상동 228-7번지","indutype":"신변잡화 - 기타잡화","category":"other"}]},{"lat":"37.356501026","long":"126.84471396","imageIndex":17,"items":[{"name":"공감도어","tel":"031-401-1780","addr":"경기도 안산시 상록구 양상동 57-1번지","indutype":"건축자재 - 기타건축자재","category":"other"}]},{"lat":"37.347699802","long":"126.84598516","imageIndex":17,"items":[{"name":"나네존","tel":"031-485-1269","addr":"경기도 안산시 상록구 양상동 137-5번지","indutype":"농업 - 비료,사료,종자","category":"other"},{"name":"석란방","tel":"031-485-1269","addr":"경기도 안산시 상록구 양상동 137-5","indutype":"문화.취미 - 화원","category":"other"}]},{"lat":"37.355726004","long":"126.84460272","imageIndex":17,"items":[{"name":"다연퍼니처","tel":"031-439-4394","addr":"경기도 안산시 상록구 양상동 58-11번지 1층","indutype":"가구 - 일반가구","category":"other"}]},{"lat":"37.355303298","long":"126.84517924","imageIndex":17,"items":[{"name":"다온씽크","tel":"031-414-2786","addr":"경기도 안산시 상록구 양상동 58-30번지 주건축물 1동","indutype":"가구 - 일반가구","category":"other"}]},{"lat":"37.3430333126","long":"126.8535446767","imageIndex":17,"items":[{"name":"대경크린서비스","tel":"","addr":"경기도 안산시 상록구 양상동 232-5번지","indutype":"협회 및 단체, 수리 및 기타 개인서","category":"other"}]},{"lat":"37.355061733","long":"126.84646647","imageIndex":17,"items":[{"name":"대광쿨러","tel":"031-493-6526","addr":"경기도 안산시 상록구 양상동 42-10번지","indutype":"건축자재 - 기타건축자재","category":"other"}]},{"lat":"37.3387243","long":"126.85184924","imageIndex":17,"items":[{"name":"대성전기(주)","tel":"031-401-4954","addr":"경기도 안산시 상록구 양상동 338번지 1층","indutype":"용역 서비스 - 기타용역서비스","category":"other"},{"name":"대성전기조명","tel":"031-401-4954","addr":"경기도 안산시 상록구 양상동 338번지","indutype":"전기제품 - 기타전기제품","category":"other"}]},{"lat":"37.3387243001","long":"126.8518492390","imageIndex":17,"items":[{"name":"대성전기조명","tel":"031-401-4954","addr":"경기도 안산시 상록구 양상동 338번지","indutype":"도매 및 소매업 - 전기재료,조명시공","category":"other"}]},{"lat":"37.355005708","long":"126.84498799","imageIndex":17,"items":[{"name":"명지필름","tel":"031-413-6373","addr":"경기도 안산시 상록구 양상동 62-6번지","indutype":"광학제품 - 사진관","category":"other"}]},{"lat":"37.35494223","long":"126.84468337","imageIndex":17,"items":[{"name":"모어댄몰","tel":"032-834-0035","addr":"경기도 안산시 상록구 양상동 62-12번지","indutype":"서적문구 - 완구점","category":"other"}]},{"lat":"37.3448957","long":"126.85140803","imageIndex":17,"items":[{"name":"삼천리주방","tel":"031-402-3665","addr":"경기도 안산시 상록구 양상동 243-10번지","indutype":"주방용구 - 주방용구","category":"other"}]},{"lat":"37.3448957000","long":"126.8514080310","imageIndex":17,"items":[{"name":"삼천리주방","tel":"031-402-3665","addr":"경기도 안산시 상록구 양상동 243-10번지","indutype":"제조업 - 싱크대,가구","category":"other"}]},{"lat":"37.343417458","long":"126.85095959","imageIndex":17,"items":[{"name":"세븐일레븐E안산충전소점","tel":"031-1577-0711","addr":"경기도 안산시 상록구 양상동 247번지","indutype":"유통업 영리 - 편 의 점","category":"other"}]},{"lat":"37.344723972","long":"126.85099081","imageIndex":17,"items":[{"name":"신풍이엔지(ENG)","tel":"031-410-4166","addr":"경기도 안산시 상록구 양상동 243-6번지 1층","indutype":"주방용구 - 주방용구","category":"other"}]},{"lat":"37.341166021","long":"126.85182178","imageIndex":17,"items":[{"name":"오늘도서","tel":"070-4237-2649","addr":"경기도 안산시 상록구 양상동 250-5번지 가동,나동,지층","indutype":"회원제형태 - 서적","category":"other"}]},{"lat":"37.354942893","long":"126.84518","imageIndex":17,"items":[{"name":"제이엔제이(주)","tel":"`031-411-0206","addr":"경기도 안산시 상록구 양상동 62-50번지","indutype":"신변잡화 - 기타잡화","category":"other"}]},{"lat":"37.356275999","long":"126.84488374","imageIndex":17,"items":[{"name":"주식회사 경문도어시스템","tel":"031-411-6041","addr":"경기도 안산시 상록구 양상동 57-6번지 1층","indutype":"용역 서비스 - 기타용역서비스","category":"other"}]},{"lat":"37.3447239720","long":"126.8509908138","imageIndex":17,"items":[{"name":"주식회사 비티에스파워","tel":"031-482-8111","addr":"경기도 안산시 상록구 양상동 243-6번지","indutype":"도매 및 소매업 - 축전지","category":"other"}]},{"lat":"37.34056224","long":"126.851744","imageIndex":17,"items":[{"name":"죽림난재배장","tel":"051-803-4916","addr":"경기도 안산시 상록구 양상동 320번지","indutype":"문화.취미 - 화원","category":"other"}]},{"lat":"37.355302966","long":"126.84493093","imageIndex":17,"items":[{"name":"찬영유리","tel":"031-419-6282","addr":"경기도 안산시 상록구 양상동 62-5번지","indutype":"건축자재 - 유리","category":"other"}]},{"lat":"37.355504464","long":"126.84740238","imageIndex":17,"items":[{"name":"청목산업","tel":"031-486-5027","addr":"경기도 안산시 상록구 양상동 42-1번지","indutype":"주방용구 - 주방용구","category":"other"}]},{"lat":"37.3411660209","long":"126.8518217796","imageIndex":17,"items":[{"name":"태영건설","tel":"031-486-7355","addr":"경기도 안산시 상록구 양상동 250-5번지","indutype":"건설업 - 토목,건축","category":"other"}]},{"lat":"37.339753335","long":"126.85332548","imageIndex":17,"items":[{"name":"태화산업","tel":"031-437-4909","addr":"경기도 안산시 상록구 양상동 315-4번지","indutype":"건축자재 - 기타건축자재","category":"other"}]},{"lat":"37.338841619","long":"126.8519957","imageIndex":17,"items":[{"name":"홈스케치(Home sketch)","tel":"070-7677-3845","addr":"경기도 안산시 상록구 양상동 334-15번지 1층","indutype":"건축자재 - 기타건축자재","category":"other"}]},{"lat":"37.344562426","long":"126.8514877","imageIndex":4,"items":[{"name":"가야식당","tel":"031-419-5221","addr":"경기도 안산시 상록구 양상동 226-3번지 1층","indutype":"일반휴게음식 - 일반한식","category":"restaurant"},{"name":"가야정육식당","tel":"031-419-5221","addr":"경기도 안산시 상록구 양상동 226-3번지 1층","indutype":"일반휴게음식 - 일반한식","category":"restaurant"}]},{"lat":"37.343033313","long":"126.85354468","imageIndex":4,"items":[{"name":"갈비Day","tel":"031-411-3202","addr":"경기도 안산시 상록구 양상동 232-5번지","indutype":"일반휴게음식 - 일반한식","category":"restaurant"}]},{"lat":"37.347061262","long":"126.84687807","imageIndex":4,"items":[{"name":"다올닭국수/주식회사 태형푸드","tel":"031-411-6799","addr":"경기도 안산시 상록구 양상동 131-5번지","indutype":"일반휴게음식 - 일반한식","category":"restaurant"}]},{"lat":"37.342337527","long":"126.85196614","imageIndex":4,"items":[{"name":"돈까스하우스","tel":"031-487-5010","addr":"경기도 안산시 상록구 양상동 252-1번지 1층","indutype":"일반휴게음식 - 서양음식","category":"restaurant"}]},{"lat":"37.344645571","long":"126.85310135","imageIndex":4,"items":[{"name":"백년손님","tel":"031-482-1616","addr":"경기도 안산시 상록구 양상동 220-1번지","indutype":"일반휴게음식 - 일반한식","category":"restaurant"},{"name":"옛날집","tel":"031-482-1616","addr":"경기도 안산시 상록구 양상동 220-1번지","indutype":"일반휴게음식 - 일반한식","category":"restaurant"}]},{"lat":"37.344561282","long":"126.85059615","imageIndex":4,"items":[{"name":"장어여","tel":"031-411-8676","addr":"경기도 안산시 상록구 양상동 243-9번지 1층","indutype":"일반휴게음식 - 일반한식","category":"restaurant"},{"name":"한돈화덕구이","tel":"031-411-8676","addr":"경기도 안산시 상록구 양상동 243-9번지","indutype":"일반휴게음식 - 일반한식","category":"restaurant"}]},{"lat":"37.344811208","long":"126.85585468","imageIndex":4,"items":[{"name":"평사리능이버섯","tel":"031-480-1540","addr":"경기도 안산시 상록구 양상동 289-2번지 1층","indutype":"일반휴게음식 - 일반한식","category":"restaurant"}]},{"lat":"37.3445624260","long":"126.8514876985","imageIndex":5,"items":[{"name":"가야정육식당","tel":"031-419-5221","addr":"경기도 안산시 상록구 양상동 226-3번지","indutype":"숙박 및 음식점업 - 일반음식점, 식","category":"hotel"}]},{"lat":"37.344562426","long":"126.8514877","imageIndex":7,"items":[{"name":"가야정육점","tel":"031-419-5221","addr":"경기도 안산시 상록구 양상동 226-3번지","indutype":"음료식품 - 정육점","category":"food"}]},{"lat":"37.355726668","long":"126.84509935","imageIndex":7,"items":[{"name":"경인식품","tel":"031-000-0000","addr":"경기도 안산시 상록구 양상동 58-15번지","indutype":"음료식품 - 기타음료식품","category":"food"}]},{"lat":"37.341278698","long":"126.85543274","imageIndex":7,"items":[{"name":"규민유통","tel":"070-6635-9985","addr":"경기도 안산시 상록구 양상동 297-2번지 1층","indutype":"음료식품 - 기타음료식품","category":"food"}]},{"lat":"37.354195984","long":"126.84588135","imageIndex":7,"items":[{"name":"모모푸드","tel":"","addr":"경기도 안산시 상록구 양상동 66-2번지 1층","indutype":"음료식품 - 기타음료식품","category":"food"}]},{"lat":"37.355359797","long":"126.84701892","imageIndex":7,"items":[{"name":"안산델몬트","tel":"031-485-1142","addr":"경기도 안산시 상록구 양상동 42-3번지","indutype":"음료식품 - 기타음료식품","category":"food"}]},{"lat":"37.345506385","long":"126.84984939","imageIndex":7,"items":[{"name":"주식회사 아랑미트","tel":"031-416-9675","addr":"경기도 안산시 상록구 양상동 208-4번지 1층","indutype":"음료식품 - 정육점","category":"food"}]},{"lat":"37.354998288","long":"126.84618443","imageIndex":13,"items":[{"name":"주식회사 버디","tel":"031-494-7466","addr":"경기도 안산시 상록구 양상동 47-8번지","indutype":"보건위생 - 화장품","category":"beauty"}]},{"lat":"37.342284771","long":"126.85299319","imageIndex":16,"items":[{"name":"헬로팜스","tel":"070-8899-4477","addr":"경기도 안산시 상록구 양상동 256번지","indutype":"학원 - 기타 교육기관","category":"study"}]}]