[{"lat":"37.657492144","long":"126.83598615","imageIndex":13,"items":[{"name":"ING필라테스(원당점)","tel":"070-2699-0807","addr":"경기도 고양시 덕양구 주교동 616-2번지","indutype":"레저업소 - 헬스클럽","category":"leisure"},{"name":"샛별노래연습장","tel":"031-968-6877","addr":"경기도 고양시 덕양구 주교동 616-2번지","indutype":"레저업소 - 노 래 방","category":"leisure"}]},{"lat":"37.656967491","long":"126.83451409","imageIndex":13,"items":[{"name":"K-1 노래연습장","tel":"031-967-6662","addr":"경기도 고양시 덕양구 주교동 612-3번지","indutype":"레저업소 - 노 래 방","category":"leisure"}]},{"lat":"37.656464096","long":"126.83531983","imageIndex":13,"items":[{"name":"MBC노래연습장","tel":"031-967-0019","addr":"경기도 고양시 덕양구 주교동 614-7번지","indutype":"레저업소 - 노 래 방","category":"leisure"}]},{"lat":"37.656242197","long":"126.83137664","imageIndex":13,"items":[{"name":"People&Golf","tel":"031-967-0733","addr":"경기도 고양시 덕양구 주교동 606-11번지","indutype":"레저업소 - 골프연습장","category":"leisure"}]},{"lat":"37.656302196","long":"126.83551285","imageIndex":13,"items":[{"name":"S휘트니스","tel":"031-964-3377","addr":"경기도 고양시 덕양구 주교동 614-4번지","indutype":"레저업소 - 헬스클럽","category":"leisure"},{"name":"조인스크린&골프연습장","tel":"031-967-0025","addr":"경기도 고양시 덕양구 주교동 614-4번지","indutype":"레저업소 - 스크린골프","category":"leisure"},{"name":"탑당구클럽","tel":"031-962-9997","addr":"경기도 고양시 덕양구 주교동 614-4번지","indutype":"레저업소 - 당 구 장","category":"leisure"}]},{"lat":"37.657266502","long":"126.83570334","imageIndex":13,"items":[{"name":"VIP당구장","tel":"031-962-8319","addr":"경기도 고양시 덕양구 주교동 616-3번지","indutype":"레저업소 - 당 구 장","category":"leisure"},{"name":"엔타민PC방","tel":"","addr":"경기도 고양시 덕양구 주교동 616-3번지","indutype":"레저업소 - 기타레져업소","category":"leisure"},{"name":"훼미리","tel":"031-965-9995","addr":"경기도 고양시 덕양구 주교동 616-3번지","indutype":"레저업소 - 노 래 방","category":"leisure"}]},{"lat":"37.656634166","long":"126.83453751","imageIndex":13,"items":[{"name":"n돌핀","tel":"031-964-7700","addr":"경기도 고양시 덕양구 주교동 613-8번지","indutype":"레저업소 - 노 래 방","category":"leisure"}]},{"lat":"37.657822565","long":"126.83392286","imageIndex":13,"items":[{"name":"갈채","tel":"031-968-4153","addr":"경기도 고양시 덕양구 주교동 599-12번지","indutype":"레저업소 - 노 래 방","category":"leisure"}]},{"lat":"37.656383395","long":"126.83559199","imageIndex":13,"items":[{"name":"갤러리","tel":"031-967-4605","addr":"경기도 고양시 덕양구 주교동","indutype":"레저업소 - 노 래 방","category":"leisure"}]},{"lat":"37.658045212","long":"126.83212045","imageIndex":13,"items":[{"name":"고양시청/성사테니스장","tel":"031-8075-2322","addr":"경기도 고양시 덕양구 주교동 600번지","indutype":"레저업소 - 테니스장","category":"leisure"}]},{"lat":"37.656716752","long":"126.83559125","imageIndex":13,"items":[{"name":"공삼사사(0344)","tel":"","addr":"경기도 고양시 덕양구 주교동 614번지","indutype":"레저업소 - 노 래 방","category":"leisure"},{"name":"홀릭PC방","tel":"031-0000-0000","addr":"경기도 고양시 덕양구 주교동 614번지","indutype":"레저업소 - 기타레져업소","category":"leisure"}]},{"lat":"37.657329135","long":"126.83539722","imageIndex":13,"items":[{"name":"달인노래연습장","tel":"031-969-7040","addr":"경기도 고양시 덕양구 주교동 616-4번지","indutype":"레저업소 - 노 래 방","category":"leisure"}]},{"lat":"37.657488102","long":"126.833153","imageIndex":13,"items":[{"name":"두꺼비노래방","tel":"031-967-9613","addr":"경기도 고양시 덕양구 주교동 599-24번지","indutype":"레저업소 - 노 래 방","category":"leisure"}]},{"lat":"37.6561578","long":"126.83534319","imageIndex":13,"items":[{"name":"매니아당구장","tel":"031-967-2402","addr":"경기도 고양시 덕양구 주교동 614-5번지","indutype":"레저업소 - 당 구 장","category":"leisure"},{"name":"스카이스크린골프","tel":"031-967-0065","addr":"경기도 고양시 덕양구 주교동 614-5번지","indutype":"레저업소 - 스크린골프","category":"leisure"},{"name":"씨밀레","tel":"031-967-9488","addr":"경기도 고양시 덕양구 주교동 614-5번지","indutype":"레저업소 - 노 래 방","category":"leisure"}]},{"lat":"37.662829152","long":"126.83832022","imageIndex":13,"items":[{"name":"무지개노래방","tel":"070-5031-0327","addr":"경기도 고양시 덕양구 주교동 568번지","indutype":"레저업소 - 노 래 방","category":"leisure"}]},{"lat":"37.656877911","long":"126.83487693","imageIndex":13,"items":[{"name":"벤츠 (BENZ)","tel":"02-356-8268","addr":"경기도 고양시 덕양구 주교동 613-11번지","indutype":"레저업소 - 노 래 방","category":"leisure"},{"name":"일이삼당구장","tel":"031-963-2900","addr":"경기도 고양시 덕양구 주교동 613-11번지","indutype":"레저업소 - 당 구 장","category":"leisure"}]},{"lat":"37.656518781","long":"126.83576168","imageIndex":13,"items":[{"name":"블루","tel":"031-967-4504","addr":"경기도 고양시 덕양구 주교동 614-2번지","indutype":"레저업소 - 노 래 방","category":"leisure"},{"name":"준당구장","tel":"031-968-0086","addr":"경기도 고양시 덕양구 주교동 614-2번지","indutype":"레저업소 - 당 구 장","category":"leisure"},{"name":"힐링","tel":"031-964-5879","addr":"경기도 고양시 덕양구 주교동 614-2번지","indutype":"레저업소 - 헬스클럽","category":"leisure"}]},{"lat":"37.655580312","long":"126.83473254","imageIndex":13,"items":[{"name":"소나타","tel":"031-965-1599","addr":"경기도 고양시 덕양구 주교동 609-3번지","indutype":"레저업소 - 노 래 방","category":"leisure"},{"name":"폭스 (FOX)","tel":"031-965-7674","addr":"경기도 고양시 덕양구 주교동 609-3번지","indutype":"레저업소 - 노 래 방","category":"leisure"}]},{"lat":"37.65866043","long":"126.8338983","imageIndex":13,"items":[{"name":"신바람","tel":"031-969-0890","addr":"경기도 고양시 덕양구 주교동 586-7번지","indutype":"레저업소 - 노 래 방","category":"leisure"}]},{"lat":"37.656715415","long":"126.83465065","imageIndex":13,"items":[{"name":"에스비에스(SBS)노래연습장","tel":"070-4332-9171","addr":"경기도 고양시 덕양구 주교동 613-9번지","indutype":"레저업소 - 노 래 방","category":"leisure"}]},{"lat":"37.658074478","long":"126.83367297","imageIndex":13,"items":[{"name":"우주노래연습장","tel":"031-947-6254","addr":"경기도 고양시 덕양구 주교동 599-1번지","indutype":"레저업소 - 노 래 방","category":"leisure"}]},{"lat":"37.657134152","long":"126.83137459","imageIndex":13,"items":[{"name":"원당","tel":"031-966-6630","addr":"경기도 고양시 덕양구 주교동 603-8번지","indutype":"레저업소 - 노 래 방","category":"leisure"}]},{"lat":"37.662631398","long":"126.83864933","imageIndex":13,"items":[{"name":"월드컵당구장","tel":"070-7365-0492","addr":"경기도 고양시 덕양구 주교동 568-1번지","indutype":"레저업소 - 당 구 장","category":"leisure"}]},{"lat":"37.656906581","long":"126.83603279","imageIndex":13,"items":[{"name":"입큰개구리","tel":"031-966-8070","addr":"경기도 고양시 덕양구 주교동 615-6번지","indutype":"레저업소 - 노 래 방","category":"leisure"}]},{"lat":"37.656823094","long":"126.83434443","imageIndex":13,"items":[{"name":"좋은친구들","tel":"031-967-2922","addr":"경기도 고양시 덕양구 주교동 612-4번지","indutype":"레저업소 - 노 래 방","category":"leisure"}]},{"lat":"37.657742838","long":"126.83487498","imageIndex":13,"items":[{"name":"쥬얼리노래연습장","tel":"031-964-7550","addr":"경기도 고양시 덕양구 주교동 617-8번지","indutype":"레저업소 - 노 래 방","category":"leisure"}]},{"lat":"37.658856118","long":"126.83848765","imageIndex":13,"items":[{"name":"커브스 원당클럽","tel":"031-967-1330","addr":"경기도 고양시 덕양구 주교동 621-3번지","indutype":"레저업소 - 헬스클럽","category":"leisure"}]},{"lat":"37.663044718","long":"126.83784374","imageIndex":13,"items":[{"name":"코러스 노래연습장","tel":"","addr":"경기도 고양시 덕양구 주교동 567번지","indutype":"레저업소 - 노 래 방","category":"leisure"}]},{"lat":"37.658327268","long":"126.83403504","imageIndex":13,"items":[{"name":"파티","tel":"031-966-9908","addr":"경기도 고양시 덕양구 주교동 585-10번지","indutype":"레저업소 - 노 래 방","category":"leisure"}]},{"lat":"37.656995231","long":"126.83501266","imageIndex":13,"items":[{"name":"허리우드당구장","tel":"070-8119-7101","addr":"경기도 고양시 덕양구 주교동 613-13번지","indutype":"레저업소 - 당 구 장","category":"leisure"}]},{"lat":"37.65712994","long":"126.83470638","imageIndex":13,"items":[{"name":"훈이네노래연습장","tel":"031-966-7882","addr":"경기도 고양시 덕양구 주교동 612-2번지","indutype":"레저업소 - 노 래 방","category":"leisure"}]}]