[{"lat":"37.235440777","long":"127.06097452","imageIndex":8,"items":[{"name":"강내과","tel":"031-205-5656","addr":"경기도 화성시 반월동 165-24번지 제일프라자 312동 313호","indutype":"의원 - 의원","category":"medical"},{"name":"미서울치과","tel":"031-202-2822","addr":"경기도 화성시 반월동 864-1번지 제일프라자 3층","indutype":"의원 - 치과의원","category":"medical"},{"name":"서울튼튼이치과의원","tel":"031-205-4285","addr":"경기도 화성시 반월동 864-1번지 제일프라자 211호","indutype":"의원 - 치과의원","category":"medical"},{"name":"아름드리한약국","tel":"031-224-7585","addr":"경기도 화성시 반월동 864-1번지 제일프라자 108호","indutype":"의원 - 한의원","category":"medical"},{"name":"아주상쾌한이비인후과의원","tel":"031-202-4450","addr":"경기도 화성시 반월동 864-1번지 제일프라자 4층 406호","indutype":"의원 - 의원","category":"medical"},{"name":"장주은피부과","tel":"031-202-9229","addr":"경기도 화성시 반월동 864-1번지 제일프라자 3층 301호","indutype":"의원 - 의원","category":"medical"},{"name":"행복나눔약국","tel":"031-273-8933","addr":"경기도 화성시 반월동 864-1번지 제일프라자 제 1층 117호","indutype":"약국 - 약국","category":"medical"},{"name":"현대온누리약국","tel":"031-273-0187","addr":"경기도 화성시 반월동 864-1번지 제일프라자","indutype":"약국 - 약국","category":"medical"},{"name":"황제한의원","tel":"031-206-8575","addr":"경기도 화성시 반월동 864-1번지 제일프라자 3층 14호","indutype":"의원 - 한의원","category":"medical"}]},{"lat":"37.232690988","long":"127.06421781","imageIndex":8,"items":[{"name":"갤럭시펫 동물병원","tel":"031-202-0987","addr":"경기도 화성시 반월동 135-10번지 2층","indutype":"기타의료기관 - 동물병원","category":"medical"}]},{"lat":"37.234293923","long":"127.06594327","imageIndex":8,"items":[{"name":"경희햇살한의원","tel":"031-206-9171","addr":"경기도 화성시 반월동 67-4번지 호평프라자 2층 201호, 202호","indutype":"의원 - 한의원","category":"medical"}]},{"lat":"37.230969461","long":"127.06527566","imageIndex":8,"items":[{"name":"그린약국","tel":"031-206-6048","addr":"경기도 화성시 반월동 125-13번지","indutype":"약국 - 약국","category":"medical"}]},{"lat":"37.222136964","long":"127.05100413","imageIndex":8,"items":[{"name":"기산온누리약국","tel":"031-225-2755","addr":"경기도 화성시 반월동 717번지 신풍프라자 1층 109호","indutype":"약국 - 약국","category":"medical"},{"name":"프라임치과","tel":"031-898-7528","addr":"경기도 화성시 반월동 717번지 신풍프라자 3층 304호","indutype":"의원 - 치과의원","category":"medical"},{"name":"행복한가정의학과의원","tel":"031-236-7572","addr":"경기도 화성시 반월동 717번지 신풍프라자 302호","indutype":"의원 - 의원","category":"medical"}]},{"lat":"37.218716247","long":"127.06360936","imageIndex":8,"items":[{"name":"나우약국","tel":"031-208-5589","addr":"경기도 화성시 반월동 948번지 식당동내약국코너","indutype":"약국 - 약국","category":"medical"},{"name":"삼성전자화성OK한의원","tel":"031-208-5995","addr":"경기도 화성시 반월동 948번지","indutype":"의원 - 한의원","category":"medical"}]},{"lat":"37.236657254","long":"127.06080641","imageIndex":8,"items":[{"name":"늘푸른약국","tel":"031-273-0451","addr":"경기도 화성시 반월동 25-9번지","indutype":"약국 - 약국","category":"medical"}]},{"lat":"37.233996934","long":"127.06527815","imageIndex":8,"items":[{"name":"동탄메르덴치과","tel":"031-202-2829","addr":"경기도 화성시 반월동 66-9번지 외4필지명성프라자 3층 303호","indutype":"의원 - 치과의원","category":"medical"},{"name":"행복한약국","tel":"031-203-1244","addr":"경기도 화성시 반월동 66-9번지 명성프라자 4층 406호","indutype":"약국 - 약국","category":"medical"}]},{"lat":"37.222881596","long":"127.05838468","imageIndex":8,"items":[{"name":"동탄연세병원","tel":"031-898-9595","addr":"경기도 화성시 반월동 607-12번지 2층 202호,203호","indutype":"의원 - 의원","category":"medical"},{"name":"동탄연세의원","tel":"031-898-9595","addr":"경기도 화성시 반월동 607-12번지 2층","indutype":"의원 - 의원","category":"medical"},{"name":"율약국","tel":"031-232-3371","addr":"경기도 화성시 반월동 607-12번지 1층 101호","indutype":"약국 - 약국","category":"medical"}]},{"lat":"37.232996905","long":"127.06505195","imageIndex":8,"items":[{"name":"미라클의원","tel":"031-202-6701","addr":"경기도 화성시 반월동 88-4 토마토프라자2층 201호~203호","indutype":"의원 - 의원","category":"medical"},{"name":"사암약손한의원","tel":"031-204-8575","addr":"경기도 화성시 반월동 88-4번지 토마토프라자 306호","indutype":"의원 - 한의원","category":"medical"},{"name":"한스치과","tel":"031-204-2815","addr":"경기도 화성시 반월동 88-4번지 토마토프라자 304동 305호","indutype":"의원 - 치과의원","category":"medical"}]},{"lat":"37.231494453","long":"127.06055455","imageIndex":8,"items":[{"name":"봄빛약국","tel":"031-206-0313","addr":"경기도 화성시 반월동 860신영통현대타운3단지상가1층","indutype":"약국 - 약국","category":"medical"}]},{"lat":"37.236467944","long":"127.06099785","imageIndex":8,"items":[{"name":"상림한의원","tel":"","addr":"경기도 화성시 반월동 27-1번지 5층","indutype":"의원 - 한의원","category":"medical"}]},{"lat":"37.221962745","long":"127.05794458","imageIndex":8,"items":[{"name":"서울두리치과","tel":"031-223-2823","addr":"경기도 화성시 반월동 627-3번지 201호","indutype":"의원 - 치과의원","category":"medical"}]},{"lat":"37.234962778","long":"127.06188695","imageIndex":8,"items":[{"name":"연세길한의원","tel":"031-203-1075","addr":"경기도 화성시 반월동 869번지 현대프라자 308호","indutype":"의원 - 한의원","category":"medical"}]},{"lat":"37.221244644","long":"127.05172465","imageIndex":8,"items":[{"name":"행복한의원","tel":"031-224-4906","addr":"경기도 화성시 반월동 718-9번지 창우빌딩","indutype":"의원 - 한의원","category":"medical"}]},{"lat":"37.236242508","long":"127.06135829","imageIndex":8,"items":[{"name":"힐링동물의료센터","tel":"031-202-7512","addr":"경기도 화성시 반월동 27-5번지 2층","indutype":"기타의료기관 - 동물병원","category":"medical"}]}]