[{"lat":"37.043489026","long":"127.13149841","imageIndex":17,"items":[{"name":"(주)대광산업","tel":"031-656-2459","addr":"경기도 안성시 원곡면 내가천리 14-9번지","indutype":"농업 - 기타농업관련","category":"other"}]},{"lat":"37.043214256","long":"127.11830138","imageIndex":17,"items":[{"name":"(주)연합유리","tel":"031-692-9980","addr":"경기도 안성시 원곡면 내가천리 282-4번지","indutype":"건축자재 - 유리","category":"other"}]},{"lat":"37.038487151","long":"127.12385802","imageIndex":17,"items":[{"name":"CJ공구철물건재상사","tel":"031-658-9003","addr":"경기도 안성시 원곡면 내가천리 102-1번지","indutype":"기타 - 기계공구","category":"other"}]},{"lat":"37.038407988","long":"127.1219471","imageIndex":17,"items":[{"name":"FEEL디자인","tel":"031-657-2820","addr":"경기도 안성시 원곡면 내가천리 164-59번지","indutype":"가구 - 일반가구","category":"other"},{"name":"늘푸름삼익가구","tel":"031-653-3670","addr":"경기도 안성시 원곡면 내가천리 164-59번지 B동","indutype":"가구 - 일반가구","category":"other"},{"name":"동서가구","tel":"031-651-5757","addr":"경기도 안성시 원곡면 내가천리 164-59번지 B동","indutype":"가구 - 일반가구","category":"other"},{"name":"라자가구","tel":"031-653-2468","addr":"경기도 안성시 원곡면 내가천리 164-59번지 D동 1층 2층","indutype":"가구 - 일반가구","category":"other"},{"name":"러브퍼니쳐 안성점","tel":"031-656-9955","addr":"경기도 안성시 원곡면 내가천리 164-59번지","indutype":"가구 - 일반가구","category":"other"},{"name":"메티스가구","tel":"031-652-6983","addr":"경기도 안성시 원곡면 내가천리 164-59번지 늘푸름가구단지 C동 1,2층","indutype":"가구 - 일반가구","category":"other"},{"name":"샐리홈가구(Sally home)","tel":"031-653-9411","addr":"경기도 안성시 원곡면 내가천리 164-59번지 A동","indutype":"가구 - 일반가구","category":"other"},{"name":"수현디자인공방","tel":"031-692-0277","addr":"경기도 안성시 원곡면 내가천리 164-59번지","indutype":"가구 - 일반가구","category":"other"}]},{"lat":"37.038742492","long":"127.12083486","imageIndex":17,"items":[{"name":"가구백화점","tel":"031-618-8059","addr":"경기도 안성시 원곡면 내가천리 163-4 에이동","indutype":"가구 - 일반가구","category":"other"}]},{"lat":"37.038681411","long":"127.11881156","imageIndex":17,"items":[{"name":"광현","tel":"031-654-6844","addr":"경기도 안성시 원곡면 내가천리 177-6번지","indutype":"전기제품 - 기타전기제품","category":"other"}]},{"lat":"37.038904303","long":"127.12121727","imageIndex":17,"items":[{"name":"뉴드라마가구 (우리홈가구)","tel":"031-651-1200","addr":"경기도 안성시 원곡면 내가천리 163-1번지","indutype":"가구 - 일반가구","category":"other"}]},{"lat":"37.038158068","long":"127.1195526","imageIndex":17,"items":[{"name":"대광냉동공업(주)안성","tel":"031-427-8774","addr":"경기도 안성시 원곡면 내가천리 162-7번지 가,나동","indutype":"전기제품 - 냉열기기","category":"other"}]},{"lat":"37.041458706","long":"127.11672507","imageIndex":17,"items":[{"name":"대박이네중고알뜰매장","tel":"031-658-8988","addr":"경기도 안성시 원곡면 내가천리 179-14번지","indutype":"신변잡화 - 기타잡화","category":"other"}]},{"lat":"37.041603145","long":"127.11644427","imageIndex":17,"items":[{"name":"동양매직평택대리점","tel":"031-654-7784","addr":"경기도 안성시 원곡면 내가천리 179-18번지","indutype":"전기제품 - 가전제품","category":"other"}]},{"lat":"37.039409166","long":"127.12094829","imageIndex":17,"items":[{"name":"매트리스 엠","tel":"031-691-5300","addr":"경기도 안성시 원곡면 내가천리 159-25번지 2층","indutype":"가구 - 일반가구","category":"other"}]},{"lat":"37.038127991","long":"127.12260982","imageIndex":17,"items":[{"name":"박홍근홈패션","tel":"031-653-4468","addr":"경기도 안성시 원곡면 내가천리 164-5번지 (C)","indutype":"직물 - 침구·수예점","category":"other"},{"name":"윈플러스 디자인창","tel":"031-657-6887","addr":"경기도 안성시 원곡면 내가천리 164-5번지 A","indutype":"직물 - 카페트,커튼,천막,지물","category":"other"},{"name":"인까사","tel":"031-656-0634","addr":"경기도 안성시 원곡면 내가천리 164-5번지","indutype":"가구 - 일반가구","category":"other"}]},{"lat":"37.040074512","long":"127.12238807","imageIndex":17,"items":[{"name":"백두상사","tel":"031-653-8801","addr":"경기도 안성시 원곡면 내가천리 105-3","indutype":"건축자재 - 기타건축자재","category":"other"}]},{"lat":"37.038683955","long":"127.12525209","imageIndex":17,"items":[{"name":"신동양물류","tel":"031-618-9721","addr":"경기도 안성시 원곡면 내가천리 98-3번지","indutype":"가구 - 기타가구","category":"other"}]},{"lat":"37.04010376","long":"127.11066456","imageIndex":17,"items":[{"name":"유성산업(주)","tel":"031-656-6700","addr":"경기도 안성시 원곡면 내가천리 205-57번지","indutype":"건축자재 - 기타건축자재","category":"other"}]},{"lat":"37.038599129","long":"127.11050507","imageIndex":17,"items":[{"name":"유진기업(주)평택","tel":"031-655-7511","addr":"경기도 안성시 원곡면 내가천리 205-37번지","indutype":"건축자재 - 기타건축자재","category":"other"}]},{"lat":"37.038736861","long":"127.11738416","imageIndex":17,"items":[{"name":"유현중공업","tel":"031-656-8842","addr":"경기도 안성시 원곡면 내가천리 177-1번지","indutype":"수리서비스 - 기타수리서비스","category":"other"}]},{"lat":"37.041794319","long":"127.11438755","imageIndex":17,"items":[{"name":"진영우드상사","tel":"031-618-3323","addr":"경기도 안성시 원곡면 내가천리 205-28번지 창고 1, 2동","indutype":"건축자재 - 기타건축자재","category":"other"}]},{"lat":"37.039770037","long":"127.12049924","imageIndex":17,"items":[{"name":"푸른농원","tel":"031-650-7070","addr":"경기도 안성시 원곡면 내가천리 159-21번지","indutype":"문화.취미 - 화원","category":"other"}]},{"lat":"37.037573947","long":"127.11794441","imageIndex":17,"items":[{"name":"호영","tel":"031-618-9283","addr":"경기도 안성시 원곡면 내가천리 176-12번지","indutype":"건축자재 - 건축용 요업제품","category":"other"}]},{"lat":"37.041683642","long":"127.12607746","imageIndex":17,"items":[{"name":"효산산업","tel":"031-653-4654","addr":"경기도 안성시 원곡면 내가천리 73-3번지 나동","indutype":"기타 - 기계공구","category":"other"}]},{"lat":"37.037794927","long":"127.12228334","imageIndex":17,"items":[{"name":"휴시스","tel":"031-651-3971","addr":"경기도 안성시 원곡면 내가천리 164-4번지","indutype":"가구 - 일반가구","category":"other"}]}]