[{"lat":"37.522706378","long":"126.77677331","imageIndex":13,"items":[{"name":"(주)에이치투엠씨","tel":"032-1670-2257","addr":"경기도 부천시 내동 74-1번지 4층","indutype":"보건위생 - 화장품","category":"beauty"}]},{"lat":"37.517893241","long":"126.77580374","imageIndex":13,"items":[{"name":"(주)한국화공기술","tel":"032-683-6662","addr":"경기도 부천시 내동 65-2번지","indutype":"보건위생 - 의료용품","category":"beauty"}]},{"lat":"37.520676227","long":"126.78479958","imageIndex":13,"items":[{"name":"루루","tel":"032-676-7228","addr":"경기도 부천시 내동 301-2번지 그랜드타운 301호","indutype":"보건위생 - 화장품","category":"beauty"}]},{"lat":"37.520897301","long":"126.78743461","imageIndex":13,"items":[{"name":"머리하는언니","tel":"070-8822-3575","addr":"경기도 부천시 내동 352-2번지 1층 101호","indutype":"보건위생 - 미용원","category":"beauty"}]},{"lat":"37.522068228","long":"126.78723894","imageIndex":13,"items":[{"name":"미주헤어살롱","tel":"032-673-8714","addr":"경기도 부천시 내동 340-4번지 신영하이츠빌라","indutype":"보건위생 - 미용원","category":"beauty"}]},{"lat":"37.521367085","long":"126.77844022","imageIndex":13,"items":[{"name":"미즈허브","tel":"032-672-6033","addr":"경기도 부천시 내동 132-7 3층,4층","indutype":"보건위생 - 화장품","category":"beauty"}]},{"lat":"37.520705652","long":"126.78610036","imageIndex":13,"items":[{"name":"바비","tel":"032-677-8865","addr":"경기도 부천시 내동 330번지 1층","indutype":"보건위생 - 화장품","category":"beauty"}]},{"lat":"37.5174918","long":"126.77321464","imageIndex":13,"items":[{"name":"별헤어샵","tel":"","addr":"경기도 부천시 내동 32-14번지 JP제니스 2동 101호","indutype":"보건위생 - 미용원","category":"beauty"}]},{"lat":"37.51748312","long":"126.77338434","imageIndex":13,"items":[{"name":"살롱이마담","tel":"031-000-0000","addr":"경기도 부천시 내동 32-13번지 제이피제니스 101호","indutype":"보건위생 - 미용원","category":"beauty"}]},{"lat":"37.516257196","long":"126.77776554","imageIndex":13,"items":[{"name":"세진코리아","tel":"070-7380-3633","addr":"경기도 부천시 내동 104번지 3층 311호","indutype":"보건위생 - 안경","category":"beauty"}]},{"lat":"37.519228227","long":"126.77194241","imageIndex":13,"items":[{"name":"쎄븐미용실","tel":"032-678-8639","addr":"경기도 부천시 내동 19-12번지","indutype":"보건위생 - 미용원","category":"beauty"}]},{"lat":"37.519895874","long":"126.7770759","imageIndex":13,"items":[{"name":"아로마힐링 마사지","tel":"","addr":"경기도 부천시 내동 82-3번지 2층","indutype":"보건위생 - 미용재료","category":"beauty"}]},{"lat":"37.517399544","long":"126.7767667","imageIndex":13,"items":[{"name":"아맥스홀딩스 주식회사(Amax Holdings Co.,","tel":"032-1899-6784","addr":"경기도 부천시 내동 92-2번지","indutype":"보건위생 - 화장품","category":"beauty"}]},{"lat":"37.515595711","long":"126.77579939","imageIndex":13,"items":[{"name":"아모레카운셀터","tel":"032-676-5920","addr":"경기도 부천시 내동 59번지 대웅빌딩 3층","indutype":"보건위생 - 화장품","category":"beauty"}]},{"lat":"37.522120216","long":"126.78610758","imageIndex":13,"items":[{"name":"안스헤어샵","tel":"032-672-8277","addr":"경기도 부천시 내동 339-7번지 미소진1동 101호","indutype":"보건위생 - 미용원","category":"beauty"}]},{"lat":"37.516088153","long":"126.77419171","imageIndex":13,"items":[{"name":"엠헤어","tel":"070-7383-7826","addr":"경기도 부천시 내동 57-5번지 1층중앙1칸","indutype":"보건위생 - 미용원","category":"beauty"}]},{"lat":"37.518698963","long":"126.77313176","imageIndex":13,"items":[{"name":"영화미용실","tel":"032-681-2858","addr":"경기도 부천시 내동 24-8번지","indutype":"보건위생 - 미용원","category":"beauty"}]},{"lat":"37.515673087","long":"126.77387626","imageIndex":13,"items":[{"name":"예쁜컷헤어샵","tel":"02-111-1111","addr":"경기도 부천시 내동 57-22번지 102호","indutype":"보건위생 - 미용원","category":"beauty"}]},{"lat":"37.517178387","long":"126.774211","imageIndex":13,"items":[{"name":"유진헤어샵","tel":"032-679-3135","addr":"경기도 부천시 내동 34-2번지","indutype":"보건위생 - 미용원","category":"beauty"}]},{"lat":"37.51956253","long":"126.78185046","imageIndex":13,"items":[{"name":"은성전자","tel":"032-679-1400","addr":"경기도 부천시 내동 216-2번지 2층","indutype":"보건위생 - 미용재료","category":"beauty"}]},{"lat":"37.521588615","long":"126.7860978","imageIndex":13,"items":[{"name":"은혜미용실","tel":"032-682-2244","addr":"경기도 부천시 내동 337번지","indutype":"보건위생 - 미용원","category":"beauty"}]},{"lat":"37.521561129","long":"126.78584902","imageIndex":13,"items":[{"name":"이지원에스테틱","tel":"","addr":"경기도 부천시 내동 298-5번지 오성골드빌 1층 101호","indutype":"보건위생 - 피부미용실","category":"beauty"}]},{"lat":"37.521146219","long":"126.78560136","imageIndex":13,"items":[{"name":"장경아헤어뷰티","tel":"032-675-7848","addr":"경기도 부천시 내동 300-1번지 성문주택","indutype":"보건위생 - 미용원","category":"beauty"}]},{"lat":"37.517650866","long":"126.77626824","imageIndex":13,"items":[{"name":"장스코스메틱","tel":"032-674-0821","addr":"경기도 부천시 내동 90번지","indutype":"보건위생 - 화장품","category":"beauty"}]},{"lat":"37.522142768","long":"126.77887907","imageIndex":13,"items":[{"name":"주식회사 퓨어코스랩","tel":"032-676-9993","addr":"경기도 부천시 내동 129번지 2층","indutype":"보건위생 - 화장품","category":"beauty"}]},{"lat":"37.515565144","long":"126.77396708","imageIndex":13,"items":[{"name":"큐사랑","tel":"032-672-7972","addr":"경기도 부천시 내동 57-23번지","indutype":"보건위생 - 미용재료","category":"beauty"}]},{"lat":"37.517589675","long":"126.7725809","imageIndex":13,"items":[{"name":"헤어퍼플","tel":"032-671-3292","addr":"경기도 부천시 내동 32-1번지 1층","indutype":"보건위생 - 미용원","category":"beauty"}]}]