[{"lat":"37.188832755","long":"127.12763374","imageIndex":7,"items":[{"name":"가치농산","tel":"070-7529-0334","addr":"경기도 화성시 목동 산33번지 동탄금강펜테리움센트럴파크IV 상가 301호","indutype":"음료식품 - 농·축·수산품","category":"food"},{"name":"파리바게뜨 동탄금강","tel":"031-335-0465","addr":"경기도 화성시 목동 산33번지 동탄금강판테리움 지2층 302호,303호","indutype":"음료식품 - 제과점","category":"food"}]},{"lat":"37.186528666","long":"127.1251636","imageIndex":7,"items":[{"name":"바른고기 정육점","tel":"031-372-6144","addr":"경기도 화성시 목동 188-1번지 한신더휴 116호","indutype":"음료식품 - 정육점","category":"food"}]},{"lat":"37.182583016","long":"127.12427886","imageIndex":7,"items":[{"name":"배스킨라빈스 동탄목동점","tel":"031-378-3132","addr":"경기도 화성시 목동 산18번지 우성스타파크 A동 1층 108호","indutype":"음료식품 - 제과점","category":"food"},{"name":"보드레떡","tel":"031-373-2532","addr":"경기도 화성시 목동 산18번지 1층 113호","indutype":"음료식품 - 기타음료식품","category":"food"},{"name":"스타파워점프 점핑다이어트","tel":"031-376-5562","addr":"경기도 화성시 목동 산18번지 우성스타파크 A동 6층 608호","indutype":"건강식품 - 기타건강식품","category":"food"},{"name":"장독대 목동점","tel":"031-8015-5288","addr":"경기도 화성시 목동 산18번지 1동 109호","indutype":"음료식품 - 기타음료식품","category":"food"},{"name":"정돈가 동탄점","tel":"031-360-3323","addr":"경기도 화성시 목동 산18번지 116호","indutype":"음료식품 - 정육점","category":"food"},{"name":"파리바게뜨 동탄르파비스점","tel":"","addr":"경기도 화성시 목동 산18번지 우성스타파크A 1층 104,105호","indutype":"음료식품 - 제과점","category":"food"}]},{"lat":"37.186192734","long":"127.12760688","imageIndex":7,"items":[{"name":"아이스크림 할인점","tel":"031-472-2060","addr":"경기도 화성시 목동 산25-1번지 엔에이치에프경남아너스빌 105호","indutype":"음료식품 - 기타음료식품","category":"food"},{"name":"영양사 언니의 맛깔찬 목동점","tel":"","addr":"경기도 화성시 목동 산25-1번지 엔에이치에프경남아너스빌 상가동 1층 101호","indutype":"음료식품 - 기타음료식품","category":"food"}]},{"lat":"37.181060039","long":"127.12449038","imageIndex":7,"items":[{"name":"엄마네집","tel":"031-377-6369","addr":"경기도 화성시 목동 458-1번지 103호","indutype":"음료식품 - 기타음료식품","category":"food"}]},{"lat":"37.180141486","long":"127.12399343","imageIndex":7,"items":[{"name":"진솔빛찬","tel":"","addr":"경기도 화성시 목동 453-2번지 104호","indutype":"음료식품 - 기타음료식품","category":"food"}]}]