[{"lat":"37.155992864","long":"126.7035941","imageIndex":7,"items":[{"name":"농업회사법인 화송 주식회사","tel":"031-357-3056","addr":"경기도 화성시 서신면 용두리 720번지","indutype":"음료식품 - 농·축·수산품","category":"food"}]},{"lat":"37.139216949","long":"126.72648501","imageIndex":7,"items":[{"name":"바다수산","tel":"031-357-3579","addr":"경기도 화성시 서신면 용두리 2-1번지","indutype":"음료식품 - 농·축·수산품","category":"food"}]},{"lat":"37.149993737","long":"126.70431564","imageIndex":7,"items":[{"name":"버섯동산","tel":"031-351-8712","addr":"경기도 화성시 서신면 용두리 307-9번지","indutype":"음료식품 - 농·축·수산품","category":"food"},{"name":"버섯동산","tel":"031-351-8713","addr":"경기도 화성시 서신면 용두리 307-9번지 2동 1층","indutype":"음료식품 - 기타음료식품","category":"food"}]},{"lat":"37.161381076","long":"126.70717546","imageIndex":7,"items":[{"name":"서신양봉","tel":"","addr":"경기도 화성시 서신면 용두리 686번지 4층 1호","indutype":"건강식품 - 기타건강식품","category":"food"}]},{"lat":"37.156580013","long":"126.70417717","imageIndex":7,"items":[{"name":"서해식품","tel":"031-356-8991","addr":"경기도 화성시 서신면 용두리 719-1번지 3동","indutype":"음료식품 - 기타음료식품","category":"food"}]},{"lat":"37.156580013","long":"126.70417717","imageIndex":17,"items":[{"name":"대한선외기","tel":"050-4446-0396","addr":"경기도 화성시 서신면 용두리 719-1번지","indutype":"기타 - 기계공구","category":"other"}]},{"lat":"37.150749358","long":"126.70381738","imageIndex":17,"items":[{"name":"비봉교역","tel":"02-6112-3100","addr":"경기도 화성시 서신면 용두리 786-4번지","indutype":"주방용구 - 주방용구","category":"other"}]},{"lat":"37.142022942","long":"126.71667147","imageIndex":17,"items":[{"name":"옥란문화재단","tel":"02-734-1229","addr":"경기도 화성시 서신면 용두리 95-1번지","indutype":"용역 서비스 - 사무서비스","category":"other"}]},{"lat":"37.160997319","long":"126.71231063","imageIndex":17,"items":[{"name":"이지스틸인터내셔널","tel":"031-357-4684","addr":"경기도 화성시 서신면 용두리 658-4번지 2동 a층 A","indutype":"건축자재 - 기타건축자재","category":"other"}]},{"lat":"37.158051794","long":"126.71267089","imageIndex":17,"items":[{"name":"인해농원","tel":"031-356-8228","addr":"경기도 화성시 서신면 용두리 470-5번지","indutype":"회원제형태 - 기타4","category":"other"}]},{"lat":"37.142299322","long":"126.70811641","imageIndex":4,"items":[{"name":"마술피리","tel":"031-357-4832","addr":"경기도 화성시 서신면 용두리 199-3번지","indutype":"일반휴게음식 - 스넥","category":"restaurant"}]},{"lat":"37.161137179","long":"126.70692873","imageIndex":4,"items":[{"name":"무한나라한식뷔페","tel":"031-355-6192","addr":"경기도 화성시 서신면 용두리 687-2번지 G동 1층","indutype":"일반휴게음식 - 일반한식","category":"restaurant"}]},{"lat":"37.139216949","long":"126.72648501","imageIndex":4,"items":[{"name":"신서해대중음식점","tel":"031-357-3160","addr":"경기도 화성시 서신면 용두리 2-1번지","indutype":"일반휴게음식 - 일반한식","category":"restaurant"}]},{"lat":"37.141807408","long":"126.72453969","imageIndex":0,"items":[{"name":"올인원카","tel":"070-4219-6069","addr":"경기도 화성시 서신면 용두리 924번지 17","indutype":"자동차정비 유지 - 카인테리어","category":"car"}]}]