[{"lat":"37.676920073","long":"127.49244221","imageIndex":17,"items":[{"name":"(주)장학전력","tel":"031-584-8064","addr":"경기도 가평군 설악면 신천리 411-2번지","indutype":"건축자재 - 조명기구","category":"other"},{"name":"주식회사장학전력(지점)","tel":"031-584-8064","addr":"경기도 가평군 설악면 신천리 411-2","indutype":"건축자재 - 조명기구","category":"other"},{"name":"합동건설","tel":"031-584-9157","addr":"경기도 가평군 설악면 신천리 411-2번지","indutype":"건축자재 - 기타건축자재","category":"other"},{"name":"합동건설","tel":"031-584-9157","addr":"경기도 가평군 설악면 신천리 411-2번지","indutype":"건축자재 - 기타건축자재","category":"other"}]},{"lat":"37.677779146","long":"127.48950059","imageIndex":17,"items":[{"name":"GS25가평설악점","tel":"02-2006-2118","addr":"경기도 가평군 설악면 신천리 458-4","indutype":"유통업 영리 - 편 의 점","category":"other"},{"name":"설악낚시","tel":"031-584-7276","addr":"경기도 가평군 설악면 신천리 458-4 1/3","indutype":"레져용품 - 스포츠·레져용품","category":"other"}]},{"lat":"37.676057658","long":"127.49616587","imageIndex":17,"items":[{"name":"GS25설악태양점","tel":"","addr":"경기도 가평군 설악면 신천리 122-1번지","indutype":"유통업 영리 - 편 의 점","category":"other"}]},{"lat":"37.679221165","long":"127.4915618","imageIndex":17,"items":[{"name":"PC사랑","tel":"031-584-5022","addr":"경기도 가평군 설악면 신천리 494-2","indutype":"수리서비스 - 사무·통신기기수리","category":"other"}]},{"lat":"37.677615636","long":"127.49416979","imageIndex":17,"items":[{"name":"TA건축사사무소","tel":"031-584-7321","addr":"경기도 가평군 설악면 신천리 120-1 2층","indutype":"용역 서비스 - 사무서비스","category":"other"}]},{"lat":"37.67519425","long":"127.49364374","imageIndex":17,"items":[{"name":"가든조명","tel":"031-585-6828","addr":"경기도 가평군 설악면 신천리 407-21번지 A동","indutype":"건축자재 - 조명기구","category":"other"}]},{"lat":"37.657063429","long":"127.48134197","imageIndex":17,"items":[{"name":"가평","tel":"031-584-1425","addr":"경기도 가평군 설악면 신천리 716-5번지","indutype":"신변잡화 - 기타잡화","category":"other"}]},{"lat":"37.679949552","long":"127.48971881","imageIndex":17,"items":[{"name":"가평군농협농자재설악지점","tel":"031-585-0787","addr":"경기도 가평군 설악면 신천리 444-8번지","indutype":"유통업 비영리 - 농,축협 직영매장","category":"other"},{"name":"가평군농협농자재설악지점","tel":"031-585-0787","addr":"경기도 가평군 설악면 신천리 444-8번지 농자재백화점","indutype":"농업 - 농기계","category":"other"}]},{"lat":"37.677971637","long":"127.4908848","imageIndex":17,"items":[{"name":"가평군농협설악하나로마트","tel":"031-584-8130","addr":"경기도 가평군 설악면 신천리 432-4번지","indutype":"유통업 비영리 - 농,축협 직영매장","category":"other"},{"name":"설악반점","tel":"","addr":"경기도 가평군 설악면 신천리 454-1번지","indutype":"중식","category":"other"},{"name":"이투스에이앤지","tel":"031-584-7238","addr":"경기도 가평군 설악면 신천리 435-14번지","indutype":"-","category":"other"}]},{"lat":"37.677726884","long":"127.49124593","imageIndex":17,"items":[{"name":"가평군농협하나로마트설악지소","tel":"031-585-8136","addr":"경기도 가평군 설악면 신천리 432-6번지","indutype":"유통업 비영리 - 농,축협 직영매장","category":"other"},{"name":"바이더웨이가평설악점","tel":"031-585-7600","addr":"경기도 가평군 설악면 신천리 432-6","indutype":"유통업 영리 - 편 의 점","category":"other"},{"name":"세븐일레븐가평설악점","tel":"","addr":"경기도 가평군 설악면 신천리 432-6번지","indutype":"유통업 영리 - 편 의 점","category":"other"}]},{"lat":"37.680136547","long":"127.49459451","imageIndex":17,"items":[{"name":"가평에어컨보일러","tel":"031-585-9428","addr":"경기도 가평군 설악면 신천리 86-10번지 그린피아빌 A동 302호","indutype":"전기제품 - 가전제품","category":"other"}]},{"lat":"37.676615695","long":"127.49414052","imageIndex":17,"items":[{"name":"가평축산업협동조합설악지점","tel":"031-585-4200","addr":"경기도 가평군 설악면 신천리 121-9번지 축산업협동조합","indutype":"유통업 비영리 - 농,축협 직영매장","category":"other"},{"name":"가평축산업협동조합설악지점","tel":"031-585-4200","addr":"경기도 가평군 설악면 신천리 121-9번지","indutype":"농업 - 비료,사료,종자","category":"other"},{"name":"가평축협 설악지점","tel":"031-585-4200","addr":"경기도 가평군 설악면 신천리 121-9번지","indutype":"농업 - 비료,사료,종자","category":"other"}]},{"lat":"37.674613619","long":"127.48588668","imageIndex":17,"items":[{"name":"강수종합건설(주)","tel":"031-584-7955","addr":"경기도 가평군 설악면 신천리 661-10번지 (에이동2호)","indutype":"건축자재 - 기타건축자재","category":"other"},{"name":"재윤상사","tel":"031-585-2744","addr":"경기도 가평군 설악면 신천리 661-10번지 외2번지 B-호","indutype":"건축자재 - 목재·석재·철물","category":"other"}]},{"lat":"37.663806568","long":"127.4825866","imageIndex":17,"items":[{"name":"거원조경","tel":"031-584-3359","addr":"경기도 가평군 설악면 신천리 728-56","indutype":"문화.취미 - 화원","category":"other"}]},{"lat":"37.671305122","long":"127.48856288","imageIndex":17,"items":[{"name":"기분좋은날","tel":"031-584-4706","addr":"경기도 가평군 설악면 신천리 344-1번지","indutype":"문화.취미 - 화원","category":"other"}]},{"lat":"37.672278488","long":"127.49066616","imageIndex":17,"items":[{"name":"까사델까미노 Casa del camino","tel":"","addr":"경기도 가평군 설악면 신천리 364-1번지","indutype":"용역 서비스 - 사무서비스","category":"other"}]},{"lat":"37.677529034","long":"127.48897752","imageIndex":17,"items":[{"name":"다옴이 글로벌","tel":"031-584-9088","addr":"경기도 가평군 설악면 신천리 462-14번지","indutype":"유통업 영리 - 기타유통업","category":"other"},{"name":"민들레화원","tel":"031-585-6331","addr":"경기도 가평군 설악면 신천리 462-14번지","indutype":"문화.취미 - 화원","category":"other"}]},{"lat":"37.666979707","long":"127.49527841","imageIndex":17,"items":[{"name":"대성종합건설","tel":"031-585-8924","addr":"경기도 가평군 설악면 신천리 204번지","indutype":"건축자재 - 기타건축자재","category":"other"}]},{"lat":"37.678169398","long":"127.48881166","imageIndex":17,"items":[{"name":"디앤디(D&D) 아뜰리에","tel":"031-585-3300","addr":"경기도 가평군 설악면 신천리 463-31","indutype":"문화.취미 - 민예·공예품","category":"other"}]},{"lat":"37.677919503","long":"127.49041969","imageIndex":17,"items":[{"name":"미원정보통신","tel":"031-585-5876","addr":"경기도 가평군 설악면 신천리 454-9번지","indutype":"사무통신 - 통신기기","category":"other"},{"name":"인기획","tel":"031-511-4774","addr":"경기도 가평군 설악면 신천리 454-9번지","indutype":"서적문구 - 출판 및 인쇄물","category":"other"}]},{"lat":"37.678304185","long":"127.49107968","imageIndex":17,"items":[{"name":"민지네문구","tel":"031-584-5882","addr":"경기도 가평군 설악면 신천리 435-1","indutype":"서적문구 - 문구용품","category":"other"}]},{"lat":"37.678252849","long":"127.49042188","imageIndex":17,"items":[{"name":"방패라인","tel":"","addr":"경기도 가평군 설악면 신천리 437-6번지 제일정육점 1층 102호","indutype":"사무통신 - 통신기기","category":"other"}]},{"lat":"37.677809164","long":"127.48877531","imageIndex":17,"items":[{"name":"보금자리","tel":"031-584-7743","addr":"경기도 가평군 설악면 신천리 464-3번지","indutype":"직물 - 침구·수예점","category":"other"}]},{"lat":"37.677810051","long":"127.48855993","imageIndex":17,"items":[{"name":"북유럽(Book You Love)","tel":"031-000-0000","addr":"경기도 가평군 설악면 신천리 464-4번지","indutype":"서적문구 - 일반서적","category":"other"},{"name":"스튜디오 다른세상","tel":"031-584-1252","addr":"경기도 가평군 설악면 신천리 464-4번지 2층","indutype":"광학제품 - 사진관","category":"other"}]},{"lat":"37.677948358","long":"127.48997779","imageIndex":17,"items":[{"name":"뷰티박스","tel":"031-585-3618","addr":"경기도 가평군 설악면 신천리 453-3번지","indutype":"의류 - 내의판매","category":"other"}]},{"lat":"37.675006262","long":"127.4976665","imageIndex":17,"items":[{"name":"서울건재","tel":"031-585-3030","addr":"경기도 가평군 설악면 신천리 146-2번지","indutype":"기타 - 기계공구","category":"other"},{"name":"서울건재","tel":"031-585-3030","addr":"경기도 가평군 설악면 신천리 408-5번지","indutype":"기타 - 기계공구","category":"other"}]},{"lat":"37.677417903","long":"127.49405513","imageIndex":17,"items":[{"name":"서인종합상사","tel":"031-587-7886","addr":"경기도 가평군 설악면 신천리 120-13","indutype":"건축자재 - 기타건축자재","category":"other"},{"name":"신천종합상사","tel":"031-584-7217","addr":"경기도 가평군 설악면 신천리 120-13번지 1층 일부","indutype":"건축자재 - 기타건축자재","category":"other"},{"name":"클럽 티파니","tel":"031-584-6390","addr":"경기도 가평군 설악면 신천리 120-13번지 가호","indutype":"용역 서비스 - 사무서비스","category":"other"}]},{"lat":"37.677942903","long":"127.48911625","imageIndex":17,"items":[{"name":"설악 애견","tel":"","addr":"경기도 가평군 설악면 신천리 465-2번지","indutype":"문화.취미 - 애완동물","category":"other"}]},{"lat":"37.676861966","long":"127.49341668","imageIndex":17,"items":[{"name":"설악건재","tel":"031-584-7212","addr":"경기도 가평군 설악면 신천리 409-15","indutype":"건축자재 - 기타건축자재","category":"other"}]},{"lat":"37.67183553","long":"127.49102597","imageIndex":17,"items":[{"name":"설악낚시","tel":"031-584-9922","addr":"경기도 가평군 설악면 신천리 359번지 원주민부동산중계사사무소 1호","indutype":"레져용품 - 스포츠·레져용품","category":"other"},{"name":"쉼터편의점","tel":"031-584-7388","addr":"경기도 가평군 설악면 신천리 359번지 1층","indutype":"유통업 영리 - 편 의 점","category":"other"},{"name":"평화씽크","tel":"031-584-9711","addr":"경기도 가평군 설악면 신천리 359번지","indutype":"주방용구 - 주방용식기","category":"other"}]},{"lat":"37.67569915","long":"127.49355638","imageIndex":17,"items":[{"name":"설악농약종묘사","tel":"031-584-7238","addr":"경기도 가평군 설악면 신천리 407-13번지","indutype":"농업 - 비료,사료,종자","category":"other"},{"name":"설악옷매장","tel":"031-585-2213","addr":"경기도 가평군 설악면 신천리 407-13번지","indutype":"의류 - 정장","category":"other"}]},{"lat":"37.67786252","long":"127.48894569","imageIndex":17,"items":[{"name":"설악명전사","tel":"031-584-7746","addr":"경기도 가평군 설악면 신천리 464-1","indutype":"전기제품 - 가전제품","category":"other"}]},{"lat":"37.677249249","long":"127.49127681","imageIndex":17,"items":[{"name":"설악우체국","tel":"031-584-7701","addr":"경기도 가평군 설악면 신천리 433-8번지","indutype":"용역 서비스 - 공공요금대행서비스/소","category":"other"}]},{"lat":"37.677057047","long":"127.49200102","imageIndex":17,"items":[{"name":"설악의류","tel":"031-584-2810","addr":"경기도 가평군 설악면 신천리 412-11번지 1층","indutype":"의류 - 정장","category":"other"}]},{"lat":"37.677862916","long":"127.49103145","imageIndex":17,"items":[{"name":"설악의류","tel":"031-1111-1111","addr":"경기도 가평군 설악면 신천리 435-21번지","indutype":"의류 - 기타의류","category":"other"}]},{"lat":"37.676638241","long":"127.49305247","imageIndex":17,"items":[{"name":"설악통신2호점","tel":"031-585-9777","addr":"경기도 가평군 설악면 신천리 408-27","indutype":"회원제형태 - 기타1","category":"other"}]},{"lat":"37.677693304","long":"127.48846849","imageIndex":17,"items":[{"name":"설인인테리어","tel":"031-585-9008","addr":"경기도 가평군 설악면 신천리 463-13번지","indutype":"건축자재 - 인테리어전문","category":"other"}]},{"lat":"37.675227368","long":"127.48561861","imageIndex":17,"items":[{"name":"세븐일레븐가평설악방주점","tel":"","addr":"경기도 가평군 설악면 신천리 601번지","indutype":"유통업 영리 - 편 의 점","category":"other"},{"name":"주식회사 세계일렉컴","tel":"031-585-9280","addr":"경기도 가평군 설악면 신천리 601번지 2층 203호","indutype":"사무통신 - 통신기기","category":"other"}]},{"lat":"37.677193442","long":"127.48733168","imageIndex":17,"items":[{"name":"세븐일레븐가평청심점","tel":"","addr":"경기도 가평군 설악면 신천리 580-1번지","indutype":"유통업 영리 - 편 의 점","category":"other"}]},{"lat":"37.677445703","long":"127.48733332","imageIndex":17,"items":[{"name":"세븐일레븐가평청심점","tel":"031-585-7626","addr":"경기도 가평군 설악면 신천리 574-3","indutype":"유통업 영리 - 편 의 점","category":"other"}]},{"lat":"37.675392691","long":"127.49358837","imageIndex":17,"items":[{"name":"신발백화점","tel":"031-584-8992","addr":"경기도 가평군 설악면 신천리 407-11번지 설악빌라","indutype":"신변잡화 - 신발","category":"other"}]},{"lat":"37.676810313","long":"127.49283823","imageIndex":17,"items":[{"name":"신척낚시레저","tel":"031-584-7026","addr":"경기도 가평군 설악면 신천리 408-8번지","indutype":"레져용품 - 스포츠·레져용품","category":"other"},{"name":"크린에이드","tel":"031-585-6865","addr":"경기도 가평군 설악면 신천리 408-8번지","indutype":"수리서비스 - 세탁소","category":"other"}]},{"lat":"37.67836169","long":"127.48586563","imageIndex":17,"items":[{"name":"씨유설악신천점","tel":"02-1577-8007","addr":"경기도 가평군 설악면 신천리 570-1번지 102호","indutype":"유통업 영리 - 편 의 점","category":"other"}]},{"lat":"37.682033765","long":"127.49117214","imageIndex":17,"items":[{"name":"씨유설악청심점","tel":"031-584-4221","addr":"경기도 가평군 설악면 신천리 514-6번지 1층","indutype":"유통업 영리 - 편 의 점","category":"other"}]},{"lat":"37.672945126","long":"127.48630659","imageIndex":17,"items":[{"name":"아주나무 (ajunamu)","tel":"","addr":"경기도 가평군 설악면 신천리 661-2번지 1동 3층(지교)","indutype":"의류 - 정장","category":"other"},{"name":"지교","tel":"031-585-3651","addr":"경기도 가평군 설악면 신천리 661-2번지 (신천661-1,3,8)","indutype":"회원제형태 - 레져업소","category":"other"}]},{"lat":"37.672507188","long":"127.48764126","imageIndex":17,"items":[{"name":"어썸아키텍(awesome architec)","tel":"031-585-5486","addr":"경기도 가평군 설악면 신천리 669-6번지 202호","indutype":"용역 서비스 - 사무서비스","category":"other"},{"name":"휴먼앤하우스 (HUMAN &HOUSE)","tel":"031-585-2040","addr":"경기도 가평군 설악면 신천리 669-6번지 2층 201호","indutype":"건축자재 - 인테리어전문","category":"other"}]},{"lat":"37.678673192","long":"127.49117279","imageIndex":17,"items":[{"name":"에르고숨","tel":"031-584-5889","addr":"경기도 가평군 설악면 신천리 491-6번지","indutype":"의류 - 정장","category":"other"}]},{"lat":"37.677999121","long":"127.49294807","imageIndex":17,"items":[{"name":"에코힐스크린골프","tel":"031-585-0077","addr":"경기도 가평군 설악면 신천리 418-9번지","indutype":"회원제형태 - 레져업소","category":"other"}]},{"lat":"37.672859825","long":"127.49170144","imageIndex":17,"items":[{"name":"윤갤러리","tel":"031-585-6617","addr":"경기도 가평군 설악면 신천리 363-10번지","indutype":"가구 - 일반가구","category":"other"}]},{"lat":"37.656585931","long":"127.48133891","imageIndex":17,"items":[{"name":"전성식 국악기연구원","tel":"031-674-3206","addr":"경기도 가평군 설악면 신천리 715-5번지","indutype":"레져용품 - 악기점","category":"other"}]},{"lat":"37.676340085","long":"127.49325455","imageIndex":17,"items":[{"name":"최가건재","tel":"031-585-3030","addr":"경기도 가평군 설악면 신천리 408-5번지","indutype":"건축자재 - 기타건축자재","category":"other"}]},{"lat":"37.672617277","long":"127.49152982","imageIndex":17,"items":[{"name":"친절공인중개사무소","tel":"031-584-4924","addr":"경기도 가평군 설악면 신천리 362-1번지","indutype":"용역 서비스 - 부동산 중개·임대","category":"other"}]},{"lat":"37.677360938","long":"127.48822828","imageIndex":17,"items":[{"name":"태신타일","tel":"031-584-5527","addr":"경기도 가평군 설악면 신천리 391-2","indutype":"건축자재 - 건축용 요업제품","category":"other"}]},{"lat":"37.677084404","long":"127.49192185","imageIndex":17,"items":[{"name":"한국농약백화점","tel":"031-585-3223","addr":"경기도 가평군 설악면 신천리 412-12번지","indutype":"농업 - 비료,사료,종자","category":"other"},{"name":"한국농약백화점","tel":"031-585-3223","addr":"경기도 가평군 설악면 신천리 412-12번지 1층","indutype":"농업 - 비료,사료,종자","category":"other"}]},{"lat":"37.678144174","long":"127.49055719","imageIndex":17,"items":[{"name":"한서종합신발","tel":"031-584-3586","addr":"경기도 가평군 설악면 신천리 435-3","indutype":"신변잡화 - 신발","category":"other"}]},{"lat":"37.677170733","long":"127.49282926","imageIndex":17,"items":[{"name":"황금시대","tel":"031-585-4912","addr":"경기도 가평군 설악면 신천리 409-4번지 1층","indutype":"신변잡화 - 귀금속","category":"other"}]},{"lat":"37.677193925","long":"127.49158251","imageIndex":17,"items":[{"name":"후쿠","tel":"031-947-4230","addr":"경기도 가평군 설악면 신천리 412-9번지 1층","indutype":"의류 - 정장","category":"other"}]}]