[{"lat":"37.169779576","long":"127.06588963","imageIndex":8,"items":[{"name":"다온한의원","tel":"031-360-1075","addr":"경기도 오산시 수청동 620-4번지 우정프라자 202,203호","indutype":"의원 - 한의원","category":"medical"},{"name":"라임온누리약국","tel":"031-373-0702","addr":"경기도 오산시 수청동 620-4번지 102호","indutype":"약국 - 약국","category":"medical"},{"name":"삼성연합의원","tel":"031-376-5475","addr":"경기도 오산시 수청동 620-4번지 301호","indutype":"의원 - 의원","category":"medical"},{"name":"서울늘솜치과","tel":"031-374-5999","addr":"경기도 오산시 수청동 620-4번지 302호","indutype":"의원 - 치과의원","category":"medical"}]},{"lat":"37.170836282","long":"127.06102637","imageIndex":8,"items":[{"name":"도래동물병원","tel":"031-375-7590","addr":"경기도 오산시 수청동 608-8번지","indutype":"기타의료기관 - 동물병원","category":"medical"}]},{"lat":"37.168941975","long":"127.06519086","imageIndex":8,"items":[{"name":"동산약국","tel":"031-378-0948","addr":"경기도 오산시 수청동 621-1번지 2층 206호","indutype":"약국 - 약국","category":"medical"},{"name":"세교서울이비인후과","tel":"031-373-3993","addr":"경기도 오산시 수청동 621-1번지 2층 208,209호","indutype":"의원 - 의원","category":"medical"}]},{"lat":"37.170752965","long":"127.06539501","imageIndex":8,"items":[{"name":"세교바른약국","tel":"031-373-0844","addr":"경기도 오산시 수청동 617-6번지 108호","indutype":"약국 - 약국","category":"medical"},{"name":"세교엘리트치과의원","tel":"031-374-2879","addr":"경기도 오산시 수청동 617-6번지 407호","indutype":"의원 - 치과의원","category":"medical"},{"name":"온사랑한의원","tel":"031-374-7979","addr":"경기도 오산시 수청동 617-6번지 GPLACE오산상가건물 506호","indutype":"의원 - 한의원","category":"medical"}]},{"lat":"37.170555446","long":"127.06403245","imageIndex":8,"items":[{"name":"세교아이들치과의원","tel":"","addr":"경기도 오산시 수청동 617-1번지 3층 1호","indutype":"의원 - 치과의원","category":"medical"},{"name":"웰봄내과의원","tel":"031-8077-2124","addr":"경기도 오산시 수청동 617-1번지 4층","indutype":"의원 - 의원","category":"medical"},{"name":"웰봄병원","tel":"031-373-7585","addr":"경기도 오산시 수청동 617-1번지 5층 일부및 6-10층","indutype":"병원 - 병원","category":"medical"},{"name":"판도라봄약국","tel":"031-376-6171","addr":"경기도 오산시 수청동 617-1번지 105호","indutype":"약국 - 약국","category":"medical"}]},{"lat":"37.169392943","long":"127.06433552","imageIndex":8,"items":[{"name":"세교엘약국","tel":"031-376-8997","addr":"경기도 오산시 수청동 618-5번지 1층 102,103호","indutype":"약국 - 약국","category":"medical"},{"name":"송호욱병원","tel":"031-1800-6655","addr":"경기도 오산시 수청동 618-5번지 ,6-10층","indutype":"병원 - 병원","category":"medical"},{"name":"주식회사 오에스팜","tel":"032-378-1228","addr":"경기도 오산시 수청동 618-5번지 501호","indutype":"약국 - 제약회사","category":"medical"}]},{"lat":"37.169473483","long":"127.06539396","imageIndex":8,"items":[{"name":"세교자연약국","tel":"031-376-7123","addr":"경기도 오산시 수청동 619-3번지 베내치아1 1층 106호","indutype":"약국 - 약국","category":"medical"}]},{"lat":"37.169554285","long":"127.06594574","imageIndex":8,"items":[{"name":"세교퍼스트치과","tel":"031-373-7582","addr":"경기도 오산시 수청동 620-5번지 401,402호","indutype":"의원 - 치과의원","category":"medical"},{"name":"스마일동물병원","tel":"031-375-5975","addr":"경기도 오산시 수청동 620-5번지 102,103호","indutype":"기타의료기관 - 동물병원","category":"medical"}]},{"lat":"37.171836671","long":"127.06055423","imageIndex":8,"items":[{"name":"스타트요양병원","tel":"031-373-1773","addr":"경기도 오산시 수청동 608-1번지 3,4,5,6,7층","indutype":"병원 - 병원","category":"medical"}]},{"lat":"37.164086992","long":"127.06197818","imageIndex":8,"items":[{"name":"시온약국","tel":"031-375-4715","addr":"경기도 오산시 수청동 518-9번지","indutype":"약국 - 약국","category":"medical"}]},{"lat":"37.170052013","long":"127.06175764","imageIndex":8,"items":[{"name":"씨앤엘플러스내과","tel":"031-375-1175","addr":"경기도 오산시 수청동 610번지 홈플러스오산점 2층","indutype":"의원 - 의원","category":"medical"}]},{"lat":"37.170473451","long":"127.06575509","imageIndex":8,"items":[{"name":"연세 원내과","tel":"031-8077-2123","addr":"경기도 오산시 수청동 620-1번지 301,302,303,304호","indutype":"의원 - 의원","category":"medical"},{"name":"자민약국","tel":"031-376-7558","addr":"경기도 오산시 수청동 620-1번지 1층 108호","indutype":"약국 - 약국","category":"medical"}]},{"lat":"37.162834613","long":"127.06183085","imageIndex":8,"items":[{"name":"한솔가정의원","tel":"031-374-1267","addr":"경기도 오산시 수청동 533번지 대우제2상가 106호","indutype":"의원 - 의원","category":"medical"}]}]