[{"lat":"37.81765286","long":"127.34878406","imageIndex":7,"items":[{"name":"가평군농업협동조합조종지점","tel":"031-585-8550","addr":"경기도 가평군 조종면 현리 410-1번지 가평군농협하나로마트 하면점","indutype":"음료식품 - 농·축·수산품","category":"food"}]},{"lat":"37.8127895","long":"127.35429188","imageIndex":7,"items":[{"name":"가평쌀연구회영농조합법인","tel":"031-585-0218","addr":"경기도 가평군 조종면 현리 424-3","indutype":"음료식품 - 농·축·수산품","category":"food"}]},{"lat":"37.812981072","long":"127.35045435","imageIndex":7,"items":[{"name":"경민도매유통","tel":"031-584-4036","addr":"경기도 가평군 조종면 현리 477-10번지","indutype":"음료식품 - 기타음료식품","category":"food"}]},{"lat":"37.82017769","long":"127.34803489","imageIndex":7,"items":[{"name":"낙원떡방앗간","tel":"031-584-3526","addr":"경기도 가평군 조종면 현리 274-29번지","indutype":"음료식품 - 기타음료식품","category":"food"}]},{"lat":"37.827088465","long":"127.3478399","imageIndex":7,"items":[{"name":"농부애뜰","tel":"031-585-9894","addr":"경기도 가평군 조종면 현리 36-5번지","indutype":"음료식품 - 농·축·수산품","category":"food"}]},{"lat":"37.805374406","long":"127.3452294","imageIndex":7,"items":[{"name":"농업회사법인 주식회사 세인","tel":"031-584-9209","addr":"경기도 가평군 조종면 현리 535-6번지","indutype":"음료식품 - 농·축·수산품","category":"food"},{"name":"대목수 이야기","tel":"031-584-6170","addr":"경기도 가평군 조종면 현리 535-6번지","indutype":"음료식품 - 기타음료식품","category":"food"}]},{"lat":"37.818431184","long":"127.35065026","imageIndex":7,"items":[{"name":"다비축산","tel":"031-584-0927","addr":"경기도 가평군 조종면 현리 259-29번지","indutype":"음료식품 - 정육점","category":"food"}]},{"lat":"37.822284094","long":"127.34864666","imageIndex":7,"items":[{"name":"다호떡집","tel":"031-582-8080","addr":"경기도 가평군 조종면 현리 231-13번지 1층","indutype":"음료식품 - 제과점","category":"food"}]},{"lat":"37.818707012","long":"127.34876626","imageIndex":7,"items":[{"name":"담배명인","tel":"","addr":"경기도 가평군 조종면 현리 264-10번지 1층","indutype":"음료식품 - 기타음료식품","category":"food"}]},{"lat":"37.818591225","long":"127.34831143","imageIndex":7,"items":[{"name":"대륙상회","tel":"031-585-1011","addr":"경기도 가평군 조종면 현리 265-9번지","indutype":"음료식품 - 기타음료식품","category":"food"}]},{"lat":"37.820480338","long":"127.34928562","imageIndex":7,"items":[{"name":"대화상회","tel":"031-585-0131","addr":"경기도 가평군 조종면 현리 277-1번지 대화상회","indutype":"음료식품 - 미곡상","category":"food"}]},{"lat":"37.819480442","long":"127.34923552","imageIndex":7,"items":[{"name":"더달달","tel":"032-526-8858","addr":"경기도 가평군 조종면 현리 262-49번지 1층","indutype":"음료식품 - 기타음료식품","category":"food"}]},{"lat":"37.808122925","long":"127.3571995","imageIndex":7,"items":[{"name":"도마농원","tel":"031-585-0118","addr":"경기도 가평군 조종면 현리 509-13","indutype":"음료식품 - 농·축·수산품","category":"food"}]},{"lat":"37.819427455","long":"127.34887184","imageIndex":7,"items":[{"name":"만나반찬","tel":"031-584-2030","addr":"경기도 가평군 조종면 현리 264-53번지 1층","indutype":"음료식품 - 기타음료식품","category":"food"}]},{"lat":"37.82006768","long":"127.34868175","imageIndex":7,"items":[{"name":"만물식품","tel":"031-585-0141","addr":"경기도 가평군 조종면 현리 274-16번지","indutype":"음료식품 - 기타음료식품","category":"food"}]},{"lat":"37.822651541","long":"127.34622916","imageIndex":7,"items":[{"name":"무영농원","tel":"031-585-1387","addr":"경기도 가평군 조종면 현리 214","indutype":"음료식품 - 농·축·수산품","category":"food"}]},{"lat":"37.81806311","long":"127.35020561","imageIndex":7,"items":[{"name":"배스킨라빈스 가평현리점","tel":"031-585-3136","addr":"경기도 가평군 조종면 현리 410-25번지 1층","indutype":"음료식품 - 제과점","category":"food"}]},{"lat":"37.820926417","long":"127.34461976","imageIndex":7,"items":[{"name":"별천지,약초드림","tel":"031-585-7788","addr":"경기도 가평군 조종면 현리 312-1번지","indutype":"음료식품 - 농·축·수산품","category":"food"}]},{"lat":"37.822646285","long":"127.34182231","imageIndex":7,"items":[{"name":"보성농원","tel":"","addr":"경기도 가평군 조종면 현리 201-14번지","indutype":"음료식품 - 농·축·수산품","category":"food"}]},{"lat":"37.819701525","long":"127.35064486","imageIndex":7,"items":[{"name":"보송매점","tel":"031-585-3700","addr":"경기도 가평군 조종면 현리 261-14번지","indutype":"음료식품 - 기타음료식품","category":"food"}]},{"lat":"37.819346538","long":"127.34881467","imageIndex":7,"items":[{"name":"본푸드","tel":"","addr":"경기도 가평군 조종면 현리 264-16번지","indutype":"음료식품 - 정육점","category":"food"}]},{"lat":"37.820982605","long":"127.34698239","imageIndex":7,"items":[{"name":"삼립빵","tel":"031-585-1395","addr":"경기도 가평군 조종면 현리 304-7","indutype":"음료식품 - 제과점","category":"food"}]},{"lat":"37.822505064","long":"127.33446183","imageIndex":7,"items":[{"name":"쉼터매점","tel":"031-000-0000","addr":"경기도 가평군 조종면 현리 154-3번지 토방오리나라 193호","indutype":"음료식품 - 기타음료식품","category":"food"}]},{"lat":"37.809981316","long":"127.34103764","imageIndex":7,"items":[{"name":"승승농원","tel":"","addr":"경기도 가평군 조종면 현리 446번지","indutype":"음료식품 - 농·축·수산품","category":"food"}]},{"lat":"37.818454919","long":"127.3487083","imageIndex":7,"items":[{"name":"신라명과","tel":"031-585-2536","addr":"경기도 가평군 조종면 현리 262-60번지","indutype":"음료식품 - 제과점","category":"food"}]},{"lat":"37.809209479","long":"127.35236715","imageIndex":7,"items":[{"name":"신영유통","tel":"031-585-1522","addr":"경기도 가평군 조종면 현리 477-35번지","indutype":"음료식품 - 기타음료식품","category":"food"}]},{"lat":"37.82156909","long":"127.34975637","imageIndex":7,"items":[{"name":"신화방앗간","tel":"031-585-0167","addr":"경기도 가평군 조종면 현리 233-13","indutype":"음료식품 - 제과점","category":"food"}]},{"lat":"37.818177264","long":"127.3481505","imageIndex":7,"items":[{"name":"에센브로트 베이커리","tel":"","addr":"경기도 가평군 조종면 현리 265-11번지","indutype":"음료식품-베이커리","category":"food"}]},{"lat":"37.818617753","long":"127.34848191","imageIndex":7,"items":[{"name":"에센브로트 베이커리","tel":"031-584-1129","addr":"경기도 가평군 조종면 현리 265-11번지 1층","indutype":"음료식품 - 제과점","category":"food"}]},{"lat":"37.819562527","long":"127.34889518","imageIndex":7,"items":[{"name":"연두유통","tel":"","addr":"경기도 가평군 조종면 현리 262-21번지","indutype":"음료식품 - 기타음료식품","category":"food"}]},{"lat":"37.819644811","long":"127.3484867","imageIndex":7,"items":[{"name":"우리집반찬","tel":"031-585-2910","addr":"경기도 가평군 조종면 현리 273-12번지 1층 우리집반찬","indutype":"음료식품 - 기타음료식품","category":"food"}]},{"lat":"37.822733157","long":"127.34912578","imageIndex":7,"items":[{"name":"운악산막걸리","tel":"031-585-0881","addr":"경기도 가평군 조종면 현리 231-17번지 미림이네 101호","indutype":"음료식품 - 주류 판매점","category":"food"}]},{"lat":"37.818869513","long":"127.34865345","imageIndex":7,"items":[{"name":"조종방앗간","tel":"031-585-0545","addr":"경기도 가평군 조종면 현리 264-50번지","indutype":"음료식품 - 제과점","category":"food"},{"name":"조종방앗간","tel":"031-585-0545","addr":"경기도 가평군 조종면 현리 264-50번지","indutype":"음료식품 - 제과점","category":"food"}]},{"lat":"37.820451953","long":"127.34667327","imageIndex":7,"items":[{"name":"최고봉흑염소","tel":"031-584-5401","addr":"경기도 가평군 조종면 현리 303-14 1/3","indutype":"건강식품 - 기타건강식품","category":"food"}]},{"lat":"37.817903485","long":"127.34934172","imageIndex":7,"items":[{"name":"파리바게트가평현리점","tel":"031-585-8203","addr":"경기도 가평군 조종면 현리 410-26번지 플러스마트내","indutype":"음료식품 - 제과점","category":"food"},{"name":"파리바게트가평현리점","tel":"031-585-8203","addr":"경기도 가평군 조종면 현리 410-26번지 플러스마트내","indutype":"음료식품 - 제과점","category":"food"}]},{"lat":"37.819870775","long":"127.34823789","imageIndex":7,"items":[{"name":"푸른농산","tel":"031-585-0577","addr":"경기도 가평군 조종면 현리 273-7","indutype":"음료식품 - 농·축·수산품","category":"food"}]},{"lat":"37.817093518","long":"127.34904266","imageIndex":7,"items":[{"name":"풍성장터","tel":"031-585-7250","addr":"경기도 가평군 조종면 현리 410-44번지","indutype":"음료식품 - 정육점","category":"food"}]},{"lat":"37.819985396","long":"127.34909023","imageIndex":7,"items":[{"name":"현리닭집","tel":"031-585-0995","addr":"경기도 가평군 조종면 현리 262-59","indutype":"음료식품 - 정육점","category":"food"}]},{"lat":"37.818816523","long":"127.34828977","imageIndex":7,"items":[{"name":"현리성가신용협동조합","tel":"031-585-7700","addr":"경기도 가평군 조종면 현리 265-16","indutype":"음료식품 - 농·축·수산품","category":"food"}]},{"lat":"37.820318972","long":"127.34901229","imageIndex":7,"items":[{"name":"현리점육점","tel":"031-585-1062","addr":"경기도 가평군 조종면 현리 275-9번지","indutype":"음료식품 - 정육점","category":"food"}]},{"lat":"37.820146499","long":"127.34637656","imageIndex":7,"items":[{"name":"호남상회","tel":"031-585-0240","addr":"경기도 가평군 조종면 현리 297-2번지","indutype":"음료식품 - 농·축·수산품","category":"food"},{"name":"호남상회","tel":"031-585-0240","addr":"경기도 가평군 조종면 현리 297-2번지","indutype":"음료식품 - 농·축·수산품","category":"food"}]}]