[{"lat":"37.294519448","long":"127.63408401","imageIndex":17,"items":[{"name":"(주)경민전기","tel":"031-884-7614","addr":"경기도 여주시 창동 146-8번지 101호","indutype":"건축자재 - 기타건축자재","category":"other"}]},{"lat":"37.294750202","long":"127.63135671","imageIndex":17,"items":[{"name":"(주)대익건설","tel":"031-885-1204","addr":"경기도 여주시 창동 141-5번지 1층","indutype":"용역 서비스 - 기타용역서비스","category":"other"},{"name":"경기설비","tel":"031-885-3657","addr":"경기도 여주시 창동 141-5번지","indutype":"건축자재 - 기타건축자재","category":"other"},{"name":"삼보불교사","tel":"031-882-0377","addr":"경기도 여주시 창동 141-5번지 1층","indutype":"신변잡화 - 기념품점","category":"other"}]},{"lat":"37.290548804","long":"127.63186306","imageIndex":17,"items":[{"name":"(주)마루건축사사무소","tel":"031-881-1213","addr":"경기도 여주시 창동 192번지","indutype":"용역 서비스 - 사무서비스","category":"other"},{"name":"청산화원","tel":"031-883-7711","addr":"경기도 여주시 창동 192번지","indutype":"문화.취미 - 화원","category":"other"}]},{"lat":"37.2930546650","long":"127.6299667373","imageIndex":17,"items":[{"name":"(주)한성측량토목설계공사","tel":"031-886-0501","addr":"경기도 여주시 창동 228번지","indutype":"건축자재 - 기타건축자재","category":"other"},{"name":"세기공구백화점","tel":"031-885-0949","addr":"경기도 여주시 창동 228번지","indutype":"기타 - 기계공구","category":"other"}]},{"lat":"37.29557839","long":"127.63319062","imageIndex":17,"items":[{"name":"21세기보석장","tel":"031-883-8882","addr":"경기도 여주시 창동 138-2번지","indutype":"신변잡화 - 귀금속","category":"other"},{"name":"수현세탁소","tel":"031-886-9198","addr":"경기도 여주시 창동 138-2번지","indutype":"수리서비스 - 세탁소","category":"other"}]},{"lat":"37.296909803","long":"127.63019047","imageIndex":17,"items":[{"name":"7세븐세탁소","tel":"031-886-9669","addr":"경기도 여주시 창동 146-16번지","indutype":"수리서비스 - 세탁소","category":"other"}]},{"lat":"37.294694466","long":"127.63505536","imageIndex":17,"items":[{"name":"GS25여주에이스점","tel":"080-555-2525","addr":"경기도 여주시 창동 150-3번지","indutype":"유통업 영리 - 편 의 점","category":"other"}]},{"lat":"37.293054665","long":"127.62996674","imageIndex":17,"items":[{"name":"GS25여주창동점","tel":"","addr":"경기도 여주시 창동 228번지 1층","indutype":"유통업 영리 - 편 의 점","category":"other"},{"name":"여주와이즈멘클럽","tel":"031-884-4456","addr":"경기도 여주시 창동 228번지","indutype":"기타 - 비영리/대상","category":"other"},{"name":"유진환경건설주식회사","tel":"031-885-1122","addr":"경기도 여주시 창동 228번지 2층","indutype":"용역 서비스 - 기타용역서비스","category":"other"}]},{"lat":"37.294855932","long":"127.63350037","imageIndex":17,"items":[{"name":"GS25여주창리점","tel":"02-2006-2485","addr":"경기도 여주시 창동 146-12번지","indutype":"유통업 영리 - 편 의 점","category":"other"}]},{"lat":"37.292306082","long":"127.63010713","imageIndex":17,"items":[{"name":"KCC고려페인트세종기업","tel":"031-882-0609","addr":"경기도 여주시 창동 220-1번지","indutype":"건축자재 - 페인트","category":"other"}]},{"lat":"37.294048722","long":"127.6328057","imageIndex":17,"items":[{"name":"LS제어시스템","tel":"070-7719-9927","addr":"경기도 여주시 창동 144-24번지","indutype":"기타 - 기계공구","category":"other"}]},{"lat":"37.292553949","long":"127.63432697","imageIndex":17,"items":[{"name":"PR디자인광고기획","tel":"031-883-7885","addr":"경기도 여주시 창동 159-16번지","indutype":"건축자재 - 인테리어전문","category":"other"}]},{"lat":"37.291938883","long":"127.63477293","imageIndex":17,"items":[{"name":"Y.M스포츠","tel":"031-881-2382","addr":"경기도 여주시 창동 159-35번지","indutype":"레져용품 - 스포츠·레져용품","category":"other"},{"name":"깨끗한침대","tel":"031-885-4969","addr":"경기도 여주시 창동 159-35번지","indutype":"용역 서비스 - 종합용역","category":"other"}]},{"lat":"37.296998357","long":"127.6355596","imageIndex":17,"items":[{"name":"YES여주중앙점","tel":"031-882-2021","addr":"경기도 여주시 창동 56-3번지","indutype":"의류 - 내의판매","category":"other"},{"name":"로이드","tel":"031-996-9307","addr":"경기도 여주시 창동 56-3번지","indutype":"신변잡화 - 시계","category":"other"},{"name":"미니골드","tel":"031-881-3383","addr":"경기도 여주시 창동 56-3번지","indutype":"신변잡화 - 액세서리","category":"other"},{"name":"올리브","tel":"031-1111-1111","addr":"경기도 여주시 창동 56-3번지","indutype":"의류 - 정장","category":"other"},{"name":"클라라","tel":"031-884-5303","addr":"경기도 여주시 창동 56-3번지","indutype":"의류 - 정장","category":"other"}]},{"lat":"37.293111113","long":"127.63291065","imageIndex":17,"items":[{"name":"간판스타","tel":"031-883-7709","addr":"경기도 여주시 창동 157-31번지","indutype":"건축자재 - 인테리어전문","category":"other"}]},{"lat":"37.294082526","long":"127.63153159","imageIndex":17,"items":[{"name":"간판척척","tel":"031-885-3270","addr":"경기도 여주시 창동 142-10번지","indutype":"건축자재 - 인테리어전문","category":"other"}]},{"lat":"37.2979154759","long":"127.6359169124","imageIndex":17,"items":[{"name":"건축사사무소플러스건축","tel":"031-886-9559","addr":"경기도 여주시 창동 40-3번지","indutype":"용역 서비스 - 사무서비스","category":"other"}]},{"lat":"37.292221312","long":"127.63418886","imageIndex":17,"items":[{"name":"건희건설공업(주)","tel":"031-885-2600","addr":"경기도 여주시 창동 159-31번지","indutype":"건축자재 - 보일러·펌프·샷시","category":"other"}]},{"lat":"37.290520725","long":"127.63036296","imageIndex":17,"items":[{"name":"경기주방","tel":"031-885-2849","addr":"경기도 여주시 창동 204번지 1층 1호,2호","indutype":"주방용구 - 주방용구","category":"other"}]},{"lat":"37.292633954","long":"127.63453064","imageIndex":17,"items":[{"name":"경동건설기계","tel":"031-885-2125","addr":"경기도 여주시 창동 159-1번지","indutype":"기타 - 기계공구","category":"other"},{"name":"경동건설기계","tel":"031-882-4529","addr":"경기도 여주시 창동 159-1번지","indutype":"기타 - 기계공구","category":"other"},{"name":"경동건설기계(여주공삼중기)","tel":"031-111-1111","addr":"경기도 여주시 창동 159-1번지","indutype":"기타 - 기계공구","category":"other"},{"name":"이포지게차(경동건설기계)","tel":"031-882-9884","addr":"경기도 여주시 창동 159-1번지","indutype":"기타 - 기계공구","category":"other"},{"name":"이한측량설계","tel":"031-882-8390","addr":"경기도 여주시 창동 159-1번지","indutype":"용역 서비스 - 사무서비스","category":"other"}]},{"lat":"37.288966449","long":"127.63121838","imageIndex":17,"items":[{"name":"경인판넬.창호","tel":"031-881-0101","addr":"경기도 여주시 창동 194-4번지 1층 1호","indutype":"건축자재 - 기타건축자재","category":"other"},{"name":"에스제이경인 주식회사","tel":"031-881-0101","addr":"경기도 여주시 창동 194-4번지","indutype":"건축자재 - 기타건축자재","category":"other"}]},{"lat":"37.2977968416","long":"127.6361978751","imageIndex":17,"items":[{"name":"공예마을","tel":"031-882-1159","addr":"경기도 여주시 창동 42-2번지","indutype":"의류 - 정장","category":"other"}]},{"lat":"37.296162685","long":"127.63513532","imageIndex":17,"items":[{"name":"글로리아","tel":"031-882-1231","addr":"경기도 여주시 창동 83번지","indutype":"의류 - 정장","category":"other"}]},{"lat":"37.298107694","long":"127.63535461","imageIndex":17,"items":[{"name":"금메달화원","tel":"031-885-2112","addr":"경기도 여주시 창동 21번지","indutype":"문화.취미 - 화원","category":"other"}]},{"lat":"37.295053717","long":"127.63188929","imageIndex":17,"items":[{"name":"금성전기제어","tel":"031-884-1086","addr":"경기도 여주시 창동 140-2번지","indutype":"건축자재 - 조명기구","category":"other"}]},{"lat":"37.296610036","long":"127.63572552","imageIndex":17,"items":[{"name":"깡통 캔(CAN)","tel":"031-881-0938","addr":"경기도 여주시 창동 51-3번지","indutype":"의류 - 정장","category":"other"},{"name":"남성복코너","tel":"031-885-3611","addr":"경기도 여주시 창동 51-3번지","indutype":"의류 - 캐주얼의류","category":"other"},{"name":"올리비아하슬러여주점","tel":"031-884-6313","addr":"경기도 여주시 창동 51-3번지","indutype":"의류 - 정장","category":"other"}]},{"lat":"37.297944133","long":"127.63561264","imageIndex":17,"items":[{"name":"꾸러기문방구","tel":"031-883-7091","addr":"경기도 여주시 창동 37-3번지","indutype":"서적문구 - 문구용품","category":"other"}]},{"lat":"37.296775946","long":"127.63502767","imageIndex":17,"items":[{"name":"놈스타일","tel":"","addr":"경기도 여주시 창동 78-1번지","indutype":"의류 - 정장","category":"other"}]},{"lat":"37.295525653","long":"127.63294207","imageIndex":17,"items":[{"name":"대명기업 KCC페인트 여주지점","tel":"031-886-7978","addr":"경기도 여주시 창동 138번지","indutype":"건축자재 - 페인트","category":"other"}]},{"lat":"37.294019883","long":"127.63483544","imageIndex":17,"items":[{"name":"대성가스보일러","tel":"031-884-0038","addr":"경기도 여주시 창동 147-27번지","indutype":"건축자재 - 보일러·펌프·샷시","category":"other"}]},{"lat":"37.294464645","long":"127.63083555","imageIndex":17,"items":[{"name":"대성타일","tel":"031-885-2211","addr":"경기도 여주시 창동 141-9번지","indutype":"건축자재 - 건축용 요업제품","category":"other"}]},{"lat":"37.293970255","long":"127.63569213","imageIndex":17,"items":[{"name":"더 행복하개","tel":"031-882-5566","addr":"경기도 여주시 창동 148-16번지","indutype":"문화.취미 - 애완동물","category":"other"},{"name":"여주라이온스클럽","tel":"031-885-4392","addr":"경기도 여주시 창동 148-16번지","indutype":"기타 - 비영리/비대상","category":"other"},{"name":"지은","tel":"031-1111-1111","addr":"경기도 여주시 창동 148-16번지","indutype":"신변잡화 - 기타잡화","category":"other"}]},{"lat":"37.2954429330","long":"127.6349375701","imageIndex":17,"items":[{"name":"동아기획인쇄","tel":"031-884-4336","addr":"경기도 여주시 창동 130-14번지","indutype":"서적문구 - 출판 및 인쇄물","category":"other"},{"name":"아남전자여주(대)","tel":"031-885-2485","addr":"경기도 여주시 창동 130-14번지","indutype":"전기제품 - 가전제품","category":"other"},{"name":"체리핑크","tel":"031-885-6045","addr":"경기도 여주시 창동 130-14번지","indutype":"의류 - 정장","category":"other"}]},{"lat":"37.294687733","long":"127.63124341","imageIndex":17,"items":[{"name":"동양하우징","tel":"031-885-3078","addr":"경기도 여주시 창동 141-11번지","indutype":"건축자재 - 보일러·펌프·샷시","category":"other"},{"name":"중앙OA사무가구","tel":"031-885-2369","addr":"경기도 여주시 창동 141-11번지","indutype":"가구 - 기타가구","category":"other"}]},{"lat":"37.29488415","long":"127.63158338","imageIndex":17,"items":[{"name":"동호상사","tel":"031-886-9000","addr":"경기도 여주시 창동 141번지","indutype":"건축자재 - 보일러·펌프·샷시","category":"other"},{"name":"여주시스템에어컨","tel":"031-885-0395","addr":"경기도 여주시 창동 141번지","indutype":"수리서비스 - 가정용품수리","category":"other"}]},{"lat":"37.296856009","long":"127.63522007","imageIndex":17,"items":[{"name":"디아더스","tel":"031-884-5506","addr":"경기도 여주시 창동 61-3번지","indutype":"의류 - 정장","category":"other"}]},{"lat":"37.290553953","long":"127.63089327","imageIndex":17,"items":[{"name":"디자인벅스","tel":"031-886-9040","addr":"경기도 여주시 창동 205번지","indutype":"서적문구 - 출판 및 인쇄물","category":"other"}]},{"lat":"37.289575276","long":"127.63194518","imageIndex":17,"items":[{"name":"디자인유나간판","tel":"031-884-5557","addr":"경기도 여주시 창동 189번지 2층 201호","indutype":"용역 서비스 - 종합용역","category":"other"}]},{"lat":"37.294047266","long":"127.63138469","imageIndex":17,"items":[{"name":"디케이(DK)디자인","tel":"031-885-1137","addr":"경기도 여주시 창동 142-9번지","indutype":"가구 - 일반가구","category":"other"},{"name":"세종음향이벤트","tel":"031-881-6088","addr":"경기도 여주시 창동 142-9번지","indutype":"전기제품 - 가전제품","category":"other"}]},{"lat":"37.297245655","long":"127.63480604","imageIndex":17,"items":[{"name":"러브플랫","tel":"031-111-1111","addr":"경기도 여주시 창동 66-3번지","indutype":"신변잡화 - 신발","category":"other"},{"name":"오브에르","tel":"031-886-9095","addr":"경기도 여주시 창동 66-3번지","indutype":"의류 - 정장","category":"other"}]},{"lat":"37.297352627","long":"127.63502122","imageIndex":17,"items":[{"name":"로샤","tel":"031-886-4950","addr":"경기도 여주시 창동 68번지 여주중앙프라자 1충 113호","indutype":"의류 - 정장","category":"other"},{"name":"마음빚기도예공방","tel":"","addr":"경기도 여주시 창동 68번지 여주중앙프라자 114호","indutype":"문화.취미 - 문화취미기타","category":"other"},{"name":"메시","tel":"031-884-6865","addr":"경기도 여주시 창동 68번지 여주중앙프라자 1층 116호","indutype":"의류 - 정장","category":"other"},{"name":"몸앤몸","tel":"031-883-7212","addr":"경기도 여주시 창동 68번지 여주중앙프라자 4층","indutype":"회원제형태 - 레져업소","category":"other"},{"name":"빅사이즈","tel":"","addr":"경기도 여주시 창동 68번지 여주중앙프라자 110호","indutype":"의류 - 정장","category":"other"},{"name":"빅텔","tel":"031-882-0102","addr":"경기도 여주시 창동 68번지 중앙프라자 115호","indutype":"사무통신 - 통신기기","category":"other"},{"name":"올리브영 여주중앙로점","tel":"031-884-5290","addr":"경기도 여주시 창동 68번지 여주중앙프라자 103,104","indutype":"유통업 영리 - 편 의 점","category":"other"},{"name":"이불데이","tel":"031-881-3971","addr":"경기도 여주시 창동 68번지 여주중앙프라자 A동 101호","indutype":"직물 - 침구·수예점","category":"other"},{"name":"중앙문고","tel":"031-885-1184","addr":"경기도 여주시 창동 68번지 중앙프라자 B101호","indutype":"서적문구 - 일반서적","category":"other"},{"name":"청담","tel":"031-885-8165","addr":"경기도 여주시 창동 68번지 여주중앙프라자 1층 101호","indutype":"의류 - 기타의류","category":"other"}]},{"lat":"37.294019352","long":"127.63324528","imageIndex":17,"items":[{"name":"마마마마마마마","tel":"031-885-9901","addr":"경기도 여주시 창동 144-4번지","indutype":"레져용품 - 스포츠·레져용품","category":"other"},{"name":"일공이공(1020)","tel":"031-885-9901","addr":"경기도 여주시 창동 144-4번지","indutype":"레져용품 - 스포츠·레져용품","category":"other"}]},{"lat":"37.297435641","long":"127.63466101","imageIndex":17,"items":[{"name":"마실","tel":"031-886-7063","addr":"경기도 여주시 창동 70-3번지","indutype":"의류 - 정장","category":"other"},{"name":"지엘아트","tel":"070-7848-9307","addr":"경기도 여주시 창동 70-3번지","indutype":"문화.취미 - 문화취미기타","category":"other"},{"name":"짱구 (JJang-9)","tel":"031-886-6811","addr":"경기도 여주시 창동 70-3번지","indutype":"의류 - 정장","category":"other"}]},{"lat":"37.295745849","long":"127.63389125","imageIndex":17,"items":[{"name":"만물조명전기","tel":"031-885-3770","addr":"경기도 여주시 창동 101-1번지","indutype":"건축자재 - 조명기구","category":"other"}]},{"lat":"37.29794341","long":"127.63574797","imageIndex":17,"items":[{"name":"메이킹블럭 여주점","tel":"070-8800-3531","addr":"경기도 여주시 창동 38-2번지 1층","indutype":"서적문구 - 완구점","category":"other"},{"name":"스쿨룩스","tel":"031-886-2747","addr":"경기도 여주시 창동 38-2번지","indutype":"의류 - 정장","category":"other"}]},{"lat":"37.29238714","long":"127.63519394","imageIndex":17,"items":[{"name":"문구나라","tel":"031-881-3003","addr":"경기도 여주시 창동 159-8번지","indutype":"서적문구 - 문구용품","category":"other"}]},{"lat":"37.2972456548","long":"127.6348060364","imageIndex":17,"items":[{"name":"민들레속옷","tel":"031-886-0568","addr":"경기도 여주시 창동 66-3번지","indutype":"의류 - 아동의류","category":"other"}]},{"lat":"37.295856476","long":"127.6351102","imageIndex":17,"items":[{"name":"백양세탁소","tel":"031-884-2788","addr":"경기도 여주시 창동 127번지","indutype":"수리서비스 - 세탁소","category":"other"}]},{"lat":"37.294050739","long":"127.63580558","imageIndex":17,"items":[{"name":"법무사이태희사무소","tel":"031-885-5959","addr":"경기도 여주시 창동 148-16번지","indutype":"용역 서비스 - 법률회계서비스(개인)","category":"other"}]},{"lat":"37.296800143","long":"127.63555794","imageIndex":17,"items":[{"name":"베이직하우스여주점","tel":"031-885-8591","addr":"경기도 여주시 창동 55-2번지","indutype":"레져용품 - 스포츠·레져용품","category":"other"}]},{"lat":"37.296718453","long":"127.63567004","imageIndex":17,"items":[{"name":"보성양품","tel":"031-884-4450","addr":"경기도 여주시 창동 51-2번지","indutype":"의류 - 정장","category":"other"},{"name":"사진쟁이","tel":"031-884-6706","addr":"경기도 여주시 창동 51-2번지","indutype":"광학제품 - 사진관","category":"other"},{"name":"코코","tel":"031-1111-1111","addr":"경기도 여주시 창동 51-2번지 1층","indutype":"의류 - 정장","category":"other"}]},{"lat":"37.296690003","long":"127.63424876","imageIndex":17,"items":[{"name":"블랙폭스","tel":"","addr":"경기도 여주시 창동 92-12번지 1층","indutype":"의류 - 정장","category":"other"},{"name":"아랄라","tel":"031-886-5415","addr":"경기도 여주시 창동 92-12번지","indutype":"의류 - 정장","category":"other"}]},{"lat":"37.293826522","long":"127.63561199","imageIndex":17,"items":[{"name":"삼보컴퓨터월드여주점","tel":"031-886-8110","addr":"경기도 여주시 창동 148-18번지","indutype":"사무통신 - 컴퓨터","category":"other"},{"name":"세진컴퓨터랜드여주가맹점/무이자","tel":"031-886-8110","addr":"경기도 여주시 창동 148-18번지","indutype":"사무통신 - 컴퓨터","category":"other"},{"name":"정화세무회계","tel":"031-885-3788","addr":"경기도 여주시 창동 148-18번지 2층","indutype":"용역 서비스 - 법률회계서비스(개인)","category":"other"}]},{"lat":"37.294023614","long":"127.63413626","imageIndex":17,"items":[{"name":"삼원종합공조","tel":"031-886-7914","addr":"경기도 여주시 창동 147-15번지","indutype":"전기제품 - 냉열기기","category":"other"},{"name":"장인건설","tel":"031-886-2250","addr":"경기도 여주시 창동 147-15번지","indutype":"용역 서비스 - 기타용역서비스","category":"other"}]},{"lat":"37.289883404","long":"127.63160943","imageIndex":17,"items":[{"name":"삼진농자재전문마트","tel":"031-885-4110","addr":"경기도 여주시 창동 192-2번지","indutype":"농업 - 비료,사료,종자","category":"other"}]},{"lat":"37.295748073","long":"127.63347399","imageIndex":17,"items":[{"name":"새로나정수기","tel":"031-883-8088","addr":"경기도 여주시 창동 101-4번지","indutype":"주방용구 - 정수기","category":"other"},{"name":"세영종합공사","tel":"031-885-9456","addr":"경기도 여주시 창동 101-4번지","indutype":"직물 - 카페트,커튼,천막,지물","category":"other"}]},{"lat":"37.292108441","long":"127.63507884","imageIndex":17,"items":[{"name":"샘물노인복지센터","tel":"031-885-2009","addr":"경기도 여주시 창동 159-19번지","indutype":"기타의료기관 - 기타의료기관 및 기타","category":"other"},{"name":"희선꽃화원","tel":"031-885-4808","addr":"경기도 여주시 창동 159-19번지","indutype":"문화.취미 - 화원","category":"other"}]},{"lat":"37.295749564","long":"127.63488375","imageIndex":17,"items":[{"name":"샤프여주/LG할부","tel":"031-1-1","addr":"경기도 여주시 창동 129-4번지","indutype":"사무통신 - 통신기기(무이자할부)","category":"other"},{"name":"샤프여주대리점","tel":"031-883-8118","addr":"경기도 여주시 창동 129-4번지","indutype":"사무통신 - 통신기기(무이자할부)","category":"other"},{"name":"에스케이(SK)여주중앙점_PS","tel":"031-1-1","addr":"경기도 여주시 창동 129-4번지","indutype":"사무통신 - 통신기기","category":"other"},{"name":"주식회사 세종인쇄기획","tel":"031-881-1468","addr":"경기도 여주시 창동 129-4번지","indutype":"서적문구 - 출판 및 인쇄물","category":"other"}]},{"lat":"37.295303051","long":"127.63244398","imageIndex":17,"items":[{"name":"선녀야~옷팔아~","tel":"041-733-3406","addr":"경기도 여주시 창동 140번지","indutype":"의류 - 내의판매","category":"other"},{"name":"우리전기.조명","tel":"031-881-5334","addr":"경기도 여주시 창동 140번지 1층","indutype":"전기제품 - 기타전기제품","category":"other"}]},{"lat":"37.29613597","long":"127.633387","imageIndex":17,"items":[{"name":"성심화원","tel":"031-885-3252","addr":"경기도 여주시 창동 98-3번지","indutype":"문화.취미 - 화원","category":"other"}]},{"lat":"37.294159459","long":"127.63569372","imageIndex":17,"items":[{"name":"세븐일레븐여주중앙점","tel":"031-1577-0711","addr":"경기도 여주시 창동 148-14번지","indutype":"유통업 영리 - 편 의 점","category":"other"}]},{"lat":"37.294163074","long":"127.63163376","imageIndex":17,"items":[{"name":"세종공연기획","tel":"031-886-7797","addr":"경기도 여주시 창동 142-11번지 여흥빌라 B-1호","indutype":"용역 서비스 - 종합용역","category":"other"}]},{"lat":"37.294721257","long":"127.63171735","imageIndex":17,"items":[{"name":"세종설비","tel":"031-881-0497","addr":"경기도 여주시 창동 141-1번지","indutype":"용역 서비스 - 기타용역서비스","category":"other"},{"name":"여주모텔","tel":"031-882-6422","addr":"경기도 여주시 창동 141-1번지","indutype":"용역 서비스 - 부동산 중개·임대","category":"other"},{"name":"한성설비","tel":"031-883-9030","addr":"경기도 여주시 창동 141-1번지","indutype":"건축자재 - 보일러·펌프·샷시","category":"other"}]},{"lat":"37.2971661929","long":"127.6345008608","imageIndex":17,"items":[{"name":"송풍주단","tel":"031-886-2164","addr":"경기도 여주시 창동 73-4번지","indutype":"직물 - 옷감·직물","category":"other"}]},{"lat":"37.291219415","long":"127.63113562","imageIndex":17,"items":[{"name":"수지환경산업주식회사","tel":"031-883-8593","addr":"경기도 여주시 창동 215-1번지 2층 203호","indutype":"건축자재 - 기타건축자재","category":"other"}]},{"lat":"37.293972193","long":"127.63194795","imageIndex":17,"items":[{"name":"승진전기(주)","tel":"031-885-5501","addr":"경기도 여주시 창동 143-7번지","indutype":"용역 서비스 - 기타용역서비스","category":"other"}]},{"lat":"37.295465947","long":"127.63400169","imageIndex":17,"items":[{"name":"신도리코 로컬사무기","tel":"031-883-3620","addr":"경기도 여주시 창동 133-3번지","indutype":"사무통신 - 사무용 OA기기","category":"other"},{"name":"여주우먼라이온스클럽","tel":"031-881-6914","addr":"경기도 여주시 창동 133-3번지","indutype":"기타 - 비영리/비대상","category":"other"}]},{"lat":"37.295131385","long":"127.63422446","imageIndex":17,"items":[{"name":"신우인쇄,광고","tel":"031-885-2122","addr":"경기도 여주시 창동 136-2번지","indutype":"용역 서비스 - 종합용역","category":"other"}]},{"lat":"37.297048164","long":"127.63466905","imageIndex":17,"items":[{"name":"실버코치","tel":"031-885-6521","addr":"경기도 여주시 창동 65-2번지","indutype":"의류 - 정장","category":"other"}]},{"lat":"37.296800626","long":"127.63546772","imageIndex":17,"items":[{"name":"쌈지스포츠","tel":"031-123-4567","addr":"경기도 여주시 창동 55-3번지 1층","indutype":"신변잡화 - 신발","category":"other"}]},{"lat":"37.28922066","long":"127.63255118","imageIndex":17,"items":[{"name":"씨유여주새로운점","tel":"080-080-3663","addr":"경기도 여주시 창동 181-7번지","indutype":"유통업 영리 - 편 의 점","category":"other"},{"name":"영림몰딩","tel":"031-886-3936","addr":"경기도 여주시 창동 189-1번지","indutype":"건축자재 - 기타건축자재","category":"other"}]},{"lat":"37.292331473","long":"127.63380635","imageIndex":17,"items":[{"name":"씨유여주창동점","tel":"031-881-6662","addr":"경기도 여주시 창동 158-25번지 1층 1호","indutype":"유통업 영리 - 편 의 점","category":"other"}]},{"lat":"37.296965451","long":"127.63497286","imageIndex":17,"items":[{"name":"아레나","tel":"031-885-6310","addr":"경기도 여주시 창동 63-10번지","indutype":"의류 - 스포츠의류","category":"other"},{"name":"채널5번","tel":"031-886-1648","addr":"경기도 여주시 창동 63-10번지","indutype":"의류 - 정장","category":"other"}]},{"lat":"37.293855633","long":"127.63014255","imageIndex":17,"items":[{"name":"아이콘기획","tel":"031-886-0700","addr":"경기도 여주시 창동 236번지","indutype":"용역 서비스 - 종합용역","category":"other"},{"name":"한국화원","tel":"031-884-2442","addr":"경기도 여주시 창동 236번지","indutype":"문화.취미 - 화원","category":"other"}]},{"lat":"37.29680153","long":"127.63529856","imageIndex":17,"items":[{"name":"야시천국","tel":"031-881-1531","addr":"경기도 여주시 창동 61-3번지","indutype":"의류 - 정장","category":"other"},{"name":"컬리수,모이몰른 여주점","tel":"031-886-0605","addr":"경기도 여주시 창동 61-3번지","indutype":"레져용품 - 스포츠·레져용품","category":"other"},{"name":"크로커다일(여성복)","tel":"031-885-5598","addr":"경기도 여주시 창동 61-3번지","indutype":"레져용품 - 스포츠·레져용품","category":"other"}]},{"lat":"37.296384575","long":"127.63407704","imageIndex":17,"items":[{"name":"어썸(AWESOME)","tel":"","addr":"경기도 여주시 창동 96-1번지 현광보습학원 103호","indutype":"의류 - 정장","category":"other"}]},{"lat":"37.294968072","long":"127.63274569","imageIndex":17,"items":[{"name":"에어컨","tel":"","addr":"경기도 여주시 창동 139-2번지 202호","indutype":"용역 서비스 - 기타용역서비스","category":"other"}]},{"lat":"37.296992781","long":"127.6349167","imageIndex":17,"items":[{"name":"여주PAT","tel":"031-885-4999","addr":"경기도 여주시 창동 250-1번지","indutype":"레져용품 - 스포츠·레져용품","category":"other"}]},{"lat":"37.287498105","long":"127.63116107","imageIndex":17,"items":[{"name":"여주농기계","tel":"031-883-3300","addr":"경기도 여주시 창동 185-1번지","indutype":"농업 - 농기계","category":"other"},{"name":"여주종합농기계","tel":"031-885-2586","addr":"경기도 여주시 창동 185-1번지","indutype":"농업 - 농기계","category":"other"}]},{"lat":"37.295385341","long":"127.6339108","imageIndex":17,"items":[{"name":"여주심리상담센터","tel":"031-886-3431","addr":"경기도 여주시 창동 135번지 3층,현대정형외과","indutype":"용역 서비스 - 사무서비스","category":"other"}]},{"lat":"37.2949956383","long":"127.6343361014","imageIndex":17,"items":[{"name":"여주체육사","tel":"031-885-3463","addr":"경기도 여주시 창동 149-1번지","indutype":"레져용품 - 스포츠·레져용품","category":"other"}]},{"lat":"37.2973006160","long":"127.6346373232","imageIndex":17,"items":[{"name":"여흥상사","tel":"031-883-7127","addr":"경기도 여주시 창동 72-2번지","indutype":"의류 - 내의판매","category":"other"}]},{"lat":"37.292721294","long":"127.6333585","imageIndex":17,"items":[{"name":"예작","tel":"031-885-3460","addr":"경기도 여주시 창동 157-47번지","indutype":"건축자재 - 인테리어전문","category":"other"}]},{"lat":"37.296910791","long":"127.63508519","imageIndex":17,"items":[{"name":"올리비아로렌여주점","tel":"031-886-5568","addr":"경기도 여주시 창동 63-8번지","indutype":"레져용품 - 스포츠·레져용품","category":"other"},{"name":"헌트이너웨어","tel":"031-885-5353","addr":"경기도 여주시 창동 63-8번지","indutype":"의류 - 내의판매","category":"other"}]},{"lat":"37.295526067","long":"127.63455482","imageIndex":17,"items":[{"name":"용승칠공사","tel":"031-885-4260","addr":"경기도 여주시 창동 131-26번지","indutype":"건축자재 - 페인트","category":"other"}]},{"lat":"37.294995638","long":"127.6343361","imageIndex":17,"items":[{"name":"원주푸드","tel":"031-881-6699","addr":"경기도 여주시 창동 149-1번지 2층","indutype":"용역 서비스 - 종합용역","category":"other"},{"name":"월화수 목공방","tel":"","addr":"경기도 여주시 창동 149-1번지","indutype":"가구 - 일반가구","category":"other"}]},{"lat":"37.297138562","long":"127.63461341","imageIndex":17,"items":[{"name":"윤순영패션","tel":"031-885-0713","addr":"경기도 여주시 창동 73-3번지","indutype":"레져용품 - 스포츠·레져용품","category":"other"}]},{"lat":"37.294412829","long":"127.63210951","imageIndex":17,"items":[{"name":"일승건설(주)","tel":"031-885-0475","addr":"경기도 여주시 창동 142-15번지","indutype":"건축자재 - 목재·석재·철물","category":"other"}]},{"lat":"37.297300616","long":"127.63463732","imageIndex":17,"items":[{"name":"임페리얼 (여주점)","tel":"031-883-7479","addr":"경기도 여주시 창동 72-2번지","indutype":"의류 - 정장","category":"other"}]},{"lat":"37.297915476","long":"127.63591691","imageIndex":17,"items":[{"name":"잉크충전방","tel":"031-886-1945","addr":"경기도 여주시 창동 40-3번지","indutype":"사무통신 - 기타 사무용품","category":"other"}]},{"lat":"37.297741067","long":"127.63483274","imageIndex":17,"items":[{"name":"장원교육여주양평지점","tel":"0381-881-0982","addr":"경기도 여주시 창동 69-1번지","indutype":"회원제형태 - 서적","category":"other"}]},{"lat":"37.2966100355","long":"127.6357255235","imageIndex":17,"items":[{"name":"쟈스민","tel":"070-7551-4698","addr":"경기도 여주시 창동 51-3번지","indutype":"신변잡화 - 기타잡화","category":"other"}]},{"lat":"37.292306173","long":"127.63517071","imageIndex":17,"items":[{"name":"정아관광","tel":"031-883-8900","addr":"경기도 여주시 창동 159-9번지","indutype":"여행 - 관광여행","category":"other"}]},{"lat":"37.29141436","long":"127.63005462","imageIndex":17,"items":[{"name":"제일전기모터","tel":"031-881-0451","addr":"경기도 여주시 창동 219-1번지","indutype":"수리서비스 - 기타수리서비스","category":"other"}]},{"lat":"37.29457573","long":"127.6336672","imageIndex":17,"items":[{"name":"주식회사 여주사랑","tel":"031-886-4333","addr":"경기도 여주시 창동 146-14번지","indutype":"용역 서비스 - 종합용역","category":"other"},{"name":"주식회사여주사랑","tel":"031-886-4333","addr":"경기도 여주시 창동 146-14번지","indutype":"회원제형태 - 사무서비스","category":"other"}]},{"lat":"37.2938556327","long":"127.6301425507","imageIndex":17,"items":[{"name":"준인테리어","tel":"031-885-3436","addr":"경기도 여주시 창동 236번지","indutype":"직물 - 카페트,커튼,천막,지물","category":"other"}]},{"lat":"37.29532876","long":"127.63269231","imageIndex":17,"items":[{"name":"중앙건재","tel":"031-885-2057","addr":"경기도 여주시 창동 140-6번지","indutype":"건축자재 - 기타건축자재","category":"other"}]},{"lat":"37.2957445260","long":"127.6341393575","imageIndex":17,"items":[{"name":"중앙종합공구","tel":"031-883-3232","addr":"경기도 여주시 창동 111-3번지","indutype":"기타 - 기계공구","category":"other"}]},{"lat":"37.295441849","long":"127.63514056","imageIndex":17,"items":[{"name":"찬통신","tel":"031-882-1106","addr":"경기도 여주시 창동 130-13번지","indutype":"사무통신 - 통신기기","category":"other"},{"name":"페이지","tel":"","addr":"경기도 여주시 창동 130-13번지","indutype":"의류 - 정장","category":"other"}]},{"lat":"37.2939702551","long":"127.6356921335","imageIndex":17,"items":[{"name":"책마트서적","tel":"031-886-5112","addr":"경기도 여주시 창동 148-16번지","indutype":"서적문구 - 일반서적","category":"other"}]},{"lat":"37.296139027","long":"127.63450355","imageIndex":17,"items":[{"name":"천사뜨개","tel":"","addr":"경기도 여주시 창동 118-1번지","indutype":"직물 - 기타직물","category":"other"}]},{"lat":"37.294023793","long":"127.63241077","imageIndex":17,"items":[{"name":"축산영화사","tel":"031-883-7208","addr":"경기도 여주시 창동 143-1번지","indutype":"기타 - 기타 전문점","category":"other"}]},{"lat":"37.295746931","long":"127.63368826","imageIndex":17,"items":[{"name":"키싸인","tel":"031-884-1319","addr":"경기도 여주시 창동 101-3번지","indutype":"건축자재 - 목재·석재·철물","category":"other"},{"name":"한국배드민턴교육원","tel":"031-881-2377","addr":"경기도 여주시 창동 101-3번지","indutype":"레져용품 - 스포츠·레져용품","category":"other"},{"name":"현대스포츠","tel":"031-883-2377","addr":"경기도 여주시 창동 101-3번지","indutype":"레져용품 - 스포츠·레져용품","category":"other"}]},{"lat":"37.293664664","long":"127.63217094","imageIndex":17,"items":[{"name":"토마토의류","tel":"","addr":"경기도 여주시 창동 143-17번지","indutype":"의류 - 정장","category":"other"}]},{"lat":"37.293909839","long":"127.63519541","imageIndex":17,"items":[{"name":"한가람","tel":"031-881-1260","addr":"경기도 여주시 창동 148-5번지","indutype":"용역 서비스 - 소프트웨어","category":"other"}]},{"lat":"37.295465526","long":"127.63408064","imageIndex":17,"items":[{"name":"한솔인테리어","tel":"031-884-5042","addr":"경기도 여주시 창동 133-4번지","indutype":"건축자재 - 인테리어전문","category":"other"}]},{"lat":"37.295831374","long":"127.63474909","imageIndex":17,"items":[{"name":"한양상사","tel":"031-885-2511","addr":"경기도 여주시 창동 129-2번지","indutype":"신변잡화 - 기타잡화","category":"other"}]},{"lat":"37.2955253449","long":"127.6346901450","imageIndex":17,"items":[{"name":"한양철물","tel":"031-884-2000","addr":"경기도 여주시 창동 131-25번지","indutype":"기타 - 기계공구","category":"other"}]},{"lat":"37.294132331","long":"127.63402439","imageIndex":17,"items":[{"name":"할인마트","tel":"031-882-1128","addr":"경기도 여주시 창동 147-7번지","indutype":"신변잡화 - 기타잡화","category":"other"}]},{"lat":"37.297242703","long":"127.63535864","imageIndex":17,"items":[{"name":"현대스포츠","tel":"031-882-1792","addr":"경기도 여주시 창동 63-2번지","indutype":"레져용품 - 스포츠·레져용품","category":"other"}]},{"lat":"37.295743323","long":"127.63436491","imageIndex":17,"items":[{"name":"현대조명전기","tel":"031-885-4363","addr":"경기도 여주시 창동 112번지","indutype":"건축자재 - 조명기구","category":"other"}]},{"lat":"37.291856892","long":"127.6349414","imageIndex":7,"items":[{"name":"(주)그린라이프코리아","tel":"031-881-4777","addr":"경기도 여주시 창동 159-39번지","indutype":"건강식품 - 기타건강식품","category":"food"}]},{"lat":"37.29557839","long":"127.63319062","imageIndex":7,"items":[{"name":"21세기보석장","tel":"031-884-1959","addr":"경기도 여주시 창동 138-2번지","indutype":"음료식품 - 농·축·수산품","category":"food"}]},{"lat":"37.295746931","long":"127.63368826","imageIndex":7,"items":[{"name":"BK상사","tel":"031-886-5105","addr":"경기도 여주시 창동 101-3번지","indutype":"음료식품 - 기타음료식품","category":"food"}]},{"lat":"37.294053288","long":"127.63364028","imageIndex":7,"items":[{"name":"글로벌건강100세","tel":"031-885-0503","addr":"경기도 여주시 창동 144-7번지 1층","indutype":"건강식품 - 기타건강식품","category":"food"}]},{"lat":"37.294019352","long":"127.63324528","imageIndex":7,"items":[{"name":"달토끼 레시피","tel":"","addr":"경기도 여주시 창동 144-4번지 1층","indutype":"음료식품 - 기타음료식품","category":"food"},{"name":"달토끼 레시피","tel":"031-885-9901","addr":"경기도 여주시 창동 144-4번지 1층","indutype":"음료식품 - 기타음료식품","category":"food"}]},{"lat":"37.294023793","long":"127.63241077","imageIndex":7,"items":[{"name":"막내정육점","tel":"031-882-1848","addr":"경기도 여주시 창동 143-1번지","indutype":"음료식품 - 정육점","category":"food"}]},{"lat":"37.297023758","long":"127.63586433","imageIndex":7,"items":[{"name":"미도","tel":"031-5437-8917","addr":"경기도 여주시 창동 50-4번지 동방빌딩 2층","indutype":"건강식품 - 기타건강식품","category":"food"}]},{"lat":"37.297352627","long":"127.63502122","imageIndex":7,"items":[{"name":"배스킨라빈스 여주중앙로점","tel":"031-886-2261","addr":"경기도 여주시 창동 68번지","indutype":"음료식품 - 제과점","category":"food"},{"name":"세계과자할인점","tel":"031-885-4416","addr":"경기도 여주시 창동 68번지 여주중앙프라자 1층 109호","indutype":"음료식품 - 기타음료식품","category":"food"}]},{"lat":"37.294019883","long":"127.63483544","imageIndex":7,"items":[{"name":"베지밀여주대리점","tel":"031-885-2419","addr":"경기도 여주시 창동 147-27번지","indutype":"음료식품 - 기타음료식품","category":"food"}]},{"lat":"37.288940856","long":"127.63094752","imageIndex":7,"items":[{"name":"사단법인 여주군새마을회","tel":"031-886-7692","addr":"경기도 여주시 창동 195번지","indutype":"음료식품 - 제과점","category":"food"}]},{"lat":"37.294638901","long":"127.63533684","imageIndex":7,"items":[{"name":"시골집반찬가게","tel":"031-886-1277","addr":"경기도 여주시 창동 150-12번지","indutype":"음료식품 - 기타음료식품","category":"food"}]},{"lat":"37.293970577","long":"127.63394409","imageIndex":7,"items":[{"name":"여주사랑자연애","tel":"031-886-1226","addr":"경기도 여주시 창동 144-10번지","indutype":"건강식품 - 기타건강식품","category":"food"}]},{"lat":"37.296718453","long":"127.63567004","imageIndex":7,"items":[{"name":"여주시한글시장협동조합","tel":"031-881-5888","addr":"경기도 여주시 창동 51-2번지","indutype":"음료식품 - 농·축·수산품","category":"food"}]},{"lat":"37.294770697","long":"127.63427783","imageIndex":7,"items":[{"name":"오버 더 컵스 (over the cups)","tel":"","addr":"경기도 여주시 창동 146-3번지 2층","indutype":"음료식품 - 기타음료식품","category":"food"}]},{"lat":"37.28996904","long":"127.63075308","imageIndex":7,"items":[{"name":"참유통","tel":"031-1111-1111","addr":"경기도 여주시 창동 198-5번지","indutype":"음료식품 - 기타음료식품","category":"food"}]},{"lat":"37.294688771","long":"127.63274337","imageIndex":7,"items":[{"name":"푸른유통","tel":"031-884-6648","addr":"경기도 여주시 창동 139-6번지","indutype":"음료식품 - 기타음료식품","category":"food"}]},{"lat":"37.294216048","long":"127.63522053","imageIndex":7,"items":[{"name":"한강식품","tel":"031-885-0064","addr":"경기도 여주시 창동 148-1번지","indutype":"음료식품 - 농·축·수산품","category":"food"}]},{"lat":"37.291856892","long":"127.6349414","imageIndex":4,"items":[{"name":"13a.m. (비어 앤 와인)","tel":"031-881-3932","addr":"경기도 여주시 창동 159-39번지 1층","indutype":"일반휴게음식 - 주점","category":"restaurant"}]},{"lat":"37.294995638","long":"127.6343361","imageIndex":4,"items":[{"name":"DD치킨","tel":"031-885-8802","addr":"경기도 여주시 창동 149-1번지","indutype":"일반휴게음식 - 스넥","category":"restaurant"},{"name":"가평식당","tel":"031-882-3785","addr":"경기도 여주시 창동 149-1번지","indutype":"일반휴게음식 - 일반한식","category":"restaurant"},{"name":"교대명가곱창","tel":"031-883-2432","addr":"경기도 여주시 창동 149-1번지","indutype":"일반휴게음식 - 일반한식","category":"restaurant"},{"name":"낙원동식당","tel":"031-885-3060","addr":"경기도 여주시 창동 149-1번지","indutype":"일반휴게음식 - 일반한식","category":"restaurant"},{"name":"내맘대로포차","tel":"031-884-2585","addr":"경기도 여주시 창동 149-1번지","indutype":"일반휴게음식 - 일반한식","category":"restaurant"},{"name":"솥뚜껑삼겹살","tel":"031-886-1812","addr":"경기도 여주시 창동 149-1번지","indutype":"일반휴게음식 - 일반한식","category":"restaurant"},{"name":"스페인하우스","tel":"031-885-2662","addr":"경기도 여주시 창동 149-1번지 2층","indutype":"일반휴게음식 - 서양음식","category":"restaurant"},{"name":"신포차","tel":"","addr":"경기도 여주시 창동 149-1번지","indutype":"일반휴게음식 - 주점","category":"restaurant"},{"name":"아리랑다방","tel":"031-881-6699","addr":"경기도 여주시 창동 149-1번지","indutype":"일반휴게음식 - 서양음식","category":"restaurant"},{"name":"육회지존","tel":"070-8128-3225","addr":"경기도 여주시 창동 149-1번지","indutype":"일반휴게음식 - 일반한식","category":"restaurant"}]},{"lat":"37.294439061","long":"127.63563967","imageIndex":4,"items":[{"name":"FCD치킨(피쉬앤치킨)","tel":"031-883-7002","addr":"경기도 여주시 창동 150-7번지","indutype":"일반휴게음식 - 스넥","category":"restaurant"}]},{"lat":"37.294159459","long":"127.63569372","imageIndex":4,"items":[{"name":"가르텐비어/여주중앙점","tel":"031-886-3949","addr":"경기도 여주시 창동 148-14번지","indutype":"일반휴게음식 - 주점","category":"restaurant"},{"name":"두끼 여주점","tel":"031-883-1979","addr":"경기도 여주시 창동 148-14번지 2층","indutype":"일반휴게음식 - 스넥","category":"restaurant"}]},{"lat":"37.29419202","long":"127.63127312","imageIndex":4,"items":[{"name":"강원칡냉면","tel":"031-883-3900","addr":"경기도 여주시 창동 142-7번지 1층","indutype":"일반휴게음식 - 일반한식","category":"restaurant"}]},{"lat":"37.297352627","long":"127.63502122","imageIndex":4,"items":[{"name":"고고싱떡볶이","tel":"031-883-5959","addr":"경기도 여주시 창동 68번지 여주중앙프라자 1층","indutype":"일반휴게음식 - 스넥","category":"restaurant"},{"name":"명랑쌀핫도그 여주중앙점","tel":"031-886-3414","addr":"경기도 여주시 창동 68번지 여주중앙프라자","indutype":"일반휴게음식 - 일반한식","category":"restaurant"},{"name":"미니카페","tel":"031-886-2861","addr":"경기도 여주시 창동 68번지 여주중앙프라자 1층 105호","indutype":"일반휴게음식 - 일반한식","category":"restaurant"},{"name":"전설의 황제짬봉","tel":"031-882-2324","addr":"경기도 여주시 창동 68번지 여주중앙프라자","indutype":"일반휴게음식 - 중국식","category":"restaurant"},{"name":"프리카페","tel":"031-833-5643","addr":"경기도 여주시 창동 68번지 여주중앙프라자","indutype":"일반휴게음식 - 일반한식","category":"restaurant"}]},{"lat":"37.295048259","long":"127.63291553","imageIndex":4,"items":[{"name":"곱창상회","tel":"031-886-9292","addr":"경기도 여주시 창동 139번지","indutype":"일반휴게음식 - 일반한식","category":"restaurant"},{"name":"매코미통닭발","tel":"031-881-1795","addr":"경기도 여주시 창동 139번지","indutype":"일반휴게음식 - 스넥","category":"restaurant"},{"name":"배달의혼족","tel":"02-1111-1111","addr":"경기도 여주시 창동 139번지","indutype":"일반휴게음식 - 일반한식","category":"restaurant"},{"name":"삼겹시대","tel":"031-886-5254","addr":"경기도 여주시 창동 139번지","indutype":"일반휴게음식 - 일반한식","category":"restaurant"}]},{"lat":"37.293609287","long":"127.63411024","imageIndex":4,"items":[{"name":"구찜조개","tel":"031-882-8223","addr":"경기도 여주시 창동 157-3번지","indutype":"일반휴게음식 - 일반한식","category":"restaurant"}]},{"lat":"37.294499684","long":"127.6344109","imageIndex":4,"items":[{"name":"국물닭발","tel":"031-882-6036","addr":"경기도 여주시 창동 147-2번지 1층","indutype":"일반휴게음식 - 일반한식","category":"restaurant"}]},{"lat":"37.295441849","long":"127.63514056","imageIndex":4,"items":[{"name":"굽네치킨 여주점","tel":"031-886-9492","addr":"경기도 여주시 창동 130-13번지","indutype":"일반휴게음식 - 스넥","category":"restaurant"},{"name":"토마토도시락 (여주점)","tel":"031-882-9996","addr":"경기도 여주시 창동 130-13번지 1층","indutype":"일반휴게음식 - 일반한식","category":"restaurant"}]},{"lat":"37.294606476","long":"127.6346599","imageIndex":4,"items":[{"name":"길대박집","tel":"031-885-5559","addr":"경기도 여주시 창동 147번지","indutype":"일반휴게음식 - 일반한식","category":"restaurant"},{"name":"종로양곱창구이","tel":"031-885-8011","addr":"경기도 여주시 창동 147번지","indutype":"일반휴게음식 - 일반한식","category":"restaurant"},{"name":"준모네 국물닭발","tel":"02-1577-0000","addr":"경기도 여주시 창동 147번지 1층","indutype":"일반휴게음식 - 일반한식","category":"restaurant"}]},{"lat":"37.294496553","long":"127.63499732","imageIndex":4,"items":[{"name":"꼬지사케 여주상동점","tel":"031-884-4998","addr":"경기도 여주시 창동 147-23번지","indutype":"일반휴게음식 - 일식·회집","category":"restaurant"},{"name":"먹자골막창","tel":"031-881-6848","addr":"경기도 여주시 창동 147-23번지","indutype":"일반휴게음식 - 일반한식","category":"restaurant"},{"name":"왕십리막창","tel":"031-885-8211","addr":"경기도 여주시 창동 147-23번지","indutype":"일반휴게음식 - 일반한식","category":"restaurant"}]},{"lat":"37.294855932","long":"127.63350037","imageIndex":4,"items":[{"name":"나그네주점","tel":"031-886-4416","addr":"경기도 여주시 창동 146-12번지","indutype":"일반휴게음식 - 주점","category":"restaurant"},{"name":"다래막창","tel":"031-886-4875","addr":"경기도 여주시 창동 146-12번지","indutype":"일반휴게음식 - 일반한식","category":"restaurant"},{"name":"옛날맛집","tel":"031-884-2290","addr":"경기도 여주시 창동 146-12번지","indutype":"일반휴게음식 - 일반한식","category":"restaurant"}]},{"lat":"37.294998164","long":"127.63386245","imageIndex":4,"items":[{"name":"남강세꼬시","tel":"031-882-7027","addr":"경기도 여주시 창동 146-12번지","indutype":"일반휴게음식 - 일반한식","category":"restaurant"},{"name":"치킨과요리의만남(치요남)여주점","tel":"031-883-5536","addr":"경기도 여주시 창동 146번지 1층","indutype":"일반휴게음식 - 스넥","category":"restaurant"},{"name":"풀코스","tel":"031-885-8711","addr":"경기도 여주시 창동 146번지","indutype":"일반휴게음식 - 주점","category":"restaurant"}]},{"lat":"37.29557839","long":"127.63319062","imageIndex":4,"items":[{"name":"남강수산","tel":"031-883-7027","addr":"경기도 여주시 창동 138-2번지","indutype":"일반휴게음식 - 일반한식","category":"restaurant"},{"name":"수현 소주방","tel":"031-882-0323","addr":"경기도 여주시 창동 138-2번지","indutype":"일반휴게음식 - 주점","category":"restaurant"},{"name":"피자에땅","tel":"031-886-3655","addr":"경기도 여주시 창동 138-2번지 순복음사랑교회 1층 2호","indutype":"일반휴게음식 - 서양음식","category":"restaurant"},{"name":"함박푸드","tel":"","addr":"경기도 여주시 창동 138-2번지","indutype":"일반휴게음식 - 일반한식","category":"restaurant"}]},{"lat":"37.293881786","long":"127.63538689","imageIndex":4,"items":[{"name":"노다지","tel":"031-882-9494","addr":"경기도 여주시 창동 148-7번지","indutype":"일반휴게음식 - 일반한식","category":"restaurant"}]},{"lat":"37.293882284","long":"127.63360502","imageIndex":4,"items":[{"name":"달램","tel":"031-111-1111","addr":"경기도 여주시 창동 144-14번지","indutype":"일반휴게음식 - 서양음식","category":"restaurant"}]},{"lat":"37.296910791","long":"127.63508519","imageIndex":4,"items":[{"name":"달언니마카롱","tel":"070-4113-8029","addr":"경기도 여주시 창동 63-8번지 2층","indutype":"일반휴게음식 - 일반한식","category":"restaurant"}]},{"lat":"37.2949717363","long":"127.6337494532","imageIndex":4,"items":[{"name":"대성부대고기","tel":"031-881-6860","addr":"경기도 여주시 창동 146-11번지","indutype":"일반휴게음식 - 일반한식","category":"restaurant"}]},{"lat":"37.293970255","long":"127.63569213","imageIndex":4,"items":[{"name":"덕이네 코다리 생선조림","tel":"031-881-5567","addr":"경기도 여주시 창동 148-16번지","indutype":"일반휴게음식 - 일반한식","category":"restaurant"}]},{"lat":"37.294825657","long":"127.63410912","imageIndex":4,"items":[{"name":"돈마니소갈비","tel":"031-882-6888","addr":"경기도 여주시 창동 146-2번지","indutype":"일반휴게음식 - 일반한식","category":"restaurant"}]},{"lat":"37.296332681","long":"127.63367059","imageIndex":4,"items":[{"name":"동상이몽","tel":"031-885-6773","addr":"경기도 여주시 창동 97-8번지","indutype":"일반휴게음식 - 서양음식","category":"restaurant"},{"name":"두찜여주점","tel":"","addr":"경기도 여주시 창동 97-8번지 1층","indutype":"일반휴게음식 - 일반한식","category":"restaurant"}]},{"lat":"37.296998357","long":"127.6355596","imageIndex":4,"items":[{"name":"동이","tel":"031-882-9655","addr":"경기도 여주시 창동 56-3번지","indutype":"일반휴게음식 - 일반한식","category":"restaurant"}]},{"lat":"37.29635929","long":"127.63374976","imageIndex":4,"items":[{"name":"동진식당","tel":"031-883-1575","addr":"경기도 여주시 창동 97-7번지","indutype":"일반휴게음식 - 일반한식","category":"restaurant"}]},{"lat":"37.293275628","long":"127.63416384","imageIndex":4,"items":[{"name":"두루치기","tel":"031-884-3652","addr":"경기도 여주시 창동 157-11번지","indutype":"일반휴게음식 - 일반한식","category":"restaurant"}]},{"lat":"37.294359902","long":"127.63527812","imageIndex":4,"items":[{"name":"등대","tel":"031-886-0374","addr":"경기도 여주시 창동 148번지 1층","indutype":"일반휴게음식 - 일반한식","category":"restaurant"}]},{"lat":"37.294521173","long":"127.63544864","imageIndex":4,"items":[{"name":"따따부따","tel":"031-882-5077","addr":"경기도 여주시 창동 150-2번지","indutype":"일반휴게음식 - 일반한식","category":"restaurant"}]},{"lat":"37.294715736","long":"127.63444654","imageIndex":4,"items":[{"name":"또또두마리치킨","tel":"031-882-7955","addr":"경기도 여주시 창동 146-4번지","indutype":"일반휴게음식 - 스넥","category":"restaurant"},{"name":"옛날집","tel":"031-881-1446","addr":"경기도 여주시 창동 146-4번지","indutype":"일반휴게음식 - 일반한식","category":"restaurant"}]},{"lat":"37.294019883","long":"127.63483544","imageIndex":4,"items":[{"name":"뚝배기쌈밥해장국","tel":"031-1111-1111","addr":"경기도 여주시 창동 147-27번지 1층","indutype":"일반휴게음식 - 일반한식","category":"restaurant"}]},{"lat":"37.294548694","long":"127.63197531","imageIndex":4,"items":[{"name":"막내정육점식당","tel":"031-882-1846","addr":"경기도 여주시 창동 142번지","indutype":"일반휴게음식 - 일반한식","category":"restaurant"}]},{"lat":"37.295525653","long":"127.63294207","imageIndex":4,"items":[{"name":"만두나라김밥마을","tel":"031-883-7171","addr":"경기도 여주시 창동 138번지","indutype":"일반휴게음식 - 일반한식","category":"restaurant"},{"name":"피자알볼로(여주점)","tel":"031-886-8495","addr":"경기도 여주시 창동 138번지","indutype":"일반휴게음식 - 서양음식","category":"restaurant"}]},{"lat":"37.294519448","long":"127.63408401","imageIndex":4,"items":[{"name":"만인포차","tel":"031-886-7120","addr":"경기도 여주시 창동 146-8번지 1층","indutype":"일반휴게음식 - 주점","category":"restaurant"}]},{"lat":"37.294249878","long":"127.63394642","imageIndex":4,"items":[{"name":"맛사랑","tel":"031-881-6256","addr":"경기도 여주시 창동 147-6번지","indutype":"일반휴게음식 - 일반한식","category":"restaurant"}]},{"lat":"37.296610036","long":"127.63572552","imageIndex":4,"items":[{"name":"명물부대찌개","tel":"031-884-1042","addr":"경기도 여주시 창동 51-3번지","indutype":"일반휴게음식 - 일반한식","category":"restaurant"},{"name":"못난이꽈배기","tel":"031-881-0666","addr":"경기도 여주시 창동 51-3번지","indutype":"일반휴게음식 - 일반한식","category":"restaurant"}]},{"lat":"37.29613597","long":"127.633387","imageIndex":4,"items":[{"name":"모인자리","tel":"031-885-8272","addr":"경기도 여주시 창동 98-3번지","indutype":"일반휴게음식 - 서양음식","category":"restaurant"},{"name":"정선곤드레밥","tel":"031-881-5233","addr":"경기도 여주시 창동 98-3번지","indutype":"일반휴게음식 - 일반한식","category":"restaurant"},{"name":"최고집","tel":"031-886-6663","addr":"경기도 여주시 창동 98-3번지","indutype":"일반휴게음식 - 일반한식","category":"restaurant"}]},{"lat":"37.294770697","long":"127.63427783","imageIndex":4,"items":[{"name":"미가","tel":"031-881-0810","addr":"경기도 여주시 창동 146-3번지 1층","indutype":"일반휴게음식 - 일반한식","category":"restaurant"}]},{"lat":"37.294694466","long":"127.63505536","imageIndex":4,"items":[{"name":"미쳐버린파닭(여주점)","tel":"031-886-9599","addr":"경기도 여주시 창동 150-3번지","indutype":"일반휴게음식 - 스넥","category":"restaurant"},{"name":"시연호프","tel":"031-884-9557","addr":"경기도 여주시 창동 150-3번지","indutype":"일반휴게음식 - 주점","category":"restaurant"},{"name":"장충동왕족발 (여주점)","tel":"031-883-8989","addr":"경기도 여주시 창동 150-3번지","indutype":"일반휴게음식 - 일반한식","category":"restaurant"}]},{"lat":"37.292111692","long":"127.63446988","imageIndex":4,"items":[{"name":"보조락","tel":"031-885-7379","addr":"경기도 여주시 창동 159-33번지","indutype":"일반휴게음식 - 일반한식","category":"restaurant"}]},{"lat":"37.294385625","long":"127.63383478","imageIndex":4,"items":[{"name":"북경양꼬치","tel":"031-886-9762","addr":"경기도 여주시 창동 146-19번지","indutype":"일반휴게음식 - 중국식","category":"restaurant"}]},{"lat":"37.296270922","long":"127.63511367","imageIndex":4,"items":[{"name":"비각거리","tel":"050-4379-1412","addr":"경기도 여주시 창동 82-1번지 1층","indutype":"일반휴게음식 - 일반한식","category":"restaurant"}]},{"lat":"37.290799488","long":"127.63046677","imageIndex":4,"items":[{"name":"사직골손두부","tel":"031-885-9880","addr":"경기도 여주시 창동 203-1번지","indutype":"일반휴게음식 - 일반한식","category":"restaurant"}]},{"lat":"37.294465991","long":"127.63397079","imageIndex":4,"items":[{"name":"삼일식당","tel":"","addr":"경기도 여주시 창동 146-18번지","indutype":"일반휴게음식 - 일반한식","category":"restaurant"}]},{"lat":"37.295131385","long":"127.63422446","imageIndex":4,"items":[{"name":"서민수산","tel":"031-886-7100","addr":"경기도 여주시 창동 136-2번지 1층","indutype":"일반휴게음식 - 일반한식","category":"restaurant"}]},{"lat":"37.297435641","long":"127.63466101","imageIndex":4,"items":[{"name":"석봉토스트","tel":"031-886-0925","addr":"경기도 여주시 창동 70-3번지","indutype":"일반휴게음식 - 일반한식","category":"restaurant"}]},{"lat":"37.295526067","long":"127.63455482","imageIndex":4,"items":[{"name":"설맥여주점","tel":"031-882-4688","addr":"경기도 여주시 창동 131-26번지","indutype":"일반휴게음식 - 주점","category":"restaurant"}]},{"lat":"37.290548804","long":"127.63186306","imageIndex":4,"items":[{"name":"설악추어탕","tel":"031-886-8778","addr":"경기도 여주시 창동 192번지","indutype":"일반휴게음식 - 일반한식","category":"restaurant"}]},{"lat":"37.295470805","long":"127.63477991","imageIndex":4,"items":[{"name":"스마일찹쌀꽈배기","tel":"031-882-8888","addr":"경기도 여주시 창동 131-23번지 1층","indutype":"일반휴게음식 - 스넥","category":"restaurant"}]},{"lat":"37.295277465","long":"127.63386479","imageIndex":4,"items":[{"name":"스타호프","tel":"031-885-1090","addr":"경기도 여주시 창동 137번지","indutype":"일반휴게음식 - 주점","category":"restaurant"},{"name":"오징어나라","tel":"031-882-6616","addr":"경기도 여주시 창동 137번지","indutype":"일반휴게음식 - 일반한식","category":"restaurant"}]},{"lat":"37.295745849","long":"127.63389125","imageIndex":4,"items":[{"name":"쎄븐호프","tel":"031-883-3183","addr":"경기도 여주시 창동 101-1번지","indutype":"일반휴게음식 - 주점","category":"restaurant"},{"name":"화인호프","tel":"031-885-1693","addr":"경기도 여주시 창동 101-1번지","indutype":"일반휴게음식 - 주점","category":"restaurant"}]},{"lat":"37.293054665","long":"127.62996674","imageIndex":4,"items":[{"name":"어버이왕순대","tel":"031-883-1818","addr":"경기도 여주시 창동 228번지","indutype":"일반휴게음식 - 일반한식","category":"restaurant"},{"name":"예천칡냉면 본점","tel":"031-886-5333","addr":"경기도 여주시 창동 228번지","indutype":"일반휴게음식 - 일반한식","category":"restaurant"},{"name":"청미송어","tel":"031-1111-1111","addr":"경기도 여주시 창동 228번지 227","indutype":"일반휴게음식 - 일반한식","category":"restaurant"}]},{"lat":"37.294047266","long":"127.63138469","imageIndex":4,"items":[{"name":"여주왕족발","tel":"031-884-8253","addr":"경기도 여주시 창동 142-9번지","indutype":"일반휴게음식 - 일반한식","category":"restaurant"}]},{"lat":"37.295803212","long":"127.63327144","imageIndex":4,"items":[{"name":"연희네 양꼬치","tel":"031-886-9755","addr":"경기도 여주시 창동 101-2번지 1층","indutype":"일반휴게음식 - 중국식","category":"restaurant"}]},{"lat":"37.297579314","long":"127.63475244","imageIndex":4,"items":[{"name":"왕막창이숯불에","tel":"031-886-4009","addr":"경기도 여주시 창동 70-1번지","indutype":"일반휴게음식 - 일반한식","category":"restaurant"}]},{"lat":"37.293771643","long":"127.63407776","imageIndex":4,"items":[{"name":"외갓집","tel":"031-886-9204","addr":"경기도 여주시 창동 157번지","indutype":"일반휴게음식 - 일반한식","category":"restaurant"}]},{"lat":"37.292438988","long":"127.63392002","imageIndex":4,"items":[{"name":"요거프레소(중앙로점)","tel":"031-883-8084","addr":"경기도 여주시 창동 158-23번지","indutype":"일반휴게음식 - 서양음식","category":"restaurant"}]},{"lat":"37.296743459","long":"127.63436199","imageIndex":4,"items":[{"name":"우리맛집","tel":"031-881-3651","addr":"경기도 여주시 창동 92-8번지","indutype":"일반휴게음식 - 일반한식","category":"restaurant"}]},{"lat":"37.28922066","long":"127.63255118","imageIndex":4,"items":[{"name":"원닭강정","tel":"031-881-6668","addr":"경기도 여주시 창동 181-7번지","indutype":"일반휴게음식 - 일반한식","category":"restaurant"}]},{"lat":"37.295775991","long":"127.63499675","imageIndex":4,"items":[{"name":"원점","tel":"","addr":"경기도 여주시 창동 129-1번지","indutype":"일반휴게음식 - 주점","category":"restaurant"},{"name":"원점","tel":"031-885-2163","addr":"경기도 여주시 창동 129-1번지","indutype":"일반휴게음식 - 주점","category":"restaurant"}]},{"lat":"37.293718607","long":"127.6338856","imageIndex":4,"items":[{"name":"유가장","tel":"031-884-1412","addr":"경기도 여주시 창동 157-1번지","indutype":"일반휴게음식 - 중국식","category":"restaurant"}]},{"lat":"37.295077628","long":"127.63247594","imageIndex":4,"items":[{"name":"은성손만두","tel":"031-1111-1111","addr":"경기도 여주시 창동 140-7번지","indutype":"일반휴게음식 - 일반한식","category":"restaurant"}]},{"lat":"37.294250279","long":"127.63555915","imageIndex":4,"items":[{"name":"이경규의 돈치킨","tel":"031-884-2900","addr":"경기도 여주시 창동 148-12번지","indutype":"일반휴게음식 - 스넥","category":"restaurant"}]},{"lat":"37.294774424","long":"127.63357864","imageIndex":4,"items":[{"name":"이화원","tel":"031-884-3211","addr":"경기도 여주시 창동 146-23번지 1층","indutype":"일반휴게음식 - 중국식","category":"restaurant"}]},{"lat":"37.294889146","long":"127.63403071","imageIndex":4,"items":[{"name":"일번지포차, 오향족발","tel":"031-885-5001","addr":"경기도 여주시 창동 146-1번지","indutype":"일반휴게음식 - 일반한식","category":"restaurant"},{"name":"장초닭발","tel":"031-886-9598","addr":"경기도 여주시 창동 146-1번지","indutype":"일반휴게음식 - 일반한식","category":"restaurant"}]},{"lat":"37.295159617","long":"127.63399914","imageIndex":4,"items":[{"name":"좋은친구들","tel":"031-886-1031","addr":"경기도 여주시 창동 136-1번지","indutype":"일반휴게음식 - 주점","category":"restaurant"}]},{"lat":"37.297300616","long":"127.63463732","imageIndex":4,"items":[{"name":"중앙통족발","tel":"031-885-7745","addr":"경기도 여주시 창동 72-2번지","indutype":"일반휴게음식 - 일반한식","category":"restaurant"}]},{"lat":"37.295053717","long":"127.63188929","imageIndex":4,"items":[{"name":"중화루","tel":"031-881-2222","addr":"경기도 여주시 창동 140-2번지","indutype":"일반휴게음식 - 중국식","category":"restaurant"}]},{"lat":"37.294464645","long":"127.63083555","imageIndex":4,"items":[{"name":"참이맛뼈다귀감자탕","tel":"031-881-1688","addr":"경기도 여주시 창동 141-9번지","indutype":"일반휴게음식 - 일반한식","category":"restaurant"}]},{"lat":"37.294356852","long":"127.6341616","imageIndex":4,"items":[{"name":"참치랑막회랑","tel":"031-885-3785","addr":"경기도 여주시 창동 147-4번지 1층","indutype":"일반휴게음식 - 일식·회집","category":"restaurant"},{"name":"함빠","tel":"031-881-6116","addr":"경기도 여주시 창동 147-4번지","indutype":"일반휴게음식 - 일반한식","category":"restaurant"}]},{"lat":"37.29455314","long":"127.63452413","imageIndex":4,"items":[{"name":"창동찌개마을","tel":"031-883-3790","addr":"경기도 여주시 창동 147-1번지 1층","indutype":"일반휴게음식 - 일반한식","category":"restaurant"}]},{"lat":"37.290219457","long":"127.63110475","imageIndex":4,"items":[{"name":"천마설렁탕(여주점)","tel":"031-882-1988","addr":"경기도 여주시 창동 197-1번지","indutype":"일반휴게음식 - 일반한식","category":"restaurant"}]},{"lat":"37.296518939","long":"127.63422478","imageIndex":4,"items":[{"name":"카페플레이버(CAFE FLAVOR)","tel":"031-885-1236","addr":"경기도 여주시 창동 94-1번지","indutype":"일반휴게음식 - 서양음식","category":"restaurant"}]},{"lat":"37.295744526","long":"127.63413936","imageIndex":4,"items":[{"name":"페리카나(여주점)","tel":"031-885-3600","addr":"경기도 여주시 창동 111-3번지","indutype":"일반휴게음식 - 스넥","category":"restaurant"}]},{"lat":"37.296107018","long":"127.63374766","imageIndex":4,"items":[{"name":"페이즈(FFEISE)","tel":"","addr":"경기도 여주시 창동 98-1번지 1층","indutype":"일반휴게음식 - 서양음식","category":"restaurant"}]},{"lat":"37.29608059","long":"127.63363465","imageIndex":4,"items":[{"name":"풀꽃향기","tel":"031-886-3006","addr":"경기도 여주시 창동 98-4번지 1층","indutype":"일반휴게음식 - 서양음식","category":"restaurant"}]},{"lat":"37.290800956","long":"127.63188772","imageIndex":4,"items":[{"name":"풍물감자옹심이","tel":"031-885-9848","addr":"경기도 여주시 창동 192번지","indutype":"일반휴게음식 - 일반한식","category":"restaurant"}]},{"lat":"37.296914042","long":"127.6344762","imageIndex":4,"items":[{"name":"플라워","tel":"031-885-8005","addr":"경기도 여주시 창동 75-1번지","indutype":"일반휴게음식 - 주점","category":"restaurant"}]},{"lat":"37.294854911","long":"127.63369209","imageIndex":4,"items":[{"name":"하루애","tel":"031-886-5333","addr":"경기도 여주시 창동 146-21번지","indutype":"일반휴게음식 - 주점","category":"restaurant"}]},{"lat":"37.291219415","long":"127.63113562","imageIndex":4,"items":[{"name":"한우대통령","tel":"031-886-8995","addr":"경기도 여주시 창동 215-1번지","indutype":"일반휴게음식 - 일반한식","category":"restaurant"}]},{"lat":"37.294971736","long":"127.63374945","imageIndex":4,"items":[{"name":"함지박","tel":"","addr":"경기도 여주시 창동 146-11번지","indutype":"일반휴게음식 - 일반한식","category":"restaurant"}]},{"lat":"37.29571515","long":"127.63457895","imageIndex":4,"items":[{"name":"호야옛날통닭","tel":"031-882-8624","addr":"경기도 여주시 창동 113-1번지","indutype":"일반휴게음식 - 스넥","category":"restaurant"}]},{"lat":"37.291938883","long":"127.63477293","imageIndex":4,"items":[{"name":"황골식당","tel":"031-885-9165","addr":"경기도 여주시 창동 159-35번지","indutype":"일반휴게음식 - 일반한식","category":"restaurant"}]},{"lat":"37.29680153","long":"127.63529856","imageIndex":4,"items":[{"name":"후루추피아","tel":"031-885-7978","addr":"경기도 여주시 창동 61-3번지","indutype":"일반휴게음식 - 서양음식","category":"restaurant"}]},{"lat":"37.294019352","long":"127.63324528","imageIndex":16,"items":[{"name":"99%독서실","tel":"031-885-9901","addr":"경기도 여주시 창동 144-4번지","indutype":"학원 - 독서실","category":"study"}]},{"lat":"37.2979434096","long":"127.6357479720","imageIndex":16,"items":[{"name":"경희체육관","tel":"031-885-8811","addr":"경기도 여주시 창동 38-2번지","indutype":"학원 - 예·체능계학원","category":"study"},{"name":"시립음악학원","tel":"031-885-9925","addr":"경기도 여주시 창동 38-2번지","indutype":"학원 - 예·체능계학원","category":"study"}]},{"lat":"37.295303051","long":"127.63244398","imageIndex":16,"items":[{"name":"명성보습학원","tel":"031-886-3412","addr":"경기도 여주시 창동 140번지","indutype":"학원 - 보습학원","category":"study"}]},{"lat":"37.29671984","long":"127.63541066","imageIndex":16,"items":[{"name":"몬스터영어교습소","tel":"031-885-4226","addr":"경기도 여주시 창동 54번지","indutype":"학원 - 외국어학원","category":"study"}]},{"lat":"37.297352627","long":"127.63502122","imageIndex":16,"items":[{"name":"사과나무음악학원","tel":"031-886-7730","addr":"경기도 여주시 창동 68번지 중앙프라자 3층 307,308호","indutype":"학원 - 예·체능계학원","category":"study"},{"name":"여주요리제빵학원","tel":"031-885-9333","addr":"경기도 여주시 창동 68번지 여주중앙프라자 206호","indutype":"회원제형태 - 학원","category":"study"},{"name":"영재들의 미술상자","tel":"031-881-2966","addr":"경기도 여주시 창동 68번지 중앙프라자2F 203호","indutype":"학원 - 예·체능계학원","category":"study"},{"name":"이스턴학원","tel":"031-881-1233","addr":"경기도 여주시 창동 68번지 중앙프라자 301호 302호","indutype":"학원 - 보습학원","category":"study"},{"name":"한양학원","tel":"031-885-3939","addr":"경기도 여주시 창동 68번지 2층 207~208호","indutype":"학원 - 보습학원","category":"study"},{"name":"해동검도현무관","tel":"031-886-2844","addr":"경기도 여주시 창동 68번지 중앙프라자 306호","indutype":"회원제형태 - 학원","category":"study"}]},{"lat":"37.300439746","long":"127.62716326","imageIndex":16,"items":[{"name":"사과나무음악학원","tel":"031-886-7730","addr":"경기도 여주시 창동 68번지","indutype":"학원 - 예·체능계학원","category":"study"}]},{"lat":"37.298053033","long":"127.63546693","imageIndex":16,"items":[{"name":"샵&플랫 음악학원","tel":"031-885-4840","addr":"경기도 여주시 창동 22-1번지","indutype":"학원 - 예·체능계학원","category":"study"}]},{"lat":"37.297944133","long":"127.63561264","imageIndex":16,"items":[{"name":"셀파우등생교실","tel":"031-883-8825","addr":"경기도 여주시 창동 37-3번지","indutype":"회원제형태 - 학원","category":"study"},{"name":"셀파우등생수학교습소","tel":"031-885-4531","addr":"경기도 여주시 창동 37-3번지","indutype":"회원제형태 - 학원","category":"study"}]},{"lat":"37.294912393","long":"127.63304973","imageIndex":16,"items":[{"name":"소울댄스 아카데미","tel":"031-886-4066","addr":"경기도 여주시 창동 139-1번지","indutype":"학원 - 예·체능계학원","category":"study"}]},{"lat":"37.2940764686","long":"127.6343622521","imageIndex":16,"items":[{"name":"소현어린이집[아이행복]","tel":"031-884-8421","addr":"경기도 여주시 창동 147-17번지","indutype":"학원 - 유아원","category":"study"}]},{"lat":"37.29696816","long":"127.63446537","imageIndex":16,"items":[{"name":"여주간호요양보호사교육원","tel":"031-881-4524","addr":"경기도 여주시 창동 75-1번지","indutype":"회원제형태 - 학원","category":"study"}]},{"lat":"37.296408363","long":"127.63299454","imageIndex":16,"items":[{"name":"여주청도체육관","tel":"031-885-8777","addr":"경기도 여주시 창동 70-1번지","indutype":"학원 - 예·체능계학원","category":"study"}]},{"lat":"37.2985827961","long":"127.6358097208","imageIndex":16,"items":[{"name":"여주초등학교","tel":"031-885-4792","addr":"경기도 여주시 창동 5-1번지","indutype":"학원 - 초중고교육기관","category":"study"}]},{"lat":"37.295526067","long":"127.63455482","imageIndex":16,"items":[{"name":"올패스학원","tel":"031-111-1111","addr":"경기도 여주시 창동 131-26번지 2층","indutype":"학원 - 보습학원","category":"study"}]},{"lat":"37.291856892","long":"127.6349414","imageIndex":16,"items":[{"name":"제이 댄스스포츠학원","tel":"034-635-2000","addr":"경기도 여주시 창동 159-39번지 2층","indutype":"학원 - 예·체능계학원","category":"study"}]},{"lat":"37.297828213","long":"127.6353861","imageIndex":16,"items":[{"name":"포인트학원","tel":"031-884-9090","addr":"경기도 여주시 창동 22-4번지","indutype":"학원 - 보습학원","category":"study"}]},{"lat":"37.295213853","long":"127.63227407","imageIndex":13,"items":[{"name":"D.J물류","tel":"031-4245-2461","addr":"경기도 여주시 창동 140-1번지","indutype":"보건위생 - 기타대인서비스","category":"beauty"}]},{"lat":"37.296332681","long":"127.63367059","imageIndex":13,"items":[{"name":"ForYou헤어샵","tel":"031-885-7982","addr":"경기도 여주시 창동 97-8번지","indutype":"보건위생 - 미용원","category":"beauty"},{"name":"피부홀릭","tel":"031-883-1368","addr":"경기도 여주시 창동 97-8번지","indutype":"보건위생 - 피부미용실","category":"beauty"}]},{"lat":"37.293519311","long":"127.63408693","imageIndex":13,"items":[{"name":"J.M헤어","tel":"","addr":"경기도 여주시 창동 157-4번지","indutype":"보건위생 - 미용원","category":"beauty"}]},{"lat":"37.297741067","long":"127.63483274","imageIndex":13,"items":[{"name":"O' Thank you 헤어","tel":"031-885-1599","addr":"경기도 여주시 창동 69-1번지 1층","indutype":"보건위생 - 미용원","category":"beauty"}]},{"lat":"37.296020457","long":"127.63477323","imageIndex":13,"items":[{"name":"S&B언어심리센터","tel":"031-881-1706","addr":"경기도 여주시 창동 122번지 해성학원 2층","indutype":"보건위생 - 기타대인서비스","category":"beauty"}]},{"lat":"37.29557839","long":"127.63319062","imageIndex":13,"items":[{"name":"unique(유니크)","tel":"031-886-1224","addr":"경기도 여주시 창동 138-2번지","indutype":"보건위생 - 미용원","category":"beauty"},{"name":"아레테헤어","tel":"031-886-3472","addr":"경기도 여주시 창동 138-2번지","indutype":"보건위생 - 미용원","category":"beauty"}]},{"lat":"37.294411127","long":"127.6358086","imageIndex":13,"items":[{"name":"가르마 헤어","tel":"031-881-0016","addr":"경기도 여주시 창동 153-1번지","indutype":"보건위생 - 미용원","category":"beauty"}]},{"lat":"37.297352627","long":"127.63502122","imageIndex":13,"items":[{"name":"구피샵","tel":"031-886-6991","addr":"경기도 여주시 창동 68번지 여주중앙프라자 1층 108호","indutype":"보건위생 - 화장품","category":"beauty"},{"name":"미즈헤어","tel":"031-886-2861","addr":"경기도 여주시 창동 68번지 여주중앙프라자 1층 105호","indutype":"보건위생 - 미용원","category":"beauty"},{"name":"쎄리하우스","tel":"031-883-6660","addr":"경기도 여주시 창동 68번지 여주중앙프라자 111호","indutype":"보건위생 - 미용원","category":"beauty"},{"name":"중앙R&D","tel":"031-886-4524","addr":"경기도 여주시 창동 68번지","indutype":"보건위생 - 사우나","category":"beauty"}]},{"lat":"37.2949435048","long":"127.6339747745","imageIndex":13,"items":[{"name":"그린헤어샵","tel":"031-883-5162","addr":"경기도 여주시 창동 146-25번지","indutype":"보건위생 - 미용원","category":"beauty"}]},{"lat":"37.291910348","long":"127.63505462","imageIndex":13,"items":[{"name":"글라스스토리","tel":"031-886-5150","addr":"경기도 여주시 창동 159-38번지","indutype":"보건위생 - 안경","category":"beauty"}]},{"lat":"37.296915943","long":"127.63580703","imageIndex":13,"items":[{"name":"김피부에스테틱","tel":"031-885-9391","addr":"경기도 여주시 창동 50-4번지","indutype":"보건위생 - 피부미용실","category":"beauty"}]},{"lat":"37.296993082","long":"127.63486031","imageIndex":13,"items":[{"name":"네이처리퍼블릭 여주점","tel":"031-886-5585","addr":"경기도 여주시 창동 64-3번지","indutype":"보건위생 - 화장품","category":"beauty"}]},{"lat":"37.294133454","long":"127.63550178","imageIndex":13,"items":[{"name":"대명","tel":"031-881-5446","addr":"경기도 여주시 창동 148-10번지","indutype":"보건위생 - 미용재료","category":"beauty"},{"name":"대명","tel":"031-308-3365","addr":"경기도 여주시 창동 148-10번지","indutype":"보건위생 - 기타대인서비스","category":"beauty"}]},{"lat":"37.293826522","long":"127.63561199","imageIndex":13,"items":[{"name":"도연중국전통마사지","tel":"031-886-1668","addr":"경기도 여주시 창동 148-18번지 4층","indutype":"보건위생 - 기타대인서비스","category":"beauty"}]},{"lat":"37.296107018","long":"127.63374766","imageIndex":13,"items":[{"name":"르네셀","tel":"031-8051-5788","addr":"경기도 여주시 창동 98-1번지","indutype":"보건위생 - 화장품","category":"beauty"}]},{"lat":"37.295470805","long":"127.63477991","imageIndex":13,"items":[{"name":"마녀손톱","tel":"031-883-4470","addr":"경기도 여주시 창동 131-23번지","indutype":"보건위생 - 피부미용실","category":"beauty"},{"name":"조이천헤어살롱","tel":"031-886-3923","addr":"경기도 여주시 창동 131-23번지","indutype":"보건위생 - 미용원","category":"beauty"}]},{"lat":"37.294608943","long":"127.63419754","imageIndex":13,"items":[{"name":"머릿결사랑염색방","tel":"031-111-1111","addr":"경기도 여주시 창동 146-7번지","indutype":"보건위생 - 미용원","category":"beauty"}]},{"lat":"37.295277465","long":"127.63386479","imageIndex":13,"items":[{"name":"문희경헤어클럽","tel":"031-881-3599","addr":"경기도 여주시 창동 137번지","indutype":"보건위생 - 미용원","category":"beauty"}]},{"lat":"37.293970255","long":"127.63569213","imageIndex":13,"items":[{"name":"바비헤어","tel":"031-884-0558","addr":"경기도 여주시 창동 148-16번지","indutype":"보건위생 - 미용원","category":"beauty"}]},{"lat":"37.296998357","long":"127.6355596","imageIndex":13,"items":[{"name":"밝은안경","tel":"031-886-7841","addr":"경기도 여주시 창동 56-3번지","indutype":"보건위생 - 안경","category":"beauty"},{"name":"보브헤어클리닉","tel":"031-884-0825","addr":"경기도 여주시 창동 56-3번지","indutype":"보건위생 - 미용원","category":"beauty"},{"name":"위드미용실","tel":"031-883-8986","addr":"경기도 여주시 창동 56-3번지 2층","indutype":"보건위생 - 미용원","category":"beauty"}]},{"lat":"37.295525653","long":"127.63294207","imageIndex":13,"items":[{"name":"뷰트리","tel":"","addr":"경기도 여주시 창동 138번지 1층","indutype":"보건위생 - 화장품","category":"beauty"},{"name":"조만선헤어샵","tel":"031-886-2012","addr":"경기도 여주시 창동 138번지","indutype":"보건위생 - 미용원","category":"beauty"}]},{"lat":"37.296992781","long":"127.6349167","imageIndex":13,"items":[{"name":"살롱드 머뭄","tel":"031-881-2233","addr":"경기도 여주시 창동 250-1번지 2층","indutype":"보건위생 - 미용원","category":"beauty"}]},{"lat":"37.297077997","long":"127.63583095","imageIndex":13,"items":[{"name":"삼성디(D)-클리닉","tel":"031-881-1236","addr":"경기도 여주시 창동 50-4번지","indutype":"보건위생 - 기타대인서비스","category":"beauty"}]},{"lat":"37.294825657","long":"127.63410912","imageIndex":13,"items":[{"name":"석미용실","tel":"031-883-8104","addr":"경기도 여주시 창동 146-2번지","indutype":"보건위생 - 미용원","category":"beauty"}]},{"lat":"37.295465526","long":"127.63408064","imageIndex":13,"items":[{"name":"시티보이헤어클럽","tel":"031-886-9009","addr":"경기도 여주시 창동 133-4번지","indutype":"보건위생 - 미용원","category":"beauty"}]},{"lat":"37.29763253","long":"127.63491078","imageIndex":13,"items":[{"name":"아리따움화장품(ARITAUM)","tel":"031-886-1176","addr":"경기도 여주시 창동 69-1번지","indutype":"보건위생 - 화장품","category":"beauty"}]},{"lat":"37.29671984","long":"127.63541066","imageIndex":13,"items":[{"name":"아이펠마르여주점","tel":"031-884-2466","addr":"경기도 여주시 창동 54번지","indutype":"보건위생 - 미용원","category":"beauty"}]},{"lat":"37.297048164","long":"127.63466905","imageIndex":13,"items":[{"name":"에뛰드하우스여주점","tel":"031-884-7945","addr":"경기도 여주시 창동 65-2번지","indutype":"보건위생 - 화장품","category":"beauty"}]},{"lat":"37.29794341","long":"127.63574797","imageIndex":13,"items":[{"name":"유진헤어","tel":"031-885-2707","addr":"경기도 여주시 창동 38-2번지","indutype":"보건위생 - 미용원","category":"beauty"}]},{"lat":"37.29488415","long":"127.63158338","imageIndex":13,"items":[{"name":"은성할인코너","tel":"031-883-3400","addr":"경기도 여주시 창동 141번지","indutype":"보건위생 - 화장품","category":"beauty"}]},{"lat":"37.294496553","long":"127.63499732","imageIndex":13,"items":[{"name":"이양순헤어샵","tel":"031-885-4179","addr":"경기도 여주시 창동 147-23번지","indutype":"보건위생 - 미용원","category":"beauty"}]},{"lat":"37.290548804","long":"127.63186306","imageIndex":13,"items":[{"name":"족욕카페힐링스카이","tel":"","addr":"경기도 여주시 창동 192번지 2층","indutype":"보건위생 - 기타대인서비스","category":"beauty"}]},{"lat":"37.297910806","long":"127.63510484","imageIndex":13,"items":[{"name":"진미머리방","tel":"031-883-0798","addr":"경기도 여주시 창동 24-1번지","indutype":"보건위생 - 미용원","category":"beauty"}]},{"lat":"37.292633111","long":"127.63468851","imageIndex":13,"items":[{"name":"창안목욕탕","tel":"031-885-9249","addr":"경기도 여주시 창동 159-3번지","indutype":"보건위생 - 사우나","category":"beauty"}]},{"lat":"37.291856892","long":"127.6349414","imageIndex":13,"items":[{"name":"컷트클럽","tel":"031-886-1254","addr":"경기도 여주시 창동 159-39번지","indutype":"보건위생 - 미용원","category":"beauty"}]},{"lat":"37.296381447","long":"127.63466347","imageIndex":13,"items":[{"name":"플러스헤어","tel":"031-886-5525","addr":"경기도 여주시 창동 87-6번지","indutype":"보건위생 - 미용원","category":"beauty"}]},{"lat":"37.296384575","long":"127.63407704","imageIndex":13,"items":[{"name":"핑크케이(Pink.K)","tel":"031-111-1111","addr":"경기도 여주시 창동 96-1번지 현광보습학원 1층 2호","indutype":"보건위생 - 피부미용실","category":"beauty"}]},{"lat":"37.292306173","long":"127.63517071","imageIndex":13,"items":[{"name":"현 헤어","tel":"031-886-7083","addr":"경기도 여주시 창동 159-9번지 2층","indutype":"보건위생 - 미용원","category":"beauty"}]},{"lat":"37.290887516","long":"127.6325538","imageIndex":0,"items":[{"name":"TOPCAR","tel":"031-886-0337","addr":"경기도 여주시 창동 177-2번지","indutype":"자동차정비 유지 - 카인테리어","category":"car"},{"name":"여주도일렉카","tel":"031-881-4972","addr":"경기도 여주시 창동 177-2번지","indutype":"자동차정비 유지 - 견인서비스","category":"car"}]},{"lat":"37.290971809","long":"127.63025394","imageIndex":0,"items":[{"name":"대일자동차공업사","tel":"031-884-8471","addr":"경기도 여주시 창동 216번지","indutype":"자동차정비 유지 - 자동차정비","category":"car"}]},{"lat":"37.291047453","long":"127.6312808","imageIndex":0,"items":[{"name":"르노삼성자동차여주정비센터","tel":"031-884-5802","addr":"경기도 여주시 창동 215-6번지","indutype":"자동차정비 유지 - 자동차정비","category":"car"}]},{"lat":"37.292166472","long":"127.63433501","imageIndex":0,"items":[{"name":"미스터카프라자","tel":"031-886-8297","addr":"경기도 여주시 창동 159-32번지","indutype":"자동차정비 유지 - 자동차정비","category":"car"}]},{"lat":"37.290219457","long":"127.63110475","imageIndex":0,"items":[{"name":"성화카오디오","tel":"031-886-2689","addr":"경기도 여주시 창동 197-1번지","indutype":"자동차정비 유지 - 자동차부품","category":"car"}]},{"lat":"37.295053717","long":"127.63188929","imageIndex":0,"items":[{"name":"세계덴트칼라여주점","tel":"031-884-4782","addr":"경기도 여주시 창동 140-2번지","indutype":"자동차정비 유지 - 자동차정비","category":"car"}]},{"lat":"37.293803367","long":"127.62980379","imageIndex":0,"items":[{"name":"신화타이어","tel":"031-885-2648","addr":"경기도 여주시 창동 234-5번지","indutype":"자동차정비 유지 - 자동차정비","category":"car"}]},{"lat":"37.288161411","long":"127.63180936","imageIndex":0,"items":[{"name":"아우토반","tel":"031-885-7024","addr":"경기도 여주시 창동 184-2번지","indutype":"자동차정비 유지 - 자동차부품","category":"car"}]},{"lat":"37.291161311","long":"127.63019912","imageIndex":0,"items":[{"name":"애니오토","tel":"031-884-1521","addr":"경기도 여주시 창동 217-1번지","indutype":"자동차정비 유지 - 자동차정비","category":"car"}]},{"lat":"37.293855633","long":"127.63014255","imageIndex":0,"items":[{"name":"영샵","tel":"031-884-1467","addr":"경기도 여주시 창동 236번지","indutype":"자동차정비 유지 - 자동차부품","category":"car"}]},{"lat":"37.298497761","long":"127.63486162","imageIndex":0,"items":[{"name":"영일카센타","tel":"031-884-9141","addr":"경기도 여주시 창동 2-23번지","indutype":"자동차정비 유지 - 세차장","category":"car"}]},{"lat":"37.2984977612","long":"127.6348616243","imageIndex":0,"items":[{"name":"영일카센타","tel":"031-884-9141","addr":"경기도 여주시 창동 2-23번지","indutype":"자동차정비 유지 - 자동차정비","category":"car"}]},{"lat":"37.29419202","long":"127.63127312","imageIndex":0,"items":[{"name":"타이어테크여주본점","tel":"031-883-1073","addr":"경기도 여주시 창동 142-8번지","indutype":"자동차정비 유지 - 자동차정비","category":"car"}]},{"lat":"37.292249183","long":"127.63403121","imageIndex":0,"items":[{"name":"하이모터스","tel":"031-884-4995","addr":"경기도 여주시 창동 159-30번지","indutype":"자동차정비 유지 - 자동차정비","category":"car"}]},{"lat":"37.290303204","long":"127.63230083","imageIndex":0,"items":[{"name":"한국타이어여주대리","tel":"031-885-2317","addr":"경기도 여주시 창동 190-1번지","indutype":"자동차정비 유지 - 자동차시트·타이어","category":"car"}]},{"lat":"37.29285674","long":"127.63330325","imageIndex":0,"items":[{"name":"형제자동차부품","tel":"031-885-6036","addr":"경기도 여주시 창동 157-44번지","indutype":"자동차정비 유지 - 자동차부품","category":"car"}]},{"lat":"37.294159459","long":"127.63569372","imageIndex":7,"items":[{"name":"개그스토리여주중앙점","tel":"031-886-4113","addr":"경기도 여주시 창동 148-14번지","indutype":"유통업 영리 - 슈퍼마켓","category":"mart"}]},{"lat":"37.297049067","long":"127.63449988","imageIndex":7,"items":[{"name":"여흥슈퍼","tel":"031-885-3454","addr":"경기도 여주시 창동 74-1번지","indutype":"유통업 영리 - 슈퍼마켓","category":"mart"}]},{"lat":"37.293522617","long":"127.63346669","imageIndex":7,"items":[{"name":"현대슈퍼백화점","tel":"031-881-6590","addr":"경기도 여주시 창동 157-22번지","indutype":"유통업 영리 - 슈퍼마켓","category":"mart"}]},{"lat":"37.294770697","long":"127.63427783","imageIndex":13,"items":[{"name":"고양이노래연습장","tel":"031-884-2486","addr":"경기도 여주시 창동 146-3번지","indutype":"레저업소 - 노 래 방","category":"leisure"}]},{"lat":"37.293855633","long":"127.63014255","imageIndex":13,"items":[{"name":"나이스스크린","tel":"031-885-0955","addr":"경기도 여주시 창동 236번지","indutype":"레저업소 - 스크린골프","category":"leisure"}]},{"lat":"37.29244007","long":"127.63371704","imageIndex":13,"items":[{"name":"대장금노래연습장","tel":"031-885-9777","addr":"경기도 여주시 창동 158-11번지 지하1층","indutype":"레저업소 - 노 래 방","category":"leisure"}]},{"lat":"37.294912393","long":"127.63304973","imageIndex":13,"items":[{"name":"똥광노래방","tel":"031-881-3536","addr":"경기도 여주시 창동 139-1번지","indutype":"레저업소 - 노 래 방","category":"leisure"}]},{"lat":"37.294499684","long":"127.6344109","imageIndex":13,"items":[{"name":"벅스노래방","tel":"031-885-7705","addr":"경기도 여주시 창동 147-2번지","indutype":"레저업소 - 노 래 방","category":"leisure"}]},{"lat":"37.29532876","long":"127.63269231","imageIndex":13,"items":[{"name":"비타민노래연습장","tel":"031-885-7001","addr":"경기도 여주시 창동 140-6번지 3층","indutype":"레저업소 - 노 래 방","category":"leisure"}]},{"lat":"37.297579314","long":"127.63475244","imageIndex":13,"items":[{"name":"서울당구장","tel":"","addr":"경기도 여주시 창동 70-1번지","indutype":"레저업소 - 당 구 장","category":"leisure"}]},{"lat":"37.295775991","long":"127.63499675","imageIndex":13,"items":[{"name":"솔라노래연습장","tel":"031-883-8636","addr":"경기도 여주시 창동 129-1번지 지하1층","indutype":"레저업소 - 노 래 방","category":"leisure"}]},{"lat":"37.296998357","long":"127.6355596","imageIndex":13,"items":[{"name":"스카이노래방","tel":"031-882-9655","addr":"경기도 여주시 창동 56-3번지","indutype":"레저업소 - 노 래 방","category":"leisure"}]},{"lat":"37.29613597","long":"127.633387","imageIndex":13,"items":[{"name":"스파르타짐","tel":"031-885-9970","addr":"경기도 여주시 창동 98-3번지","indutype":"레저업소 - 헬스클럽","category":"leisure"}]},{"lat":"37.294995638","long":"127.6343361","imageIndex":13,"items":[{"name":"신바람 노래연습장","tel":"031-886-2315","addr":"경기도 여주시 창동 149-1번지 지하1층","indutype":"레저업소 - 노 래 방","category":"leisure"},{"name":"큐노래연습장","tel":"031-884-1211","addr":"경기도 여주시 창동 149-1번지","indutype":"레저업소 - 노 래 방","category":"leisure"}]},{"lat":"37.296913199","long":"127.63463408","imageIndex":13,"items":[{"name":"중앙노래연습장","tel":"031-881-0208","addr":"경기도 여주시 창동 76-4번지 지하1층","indutype":"레저업소 - 노 래 방","category":"leisure"}]},{"lat":"37.291856892","long":"127.6349414","imageIndex":13,"items":[{"name":"차차차노래연습장","tel":"031-881-1717","addr":"경기도 여주시 창동 159-39번지 지하1층","indutype":"레저업소 - 노 래 방","category":"leisure"}]},{"lat":"37.294606476","long":"127.6346599","imageIndex":13,"items":[{"name":"초콜릿노래연습장","tel":"031-885-4560","addr":"경기도 여주시 창동 147번지 지하1층","indutype":"레저업소 - 노 래 방","category":"leisure"}]},{"lat":"37.297352627","long":"127.63502122","imageIndex":13,"items":[{"name":"토마토 PC ZONE","tel":"070-2467-5191","addr":"경기도 여주시 창동 68번지 여주중앙프라자 3층 309호","indutype":"레저업소 - 기타레져업소","category":"leisure"}]},{"lat":"37.294047266","long":"127.63138469","imageIndex":13,"items":[{"name":"패밀리 노래연습장","tel":"031-886-0055","addr":"경기도 여주시 창동 142-9번지 지하1층","indutype":"레저업소 - 노 래 방","category":"leisure"}]},{"lat":"37.294250279","long":"127.63555915","imageIndex":13,"items":[{"name":"풍차노래연습장","tel":"031-886-3777","addr":"경기도 여주시 창동 148-12번지","indutype":"레저업소 - 노 래 방","category":"leisure"}]},{"lat":"37.294694466","long":"127.63505536","imageIndex":13,"items":[{"name":"하모니노래연습장","tel":"031-883-8835","addr":"경기도 여주시 창동 150-3번지","indutype":"레저업소 - 노 래 방","category":"leisure"}]},{"lat":"37.297352627","long":"127.63502122","imageIndex":8,"items":[{"name":"기분좋은치과","tel":"031-886-2879","addr":"경기도 여주시 창동 68번지 중앙프라자 304호","indutype":"의원 - 치과의원","category":"medical"},{"name":"중앙한의원","tel":"031-886-8275","addr":"경기도 여주시 창동 68번지 중앙프라자 B동 205호","indutype":"의원 - 한의원","category":"medical"}]},{"lat":"37.2972456548","long":"127.6348060364","imageIndex":8,"items":[{"name":"길치과의원","tel":"031-885-2875","addr":"경기도 여주시 창동 66-3번지","indutype":"의원 - 치과의원","category":"medical"}]},{"lat":"37.297023758","long":"127.63586433","imageIndex":8,"items":[{"name":"김의원","tel":"031-885-9391","addr":"경기도 여주시 창동 50-4번지","indutype":"의원 - 의원","category":"medical"},{"name":"정승관 산부인과의원","tel":"031-883-8575","addr":"경기도 여주시 창동 50-4번지 동방빌딩 2층","indutype":"의원 - 의원","category":"medical"},{"name":"함안과의원","tel":"031-884-7577","addr":"경기도 여주시 창동 50-4번지 7층","indutype":"의원 - 의원","category":"medical"}]},{"lat":"37.294995638","long":"127.6343361","imageIndex":8,"items":[{"name":"김치환내과의원","tel":"031-883-1008","addr":"경기도 여주시 창동 149-1번지","indutype":"의원 - 의원","category":"medical"}]},{"lat":"37.297077997","long":"127.63583095","imageIndex":8,"items":[{"name":"동방치과","tel":"031-885-0275","addr":"경기도 여주시 창동 50-4번지 동방빌딩 4층","indutype":"의원 - 치과의원","category":"medical"},{"name":"삼성신경정신과","tel":"031-885-8857","addr":"경기도 여주시 창동 50-4번지","indutype":"의원 - 의원","category":"medical"},{"name":"서울이비인후과","tel":"031-885-7600","addr":"경기도 여주시 창동 50-4번지","indutype":"의원 - 의원","category":"medical"},{"name":"세계로약국","tel":"031-886-6007","addr":"경기도 여주시 창동 50-4번지","indutype":"약국 - 약국","category":"medical"},{"name":"우리들의원","tel":"031-886-0230","addr":"경기도 여주시 창동 50-4번지","indutype":"의원 - 의원","category":"medical"}]},{"lat":"37.296610036","long":"127.63572552","imageIndex":8,"items":[{"name":"맑은숲한의원","tel":"031-883-3775","addr":"경기도 여주시 창동 51-3번지","indutype":"의원 - 한의원","category":"medical"},{"name":"연세바로본치과의원","tel":"031-886-2804","addr":"경기도 여주시 창동 51-3번지 2층","indutype":"의원 - 치과의원","category":"medical"}]},{"lat":"37.295465947","long":"127.63400169","imageIndex":8,"items":[{"name":"선경약국","tel":"031-883-7556","addr":"경기도 여주시 창동 133-3번지","indutype":"약국 - 약국","category":"medical"}]},{"lat":"37.296718453","long":"127.63567004","imageIndex":8,"items":[{"name":"연세미소치과의원","tel":"031-885-2804","addr":"경기도 여주시 창동 51-2번지 2층","indutype":"의원 - 치과의원","category":"medical"},{"name":"연세미소치과의원","tel":"031-885-2804","addr":"경기도 여주시 창동 51-2번지 2층","indutype":"의원 - 치과의원","category":"medical"}]},{"lat":"37.2897777618","long":"127.6328377515","imageIndex":8,"items":[{"name":"연세새로운병원","tel":"031-885-7582","addr":"경기도 여주시 창동 180-1번지 여주새로운병원","indutype":"병원 - 병원","category":"medical"}]},{"lat":"37.290050753","long":"127.63233256","imageIndex":8,"items":[{"name":"한글약국","tel":"031-883-4569","addr":"경기도 여주시 창동 179-9번지","indutype":"약국 - 약국","category":"medical"}]},{"lat":"37.295385341","long":"127.6339108","imageIndex":8,"items":[{"name":"현대정형외과의원","tel":"031-884-3354","addr":"경기도 여주시 창동 135번지","indutype":"병원 - 병원","category":"medical"}]},{"lat":"37.294328782","long":"127.63096976","imageIndex":5,"items":[{"name":"송림장여관","tel":"031-882-7500","addr":"경기도 여주시 창동 141-10번지","indutype":"숙박업 - 여관/기타숙박업","category":"hotel"}]},{"lat":"37.295213853","long":"127.63227407","imageIndex":5,"items":[{"name":"여주모텔","tel":"031-882-6422","addr":"경기도 여주시 창동 140-1번지","indutype":"숙박업 - 여관/기타숙박업","category":"hotel"}]},{"lat":"37.292216256","long":"127.63513613","imageIndex":5,"items":[{"name":"필모텔","tel":"031-885-0888","addr":"경기도 여주시 창동 159-10번지","indutype":"숙박업 - 여관/기타숙박업","category":"hotel"}]}]