[{"lat":"37.593062091","long":"127.15062266","imageIndex":13,"items":[{"name":"(주)더블유에이치팜","tel":"031-569-6155","addr":"경기도 구리시 토평동 997번지 더블유빌딩 3층 301호","indutype":"보건위생 - 화장품","category":"beauty"}]},{"lat":"37.588534092","long":"127.14745483","imageIndex":13,"items":[{"name":"CSY메디칼","tel":"070-8274-1131","addr":"경기도 구리시 토평동 986-8번지 103호","indutype":"보건위생 - 의료용품","category":"beauty"}]},{"lat":"37.589841089","long":"127.14698182","imageIndex":13,"items":[{"name":"나영헤어아트","tel":"031-562-9774","addr":"경기도 구리시 토평동 977-11번지 105호","indutype":"보건위생 - 미용원","category":"beauty"}]},{"lat":"37.587759487","long":"127.14726086","imageIndex":13,"items":[{"name":"내 머리애 봄","tel":"031-1111-1111","addr":"경기도 구리시 토평동 611-32번지 청운빌딩 101호","indutype":"보건위생 - 미용원","category":"beauty"}]},{"lat":"37.590563959","long":"127.14526219","imageIndex":13,"items":[{"name":"마르떼헤어","tel":"031-555-5466","addr":"경기도 구리시 토평동 972번지 1층","indutype":"보건위생 - 미용원","category":"beauty"}]},{"lat":"37.5898971","long":"127.14537415","imageIndex":13,"items":[{"name":"맘스매니저 구리/남양주/가평","tel":"031-563-7325","addr":"경기도 구리시 토평동 974-6번지","indutype":"보건위생 - 기타대인서비스","category":"beauty"}]},{"lat":"37.590591629","long":"127.14473009","imageIndex":13,"items":[{"name":"민헤어","tel":"031-566-7496","addr":"경기도 구리시 토평동 964번지 메인프라자 101호","indutype":"보건위생 - 미용원","category":"beauty"},{"name":"채원미장","tel":"031-552-8203","addr":"경기도 구리시 토평동 964번지 메인프라자 1층 104호","indutype":"보건위생 - 미용원","category":"beauty"}]},{"lat":"37.594007662","long":"127.15098687","imageIndex":13,"items":[{"name":"밝은눈안경","tel":"031-556-0090","addr":"경기도 구리시 토평동 998번지 새롬프라자10차 1층 106호","indutype":"보건위생 - 안경","category":"beauty"},{"name":"블루클럽 토평점","tel":"","addr":"경기도 구리시 토평동 998번지 새롬프라자10차","indutype":"보건위생 - 미용원","category":"beauty"}]},{"lat":"37.590978244","long":"127.14539885","imageIndex":13,"items":[{"name":"살롱드보그","tel":"","addr":"경기도 구리시 토평동 964-3번지 새롬프라자9차 103호","indutype":"보건위생 - 미용원","category":"beauty"},{"name":"안경과사람들","tel":"031-565-5654","addr":"경기도 구리시 토평동 964-3번지 새롬프라자9차 109호","indutype":"보건위생 - 안경","category":"beauty"},{"name":"헤어아떼미용실","tel":"031-551-7135","addr":"경기도 구리시 토평동 964-3번지 새롬프라자9차 202호","indutype":"보건위생 - 미용원","category":"beauty"}]},{"lat":"37.593476342","long":"127.150782","imageIndex":13,"items":[{"name":"살롱드엠제이","tel":"031-567-9522","addr":"경기도 구리시 토평동 998-3번지 한주빌딩 101호","indutype":"보건위생 - 미용원","category":"beauty"}]},{"lat":"37.588760616","long":"127.16053241","imageIndex":13,"items":[{"name":"스포츠센터 이용원","tel":"031-111-1111","addr":"경기도 구리시 토평동 9-1번지","indutype":"보건위생 - 이용원","category":"beauty"}]},{"lat":"37.589534217","long":"127.1474228","imageIndex":13,"items":[{"name":"씨앤엘스타일 주식회사","tel":"070-7825-0720","addr":"경기도 구리시 토평동 978-10번지 토평주택 101호","indutype":"보건위생 - 의료용품","category":"beauty"}]},{"lat":"37.590841642","long":"127.14659878","imageIndex":13,"items":[{"name":"씨크","tel":"031-566-8312","addr":"경기도 구리시 토평동 965번지 우신빌딩 1층 103호","indutype":"보건위생 - 화장품","category":"beauty"}]},{"lat":"37.592503727","long":"127.15042907","imageIndex":13,"items":[{"name":"아트강피부미용실","tel":"","addr":"경기도 구리시 토평동 997-3번지 굿모닝세화빌딩 4층","indutype":"보건위생 - 미용원","category":"beauty"}]},{"lat":"37.590671104","long":"127.14606629","imageIndex":13,"items":[{"name":"에스플러스네일아트","tel":"031-564-3301","addr":"경기도 구리시 토평동 972-6번지 1층 1호","indutype":"보건위생 - 미용원","category":"beauty"}]},{"lat":"37.590505866","long":"127.14856824","imageIndex":13,"items":[{"name":"에이치바이오메드","tel":"070-4530-1355","addr":"경기도 구리시 토평동 966-2번지 천광빌딩 5층 502호","indutype":"보건위생 - 의료용품","category":"beauty"}]},{"lat":"37.58450794","long":"127.14645075","imageIndex":13,"items":[{"name":"제이메디칼케어","tel":"","addr":"경기도 구리시 토평동 614-5번지 2층 204호","indutype":"보건위생 - 의료용품","category":"beauty"}]},{"lat":"37.585621774","long":"127.14920406","imageIndex":13,"items":[{"name":"크로스헤어","tel":"031-555-4940","addr":"경기도 구리시 토평동 304번지","indutype":"보건위생 - 미용원","category":"beauty"}]},{"lat":"37.58514621","long":"127.1476181","imageIndex":13,"items":[{"name":"파라나 구리점","tel":"031-557-8485","addr":"경기도 구리시 토평동 288번지","indutype":"보건위생 - 화장품","category":"beauty"}]},{"lat":"37.593953262","long":"127.15125851","imageIndex":13,"items":[{"name":"헤어204","tel":"031-555-3139","addr":"경기도 구리시 토평동 999번지 노다지빌딩 101호","indutype":"보건위생 - 미용원","category":"beauty"}]},{"lat":"37.590923212","long":"127.14620265","imageIndex":13,"items":[{"name":"헤어293","tel":"031-565-0082","addr":"경기도 구리시 토평동 964-6번지 거양빌딩 1층 102호","indutype":"보건위생 - 미용원","category":"beauty"}]},{"lat":"37.588696808","long":"127.14701358","imageIndex":13,"items":[{"name":"헤어가라사대","tel":"031-567-9364","addr":"경기도 구리시 토평동 662-3번지 태융캐슬 1층 102호","indutype":"보건위생 - 미용원","category":"beauty"}]},{"lat":"37.590732544","long":"127.14740247","imageIndex":13,"items":[{"name":"헤어코리아","tel":"031-553-3369","addr":"경기도 구리시 토평동 965-3번지","indutype":"보건위생 - 미용원","category":"beauty"}]},{"lat":"37.589590371","long":"127.14570191","imageIndex":13,"items":[{"name":"후헤어","tel":"070-8243-0114","addr":"경기도 구리시 토평동 977번지 1층","indutype":"보건위생 - 미용원","category":"beauty"}]}]