[{"lat":"37.400805584","long":"126.96909068","imageIndex":7,"items":[{"name":"(주) 제이에스투비 (JS2B)","tel":"031-348-8748","addr":"경기도 안양시 동안구 관양동 810번지","indutype":"음료식품 - 미곡상","category":"food"},{"name":"아이원커머스","tel":"070-4440-0070","addr":"경기도 안양시 동안구 관양동 810번지","indutype":"건강식품 - 기타건강식품","category":"food"}]},{"lat":"37.403972732","long":"126.95616851","imageIndex":7,"items":[{"name":"(주)공간에프앤비","tel":"02-578-7005","addr":"경기도 안양시 동안구 관양동 1400-7번지","indutype":"음료식품 - 기타음료식품","category":"food"}]},{"lat":"37.406861001","long":"126.97142598","imageIndex":7,"items":[{"name":"(주)맘스채널","tel":"031-386-5757","addr":"경기도 안양시 동안구 관양동 1715-10번지","indutype":"음료식품 - 기타음료식품","category":"food"}]},{"lat":"37.402026367","long":"126.95569537","imageIndex":7,"items":[{"name":"(주)미성옥옹기해장국","tel":"031-387-5598","addr":"경기도 안양시 동안구 관양동 1441-10번지","indutype":"음료식품 - 기타음료식품","category":"food"}]},{"lat":"37.402971978","long":"126.95458795","imageIndex":7,"items":[{"name":"(주)삼정축산","tel":"031-384-7911","addr":"경기도 안양시 동안구 관양동 1383-8번지","indutype":"음료식품 - 농·축·수산품","category":"food"}]},{"lat":"37.412996555","long":"126.97030514","imageIndex":7,"items":[{"name":"(주)스튜디오 오피스","tel":"070-4895-0477","addr":"경기도 안양시 동안구 관양동 1651번지 동편마을","indutype":"음료식품 - 기타음료식품","category":"food"}]},{"lat":"37.400834058","long":"126.97459078","imageIndex":7,"items":[{"name":"(주)씨에스테크놀로지","tel":"031-424-7706","addr":"경기도 안양시 동안구 관양동 1490-24번지","indutype":"음료식품 - 기타음료식품","category":"food"}]},{"lat":"37.392196671","long":"126.95648072","imageIndex":7,"items":[{"name":"(주)엔와이파트너스","tel":"031-444-9975","addr":"경기도 안양시 동안구 관양동 1591번지","indutype":"건강식품 - 기타건강식품","category":"food"},{"name":"더로스팅커피","tel":"031-7235-6018","addr":"경기도 안양시 동안구 관양동 1591번지","indutype":"음료식품 - 기타음료식품","category":"food"},{"name":"앨리스케익","tel":"031-384-0801","addr":"경기도 안양시 동안구 관양동 1591번지","indutype":"음료식품 - 제과점","category":"food"},{"name":"오션유통","tel":"","addr":"경기도 안양시 동안구 관양동 1591번지","indutype":"음료식품 - 농·축·수산품","category":"food"},{"name":"주식회사 세찬유통","tel":"","addr":"경기도 안양시 동안구 관양동 1591번지","indutype":"음료식품 - 농·축·수산품","category":"food"},{"name":"주식회사 최고다별","tel":"","addr":"경기도 안양시 동안구 관양동 1591번지","indutype":"음료식품 - 농·축·수산품","category":"food"},{"name":"커피탄생 (Coffee Birthday)","tel":"031-456-7027","addr":"경기도 안양시 동안구 관양동 1591번지","indutype":"음료식품 - 기타음료식품","category":"food"},{"name":"활인원","tel":"031-385-0061","addr":"경기도 안양시 동안구 관양동 1591번지","indutype":"음료식품 - 기타음료식품","category":"food"}]},{"lat":"37.396859297","long":"126.96955547","imageIndex":7,"items":[{"name":"(주)일렉콘코리아","tel":"","addr":"경기도 안양시 동안구 관양동 883번지","indutype":"음료식품 - 농·축·수산품","category":"food"}]},{"lat":"37.392441574","long":"126.96083952","imageIndex":7,"items":[{"name":"(주)해원","tel":"031-464-0791","addr":"경기도 안양시 동안구 관양동 1605번지","indutype":"음료식품 - 기타음료식품","category":"food"}]},{"lat":"37.394469531","long":"126.96281465","imageIndex":7,"items":[{"name":"가자세계주류전문점","tel":"031-386-8411","addr":"경기도 안양시 동안구 관양동 1600-3번지","indutype":"음료식품 - 기타음료식품","category":"food"}]},{"lat":"37.404856785","long":"126.95894641","imageIndex":7,"items":[{"name":"갑인","tel":"031-384-4955","addr":"경기도 안양시 동안구 관양동 1405-13번지","indutype":"음료식품 - 정육점","category":"food"},{"name":"소문난수산","tel":"","addr":"경기도 안양시 동안구 관양동 1405-13번지","indutype":"음료식품 - 농·축·수산품","category":"food"},{"name":"한강수산","tel":"031-469-7463","addr":"경기도 안양시 동안구 관양동 1405-13번지","indutype":"음료식품 - 농·축·수산품","category":"food"}]},{"lat":"37.39813674","long":"126.96311762","imageIndex":7,"items":[{"name":"개그 안양 평촌점","tel":"","addr":"경기도 안양시 동안구 관양동 1744번지","indutype":"음료식품 - 기타음료식품","category":"food"}]},{"lat":"37.404748698","long":"126.95903683","imageIndex":7,"items":[{"name":"건어물천국","tel":"031-476-1015","addr":"경기도 안양시 동안구 관양동 1405-14번지","indutype":"음료식품 - 농·축·수산품","category":"food"},{"name":"방앗간총각","tel":"031-384-9218","addr":"경기도 안양시 동안구 관양동 1405-14번지","indutype":"음료식품 - 기타음료식품","category":"food"}]},{"lat":"37.404748001","long":"126.95719583","imageIndex":7,"items":[{"name":"건일상사","tel":"031-385-6167","addr":"경기도 안양시 동안구 관양동 1399번지","indutype":"건강식품 - 기타건강식품","category":"food"}]},{"lat":"37.400001827","long":"126.96311664","imageIndex":7,"items":[{"name":"고기더샵","tel":"031-426-3676","addr":"경기도 안양시 동안구 관양동 1815번지 평촌더샵센트럴시티","indutype":"음료식품 - 정육점","category":"food"}]},{"lat":"37.399640902","long":"126.96159218","imageIndex":7,"items":[{"name":"공 Bread&Roll","tel":"02-1577-0000","addr":"경기도 안양시 동안구 관양동 1123-1번지","indutype":"음료식품 - 제과점","category":"food"}]},{"lat":"37.398384332","long":"126.97922205","imageIndex":7,"items":[{"name":"공씨네과일","tel":"","addr":"경기도 안양시 동안구 관양동 1510-1번지","indutype":"음료식품 - 농·축·수산품","category":"food"},{"name":"베이크수베이커리&스튜디오","tel":"","addr":"경기도 안양시 동안구 관양동 1510-1번지","indutype":"음료식품 - 제과점","category":"food"},{"name":"설아아이스크림 인덕원점","tel":"031-530-5721","addr":"경기도 안양시 동안구 관양동 1510-1번지","indutype":"음료식품 - 기타음료식품","category":"food"},{"name":"우리동네과일가게","tel":"031-421-5506","addr":"경기도 안양시 동안구 관양동 1510-1번지 인덕원마을삼성아파트","indutype":"음료식품 - 농·축·수산품","category":"food"},{"name":"착한정육점","tel":"031-423-0042","addr":"경기도 안양시 동안구 관양동 1510-1번지","indutype":"음료식품 - 정육점","category":"food"}]},{"lat":"37.399827853","long":"126.95556123","imageIndex":7,"items":[{"name":"과일나라","tel":"031-386-8667","addr":"경기도 안양시 동안구 관양동 1586-5번지 한가람삼성아파트","indutype":"음료식품 - 농·축·수산품","category":"food"},{"name":"삼성아파트정육점","tel":"031-384-8555","addr":"경기도 안양시 동안구 관양동 1586-5번지","indutype":"음료식품 - 정육점","category":"food"},{"name":"우리농산물","tel":"031-387-0616","addr":"경기도 안양시 동안구 관양동 1586-5번지","indutype":"음료식품 - 농·축·수산품","category":"food"}]},{"lat":"37.405801243","long":"126.95483461","imageIndex":7,"items":[{"name":"과일나라","tel":"031-382-9400","addr":"경기도 안양시 동안구 관양동 1391-32번지","indutype":"음료식품 - 농·축·수산품","category":"food"}]},{"lat":"37.404973844","long":"126.95875433","imageIndex":7,"items":[{"name":"과일명가","tel":"031-384-7005","addr":"경기도 안양시 동안구 관양동 1404-11번지","indutype":"음료식품 - 농·축·수산품","category":"food"}]},{"lat":"37.405162891","long":"126.95831374","imageIndex":7,"items":[{"name":"관양건강원","tel":"031-381-2488","addr":"경기도 안양시 동안구 관양동 1404-5번지","indutype":"건강식품 - 기타건강식품","category":"food"},{"name":"두부사랑","tel":"031-388-2939","addr":"경기도 안양시 동안구 관양동 1404-5번지","indutype":"음료식품 - 기타음료식품","category":"food"}]},{"lat":"37.408497265","long":"126.96006249","imageIndex":7,"items":[{"name":"관양고등학교매점","tel":"031-420-9440","addr":"경기도 안양시 동안구 관양동 523-4번지","indutype":"음료식품 - 기타음료식품","category":"food"}]},{"lat":"37.405054872","long":"126.95858487","imageIndex":7,"items":[{"name":"관양반찬","tel":"031-386-7761","addr":"경기도 안양시 동안구 관양동 1404-9번지","indutype":"음료식품 - 기타음료식품","category":"food"},{"name":"승일두부","tel":"031-387-7785","addr":"경기도 안양시 동안구 관양동 1404-9번지","indutype":"음료식품 - 기타음료식품","category":"food"}]},{"lat":"37.405918064","long":"126.9540778","imageIndex":7,"items":[{"name":"관양유통","tel":"","addr":"경기도 안양시 동안구 관양동 1375-26번지 성실빌라","indutype":"음료식품 - 기타음료식품","category":"food"}]},{"lat":"37.405441842","long":"126.95736483","imageIndex":7,"items":[{"name":"관양축산물 직거래센타","tel":"031-388-9919","addr":"경기도 안양시 동안구 관양동 1397-8번지","indutype":"음료식품 - 정육점","category":"food"},{"name":"종로복떡집","tel":"031-384-6668","addr":"경기도 안양시 동안구 관양동 1397-8번지","indutype":"음료식품 - 제과점","category":"food"}]},{"lat":"37.410326185","long":"126.95972259","imageIndex":7,"items":[{"name":"관양포도토마토허브농장","tel":"031-384-9477","addr":"경기도 안양시 동안구 관양동 646번지","indutype":"음료식품 - 농·축·수산품","category":"food"}]},{"lat":"37.404911503","long":"126.9607535","imageIndex":7,"items":[{"name":"금산인삼건강원","tel":"031-426-6079","addr":"경기도 안양시 동안구 관양동 1420-11번지","indutype":"건강식품 - 홍삼제품","category":"food"}]},{"lat":"37.40024875","long":"126.97608178","imageIndex":7,"items":[{"name":"기분좋은 헬스케어","tel":"031-816-7575","addr":"경기도 안양시 동안구 관양동 1502-6번지","indutype":"건강식품 - 기타건강식품","category":"food"},{"name":"엔젤프로젝트(ANGEL PROJECT)","tel":"031-4129-0156","addr":"경기도 안양시 동안구 관양동 1502-6번지","indutype":"건강식품 - 기타건강식품","category":"food"}]},{"lat":"37.407694606","long":"126.95800727","imageIndex":7,"items":[{"name":"김정문알로에관양점","tel":"031-384-3747","addr":"경기도 안양시 동안구 관양동 1396번지 현대아파트","indutype":"건강식품 - 기타건강식품","category":"food"},{"name":"한양","tel":"031-384-1308","addr":"경기도 안양시 동안구 관양동 1396번지 현대아파트","indutype":"음료식품 - 정육점","category":"food"},{"name":"현대 떡집","tel":"031-384-7159","addr":"경기도 안양시 동안구 관양동 1396번지 현대아파트","indutype":"음료식품 - 제과점","category":"food"}]},{"lat":"37.404219774","long":"126.9669545","imageIndex":7,"items":[{"name":"나눔은하수농원","tel":"02-888-1223","addr":"경기도 안양시 동안구 관양동 1465-4번지","indutype":"음료식품 - 농·축·수산품","category":"food"}]},{"lat":"37.40427837","long":"126.95441769","imageIndex":7,"items":[{"name":"나일종합유통","tel":"031-386-0118","addr":"경기도 안양시 동안구 관양동 1380-1번지","indutype":"음료식품 - 농·축·수산품","category":"food"}]},{"lat":"37.404388692","long":"126.9601213","imageIndex":7,"items":[{"name":"낙원떡집","tel":"031-381-0757","addr":"경기도 안양시 동안구 관양동 1420번지","indutype":"음료식품 - 제과점","category":"food"}]},{"lat":"37.398086286","long":"126.97589057","imageIndex":7,"items":[{"name":"남부정육점","tel":"031-422-6305","addr":"경기도 안양시 동안구 관양동 1498-6번지","indutype":"음료식품 - 정육점","category":"food"}]},{"lat":"37.405028052","long":"126.95914961","imageIndex":7,"items":[{"name":"노랑머리야채","tel":"","addr":"경기도 안양시 동안구 관양동 1407-9번지","indutype":"음료식품 - 농·축·수산품","category":"food"},{"name":"노랑머리야채.과일","tel":"031-381-7594","addr":"경기도 안양시 동안구 관양동 1407-9번지","indutype":"음료식품 - 농·축·수산품","category":"food"}]},{"lat":"37.405551698","long":"126.96211978","imageIndex":7,"items":[{"name":"농수산물","tel":"","addr":"경기도 안양시 동안구 관양동 1418-26번지 복성주택","indutype":"음료식품 - 농·축·수산품","category":"food"}]},{"lat":"37.394495505","long":"126.95981072","imageIndex":7,"items":[{"name":"농업회사법인 주식회사 연두","tel":"031-393-2017","addr":"경기도 안양시 동안구 관양동 1594번지","indutype":"음료식품 - 농·축·수산품","category":"food"}]},{"lat":"37.404414226","long":"126.95616824","imageIndex":7,"items":[{"name":"농업회사법인 주식회사 형제축산","tel":"031-303-2926","addr":"경기도 안양시 동안구 관양동 1399-8번지","indutype":"음료식품 - 정육점","category":"food"}]},{"lat":"37.398329964","long":"126.97773132","imageIndex":7,"items":[{"name":"농업회사법인홀리스타푸드시스템(주)","tel":"02-1899-7860","addr":"경기도 안양시 동안구 관양동 1507-2번지","indutype":"음료식품 - 농·축·수산품","category":"food"}]},{"lat":"37.40538678","long":"126.95483488","imageIndex":7,"items":[{"name":"농협쌀김치직판장","tel":"031-388-3088","addr":"경기도 안양시 동안구 관양동 1390-8번지","indutype":"음료식품 - 미곡상","category":"food"}]},{"lat":"37.405243887","long":"126.95806521","imageIndex":7,"items":[{"name":"뉴새마을","tel":"031-388-2713","addr":"경기도 안양시 동안구 관양동 1404-1번지","indutype":"음료식품 - 기타음료식품","category":"food"}]},{"lat":"37.40449476","long":"126.95477897","imageIndex":7,"items":[{"name":"뉴월드수산","tel":"","addr":"경기도 안양시 동안구 관양동 1388-18번지","indutype":"음료식품 - 농·축·수산품","category":"food"}]},{"lat":"37.399806873","long":"126.97444435","imageIndex":7,"items":[{"name":"단미","tel":"070-8638-2031","addr":"경기도 안양시 동안구 관양동 1495-1번지","indutype":"음료식품 - 기타음료식품","category":"food"}]},{"lat":"37.403941947","long":"126.9722291","imageIndex":7,"items":[{"name":"달코미시루","tel":"","addr":"경기도 안양시 동안구 관양동 1474-27번지","indutype":"음료식품 - 제과점","category":"food"}]},{"lat":"37.405662661","long":"126.97142648","imageIndex":7,"items":[{"name":"달콤단","tel":"031-422-4527","addr":"경기도 안양시 동안구 관양동 1725-1번지","indutype":"음료식품 - 제과점","category":"food"},{"name":"언니의식빵가게안양동편마을점","tel":"031-422-8092","addr":"경기도 안양시 동안구 관양동 1725-1번지","indutype":"음료식품 - 제과점","category":"food"}]},{"lat":"37.403049627","long":"126.97100968","imageIndex":7,"items":[{"name":"달콤카롱","tel":"","addr":"경기도 안양시 동안구 관양동 1476-7번지","indutype":"음료식품 - 기타음료식품","category":"food"}]},{"lat":"37.405751314","long":"126.96638904","imageIndex":7,"items":[{"name":"달콤한두근거림","tel":"031-427-6047","addr":"경기도 안양시 동안구 관양동 1434-28번지","indutype":"음료식품 - 기타음료식품","category":"food"}]},{"lat":"37.405522055","long":"126.95513974","imageIndex":7,"items":[{"name":"담뱃잎가게","tel":"","addr":"경기도 안양시 동안구 관양동 1390-1번지 서우빌리지","indutype":"음료식품 - 기타음료식품","category":"food"}]},{"lat":"37.401664185","long":"126.98014712","imageIndex":7,"items":[{"name":"대양포도원","tel":"031-423-5219","addr":"경기도 안양시 동안구 관양동 155번지","indutype":"음료식품 - 농·축·수산품","category":"food"}]},{"lat":"37.400969128","long":"126.97425192","imageIndex":7,"items":[{"name":"대중화물류","tel":"031-426-7223","addr":"경기도 안양시 동안구 관양동 1490-33번지","indutype":"음료식품 - 기타음료식품","category":"food"},{"name":"우리콩나물살리기운동본부","tel":"031-424-4303","addr":"경기도 안양시 동안구 관양동 1490-33번지","indutype":"음료식품 - 농·축·수산품","category":"food"}]},{"lat":"37.392919587","long":"126.96220567","imageIndex":7,"items":[{"name":"돌로미티아이스크림점","tel":"031-346-5738","addr":"경기도 안양시 동안구 관양동 1606번지","indutype":"음료식품 - 제과점","category":"food"},{"name":"인디오븐평촌점","tel":"031-381-5255","addr":"경기도 안양시 동안구 관양동 1606번지","indutype":"음료식품 - 제과점","category":"food"}]},{"lat":"37.404469589","long":"126.95959042","imageIndex":7,"items":[{"name":"동안농산","tel":"031-382-8874","addr":"경기도 안양시 동안구 관양동 1406-17번지","indutype":"음료식품 - 농·축·수산품","category":"food"},{"name":"장터축산","tel":"","addr":"경기도 안양시 동안구 관양동 1406-17번지","indutype":"음료식품 - 정육점","category":"food"}]},{"lat":"37.403130239","long":"126.96928163","imageIndex":7,"items":[{"name":"돼지수산","tel":"","addr":"경기도 안양시 동안구 관양동 1469번지 대도아파트","indutype":"음료식품 - 농·축·수산품","category":"food"},{"name":"신한상회","tel":"031-1899-3272","addr":"경기도 안양시 동안구 관양동 1469번지 대도아파트","indutype":"음료식품 - 농·축·수산품","category":"food"}]},{"lat":"37.403361898","long":"126.96111578","imageIndex":7,"items":[{"name":"두배로 정육점","tel":"","addr":"경기도 안양시 동안구 관양동 1450번지","indutype":"음료식품 - 정육점","category":"food"},{"name":"자연주의치아사랑","tel":"031-423-5775","addr":"경기도 안양시 동안구 관양동 1450번지","indutype":"회원제형태 - 건강식품","category":"food"}]},{"lat":"37.394892339","long":"126.96089462","imageIndex":7,"items":[{"name":"디랜드","tel":"","addr":"경기도 안양시 동안구 관양동 1595번지","indutype":"음료식품 - 기타음료식품","category":"food"},{"name":"에스엔팜","tel":"","addr":"경기도 안양시 동안구 관양동 1595번지","indutype":"건강식품 - 기타건강식품","category":"food"}]},{"lat":"37.399252274","long":"126.95830594","imageIndex":7,"items":[{"name":"따뜻한 집밥","tel":"031-381-0309","addr":"경기도 안양시 동안구 관양동 1587-5번지","indutype":"음료식품 - 기타음료식품","category":"food"}]},{"lat":"37.40430749","long":"126.9598164","imageIndex":7,"items":[{"name":"땅스부대찌개 관양시장점","tel":"031-388-8599","addr":"경기도 안양시 동안구 관양동 1406-19번지","indutype":"음료식품 - 기타음료식품","category":"food"},{"name":"맛나 꼬치네","tel":"031-388-3625","addr":"경기도 안양시 동안구 관양동 1406-19번지","indutype":"음료식품 - 기타음료식품","category":"food"},{"name":"임꺽정축산물직판장","tel":"031-384-4761","addr":"경기도 안양시 동안구 관양동 1406-19번지","indutype":"음료식품 - 정육점","category":"food"}]},{"lat":"37.394055599","long":"126.96441846","imageIndex":7,"items":[{"name":"떡보의하루안양동안점","tel":"031-388-4417","addr":"경기도 안양시 동안구 관양동 1608-4번지","indutype":"음료식품 - 제과점","category":"food"},{"name":"비아또","tel":"031-8091-5073","addr":"경기도 안양시 동안구 관양동 1608-4번지","indutype":"음료식품 - 제과점","category":"food"},{"name":"쌀눈쌀현미누룽지평촌역점","tel":"031-422-2880","addr":"경기도 안양시 동안구 관양동 1608-4번지","indutype":"음료식품 - 기타음료식품","category":"food"},{"name":"정민상사","tel":"031-381-9206","addr":"경기도 안양시 동안구 관양동 1608-4번지","indutype":"회원제형태 - 건강식품","category":"food"},{"name":"파워건강케어","tel":"031-388-8596","addr":"경기도 안양시 동안구 관양동 1608-4번지","indutype":"회원제형태 - 건강식품","category":"food"}]},{"lat":"37.404190905","long":"126.96134121","imageIndex":7,"items":[{"name":"떡빵앗간","tel":"031-426-6558","addr":"경기도 안양시 동안구 관양동 1422-13번지","indutype":"음료식품 - 제과점","category":"food"}]},{"lat":"37.406023082","long":"126.9714941","imageIndex":7,"items":[{"name":"또바기 야채과일","tel":"031-1899-3272","addr":"경기도 안양시 동안구 관양동 1725번지","indutype":"음료식품 - 농·축·수산품","category":"food"},{"name":"민앤민","tel":"031-421-0275","addr":"경기도 안양시 동안구 관양동 1725번지","indutype":"건강식품 - 기타건강식품","category":"food"}]},{"lat":"37.399607553","long":"126.970198","imageIndex":7,"items":[{"name":"라코미다","tel":"","addr":"경기도 안양시 동안구 관양동 1802번지","indutype":"음료식품 - 기타음료식품","category":"food"},{"name":"자그담","tel":"","addr":"경기도 안양시 동안구 관양동 1802번지","indutype":"음료식품 - 기타음료식품","category":"food"},{"name":"주식회사 웰빙식자재할인도매총판","tel":"031-424-3534","addr":"경기도 안양시 동안구 관양동 1802번지","indutype":"음료식품 - 기타음료식품","category":"food"}]},{"lat":"37.400522413","long":"126.9575598","imageIndex":7,"items":[{"name":"럭키떡방아간","tel":"031-383-4804","addr":"경기도 안양시 동안구 관양동 1587번지 공작럭키아파트","indutype":"음료식품 - 제과점","category":"food"},{"name":"빵수레과자점","tel":"031-386-8956","addr":"경기도 안양시 동안구 관양동 1587번지 공작럭키아파트","indutype":"음료식품 - 제과점","category":"food"}]},{"lat":"37.405966677","long":"126.96364434","imageIndex":7,"items":[{"name":"로이레","tel":"031-422-5832","addr":"경기도 안양시 동안구 관양동 1426-22번지","indutype":"건강식품 - 기타건강식품","category":"food"}]},{"lat":"37.407247924","long":"126.96956217","imageIndex":7,"items":[{"name":"로즈리에","tel":"031-385-1762","addr":"경기도 안양시 동안구 관양동 1695번지","indutype":"음료식품 - 제과점","category":"food"}]},{"lat":"37.402744155","long":"126.97442065","imageIndex":7,"items":[{"name":"롯데칠성음료평촌점","tel":"","addr":"경기도 안양시 동안구 관양동 1487-19번지","indutype":"음료식품 - 기타음료식품","category":"food"}]},{"lat":"37.407501089","long":"126.97286016","imageIndex":7,"items":[{"name":"리나마카롱","tel":"","addr":"경기도 안양시 동안구 관양동 1711-1번지","indutype":"음료식품 - 기타음료식품","category":"food"}]},{"lat":"37.399169092","long":"126.95306575","imageIndex":7,"items":[{"name":"만나떡집","tel":"031-381-7500","addr":"경기도 안양시 동안구 관양동","indutype":"음료식품 - 제과점","category":"food"},{"name":"허니과일","tel":"031-383-9231","addr":"경기도 안양시 동안구 관양동 1586번지","indutype":"음료식품 - 농·축·수산품","category":"food"}]},{"lat":"37.404361497","long":"126.95966954","imageIndex":7,"items":[{"name":"만나반찬","tel":"031-384-2607","addr":"경기도 안양시 동안구 관양동 1406-18번지","indutype":"음료식품 - 기타음료식품","category":"food"}]},{"lat":"37.396945099","long":"126.95676013","imageIndex":7,"items":[{"name":"만춘당건강원","tel":"031-383-5435","addr":"경기도 안양시 동안구 관양동 1589-1번지","indutype":"건강식품 - 기타건강식품","category":"food"}]},{"lat":"37.405747632","long":"126.95595281","imageIndex":7,"items":[{"name":"맘앤팜","tel":"031-387-7707","addr":"경기도 안양시 동안구 관양동 1391-20번지","indutype":"음료식품 - 정육점","category":"food"},{"name":"범계장수원","tel":"031-388-2161","addr":"경기도 안양시 동안구 관양동 1391-20번지","indutype":"건강식품 - 기타건강식품","category":"food"}]},{"lat":"37.405441693","long":"126.95698081","imageIndex":7,"items":[{"name":"매일소들어오는집","tel":"031-385-6363","addr":"경기도 안양시 동안구 관양동 1397-7번지","indutype":"음료식품 - 정육점","category":"food"}]},{"lat":"37.405469199","long":"126.9582232","imageIndex":7,"items":[{"name":"맷돌수제손두부","tel":"","addr":"경기도 안양시 동안구 관양동 1408-37번지","indutype":"음료식품 - 기타음료식품","category":"food"},{"name":"생생과일통","tel":"","addr":"경기도 안양시 동안구 관양동 1408-37번지","indutype":"음료식품 - 농·축·수산품","category":"food"}]},{"lat":"37.40388328","long":"126.95784013","imageIndex":7,"items":[{"name":"모던블랙","tel":"","addr":"경기도 안양시 동안구 관양동 1402-5번지","indutype":"음료식품 - 기타음료식품","category":"food"}]},{"lat":"37.403716091","long":"126.96998162","imageIndex":7,"items":[{"name":"모리화(molihua)","tel":"","addr":"경기도 안양시 동안구 관양동 1472-14번지","indutype":"음료식품 - 제과점","category":"food"}]},{"lat":"37.400554481","long":"126.97350668","imageIndex":7,"items":[{"name":"미가원김치","tel":"031-423-0444","addr":"경기도 안양시 동안구 관양동 1492번지","indutype":"음료식품 - 기타음료식품","category":"food"}]},{"lat":"37.399969036","long":"126.97436523","imageIndex":7,"items":[{"name":"미나티인덕원점","tel":"070-7769-1126","addr":"경기도 안양시 동안구 관양동 1491-39번지","indutype":"음료식품 - 기타음료식품","category":"food"}]},{"lat":"37.396250512","long":"126.95472778","imageIndex":7,"items":[{"name":"바다마을","tel":"","addr":"경기도 안양시 동안구 관양동 1589번지","indutype":"음료식품 - 농·축·수산품","category":"food"},{"name":"연세가정건강","tel":"031-381-7582","addr":"경기도 안양시 동안구 관양동 1589번지","indutype":"건강식품 - 기타건강식품","category":"food"}]},{"lat":"37.400609174","long":"126.97617201","imageIndex":7,"items":[{"name":"배스킨라빈스인덕원점","tel":"031-424-9702","addr":"경기도 안양시 동안구 관양동 1502-4번지","indutype":"음료식품 - 제과점","category":"food"}]},{"lat":"37.392859552","long":"126.97227878","imageIndex":7,"items":[{"name":"보인바이오텍","tel":"070-8785-4790","addr":"경기도 안양시 동안구 관양동 954-6번지","indutype":"음료식품 - 기타음료식품","category":"food"},{"name":"주식회사 진농헬스","tel":"031-345-0071","addr":"경기도 안양시 동안구 관양동 954-6번지","indutype":"음료식품 - 기타음료식품","category":"food"}]},{"lat":"37.402554775","long":"126.97373178","imageIndex":7,"items":[{"name":"부광정육점","tel":"031-424-7652","addr":"경기도 안양시 동안구 관양동 1487-27번지","indutype":"음료식품 - 정육점","category":"food"}]},{"lat":"37.404356116","long":"126.97111078","imageIndex":7,"items":[{"name":"부림건강원","tel":"031-425-7239","addr":"경기도 안양시 동안구 관양동","indutype":"건강식품 - 기타건강식품","category":"food"}]},{"lat":"37.404640689","long":"126.95934184","imageIndex":7,"items":[{"name":"부흥축산","tel":"031-382-4628","addr":"경기도 안양시 동안구 관양동 1405-16번지","indutype":"음료식품 - 정육점","category":"food"},{"name":"우리총각네정육점","tel":"031-381-7272","addr":"경기도 안양시 동안구 관양동 1405-16번지","indutype":"음료식품 - 정육점","category":"food"}]},{"lat":"37.404360719","long":"126.95759137","imageIndex":7,"items":[{"name":"블록베이커리 관양점","tel":"031-384-0456","addr":"경기도 안양시 동안구 관양동 1403-5번지","indutype":"음료식품 - 제과점","category":"food"}]},{"lat":"37.40294239","long":"126.97447705","imageIndex":7,"items":[{"name":"비알마트","tel":"031-469-8807","addr":"경기도 안양시 동안구 관양동 1487-20번지","indutype":"건강식품 - 기타건강식품","category":"food"},{"name":"참다한흑홍삼","tel":"031-384-5050","addr":"경기도 안양시 동안구 관양동 1487-20번지","indutype":"건강식품 - 홍삼제품","category":"food"}]},{"lat":"37.398217221","long":"126.9613445","imageIndex":7,"items":[{"name":"비에스트레이딩","tel":"070-8251-1243","addr":"경기도 안양시 동안구 관양동 1588-6번지","indutype":"음료식품 - 기타음료식품","category":"food"}]},{"lat":"37.404918109","long":"126.95447375","imageIndex":7,"items":[{"name":"비타민농민","tel":"031-382-5023","addr":"경기도 안양시 동안구 관양동 1378-1번지","indutype":"음료식품 - 농·축·수산품","category":"food"}]},{"lat":"37.405605534","long":"126.96147596","imageIndex":7,"items":[{"name":"비타오아시스","tel":"031-373-7549","addr":"경기도 안양시 동안구 관양동 1418번지","indutype":"건강식품 - 기타건강식품","category":"food"}]},{"lat":"37.398717332","long":"126.97742626","imageIndex":7,"items":[{"name":"빠띠쉐과자점","tel":"031-423-7285","addr":"경기도 안양시 동안구 관양동 1506-15번지","indutype":"음료식품 - 제과점","category":"food"}]},{"lat":"37.405522501","long":"126.95625791","imageIndex":7,"items":[{"name":"뻥&누릉지","tel":"031-381-7673","addr":"경기도 안양시 동안구 관양동 1397번지","indutype":"음료식품 - 기타음료식품","category":"food"}]},{"lat":"37.403721185","long":"126.95806611","imageIndex":7,"items":[{"name":"산스튜디오","tel":"","addr":"경기도 안양시 동안구 관양동 1406-2번지","indutype":"음료식품 - 제과점","category":"food"},{"name":"안젤라디저트","tel":"","addr":"경기도 안양시 동안구 관양동 1406-2번지","indutype":"음료식품 - 기타음료식품","category":"food"}]},{"lat":"37.405495337","long":"126.95591909","imageIndex":7,"items":[{"name":"새소망방앗간","tel":"031-388-5845","addr":"경기도 안양시 동안구 관양동 1390-3번지","indutype":"음료식품 - 기타음료식품","category":"food"},{"name":"축산물도매시장정육","tel":"031-388-0116","addr":"경기도 안양시 동안구 관양동 1390-3번지","indutype":"음료식품 - 정육점","category":"food"}]},{"lat":"37.399276087","long":"126.97803593","imageIndex":7,"items":[{"name":"석천건강원","tel":"031-421-2550","addr":"경기도 안양시 동안구 관양동 1511-9번지","indutype":"음료식품 - 기타음료식품","category":"food"}]},{"lat":"37.392886948","long":"126.97372423","imageIndex":7,"items":[{"name":"설다원","tel":"070-4617-1119","addr":"경기도 안양시 동안구 관양동 954-1번지","indutype":"음료식품 - 기타음료식품","category":"food"},{"name":"주식회사 제이비푸드","tel":"031-8069-5330","addr":"경기도 안양시 동안구 관양동 954-1번지","indutype":"음료식품 - 농·축·수산품","category":"food"},{"name":"주식회사 제이비푸드","tel":"031-8069-5330","addr":"경기도 안양시 동안구 관양동 954-1번지","indutype":"음료식품 - 농·축·수산품","category":"food"}]},{"lat":"37.405829594","long":"126.95820039","imageIndex":7,"items":[{"name":"설아 아이스크림 할인점","tel":"031-381-7441","addr":"경기도 안양시 동안구 관양동 1408-3번지","indutype":"음료식품 - 기타음료식품","category":"food"}]},{"lat":"37.400689666","long":"126.97364215","imageIndex":7,"items":[{"name":"세일농산","tel":"031-422-2273","addr":"경기도 안양시 동안구 관양동 1491-63번지","indutype":"음료식품 - 농·축·수산품","category":"food"}]},{"lat":"37.407335381","long":"126.96122652","imageIndex":7,"items":[{"name":"세종 수산","tel":"","addr":"경기도 안양시 동안구 관양동 1413-13번지 해오름빌","indutype":"음료식품 - 농·축·수산품","category":"food"}]},{"lat":"37.410753847","long":"126.97334456","imageIndex":7,"items":[{"name":"솔빛푸드","tel":"031-8033-9707","addr":"경기도 안양시 동안구 관양동 1657번지 동편마을2단지","indutype":"음료식품 - 기타음료식품","category":"food"}]},{"lat":"37.404278291","long":"126.95422569","imageIndex":7,"items":[{"name":"수촌건강원","tel":"031-381-2336","addr":"경기도 안양시 동안구 관양동 1380번지","indutype":"건강식품 - 기타건강식품","category":"food"}]},{"lat":"37.404855163","long":"126.95477874","imageIndex":7,"items":[{"name":"수촌옛날누룽지","tel":"031-340-0222","addr":"경기도 안양시 동안구 관양동 1388번지","indutype":"음료식품 - 기타음료식품","category":"food"},{"name":"정겨운올래점핑다이어트","tel":"031-383-7566","addr":"경기도 안양시 동안구 관양동 1388번지","indutype":"건강식품 - 기타건강식품","category":"food"}]},{"lat":"37.402830947","long":"126.96297961","imageIndex":7,"items":[{"name":"신가네 정육점","tel":"031-422-6989","addr":"경기도 안양시 동안구 관양동","indutype":"음료식품 - 정육점","category":"food"}]},{"lat":"37.394252916","long":"126.96173065","imageIndex":7,"items":[{"name":"신라방아간","tel":"031-381-0251","addr":"경기도 안양시 동안구 관양동 1599-1번지","indutype":"음료식품 - 제과점","category":"food"}]},{"lat":"37.39824905","long":"126.97857836","imageIndex":7,"items":[{"name":"신성 씨푸드","tel":"","addr":"경기도 안양시 동안구 관양동 1510-1번지 인덕원마을삼성아파트","indutype":"음료식품 - 기타음료식품","category":"food"}]},{"lat":"37.405471883","long":"126.96600516","imageIndex":7,"items":[{"name":"신제일정육점","tel":"031-422-3193","addr":"경기도 안양시 동안구 관양동 1433번지","indutype":"음료식품 - 정육점","category":"food"}]},{"lat":"37.405163128","long":"126.95894623","imageIndex":7,"items":[{"name":"싱싱청과","tel":"031-383-9917","addr":"경기도 안양시 동안구 관양동 1408-26번지","indutype":"음료식품 - 농·축·수산품","category":"food"},{"name":"청우축산물직거래장터","tel":"031-388-0338","addr":"경기도 안양시 동안구 관양동 1408-26번지","indutype":"음료식품 - 정육점","category":"food"}]},{"lat":"37.403026154","long":"126.95487027","imageIndex":7,"items":[{"name":"아이스크림 할인점","tel":"","addr":"경기도 안양시 동안구 관양동 1384-27번지","indutype":"음료식품 - 기타음료식품","category":"food"}]},{"lat":"37.40602324","long":"126.97209271","imageIndex":7,"items":[{"name":"아티스츠커피","tel":"","addr":"경기도 안양시 동안구 관양동 1724번지","indutype":"음료식품 - 기타음료식품","category":"food"}]},{"lat":"37.398725597","long":"126.97417371","imageIndex":7,"items":[{"name":"안양수산","tel":"","addr":"경기도 안양시 동안구 관양동 1495-38번지","indutype":"음료식품 - 농·축·수산품","category":"food"}]},{"lat":"37.408437865","long":"126.97180935","imageIndex":7,"items":[{"name":"알찬","tel":"031-421-1531","addr":"경기도 안양시 동안구 관양동 1706-6번지","indutype":"음료식품 - 기타음료식품","category":"food"}]},{"lat":"37.402752865","long":"126.97320088","imageIndex":7,"items":[{"name":"약달집","tel":"031-422-6365","addr":"경기도 안양시 동안구 관양동 1481-7번지","indutype":"건강식품 - 기타건강식품","category":"food"}]},{"lat":"37.405306881","long":"126.95786187","imageIndex":7,"items":[{"name":"양정례반찬전문점","tel":"031-387-7167","addr":"경기도 안양시 동안구 관양동 1404번지","indutype":"음료식품 - 기타음료식품","category":"food"},{"name":"우리농수산","tel":"031-387-8778","addr":"경기도 안양시 동안구 관양동 1404번지","indutype":"음료식품 - 농·축·수산품","category":"food"},{"name":"인기떡방","tel":"031-3844-4619","addr":"경기도 안양시 동안구 관양동 1404번지","indutype":"음료식품 - 제과점","category":"food"}]},{"lat":"37.403552339","long":"126.96475243","imageIndex":7,"items":[{"name":"에그모닝","tel":"031-252-3007","addr":"경기도 안양시 동안구 관양동 1460번지","indutype":"음료식품 - 농·축·수산품","category":"food"}]},{"lat":"37.402661785","long":"126.96953031","imageIndex":7,"items":[{"name":"연세우유동안양대리점","tel":"031-424-0246","addr":"경기도 안양시 동안구 관양동 1470번지","indutype":"음료식품 - 기타음료식품","category":"food"}]},{"lat":"37.403137911","long":"126.96486559","imageIndex":7,"items":[{"name":"영동정육점","tel":"031-422-9368","addr":"경기도 안양시 동안구 관양동 1461번지","indutype":"음료식품 - 정육점","category":"food"}]},{"lat":"37.397465258","long":"126.97899647","imageIndex":7,"items":[{"name":"영자네","tel":"","addr":"경기도 안양시 동안구 관양동 210-4번지 영광주택","indutype":"음료식품 - 농·축·수산품","category":"food"}]},{"lat":"37.407942663","long":"126.97317624","imageIndex":7,"items":[{"name":"오즈룸","tel":"031-341-6906","addr":"경기도 안양시 동안구 관양동 1710-3번지","indutype":"음료식품 - 기타음료식품","category":"food"}]},{"lat":"37.396028875","long":"126.96462073","imageIndex":7,"items":[{"name":"옥희주류","tel":"070-8292-3925","addr":"경기도 안양시 동안구 관양동 1746번지","indutype":"음료식품 - 주류 판매점","category":"food"}]},{"lat":"37.408771446","long":"126.97261116","imageIndex":7,"items":[{"name":"용현제과","tel":"070-4151-1625","addr":"경기도 안양시 동안구 관양동 1707-11번지","indutype":"음료식품 - 제과점","category":"food"}]},{"lat":"37.403389028","long":"126.96139812","imageIndex":7,"items":[{"name":"우리마트정육","tel":"","addr":"경기도 안양시 동안구 관양동 1450-1번지 코오롱동산타워","indutype":"음료식품 - 정육점","category":"food"}]},{"lat":"37.40475077","long":"126.96503419","imageIndex":7,"items":[{"name":"우리소고깃간","tel":"031-421-3434","addr":"경기도 안양시 동안구 관양동 1432-11번지","indutype":"음료식품 - 정육점","category":"food"}]},{"lat":"37.397022797","long":"126.9746148","imageIndex":7,"items":[{"name":"위젠","tel":"031-1522-0793","addr":"경기도 안양시 동안구 관양동 224-5번지","indutype":"음료식품 - 기타음료식품","category":"food"}]},{"lat":"37.395887171","long":"126.97316971","imageIndex":7,"items":[{"name":"위플러스나우병원점","tel":"","addr":"경기도 안양시 동안구 관양동 908-10번지","indutype":"음료식품 - 기타음료식품","category":"food"}]},{"lat":"37.403218316","long":"126.96278741","imageIndex":7,"items":[{"name":"이가네정육","tel":"031-421-6392","addr":"경기도 안양시 동안구 관양동 1452-6번지","indutype":"음료식품 - 정육점","category":"food"}]},{"lat":"37.402999315","long":"126.95534464","imageIndex":7,"items":[{"name":"이든네이처평촌지사","tel":"031-382-8599","addr":"경기도 안양시 동안구 관양동 1384-24번지","indutype":"건강식품 - 기타건강식품","category":"food"}]},{"lat":"37.399610073","long":"126.98114159","imageIndex":7,"items":[{"name":"인덕원고등학교매점","tel":"031-424-3096","addr":"경기도 안양시 동안구 관양동 193-3번지","indutype":"음료식품 - 기타음료식품","category":"food"}]},{"lat":"37.401780049","long":"126.97430808","imageIndex":7,"items":[{"name":"인덕정육점","tel":"031-424-6829","addr":"경기도 안양시 동안구 관양동 1489-32번지","indutype":"음료식품 - 정육점","category":"food"}]},{"lat":"37.400716634","long":"126.97339368","imageIndex":7,"items":[{"name":"일품종합유통","tel":"031-388-0098","addr":"경기도 안양시 동안구 관양동 1483-44번지","indutype":"음료식품 - 미곡상","category":"food"}]},{"lat":"37.404692848","long":"126.95445131","imageIndex":7,"items":[{"name":"장금이반찬","tel":"031-384-0400","addr":"경기도 안양시 동안구 관양동 1378-4번지","indutype":"음료식품 - 기타음료식품","category":"food"}]},{"lat":"37.405550217","long":"126.95803114","imageIndex":7,"items":[{"name":"장독대 관양시장점","tel":"","addr":"경기도 안양시 동안구 관양동 1408번지","indutype":"음료식품 - 기타음료식품","category":"food"}]},{"lat":"37.401446507","long":"126.97361927","imageIndex":7,"items":[{"name":"장수건강원","tel":"031-425-1123","addr":"경기도 안양시 동안구 관양동 1484-12번지","indutype":"건강식품 - 기타건강식품","category":"food"}]},{"lat":"37.404416541","long":"126.96244794","imageIndex":7,"items":[{"name":"정관장 관양점","tel":"031-425-2303","addr":"경기도 안양시 동안구 관양동 1422-9번지","indutype":"건강식품 - 홍삼제품","category":"food"}]},{"lat":"37.393217238","long":"126.96314281","imageIndex":7,"items":[{"name":"정관장 평촌역점","tel":"031-386-2304","addr":"경기도 안양시 동안구 관양동 1607번지","indutype":"건강식품 - 홍삼제품","category":"food"},{"name":"한스케익평촌점","tel":"031-383-0455","addr":"경기도 안양시 동안구 관양동 1607번지","indutype":"음료식품 - 제과점","category":"food"},{"name":"훼미리스넥","tel":"031-387-2500","addr":"경기도 안양시 동안구 관양동 1607번지","indutype":"음료식품 - 기타음료식품","category":"food"}]},{"lat":"37.399888837","long":"126.97834066","imageIndex":7,"items":[{"name":"정관장인덕원사거리점","tel":"031-422-2303","addr":"경기도 안양시 동안구 관양동 1511번지","indutype":"건강식품 - 홍삼제품","category":"food"},{"name":"정관장인덕원사거리점","tel":"031-422-2303","addr":"경기도 안양시 동안구 관양동 1511번지","indutype":"건강식품 - 홍삼제품","category":"food"}]},{"lat":"37.396191331","long":"126.96547893","imageIndex":7,"items":[{"name":"정다함반찬전문점","tel":"031-425-6800","addr":"경기도 안양시 동안구 관양동 1746-2번지","indutype":"음료식품 - 기타음료식품","category":"food"},{"name":"평촌 망개떡 꽃닮","tel":"031-442-7197","addr":"경기도 안양시 동안구 관양동 1746-2번지","indutype":"음료식품 - 기타음료식품","category":"food"}]},{"lat":"37.402776303","long":"126.96128552","imageIndex":7,"items":[{"name":"제이에스미트","tel":"031-421-3816","addr":"경기도 안양시 동안구 관양동 1450-11번지","indutype":"음료식품 - 정육점","category":"food"}]},{"lat":"37.405716967","long":"126.97236391","imageIndex":7,"items":[{"name":"좋은아침페스츄리동편마을점","tel":"031-423-6300","addr":"경기도 안양시 동안구 관양동 1724-2번지","indutype":"음료식품 - 제과점","category":"food"}]},{"lat":"37.399474338","long":"126.97817139","imageIndex":7,"items":[{"name":"주식회사 대보무역","tel":"031-425-5995","addr":"경기도 안양시 동안구 관양동 1511-10번지 동진위츠빌","indutype":"음료식품 - 농·축·수산품","category":"food"}]},{"lat":"37.397552244","long":"126.96673182","imageIndex":7,"items":[{"name":"주식회사 메가코스바이오","tel":"031-689-5584","addr":"경기도 안양시 동안구 관양동 1740-5번지","indutype":"건강식품 - 기타건강식품","category":"food"}]},{"lat":"37.396815041","long":"126.97250304","imageIndex":7,"items":[{"name":"주식회사 백아바이오티(BAEK-A Bioty CO.,L","tel":"","addr":"경기도 안양시 동안구 관양동 906-4번지","indutype":"건강식품 - 기타건강식품","category":"food"}]},{"lat":"37.392107493","long":"126.95889739","imageIndex":7,"items":[{"name":"주식회사 씨티팜테크","tel":"031-384-4984","addr":"경기도 안양시 동안구 관양동 1591-9번지","indutype":"음료식품 - 농·축·수산품","category":"food"}]},{"lat":"37.407554352","long":"126.96986699","imageIndex":7,"items":[{"name":"주식회사 에프디바이오팜","tel":"031-397-3427","addr":"경기도 안양시 동안구 관양동 1694번지","indutype":"건강식품 - 기타건강식품","category":"food"}]},{"lat":"37.405445709","long":"126.9688627","imageIndex":7,"items":[{"name":"주식회사 이안홈케어뉴트리션","tel":"031-424-3346","addr":"경기도 안양시 동안구 관양동 1437-8번지","indutype":"건강식품 - 기타건강식품","category":"food"}]},{"lat":"37.400220264","long":"126.97028808","imageIndex":7,"items":[{"name":"주식회사 트레아미고","tel":"031-426-8701","addr":"경기도 안양시 동안구 관양동 823번지","indutype":"음료식품 - 기타음료식품","category":"food"}]},{"lat":"37.401744234","long":"126.97525679","imageIndex":7,"items":[{"name":"주식회사 휴먼해피니스허브","tel":"031-426-7972","addr":"경기도 안양시 동안구 관양동 1489-9번지","indutype":"음료식품 - 기타음료식품","category":"food"}]},{"lat":"37.401417847","long":"126.96764477","imageIndex":7,"items":[{"name":"주식회사아베","tel":"031-420-5693","addr":"경기도 안양시 동안구 관양동 799번지","indutype":"음료식품 - 기타음료식품","category":"food"}]},{"lat":"37.405548975","long":"126.95486866","imageIndex":7,"items":[{"name":"주영수산","tel":"031-405-4404","addr":"경기도 안양시 동안구 관양동 1390번지","indutype":"음료식품 - 농·축·수산품","category":"food"}]},{"lat":"37.406192646","long":"126.96586927","imageIndex":7,"items":[{"name":"중촌방아간","tel":"031-423-2522","addr":"경기도 안양시 동안구 관양동 1434-14번지","indutype":"음료식품 - 기타음료식품","category":"food"}]},{"lat":"37.404107294","long":"126.95470016","imageIndex":7,"items":[{"name":"진수성찬","tel":"031-387-7167","addr":"경기도 안양시 동안구 관양동 1387-21번지","indutype":"음료식품 - 기타음료식품","category":"food"}]},{"lat":"37.400942823","long":"126.97742551","imageIndex":7,"items":[{"name":"진이찬방","tel":"","addr":"경기도 안양시 동안구 관양동 1505-2번지","indutype":"음료식품 - 기타음료식품","category":"food"}]},{"lat":"37.399806849","long":"126.97434271","imageIndex":7,"items":[{"name":"착한 베이커리","tel":"","addr":"경기도 안양시 동안구 관양동 1495번지","indutype":"음료식품 - 제과점","category":"food"}]},{"lat":"37.398167722","long":"126.97744904","imageIndex":7,"items":[{"name":"참숯골정육점","tel":"031-423-4139","addr":"경기도 안양시 동안구 관양동 1507-20번지","indutype":"음료식품 - 정육점","category":"food"}]},{"lat":"37.397180078","long":"126.95863468","imageIndex":7,"items":[{"name":"참좋은푸드","tel":"031-1544-4462","addr":"경기도 안양시 동안구 관양동 1588번지 공작부영아파트","indutype":"음료식품 - 기타음료식품","category":"food"}]},{"lat":"37.399968825","long":"126.97350691","imageIndex":7,"items":[{"name":"창희무역","tel":"031-387-9669","addr":"경기도 안양시 동안구 관양동 1492-17번지","indutype":"음료식품 - 농·축·수산품","category":"food"}]},{"lat":"37.407225072","long":"126.95542103","imageIndex":7,"items":[{"name":"청송","tel":"","addr":"경기도 안양시 동안구 관양동 1393-13번지 서초빌라5차","indutype":"음료식품 - 농·축·수산품","category":"food"}]},{"lat":"37.40363431","long":"126.96758726","imageIndex":7,"items":[{"name":"총각네농산","tel":"031-478-5253","addr":"경기도 안양시 동안구 관양동 1464-5번지 가원빌딩","indutype":"음료식품 - 미곡상","category":"food"}]},{"lat":"37.404251455","long":"126.95470007","imageIndex":7,"items":[{"name":"친절축산","tel":"031-382-9009","addr":"경기도 안양시 동안구 관양동 1387번지","indutype":"음료식품 - 정육점","category":"food"}]},{"lat":"37.398023597","long":"126.97761849","imageIndex":7,"items":[{"name":"케이에스위드","tel":"031-423-6816","addr":"경기도 안양시 동안구 관양동 1507-16번지","indutype":"음료식품 - 기타음료식품","category":"food"}]},{"lat":"37.408167949","long":"126.97331169","imageIndex":7,"items":[{"name":"코코크로와상 (KO.KO.CROISSANT)","tel":"031-416-4189","addr":"경기도 안양시 동안구 관양동 1710-1번지","indutype":"음료식품 - 제과점","category":"food"}]},{"lat":"37.40524362","long":"126.95736495","imageIndex":7,"items":[{"name":"코코호도관양점","tel":"031-476-9889","addr":"경기도 안양시 동안구 관양동 1397-9번지","indutype":"음료식품 - 제과점","category":"food"}]},{"lat":"37.404883723","long":"126.95869791","imageIndex":7,"items":[{"name":"태평선식","tel":"031-384-3622","addr":"경기도 안양시 동안구 관양동 1404-12번지","indutype":"건강식품 - 기타건강식품","category":"food"}]},{"lat":"37.403300556","long":"126.96633376","imageIndex":7,"items":[{"name":"톡앤핏","tel":"031-388-1966","addr":"경기도 안양시 동안구 관양동 1463번지","indutype":"건강식품 - 기타건강식품","category":"food"}]},{"lat":"37.393613553","long":"126.96275864","imageIndex":7,"items":[{"name":"파타야","tel":"031-388-8829","addr":"경기도 안양시 동안구 관양동 1604-1번지","indutype":"음료식품 - 기타음료식품","category":"food"}]},{"lat":"37.40680721","long":"126.97245382","imageIndex":7,"items":[{"name":"포근케이크","tel":"","addr":"경기도 안양시 동안구 관양동 1711-8번지","indutype":"음료식품 - 제과점","category":"food"}]},{"lat":"37.405190099","long":"126.95878809","imageIndex":7,"items":[{"name":"풍년방앗간","tel":"031-385-0330","addr":"경기도 안양시 동안구 관양동 1408-27번지","indutype":"음료식품 - 기타음료식품","category":"food"}]},{"lat":"37.404910386","long":"126.95772657","imageIndex":7,"items":[{"name":"하림건강원","tel":"031-384-0201","addr":"경기도 안양시 동안구 관양동 1403번지","indutype":"건강식품 - 기타건강식품","category":"food"}]},{"lat":"37.398942205","long":"126.97572085","imageIndex":7,"items":[{"name":"한돈만정육점","tel":"031-422-6292","addr":"경기도 안양시 동안구 관양동 1499번지","indutype":"음료식품 - 정육점","category":"food"}]},{"lat":"37.40513813","long":"126.9648081","imageIndex":7,"items":[{"name":"한빛 야채","tel":"","addr":"경기도 안양시 동안구 관양동 1431-19번지 현진리더스빌","indutype":"음료식품 - 농·축·수산품","category":"food"}]},{"lat":"37.401275335","long":"126.9736984","imageIndex":7,"items":[{"name":"한양떡집","tel":"031-422-5718","addr":"경기도 안양시 동안구 관양동 1484-16번지","indutype":"음료식품 - 제과점","category":"food"}]},{"lat":"37.404387066","long":"126.95584072","imageIndex":7,"items":[{"name":"한우와우리돈","tel":"031-388-5663","addr":"경기도 안양시 동안구 관양동 1388-12번지 청일빌라","indutype":"음료식품 - 정육점","category":"food"}]},{"lat":"37.404802338","long":"126.95791864","imageIndex":7,"items":[{"name":"해조수산","tel":"031-347-9294","addr":"경기도 안양시 동안구 관양동 1403-1번지","indutype":"음료식품 - 농·축·수산품","category":"food"}]},{"lat":"37.397388408","long":"126.96167247","imageIndex":7,"items":[{"name":"행복을굽는시간","tel":"","addr":"경기도 안양시 동안구 관양동 1588-14번지","indutype":"음료식품 - 기타음료식품","category":"food"}]},{"lat":"37.405215579","long":"126.9548124","imageIndex":7,"items":[{"name":"행복한약속","tel":"031-427-5811","addr":"경기도 안양시 동안구 관양동 1390-10번지","indutype":"음료식품 - 기타음료식품","category":"food"}]},{"lat":"37.405108894","long":"126.95848319","imageIndex":7,"items":[{"name":"현대건강원","tel":"031-384-6020","addr":"경기도 안양시 동안구 관양동 1404-8번지","indutype":"건강식품 - 기타건강식품","category":"food"},{"name":"형제떡방아간","tel":"031-388-5100","addr":"경기도 안양시 동안구 관양동 1404-8번지","indutype":"음료식품 - 제과점","category":"food"}]},{"lat":"37.405189878","long":"126.95820077","imageIndex":7,"items":[{"name":"현대건어물","tel":"031-384-6463","addr":"경기도 안양시 동안구 관양동 1404-4번지","indutype":"음료식품 - 기타음료식품","category":"food"}]},{"lat":"37.405244096","long":"126.95861864","imageIndex":7,"items":[{"name":"현대농산물","tel":"070-8995-7507","addr":"경기도 안양시 동안구 관양동 1408-30번지","indutype":"음료식품 - 농·축·수산품","category":"food"},{"name":"현대청과","tel":"031-381-9631","addr":"경기도 안양시 동안구 관양동","indutype":"음료식품 - 농·축·수산품","category":"food"}]},{"lat":"37.404244608","long":"126.96033598","imageIndex":7,"items":[{"name":"현미와누룽지안양관양점","tel":"","addr":"경기도 안양시 동안구 관양동 1420-45번지","indutype":"음료식품 - 기타음료식품","category":"food"}]},{"lat":"37.403638779","long":"126.95472305","imageIndex":7,"items":[{"name":"현미조아","tel":"031-382-6896","addr":"경기도 안양시 동안구 관양동 1384번지","indutype":"음료식품 - 미곡상","category":"food"}]},{"lat":"37.410076328","long":"126.9669743","imageIndex":7,"items":[{"name":"홍삼인","tel":"031-382-6066","addr":"경기도 안양시 동안구 관양동 1677번지","indutype":"건강식품 - 홍삼제품","category":"food"}]}]