[{"lat":"37.499693359","long":"127.4761519","imageIndex":17,"items":[{"name":"(주) 한국환경위생연구원","tel":"031-772-5000","addr":"경기도 양평군 양평읍 오빈리 150-47번지 단독","indutype":"용역 서비스 - 사무서비스","category":"other"}]},{"lat":"37.502275948","long":"127.47244753","imageIndex":17,"items":[{"name":"(주)엔오에스","tel":"031-772-0100","addr":"경기도 양평군 양평읍 오빈리 211-1번지","indutype":"사무통신 - 사무용 OA기기","category":"other"}]},{"lat":"37.504082249","long":"127.46217867","imageIndex":17,"items":[{"name":"(주)코리아세븐/양평4호점","tel":"031-771-4122","addr":"경기도 양평군 양평읍 오빈리 400-1번지","indutype":"유통업 영리 - 편 의 점","category":"other"}]},{"lat":"37.50438219","long":"127.46382037","imageIndex":17,"items":[{"name":"(주)휴먼터치오빈주유소","tel":"02-6916-1500","addr":"경기도 양평군 양평읍 오빈리 448-6번지","indutype":"유통업 영리 - 편 의 점","category":"other"}]},{"lat":"37.502190112","long":"127.47589625","imageIndex":17,"items":[{"name":"EL스포츠","tel":"031-775-1758","addr":"경기도 양평군 양평읍 오빈리 118-11번지 1층 3호","indutype":"레져용품 - 스포츠·레져용품","category":"other"}]},{"lat":"37.500352855","long":"127.47795416","imageIndex":17,"items":[{"name":"강남태양열 양평대리점","tel":"031-0000-0000","addr":"경기도 양평군 양평읍 오빈리 150-54번지","indutype":"전기제품 - 기타전기제품","category":"other"},{"name":"팔구사","tel":"031-775-9090","addr":"경기도 양평군 양평읍 오빈리 150-54번지","indutype":"문화.취미 - 골동품점","category":"other"}]},{"lat":"37.50502338","long":"127.46112135","imageIndex":17,"items":[{"name":"경기종합주방","tel":"031-774-8166","addr":"경기도 양평군 양평읍 오빈리 434-1번지 B동 102호","indutype":"주방용구 - 주방용구","category":"other"},{"name":"씨유양평남한강점","tel":"02-1577-8007","addr":"경기도 양평군 양평읍 오빈리 434-1번지 1층","indutype":"유통업 영리 - 편 의 점","category":"other"}]},{"lat":"37.503358734","long":"127.47655955","imageIndex":17,"items":[{"name":"국보서림","tel":"031-771-2147","addr":"경기도 양평군 양평읍 오빈리 118-1","indutype":"서적문구 - 일반서적","category":"other"}]},{"lat":"37.502630513","long":"127.4716468","imageIndex":17,"items":[{"name":"귀뚜라미보일러 양평대리점","tel":"031-771-9950","addr":"경기도 양평군 양평읍 오빈리 217-3번지","indutype":"건축자재 - 보일러·펌프·샷시","category":"other"}]},{"lat":"37.502605725","long":"127.46651232","imageIndex":17,"items":[{"name":"금잔디","tel":"031-773-5294","addr":"경기도 양평군 양평읍 오빈리 375-6","indutype":"문화.취미 - 화원","category":"other"}]},{"lat":"37.505269875","long":"127.46950319","imageIndex":17,"items":[{"name":"꽃드림","tel":"070-4922-1261","addr":"경기도 양평군 양평읍 오빈리 325-27번지","indutype":"문화.취미 - 화원","category":"other"}]},{"lat":"37.500910926","long":"127.47584294","imageIndex":17,"items":[{"name":"노루페인트양평점","tel":"031-775-7404","addr":"경기도 양평군 양평읍 오빈리 174-3번지","indutype":"건축자재 - 페인트","category":"other"},{"name":"재남컨설팅","tel":"031-773-0500","addr":"경기도 양평군 양평읍 오빈리 174-3번지 1층 4,5호","indutype":"수리서비스 - 기타수리서비스","category":"other"}]},{"lat":"37.501550658","long":"127.47131209","imageIndex":17,"items":[{"name":"농업회사법인 유한회사 들꽃수목원","tel":"031-772-1800","addr":"경기도 양평군 양평읍 오빈리 210-37","indutype":"신변잡화 - 기념품점","category":"other"}]},{"lat":"37.502357889","long":"127.47223317","imageIndex":17,"items":[{"name":"대명이동식주택컨테이너","tel":"","addr":"경기도 양평군 양평읍 오빈리 210-79번지","indutype":"건축자재 - 기타건축자재","category":"other"}]},{"lat":"37.502075294","long":"127.47531876","imageIndex":17,"items":[{"name":"동부P&C","tel":"031-771-0074","addr":"경기도 양평군 양평읍 오빈리 118-7번지 B1","indutype":"건축자재 - 페인트","category":"other"},{"name":"씨유양평오빈점","tel":"031-771-9017","addr":"경기도 양평군 양평읍 오빈리 118-7번지 1층","indutype":"유통업 영리 - 편 의 점","category":"other"}]},{"lat":"37.505184841","long":"127.46362173","imageIndex":17,"items":[{"name":"동우기업","tel":"031-772-9030","addr":"경기도 양평군 양평읍 오빈리 448-1번지","indutype":"건축자재 - 기타건축자재","category":"other"},{"name":"성우조립식판넬","tel":"031-774-8135","addr":"경기도 양평군 양평읍 오빈리 448-1번지","indutype":"건축자재 - 기타건축자재","category":"other"}]},{"lat":"37.49977164","long":"127.47909265","imageIndex":17,"items":[{"name":"동원판넬","tel":"031-775-0901","addr":"경기도 양평군 양평읍 오빈리 150-88번지","indutype":"건축자재 - 기타건축자재","category":"other"}]},{"lat":"37.502605816","long":"127.47105858","imageIndex":17,"items":[{"name":"들꽃공방","tel":"031-773-7728","addr":"경기도 양평군 양평읍 오빈리 219-4번지 외1필지","indutype":"가구 - 일반가구","category":"other"}]},{"lat":"37.504661819","long":"127.45909475","imageIndex":17,"items":[{"name":"멋&맛 겔러리","tel":"031-775-1703","addr":"경기도 양평군 양평읍 오빈리 416-5번지 나동 2층","indutype":"의류 - 정장","category":"other"}]},{"lat":"37.506442949","long":"127.46214789","imageIndex":17,"items":[{"name":"미파케터리","tel":"","addr":"경기도 양평군 양평읍 오빈리 431-24번지","indutype":"문화.취미 - 애완동물","category":"other"}]},{"lat":"37.504415667","long":"127.46447651","imageIndex":17,"items":[{"name":"서울석재","tel":"031-775-7991","addr":"경기도 양평군 양평읍 오빈리 310-36번지","indutype":"건축자재 - 목재·석재·철물","category":"other"},{"name":"특수견114","tel":"070-4179-1177","addr":"경기도 양평군 양평읍 오빈리 310-36번지","indutype":"문화.취미 - 애완동물","category":"other"}]},{"lat":"37.503551026","long":"127.46669911","imageIndex":17,"items":[{"name":"석재나라 돌무지","tel":"031-775-0017","addr":"경기도 양평군 양평읍 오빈리 377-14번지","indutype":"건축자재 - 목재·석재·철물","category":"other"}]},{"lat":"37.505076263","long":"127.45909727","imageIndex":17,"items":[{"name":"세경판넬","tel":"031-773-5251","addr":"경기도 양평군 양평읍 오빈리 421-3번지","indutype":"건축자재 - 기타건축자재","category":"other"}]},{"lat":"37.500221617","long":"127.47698078","imageIndex":17,"items":[{"name":"세이프자재산업","tel":"031-772-2705","addr":"경기도 양평군 양평읍 오빈리 150-57번지 1층","indutype":"기타 - 기계공구","category":"other"}]},{"lat":"37.503217376","long":"127.46906067","imageIndex":17,"items":[{"name":"씨유양평들꽃점","tel":"031-774-6866","addr":"경기도 양평군 양평읍 오빈리 362-3번지","indutype":"유통업 영리 - 편 의 점","category":"other"}]},{"lat":"37.507332065","long":"127.47656204","imageIndex":17,"items":[{"name":"양평아트센터","tel":"031-774-2490","addr":"경기도 양평군 양평읍 오빈리 96-23번지 104호","indutype":"문화.취미 - 화랑","category":"other"}]},{"lat":"37.503971413","long":"127.46748205","imageIndex":17,"items":[{"name":"양평인테리어하우징","tel":"031-771-2829","addr":"경기도 양평군 양평읍 오빈리 358-3번지","indutype":"직물 - 카페트,커튼,천막,지물","category":"other"}]},{"lat":"37.502491199","long":"127.47042455","imageIndex":17,"items":[{"name":"양평자동차극장","tel":"031-773-7893","addr":"경기도 양평군 양평읍 오빈리 365-5","indutype":"문화.취미 - 영화관","category":"other"}]},{"lat":"37.50493504","long":"127.46298687","imageIndex":17,"items":[{"name":"양평종합주방기구","tel":"031-771-5566","addr":"경기도 양평군 양평읍 오빈리 447-6번지 1층","indutype":"주방용구 - 주방용구","category":"other"}]},{"lat":"37.502325551","long":"127.47356744","imageIndex":17,"items":[{"name":"엠디텍","tel":"02-2068-7512","addr":"경기도 양평군 양평읍 오빈리 207-3번지 2층 203호","indutype":"기타의료기관 - 기타의료기관 및 기타","category":"other"},{"name":"오빈잔디기계수리센타","tel":"031-775-8995","addr":"경기도 양평군 양평읍 오빈리 207-3번지 1층 107호","indutype":"수리서비스 - 기타수리서비스","category":"other"},{"name":"주식회사 네버하우징","tel":"031-774-6006","addr":"경기도 양평군 양평읍 오빈리 207-3번지","indutype":"건축자재 - 부동산 분양","category":"other"}]},{"lat":"37.504467675","long":"127.46037153","imageIndex":17,"items":[{"name":"오케이철물종합상사","tel":"031-775-1432","addr":"경기도 양평군 양평읍 오빈리 418-6번지","indutype":"건축자재 - 목재·석재·철물","category":"other"}]},{"lat":"37.504496824","long":"127.46214728","imageIndex":17,"items":[{"name":"와이스포츠","tel":"070-8881-3951","addr":"경기도 양평군 양평읍 오빈리 437-10번지 1층","indutype":"의류 - 스포츠의류","category":"other"}]},{"lat":"37.503800897","long":"127.46731136","imageIndex":17,"items":[{"name":"유로디자인","tel":"070-8800-8082","addr":"경기도 양평군 양평읍 오빈리 377-2번지","indutype":"직물 - 침구·수예점","category":"other"}]},{"lat":"37.504943792","long":"127.4767279","imageIndex":17,"items":[{"name":"유한상사","tel":"031-771-7291","addr":"경기도 양평군 양평읍 오빈리 96-44번지","indutype":"신변잡화 - 기타잡화","category":"other"}]},{"lat":"37.505718165","long":"127.47684589","imageIndex":17,"items":[{"name":"은성벽난로","tel":"","addr":"경기도 양평군 양평읍 오빈리 96-49번지","indutype":"전기제품 - 냉열기기","category":"other"}]},{"lat":"37.503664774","long":"127.46755932","imageIndex":17,"items":[{"name":"인니퍼니처","tel":"031-774-9962","addr":"경기도 양평군 양평읍 오빈리 376-5","indutype":"건축자재 - 인테리어전문","category":"other"}]},{"lat":"37.50071583","long":"127.47731186","imageIndex":17,"items":[{"name":"자연놀이","tel":"031-771-0044","addr":"경기도 양평군 양평읍 오빈리 151번지 남한강주유소 내","indutype":"문화.취미 - 화원","category":"other"}]},{"lat":"37.504883719","long":"127.45762587","imageIndex":17,"items":[{"name":"정우벽난로","tel":"031-775-1975","addr":"경기도 양평군 양평읍 오빈리 483-8번지","indutype":"전기제품 - 냉열기기","category":"other"},{"name":"주식회사화롯불벽난로","tel":"031-773-8886","addr":"경기도 양평군 양평읍 오빈리 483-8번지","indutype":"전기제품 - 냉열기기","category":"other"}]},{"lat":"37.500631834","long":"127.47803509","imageIndex":17,"items":[{"name":"주식회사명성우드","tel":"031-775-5447","addr":"경기도 양평군 양평읍 오빈리 152-2번지","indutype":"건축자재 - 기타건축자재","category":"other"}]},{"lat":"37.49915889","long":"127.47687228","imageIndex":17,"items":[{"name":"주식회사티엔티(T&T)","tel":"031-775-3740","addr":"경기도 양평군 양평읍 오빈리 150-68","indutype":"건축자재 - 기타건축자재","category":"other"}]},{"lat":"37.506249098","long":"127.47475696","imageIndex":17,"items":[{"name":"준디자인광고","tel":"031-771-0116","addr":"경기도 양평군 양평읍 오빈리 238-11번지 1층","indutype":"용역 서비스 - 종합용역","category":"other"}]},{"lat":"37.50446487","long":"127.46109531","imageIndex":17,"items":[{"name":"중부엔마텍(주)","tel":"031-772-4532","addr":"경기도 양평군 양평읍 오빈리 411-2번지","indutype":"용역 서비스 - 사무서비스","category":"other"}]},{"lat":"37.502355911","long":"127.47273076","imageIndex":17,"items":[{"name":"청우종합상사","tel":"031-774-7788","addr":"경기도 양평군 양평읍 오빈리 210-21번지","indutype":"건축자재 - 기타건축자재","category":"other"}]},{"lat":"37.502909032","long":"127.46728322","imageIndex":17,"items":[{"name":"청호산업","tel":"031-773-0089","addr":"경기도 양평군 양평읍 오빈리 375-4","indutype":"농업 - 기타농업관련","category":"other"}]},{"lat":"37.503297135","long":"127.47167359","imageIndex":17,"items":[{"name":"한샘리하우스","tel":"031-775-3535","addr":"경기도 양평군 양평읍 오빈리 226-7번지","indutype":"건축자재 - 기타건축자재","category":"other"}]},{"lat":"37.504407496","long":"127.45962474","imageIndex":17,"items":[{"name":"호산종합건재상사","tel":"031-773-7775","addr":"경기도 양평군 양평읍 오빈리 415-1번지 1동 1층","indutype":"건축자재 - 목재·석재·철물","category":"other"}]}]