[{"lat":"37.293202663","long":"126.86490972","imageIndex":7,"items":[{"name":"(금산특산품)홍삼.인삼세상","tel":"031-416-6115","addr":"경기도 안산시 상록구 본오동 862-1번지 1층","indutype":"건강식품 - 홍삼제품","category":"food"}]},{"lat":"37.293180122","long":"126.87702208","imageIndex":7,"items":[{"name":"(유)시화주류","tel":"031-408-0092","addr":"경기도 안산시 상록구 본오동 735-3번지","indutype":"음료식품 - 기타음료식품","category":"food"}]},{"lat":"37.293258194","long":"126.87421378","imageIndex":7,"items":[{"name":"(주)그린푸드코프","tel":"031-418-0058","addr":"경기도 안산시 상록구 본오동 776-11번지 101,102,103호","indutype":"음료식품 - 기타음료식품","category":"food"},{"name":"헬스앤케어안산TMS","tel":"031-406-3046","addr":"경기도 안산시 상록구 본오동 776-11번지 1층","indutype":"음료식품 - 기타음료식품","category":"food"}]},{"lat":"37.297149281","long":"126.87298909","imageIndex":7,"items":[{"name":"(주)비비씨","tel":"031-418-4482","addr":"경기도 안산시 상록구 본오동 761-4번지 2층","indutype":"음료식품 - 기타음료식품","category":"food"}]},{"lat":"37.285728775","long":"126.86119079","imageIndex":7,"items":[{"name":"(주)정인미트원","tel":"031-416-1887","addr":"경기도 안산시 상록구 본오동 953번지 신성리치빌","indutype":"음료식품 - 농·축·수산품","category":"food"}]},{"lat":"37.294263886","long":"126.86321609","imageIndex":7,"items":[{"name":"153수제한과스낵","tel":"","addr":"경기도 안산시 상록구 본오동 871-12번지 104호","indutype":"음료식품 - 기타음료식품","category":"food"},{"name":"고향즉석두부","tel":"031-407-6373","addr":"경기도 안산시 상록구 본오동 871-12번지 101호","indutype":"음료식품 - 기타음료식품","category":"food"},{"name":"서울떡방","tel":"031-416-7787","addr":"경기도 안산시 상록구 본오동 871-12번지 1층 102호","indutype":"음료식품 - 제과점","category":"food"}]},{"lat":"37.289985934","long":"126.86484793","imageIndex":7,"items":[{"name":"300축산","tel":"031-407-6982","addr":"경기도 안산시 상록구 본오동 915번지","indutype":"음료식품 - 정육점","category":"food"}]},{"lat":"37.299455995","long":"126.87307535","imageIndex":7,"items":[{"name":"D&I홍삼원","tel":"031-437-7525","addr":"경기도 안산시 상록구 본오동 1143-1번지 1층","indutype":"건강식품 - 홍삼제품","category":"food"}]},{"lat":"37.296151709","long":"126.87534795","imageIndex":7,"items":[{"name":"가량진미식품","tel":"031-502-6667","addr":"경기도 안산시 상록구 본오동 763-6번지 1층 상가","indutype":"음료식품 - 농·축·수산품","category":"food"}]},{"lat":"37.296755169","long":"126.86704611","imageIndex":7,"items":[{"name":"가족사랑김치반찬","tel":"031-416-7500","addr":"경기도 안산시 상록구 본오동 813-11번지 1층","indutype":"음료식품 - 기타음료식품","category":"food"}]},{"lat":"37.292180874","long":"126.86960307","imageIndex":7,"items":[{"name":"강원농산","tel":"031-409-4188","addr":"경기도 안산시 상록구 본오동 838-12번지 302호","indutype":"음료식품 - 기타음료식품","category":"food"}]},{"lat":"37.28345718","long":"126.86034933","imageIndex":7,"items":[{"name":"강원수산","tel":"070-8243-6695","addr":"경기도 안산시 상록구 본오동 985-14번지","indutype":"음료식품 - 농·축·수산품","category":"food"}]},{"lat":"37.2892361269","long":"126.8631802756","imageIndex":7,"items":[{"name":"건강마을","tel":"031-501-7114","addr":"경기도 안산시 상록구 본오동 924-9번지","indutype":"도매 및 소매업 - 건강식품","category":"food"}]},{"lat":"37.285928478","long":"126.86243085","imageIndex":7,"items":[{"name":"고기공장바름 주식회사","tel":"031-406-0252","addr":"경기도 안산시 상록구 본오동 954-8번지 102호,103호,104호","indutype":"음료식품 - 정육점","category":"food"}]},{"lat":"37.295394996","long":"126.87548456","imageIndex":7,"items":[{"name":"고려정육점","tel":"031-417-6453","addr":"경기도 안산시 상록구 본오동 768-1번지 1층","indutype":"음료식품 - 정육점","category":"food"}]},{"lat":"37.302039381","long":"126.86293102","imageIndex":7,"items":[{"name":"고은케이크","tel":"02-000-0000","addr":"경기도 안산시 상록구 본오동 877-8번지 211,212호","indutype":"음료식품 - 제과점","category":"food"},{"name":"보노매점","tel":"031-408-1771","addr":"경기도 안산시 상록구 본오동 877-8번지 안산보노피아빌딩 117호","indutype":"음료식품 - 기타음료식품","category":"food"}]},{"lat":"37.296233621","long":"126.86796058","imageIndex":7,"items":[{"name":"고향","tel":"00-0000-0000","addr":"경기도 안산시 상록구 본오동 814-8번지 101호","indutype":"음료식품 - 미곡상","category":"food"}]},{"lat":"37.296430542","long":"126.86682112","imageIndex":7,"items":[{"name":"고향떡집","tel":"031-419-0991","addr":"경기도 안산시 상록구 본오동 814번지 102호","indutype":"음료식품 - 제과점","category":"food"}]},{"lat":"37.293368228","long":"126.86016147","imageIndex":7,"items":[{"name":"골라바","tel":"031-485-6794","addr":"경기도 안산시 상록구 본오동 889-1번지 104호","indutype":"음료식품 - 제과점","category":"food"},{"name":"비에이블 스터디카페","tel":"","addr":"경기도 안산시 상록구 본오동 889-1번지 201호","indutype":"음료식품 - 기타음료식품","category":"food"},{"name":"통큰정육점 (본오점)","tel":"031-415-0607","addr":"경기도 안산시 상록구 본오동 889-1번지 104호","indutype":"음료식품 - 정육점","category":"food"}]},{"lat":"37.293315831","long":"126.86154873","imageIndex":7,"items":[{"name":"과일Farm","tel":"031-405-4404","addr":"경기도 안산시 상록구 본오동 882-1번지 102호","indutype":"음료식품 - 농·축·수산품","category":"food"}]},{"lat":"37.291871266","long":"126.86673911","imageIndex":7,"items":[{"name":"과채즙","tel":"031-408-4221","addr":"경기도 안산시 상록구 본오동 860-14번지 103호","indutype":"음료식품 - 기타음료식품","category":"food"}]},{"lat":"37.294589608","long":"126.87229426","imageIndex":7,"items":[{"name":"광장웰빙사우나매점","tel":"031-254-2542","addr":"경기도 안산시 상록구 본오동 779번지 연지프라자","indutype":"음료식품 - 기타음료식품","category":"food"},{"name":"빵굽는마을","tel":"031-406-7883","addr":"경기도 안산시 상록구 본오동 779번지 연지프라자 상가 1층 106호","indutype":"음료식품 - 제과점","category":"food"},{"name":"웰빙건강원","tel":"031-416-9125","addr":"경기도 안산시 상록구 본오동 779번지 연지프라자 101호","indutype":"건강식품 - 기타건강식품","category":"food"},{"name":"웰빙스넥","tel":"031-415-7130","addr":"경기도 안산시 상록구 본오동 779번지 연지프라자 광장웨빙사우나","indutype":"음료식품 - 기타음료식품","category":"food"},{"name":"좋은고기축산물할인마트","tel":"031-408-6685","addr":"경기도 안산시 상록구 본오동 779번지 연지프라자 104호","indutype":"음료식품 - 정육점","category":"food"}]},{"lat":"37.29692206","long":"126.86334652","imageIndex":7,"items":[{"name":"궁떡집(궁시루)","tel":"031-409-3198","addr":"경기도 안산시 상록구 본오동 872-19번지 한미 상가 105호 일부","indutype":"음료식품 - 제과점","category":"food"},{"name":"축산물직판장","tel":"031-407-4986","addr":"경기도 안산시 상록구 본오동 872-19번지","indutype":"음료식품 - 정육점","category":"food"}]},{"lat":"37.292402193","long":"126.86615172","imageIndex":7,"items":[{"name":"그랜드 축산물 백화점","tel":"031-409-4060","addr":"경기도 안산시 상록구 본오동 864-2번지 1층","indutype":"음료식품 - 정육점","category":"food"}]},{"lat":"37.296754949","long":"126.86685437","imageIndex":7,"items":[{"name":"금강축산","tel":"031-407-9222","addr":"경기도 안산시 상록구 본오동 813-12번지 1층 103호","indutype":"음료식품 - 정육점","category":"food"}]},{"lat":"37.301118597","long":"126.86146646","imageIndex":7,"items":[{"name":"금산인삼종합전시장","tel":"070-8170-9737","addr":"경기도 안산시 상록구 본오동 878-10번지 우석빌딩 206호","indutype":"건강식품 - 홍삼제품","category":"food"}]},{"lat":"37.295957247","long":"126.86273928","imageIndex":7,"items":[{"name":"나드반찬","tel":"031-408-5959","addr":"경기도 안산시 상록구 본오동 880-4번지 103,105호","indutype":"음료식품 - 기타음료식품","category":"food"},{"name":"돈마부축산","tel":"031-415-9729","addr":"경기도 안산시 상록구 본오동 880-4번지 혜연빌딩 104호","indutype":"음료식품 - 정육점","category":"food"}]},{"lat":"37.301060628","long":"126.87381701","imageIndex":7,"items":[{"name":"농수산물직판장","tel":"031-406-8797","addr":"경기도 안산시 상록구 본오동 1128-9번지","indutype":"음료식품 - 농·축·수산품","category":"food"}]},{"lat":"37.3010606279","long":"126.8738170050","imageIndex":7,"items":[{"name":"농수산물직판장","tel":"031-406-8797","addr":"경기도 안산시 상록구 본오동 1128-9번지","indutype":"도매 및 소매업 - 식품,잡화","category":"food"}]},{"lat":"37.298679158","long":"126.8634335","imageIndex":7,"items":[{"name":"농심축산도매센타","tel":"031-408-6345","addr":"경기도 안산시 상록구 본오동 872-11번지 (104,105,103) 1/2)호","indutype":"음료식품 - 정육점","category":"food"}]},{"lat":"37.294089144","long":"126.87607322","imageIndex":7,"items":[{"name":"농업회사법인 주식회사 고려바이오","tel":"041-936-9786","addr":"경기도 안산시 상록구 본오동 736-13번지 천우명가 C동 501호","indutype":"음료식품 - 농·축·수산품","category":"food"}]},{"lat":"37.283617618","long":"126.85890565","imageIndex":7,"items":[{"name":"농업회사법인(주)하누리팜","tel":"031-407-4121","addr":"경기도 안산시 상록구 본오동 979-1번지 1층","indutype":"음료식품 - 정육점","category":"food"}]},{"lat":"37.295089259","long":"126.86790623","imageIndex":7,"items":[{"name":"농우촌정육점","tel":"031-418-9916","addr":"경기도 안산시 상록구 본오동 820-23번지 101호","indutype":"음료식품 - 정육점","category":"food"}]},{"lat":"37.293202492","long":"126.86476311","imageIndex":7,"items":[{"name":"다믈케이크","tel":"","addr":"경기도 안산시 상록구 본오동 862번지 1층","indutype":"음료식품 - 기타음료식품","category":"food"},{"name":"조은정육점","tel":"031-409-1533","addr":"경기도 안산시 상록구 본오동 862번지 102호","indutype":"음료식품 - 정육점","category":"food"}]},{"lat":"37.29689972","long":"126.86738419","imageIndex":7,"items":[{"name":"다온","tel":"","addr":"경기도 안산시 상록구 본오동 813-8번지 305호","indutype":"음료식품 - 농·축·수산품","category":"food"}]},{"lat":"37.301068948","long":"126.87318537","imageIndex":7,"items":[{"name":"다이써 아이스크림 안산 본오점","tel":"031-408-0520","addr":"경기도 안산시 상록구 본오동 1127-8번지","indutype":"음료식품 - 기타음료식품","category":"food"}]},{"lat":"37.29750689","long":"126.87046211","imageIndex":7,"items":[{"name":"다정청과","tel":"031-796-2554","addr":"경기도 안산시 상록구 본오동 800-4번지","indutype":"음료식품 - 농·축·수산품","category":"food"}]},{"lat":"37.29120013","long":"126.86298493","imageIndex":7,"items":[{"name":"달달하게","tel":"","addr":"경기도 안산시 상록구 본오동 904-17번지 1층 103호","indutype":"음료식품 - 기타음료식품","category":"food"}]},{"lat":"37.291565488","long":"126.86723588","imageIndex":7,"items":[{"name":"달보드레","tel":"031-0000-0000","addr":"경기도 안산시 상록구 본오동 855-4번지 1층 101호","indutype":"음료식품 - 제과점","category":"food"}]},{"lat":"37.297505124","long":"126.86115743","imageIndex":7,"items":[{"name":"대명청과","tel":"031-416-8295","addr":"경기도 안산시 상록구 본오동 879-16","indutype":"음료식품 - 농·축·수산품","category":"food"}]},{"lat":"37.292950889","long":"126.86535001","imageIndex":7,"items":[{"name":"대박청과","tel":"00-0000-0000","addr":"경기도 안산시 상록구 본오동 863-4번지","indutype":"음료식품 - 농·축·수산품","category":"food"}]},{"lat":"37.301620449","long":"126.87491011","imageIndex":7,"items":[{"name":"대성서라벌유통","tel":"","addr":"경기도 안산시 상록구 본오동 1132-2번지 202호","indutype":"음료식품 - 정육점","category":"food"}]},{"lat":"37.291981258","long":"126.86837417","imageIndex":7,"items":[{"name":"대성실크스크린,우림건강크리닉","tel":"031-409-2433","addr":"경기도 안산시 상록구 본오동 856-2번지","indutype":"건강식품 - 기타건강식품","category":"food"}]},{"lat":"37.285348267","long":"126.85946619","imageIndex":7,"items":[{"name":"대한축산","tel":"02-1577-0000","addr":"경기도 안산시 상록구 본오동 965-4번지","indutype":"음료식품 - 정육점","category":"food"},{"name":"하나로정육마트","tel":"031-418-3328","addr":"경기도 안산시 상록구 본오동 965-4번지","indutype":"음료식품 - 정육점","category":"food"}]},{"lat":"37.293565097","long":"126.86665712","imageIndex":7,"items":[{"name":"덕강반찬","tel":"031-408-0701","addr":"경기도 안산시 상록구 본오동 823-11번지 1층 102호","indutype":"음료식품 - 기타음료식품","category":"food"}]},{"lat":"37.301285942","long":"126.86585367","imageIndex":7,"items":[{"name":"던킨도너츠 상록수역","tel":"031-501-0324","addr":"경기도 안산시 상록구 본오동 873-5번지 서해프라자 103,104호","indutype":"음료식품 - 제과점","category":"food"},{"name":"베스킨라빈스 상록수역점","tel":"031-415-3132","addr":"경기도 안산시 상록구 본오동 873-5 서해프라자 1층 106.107","indutype":"음료식품 - 제과점","category":"food"}]},{"lat":"37.293902783","long":"126.86263031","imageIndex":7,"items":[{"name":"던킨도너츠(안산본오점)","tel":"031-408-3132","addr":"경기도 안산시 상록구 본오동 880-14번지 우성프라자 103호","indutype":"음료식품 - 제과점","category":"food"}]},{"lat":"37.286980041","long":"126.86790944","imageIndex":7,"items":[{"name":"덴마크우유 남안산대리점","tel":"031-501-4320","addr":"경기도 안산시 상록구 본오동 715-11번지 선덕빌딩 102호","indutype":"음료식품 - 기타음료식품","category":"food"}]},{"lat":"37.300310537","long":"126.86388164","imageIndex":7,"items":[{"name":"도담인터내셔널","tel":"031-477-8042","addr":"경기도 안산시 상록구 본오동 872-21번지 월드목욕탕상가 104호","indutype":"음료식품 - 기타음료식품","category":"food"}]},{"lat":"37.300214638","long":"126.86664513","imageIndex":7,"items":[{"name":"돈우축산","tel":"","addr":"경기도 안산시 상록구 본오동 872번지 월드아파트 4동 1층 102호","indutype":"음료식품 - 정육점","category":"food"}]},{"lat":"37.28520838","long":"126.86304113","imageIndex":7,"items":[{"name":"동산김치","tel":"031-406-7846","addr":"경기도 안산시 상록구 본오동 989-2번지","indutype":"음료식품 - 기타음료식품","category":"food"}]},{"lat":"37.285619011","long":"126.85982653","imageIndex":7,"items":[{"name":"동산축산도매센타","tel":"031-419-9417","addr":"경기도 안산시 상록구 본오동 957-15번지 102호","indutype":"음료식품 - 정육점","category":"food"}]},{"lat":"37.299535957","long":"126.87204885","imageIndex":7,"items":[{"name":"두메산골&두원푸드","tel":"031-364-8081","addr":"경기도 안산시 상록구 본오동 1144-14번지 102호","indutype":"음료식품 - 농·축·수산품","category":"food"}]},{"lat":"37.293255259","long":"126.86365779","imageIndex":7,"items":[{"name":"땅스부대찌개","tel":"031-415-8599","addr":"경기도 안산시 상록구 본오동 870-4번지 1층 103호","indutype":"음료식품 - 기타음료식품","category":"food"},{"name":"수산킹 종합어시장","tel":"031-406-7881","addr":"경기도 안산시 상록구 본오동 870-4번지 102호","indutype":"음료식품 - 농·축·수산품","category":"food"}]},{"lat":"37.297151359","long":"126.86681983","imageIndex":7,"items":[{"name":"떡두꺼비","tel":"031-407-2778","addr":"경기도 안산시 상록구 본오동 813-15번지 1층 101호","indutype":"음료식품 - 제과점","category":"food"}]},{"lat":"37.293341754","long":"126.8606239","imageIndex":7,"items":[{"name":"떡사랑","tel":"031-415-6676","addr":"경기도 안산시 상록구 본오동 889-5번지 대한예수교장로회우리하나교회 101호","indutype":"음료식품 - 기타음료식품","category":"food"}]},{"lat":"37.302593606","long":"126.8668777","imageIndex":7,"items":[{"name":"뚜레쥬르 상록수역(2)","tel":"070-7092-7978","addr":"경기도 안산시 상록구 본오동 1177번지 상록수역 409호","indutype":"음료식품 - 제과점","category":"food"}]},{"lat":"37.300616487","long":"126.86354271","imageIndex":7,"items":[{"name":"뚜레쥬르 안산상록수(3)","tel":"031-419-9965","addr":"경기도 안산시 상록구 본오동 872-2번지 국제프라자 101호","indutype":"음료식품 - 제과점","category":"food"}]},{"lat":"37.294341188","long":"126.87584724","imageIndex":7,"items":[{"name":"뚱땡이정육점","tel":"031-407-6449","addr":"경기도 안산시 상록구 본오동 740-5번지 102호","indutype":"음료식품 - 정육점","category":"food"}]},{"lat":"37.29001216","long":"126.86415997","imageIndex":7,"items":[{"name":"라성떡집","tel":"031-410-6610","addr":"경기도 안산시 상록구 본오동 922-2번지 1층 103호","indutype":"음료식품 - 제과점","category":"food"}]},{"lat":"37.288732536","long":"126.86401571","imageIndex":7,"items":[{"name":"럭키마트수산코너","tel":"031-406-7719","addr":"경기도 안산시 상록구 본오동 919-8번지 럭키할인마트내수산코너","indutype":"음료식품 - 농·축·수산품","category":"food"}]},{"lat":"37.291591754","long":"126.86657046","imageIndex":7,"items":[{"name":"롤로 타바코","tel":"031-407-5517","addr":"경기도 안산시 상록구 본오동 855번지 101호","indutype":"음료식품 - 기타음료식품","category":"food"},{"name":"케익나라","tel":"031-406-1062","addr":"경기도 안산시 상록구 본오동 855번지","indutype":"음료식품 - 제과점","category":"food"},{"name":"하람청과","tel":"031-416-6227","addr":"경기도 안산시 상록구 본오동 855번지 1층","indutype":"음료식품 - 농·축·수산품","category":"food"}]},{"lat":"37.293425436","long":"126.87062715","imageIndex":7,"items":[{"name":"롯데칠성음료 사동점","tel":"","addr":"경기도 안산시 상록구 본오동 783-1번지 1층","indutype":"음료식품 - 기타음료식품","category":"food"}]},{"lat":"37.295234249","long":"126.87682693","imageIndex":7,"items":[{"name":"리우","tel":"","addr":"경기도 안산시 상록구 본오동 743-2번지 대명하이빌 501호","indutype":"음료식품 - 기타음료식품","category":"food"}]},{"lat":"37.299762313","long":"126.8650782","imageIndex":7,"items":[{"name":"마루유통","tel":"031-407-3159","addr":"경기도 안산시 상록구 본오동 872지하39","indutype":"음료식품 - 기타음료식품","category":"food"}]},{"lat":"37.28981539","long":"126.85785634","imageIndex":7,"items":[{"name":"마수리점방","tel":"02-1111-1111","addr":"경기도 안산시 상록구 본오동 934-16번지 소망인쇄기획 상가 1층 102호","indutype":"음료식품 - 기타음료식품","category":"food"}]},{"lat":"37.296344686","long":"126.86273856","imageIndex":7,"items":[{"name":"마시쩡","tel":"070-7784-4107","addr":"경기도 안산시 상록구 본오동 880-2번지 103호","indutype":"음료식품 - 기타음료식품","category":"food"},{"name":"장독대(본오점)","tel":"032-435-3213","addr":"경기도 안산시 상록구 본오동 880-2번지 101호","indutype":"음료식품 - 기타음료식품","category":"food"},{"name":"한샘떡집","tel":"031-408-9500","addr":"경기도 안산시 상록구 본오동 880-2번지 104호","indutype":"음료식품 - 제과점","category":"food"}]},{"lat":"37.293342092","long":"126.86090585","imageIndex":7,"items":[{"name":"맘 앤 (&)가득","tel":"070-4403-0553","addr":"경기도 안산시 상록구 본오동 889-7번지 103호","indutype":"음료식품 - 기타음료식품","category":"food"}]},{"lat":"37.292650362","long":"126.86263263","imageIndex":7,"items":[{"name":"맛있다요반찬","tel":"031-416-7758","addr":"경기도 안산시 상록구 본오동 885-1번지 1층 102호","indutype":"음료식품 - 기타음료식품","category":"food"}]},{"lat":"37.284011136","long":"126.85651431","imageIndex":7,"items":[{"name":"매일유업안산동부대리점","tel":"031-408-4824","addr":"경기도 안산시 상록구 본오동 969-16번지","indutype":"음료식품 - 기타음료식품","category":"food"}]},{"lat":"37.293063214","long":"126.86901507","imageIndex":7,"items":[{"name":"명수유통","tel":"","addr":"경기도 안산시 상록구 본오동 857-7번지 201호","indutype":"건강식품 - 기타건강식품","category":"food"}]},{"lat":"37.283431286","long":"126.86129659","imageIndex":7,"items":[{"name":"미래제과","tel":"031-418-7110","addr":"경기도 안산시 상록구 본오동 1155-9번지","indutype":"음료식품 - 제과점","category":"food"}]},{"lat":"37.293678181","long":"126.86318334","imageIndex":7,"items":[{"name":"미즈피아플라자","tel":"031-407-0077","addr":"경기도 안산시 상록구 본오동 871-15번지 미즈피아산부인과 101호","indutype":"건강식품 - 기타건강식품","category":"food"}]},{"lat":"37.28365315","long":"126.85848836","imageIndex":7,"items":[{"name":"민성유통","tel":"070-4205-8238","addr":"경기도 안산시 상록구 본오동 975-4번지 3호","indutype":"음료식품 - 정육점","category":"food"}]},{"lat":"37.289505886","long":"126.8705438","imageIndex":7,"items":[{"name":"믿음축산","tel":"031-417-3808","addr":"경기도 안산시 상록구 본오동 724-4번지 나동","indutype":"음료식품 - 정육점","category":"food"}]},{"lat":"37.293289888","long":"126.86246228","imageIndex":7,"items":[{"name":"배스킨라빈스 (안산본오점)","tel":"031-502-0031","addr":"경기도 안산시 상록구 본오동 882-7번지 1층","indutype":"음료식품 - 제과점","category":"food"}]},{"lat":"37.293871445","long":"126.86665657","imageIndex":7,"items":[{"name":"복 떡 한시루","tel":"031-418-1931","addr":"경기도 안산시 상록구 본오동 823-13번지 1층","indutype":"음료식품 - 제과점","category":"food"}]},{"lat":"37.301981132","long":"126.86707054","imageIndex":7,"items":[{"name":"복순씨마카롱","tel":"031-409-7977","addr":"경기도 안산시 상록구 본오동 1112번지 103호","indutype":"음료식품 - 제과점","category":"food"}]},{"lat":"37.300698947","long":"126.8726559","imageIndex":7,"items":[{"name":"본오3동떡방앗간","tel":"031-419-7822","addr":"경기도 안산시 상록구 본오동 1118-11번지","indutype":"음료식품 - 제과점","category":"food"}]},{"lat":"37.28678557","long":"126.86337651","imageIndex":7,"items":[{"name":"본토탈푸드 주식회사","tel":"031-416-5778","addr":"경기도 안산시 상록구 본오동 949-4번지 호민빌딩 2층","indutype":"음료식품 - 기타음료식품","category":"food"}]},{"lat":"37.286785251","long":"126.86310587","imageIndex":7,"items":[{"name":"봉과일야채","tel":"031-408-3047","addr":"경기도 안산시 상록구 본오동 949-2번지","indutype":"음료식품 - 농·축·수산품","category":"food"}]},{"lat":"37.297421705","long":"126.86685317","imageIndex":7,"items":[{"name":"블럭제빵소 본오점","tel":"031-407-7116","addr":"경기도 안산시 상록구 본오동 813-17번지 102호","indutype":"음료식품 - 제과점","category":"food"}]},{"lat":"37.29776005","long":"126.8633788","imageIndex":7,"items":[{"name":"빵이야기","tel":"031-501-0447","addr":"경기도 안산시 상록구 본오동 872-15번지 화정빌딩 101호","indutype":"음료식품 - 제과점","category":"food"},{"name":"태선유통","tel":"031-408-2189","addr":"경기도 안산시 상록구 본오동 872-15번지","indutype":"음료식품 - 정육점","category":"food"}]},{"lat":"37.2891191004","long":"126.8632707092","imageIndex":7,"items":[{"name":"뻥튀기공작소","tel":"031-416-7700","addr":"경기도 안산시 상록구 본오동 924-10번지","indutype":"도매 및 소매업 - 식품소분,판매,즉","category":"food"}]},{"lat":"37.2891191","long":"126.86327071","imageIndex":7,"items":[{"name":"뻥튀기공작소","tel":"","addr":"경기도 안산시 상록구 본오동 924-10번지 102호","indutype":"음료식품 - 기타음료식품","category":"food"}]},{"lat":"37.286673217","long":"126.86749275","imageIndex":7,"items":[{"name":"삼성종합시스템","tel":"031-415-9193","addr":"경기도 안산시 상록구 본오동 681-7번지 1층 102호","indutype":"음료식품 - 기타음료식품","category":"food"}]},{"lat":"37.29756427","long":"126.87346207","imageIndex":7,"items":[{"name":"삼육두유안산대리점","tel":"031-418-3638","addr":"경기도 안산시 상록구 본오동 760-1번지 1층","indutype":"음료식품 - 기타음료식품","category":"food"}]},{"lat":"37.299060692","long":"126.87412495","imageIndex":7,"items":[{"name":"상록고등학교매점","tel":"031-000-0000","addr":"경기도 안산시 상록구 본오동 산198번지 상록고등학교","indutype":"음료식품 - 기타음료식품","category":"food"}]},{"lat":"37.296146462","long":"126.86273893","imageIndex":7,"items":[{"name":"상록마트","tel":"031-419-2778","addr":"경기도 안산시 상록구 본오동 880-3광림빌딩103호~104호","indutype":"음료식품 - 기타음료식품","category":"food"}]},{"lat":"37.293704518","long":"126.86259684","imageIndex":7,"items":[{"name":"상록점핑피트니스","tel":"031-418-0779","addr":"경기도 안산시 상록구 본오동 880-15번지 강남빌딩 203호","indutype":"건강식품 - 기타건강식품","category":"food"},{"name":"통통만두","tel":"031-406-5226","addr":"경기도 안산시 상록구 본오동 880-15번지 강남빌딩 109호","indutype":"음료식품 - 기타음료식품","category":"food"},{"name":"한양빵집","tel":"031-418-2352","addr":"경기도 안산시 상록구 본오동 880-15번지","indutype":"음료식품 - 제과점","category":"food"}]},{"lat":"37.295786026","long":"126.86271704","imageIndex":7,"items":[{"name":"상록청과","tel":"031-505-7007","addr":"경기도 안산시 상록구 본오동 880-5번지 503호","indutype":"음료식품 - 농·축·수산품","category":"food"}]},{"lat":"37.297062882","long":"126.86824106","imageIndex":7,"items":[{"name":"서연푸드","tel":"031-406-8422","addr":"경기도 안산시 상록구 본오동 806-12번지","indutype":"음료식품 - 기타음료식품","category":"food"}]},{"lat":"37.291513481","long":"126.86904037","imageIndex":7,"items":[{"name":"서후서하네농원","tel":"070-7694-7590","addr":"경기도 안산시 상록구 본오동 849-23번지 102호","indutype":"음료식품 - 농·축·수산품","category":"food"},{"name":"체인지핏","tel":"031-470-8757","addr":"경기도 안산시 상록구 본오동 849-23번지 302호","indutype":"건강식품 - 기타건강식품","category":"food"}]},{"lat":"37.28990295","long":"126.86323543","imageIndex":7,"items":[{"name":"소고집","tel":"031-419-6544","addr":"경기도 안산시 상록구 본오동 923-14번지","indutype":"음료식품 - 정육점","category":"food"}]},{"lat":"37.299985442","long":"126.87112321","imageIndex":7,"items":[{"name":"송씨수산물","tel":"070-8113-1576","addr":"경기도 안산시 상록구 본오동 1123-4번지 102호","indutype":"음료식품 - 농·축·수산품","category":"food"}]},{"lat":"37.298645076","long":"126.87307675","imageIndex":7,"items":[{"name":"스포맥스","tel":"031-418-1001","addr":"경기도 안산시 상록구 본오동 759-5번지 102호","indutype":"건강식품 - 기타건강식품","category":"food"}]},{"lat":"37.295759675","long":"126.86329227","imageIndex":7,"items":[{"name":"슬림바디챌린지클럽","tel":"031-429-0146","addr":"경기도 안산시 상록구 본오동 871-5번지 우남빌딩 204호","indutype":"회원제형태 - 건강식품","category":"food"}]},{"lat":"37.302123473","long":"126.86549121","imageIndex":7,"items":[{"name":"식빵공방 빵사부 상록수점","tel":"02-1577-0475","addr":"경기도 안산시 상록구 본오동 874-5번지 미림프라자 1층 105호","indutype":"음료식품 - 제과점","category":"food"}]},{"lat":"37.297507111","long":"126.86282663","imageIndex":7,"items":[{"name":"식빵클럽","tel":"070-4369-1456","addr":"경기도 안산시 상록구 본오동 879-11번지 극동프라자 104호","indutype":"음료식품 - 제과점","category":"food"},{"name":"신낙원떡방앗간","tel":"031-2417-9853","addr":"경기도 안산시 상록구 본오동 879-11번지 극동프라자 105호","indutype":"음료식품 - 기타음료식품","category":"food"}]},{"lat":"37.289951281","long":"126.86604338","imageIndex":7,"items":[{"name":"신장수건강원","tel":"031-409-6887","addr":"경기도 안산시 상록구 본오동 914-1번지","indutype":"건강식품 - 기타건강식품","category":"food"}]},{"lat":"37.291845411","long":"126.86776542","imageIndex":7,"items":[{"name":"신진푸드","tel":"031-418-4009","addr":"경기도 안산시 상록구 본오동 860-8번지 102호","indutype":"음료식품 - 정육점","category":"food"},{"name":"장금이네반찬","tel":"031-418-7222","addr":"경기도 안산시 상록구 본오동 860-8번지 101호","indutype":"음료식품 - 기타음료식품","category":"food"}]},{"lat":"37.2885083256","long":"126.8573852102","imageIndex":7,"items":[{"name":"신포크도매","tel":"031-501-1998","addr":"경기도 안산시 상록구 본오동 939-5번지","indutype":"도매 및 소매업 - 식품","category":"food"}]},{"lat":"37.289841481","long":"126.86460009","imageIndex":7,"items":[{"name":"신포크도매축산물센타","tel":"031-501-1998","addr":"경기도 안산시 상록구 본오동 922-6다세대주택302,34/5","indutype":"음료식품 - 정육점","category":"food"}]},{"lat":"37.293755398","long":"126.86760411","imageIndex":7,"items":[{"name":"쌀바구니","tel":"","addr":"경기도 안산시 상록구 본오동 825-5번지","indutype":"음료식품 - 제과점","category":"food"}]},{"lat":"37.29181942","long":"126.86867895","imageIndex":7,"items":[{"name":"아란치니브라더스","tel":"031-407-0127","addr":"경기도 안산시 상록구 본오동 856-16번지 한결교회 1층 101호","indutype":"음료식품 - 기타음료식품","category":"food"}]},{"lat":"37.298401763","long":"126.87304333","imageIndex":7,"items":[{"name":"아침(애)누룽지","tel":"031-419-9288","addr":"경기도 안산시 상록구 본오동 759-7,1층(1,2호)","indutype":"음료식품 - 기타음료식품","category":"food"}]},{"lat":"37.293176603","long":"126.86574432","imageIndex":7,"items":[{"name":"아침햇살떡","tel":"031-505-2283","addr":"경기도 안산시 상록구 본오동 862-7번지 1층","indutype":"음료식품 - 제과점","category":"food"},{"name":"종합건강원","tel":"031-501-5133","addr":"경기도 안산시 상록구 본오동 862-7번지 103호","indutype":"건강식품 - 기타건강식품","category":"food"}]},{"lat":"37.296291001","long":"126.87090409","imageIndex":7,"items":[{"name":"아현축산","tel":"031-482-3985","addr":"경기도 안산시 상록구 본오동 797-6번지 1층","indutype":"음료식품 - 정육점","category":"food"}]},{"lat":"37.288400423","long":"126.86509892","imageIndex":7,"items":[{"name":"안미한과","tel":"031-419-4776","addr":"경기도 안산시 상록구 본오동 667-4번지 지층","indutype":"음료식품 - 제과점","category":"food"}]},{"lat":"37.297201961","long":"126.8717371","imageIndex":7,"items":[{"name":"안산디자인고 매점","tel":"031-400-3146","addr":"경기도 안산시 상록구 본오동 798번지 안산디자인문화고등학교 매점","indutype":"음료식품 - 기타음료식품","category":"food"}]},{"lat":"37.283098338","long":"126.86165805","imageIndex":7,"items":[{"name":"안산쌀연구회영농조합법인","tel":"031-406-3535","addr":"경기도 안산시 상록구 본오동 557-2","indutype":"음료식품 - 미곡상","category":"food"}]},{"lat":"37.287479326","long":"126.87121268","imageIndex":7,"items":[{"name":"안산원블루베리농장","tel":"","addr":"경기도 안산시 상록구 본오동 338-2번지","indutype":"음료식품 - 농·축·수산품","category":"food"}]},{"lat":"37.286175798","long":"126.86588107","imageIndex":7,"items":[{"name":"안씨네","tel":"031-494-0092","addr":"경기도 안산시 상록구 본오동 676-5번지 1층","indutype":"음료식품 - 정육점","category":"food"}]},{"lat":"37.295374143","long":"126.87287936","imageIndex":7,"items":[{"name":"약수떡방앗간","tel":"031-502-9909","addr":"경기도 안산시 상록구 본오동 769-1번지 1층","indutype":"음료식품 - 제과점","category":"food"}]},{"lat":"37.285592918","long":"126.86060466","imageIndex":7,"items":[{"name":"엄마손누룽지","tel":"","addr":"경기도 안산시 상록구 본오동 957-10번지","indutype":"음료식품 - 기타음료식품","category":"food"}]},{"lat":"37.28759034","long":"126.86582212","imageIndex":7,"items":[{"name":"에스엠 (SM) 유통","tel":"031-419-9234","addr":"경기도 안산시 상록구 본오동 669-5번지 1층 101호","indutype":"음료식품 - 정육점","category":"food"}]},{"lat":"37.289314387","long":"126.86080064","imageIndex":7,"items":[{"name":"연세우유안산","tel":"031-418-8118","addr":"경기도 안산시 상록구 본오동 927번지 1층 101,102호","indutype":"음료식품 - 기타음료식품","category":"food"}]},{"lat":"37.293257531","long":"126.87360478","imageIndex":7,"items":[{"name":"연수푸드","tel":"031-417-9440","addr":"경기도 안산시 상록구 본오동 777-13번지 1층","indutype":"음료식품 - 농·축·수산품","category":"food"}]},{"lat":"37.28365271","long":"126.85812752","imageIndex":7,"items":[{"name":"열매유통","tel":"031-408-1723","addr":"경기도 안산시 상록구 본오동 975-2번지 1층","indutype":"음료식품 - 기타음료식품","category":"food"}]},{"lat":"37.296533941","long":"126.86277204","imageIndex":7,"items":[{"name":"열정과일","tel":"031-407-6461","addr":"경기도 안산시 상록구 본오동 880-1번지 청원빌딩 108호","indutype":"음료식품 - 농·축·수산품","category":"food"},{"name":"청원떡집","tel":"031-409-9292","addr":"경기도 안산시 상록구 본오동 880-1번지 청원빌딩 104호","indutype":"음료식품 - 제과점","category":"food"}]},{"lat":"37.293316033","long":"126.8617179","imageIndex":7,"items":[{"name":"영덕상회","tel":"031-417-5989","addr":"경기도 안산시 상록구 본오동 882-2번지 101호","indutype":"음료식품 - 농·축·수산품","category":"food"}]},{"lat":"37.293064859","long":"126.86265442","imageIndex":7,"items":[{"name":"영떡방앗간","tel":"031-502-6340","addr":"경기도 안산시 상록구 본오동 882-10번지 1층","indutype":"음료식품 - 제과점","category":"food"},{"name":"영어조합법인가람","tel":"02-557-8011","addr":"경기도 안산시 상록구 본오동 882-10번지","indutype":"음료식품 - 농·축·수산품","category":"food"}]},{"lat":"37.284288843","long":"126.8626256","imageIndex":7,"items":[{"name":"영인(수)유통","tel":"","addr":"경기도 안산시 상록구 본오동 1152-23번지 303호","indutype":"음료식품 - 농·축·수산품","category":"food"}]},{"lat":"37.29481863","long":"126.86762477","imageIndex":7,"items":[{"name":"올바른해소다이어트","tel":"031-409-8617","addr":"경기도 안산시 상록구 본오동 822-5번지 103호","indutype":"건강식품 - 기타건강식품","category":"food"}]},{"lat":"37.301540196","long":"126.8756885","imageIndex":7,"items":[{"name":"우리농산물","tel":"","addr":"경기도 안산시 상록구 본오동 1132-6번지","indutype":"음료식품 - 농·축·수산품","category":"food"}]},{"lat":"37.292980243","long":"126.85971109","imageIndex":7,"items":[{"name":"우리동네정육점","tel":"031-418-4585","addr":"경기도 안산시 상록구 본오동 891-5번지 1층 103호","indutype":"음료식품 - 정육점","category":"food"}]},{"lat":"37.296395084","long":"126.86732871","imageIndex":7,"items":[{"name":"우성축산물센터","tel":"031-409-8322","addr":"경기도 안산시 상록구 본오동 814-3번지","indutype":"음료식품 - 정육점","category":"food"}]},{"lat":"37.294177752","long":"126.87468589","imageIndex":7,"items":[{"name":"원미수산","tel":"070-7618-0033","addr":"경기도 안산시 상록구 본오동 772-3번지 401호","indutype":"음료식품 - 농·축·수산품","category":"food"}]},{"lat":"37.297453295","long":"126.87087951","imageIndex":7,"items":[{"name":"월드건강","tel":"031-972-2234","addr":"경기도 안산시 상록구 본오동 799-6번지","indutype":"건강식품 - 기타건강식품","category":"food"}]},{"lat":"37.294484658","long":"126.86710658","imageIndex":7,"items":[{"name":"월드베스트타바코","tel":"031-000-0000","addr":"경기도 안산시 상록구 본오동 824번지 102호","indutype":"음료식품 - 기타음료식품","category":"food"}]},{"lat":"37.301817126","long":"126.86549177","imageIndex":7,"items":[{"name":"월드상사","tel":"031-408-1752","addr":"경기도 안산시 상록구 본오동 874-9번지 상록수상가 303호","indutype":"음료식품 - 기타음료식품","category":"food"}]},{"lat":"37.291539346","long":"126.86801407","imageIndex":7,"items":[{"name":"월드팜","tel":"031-418-8808","addr":"경기도 안산시 상록구 본오동 849번지 1층","indutype":"음료식품 - 기타음료식품","category":"food"}]},{"lat":"37.2945896081","long":"126.8722942566","imageIndex":7,"items":[{"name":"웰빙건강원","tel":"031-416-9125","addr":"경기도 안산시 상록구 본오동 779번지","indutype":"도매 및 소매업 - 건강식품","category":"food"}]},{"lat":"37.292986221","long":"126.86474095","imageIndex":7,"items":[{"name":"웰빙누룽지","tel":"031-406-2626","addr":"경기도 안산시 상록구 본오동 863번지","indutype":"음료식품 - 기타음료식품","category":"food"}]},{"lat":"37.293315656","long":"126.86140212","imageIndex":7,"items":[{"name":"유미네김치반찬전문점","tel":"031-419-5989","addr":"경기도 안산시 상록구 본오동 882번지 1층 1호","indutype":"음료식품 - 기타음료식품","category":"food"}]},{"lat":"37.300400215","long":"126.86352055","imageIndex":7,"items":[{"name":"윤이네 반찬","tel":"","addr":"경기도 안산시 상록구 본오동 872-3번지 안산송촌빌딩 103호","indutype":"음료식품 - 기타음료식품","category":"food"}]},{"lat":"37.293119414","long":"126.8630716","imageIndex":7,"items":[{"name":"이슬로건강본오점","tel":"031-407-2033","addr":"경기도 안산시 상록구 본오동 870-16번지 1층 102호","indutype":"건강식품 - 기타건강식품","category":"food"}]},{"lat":"37.28798679","long":"126.8658214","imageIndex":7,"items":[{"name":"이화제과","tel":"031-1111-111","addr":"경기도 안산시 상록구 본오동 668-6번지 101호","indutype":"음료식품 - 기타음료식품","category":"food"},{"name":"현주제과","tel":"031-431-8829","addr":"경기도 안산시 상록구 본오동 668-6번지 1층","indutype":"음료식품 - 기타음료식품","category":"food"}]},{"lat":"37.292538715","long":"126.85968937","imageIndex":7,"items":[{"name":"일구팔오(1985)","tel":"","addr":"경기도 안산시 상록구 본오동 892-6번지 1층 101,102호","indutype":"음료식품 - 제과점","category":"food"}]},{"lat":"37.29143039","long":"126.85963508","imageIndex":7,"items":[{"name":"일오삼정육점","tel":"031-408-5928","addr":"경기도 안산시 상록구 본오동 897-6번지 102호","indutype":"음료식품 - 정육점","category":"food"}]},{"lat":"37.299318923","long":"126.86346615","imageIndex":7,"items":[{"name":"자연섭생원","tel":"031-407-0290","addr":"경기도 안산시 상록구 본오동 872-8번지 연번지 202호","indutype":"건강식품 - 기타건강식품","category":"food"}]},{"lat":"37.293037719","long":"126.87037972","imageIndex":7,"items":[{"name":"장수수산","tel":"","addr":"경기도 안산시 상록구 본오동 834-5번지 백운아트빌 401호","indutype":"음료식품 - 농·축·수산품","category":"food"}]},{"lat":"37.286231392","long":"126.86721162","imageIndex":7,"items":[{"name":"장수식품","tel":"031-415-4288","addr":"경기도 안산시 상록구 본오동 684-14번지","indutype":"음료식품 - 기타음료식품","category":"food"}]},{"lat":"37.295923792","long":"126.87290097","imageIndex":7,"items":[{"name":"점핑센터","tel":"","addr":"경기도 안산시 상록구 본오동 762-16번지 4층","indutype":"건강식품 - 기타건강식품","category":"food"}]},{"lat":"37.293316516","long":"126.8621239","imageIndex":7,"items":[{"name":"정관장본오점","tel":"031-415-2304","addr":"경기도 안산시 상록구 본오동 882-5번지 1층","indutype":"건강식품 - 홍삼제품","category":"food"},{"name":"정관장서경기본오점","tel":"031-415-2304","addr":"경기도 안산시 상록구 본오동 882-5번지 1층","indutype":"건강식품 - 홍삼제품","category":"food"}]},{"lat":"37.301843698","long":"126.86509696","imageIndex":7,"items":[{"name":"정관장홍삼월드","tel":"031-406-6341","addr":"경기도 안산시 상록구 본오동 874-10번지 서일빌딩 305호","indutype":"건강식품 - 홍삼제품","category":"food"}]},{"lat":"37.295089452","long":"126.8680754","imageIndex":7,"items":[{"name":"정성반찬","tel":"031-407-7780","addr":"경기도 안산시 상록구 본오동 820-22번지 102호","indutype":"음료식품 - 기타음료식품","category":"food"}]},{"lat":"37.288426254","long":"126.86407266","imageIndex":7,"items":[{"name":"정직한정육점","tel":"031-419-3403","addr":"경기도 안산시 상록구 본오동 666-17번지 1층","indutype":"음료식품 - 정육점","category":"food"}]},{"lat":"37.284954124","long":"126.86138395","imageIndex":7,"items":[{"name":"제일마트정육점","tel":"031-419-7650","addr":"경기도 안산시 상록구 본오동 988-9번지 나경캐슬 1층","indutype":"음료식품 - 정육점","category":"food"}]},{"lat":"37.291591247","long":"126.86613063","imageIndex":7,"items":[{"name":"제일방앗간","tel":"031-408-8734","addr":"경기도 안산시 상록구 본오동 912-3번지","indutype":"음료식품 - 기타음료식품","category":"food"},{"name":"제일쌀상회","tel":"031-408-8734","addr":"경기도 안산시 상록구 본오동 912-3번지 상가 1층 103호","indutype":"음료식품 - 미곡상","category":"food"}]},{"lat":"37.287041289","long":"126.8663193","imageIndex":7,"items":[{"name":"제주청과","tel":"031-418-4334","addr":"경기도 안산시 상록구 본오동 715-21번지","indutype":"음료식품 - 농·축·수산품","category":"food"}]},{"lat":"37.285590094","long":"126.8658483","imageIndex":7,"items":[{"name":"주식회사 굿메이트","tel":"","addr":"경기도 안산시 상록구 본오동 680-6번지 2층","indutype":"건강식품 - 기타건강식품","category":"food"}]},{"lat":"37.288065819","long":"126.86405077","imageIndex":7,"items":[{"name":"주식회사삼우디앤씨(D&C)","tel":"031-502-1347","addr":"경기도 안산시 상록구 본오동 666-14번지 2층","indutype":"음료식품 - 농·축·수산품","category":"food"},{"name":"한스베이커리(본점)","tel":"031-417-1190","addr":"경기도 안산시 상록구 본오동 666-14번지","indutype":"음료식품 - 제과점","category":"food"},{"name":"형제떡방앗간","tel":"031-409-5095","addr":"경기도 안산시 상록구 본오동 666-14번지","indutype":"음료식품 - 기타음료식품","category":"food"}]},{"lat":"37.282676769","long":"126.85582905","imageIndex":7,"items":[{"name":"주식회사씨에스에프씨","tel":"031-415-1066","addr":"경기도 안산시 상록구 본오동 971-6번지 1층","indutype":"음료식품 - 기타음료식품","category":"food"}]},{"lat":"37.28547971","long":"126.86390892","imageIndex":7,"items":[{"name":"주식회사현대축산유통","tel":"031-408-5831","addr":"경기도 안산시 상록구 본오동 679-13번지 1층","indutype":"음료식품 - 정육점","category":"food"}]},{"lat":"37.296729402","long":"126.86815142","imageIndex":7,"items":[{"name":"중국식품","tel":"","addr":"경기도 안산시 상록구 본오동 805-16번지 1층 101호","indutype":"음료식품 - 기타음료식품","category":"food"}]},{"lat":"37.295507727","long":"126.87145809","imageIndex":7,"items":[{"name":"지앤에프(G&F)","tel":"031-418-5330","addr":"경기도 안산시 상록구 본오동 792번지 103호 102","indutype":"음료식품 - 정육점","category":"food"}]},{"lat":"37.29334243","long":"126.86118779","imageIndex":7,"items":[{"name":"참꼬기","tel":"031-415-7222","addr":"경기도 안산시 상록구 본오동 889-9번지 104호","indutype":"음료식품 - 정육점","category":"food"}]},{"lat":"37.297565868","long":"126.86685291","imageIndex":7,"items":[{"name":"참다한홍삼 상록수점","tel":"031-501-8834","addr":"경기도 안산시 상록구 본오동 813-18번지 102호","indutype":"건강식품 - 홍삼제품","category":"food"},{"name":"파리바게뜨 안산본오우성점","tel":"031-416-0300","addr":"경기도 안산시 상록구 본오동 813-18번지 103동 104호","indutype":"음료식품 - 제과점","category":"food"}]},{"lat":"37.289452186","long":"126.863022","imageIndex":7,"items":[{"name":"참한우정육점","tel":"031-417-0373","addr":"경기도 안산시 상록구 본오동 924-7번지","indutype":"음료식품 - 정육점","category":"food"}]},{"lat":"37.291534134","long":"126.86351435","imageIndex":7,"items":[{"name":"천지유통","tel":"","addr":"경기도 안산시 상록구 본오동 903-6번지 지층 103호","indutype":"음료식품 - 기타음료식품","category":"food"}]},{"lat":"37.293151438","long":"126.85971076","imageIndex":7,"items":[{"name":"청송떡갈비","tel":"031-416-1319","addr":"경기도 안산시 상록구 본오동 891-4번지 1층 102호","indutype":"음료식품 - 기타음료식품","category":"food"}]},{"lat":"37.293263751","long":"126.86321794","imageIndex":7,"items":[{"name":"체인지","tel":"031-407-8757","addr":"경기도 안산시 상록구 본오동 870-1번지 301호","indutype":"건강식품 - 기타건강식품","category":"food"},{"name":"체인지점핑핏&다이어트","tel":"031-407-8757","addr":"경기도 안산시 상록구 본오동 870-1번지 301호","indutype":"건강식품 - 기타건강식품","category":"food"}]},{"lat":"37.28367934","long":"126.85780046","imageIndex":7,"items":[{"name":"초우티앤비","tel":"031-416-6289","addr":"경기도 안산시 상록구 본오동 975번지","indutype":"음료식품 - 정육점","category":"food"}]},{"lat":"37.293263578","long":"126.86307133","imageIndex":7,"items":[{"name":"충람청과","tel":"031-406-8844","addr":"경기도 안산시 상록구 본오동 870번지 신안프라자 1층 119호","indutype":"음료식품 - 농·축·수산품","category":"food"}]},{"lat":"37.296203146","long":"126.87293433","imageIndex":7,"items":[{"name":"카페비아(CaffeVia)","tel":"031-418-0625","addr":"경기도 안산시 상록구 본오동 762번지 1층 103호","indutype":"음료식품 - 제과점","category":"food"}]},{"lat":"37.296318349","long":"126.86332507","imageIndex":7,"items":[{"name":"코끼리소아청소년과 (건식)","tel":"031-407-1178","addr":"경기도 안산시 상록구 본오동 871-2번지 동보프라자 203호","indutype":"건강식품 - 기타건강식품","category":"food"}]},{"lat":"37.3013125148","long":"126.8654588528","imageIndex":7,"items":[{"name":"쿡1015","tel":"031-418-1015","addr":"경기도 안산시 상록구 본오동 873-4번지","indutype":"제조업 - 혼합음료,김치,절임식품","category":"food"}]},{"lat":"37.290924626","long":"126.85865491","imageIndex":7,"items":[{"name":"태원상회","tel":"","addr":"경기도 안산시 상록구 본오동 896-14번지","indutype":"음료식품 - 농·축·수산품","category":"food"}]},{"lat":"37.294310875","long":"126.8728248","imageIndex":7,"items":[{"name":"파리바게뜨 안산본 오스타점","tel":"031-416-8248","addr":"경기도 안산시 상록구 본오동 770-16번지","indutype":"음료식품 - 제과점","category":"food"}]},{"lat":"37.296507563","long":"126.86332473","imageIndex":7,"items":[{"name":"파리바게뜨(본오2호점)","tel":"031-407-2590","addr":"경기도 안산시 상록구 본오동 871-1번지 유경빌딩 105호","indutype":"음료식품 - 제과점","category":"food"}]},{"lat":"37.300979595","long":"126.86585422","imageIndex":7,"items":[{"name":"파리바게뜨(상록수역점)","tel":"031-417-8243","addr":"경기도 안산시 상록구 본오동 873-7번지 리치스빌딩 1층 101,105,106호","indutype":"음료식품 - 제과점","category":"food"}]},{"lat":"37.292006224","long":"126.86656971","imageIndex":7,"items":[{"name":"파리바게뜨(안산본오중점)","tel":"031-417-0023","addr":"경기도 안산시 상록구 본오동 860번지 1층","indutype":"음료식품 - 제과점","category":"food"}]},{"lat":"37.293290155","long":"126.86268784","imageIndex":7,"items":[{"name":"파리바게뜨안산본오점","tel":"031-416-8277","addr":"경기도 안산시 상록구 본오동 882-9번지","indutype":"음료식품 - 제과점","category":"food"}]},{"lat":"37.297119632","long":"126.86279351","imageIndex":7,"items":[{"name":"평창떡방앗간","tel":"031-408-4101","addr":"경기도 안산시 상록구 본오동 879-13번지 녹원빌딩 106호","indutype":"음료식품 - 제과점","category":"food"}]},{"lat":"37.287207046","long":"126.8616842","imageIndex":7,"items":[{"name":"평화식품","tel":"031-406-7380","addr":"경기도 안산시 상록구 본오동 944-11번지 1층","indutype":"음료식품 - 기타음료식품","category":"food"}]},{"lat":"37.291929233","long":"126.87017867","imageIndex":7,"items":[{"name":"푸드벤처","tel":"070-7404-1462","addr":"경기도 안산시 상록구 본오동 838-5번지","indutype":"음료식품 - 기타음료식품","category":"food"}]},{"lat":"37.290285206","long":"126.86651643","imageIndex":7,"items":[{"name":"푸줏간","tel":"031-409-7774","addr":"경기도 안산시 상록구 본오동 854-16번지","indutype":"음료식품 - 정육점","category":"food"}]},{"lat":"37.295121336","long":"126.87240612","imageIndex":7,"items":[{"name":"하나로 축산","tel":"031-409-9266","addr":"경기도 안산시 상록구 본오동 791-3번지","indutype":"음료식품 - 정육점","category":"food"}]},{"lat":"37.289763348","long":"126.85951419","imageIndex":7,"items":[{"name":"하늘수산","tel":"","addr":"경기도 안산시 상록구 본오동 933-1번지 롯데하이빌라3차 202호","indutype":"음료식품 - 농·축·수산품","category":"food"}]},{"lat":"37.292124204","long":"126.85965632","imageIndex":7,"items":[{"name":"하니정육","tel":"031-416-4424","addr":"경기도 안산시 상록구 본오동 893-10번지","indutype":"음료식품 - 정육점","category":"food"}]},{"lat":"37.292179137","long":"126.86806932","imageIndex":7,"items":[{"name":"한국야쿠르트본오점","tel":"031-409-3422","addr":"경기도 안산시 상록구 본오동 859-7번지","indutype":"음료식품 - 기타음료식품","category":"food"}]},{"lat":"37.30181757","long":"126.86587526","imageIndex":7,"items":[{"name":"한아름즉석빵","tel":"031-407-9266","addr":"경기도 안산시 상록구 본오동 874-8번지 청암빌딩 1층 104호","indutype":"음료식품 - 제과점","category":"food"}]},{"lat":"37.293402684","long":"126.85885318","imageIndex":7,"items":[{"name":"한양만수건강원","tel":"031-409-2233","addr":"경기도 안산시 상록구 본오동 890-6번지","indutype":"건강식품 - 기타건강식품","category":"food"},{"name":"한양만수건강원","tel":"031-409-2233","addr":"경기도 안산시 상록구 본오동 890-6번지","indutype":"건강식품 - 기타건강식품","category":"food"}]},{"lat":"37.293736291","long":"126.86665681","imageIndex":7,"items":[{"name":"한우마을","tel":"031-406-4592","addr":"경기도 안산시 상록구 본오동 823-12번지 102호","indutype":"음료식품 - 정육점","category":"food"},{"name":"행운을드리는복권방","tel":"031-502-0425","addr":"경기도 안산시 상록구 본오동 823-12번지 103호","indutype":"음료식품 - 기타음료식품","category":"food"}]},{"lat":"37.301063367","long":"126.86818881","imageIndex":7,"items":[{"name":"한울","tel":"031-8085-7407","addr":"경기도 안산시 상록구 본오동 1111-20번지 상록수체육관 2층","indutype":"음료식품 - 기타음료식품","category":"food"}]},{"lat":"37.294091998","long":"126.86262996","imageIndex":7,"items":[{"name":"한울총각네고기백화점","tel":"031-409-2628","addr":"경기도 안산시 상록구 본오동 880-13번지 굿모닝리빙프라자 103호","indutype":"음료식품 - 정육점","category":"food"}]},{"lat":"37.301119095","long":"126.86188378","imageIndex":7,"items":[{"name":"핵산바이오연수점","tel":"070-3659-3459","addr":"경기도 안산시 상록구 본오동 878-9번지 317호","indutype":"건강식품 - 기타건강식품","category":"food"}]},{"lat":"37.289816128","long":"126.86604363","imageIndex":7,"items":[{"name":"행복더블유샵","tel":"","addr":"경기도 안산시 상록구 본오동 914-2번지 1층 103호","indutype":"음료식품 - 기타음료식품","category":"food"}]},{"lat":"37.292063167","long":"126.86134808","imageIndex":7,"items":[{"name":"행복하우스","tel":"031-406-7089","addr":"경기도 안산시 상록구 본오동 885-14번지 103호","indutype":"건강식품 - 기타건강식품","category":"food"}]},{"lat":"37.295040814","long":"126.86496275","imageIndex":7,"items":[{"name":"현미와누룽지","tel":"031-765-3653","addr":"경기도 안산시 상록구 본오동 871번지 신안프라자 126동 103호","indutype":"음료식품 - 기타음료식품","category":"food"}]},{"lat":"37.300699615","long":"126.87326496","imageIndex":7,"items":[{"name":"호텔베이커리","tel":"031-417-8882","addr":"경기도 안산시 상록구 본오동 1129-7번지 1층","indutype":"음료식품 - 제과점","category":"food"}]},{"lat":"37.296291341","long":"126.87120861","imageIndex":7,"items":[{"name":"황금청과","tel":"031-966-2555","addr":"경기도 안산시 상록구 본오동 797-8번지 103호","indutype":"음료식품 - 농·축·수산품","category":"food"}]},{"lat":"37.298505719","long":"126.86929867","imageIndex":7,"items":[{"name":"희영 청과","tel":"070-7569-4282","addr":"경기도 안산시 상록구 본오동 809-7번지 104호","indutype":"음료식품 - 농·축·수산품","category":"food"}]}]