[{"lat":"37.53432366","long":"127.46795312","imageIndex":4,"items":[{"name":"(주)양평한우","tel":"031-775-5949","addr":"경기도 양평군 옥천면 신복리 830-1번지","indutype":"일반휴게음식 - 일반한식","category":"restaurant"}]},{"lat":"37.552934168","long":"127.45967174","imageIndex":4,"items":[{"name":"가래징개","tel":"031-772-5385","addr":"경기도 양평군 옥천면 신복리 311-3번지","indutype":"일반휴게음식 - 일반한식","category":"restaurant"}]},{"lat":"37.543099235","long":"127.46334575","imageIndex":4,"items":[{"name":"김상진가게","tel":"031-775-1514","addr":"경기도 양평군 옥천면 신복리 482-12번지 1층","indutype":"일반휴게음식 - 일반한식","category":"restaurant"}]},{"lat":"37.532404187","long":"127.46575767","imageIndex":4,"items":[{"name":"꽃국수","tel":"031-772-1337","addr":"경기도 양평군 옥천면 신복리 786번지","indutype":"일반휴게음식 - 일반한식","category":"restaurant"}]},{"lat":"37.542208919","long":"127.46292162","imageIndex":4,"items":[{"name":"꽃피우다카페","tel":"070-8866-7720","addr":"경기도 양평군 옥천면 신복리 459-6번지 1층","indutype":"일반휴게음식 - 서양음식","category":"restaurant"},{"name":"커피포트","tel":"031-775-8038","addr":"경기도 양평군 옥천면 신복리 459-6번지 외1필지","indutype":"일반휴게음식 - 일반한식","category":"restaurant"}]},{"lat":"37.542101201","long":"127.46281912","imageIndex":4,"items":[{"name":"나주장작불곰탕","tel":"031-771-8892","addr":"경기도 양평군 옥천면 신복리 461-2","indutype":"일반휴게음식 - 일반한식","category":"restaurant"}]},{"lat":"37.55215213","long":"127.45920299","imageIndex":4,"items":[{"name":"대부산가든","tel":"031-772-5711","addr":"경기도 양평군 옥천면 신복리 307-1번지","indutype":"일반휴게음식 - 일반한식","category":"restaurant"}]},{"lat":"37.585595944","long":"127.45461799","imageIndex":4,"items":[{"name":"도치골가든","tel":"031-774-1256","addr":"경기도 양평군 옥천면 신복리 82번지","indutype":"일반휴게음식 - 일반한식","category":"restaurant"}]},{"lat":"37.550044066","long":"127.45914487","imageIndex":4,"items":[{"name":"동막골가든","tel":"031-773-2622","addr":"경기도 양평군 옥천면 신복리 341-1번지","indutype":"일반휴게음식 - 일반한식","category":"restaurant"}]},{"lat":"37.549908923","long":"127.45914405","imageIndex":4,"items":[{"name":"동막골식당","tel":"031-773-2622","addr":"경기도 양평군 옥천면 신복리 342-2번지 외 1호","indutype":"일반휴게음식 - 일반한식","category":"restaurant"}]},{"lat":"37.532154173","long":"127.46976113","imageIndex":4,"items":[{"name":"만복가든","tel":"031-773-4530","addr":"경기도 양평군 옥천면 신복리 731-1번지","indutype":"일반휴게음식 - 일반한식","category":"restaurant"},{"name":"양평기사식당","tel":"031-775-0401","addr":"경기도 양평군 옥천면 신복리 731-1번지 1층","indutype":"일반휴게음식 - 일반한식","category":"restaurant"}]},{"lat":"37.523299902","long":"127.46226251","imageIndex":4,"items":[{"name":"몽실면당","tel":"031-771-4923","addr":"경기도 양평군 옥천면 신복리 1134번지","indutype":"일반휴게음식 - 일반한식","category":"restaurant"}]},{"lat":"37.549402331","long":"127.45967282","imageIndex":4,"items":[{"name":"뭉치네정육식당","tel":"031-775-8877","addr":"경기도 양평군 옥천면 신복리 347-1번지","indutype":"일반휴게음식 - 일반한식","category":"restaurant"}]},{"lat":"37.543022071","long":"127.46233823","imageIndex":4,"items":[{"name":"방앗간가든","tel":"031-772-4238","addr":"경기도 양평군 옥천면 신복리 489-3번지","indutype":"일반휴게음식 - 일반한식","category":"restaurant"}]},{"lat":"37.532570492","long":"127.46928855","imageIndex":4,"items":[{"name":"베리타커피(VERITA COFFEE)","tel":"031-774-8810","addr":"경기도 양평군 옥천면 신복리 732-4","indutype":"일반휴게음식 - 서양음식","category":"restaurant"}]},{"lat":"37.540736078","long":"127.46401011","imageIndex":4,"items":[{"name":"보고리반상","tel":"031-771-5418","addr":"경기도 양평군 옥천면 신복리 458-6번지 1층","indutype":"일반휴게음식 - 일반한식","category":"restaurant"}]},{"lat":"37.549268368","long":"127.45936647","imageIndex":4,"items":[{"name":"숯가마한우집","tel":"031-772-5678","addr":"경기도 양평군 옥천면 신복리 346-1번지","indutype":"일반휴게음식 - 일반한식","category":"restaurant"}]},{"lat":"37.550736184","long":"127.4595678","imageIndex":4,"items":[{"name":"시골가든","tel":"031-775-5500","addr":"경기도 양평군 옥천면 신복리 338-1번지","indutype":"일반휴게음식 - 일반한식","category":"restaurant"}]},{"lat":"37.555711875","long":"127.46361573","imageIndex":4,"items":[{"name":"쌈지골","tel":"","addr":"경기도 양평군 옥천면 신복리 192-1번지","indutype":"일반휴게음식 - 일반한식","category":"restaurant"}]},{"lat":"37.539909669","long":"127.4633714","imageIndex":4,"items":[{"name":"쏘유","tel":"031-772-0077","addr":"경기도 양평군 옥천면 신복리 694번지 1,2층","indutype":"일반휴게음식 - 서양음식","category":"restaurant"}]},{"lat":"37.566792548","long":"127.45698324","imageIndex":4,"items":[{"name":"알에스푸드빌 양평","tel":"031-772-3050","addr":"경기도 양평군 옥천면 신복리 141-5번지 (2층(한화콘도미니엄))","indutype":"일반휴게음식 - 일반한식","category":"restaurant"}]},{"lat":"37.528659696","long":"127.46484081","imageIndex":4,"items":[{"name":"양재네","tel":"031-772-1810","addr":"경기도 양평군 옥천면 신복리 1107-1","indutype":"일반휴게음식 - 일반한식","category":"restaurant"}]},{"lat":"37.533572193","long":"127.4665908","imageIndex":4,"items":[{"name":"오리촌돌판구이","tel":"031-774-2447","addr":"경기도 양평군 옥천면 신복리 799-1번지","indutype":"일반휴게음식 - 일반한식","category":"restaurant"}]},{"lat":"37.581676444","long":"127.4593718","imageIndex":4,"items":[{"name":"오픈하우스","tel":"031-771-6306","addr":"경기도 양평군 옥천면 신복리 117-1","indutype":"일반휴게음식 - 서양음식","category":"restaurant"}]},{"lat":"37.54979123","long":"127.45929044","imageIndex":4,"items":[{"name":"오피카페","tel":"031-4131-5252","addr":"경기도 양평군 옥천면 신복리 343-1번지","indutype":"일반휴게음식 - 서양음식","category":"restaurant"}]},{"lat":"37.53212986","long":"127.46678551","imageIndex":4,"items":[{"name":"옥천순두부","tel":"031-774-4369","addr":"경기도 양평군 옥천면 신복리 798-1번지","indutype":"일반휴게음식 - 일반한식","category":"restaurant"}]},{"lat":"37.529800371","long":"127.4657529","imageIndex":4,"items":[{"name":"우리집밥상","tel":"031-772-8172","addr":"경기도 양평군 옥천면 신복리 763-1번지","indutype":"일반휴게음식 - 일반한식","category":"restaurant"}]},{"lat":"37.546826355","long":"127.46178447","imageIndex":4,"items":[{"name":"울엄마보리밥","tel":"031-775-5617","addr":"경기도 양평군 옥천면 신복리 353-6번지","indutype":"일반휴게음식 - 일반한식","category":"restaurant"}]},{"lat":"37.534992906","long":"127.46731238","imageIndex":4,"items":[{"name":"중미산마포소금구이","tel":"031-771-1322","addr":"경기도 양평군 옥천면 신복리 835-6번지","indutype":"일반휴게음식 - 일반한식","category":"restaurant"}]},{"lat":"37.535128584","long":"127.46717745","imageIndex":4,"items":[{"name":"중미산막국수","tel":"031-773-1834","addr":"경기도 양평군 옥천면 신복리 835-1번지","indutype":"일반휴게음식 - 일반한식","category":"restaurant"}]},{"lat":"37.529712845","long":"127.46509619","imageIndex":4,"items":[{"name":"찐빵앤커피","tel":"031-774-1192","addr":"경기도 양평군 옥천면 신복리 769-1번지 1층","indutype":"일반휴게음식 - 서양음식","category":"restaurant"}]},{"lat":"37.535292401","long":"127.46675984","imageIndex":4,"items":[{"name":"카페중미산제빵소","tel":"031-772-1734","addr":"경기도 양평군 옥천면 신복리 834-21번지","indutype":"일반휴게음식 - 서양음식","category":"restaurant"}]},{"lat":"37.533157841","long":"127.46656561","imageIndex":4,"items":[{"name":"펠리시아(felicia)","tel":"031-771-1178","addr":"경기도 양평군 옥천면 신복리 799-9번지","indutype":"일반휴게음식 - 서양음식","category":"restaurant"}]},{"lat":"37.530909437","long":"127.46553348","imageIndex":4,"items":[{"name":"호남묵은지","tel":"031-775-1038","addr":"경기도 양평군 옥천면 신복리 778-3번지","indutype":"일반휴게음식 - 일반한식","category":"restaurant"}]},{"lat":"37.533600887","long":"127.46845775","imageIndex":4,"items":[{"name":"화니핀야생화찻집","tel":"031-775-6501","addr":"경기도 양평군 옥천면 신복리 804-1","indutype":"일반휴게음식 - 스넥","category":"restaurant"}]}]