[{"lat":"37.281902288","long":"126.98878686","imageIndex":0,"items":[{"name":"(주)디에스컨벤션","tel":"031-298-8325","addr":"경기도 수원시 팔달구 화서동 436-3번지","indutype":"자동차정비 유지 - 주차장","category":"car"}]},{"lat":"37.282732034","long":"127.00592655","imageIndex":0,"items":[{"name":"(주)윈윈모터스","tel":"031-256-1212","addr":"경기도 수원시 팔달구 화서동 68-2번지","indutype":"자동차판매 - 이륜차판매","category":"car"}]},{"lat":"37.279623136","long":"126.99322993","imageIndex":0,"items":[{"name":"FM.모터스","tel":"031-251-5582","addr":"경기도 수원시 팔달구 화서동 220-61번지","indutype":"자동차정비 유지 - 자동차정비","category":"car"},{"name":"트윈스피드자동차공업사","tel":"031-247-6321","addr":"경기도 수원시 팔달구 화서동 220-61번지 34","indutype":"자동차정비 유지 - 자동차정비","category":"car"}]},{"lat":"37.282398691","long":"127.00219413","imageIndex":0,"items":[{"name":"경기특수렉카","tel":"031-256-8720","addr":"경기도 수원시 팔달구 화서동 81-28번지 202호","indutype":"자동차정비 유지 - 견인서비스","category":"car"}]},{"lat":"37.282101167","long":"126.99622906","imageIndex":0,"items":[{"name":"그린카","tel":"031-248-7331","addr":"경기도 수원시 팔달구 화서동 249-7번지","indutype":"자동차정비 유지 - 자동차정비","category":"car"}]},{"lat":"37.277649963","long":"126.99422242","imageIndex":0,"items":[{"name":"늘푸른자동차정비","tel":"031-269-4792","addr":"경기도 수원시 팔달구 화서동 142번지","indutype":"자동차정비 유지 - 자동차정비","category":"car"}]},{"lat":"37.278154667","long":"126.99619558","imageIndex":0,"items":[{"name":"달인출장세차","tel":"031-1600-2674","addr":"경기도 수원시 팔달구 화서동 169-5번지 202호","indutype":"자동차정비 유지 - 세차장","category":"car"}]},{"lat":"37.285794343","long":"126.98589931","imageIndex":0,"items":[{"name":"대가모터스","tel":"031-298-7766","addr":"경기도 수원시 팔달구 화서동 685-4번지","indutype":"자동차정비 유지 - 자동차정비","category":"car"}]},{"lat":"37.284092414","long":"126.99586804","imageIndex":0,"items":[{"name":"부산카정비센터","tel":"031-244-4132","addr":"경기도 수원시 팔달구 화서동 269-2번지","indutype":"자동차정비 유지 - 카인테리어","category":"car"}]},{"lat":"37.286849386","long":"126.99345455","imageIndex":0,"items":[{"name":"서부카서비스","tel":"031-251-2300","addr":"경기도 수원시 팔달구 화서동 647-2번지","indutype":"자동차정비 유지 - 자동차정비","category":"car"}]},{"lat":"37.282317405","long":"126.99609373","imageIndex":0,"items":[{"name":"세진카센타","tel":"031-254-3801","addr":"경기도 수원시 팔달구 화서동 249-16번지","indutype":"자동차정비 유지 - 자동차정비","category":"car"},{"name":"세진카센타","tel":"031-254-3891","addr":"경기도 수원시 팔달구 화서동 249-16번지","indutype":"자동차정비 유지 - 자동차정비","category":"car"}]},{"lat":"37.283290393","long":"126.99423305","imageIndex":0,"items":[{"name":"수원시니어클럽","tel":"031-8008-8899","addr":"경기도 수원시 팔달구 화서동 277-2번지","indutype":"자동차정비 유지 - 세차장","category":"car"}]},{"lat":"37.276983275","long":"126.99525983","imageIndex":0,"items":[{"name":"신지종합카클리닉","tel":"031-241-2329","addr":"경기도 수원시 팔달구 화서동 184-106번지","indutype":"자동차정비 유지 - 카인테리어","category":"car"}]},{"lat":"37.289704646","long":"126.98489475","imageIndex":0,"items":[{"name":"쌍용자동차써비스프라자화서코너","tel":"031-298-5582","addr":"경기도 수원시 팔달구 화서동 737번지","indutype":"자동차정비 유지 - 자동차정비","category":"car"}]},{"lat":"37.277127419","long":"126.99495538","imageIndex":0,"items":[{"name":"양지종합카인테리어","tel":"031-256-3047","addr":"경기도 수원시 팔달구 화서동 137-4번지","indutype":"자동차정비 유지 - 자동차정비","category":"car"}]},{"lat":"37.286928556","long":"126.97956147","imageIndex":0,"items":[{"name":"진성공업사","tel":"031-291-0560","addr":"경기도 수원시 팔달구 화서동 723-1번지","indutype":"자동차정비 유지 - 자동차정비","category":"car"}]},{"lat":"37.285433944","long":"126.98597833","imageIndex":0,"items":[{"name":"차완벽복원","tel":"031-294-7174","addr":"경기도 수원시 팔달구 화서동 685-7번지","indutype":"자동차정비 유지 - 카인테리어","category":"car"}]},{"lat":"37.280569599","long":"127.00437039","imageIndex":0,"items":[{"name":"착한타이어","tel":"031-226-6235","addr":"경기도 수원시 팔달구 화서동 71-58번지 B동 1호","indutype":"자동차정비 유지 - 자동차시트·타이어","category":"car"}]},{"lat":"37.286091778","long":"126.98658712","imageIndex":0,"items":[{"name":"참수리카서비스","tel":"031-294-2201","addr":"경기도 수원시 팔달구 화서동 686-13번지 1층","indutype":"자동차정비 유지 - 자동차정비","category":"car"}]},{"lat":"37.277433724","long":"126.99431265","imageIndex":0,"items":[{"name":"카인덴트 수원점","tel":"070-7737-7752","addr":"경기도 수원시 팔달구 화서동 141-2번지","indutype":"자동차정비 유지 - 세차장","category":"car"}]},{"lat":"37.279037849","long":"127.00469735","imageIndex":0,"items":[{"name":"하이카","tel":"031-291-3934","addr":"경기도 수원시 팔달구 화서동 62-6번지 101호","indutype":"자동차정비 유지 - 세차장","category":"car"}]},{"lat":"37.278461202","long":"127.0020363","imageIndex":0,"items":[{"name":"화서시장상인회","tel":"031-241-4578","addr":"경기도 수원시 팔달구 화서동 97-1","indutype":"자동차정비 유지 - 주차장","category":"car"}]},{"lat":"37.281876072","long":"127.00534016","imageIndex":0,"items":[{"name":"화서점현대자동차","tel":"031-247-8204","addr":"경기도 수원시 팔달구 화서동 70-2번지","indutype":"자동차정비 유지 - 자동차정비","category":"car"}]},{"lat":"37.280010548","long":"126.99286906","imageIndex":0,"items":[{"name":"화서제일오토오아시스","tel":"031-251-8812","addr":"경기도 수원시 팔달구 화서동 224-7번지","indutype":"자동차정비 유지 - 자동차정비","category":"car"}]}]