[{"lat":"37.661853543","long":"126.79657053","imageIndex":7,"items":[{"name":"강원농장","tel":"","addr":"경기도 고양시 일산동구 풍동 421-4번지","indutype":"음료식품 - 농·축·수산품","category":"food"}]},{"lat":"37.658129902","long":"126.8002413","imageIndex":7,"items":[{"name":"굼마을 촌","tel":"","addr":"경기도 고양시 일산동구 풍동 439-2번지","indutype":"음료식품 - 기타음료식품","category":"food"}]},{"lat":"37.663628835","long":"126.79679229","imageIndex":7,"items":[{"name":"굿모닝365 주식회사","tel":"031-908-5003","addr":"경기도 고양시 일산동구 풍동 1292-1번지","indutype":"건강식품 - 기타건강식품","category":"food"},{"name":"남양알로에(유니베라)일산동구","tel":"031-905-3636","addr":"경기도 고양시 일산동구 풍동 1292-1번지","indutype":"건강식품 - 기타건강식품","category":"food"},{"name":"워낭축산","tel":"031-907-0830","addr":"경기도 고양시 일산동구 풍동 1292-1번지","indutype":"음료식품 - 정육점","category":"food"},{"name":"파리바게뜨 풍동미르점","tel":"031-906-8295","addr":"경기도 고양시 일산동구 풍동 1292-1번지","indutype":"음료식품 - 제과점","category":"food"},{"name":"팜스","tel":"031-902-0805","addr":"경기도 고양시 일산동구 풍동 1292-1번지","indutype":"음료식품 - 기타음료식품","category":"food"},{"name":"한솔메디팜","tel":"031-902-3377","addr":"경기도 고양시 일산동구 풍동 1292-1번지","indutype":"음료식품 - 기타음료식품","category":"food"}]},{"lat":"37.672019685","long":"126.78829063","imageIndex":7,"items":[{"name":"김익주산삼갤러리","tel":"031-965-3382","addr":"경기도 고양시 일산동구 풍동 1153-4번지","indutype":"음료식품 - 농·축·수산품","category":"food"}]},{"lat":"37.654406794","long":"126.79901622","imageIndex":7,"items":[{"name":"대가","tel":"031-906-9533","addr":"경기도 고양시 일산동구 풍동 527-6번지","indutype":"음료식품 - 농·축·수산품","category":"food"}]},{"lat":"37.675930396","long":"126.79359568","imageIndex":7,"items":[{"name":"대게좋은날","tel":"031-907-6789","addr":"경기도 고양시 일산동구 풍동 622번지","indutype":"음료식품 - 농·축·수산품","category":"food"}]},{"lat":"37.667716415","long":"126.80037392","imageIndex":7,"items":[{"name":"던킨도너츠일산풍동점","tel":"031-904-3511","addr":"경기도 고양시 일산동구 풍동 1275번지","indutype":"음료식품 - 제과점","category":"food"},{"name":"점핑다이어트","tel":"","addr":"경기도 고양시 일산동구 풍동 1275번지","indutype":"건강식품 - 기타건강식품","category":"food"},{"name":"종로떡집","tel":"031-907-2533","addr":"경기도 고양시 일산동구 풍동 1275번지","indutype":"음료식품 - 제과점","category":"food"}]},{"lat":"37.668497438","long":"126.79873966","imageIndex":7,"items":[{"name":"돌체포오코","tel":"","addr":"경기도 고양시 일산동구 풍동 1267번지 숲속마을5단지아파트","indutype":"건강식품 - 기타건강식품","category":"food"}]},{"lat":"37.673353246","long":"126.79851099","imageIndex":7,"items":[{"name":"동행F&B","tel":"031-4464-1474","addr":"경기도 고양시 일산동구 풍동 1250번지","indutype":"음료식품 - 기타음료식품","category":"food"}]},{"lat":"37.666491477","long":"126.8005926","imageIndex":7,"items":[{"name":"두레축산","tel":"070-9977-9987","addr":"경기도 고양시 일산동구 풍동 1295-15번지","indutype":"음료식품 - 정육점","category":"food"}]},{"lat":"37.667544239","long":"126.79979635","imageIndex":7,"items":[{"name":"두부장터","tel":"031-902-5245","addr":"경기도 고양시 일산동구 풍동 1274-1번지","indutype":"음료식품 - 기타음료식품","category":"food"},{"name":"풍동시골장터","tel":"031-902-3545","addr":"경기도 고양시 일산동구 풍동 1274-1번지","indutype":"음료식품 - 농·축·수산품","category":"food"},{"name":"하이축산","tel":"031-932-0535","addr":"경기도 고양시 일산동구 풍동 1274-1번지","indutype":"음료식품 - 정육점","category":"food"}]},{"lat":"37.663270991","long":"126.80351405","imageIndex":7,"items":[{"name":"드림홈쇼핑","tel":"","addr":"경기도 고양시 일산동구 풍동 150-39번지","indutype":"음료식품 - 기타음료식품","category":"food"}]},{"lat":"37.665708708","long":"126.79601583","imageIndex":7,"items":[{"name":"막내딸집건어물 일산점","tel":"","addr":"경기도 고양시 일산동구 풍동 1222번지 성원상떼빌5차아파트","indutype":"음료식품 - 농·축·수산품","category":"food"}]},{"lat":"37.661217255","long":"126.80379153","imageIndex":7,"items":[{"name":"매일유업동일산대리점","tel":"031-906-1808","addr":"경기도 고양시 일산동구 풍동 140-6번지","indutype":"음료식품 - 기타음료식품","category":"food"}]},{"lat":"37.663604504","long":"126.79321095","imageIndex":7,"items":[{"name":"미성유통","tel":"032-674-2870","addr":"경기도 고양시 일산동구 풍동 1186번지","indutype":"음료식품 - 농·축·수산품","category":"food"}]},{"lat":"37.674684143","long":"126.79195557","imageIndex":7,"items":[{"name":"미오베이커리","tel":"031-968-4944","addr":"경기도 고양시 일산동구 풍동 616-3번지","indutype":"음료식품 - 제과점","category":"food"}]},{"lat":"37.66536309","long":"126.79932627","imageIndex":7,"items":[{"name":"민하네과일가게","tel":"","addr":"경기도 고양시 일산동구 풍동 1286번지 숲속마을2단지아파트","indutype":"음료식품 - 농·축·수산품","category":"food"}]},{"lat":"37.66774245","long":"126.79979581","imageIndex":7,"items":[{"name":"반찬전문점미복","tel":"031-901-9689","addr":"경기도 고양시 일산동구 풍동 1274번지","indutype":"음료식품 - 기타음료식품","category":"food"}]},{"lat":"37.666490776","long":"126.80018457","imageIndex":7,"items":[{"name":"밥보다 초밥","tel":"","addr":"경기도 고양시 일산동구 풍동 1294-2번지","indutype":"음료식품 - 기타음료식품","category":"food"}]},{"lat":"37.66074047","long":"126.793797","imageIndex":7,"items":[{"name":"백마매점","tel":"031-975-2721","addr":"경기도 고양시 일산동구 풍동 514-3번지","indutype":"음료식품 - 기타음료식품","category":"food"}]},{"lat":"37.667264745","long":"126.79968377","imageIndex":7,"items":[{"name":"베스킨라빈스풍동점","tel":"031-908-3107","addr":"경기도 고양시 일산동구 풍동","indutype":"음료식품 - 제과점","category":"food"},{"name":"비타민청과","tel":"031-908-2060","addr":"경기도 고양시 일산동구 풍동 1279-4번지","indutype":"음료식품 - 농·축·수산품","category":"food"},{"name":"파리바게트(풍동로데오점)","tel":"031-904-0405","addr":"경기도 고양시 일산동구 풍동","indutype":"음료식품 - 제과점","category":"food"}]},{"lat":"37.664071078","long":"126.79723308","imageIndex":7,"items":[{"name":"브레드하우스","tel":"031-921-1449","addr":"경기도 고양시 일산동구 풍동 1354번지","indutype":"음료식품 - 제과점","category":"food"}]},{"lat":"37.667300158","long":"126.79932098","imageIndex":7,"items":[{"name":"식빵공방 일산풍동점","tel":"031-905-5580","addr":"경기도 고양시 일산동구 풍동 1279-3번지","indutype":"음료식품 - 제과점","category":"food"},{"name":"초정 착한 한우","tel":"031-901-1793","addr":"경기도 고양시 일산동구 풍동 1279-3번지","indutype":"음료식품 - 정육점","category":"food"}]},{"lat":"37.661073384","long":"126.79354673","imageIndex":7,"items":[{"name":"신도시바다회쎈타","tel":"031-901-6361","addr":"경기도 고양시 일산동구 풍동 1062번지","indutype":"음료식품 - 농·축·수산품","category":"food"}]},{"lat":"37.660353036","long":"126.79378675","imageIndex":7,"items":[{"name":"애플트리","tel":"031-905-0328","addr":"경기도 고양시 일산동구 풍동 513-7번지","indutype":"음료식품 - 기타음료식품","category":"food"}]},{"lat":"37.670881736","long":"126.80208819","imageIndex":7,"items":[{"name":"에테르","tel":"","addr":"경기도 고양시 일산동구 풍동 1261번지 숲속마을7단지아파트","indutype":"건강식품 - 기타건강식품","category":"food"}]},{"lat":"37.667758611","long":"126.79871902","imageIndex":7,"items":[{"name":"엘리트 청과야채","tel":"","addr":"경기도 고양시 일산동구 풍동 1273-6번지","indutype":"음료식품 - 농·축·수산품","category":"food"}]},{"lat":"37.659765708","long":"126.8032061","imageIndex":7,"items":[{"name":"연세우유고양특판대리점","tel":"031-905-8846","addr":"경기도 고양시 일산동구 풍동 79-1번지","indutype":"음료식품 - 기타음료식품","category":"food"}]},{"lat":"37.673294163","long":"126.8008235","imageIndex":7,"items":[{"name":"오가네찬","tel":"","addr":"경기도 고양시 일산동구 풍동 1238-5번지","indutype":"음료식품 - 기타음료식품","category":"food"}]},{"lat":"37.661716212","long":"126.79532425","imageIndex":7,"items":[{"name":"우리농산물직판장","tel":"031-905-0305","addr":"경기도 고양시 일산동구 풍동 420-1번지","indutype":"음료식품 - 농·축·수산품","category":"food"}]},{"lat":"37.667186323","long":"126.80123675","imageIndex":7,"items":[{"name":"우리마을수산","tel":"031-925-6000","addr":"경기도 고양시 일산동구 풍동 1278-3번지","indutype":"음료식품 - 농·축·수산품","category":"food"}]},{"lat":"37.667488856","long":"126.79388007","imageIndex":7,"items":[{"name":"월드휴먼브리지파구스일산광림점","tel":"031-907-1033","addr":"경기도 고양시 일산동구 풍동 1281번지","indutype":"음료식품 - 기타음료식품","category":"food"}]},{"lat":"37.667299728","long":"126.79907163","imageIndex":7,"items":[{"name":"이십일세기떡집","tel":"031-902-8481","addr":"경기도 고양시 일산동구 풍동 1279-2번지","indutype":"음료식품 - 제과점","category":"food"}]},{"lat":"37.672216605","long":"126.79257464","imageIndex":7,"items":[{"name":"이지네","tel":"070-7842-9182","addr":"경기도 고양시 일산동구 풍동 591-2번지","indutype":"음료식품 - 기타음료식품","category":"food"}]},{"lat":"37.667325835","long":"126.79853885","imageIndex":7,"items":[{"name":"정관장풍동점","tel":"031-903-2385","addr":"경기도 고양시 일산동구 풍동 1279번지","indutype":"건강식품 - 홍삼제품","category":"food"},{"name":"정관장풍동점","tel":"031-903-2385","addr":"경기도 고양시 일산동구 풍동 1279번지","indutype":"건강식품 - 홍삼제품","category":"food"},{"name":"조아축산","tel":"","addr":"경기도 고양시 일산동구 풍동 1279번지","indutype":"음료식품 - 정육점","category":"food"}]},{"lat":"37.669492048","long":"126.79054213","imageIndex":7,"items":[{"name":"주막쉼터매점","tel":"031-908-5694","addr":"경기도 고양시 일산동구 풍동 562-1번지","indutype":"음료식품 - 기타음료식품","category":"food"}]},{"lat":"37.672794057","long":"126.78803903","imageIndex":7,"items":[{"name":"주식회사 레저렉션코리아","tel":"070-4711-9449","addr":"경기도 고양시 일산동구 풍동 1153-9번지","indutype":"음료식품 - 기타음료식품","category":"food"}]},{"lat":"37.667352294","long":"126.79821009","imageIndex":7,"items":[{"name":"주식회사 마리축산","tel":"031-111-1111","addr":"경기도 고양시 일산동구 풍동 1280-1번지","indutype":"음료식품 - 정육점","category":"food"}]},{"lat":"37.672935329","long":"126.80173127","imageIndex":7,"items":[{"name":"주식회사 미트원","tel":"031-932-6791","addr":"경기도 고양시 일산동구 풍동 1242-8번지","indutype":"음료식품 - 정육점","category":"food"}]},{"lat":"37.667659681","long":"126.79882129","imageIndex":7,"items":[{"name":"주식회사 시골머슴","tel":"031-903-2886","addr":"경기도 고양시 일산동구 풍동 1273-6번지","indutype":"음료식품 - 농·축·수산품","category":"food"},{"name":"통큰축산","tel":"032-347-9800","addr":"경기도 고양시 일산동구 풍동 1273-6번지","indutype":"음료식품 - 정육점","category":"food"}]},{"lat":"37.673931683","long":"126.79956357","imageIndex":7,"items":[{"name":"지나잼 (jinajam)","tel":"031-901-5210","addr":"경기도 고양시 일산동구 풍동 1236-3번지","indutype":"음료식품 - 기타음료식품","category":"food"}]},{"lat":"37.662206125","long":"126.79726089","imageIndex":7,"items":[{"name":"지리산마을","tel":"031-904-3460","addr":"경기도 고양시 일산동구 풍동 1292번지 숲속마을1단지아파트","indutype":"음료식품 - 미곡상","category":"food"}]},{"lat":"37.663326466","long":"126.79907116","imageIndex":7,"items":[{"name":"청정활어회","tel":"031-905-3980","addr":"경기도 고양시 일산동구 풍동 1293번지","indutype":"음료식품 - 농·축·수산품","category":"food"},{"name":"활어회시장","tel":"031-905-3988","addr":"경기도 고양시 일산동구 풍동 1293번지","indutype":"음료식품 - 농·축·수산품","category":"food"}]},{"lat":"37.673104573","long":"126.80059731","imageIndex":7,"items":[{"name":"카페오당","tel":"","addr":"경기도 고양시 일산동구 풍동 1242번지","indutype":"음료식품 - 기타음료식품","category":"food"}]},{"lat":"37.663378376","long":"126.79271291","imageIndex":7,"items":[{"name":"크로바수산","tel":"031-903-1723","addr":"경기도 고양시 일산동구 풍동 1184번지","indutype":"음료식품 - 농·축·수산품","category":"food"}]},{"lat":"37.672876113","long":"126.78857154","imageIndex":7,"items":[{"name":"학골터","tel":"031-902-8092","addr":"경기도 고양시 일산동구 풍동 655-2번지","indutype":"음료식품 - 정육점","category":"food"}]},{"lat":"37.672993196","long":"126.79870467","imageIndex":7,"items":[{"name":"한국할인마트","tel":"031-901-4010","addr":"경기도 고양시 일산동구 풍동 1245번지","indutype":"음료식품 - 농·축·수산품","category":"food"}]},{"lat":"37.661156136","long":"126.79448715","imageIndex":7,"items":[{"name":"한잎애잔기지떡","tel":"031-901-5274","addr":"경기도 고양시 일산동구 풍동 377-1번지","indutype":"음료식품 - 기타음료식품","category":"food"}]},{"lat":"37.673654256","long":"126.8006525","imageIndex":7,"items":[{"name":"해피밀","tel":"031-8822-0006","addr":"경기도 고양시 일산동구 풍동 1238-9번지","indutype":"음료식품 - 기타음료식품","category":"food"}]},{"lat":"37.663851303","long":"126.80571121","imageIndex":7,"items":[{"name":"화진","tel":"031-967-0271","addr":"경기도 고양시 일산동구 풍동 154-7번지","indutype":"음료식품 - 농·축·수산품","category":"food"}]},{"lat":"37.665710215","long":"126.7968772","imageIndex":7,"items":[{"name":"황금잉어","tel":"","addr":"경기도 고양시 일산동구 풍동 1285-1번지","indutype":"음료식품 - 기타음료식품","category":"food"}]},{"lat":"37.66441174","long":"126.79625744","imageIndex":7,"items":[{"name":"황수산","tel":"","addr":"경기도 고양시 일산동구 풍동 532-35번지 성원아파트","indutype":"음료식품 - 농·축·수산품","category":"food"}]}]