[{"lat":"36.970059852","long":"127.25137756","imageIndex":17,"items":[{"name":"(주)오주포장","tel":"031-677-5391","addr":"경기도 안성시 미양면 구수리 251","indutype":"유통업 영리 - 기타유통업","category":"other"}]},{"lat":"36.972304585","long":"127.26349104","imageIndex":17,"items":[{"name":"(주)이지바이오텍","tel":"031-671-5806","addr":"경기도 안성시 미양면 구수리 315-1번지","indutype":"농업 - 비료,사료,종자","category":"other"}]},{"lat":"36.973801707","long":"127.26287847","imageIndex":17,"items":[{"name":"비오릴","tel":"031-667-9496","addr":"경기도 안성시 미양면 구수리 307-2번지 F동","indutype":"신변잡화 - 기타잡화","category":"other"},{"name":"진영기업(주)","tel":"031-677-0091","addr":"경기도 안성시 미양면 구수리 307-2번지","indutype":"농업 - 농기계","category":"other"}]},{"lat":"36.974275496","long":"127.26459835","imageIndex":17,"items":[{"name":"안성로우더","tel":"031-677-5191","addr":"경기도 안성시 미양면 구수리 307-4번지","indutype":"농업 - 농기계","category":"other"}]},{"lat":"36.972360667","long":"127.26257035","imageIndex":17,"items":[{"name":"안성장갑","tel":"031-671-5440","addr":"경기도 안성시 미양면 구수리 55-6번지","indutype":"의류 - 기타의류","category":"other"}]},{"lat":"36.97327702","long":"127.26382003","imageIndex":17,"items":[{"name":"이마트24 안성공단점","tel":"031-000-0000","addr":"경기도 안성시 미양면 구수리 316-6번지","indutype":"유통업 영리 - 편 의 점","category":"other"}]},{"lat":"36.970192799","long":"127.2524336","imageIndex":17,"items":[{"name":"이춘택도예연구소","tel":"031-677-8707","addr":"경기도 안성시 미양면 구수리 249-3, 35/25","indutype":"문화.취미 - 화랑","category":"other"}]},{"lat":"36.971360971","long":"127.25818722","imageIndex":17,"items":[{"name":"일진건업","tel":"031-674-9884","addr":"경기도 안성시 미양면 구수리 187-2","indutype":"건축자재 - 보일러·펌프·샷시","category":"other"}]},{"lat":"36.974779919","long":"127.26467869","imageIndex":17,"items":[{"name":"주식회사디에스케미칼","tel":"031-677-6355","addr":"경기도 안성시 미양면 구수리 306-7번지","indutype":"서적문구 - 과학기자재","category":"other"}]}]