[{"lat":"37.59069786","long":"127.13059981","imageIndex":13,"items":[{"name":"(주)싱글로골프","tel":"031-553-9995","addr":"경기도 구리시 교문동 424-1번지 2층~4층","indutype":"레저업소 - 골프연습장","category":"leisure"}]},{"lat":"37.600362438","long":"127.13326613","imageIndex":13,"items":[{"name":"BnB 플라잉요가","tel":"031-558-5656","addr":"경기도 구리시 교문동 216번지 소망빌딩 5층","indutype":"레저업소 - 헬스클럽","category":"leisure"}]},{"lat":"37.599784343","long":"127.13459002","imageIndex":13,"items":[{"name":"SUN당구장","tel":"070-4694-1103","addr":"경기도 구리시 교문동 226-1번지 2층","indutype":"레저업소 - 당 구 장","category":"leisure"}]},{"lat":"37.600307426","long":"127.13412666","imageIndex":13,"items":[{"name":"X1볼링장","tel":"031-8339-0882","addr":"경기도 구리시 교문동 216-6번지 계성빌딩 지층","indutype":"레저업소 - 볼 링 장","category":"leisure"}]},{"lat":"37.599450234","long":"127.13525754","imageIndex":13,"items":[{"name":"꽃노래방","tel":"031-555-1294","addr":"경기도 구리시 교문동 226-32번지 지층","indutype":"레저업소 - 노 래 방","category":"leisure"}]},{"lat":"37.599395552","long":"127.13581231","imageIndex":13,"items":[{"name":"나가수노래연습장","tel":"031-555-6881","addr":"경기도 구리시 교문동 228-6번지 지하","indutype":"레저업소 - 노 래 방","category":"leisure"}]},{"lat":"37.597646957","long":"127.13643199","imageIndex":13,"items":[{"name":"나이스노래연습장","tel":"031-562-9595","addr":"경기도 구리시 교문동 734-3번지 원재빌딩 2층","indutype":"레저업소 - 노 래 방","category":"leisure"}]},{"lat":"37.599945796","long":"127.13523577","imageIndex":13,"items":[{"name":"뉴 동원당구장","tel":"031-564-0630","addr":"경기도 구리시 교문동 227-8번지 2층","indutype":"레저업소 - 당 구 장","category":"leisure"}]},{"lat":"37.598701418","long":"127.13615078","imageIndex":13,"items":[{"name":"뉴25시노래연습장","tel":"031-556-5384","addr":"경기도 구리시 교문동 229-15번지 2층","indutype":"레저업소 - 노 래 방","category":"leisure"}]},{"lat":"37.600279005","long":"127.13537224","imageIndex":13,"items":[{"name":"더체인지피씨 (The Change PC)","tel":"02-555-4758","addr":"경기도 구리시 교문동 227-18번지 2층","indutype":"레저업소 - 기타레져업소","category":"leisure"}]},{"lat":"37.601140916","long":"127.12126396","imageIndex":13,"items":[{"name":"딸기원노래방","tel":"031-567-3190","addr":"경기도 구리시 교문동 306-2번지","indutype":"레저업소 - 노 래 방","category":"leisure"}]},{"lat":"37.599728875","long":"127.13584687","imageIndex":13,"items":[{"name":"로또노래방","tel":"031-551-1655","addr":"경기도 구리시 교문동 228-4번지 2층","indutype":"레저업소 - 노 래 방","category":"leisure"}]},{"lat":"37.597448716","long":"127.13645428","imageIndex":13,"items":[{"name":"바디맨드(Body Mend)","tel":"031-558-8248","addr":"경기도 구리시 교문동 734-4번지 용덕빌딩 8층","indutype":"레저업소 - 헬스클럽","category":"leisure"},{"name":"피쉬스쿨 실내낚시카페","tel":"031-567-2733","addr":"경기도 구리시 교문동 734-4번지 용덕빌딩 지하1층","indutype":"레저업소 - 기타레져업소","category":"leisure"}]},{"lat":"37.59775286","long":"127.13028348","imageIndex":13,"items":[{"name":"빌리아드팩토리","tel":"031-569-3949","addr":"경기도 구리시 교문동 357-5번지 3층","indutype":"레저업소 - 당 구 장","category":"leisure"}]},{"lat":"37.600197208","long":"127.11892974","imageIndex":13,"items":[{"name":"새서울낚시","tel":"031-565-0705","addr":"경기도 구리시 교문동 336-6번지","indutype":"레저업소 - 기타레져업소","category":"leisure"}]},{"lat":"37.598170098","long":"127.13592336","imageIndex":13,"items":[{"name":"샘터노래방","tel":"031-566-0132","addr":"경기도 구리시 교문동 193-32번지","indutype":"레저업소 - 노 래 방","category":"leisure"}]},{"lat":"37.600172128","long":"127.13426231","imageIndex":13,"items":[{"name":"선학노래방","tel":"031-568-7666","addr":"경기도 구리시 교문동 216-7번지","indutype":"레저업소 - 노 래 방","category":"leisure"}]},{"lat":"37.600419148","long":"127.1308429","imageIndex":13,"items":[{"name":"셀라노래연습장","tel":"031-565-3694","addr":"경기도 구리시 교문동 276-9번지","indutype":"레저업소 - 노 래 방","category":"leisure"}]},{"lat":"37.595812872","long":"127.13292982","imageIndex":13,"items":[{"name":"스마일노래연습장","tel":"031-553-4950","addr":"경기도 구리시 교문동 743-8번지 지층","indutype":"레저업소 - 노 래 방","category":"leisure"}]},{"lat":"37.597034485","long":"127.13626105","imageIndex":13,"items":[{"name":"스카이 스크린골프","tel":"0507-1353-0070","addr":"경기도 구리시 교문동 735-2번지 구주빌딩 7,8층","indutype":"레저업소 - 스크린골프","category":"leisure"}]},{"lat":"37.596922513","long":"127.13161823","imageIndex":13,"items":[{"name":"스타노래연습장","tel":"031-551-3040","addr":"경기도 구리시 교문동 739-2번지 지층","indutype":"레저업소 - 노 래 방","category":"leisure"}]},{"lat":"37.596809216","long":"127.13628329","imageIndex":13,"items":[{"name":"아담스 하우스 휘트니스","tel":"031-567-9682","addr":"경기도 구리시 교문동 735-7번지 구리미래타워 201호","indutype":"레저업소 - 헬스클럽","category":"leisure"}]},{"lat":"37.600946323","long":"127.1348412","imageIndex":13,"items":[{"name":"아하노래방","tel":"070-8152-8330","addr":"경기도 구리시 교문동 235번지","indutype":"레저업소 - 노 래 방","category":"leisure"}]},{"lat":"37.59998125","long":"127.13575673","imageIndex":13,"items":[{"name":"앵콜노래방","tel":"031-552-7864","addr":"경기도 구리시 교문동 227-21번지","indutype":"레저업소 - 노 래 방","category":"leisure"}]},{"lat":"37.590146153","long":"127.132535","imageIndex":13,"items":[{"name":"엠비씨(MBC)노래연습장","tel":"031-557-6742","addr":"경기도 구리시 교문동 800-10번지","indutype":"레저업소 - 노 래 방","category":"leisure"}]},{"lat":"37.593393939","long":"127.13678673","imageIndex":13,"items":[{"name":"용신 복싱 킥복싱GYM","tel":"031-566-7988","addr":"경기도 구리시 교문동 766-1번지 한성상가동 지층","indutype":"레저업소 - 헬스클럽","category":"leisure"}]},{"lat":"37.600920893","long":"127.133403","imageIndex":13,"items":[{"name":"위드 미나 필라테스","tel":"","addr":"경기도 구리시 교문동 245-8번지 구리노블하임오피스텔 9층 904호","indutype":"레저업소 - 헬스클럽","category":"leisure"}]},{"lat":"37.590926759","long":"127.13545757","imageIndex":13,"items":[{"name":"인디고PC방 구리직영점","tel":"031-566-2052","addr":"경기도 구리시 교문동 809번지 한가람상가 지층","indutype":"레저업소 - 기타레져업소","category":"leisure"}]},{"lat":"37.596782531","long":"127.13597751","imageIndex":13,"items":[{"name":"카일리필라테스/kylie pilates","tel":"031-000-0000","addr":"경기도 구리시 교문동 735-9번지 다건씨티 15층 1503호","indutype":"레저업소 - 헬스클럽","category":"leisure"}]},{"lat":"37.5970336","long":"127.13704236","imageIndex":13,"items":[{"name":"카툰명가 구리점","tel":"","addr":"경기도 구리시 교문동 830번지 3층 303-305호","indutype":"레저업소 - 기타레져업소","category":"leisure"}]},{"lat":"37.588843776","long":"127.13698237","imageIndex":13,"items":[{"name":"탑 스크린골프","tel":"031-551-1009","addr":"경기도 구리시 교문동 809-2번지 지하 3호외 11호실","indutype":"레저업소 - 스크린골프","category":"leisure"}]},{"lat":"37.599756376","long":"127.13542794","imageIndex":13,"items":[{"name":"털보당구장","tel":"031-553-8171","addr":"경기도 구리시 교문동 228번지 금성빌딩 2층","indutype":"레저업소 - 당 구 장","category":"leisure"}]}]