[{"lat":"37.831058512","long":"126.80523302","imageIndex":17,"items":[{"name":"(주)리카홀딩스","tel":"031-926-2027","addr":"경기도 파주시 파주읍 봉암리 14-1번지","indutype":"건축자재 - 인테리어전문","category":"other"}]},{"lat":"37.833470823","long":"126.80392025","imageIndex":17,"items":[{"name":"(주)아미재","tel":"031-954-0095","addr":"경기도 파주시 파주읍 봉암리 3-1번지","indutype":"의류 - 기타의류","category":"other"}]},{"lat":"37.816806799","long":"126.80062604","imageIndex":17,"items":[{"name":"GS25두원공대파주점","tel":"","addr":"경기도 파주시 파주읍 봉암리 산114-1번지","indutype":"유통업 영리 - 편 의 점","category":"other"}]},{"lat":"37.816862774","long":"126.79653739","imageIndex":17,"items":[{"name":"가가멜컴퍼니","tel":"070-4258-9938","addr":"경기도 파주시 파주읍 봉암리 234번지","indutype":"의류 - 아동의류","category":"other"},{"name":"주식회사 땡큐프린팅","tel":"031-953-9501","addr":"경기도 파주시 파주읍 봉암리 234번지","indutype":"서적문구 - 출판 및 인쇄물","category":"other"}]},{"lat":"37.8324409","long":"126.79192756","imageIndex":17,"items":[{"name":"가우하우징","tel":"031-953-2010","addr":"경기도 파주시 파주읍 봉암리 1230-1번지","indutype":"건축자재 - 목재·석재·철물","category":"other"}]},{"lat":"37.81897632","long":"126.79445312","imageIndex":17,"items":[{"name":"농업회사법인샘(유)","tel":"031-958-5538","addr":"경기도 파주시 파주읍 봉암리 504-8번지","indutype":"농업 - 농기계","category":"other"}]},{"lat":"37.831467686","long":"126.79181674","imageIndex":17,"items":[{"name":"덕마","tel":"","addr":"경기도 파주시 파주읍 봉암리 381-4번지","indutype":"건축자재 - 인테리어전문","category":"other"}]},{"lat":"37.816310461","long":"126.80545406","imageIndex":17,"items":[{"name":"동일샤링","tel":"031-953-0006","addr":"경기도 파주시 파주읍 봉암리 63-10","indutype":"용역 서비스 - 기타용역서비스","category":"other"}]},{"lat":"37.81824662","long":"126.7996454","imageIndex":17,"items":[{"name":"리빙엔어스","tel":"031-953-2651","addr":"경기도 파주시 파주읍 봉암리 238-6번지","indutype":"주방용구 - 주방용구","category":"other"}]},{"lat":"37.821580773","long":"126.79486603","imageIndex":17,"items":[{"name":"명품쇼핑","tel":"","addr":"경기도 파주시 파주읍 봉암리 450-2번지","indutype":"의류 - 내의판매","category":"other"}]},{"lat":"37.812971744","long":"126.79203975","imageIndex":17,"items":[{"name":"본부","tel":"02-1111-1111","addr":"경기도 파주시 파주읍 봉암리 919-1번지","indutype":"문화.취미 - 애완동물","category":"other"}]},{"lat":"37.816080604","long":"126.79748218","imageIndex":17,"items":[{"name":"비엠서적","tel":"031-000-0000","addr":"경기도 파주시 파주읍 봉암리 225-5번지","indutype":"서적문구 - 일반서적","category":"other"}]},{"lat":"37.831362735","long":"126.79358907","imageIndex":17,"items":[{"name":"엔마스터","tel":"","addr":"경기도 파주시 파주읍 봉암리 378-6번지","indutype":"수리서비스 - 기타수리서비스","category":"other"}]},{"lat":"37.831914279","long":"126.79470071","imageIndex":17,"items":[{"name":"연합교육","tel":"070-4109-0181","addr":"경기도 파주시 파주읍 봉암리 359번지","indutype":"회원제형태 - 서적","category":"other"}]},{"lat":"37.826470756","long":"126.78865061","imageIndex":17,"items":[{"name":"예랑농원","tel":"","addr":"경기도 파주시 파주읍 봉암리 1014-4번지","indutype":"문화.취미 - 화원","category":"other"}]},{"lat":"37.821860024","long":"126.79484253","imageIndex":17,"items":[{"name":"우드플러스","tel":"031-953-8816","addr":"경기도 파주시 파주읍 봉암리 448-1번지","indutype":"가구 - 일반가구","category":"other"}]},{"lat":"37.830774818","long":"126.79739602","imageIndex":17,"items":[{"name":"주식회사 동명그라비아","tel":"031-952-9208","addr":"경기도 파주시 파주읍 봉암리 301-4번지","indutype":"가구 - 일반가구","category":"other"}]},{"lat":"37.814664523","long":"126.79656622","imageIndex":17,"items":[{"name":"주식회사 모모","tel":"031-000-0000","addr":"경기도 파주시 파주읍 봉암리 186-19번지","indutype":"서적문구 - 출판 및 인쇄물","category":"other"}]},{"lat":"37.817915077","long":"126.79551232","imageIndex":17,"items":[{"name":"주식회사 엑스엔씨코리아","tel":"031-953-8676","addr":"경기도 파주시 파주읍 봉암리 506-3번지","indutype":"유통업 영리 - 기타유통업","category":"other"}]},{"lat":"37.832551041","long":"126.79306318","imageIndex":17,"items":[{"name":"주식회사이은영","tel":"02-1566-8746","addr":"경기도 파주시 파주읍 봉암리 352-5번지","indutype":"유통업 영리 - 기타유통업","category":"other"}]},{"lat":"37.813639436","long":"126.79770472","imageIndex":17,"items":[{"name":"창성테크","tel":"031-953-2212","addr":"경기도 파주시 파주읍 봉암리 181-4번지","indutype":"레져용품 - 스포츠·레져용품","category":"other"}]},{"lat":"37.80925376","long":"126.79367419","imageIndex":17,"items":[{"name":"친환경 씽크공장","tel":"031-954-0777","addr":"경기도 파주시 파주읍 봉암리 988-1번지","indutype":"주방용구 - 주방용구","category":"other"}]},{"lat":"37.814498676","long":"126.79447707","imageIndex":17,"items":[{"name":"파리랜드","tel":"","addr":"경기도 파주시 파주읍 봉암리 519-13번지","indutype":"신변잡화 - 가방","category":"other"}]},{"lat":"37.8312514","long":"126.79178328","imageIndex":17,"items":[{"name":"파주네오스","tel":"031-954-3613","addr":"경기도 파주시 파주읍 봉암리 385-1","indutype":"가구 - 철제가구","category":"other"}]},{"lat":"37.822801528","long":"126.79231845","imageIndex":17,"items":[{"name":"파주농기계","tel":"031-941-4478","addr":"경기도 파주시 파주읍 봉암리 427","indutype":"기타 - 기계공구","category":"other"}]},{"lat":"37.828333636","long":"126.8028436","imageIndex":17,"items":[{"name":"홍선이엔지","tel":"070-4686-6412","addr":"경기도 파주시 파주읍 봉암리 27-2번지","indutype":"가구 - 철제가구","category":"other"}]}]