[{"lat":"36.993634913","long":"127.07633713","imageIndex":0,"items":[{"name":"21세기자동차매매상사","tel":"031-656-8949","addr":"경기도 평택시 통복동 369-1번지 삼성매매단지 21세기상사","indutype":"자동차판매 - 중고자동차판매","category":"car"},{"name":"고릴라모터스","tel":"070-8880-3848","addr":"경기도 평택시 통복동 369-1번지 6호","indutype":"자동차판매 - 중고자동차판매","category":"car"},{"name":"삼성모터스","tel":"031-654-2323","addr":"경기도 평택시 통복동 369-1번지 B동","indutype":"자동차판매 - 중고자동차판매","category":"car"},{"name":"소사벌자동차매매상사","tel":"031-656-1115","addr":"경기도 평택시 통복동 369-1번지","indutype":"자동차판매 - 중고자동차판매","category":"car"}]},{"lat":"36.993967091","long":"127.07828084","imageIndex":0,"items":[{"name":"Dynamic툴레(평택)","tel":"031-654-3153","addr":"경기도 평택시 통복동 376-11번지","indutype":"자동차정비 유지 - 자동차부품","category":"car"}]},{"lat":"36.995658269","long":"127.08261871","imageIndex":0,"items":[{"name":"HONDA","tel":"031-653-6541","addr":"경기도 평택시 통복동 109-3번지","indutype":"자동차판매 - 이륜차판매","category":"car"},{"name":"평택이륜","tel":"031-651-4545","addr":"경기도 평택시 통복동 109-3번지","indutype":"자동차판매 - 이륜차판매","category":"car"}]},{"lat":"37.001159888","long":"127.08825293","imageIndex":0,"items":[{"name":"가나지게차","tel":"031-691-1150","addr":"경기도 평택시 통복동 539-2번지 동아국화 상가","indutype":"자동차판매 - 기타운송","category":"car"}]},{"lat":"36.98988469","long":"127.07914174","imageIndex":0,"items":[{"name":"건영자동차 멀티샵","tel":"031-692-2644","addr":"경기도 평택시 통복동 410-13번지 A동","indutype":"자동차정비 유지 - 자동차부품","category":"car"},{"name":"우리자동차공업사","tel":"031-655-9112","addr":"경기도 평택시 통복동 410-13번지","indutype":"자동차정비 유지 - 자동차정비","category":"car"},{"name":"우리자동차공업사","tel":"031-655-9112","addr":"경기도 평택시 통복동 410-13번지","indutype":"자동차정비 유지 - 자동차시트·타이어","category":"car"}]},{"lat":"36.994050307","long":"127.07486595","imageIndex":0,"items":[{"name":"경기렉카","tel":"031-651-9911","addr":"경기도 평택시 통복동 256-9번지","indutype":"자동차정비 유지 - 견인서비스","category":"car"}]},{"lat":"36.990272237","long":"127.07900733","imageIndex":0,"items":[{"name":"경성자동차공업사","tel":"031-652-8957","addr":"경기도 평택시 통복동 410-16번지","indutype":"자동차정비 유지 - 자동차정비","category":"car"}]},{"lat":"36.998774918","long":"127.08417227","imageIndex":0,"items":[{"name":"고속오토바이","tel":"031-651-1460","addr":"경기도 평택시 통복동 61-18번지","indutype":"자동차판매 - 이륜차판매","category":"car"}]},{"lat":"36.999629453","long":"127.08630769","imageIndex":0,"items":[{"name":"광남광택","tel":"031-618-2877","addr":"경기도 평택시 통복동 53-1번지","indutype":"자동차정비 유지 - 카인테리어","category":"car"}]},{"lat":"36.994358209","long":"127.07228254","imageIndex":0,"items":[{"name":"그린카센타","tel":"031-653-4567","addr":"경기도 평택시 통복동 231-6번지","indutype":"자동차정비 유지 - 자동차정비","category":"car"},{"name":"그린카센터","tel":"","addr":"경기도 평택시 통복동 231-6번지","indutype":"서비스업 - 자동차정비","category":"car"},{"name":"명진상사","tel":"031-657-1234","addr":"경기도 평택시 통복동 231-6번지","indutype":"자동차정비 유지 - 자동차부품","category":"car"},{"name":"현대그린모터스(주)","tel":"031-618-1000","addr":"경기도 평택시 통복동 231-6번지","indutype":"자동차정비 유지 - 자동차정비","category":"car"}]},{"lat":"36.994855412","long":"127.08395466","imageIndex":0,"items":[{"name":"길짱로드가이드(GILZZANGLOADGUIDE)","tel":"031-652-3355","addr":"경기도 평택시 통복동 111-9번지","indutype":"회원제형태 - 자동차서비스","category":"car"}]},{"lat":"36.992851999","long":"127.07467386","imageIndex":0,"items":[{"name":"뉴대로자동차정비공업사","tel":"031-653-4979","addr":"경기도 평택시 통복동 339-14번지","indutype":"자동차정비 유지 - 자동차정비","category":"car"}]},{"lat":"36.999934628","long":"127.08798194","imageIndex":0,"items":[{"name":"대한모터스","tel":"031-692-2246","addr":"경기도 평택시 통복동 36-1번지 (9호)","indutype":"자동차판매 - 중고자동차판매","category":"car"}]},{"lat":"36.99138114","long":"127.07808732","imageIndex":0,"items":[{"name":"대현차유리","tel":"031-692-6212","addr":"경기도 평택시 통복동 386-9번지","indutype":"자동차정비 유지 - 자동차정비","category":"car"},{"name":"마이카존","tel":"031-656-1918","addr":"경기도 평택시 통복동 386-9번지 A7동 8호","indutype":"자동차정비 유지 - 자동차부품","category":"car"},{"name":"프리미엄자동차용품점","tel":"031-654-2588","addr":"경기도 평택시 통복동 386-9번지","indutype":"자동차정비 유지 - 자동차부품","category":"car"},{"name":"한일카센타","tel":"031-652-8863","addr":"경기도 평택시 통복동 386-9번지","indutype":"서비스업 - 자동차정비","category":"car"},{"name":"한일카센타","tel":"031-656-7727","addr":"경기도 평택시 통복동 386-9번지","indutype":"자동차정비 유지 - 자동차정비","category":"car"}]},{"lat":"36.993633466","long":"127.07863998","imageIndex":0,"items":[{"name":"명기상사","tel":"031-655-2734","addr":"경기도 평택시 통복동 286-5","indutype":"자동차판매 - 이륜차판매","category":"car"}]},{"lat":"36.990632895","long":"127.07864823","imageIndex":0,"items":[{"name":"브이아이피 카 케어(VIP car care)","tel":"02-1111-1111","addr":"경기도 평택시 통복동 410-12번지","indutype":"자동차정비 유지 - 카인테리어","category":"car"}]},{"lat":"36.994267772","long":"127.07284413","imageIndex":0,"items":[{"name":"순오상사","tel":"031-654-5661","addr":"경기도 평택시 통복동 236-2번지","indutype":"소매업 - 자동차부품","category":"car"}]},{"lat":"37.000656552","long":"127.08647733","imageIndex":0,"items":[{"name":"시트카바","tel":"031-654-4847","addr":"경기도 평택시 통복동 42번지","indutype":"자동차정비 유지 - 자동차부품","category":"car"}]},{"lat":"36.990245542","long":"127.07847936","imageIndex":0,"items":[{"name":"애니타임","tel":"","addr":"경기도 평택시 통복동 410-14번지","indutype":"자동차정비 유지 - 세차장","category":"car"},{"name":"애니타임(AnyTime)셀프세차장","tel":"031-652-2633","addr":"경기도 평택시 통복동 410-14,410-18","indutype":"자동차정비 유지 - 세차장","category":"car"}]},{"lat":"36.999800458","long":"127.08658874","imageIndex":0,"items":[{"name":"오성자동차정비","tel":"","addr":"경기도 평택시 통복동 50-5번지","indutype":"서비스업 - 자동차정비","category":"car"}]},{"lat":"36.992768838","long":"127.07801006","imageIndex":0,"items":[{"name":"유일카센타","tel":"031-657-5664","addr":"경기도 평택시 통복동 269-5","indutype":"자동차정비 유지 - 자동차정비","category":"car"}]},{"lat":"36.994330688","long":"127.07311379","imageIndex":0,"items":[{"name":"정동자동차정비","tel":"031-652-8863","addr":"경기도 평택시 통복동 332-6번지","indutype":"자동차정비 유지 - 자동차정비","category":"car"},{"name":"정동자동차정비","tel":"031-658-7893","addr":"경기도 평택시 통복동 332-6번지","indutype":"서비스업 - 자동차정비","category":"car"}]},{"lat":"36.990019995","long":"127.07891721","imageIndex":0,"items":[{"name":"제이스팀세차장","tel":"031-618-0102","addr":"경기도 평택시 통복동 410-1번지","indutype":"자동차정비 유지 - 세차장","category":"car"},{"name":"한신차유리","tel":"031-657-2797","addr":"경기도 평택시 통복동 410-1번지 2층","indutype":"자동차정비 유지 - 자동차부품","category":"car"}]},{"lat":"36.993491438","long":"127.07520243","imageIndex":0,"items":[{"name":"카앤덴트","tel":"031-000-0000","addr":"경기도 평택시 통복동 338-4번지","indutype":"자동차정비 유지 - 카인테리어","category":"car"},{"name":"카앤덴트","tel":"031-618-6652","addr":"경기도 평택시 통복동 338-4번지","indutype":"서비스업 - 자동차외장관리","category":"car"}]},{"lat":"36.993109368","long":"127.08091982","imageIndex":0,"items":[{"name":"카칼라덴트","tel":"031-691-4929","addr":"경기도 평택시 통복동 160-1번지","indutype":"자동차정비 유지 - 카인테리어","category":"car"}]},{"lat":"36.994378901","long":"127.0823927","imageIndex":0,"items":[{"name":"현대자동차정비공업(주)","tel":"031-692-3200","addr":"경기도 평택시 통복동 108-3번지","indutype":"자동차정비 유지 - 자동차정비","category":"car"}]}]