[{"lat":"37.292076939","long":"127.15511833","imageIndex":13,"items":[{"name":"(M.Y.B)마이비","tel":"031-111-1111","addr":"경기도 용인시 기흥구 청덕동 569번지 휴먼시아물푸레마을9단지아파트","indutype":"보건위생 - 화장품","category":"beauty"}]},{"lat":"37.291320021","long":"127.14798944","imageIndex":13,"items":[{"name":"(주)시크릿허브코리아","tel":"070-8184-6700","addr":"경기도 용인시 기흥구 청덕동 556번지 용인테크노밸리 B동 8층 13호","indutype":"보건위생 - 화장품","category":"beauty"},{"name":"조엘테크(Joel Tech)","tel":"02-6014-5365","addr":"경기도 용인시 기흥구 청덕동 556번지 용인테크노밸리 B동 510호","indutype":"보건위생 - 의료용품","category":"beauty"}]},{"lat":"37.292068725","long":"127.14729166","imageIndex":13,"items":[{"name":"J라인네일","tel":"031-281-4287","addr":"경기도 용인시 기흥구 청덕동 555-2번지 102호","indutype":"보건위생 - 피부미용실","category":"beauty"}]},{"lat":"37.296288558","long":"127.15210425","imageIndex":13,"items":[{"name":"더웨이브헤어살롱","tel":"031-274-4431","addr":"경기도 용인시 기흥구 청덕동 502-1번지 일월프라자 201호","indutype":"보건위생 - 미용원","category":"beauty"},{"name":"수미세상","tel":"070-7868-9260","addr":"경기도 용인시 기흥구 청덕동 502-1번지 201호","indutype":"보건위생 - 화장품","category":"beauty"}]},{"lat":"37.293294806","long":"127.15395917","imageIndex":13,"items":[{"name":"두발짱헤어","tel":"031-274-5217","addr":"경기도 용인시 기흥구 청덕동 567번지 물푸레마을8단지호반베르디움","indutype":"보건위생 - 미용원","category":"beauty"},{"name":"러블리헤어","tel":"031-693-7763","addr":"경기도 용인시 기흥구 청덕동 567번지 물푸레마을8단지호반베르디움","indutype":"보건위생 - 미용원","category":"beauty"},{"name":"헤어공작소","tel":"031-281-5075","addr":"경기도 용인시 기흥구 청덕동 567번지 물푸레마을8단지호반베르디움 816동 108호","indutype":"보건위생 - 미용원","category":"beauty"}]},{"lat":"37.291629967","long":"127.14502404","imageIndex":13,"items":[{"name":"두원메디칼","tel":"070-4200-2031","addr":"경기도 용인시 기흥구 청덕동 구성지구상업용지1-1주공프라자204","indutype":"보건위생 - 의료용품","category":"beauty"}]},{"lat":"37.291487903","long":"127.14326448","imageIndex":13,"items":[{"name":"딥스아동청소년발달센터","tel":"031-285-5208","addr":"경기도 용인시 기흥구 청덕동 529-11번지 1층","indutype":"보건위생 - 기타대인서비스","category":"beauty"}]},{"lat":"37.295096831","long":"127.14674483","imageIndex":13,"items":[{"name":"로뎀헤어라인","tel":"031-693-9858","addr":"경기도 용인시 기흥구 청덕동 513번지 휴먼시아물푸레마을 상가동 103호","indutype":"보건위생 - 미용원","category":"beauty"}]},{"lat":"37.291238454","long":"127.14085064","imageIndex":13,"items":[{"name":"마렌","tel":"031-283-0828","addr":"경기도 용인시 기흥구 청덕동 526-4번지 1층 101호","indutype":"보건위생 - 피부미용실","category":"beauty"}]},{"lat":"37.300461448","long":"127.15118763","imageIndex":13,"items":[{"name":"맘앤케어","tel":"070-7533-7876","addr":"경기도 용인시 기흥구 청덕동 488번지 휴먼시아물푸레마을 332동 1103호","indutype":"보건위생 - 기타대인서비스","category":"beauty"}]},{"lat":"37.291278806","long":"127.15215074","imageIndex":13,"items":[{"name":"미랑스킨케어","tel":"","addr":"경기도 용인시 기흥구 청덕동 569번지 휴먼시아물푸레마을9단지아파트","indutype":"보건위생 - 화장품","category":"beauty"}]},{"lat":"37.296027305","long":"127.1520699","imageIndex":13,"items":[{"name":"바른안경원","tel":"031-283-8084","addr":"경기도 용인시 기흥구 청덕동 502-2번지","indutype":"보건위생 - 안경","category":"beauty"}]},{"lat":"37.291290917","long":"127.14221531","imageIndex":13,"items":[{"name":"스칼렛뷰티","tel":"031-275-6171","addr":"경기도 용인시 기흥구 청덕동 528-9번지 102호","indutype":"보건위생 - 피부미용실","category":"beauty"},{"name":"하이래쉬","tel":"070-0000-0000","addr":"경기도 용인시 기흥구 청덕동 528-9번지 1층 101(일부)호","indutype":"보건위생 - 피부미용실","category":"beauty"}]},{"lat":"37.294928087","long":"127.15204517","imageIndex":13,"items":[{"name":"신데렐라","tel":"","addr":"경기도 용인시 기흥구 청덕동 502-7번지 우성프라자 1층 102-2호","indutype":"보건위생 - 미용원","category":"beauty"}]},{"lat":"37.29121684","long":"127.15127098","imageIndex":13,"items":[{"name":"압구정헤어샵","tel":"031-275-9939","addr":"경기도 용인시 기흥구 청덕동 569번지 휴먼시아물푸레마을 상가동B104호","indutype":"보건위생 - 미용원","category":"beauty"}]},{"lat":"37.298625081","long":"127.14980804","imageIndex":13,"items":[{"name":"에이코스서비스","tel":"070-8278-2400","addr":"경기도 용인시 기흥구 청덕동 488번지 휴먼시아물푸레마을3단지아파트","indutype":"보건위생 - 기타대인서비스","category":"beauty"}]},{"lat":"37.294712012","long":"127.15190941","imageIndex":13,"items":[{"name":"이든네이처 용인동백지사","tel":"031-275-9700","addr":"경기도 용인시 기흥구 청덕동 502-8번지 청덕프라자 302호","indutype":"보건위생 - 화장품","category":"beauty"}]},{"lat":"37.295001528","long":"127.15096263","imageIndex":13,"items":[{"name":"제이비오티","tel":"","addr":"경기도 용인시 기흥구 청덕동 503번지 휴먼시아물푸레마을5단지아파트","indutype":"보건위생 - 화장품","category":"beauty"}]},{"lat":"37.293566032","long":"127.15323793","imageIndex":13,"items":[{"name":"제이엠지(JMG)","tel":"070-7692-2788","addr":"경기도 용인시 기흥구 청덕동 567번지 용인구성호반베르디움물푸레마 807동 101호","indutype":"보건위생 - 안경","category":"beauty"}]},{"lat":"37.294518199","long":"127.15551798","imageIndex":13,"items":[{"name":"티파니코스메틱","tel":"031-285-5568","addr":"경기도 용인시 기흥구 청덕동 298-27번지","indutype":"보건위생 - 화장품","category":"beauty"}]},{"lat":"37.295849291","long":"127.15032143","imageIndex":13,"items":[{"name":"페르소나","tel":"070-8719-5017","addr":"경기도 용인시 기흥구 청덕동 503번지 휴먼시아물푸레마을상가동 B104호","indutype":"보건위생 - 미용원","category":"beauty"}]},{"lat":"37.289149976","long":"127.13921164","imageIndex":13,"items":[{"name":"행복한임마누엘","tel":"031-284-0047","addr":"경기도 용인시 기흥구 청덕동 421-2번지","indutype":"보건위생 - 미용재료","category":"beauty"}]},{"lat":"37.287539851","long":"127.14457655","imageIndex":13,"items":[{"name":"헤어","tel":"031-275-6018","addr":"경기도 용인시 기흥구 청덕동 482-1번지 청덕마을광도와이드빌 상가동 102호","indutype":"보건위생 - 미용원","category":"beauty"}]},{"lat":"37.299822836","long":"127.15029535","imageIndex":13,"items":[{"name":"헤어넷","tel":"031-275-0664","addr":"경기도 용인시 기흥구 청덕동 488번지 휴먼시아물푸레마을 상가 208호","indutype":"보건위생 - 미용원","category":"beauty"}]},{"lat":"37.29435227","long":"127.15137864","imageIndex":13,"items":[{"name":"헤어스토리","tel":"031-309-0519","addr":"경기도 용인시 기흥구 청덕동 502-10번지 105호","indutype":"보건위생 - 미용원","category":"beauty"}]},{"lat":"37.291243659","long":"127.15144019","imageIndex":13,"items":[{"name":"홈써비스","tel":"","addr":"경기도 용인시 기흥구 청덕동 569번지 휴먼시아물푸레마을9단지아파트","indutype":"보건위생 - 피부미용실","category":"beauty"}]}]