[{"lat":"37.754395865","long":"126.77010137","imageIndex":7,"items":[{"name":"K슈퍼","tel":"031-949-3809","addr":"경기도 파주시 금촌동 228-1번지","indutype":"유통업 영리 - 슈퍼마켓","category":"mart"}]},{"lat":"37.770226819","long":"126.77073274","imageIndex":7,"items":[{"name":"그린마트","tel":"031-949-3040","addr":"경기도 파주시 금촌동 1015번지 대방노블랜드아파트","indutype":"유통업 영리 - 슈퍼마켓","category":"mart"},{"name":"대방슈퍼","tel":"070-4106-4668","addr":"경기도 파주시 금촌동 1015번지 대방노블랜드아파트","indutype":"유통업 영리 - 슈퍼마켓","category":"mart"}]},{"lat":"37.757562448","long":"126.77225889","imageIndex":7,"items":[{"name":"네오25시","tel":"031-947-5534","addr":"경기도 파주시 금촌동 958-1번지","indutype":"유통업 영리 - 슈퍼마켓","category":"mart"}]},{"lat":"37.762922186","long":"126.77178831","imageIndex":7,"items":[{"name":"담배마트","tel":"070-8158-4273","addr":"경기도 파주시 금촌동 328-8번지","indutype":"유통업 영리 - 슈퍼마켓","category":"mart"}]},{"lat":"37.760649859","long":"126.77542684","imageIndex":7,"items":[{"name":"마을슈퍼","tel":"031-941-8030","addr":"경기도 파주시 금촌동 71-6번지","indutype":"유통업 영리 - 슈퍼마켓","category":"mart"}]},{"lat":"37.75083909","long":"126.7665723","imageIndex":7,"items":[{"name":"미래슈퍼","tel":"031-941-5224","addr":"경기도 파주시 금촌동 986-5번지","indutype":"유통업 영리 - 슈퍼마켓","category":"mart"}]},{"lat":"37.762871279","long":"126.77339998","imageIndex":7,"items":[{"name":"세계로마트","tel":"031-949-6868","addr":"경기도 파주시 금촌동 321-9번지","indutype":"유통업 영리 - 슈퍼마켓","category":"mart"}]},{"lat":"37.762728473","long":"126.77409269","imageIndex":7,"items":[{"name":"알뜰구판장","tel":"031-941-3405","addr":"경기도 파주시 금촌동 63-2번지","indutype":"유통업 영리 - 슈퍼마켓","category":"mart"}]},{"lat":"37.764198269","long":"126.77473504","imageIndex":7,"items":[{"name":"예스슈퍼","tel":"031-945-8962","addr":"경기도 파주시 금촌동 44-13번지","indutype":"유통업 영리 - 슈퍼마켓","category":"mart"}]},{"lat":"37.762196805","long":"126.77403758","imageIndex":7,"items":[{"name":"용연","tel":"031-946-0020","addr":"경기도 파주시 금촌동 64-33번지","indutype":"유통업 영리 - 슈퍼마켓","category":"mart"}]},{"lat":"37.762780366","long":"126.77298036","imageIndex":7,"items":[{"name":"월드마트","tel":"031-000-0000","addr":"경기도 파주시 금촌동 321-11번지","indutype":"유통업 영리 - 슈퍼마켓","category":"mart"}]},{"lat":"37.763259237","long":"126.7736825","imageIndex":7,"items":[{"name":"월드마트","tel":"070-7755-6282","addr":"경기도 파주시 금촌동 325-4번지","indutype":"유통업 영리 - 슈퍼마켓","category":"mart"}]},{"lat":"37.758233326","long":"126.77440158","imageIndex":7,"items":[{"name":"장보고마트","tel":"031-941-8735","addr":"경기도 파주시 금촌동 947-37번지","indutype":"유통업 영리 - 슈퍼마켓","category":"mart"}]},{"lat":"37.756060559","long":"126.77832319","imageIndex":7,"items":[{"name":"장안마트","tel":"031-941-5160","addr":"경기도 파주시 금촌동 785-11번지","indutype":"유통업 영리 - 슈퍼마켓","category":"mart"}]},{"lat":"37.759308124","long":"126.7711527","imageIndex":7,"items":[{"name":"제일킹마트","tel":"031-957-4224","addr":"경기도 파주시 금촌동 939-3번지","indutype":"유통업 영리 - 슈퍼마켓","category":"mart"}]},{"lat":"37.756037847","long":"126.76670329","imageIndex":7,"items":[{"name":"주공할인마트","tel":"031-957-7778","addr":"경기도 파주시 금촌동 972번지 새꽃마을뜨란채","indutype":"유통업 영리 - 슈퍼마켓","category":"mart"}]},{"lat":"37.760703214","long":"126.77506353","imageIndex":7,"items":[{"name":"주식회사 에이마트","tel":"02-1111-1111","addr":"경기도 파주시 금촌동 71-9번지 장안아파트","indutype":"유통업 영리 - 슈퍼마켓","category":"mart"}]},{"lat":"37.762976844","long":"126.77209455","imageIndex":7,"items":[{"name":"청강슈퍼","tel":"031-941-2582","addr":"경기도 파주시 금촌동 324-12번지","indutype":"유통업 영리 - 슈퍼마켓","category":"mart"}]},{"lat":"37.752372652","long":"126.76754327","imageIndex":7,"items":[{"name":"초록마을 파주금릉점","tel":"031-941-6288","addr":"경기도 파주시 금촌동 987-3번지","indutype":"유통업 영리 - 슈퍼마켓","category":"mart"}]},{"lat":"37.748757369","long":"126.77084521","imageIndex":7,"items":[{"name":"한국유통","tel":"070-4649-1101","addr":"경기도 파주시 금촌동 1019번지 서원마을뜨란채","indutype":"유통업 영리 - 슈퍼마켓","category":"mart"}]},{"lat":"37.759622254","long":"126.77515763","imageIndex":7,"items":[{"name":"한아름할인마트","tel":"031-952-2153","addr":"경기도 파주시 금촌동 764-3번지","indutype":"유통업 영리 - 슈퍼마켓","category":"mart"}]},{"lat":"37.756089486","long":"126.7793217","imageIndex":7,"items":[{"name":"행운마트","tel":"031-948-3377","addr":"경기도 파주시 금촌동 792-1번지 장안밀레니엄아파트","indutype":"유통업 영리 - 슈퍼마켓","category":"mart"}]}]