[{"lat":"37.00408422","long":"127.27599155","imageIndex":17,"items":[{"name":"(주)대신소방설비공사","tel":"031-673-0171","addr":"경기도 안성시 낙원동 66-4번지","indutype":"기타 - 기타 전문점","category":"other"}]},{"lat":"37.003829419","long":"127.27314822","imageIndex":17,"items":[{"name":"GS25안성낙원점","tel":"","addr":"경기도 안성시 낙원동 76-1번지","indutype":"유통업 영리 - 편 의 점","category":"other"}]},{"lat":"37.004075985","long":"127.27565447","imageIndex":17,"items":[{"name":"국제철물건재","tel":"031-675-1976","addr":"경기도 안성시 낙원동 66-39번지 국제철물건재","indutype":"건축자재 - 목재·석재·철물","category":"other"}]},{"lat":"37.00421793","long":"127.27662118","imageIndex":17,"items":[{"name":"다온광고","tel":"031-651-6598","addr":"경기도 안성시 낙원동 397-5번지","indutype":"건축자재 - 인테리어전문","category":"other"},{"name":"안성에어컨","tel":"031-676-9663","addr":"경기도 안성시 낙원동 397-5번지","indutype":"회원제형태 - 기타4","category":"other"}]},{"lat":"37.004075546","long":"127.27584546","imageIndex":17,"items":[{"name":"대왕철물","tel":"031-672-1976","addr":"경기도 안성시 낙원동 66-17번지","indutype":"기타 - 기계공구","category":"other"}]},{"lat":"37.00405465","long":"127.27709246","imageIndex":17,"items":[{"name":"대한화공약품","tel":"031-676-9578","addr":"경기도 안성시 낙원동 396-2번지","indutype":"건축자재 - 페인트","category":"other"},{"name":"미소래","tel":"031-673-0052","addr":"경기도 안성시 낙원동 396-2번지 103호","indutype":"신변잡화 - 기타잡화","category":"other"}]},{"lat":"37.00368822","long":"127.27578791","imageIndex":17,"items":[{"name":"동아전기조명","tel":"031-673-6798","addr":"경기도 안성시 낙원동 56-1번지 동아전기조명","indutype":"건축자재 - 조명기구","category":"other"}]},{"lat":"37.004076243","long":"127.27554213","imageIndex":17,"items":[{"name":"동양전업사","tel":"031-675-9352","addr":"경기도 안성시 낙원동 66-8번지","indutype":"용역 서비스 - 기타용역서비스","category":"other"}]},{"lat":"37.003965167","long":"127.2768225","imageIndex":17,"items":[{"name":"마루종합장식","tel":"031-676-4249","addr":"경기도 안성시 낙원동 49번지","indutype":"직물 - 카페트,커튼,천막,지물","category":"other"}]},{"lat":"37.005250503","long":"127.27428799","imageIndex":17,"items":[{"name":"문아당","tel":"031-674-6816","addr":"경기도 안성시 낙원동 403-15번지","indutype":"서적문구 - 출판 및 인쇄물","category":"other"}]},{"lat":"37.003855247","long":"127.27367635","imageIndex":17,"items":[{"name":"백조타일","tel":"031-674-3743","addr":"경기도 안성시 낙원동 74-1번지 외1필지","indutype":"건축자재 - 건축용 요업제품","category":"other"}]},{"lat":"37.004582177","long":"127.27495971","imageIndex":17,"items":[{"name":"비봉기획","tel":"031-677-1646","addr":"경기도 안성시 낙원동 398-6번지","indutype":"서적문구 - 출판 및 인쇄물","category":"other"}]},{"lat":"37.005218889","long":"127.27234421","imageIndex":17,"items":[{"name":"서진컴퓨터","tel":"031-676-5984","addr":"경기도 안성시 낙원동 609-12","indutype":"사무통신 - 컴퓨터","category":"other"}]},{"lat":"37.003743496","long":"127.27526007","imageIndex":17,"items":[{"name":"세븐일레븐안성낙원중앙점","tel":"031-1577-0711","addr":"경기도 안성시 낙원동 61-1번지","indutype":"유통업 영리 - 편 의 점","category":"other"},{"name":"아트종합광고","tel":"031-675-2550","addr":"경기도 안성시 낙원동 61-1번지","indutype":"용역 서비스 - 종합용역","category":"other"}]},{"lat":"37.003830915","long":"127.2764288","imageIndex":17,"items":[{"name":"안성낚시","tel":"031-674-4967","addr":"경기도 안성시 낙원동 52번지","indutype":"레져용품 - 스포츠·레져용품","category":"other"}]},{"lat":"37.005248264","long":"127.27526543","imageIndex":17,"items":[{"name":"안성맞춤커튼블라인드","tel":"031-672-3054","addr":"경기도 안성시 낙원동 403-9번지","indutype":"직물 - 카페트,커튼,천막,지물","category":"other"}]},{"lat":"37.003771661","long":"127.27476583","imageIndex":17,"items":[{"name":"영동꽃화원","tel":"031-675-6162","addr":"경기도 안성시 낙원동 64-1번지","indutype":"문화.취미 - 화원","category":"other"}]},{"lat":"37.004107851","long":"127.27354243","imageIndex":17,"items":[{"name":"예쁜꽃방","tel":"031-676-5704","addr":"경기도 안성시 낙원동 68-19번지","indutype":"문화.취미 - 화원","category":"other"}]},{"lat":"37.003804194","long":"127.27629389","imageIndex":17,"items":[{"name":"우리타일","tel":"031-671-0330","addr":"경기도 안성시 낙원동 53번지","indutype":"건축자재 - 건축용 요업제품","category":"other"}]},{"lat":"37.003745709","long":"127.27429388","imageIndex":17,"items":[{"name":"이마트24 안성낙원점","tel":"02-6916-1500","addr":"경기도 안성시 낙원동 70-4번지 낙원빌 A동 1층 상가","indutype":"유통업 영리 - 편 의 점","category":"other"},{"name":"이마트24 안성낙원점","tel":"","addr":"경기도 안성시 낙원동 70-4번지 낙원빌 A동 1층 상가","indutype":"유통업 영리 - 편 의 점","category":"other"},{"name":"주식회사 라온여행사","tel":"031-674-3355","addr":"경기도 안성시 낙원동 70-4번지","indutype":"여행 - 관광여행","category":"other"}]},{"lat":"37.005084163","long":"127.27609624","imageIndex":17,"items":[{"name":"하늘세탁소","tel":"031-675-4225","addr":"경기도 안성시 낙원동 403-1 상가 104","indutype":"수리서비스 - 세탁소","category":"other"},{"name":"현대전자써비스","tel":"031-676-1822","addr":"경기도 안성시 낙원동 403-1","indutype":"사무통신 - 컴퓨터","category":"other"}]},{"lat":"37.003777938","long":"127.27595675","imageIndex":17,"items":[{"name":"하늘여행사","tel":"031-674-3131","addr":"경기도 안성시 낙원동 55번지","indutype":"회원제형태 - 기타4","category":"other"}]},{"lat":"37.005277072","long":"127.27449032","imageIndex":17,"items":[{"name":"한국유통.선물","tel":"031-674-5840","addr":"경기도 안성시 낙원동 403-13번지","indutype":"유통업 영리 - 기타유통업","category":"other"}]},{"lat":"37.003827497","long":"127.27399083","imageIndex":17,"items":[{"name":"현대슈퍼24시편의점","tel":"031-657-5082","addr":"경기도 안성시 낙원동 72-2번지","indutype":"유통업 영리 - 편 의 점","category":"other"}]}]