[{"lat":"37.776083335","long":"126.72129352","imageIndex":7,"items":[{"name":"(주)아라리","tel":"031-1544-6364","addr":"경기도 파주시 탄현면 갈현리 229번지","indutype":"음료식품 - 기타음료식품","category":"food"}]},{"lat":"37.773865593","long":"126.7169661","imageIndex":7,"items":[{"name":"(주)파주남경","tel":"","addr":"경기도 파주시 탄현면 갈현리 654-8번지","indutype":"건강식품 - 홍삼제품","category":"food"},{"name":"유미매점(스넥코너)","tel":"031-744-2233","addr":"경기도 파주시 탄현면 갈현리 654-8번지","indutype":"음료식품 - 기타음료식품","category":"food"},{"name":"홍삼사우나","tel":"031-944-2233","addr":"경기도 파주시 탄현면 갈현리 654-8번지","indutype":"음료식품 - 기타음료식품","category":"food"},{"name":"홍삼사우나","tel":"031-944-2233","addr":"경기도 파주시 탄현면 갈현리 654-8번지","indutype":"음료식품 - 기타음료식품","category":"food"}]},{"lat":"37.773396443","long":"126.72042974","imageIndex":7,"items":[{"name":"미소축산유통","tel":"031-944-4112","addr":"경기도 파주시 탄현면 갈현리 284-20","indutype":"음료식품 - 정육점","category":"food"},{"name":"스마일유통","tel":"","addr":"경기도 파주시 탄현면 갈현리 284-20번지","indutype":"음료식품 - 기타음료식품","category":"food"}]},{"lat":"37.774278867","long":"126.71648779","imageIndex":7,"items":[{"name":"씨밀레엔지니어링","tel":"031-944-2233","addr":"경기도 파주시 탄현면 갈현리 654-7, 1층 일부","indutype":"음료식품 - 기타음료식품","category":"food"}]},{"lat":"37.777504235","long":"126.72398964","imageIndex":7,"items":[{"name":"어업회사법인 상호양만장(주)","tel":"031-941-5515","addr":"경기도 파주시 탄현면 갈현리 1828-2번지","indutype":"음료식품 - 농·축·수산품","category":"food"}]},{"lat":"37.774618886","long":"126.71924464","imageIndex":7,"items":[{"name":"제이엔리한방힐링하우스","tel":"070-4685-6502","addr":"경기도 파주시 탄현면 갈현리 276-2","indutype":"건강식품 - 기타건강식품","category":"food"}]},{"lat":"37.773503848","long":"126.72013422","imageIndex":7,"items":[{"name":"지드 디자인(코리아)","tel":"031-906-0480","addr":"경기도 파주시 탄현면 갈현리 284-4번지","indutype":"음료식품 - 기타음료식품","category":"food"}]},{"lat":"37.757001968","long":"126.72160416","imageIndex":7,"items":[{"name":"카우맘랜드","tel":"031-000-0000","addr":"경기도 파주시 탄현면 갈현리 1395번지","indutype":"음료식품 - 농·축·수산품","category":"food"}]},{"lat":"37.773839126","long":"126.72093882","imageIndex":7,"items":[{"name":"파주성모병원구내매점","tel":"031-8071-1661","addr":"경기도 파주시 탄현면 갈현리 290번지","indutype":"음료식품 - 기타음료식품","category":"food"}]}]