[{"lat":"37.502803351","long":"127.40785304","imageIndex":17,"items":[{"name":"(사)한국사랑의울타리회-양평시니어센터","tel":"031-771-6063","addr":"경기도 양평군 양서면 대심리 16-1","indutype":"기타의료기관 - 기타의료기관 및 기타","category":"other"},{"name":"사단법인 늘푸른꿈 -양평시니어센터","tel":"031-771-6063","addr":"경기도 양평군 양서면 대심리 16-1번지","indutype":"기타의료기관 - 기타의료기관 및 기타","category":"other"}]},{"lat":"37.503469783","long":"127.39185405","imageIndex":17,"items":[{"name":"ELLENKIMMurphy","tel":"031-771-6040","addr":"경기도 양평군 양서면 대심리 148-4번지 1층","indutype":"문화.취미 - 화랑","category":"other"}]},{"lat":"37.507377875","long":"127.39251898","imageIndex":17,"items":[{"name":"MS건재,철물","tel":"031-775-1697","addr":"경기도 양평군 양서면 대심리 204-16","indutype":"건축자재 - 기타건축자재","category":"other"}]},{"lat":"37.502579774","long":"127.39398686","imageIndex":17,"items":[{"name":"극단매직아티스트","tel":"070-7766-5218","addr":"경기도 양평군 양서면 대심리 145-3번지 2층","indutype":"신변잡화 - 기타잡화","category":"other"}]},{"lat":"37.507466995","long":"127.39007652","imageIndex":17,"items":[{"name":"대성다육","tel":"","addr":"경기도 양평군 양서면 대심리 249-1번지","indutype":"문화.취미 - 화원","category":"other"}]},{"lat":"37.508267035","long":"127.39337185","imageIndex":17,"items":[{"name":"모토플레이","tel":"070-8834-4455","addr":"경기도 양평군 양서면 대심리 204-13번지 1층","indutype":"의류 - 정장","category":"other"}]},{"lat":"37.503992201","long":"127.39462755","imageIndex":17,"items":[{"name":"사단법인 순일선원","tel":"070-7779-7711","addr":"경기도 양평군 양서면 대심리 166-3","indutype":"기타 - 비영리/대상","category":"other"}]},{"lat":"37.506823407","long":"127.39126072","imageIndex":17,"items":[{"name":"한여울농원","tel":"031-775-0770","addr":"경기도 양평군 양서면 대심리 199-5","indutype":"건축자재 - 인테리어전문","category":"other"}]}]