[{"lat":"37.905235842","long":"126.82422821","imageIndex":17,"items":[{"name":"나루휴게편의점","tel":"","addr":"경기도 파주시 파평면 두포리 472-17번지","indutype":"유통업 영리 - 편 의 점","category":"other"}]},{"lat":"37.894073017","long":"126.84280908","imageIndex":17,"items":[{"name":"대경천막건재사","tel":"031-954-3594","addr":"경기도 파주시 파평면 두포리 68번지 외1필지","indutype":"직물 - 카페트,커튼,천막,지물","category":"other"}]},{"lat":"37.907075161","long":"126.82516754","imageIndex":17,"items":[{"name":"매일자원","tel":"031-949-6388","addr":"경기도 파주시 파평면 두포리 421-1","indutype":"신변잡화 - 기타잡화","category":"other"}]},{"lat":"37.906877163","long":"126.82530447","imageIndex":17,"items":[{"name":"장한샤링","tel":"031-945-4038","addr":"경기도 파주시 파평면 두포리 420-13","indutype":"건축자재 - 목재·석재·철물","category":"other"}]},{"lat":"37.909874677","long":"126.82961833","imageIndex":17,"items":[{"name":"제이엘안전","tel":"070-8878-9056","addr":"경기도 파주시 파평면 두포리 449-1번지","indutype":"기타 - 기계공구","category":"other"},{"name":"파주시도시농업지원센터","tel":"031-953-1600","addr":"경기도 파주시 파평면 두포리 449-1번지","indutype":"문화.취미 - 화원","category":"other"}]},{"lat":"37.892662644","long":"126.83923103","imageIndex":17,"items":[{"name":"주식회사 꿈교출판사","tel":"031-953-1628","addr":"경기도 파주시 파평면 두포리 127-19번지","indutype":"서적문구 - 출판 및 인쇄물","category":"other"},{"name":"평화도서관","tel":"031-953-1625","addr":"경기도 파주시 파평면 두포리 127-19번지","indutype":"서적문구 - 일반서적","category":"other"},{"name":"평화를품은책방","tel":"031-953-1625","addr":"경기도 파주시 파평면 두포리 127-19번지","indutype":"서적문구 - 일반서적","category":"other"},{"name":"평화를품은책방","tel":"031-953-1625","addr":"경기도 파주시 파평면 두포리 127-19번지","indutype":"서적문구 - 일반서적","category":"other"}]},{"lat":"37.906265543","long":"126.82597681","imageIndex":17,"items":[{"name":"청룡중공업","tel":"031-954-3922","addr":"경기도 파주시 파평면 두포리 412-10번지","indutype":"기타 - 기계공구","category":"other"}]}]