[{"lat":"37.267469762","long":"127.48707341","imageIndex":17,"items":[{"name":"동아정밀","tel":"031-635-7342","addr":"경기도 이천시 부발읍 산촌리 396","indutype":"기타 - 기계공구","category":"other"}]},{"lat":"37.270776482","long":"127.4826525","imageIndex":17,"items":[{"name":"이천시상하수도사업소","tel":"031-644-4217","addr":"경기도 이천시 부발읍 산촌리 334-2","indutype":"용역 서비스 - 공공요금대행서비스/소","category":"other"}]},{"lat":"37.267715021","long":"127.48878861","imageIndex":17,"items":[{"name":"크린시스템코리아","tel":"031-631-3304","addr":"경기도 이천시 부발읍 산촌리 385-3번지","indutype":"주방용구 - 주방용구","category":"other"}]},{"lat":"37.274577835","long":"127.49387258","imageIndex":4,"items":[{"name":"산촌가든","tel":"031-631-5351","addr":"경기도 이천시 부발읍 산촌리 256-13번지","indutype":"일반휴게음식 - 일반한식","category":"restaurant"}]},{"lat":"37.27341143","long":"127.4991754","imageIndex":4,"items":[{"name":"전통차 마루","tel":"031-632-8519","addr":"경기도 이천시 부발읍 산촌리 1-18번지","indutype":"일반휴게음식 - 서양음식","category":"restaurant"}]},{"lat":"37.2659372","long":"127.48506817","imageIndex":4,"items":[{"name":"카페지음","tel":"","addr":"경기도 이천시 부발읍 산촌리 521-7번지","indutype":"일반휴게음식 - 서양음식","category":"restaurant"}]},{"lat":"37.267303361","long":"127.48589987","imageIndex":0,"items":[{"name":"아원(AH-ONE)","tel":"02-1111-1111","addr":"경기도 이천시 부발읍 산촌리 364-1번지","indutype":"자동차정비 유지 - 자동차부품","category":"car"}]},{"lat":"37.269491948","long":"127.49051369","imageIndex":16,"items":[{"name":"토마토유치원[아이행복]","tel":"031-631-0930","addr":"경기도 이천시 부발읍 산촌리 444번지","indutype":"학원 - 유치원","category":"study"}]},{"lat":"37.265524537","long":"127.48240498","imageIndex":16,"items":[{"name":"효양중학교","tel":"031-645-5000","addr":"경기도 이천시 부발읍 산촌리 533-2번지 효양중학교","indutype":"학원 - 초중고교육기관","category":"study"}]}]