[{"lat":"37.725179674","long":"127.05570603","imageIndex":13,"items":[{"name":"고고점핑다이어트","tel":"031-861-8832","addr":"경기도 의정부시 장암동 17-8번지 3층","indutype":"레저업소 - 헬스클럽","category":"leisure"}]},{"lat":"37.726297871","long":"127.05340417","imageIndex":13,"items":[{"name":"더라인 휘트니스(THE LINE FITNESS)","tel":"031-876-1470","addr":"경기도 의정부시 장암동 20-14번지 발곡프라자 402호","indutype":"레저업소 - 헬스클럽","category":"leisure"}]},{"lat":"37.724792272","long":"127.05568307","imageIndex":13,"items":[{"name":"백두산당구장","tel":"031-876-8885","addr":"경기도 의정부시 장암동 24-1번지 장암빌딩 3층","indutype":"레저업소 - 당 구 장","category":"leisure"},{"name":"슈노래연습장","tel":"031-877-0201","addr":"경기도 의정부시 장암동 24-1번지 2층","indutype":"레저업소 - 노 래 방","category":"leisure"},{"name":"피씨(PC)나인","tel":"","addr":"경기도 의정부시 장암동 24-1번지 외1필지 지하1층","indutype":"레저업소 - 기타레져업소","category":"leisure"}]},{"lat":"37.723658122","long":"127.05326627","imageIndex":13,"items":[{"name":"블럭버스 장안점","tel":"031-837-0246","addr":"경기도 의정부시 장암동 38-10번지 3층","indutype":"레저업소 - 기타레져업소","category":"leisure"}]},{"lat":"37.706049382","long":"127.06185009","imageIndex":13,"items":[{"name":"서울승마클럽","tel":"031-872-2700","addr":"경기도 의정부시 장암동 98-1번지","indutype":"레저업소 - 기타레져업소","category":"leisure"},{"name":"서울승마클럽","tel":"031-872-2700","addr":"경기도 의정부시 장암동 98-1번지 2층","indutype":"레저업소 - 기타레져업소","category":"leisure"}]},{"lat":"37.725296824","long":"127.0556494","imageIndex":13,"items":[{"name":"세리노래연습장","tel":"031-871-3436","addr":"경기도 의정부시 장암동 17-11번지 2층","indutype":"레저업소 - 노 래 방","category":"leisure"}]}]