[{"lat":"37.130421226","long":"126.9583741","imageIndex":0,"items":[{"name":"(주)삼성플러스배터리","tel":"031-354-7011","addr":"경기도 화성시 향남읍 동오리 212-2번지","indutype":"자동차판매 - 기타운송","category":"car"}]},{"lat":"37.136673268","long":"126.95518542","imageIndex":0,"items":[{"name":"경일공업사","tel":"031-8055-6131","addr":"경기도 화성시 향남읍 동오리 286-5번지","indutype":"자동차정비 유지 - 자동차정비","category":"car"},{"name":"타이어프로화성동오점","tel":"031-8059-6131","addr":"경기도 화성시 향남읍 동오리 286-5번지","indutype":"자동차정비 유지 - 자동차시트·타이어","category":"car"}]},{"lat":"37.133307085","long":"126.94351713","imageIndex":0,"items":[{"name":"금호타이어케이티에스 (KTS)향남점","tel":"031-353-1406","addr":"경기도 화성시 향남읍 동오리 553-6번지","indutype":"자동차정비 유지 - 자동차시트·타이어","category":"car"}]},{"lat":"37.139033846","long":"126.95476751","imageIndex":0,"items":[{"name":"부광상사","tel":"031-354-6818","addr":"경기도 화성시 향남읍 동오리 79-2번지","indutype":"자동차정비 유지 - 자동차부품","category":"car"}]},{"lat":"37.13377883","long":"126.95029171","imageIndex":0,"items":[{"name":"수원우원덮개","tel":"031-352-8790","addr":"경기도 화성시 향남읍 동오리 484번지 1층","indutype":"자동차정비 유지 - 자동차부품","category":"car"}]},{"lat":"37.130447868","long":"126.95735001","imageIndex":0,"items":[{"name":"에이플러스 사운드(A PLUS SOUND)","tel":"031-352-1932","addr":"경기도 화성시 향남읍 동오리 227-1번지 B동","indutype":"자동차정비 유지 - 자동차부품","category":"car"}]},{"lat":"37.136862851","long":"126.95609692","imageIndex":0,"items":[{"name":"주식회사드림물류장비","tel":"031-352-7434","addr":"경기도 화성시 향남읍 동오리 133-9번지 다동","indutype":"자동차판매 - 기타운송","category":"car"}]},{"lat":"37.130673053","long":"126.95714731","imageIndex":0,"items":[{"name":"케이디모터스","tel":"031-354-5272","addr":"경기도 화성시 향남읍 동오리 227-3번지 1층","indutype":"자동차정비 유지 - 자동차시트·타이어","category":"car"}]},{"lat":"37.131338534","long":"126.95390584","imageIndex":0,"items":[{"name":"타이어타운 동오점","tel":"031-352-6505","addr":"경기도 화성시 향남읍 동오리 240-6","indutype":"자동차정비 유지 - 자동차시트·타이어","category":"car"}]}]