[{"lat":"37.482042724","long":"126.7902936","imageIndex":7,"items":[{"name":"e편한마트","tel":"032-342-9778","addr":"경기도 부천시 소사본동 88-23번지","indutype":"유통업 영리 - 슈퍼마켓","category":"mart"}]},{"lat":"37.476295965","long":"126.79626772","imageIndex":7,"items":[{"name":"구멍가게","tel":"02-111-1111","addr":"경기도 부천시 소사본동 154-20번지 1층 일부","indutype":"유통업 영리 - 슈퍼마켓","category":"mart"}]},{"lat":"37.473184648","long":"126.7946258","imageIndex":7,"items":[{"name":"그랜드마트","tel":"032-343-2103","addr":"경기도 부천시 소사본동 209-3번지","indutype":"유통업 영리 - 슈퍼마켓","category":"mart"}]},{"lat":"37.472316811","long":"126.79813263","imageIndex":7,"items":[{"name":"그린마트","tel":"032-345-6626","addr":"경기도 부천시 소사본동 219-3번지","indutype":"유통업 영리 - 슈퍼마켓","category":"mart"}]},{"lat":"37.480910162","long":"126.80213409","imageIndex":7,"items":[{"name":"꿈돌이슈퍼","tel":"032-346-0233","addr":"경기도 부천시 소사본동 56-5번지 삼신아파트","indutype":"유통업 영리 - 슈퍼마켓","category":"mart"}]},{"lat":"37.477682581","long":"126.79574386","imageIndex":7,"items":[{"name":"대영마트","tel":"032-347-1559","addr":"경기도 부천시 소사본동 139-22번지 대양프라자 105호","indutype":"유통업 영리 - 슈퍼마켓","category":"mart"}]},{"lat":"37.467793478","long":"126.7979415","imageIndex":7,"items":[{"name":"동해슈퍼","tel":"032-346-4778","addr":"경기도 부천시 소사본동 400-2번지 복사골 상가 101호","indutype":"유통업 영리 - 슈퍼마켓","category":"mart"}]},{"lat":"37.47092873","long":"126.80307644","imageIndex":7,"items":[{"name":"뜨란채할인마트","tel":"032-345-6333","addr":"경기도 부천시 소사본동 411-1제상가비동101","indutype":"유통업 영리 - 슈퍼마켓","category":"mart"}]},{"lat":"37.47612667","long":"126.79735349","imageIndex":7,"items":[{"name":"럭키마트","tel":"032-347-5829","addr":"경기도 부천시 소사본동 159-30번지 1층","indutype":"유통업 영리 - 슈퍼마켓","category":"mart"}]},{"lat":"37.470458784","long":"126.79699596","imageIndex":7,"items":[{"name":"부흥슈퍼","tel":"032-347-9389","addr":"경기도 부천시 소사본동 229-31번지","indutype":"유통업 영리 - 슈퍼마켓","category":"mart"}]},{"lat":"37.471987404","long":"126.79523956","imageIndex":7,"items":[{"name":"삼양슈퍼","tel":"032-349-2841","addr":"경기도 부천시 소사본동 215-15번지","indutype":"유통업 영리 - 슈퍼마켓","category":"mart"}]},{"lat":"37.467455504","long":"126.8004971","imageIndex":7,"items":[{"name":"성산하이퍼","tel":"032-347-5996","addr":"경기도 부천시 소사본동 403 삼성두산상가 110호","indutype":"유통업 영리 - 슈퍼마켓","category":"mart"}]},{"lat":"37.475928765","long":"126.79241368","imageIndex":7,"items":[{"name":"씨티마트(C.T Mart)","tel":"070-7581-8891","addr":"경기도 부천시 소사본동 166-1번지 1층 2호","indutype":"유통업 영리 - 슈퍼마켓","category":"mart"}]},{"lat":"37.470207509","long":"126.79757317","imageIndex":7,"items":[{"name":"양우할인마트","tel":"032-344-0679","addr":"경기도 부천시 소사본동 222-46번지","indutype":"유통업 영리 - 슈퍼마켓","category":"mart"}]},{"lat":"37.479593215","long":"126.79604384","imageIndex":7,"items":[{"name":"엠마오마트","tel":"032-342-9423","addr":"경기도 부천시 소사본동 128-9번지","indutype":"유통업 영리 - 슈퍼마켓","category":"mart"}]},{"lat":"37.473345193","long":"126.79885333","imageIndex":7,"items":[{"name":"연화마트","tel":"032-344-4520","addr":"경기도 부천시 소사본동 198-38번지 1층","indutype":"유통업 영리 - 슈퍼마켓","category":"mart"}]},{"lat":"37.473405124","long":"126.79193465","imageIndex":7,"items":[{"name":"열린슈퍼우리유통","tel":"032-348-7722","addr":"경기도 부천시 소사본동 211-12번지","indutype":"유통업 영리 - 슈퍼마켓","category":"mart"}]},{"lat":"37.477905582","long":"126.79446572","imageIndex":7,"items":[{"name":"영광슈퍼","tel":"032-343-7332","addr":"경기도 부천시 소사본동 141-61번지","indutype":"유통업 영리 - 슈퍼마켓","category":"mart"}]},{"lat":"37.468960684","long":"126.80079825","imageIndex":7,"items":[{"name":"영마트","tel":"032-344-2050","addr":"경기도 부천시 소사본동 400-9번지 신한은행소사지점 102호","indutype":"유통업 영리 - 슈퍼마켓","category":"mart"}]},{"lat":"37.475016907","long":"126.79137617","imageIndex":7,"items":[{"name":"영마트","tel":"","addr":"경기도 부천시 소사본동 174번지","indutype":"유통업 영리 - 슈퍼마켓","category":"mart"}]},{"lat":"37.477212098","long":"126.79462593","imageIndex":7,"items":[{"name":"온양미니슈퍼","tel":"032-349-3627","addr":"경기도 부천시 소사본동 151-26번지","indutype":"유통업 영리 - 슈퍼마켓","category":"mart"}]},{"lat":"37.473960492","long":"126.80037781","imageIndex":7,"items":[{"name":"우리홈마트","tel":"070-4240-7088","addr":"경기도 부천시 소사본동 277-12번지","indutype":"유통업 영리 - 슈퍼마켓","category":"mart"},{"name":"인영할인마트","tel":"032-4240-7088","addr":"경기도 부천시 소사본동 277-12번지 14동104~106호","indutype":"유통업 영리 - 슈퍼마켓","category":"mart"},{"name":"창원할인마트","tel":"032-346-4798","addr":"경기도 부천시 소사본동 277-12한신상가104,105,106호","indutype":"유통업 영리 - 슈퍼마켓","category":"mart"}]},{"lat":"37.480566361","long":"126.80129838","imageIndex":7,"items":[{"name":"월드마트","tel":"032-344-9669","addr":"경기도 부천시 소사본동 57-25번지 1층","indutype":"유통업 영리 - 슈퍼마켓","category":"mart"}]},{"lat":"37.474010137","long":"126.79269037","imageIndex":7,"items":[{"name":"은혜마트","tel":"032-343-1319","addr":"경기도 부천시 소사본동 178-1번지 1층","indutype":"유통업 영리 - 슈퍼마켓","category":"mart"},{"name":"은혜할인마트","tel":"032-111-1111","addr":"경기도 부천시 소사본동 178-1번지","indutype":"유통업 영리 - 슈퍼마켓","category":"mart"}]},{"lat":"37.471237729","long":"126.79419032","imageIndex":7,"items":[{"name":"자매슈퍼","tel":"032-347-0230","addr":"경기도 부천시 소사본동 234-16번지 1층","indutype":"유통업 영리 - 슈퍼마켓","category":"mart"}]},{"lat":"37.471236051","long":"126.79838428","imageIndex":7,"items":[{"name":"정우슈퍼","tel":"032-346-9258","addr":"경기도 부천시 소사본동 221번지","indutype":"유통업 영리 - 슈퍼마켓","category":"mart"}]},{"lat":"37.478065399","long":"126.79313123","imageIndex":7,"items":[{"name":"조광마트","tel":"032-347-2054","addr":"경기도 부천시 소사본동 143-20번지","indutype":"유통업 영리 - 슈퍼마켓","category":"mart"}]},{"lat":"37.480175739","long":"126.79426722","imageIndex":7,"items":[{"name":"주식회사 더블유디마트","tel":"032-343-9621","addr":"경기도 부천시 소사본동 78번지 세영타워메카 1층","indutype":"유통업 영리 - 슈퍼마켓","category":"mart"}]},{"lat":"37.479960438","long":"126.79479919","imageIndex":7,"items":[{"name":"주희슈퍼","tel":"032-347-3196","addr":"경기도 부천시 소사본동 81-10번지","indutype":"유통업 영리 - 슈퍼마켓","category":"mart"}]},{"lat":"37.473212901","long":"126.80051549","imageIndex":7,"items":[{"name":"준마트","tel":"032-346-0111","addr":"경기도 부천시 소사본동 277-29번지","indutype":"유통업 영리 - 슈퍼마켓","category":"mart"}]},{"lat":"37.477232184","long":"126.79580163","imageIndex":7,"items":[{"name":"중국식품","tel":"032-343-9189","addr":"경기도 부천시 소사본동 153-1번지 1층 왼쪽","indutype":"유통업 영리 - 슈퍼마켓","category":"mart"}]},{"lat":"37.475347007","long":"126.79460849","imageIndex":7,"items":[{"name":"중국식품(마트)","tel":"031-8287-1658","addr":"경기도 부천시 소사본동 162-24번지 라데팡스 101호","indutype":"유통업 영리 - 슈퍼마켓","category":"mart"}]},{"lat":"37.472599979","long":"126.79518135","imageIndex":7,"items":[{"name":"중국식품슈퍼","tel":"","addr":"경기도 부천시 소사본동 204-15번지 1층","indutype":"유통업 영리 - 슈퍼마켓","category":"mart"}]},{"lat":"37.479814803","long":"126.79396297","imageIndex":7,"items":[{"name":"착한할인마트","tel":"032-349-3605","addr":"경기도 부천시 소사본동 78-1번지 중앙리치빌","indutype":"유통업 영리 - 슈퍼마켓","category":"mart"}]},{"lat":"37.474321765","long":"126.7956853","imageIndex":7,"items":[{"name":"태봉","tel":"032-346-6021","addr":"경기도 부천시 소사본동 184-7번지","indutype":"유통업 영리 - 슈퍼마켓","category":"mart"}]},{"lat":"37.472374417","long":"126.80018992","imageIndex":7,"items":[{"name":"평화슈퍼","tel":"032-349-1064","addr":"경기도 부천시 소사본동 276-10","indutype":"유통업 영리 - 슈퍼마켓","category":"mart"}]},{"lat":"37.472318589","long":"126.79916135","imageIndex":7,"items":[{"name":"한신할인마트","tel":"032-571-7786","addr":"경기도 부천시 소사본동 288-39번지 1층","indutype":"유통업 영리 - 슈퍼마켓","category":"mart"}]},{"lat":"37.472349082","long":"126.79088629","imageIndex":7,"items":[{"name":"한아름유통","tel":"032-344-9001","addr":"경기도 부천시 소사본동 186-4번지","indutype":"유통업 영리 - 슈퍼마켓","category":"mart"}]},{"lat":"37.474879038","long":"126.80010402","imageIndex":7,"items":[{"name":"행복DC아울렛","tel":"032-342-8422","addr":"경기도 부천시 소사본동 197-3번지","indutype":"유통업 영리 - 슈퍼마켓","category":"mart"}]},{"lat":"37.4813479","long":"126.79993956","imageIndex":7,"items":[{"name":"현대미니슈퍼","tel":"032-346-6990","addr":"경기도 부천시 소사본동 62-12번지","indutype":"유통업 영리 - 슈퍼마켓","category":"mart"}]},{"lat":"37.478099466","long":"126.79713328","imageIndex":7,"items":[{"name":"홈마트","tel":"032-351-8959","addr":"경기도 부천시 소사본동 137-1번지 휴안뷰 101동 101호","indutype":"유통업 영리 - 슈퍼마켓","category":"mart"}]},{"lat":"37.470876433","long":"126.79368263","imageIndex":7,"items":[{"name":"화열수퍼","tel":"032-341-5352","addr":"경기도 부천시 소사본동 234-25번지","indutype":"유통업 영리 - 슈퍼마켓","category":"mart"}]},{"lat":"37.471266798","long":"126.80054334","imageIndex":7,"items":[{"name":"황해슈퍼","tel":"032-346-4330","addr":"경기도 부천시 소사본동 283-46번지","indutype":"유통업 영리 - 슈퍼마켓","category":"mart"}]}]