[{"lat":"37.743207522","long":"127.05637689","imageIndex":7,"items":[{"name":"감초건강원","tel":"031-843-8475","addr":"경기도 의정부시 신곡동 680-11번지","indutype":"건강식품 - 기타건강식품","category":"food"}]},{"lat":"37.734267842","long":"127.06101029","imageIndex":7,"items":[{"name":"건국우유용현보급소","tel":"070-7433-2731","addr":"경기도 의정부시 신곡동 423-21번지 1층","indutype":"음료식품 - 기타음료식품","category":"food"}]},{"lat":"37.727492447","long":"127.06140201","imageIndex":7,"items":[{"name":"고기나라","tel":"031-877-5030","addr":"경기도 의정부시 신곡동 727-1번지","indutype":"음료식품 - 정육점","category":"food"},{"name":"명가두부","tel":"031-855-1414","addr":"경기도 의정부시 신곡동 727-1한국풍림상가111호","indutype":"음료식품 - 기타음료식품","category":"food"},{"name":"엠마","tel":"031-111-1111","addr":"경기도 의정부시 신곡동 727-1번지 주상가동지하지에스슈퍼내","indutype":"음료식품 - 제과점","category":"food"}]},{"lat":"37.73420624","long":"127.05795862","imageIndex":7,"items":[{"name":"광명녹즙","tel":"031-841-2298","addr":"경기도 의정부시 신곡동 432-81번지","indutype":"건강식품 - 기타건강식품","category":"food"}]},{"lat":"37.730818036","long":"127.05923796","imageIndex":7,"items":[{"name":"광어2마리 15000","tel":"031-840-9555","addr":"경기도 의정부시 신곡동 352-51번지","indutype":"음료식품 - 농·축·수산품","category":"food"}]},{"lat":"37.745268062","long":"127.06192657","imageIndex":7,"items":[{"name":"금강식품","tel":"031-111-1111","addr":"경기도 의정부시 신곡동 519-11번지 의정부백병원 지하1층","indutype":"음료식품 - 기타음료식품","category":"food"},{"name":"백병원구내매점","tel":"031-841-7780","addr":"경기도 의정부시 신곡동 519-11 537-6","indutype":"음료식품 - 기타음료식품","category":"food"}]},{"lat":"37.750263121","long":"127.07159799","imageIndex":7,"items":[{"name":"금오아쿠아월드 사우나","tel":"031-851-1600","addr":"경기도 의정부시 신곡동 763-1번지 지하1층 금오아쿠아월드사우나 내 매점","indutype":"음료식품 - 기타음료식품","category":"food"}]},{"lat":"37.7355468","long":"127.06181675","imageIndex":7,"items":[{"name":"꽃떡사랑","tel":"031-846-2727","addr":"경기도 의정부시 신곡동 446-7번지","indutype":"음료식품 - 제과점","category":"food"}]},{"lat":"37.743260954","long":"127.05773841","imageIndex":7,"items":[{"name":"나주정육점","tel":"031-841-7122","addr":"경기도 의정부시 신곡동 673-4번지 대명프라자 109호","indutype":"음료식품 - 정육점","category":"food"},{"name":"대명떡집","tel":"031-846-8756","addr":"경기도 의정부시 신곡동 673-4번지 106호","indutype":"음료식품 - 제과점","category":"food"}]},{"lat":"37.737045306","long":"127.05565774","imageIndex":7,"items":[{"name":"낙원정육점","tel":"031-846-9198","addr":"경기도 의정부시 신곡동 571-59번지 1층","indutype":"음료식품 - 정육점","category":"food"}]},{"lat":"37.742927936","long":"127.05701205","imageIndex":7,"items":[{"name":"누룩꽃 담다","tel":"02-915-1096","addr":"경기도 의정부시 신곡동 673번지 휴먼시티 2층 295호","indutype":"음료식품 - 기타음료식품","category":"food"},{"name":"베스킨라빈스신곡점","tel":"031-848-1008","addr":"경기도 의정부시 신곡동 673번지 휴먼시티 109호","indutype":"음료식품 - 제과점","category":"food"},{"name":"신곡 점핑다이어트","tel":"","addr":"경기도 의정부시 신곡동 673번지 휴먼시티 2층 207호","indutype":"건강식품 - 기타건강식품","category":"food"},{"name":"파리바게뜨(신곡점)","tel":"031-841-5916","addr":"경기도 의정부시 신곡동 673번지 휴먼시티 1층 106호","indutype":"음료식품 - 제과점","category":"food"}]},{"lat":"37.742015345","long":"127.06245723","imageIndex":7,"items":[{"name":"느티나무상회","tel":"","addr":"경기도 의정부시 신곡동 489-66번지","indutype":"음료식품 - 농·축·수산품","category":"food"}]},{"lat":"37.749426271","long":"127.0697931","imageIndex":7,"items":[{"name":"달콤한금요일","tel":"031-111-1111","addr":"경기도 의정부시 신곡동 761-1번지 센타프라자 203호","indutype":"음료식품 - 제과점","category":"food"}]},{"lat":"37.731711356","long":"127.05628921","imageIndex":7,"items":[{"name":"달콤한날들","tel":"031-879-2874","addr":"경기도 의정부시 신곡동 707-4번지 1층","indutype":"음료식품 - 제과점","category":"food"},{"name":"달콤한날들","tel":"031-879-2874","addr":"경기도 의정부시 신곡동 707-4번지 1층","indutype":"음료식품 - 제과점","category":"food"}]},{"lat":"37.740151618","long":"127.05992575","imageIndex":7,"items":[{"name":"대동정육점","tel":"031-845-5598","addr":"경기도 의정부시 신곡동 481번지 건영 상가 지하1층 101호","indutype":"음료식품 - 정육점","category":"food"},{"name":"뚜레쥬르 신곡초교(2)","tel":"031-848-3323","addr":"경기도 의정부시 신곡동 481번지 1층,2층","indutype":"음료식품 - 제과점","category":"food"}]},{"lat":"37.737207826","long":"127.05487506","imageIndex":7,"items":[{"name":"대성건강원","tel":"031-846-6192","addr":"경기도 의정부시 신곡동 570-19번지","indutype":"건강식품 - 기타건강식품","category":"food"}]},{"lat":"37.746211055","long":"127.06765713","imageIndex":7,"items":[{"name":"더 대박","tel":"031-000-0000","addr":"경기도 의정부시 신곡동 121-14번지 1층","indutype":"음료식품 - 기타음료식품","category":"food"}]},{"lat":"37.750095652","long":"127.08015329","imageIndex":7,"items":[{"name":"더클레어","tel":"031-851-8666","addr":"경기도 의정부시 신곡동 779-6번지 1층","indutype":"건강식품 - 기타건강식품","category":"food"}]},{"lat":"37.746066571","long":"127.06825835","imageIndex":7,"items":[{"name":"도누리축산","tel":"","addr":"경기도 의정부시 신곡동 73-33번지 새말빌딩 1층","indutype":"음료식품 - 정육점","category":"food"}]},{"lat":"37.730963848","long":"127.05565342","imageIndex":7,"items":[{"name":"동주수산","tel":"031-836-8811","addr":"경기도 의정부시 신곡동 719-2번지 백상프라자빌딩 B1층","indutype":"음료식품 - 농·축·수산품","category":"food"},{"name":"떡고을","tel":"031-876-7636","addr":"경기도 의정부시 신곡동 719-2번지 백상프라자빌딩 5층","indutype":"음료식품 - 제과점","category":"food"},{"name":"젠틀맨스키친(신곡점)","tel":"031-855-8866","addr":"경기도 의정부시 신곡동 719-2번지 백상프라자빌딩 114호","indutype":"음료식품 - 정육점","category":"food"}]},{"lat":"37.750402125","long":"127.07992667","imageIndex":7,"items":[{"name":"두언유통","tel":"070-8808-4845","addr":"경기도 의정부시 신곡동 778-7번지 101호","indutype":"음료식품 - 기타음료식품","category":"food"},{"name":"석희테이블","tel":"031-827-6430","addr":"경기도 의정부시 신곡동 778-7번지 101호","indutype":"음료식품 - 기타음료식품","category":"food"},{"name":"커피나라","tel":"031-851-0398","addr":"경기도 의정부시 신곡동 778-7번지 1층 102호","indutype":"음료식품 - 기타음료식품","category":"food"}]},{"lat":"37.744288782","long":"127.05612806","imageIndex":7,"items":[{"name":"들빛농산","tel":"031-840-1600","addr":"경기도 의정부시 신곡동 677-4번지","indutype":"음료식품 - 미곡상","category":"food"}]},{"lat":"37.730349435","long":"127.05945314","imageIndex":7,"items":[{"name":"뚜레쥬르 의정부신곡점","tel":"031-846-8080","addr":"경기도 의정부시 신곡동 352-81번지 지하1층,지상1층","indutype":"음료식품 - 제과점","category":"food"}]},{"lat":"37.747573211","long":"127.06445864","imageIndex":7,"items":[{"name":"뚜레쥬르 의정부신곡풍림(2)","tel":"031-852-8562","addr":"경기도 의정부시 신곡동 757-8번지 승원빌딩 1층 103,104호","indutype":"음료식품 - 제과점","category":"food"}]},{"lat":"37.75126063","long":"127.07584266","imageIndex":7,"items":[{"name":"마카롱파는집","tel":"031-851-2211","addr":"경기도 의정부시 신곡동 767-2번지 상가 104호 일부","indutype":"음료식품 - 기타음료식품","category":"food"}]},{"lat":"37.749430042","long":"127.07846194","imageIndex":7,"items":[{"name":"매일우유의정부가정대리점","tel":"031-878-1425","addr":"경기도 의정부시 신곡동 786-10번지 103호","indutype":"음료식품 - 기타음료식품","category":"food"}]},{"lat":"37.740537789","long":"127.06243335","imageIndex":7,"items":[{"name":"매일유업 송산대리점","tel":"031-851-4902","addr":"경기도 의정부시 신곡동 486-3번지","indutype":"음료식품 - 기타음료식품","category":"food"}]},{"lat":"37.739482805","long":"127.06412293","imageIndex":7,"items":[{"name":"먹거리장터","tel":"031-796-2554","addr":"경기도 의정부시 신곡동 133-1번지","indutype":"음료식품 - 농·축·수산품","category":"food"}]},{"lat":"37.730963037","long":"127.0574344","imageIndex":7,"items":[{"name":"미라온","tel":"031-875-5009","addr":"경기도 의정부시 신곡동 720-3번지 서울프라자 501호","indutype":"음료식품 - 기타음료식품","category":"food"}]},{"lat":"37.740457136","long":"127.06157105","imageIndex":7,"items":[{"name":"미트주심","tel":"031-843-9500","addr":"경기도 의정부시 신곡동 485-4번지 1층","indutype":"음료식품 - 정육점","category":"food"}]},{"lat":"37.748041648","long":"127.06457249","imageIndex":7,"items":[{"name":"반찬애찬","tel":"031-853-7783","addr":"경기도 의정부시 신곡동 757-5번지 1층 108호","indutype":"음료식품 - 기타음료식품","category":"food"}]},{"lat":"37.728907777","long":"127.05971294","imageIndex":7,"items":[{"name":"배스킨라빈스의정부장암점","tel":"031-826-5944","addr":"경기도 의정부시 신곡동 726-1번지 1층","indutype":"음료식품 - 제과점","category":"food"},{"name":"파리바게뜨신곡중앙점","tel":"031-837-8202","addr":"경기도 의정부시 신곡동 726-1번지 박사빌딩 106,107,108호","indutype":"음료식품 - 제과점","category":"food"}]},{"lat":"37.74981694","long":"127.07925661","imageIndex":7,"items":[{"name":"베이커스트리트 (Baker st.)","tel":"","addr":"경기도 의정부시 신곡동 787-4번지 1층","indutype":"음료식품 - 제과점","category":"food"}]},{"lat":"37.733239518","long":"127.06345983","imageIndex":7,"items":[{"name":"부흥상회","tel":"070-4007-5739","addr":"경기도 의정부시 신곡동 406-23번지","indutype":"음료식품 - 농·축·수산품","category":"food"}]},{"lat":"37.749267768","long":"127.07862063","imageIndex":7,"items":[{"name":"북의정부대리점","tel":"070-8951-4452","addr":"경기도 의정부시 신곡동 785-10번지","indutype":"음료식품 - 기타음료식품","category":"food"}]},{"lat":"37.750014892","long":"127.07965394","imageIndex":7,"items":[{"name":"블링블링 아이스크림할인점","tel":"","addr":"경기도 의정부시 신곡동 780-5번지 1층","indutype":"음료식품 - 기타음료식품","category":"food"}]},{"lat":"37.751988364","long":"127.07906594","imageIndex":7,"items":[{"name":"비타과일","tel":"","addr":"경기도 의정부시 신곡동 771-9번지 자이빌 403호","indutype":"음료식품 - 농·축·수산품","category":"food"}]},{"lat":"37.729376061","long":"127.0601557","imageIndex":7,"items":[{"name":"빵구오","tel":"031-848-0958","addr":"경기도 의정부시 신곡동 358-2번지 1층","indutype":"음료식품 - 제과점","category":"food"}]},{"lat":"37.738351819","long":"127.05537504","imageIndex":7,"items":[{"name":"샤론슈퍼","tel":"031-844-5255","addr":"경기도 의정부시 신곡동 573-1번지","indutype":"음료식품 - 기타음료식품","category":"food"}]},{"lat":"37.747511963","long":"127.06087314","imageIndex":7,"items":[{"name":"서로유통","tel":"","addr":"경기도 의정부시 신곡동 755-1번지 금오주공그린빌4단지 406동 1602호","indutype":"음료식품 - 기타음료식품","category":"food"}]},{"lat":"37.731963189","long":"127.05724229","imageIndex":7,"items":[{"name":"서울우유 신곡센터","tel":"031-856-2020","addr":"경기도 의정부시 신곡동 712-4번지","indutype":"음료식품 - 기타음료식품","category":"food"}]},{"lat":"37.746625345","long":"127.0679298","imageIndex":7,"items":[{"name":"서울우유금오대리점","tel":"031-821-3100","addr":"경기도 의정부시 신곡동 73-28번지","indutype":"음료식품 - 기타음료식품","category":"food"}]},{"lat":"37.734266794","long":"127.06309765","imageIndex":7,"items":[{"name":"성심농산","tel":"070-4007-5739","addr":"경기도 의정부시 신곡동 416-53번지","indutype":"음료식품 - 농·축·수산품","category":"food"}]},{"lat":"37.743928512","long":"127.05587819","imageIndex":7,"items":[{"name":"성원식자재","tel":"031-841-9315","addr":"경기도 의정부시 신곡동 677-9번지","indutype":"음료식품 - 기타음료식품","category":"food"}]},{"lat":"37.735015456","long":"127.0613739","imageIndex":7,"items":[{"name":"성진떡방앗간","tel":"031-846-5358","addr":"경기도 의정부시 신곡동 419-21번지","indutype":"음료식품 - 제과점","category":"food"}]},{"lat":"37.747093349","long":"127.06881522","imageIndex":7,"items":[{"name":"성호상사","tel":"031-878-8522","addr":"경기도 의정부시 신곡동 802-8번지 세영빌딩 102호","indutype":"음료식품 - 기타음료식품","category":"food"}]},{"lat":"37.729400542","long":"127.06518093","imageIndex":7,"items":[{"name":"소망젓갈","tel":"031-844-8866","addr":"경기도 의정부시 신곡동 369-1번지","indutype":"음료식품 - 기타음료식품","category":"food"}]},{"lat":"37.747041719","long":"127.06432205","imageIndex":7,"items":[{"name":"속초수산","tel":"031-848-5500","addr":"경기도 의정부시 신곡동 87-5번지 102호","indutype":"음료식품 - 농·축·수산품","category":"food"}]},{"lat":"37.737018536","long":"127.07251602","imageIndex":7,"items":[{"name":"수복건강원","tel":"031-821-2662","addr":"경기도 의정부시 신곡동 169-20 성원상가 107","indutype":"건강식품 - 기타건강식품","category":"food"}]},{"lat":"37.74145732","long":"127.06132224","imageIndex":7,"items":[{"name":"순덕이네반찬가게","tel":"031-824-4090","addr":"경기도 의정부시 신곡동 493-1번지 1층","indutype":"음료식품 - 기타음료식품","category":"food"}]},{"lat":"37.745454773","long":"127.0667034","imageIndex":7,"items":[{"name":"슬기할인마트","tel":"031-846-2726","addr":"경기도 의정부시 신곡동 122-17번지","indutype":"음료식품 - 기타음료식품","category":"food"}]},{"lat":"37.750370877","long":"127.07221082","imageIndex":7,"items":[{"name":"식빵굽는언니","tel":"031-853-9922","addr":"경기도 의정부시 신곡동 765-1번지 금오종합상가 1층 B-103호","indutype":"음료식품 - 제과점","category":"food"},{"name":"아레테","tel":"","addr":"경기도 의정부시 신곡동 765-1번지 금오종합상가 1층 B109-110호","indutype":"음료식품 - 제과점","category":"food"},{"name":"제이(J)축산도매센타","tel":"031-852-6665","addr":"경기도 의정부시 신곡동 765-1번지 금오종합상가 102호","indutype":"음료식품 - 정육점","category":"food"},{"name":"찬반사랑채","tel":"031-852-2660","addr":"경기도 의정부시 신곡동 765-1번지 금오종합상가 제1층 제비-106호","indutype":"음료식품 - 기타음료식품","category":"food"},{"name":"킹아이스크림할인점","tel":"031-915-1096","addr":"경기도 의정부시 신곡동 765-1번지 금오종합상가 1층 비-102호","indutype":"음료식품 - 기타음료식품","category":"food"}]},{"lat":"37.736955236","long":"127.05560095","imageIndex":7,"items":[{"name":"신곡낙원떡","tel":"031-846-6333","addr":"경기도 의정부시 신곡동 571-58번지","indutype":"음료식품 - 제과점","category":"food"}]},{"lat":"37.737738772","long":"127.05625951","imageIndex":7,"items":[{"name":"신안소금","tel":"031-844-5126","addr":"경기도 의정부시 신곡동 588-9번지","indutype":"음료식품 - 기타음료식품","category":"food"}]},{"lat":"37.730963587","long":"127.05623196","imageIndex":7,"items":[{"name":"아이스빠","tel":"","addr":"경기도 의정부시 신곡동 719-4번지 우신프라자 1층 109호","indutype":"음료식품 - 기타음료식품","category":"food"},{"name":"터미널유통마트","tel":"031-877-9282","addr":"경기도 의정부시 신곡동 719-4.5우신프라자1층-101","indutype":"음료식품 - 기타음료식품","category":"food"},{"name":"파리바게뜨 장암점","tel":"031-878-6564","addr":"경기도 의정부시 신곡동 719-4번지 우신프라자 110동 111호","indutype":"음료식품 - 제과점","category":"food"}]},{"lat":"37.735511352","long":"127.06062555","imageIndex":7,"items":[{"name":"약초건강원","tel":"031-843-1288","addr":"경기도 의정부시 신곡동 447-13번지","indutype":"건강식품 - 기타건강식품","category":"food"}]},{"lat":"37.732099291","long":"127.05512106","imageIndex":7,"items":[{"name":"연세우유신곡대리점","tel":"031-843-3475","addr":"경기도 의정부시 신곡동 704-1번지 1층","indutype":"음료식품 - 기타음료식품","category":"food"}]},{"lat":"37.748984977","long":"127.06948635","imageIndex":7,"items":[{"name":"예다운떡방","tel":"031-853-3365","addr":"경기도 의정부시 신곡동 760-4번지 골드타워 108호","indutype":"음료식품 - 제과점","category":"food"},{"name":"제이쇼콜라","tel":"031-852-0071","addr":"경기도 의정부시 신곡동 760-4번지 골드타워 1층 104호","indutype":"음료식품 - 기타음료식품","category":"food"}]},{"lat":"37.743044883","long":"127.05739788","imageIndex":7,"items":[{"name":"오늘반찬","tel":"","addr":"경기도 의정부시 신곡동 673-6번지 1층","indutype":"음료식품 - 기타음료식품","category":"food"}]},{"lat":"37.732684111","long":"127.05690249","imageIndex":7,"items":[{"name":"오늘은 디저트","tel":"02-1111-1111","addr":"경기도 의정부시 신곡동 710-1번지","indutype":"음료식품 - 제과점","category":"food"}]},{"lat":"37.735519435","long":"127.06248606","imageIndex":7,"items":[{"name":"오손도손우리집먹거리","tel":"031-847-4966","addr":"경기도 의정부시 신곡동 448-38번지 1층","indutype":"음료식품 - 기타음료식품","category":"food"}]},{"lat":"37.73351285","long":"127.05720939","imageIndex":7,"items":[{"name":"오피뉴","tel":"","addr":"경기도 의정부시 신곡동 603-10번지 1층","indutype":"음료식품 - 기타음료식품","category":"food"}]},{"lat":"37.748600371","long":"127.06432334","imageIndex":7,"items":[{"name":"올때아이스크림","tel":"031-0000-0000","addr":"경기도 의정부시 신곡동 757-2번지 광장빌딩 1층 108호","indutype":"음료식품 - 기타음료식품","category":"food"}]},{"lat":"37.730818365","long":"127.05854599","imageIndex":7,"items":[{"name":"와유점핑","tel":"","addr":"경기도 의정부시 신곡동 721-1번지 장암프라자 506동 508호","indutype":"건강식품 - 기타건강식품","category":"food"}]},{"lat":"37.735430859","long":"127.05940028","imageIndex":7,"items":[{"name":"우일유통식자재","tel":"031-848-8690","addr":"경기도 의정부시 신곡동 441-18번지","indutype":"음료식품 - 기타음료식품","category":"food"}]},{"lat":"37.737622668","long":"127.05395642","imageIndex":7,"items":[{"name":"우진방앗간","tel":"031-851-1487","addr":"경기도 의정부시 신곡동 567-24번지 1층","indutype":"음료식품 - 기타음료식품","category":"food"}]},{"lat":"37.731963624","long":"127.05628939","imageIndex":7,"items":[{"name":"일동후디스우유의정부대리점","tel":"031-875-8370","addr":"경기도 의정부시 신곡동 707-2번지 후면 1층","indutype":"음료식품 - 기타음료식품","category":"food"}]},{"lat":"37.744178535","long":"127.06065497","imageIndex":7,"items":[{"name":"일심","tel":"031-841-8461","addr":"경기도 의정부시 신곡동 685 벽산상가","indutype":"음료식품 - 제과점","category":"food"}]},{"lat":"37.736901917","long":"127.07165371","imageIndex":7,"items":[{"name":"자연팜","tel":"031-848-5445","addr":"경기도 의정부시 신곡동 169-30번지","indutype":"음료식품 - 정육점","category":"food"}]},{"lat":"37.7308452","long":"127.05895439","imageIndex":7,"items":[{"name":"장암동 정류장","tel":"031-000-0000","addr":"경기도 의정부시 신곡동 748-1번지","indutype":"음료식품 - 기타음료식품","category":"food"}]},{"lat":"37.749876639","long":"127.0699864","imageIndex":7,"items":[{"name":"정관장금오점","tel":"031-851-8484","addr":"경기도 의정부시 신곡동 762-2번지 엘리트타운 106호","indutype":"건강식품 - 홍삼제품","category":"food"},{"name":"정관장금오점","tel":"031-851-8484","addr":"경기도 의정부시 신곡동 762-2번지 엘리트타운 106호","indutype":"건강식품 - 홍삼제품","category":"food"}]},{"lat":"37.728600597","long":"127.0614596","imageIndex":7,"items":[{"name":"정다운 축산","tel":"031-844-1030","addr":"경기도 의정부시 신곡동 313-9번지","indutype":"음료식품 - 정육점","category":"food"}]},{"lat":"37.747319205","long":"127.06770348","imageIndex":7,"items":[{"name":"정석물산","tel":"031-000-0000","addr":"경기도 의정부시 신곡동 69-5번지 B동 102호","indutype":"음료식품 - 기타음료식품","category":"food"}]},{"lat":"37.737846809","long":"127.05642976","imageIndex":7,"items":[{"name":"제이(J)이레푸드","tel":"031-851-9490","addr":"경기도 의정부시 신곡동 592-2번지 1층 우측호","indutype":"음료식품 - 기타음료식품","category":"food"}]},{"lat":"37.741900474","long":"127.05781683","imageIndex":7,"items":[{"name":"제일떡집","tel":"031-841-4946","addr":"경기도 의정부시 신곡동 684은하수상가지하1호","indutype":"음료식품 - 제과점","category":"food"}]},{"lat":"37.728825701","long":"127.06173202","imageIndex":7,"items":[{"name":"제일떡집","tel":"031-878-0398","addr":"경기도 의정부시 신곡동 314-4번지 1층","indutype":"음료식품 - 제과점","category":"food"}]},{"lat":"37.74354103","long":"127.05603676","imageIndex":7,"items":[{"name":"조개도소매","tel":"031-821-6585","addr":"경기도 의정부시 신곡동 676-16번지","indutype":"음료식품 - 농·축·수산품","category":"food"},{"name":"해물수산","tel":"","addr":"경기도 의정부시 신곡동 676-16번지 1층","indutype":"음료식품 - 농·축·수산품","category":"food"}]},{"lat":"37.74943369","long":"127.072539","imageIndex":7,"items":[{"name":"종근당건강 헬스벨스토리 의정부신곡점","tel":"031-823-0860","addr":"경기도 의정부시 신곡동 765-5번지 금오프라자 1층 110호","indutype":"건강식품 - 기타건강식품","category":"food"}]},{"lat":"37.74548235","long":"127.06568228","imageIndex":7,"items":[{"name":"주다로스팅","tel":"0505-4154-2229","addr":"경기도 의정부시 신곡동 111-2번지 2층","indutype":"음료식품 - 기타음료식품","category":"food"}]},{"lat":"37.734374336","long":"127.06420948","imageIndex":7,"items":[{"name":"진영농산","tel":"031-842-7265","addr":"경기도 의정부시 신곡동 401-11번지","indutype":"음료식품 - 농·축·수산품","category":"food"}]},{"lat":"37.73040353","long":"127.05937377","imageIndex":7,"items":[{"name":"착한고기","tel":"","addr":"경기도 의정부시 신곡동 352-80번지 1층","indutype":"음료식품 - 정육점","category":"food"}]},{"lat":"37.735546675","long":"127.06206633","imageIndex":7,"items":[{"name":"착한청과","tel":"031-846-9770","addr":"경기도 의정부시 신곡동 449-4번지","indutype":"음료식품 - 농·축·수산품","category":"food"}]},{"lat":"37.730655863","long":"127.05923784","imageIndex":7,"items":[{"name":"천비솔경기북부지사","tel":"031-872-5089","addr":"경기도 의정부시 신곡동 352-18번지 외1필용호빌딩1층","indutype":"건강식품 - 기타건강식품","category":"food"}]},{"lat":"37.744153628","long":"127.05615065","imageIndex":7,"items":[{"name":"초심정진","tel":"031-848-4102","addr":"경기도 의정부시 신곡동 677-6번지","indutype":"음료식품 - 농·축·수산품","category":"food"}]},{"lat":"37.746536971","long":"127.06473009","imageIndex":7,"items":[{"name":"최강정육점","tel":"031-824-8417","addr":"경기도 의정부시 신곡동 87-13번지 서희빌 1층 101호","indutype":"음료식품 - 정육점","category":"food"}]},{"lat":"37.73662138","long":"127.05671249","imageIndex":7,"items":[{"name":"축산물판매장","tel":"","addr":"경기도 의정부시 신곡동 597-107번지","indutype":"음료식품 - 정육점","category":"food"}]},{"lat":"37.729656523","long":"127.05770569","imageIndex":7,"items":[{"name":"축협영주소백산한우전문점","tel":"031-826-1585","addr":"경기도 의정부시 신곡동 723-1번지 한일.삼익아파트 105호 상가","indutype":"음료식품 - 정육점","category":"food"}]},{"lat":"37.735069265","long":"127.0618731","imageIndex":7,"items":[{"name":"퀸스허브다이어트","tel":"031-856-2553","addr":"경기도 의정부시 신곡동 447-31번지 1층","indutype":"건강식품 - 기타건강식품","category":"food"}]},{"lat":"37.740349049","long":"127.06151424","imageIndex":7,"items":[{"name":"큰소반","tel":"031-843-3392","addr":"경기도 의정부시 신곡동 485-5번지 202호","indutype":"음료식품 - 기타음료식품","category":"food"},{"name":"회 사는날","tel":"031-846-8555","addr":"경기도 의정부시 신곡동 485-5번지 2층","indutype":"음료식품 - 기타음료식품","category":"food"}]},{"lat":"37.747816327","long":"127.08001476","imageIndex":7,"items":[{"name":"파리바게뜨","tel":"031-852-4242","addr":"경기도 의정부시 신곡동 790번지 상가동 1동 101,102호","indutype":"음료식품 - 제과점","category":"food"}]},{"lat":"37.73551087","long":"127.06160118","imageIndex":7,"items":[{"name":"파리바게뜨 신곡한일점","tel":"031-841-8203","addr":"경기도 의정부시 신곡동 447-41번지 101호 102호","indutype":"음료식품 - 제과점","category":"food"}]},{"lat":"37.749399512","long":"127.06931652","imageIndex":7,"items":[{"name":"파리바게트금오드림벨리","tel":"0318-851-8230","addr":"경기도 의정부시 신곡동 760-2번지 세명프라자 1층 105호","indutype":"음료식품 - 제과점","category":"food"}]},{"lat":"37.730484655","long":"127.05929443","imageIndex":7,"items":[{"name":"파워핏클럽 (파워 FIT CLUB)","tel":"031-872-7143","addr":"경기도 의정부시 신곡동 352-13번지 지하1층","indutype":"건강식품 - 기타건강식품","category":"food"}]},{"lat":"37.734762843","long":"127.06206571","imageIndex":7,"items":[{"name":"푸른정육점","tel":"031-848-1934","addr":"경기도 의정부시 신곡동 397-12번지 1층","indutype":"음료식품 - 정육점","category":"food"},{"name":"푸른정육점","tel":"031-848-1934","addr":"경기도 의정부시 신곡동 397-12번지","indutype":"음료식품 - 정육점","category":"food"}]},{"lat":"37.749537696","long":"127.07917689","imageIndex":7,"items":[{"name":"풍국 떡방앗간","tel":"031-846-2599","addr":"경기도 의정부시 신곡동 788-2번지","indutype":"음료식품 - 제과점","category":"food"}]},{"lat":"37.745707577","long":"127.06570517","imageIndex":7,"items":[{"name":"프라임미트","tel":"031-840-0958","addr":"경기도 의정부시 신곡동 112-38번지","indutype":"음료식품 - 정육점","category":"food"}]},{"lat":"37.743955051","long":"127.05695606","imageIndex":7,"items":[{"name":"한양떡방아간","tel":"031-847-5869","addr":"경기도 의정부시 신곡동 675-4번지","indutype":"음료식품 - 제과점","category":"food"}]},{"lat":"37.749960783","long":"127.07973332","imageIndex":7,"items":[{"name":"한우야축산","tel":"031-853-3203","addr":"경기도 의정부시 신곡동 780-6번지","indutype":"음료식품 - 정육점","category":"food"}]},{"lat":"37.751575639","long":"127.07636493","imageIndex":7,"items":[{"name":"해피트리","tel":"","addr":"경기도 의정부시 신곡동 767-2번지 상록아이파크 101동 202호","indutype":"건강식품 - 기타건강식품","category":"food"}]},{"lat":"37.734878581","long":"127.06476577","imageIndex":7,"items":[{"name":"햇살원","tel":"031-846-8830","addr":"경기도 의정부시 신곡동 400-5번지","indutype":"음료식품 - 기타음료식품","category":"food"}]},{"lat":"37.73470782","long":"127.06396018","imageIndex":7,"items":[{"name":"햇살푸드","tel":"","addr":"경기도 의정부시 신곡동 416-52번지","indutype":"음료식품 - 미곡상","category":"food"}]},{"lat":"37.735934212","long":"127.06181706","imageIndex":7,"items":[{"name":"행복한고기마을","tel":"031-855-6666","addr":"경기도 의정부시 신곡동 445-1번지 다우리치빌딩 108호","indutype":"음료식품 - 정육점","category":"food"}]},{"lat":"37.74945672","long":"127.07900661","imageIndex":7,"items":[{"name":"현대유통","tel":"031-683-6102","addr":"경기도 의정부시 신곡동 788-1번지 201호","indutype":"음료식품 - 농·축·수산품","category":"food"}]},{"lat":"37.735511095","long":"127.0611474","imageIndex":7,"items":[{"name":"현미와누룽지","tel":"031-848-4140","addr":"경기도 의정부시 신곡동 447-38번지 1층","indutype":"음료식품 - 기타음료식품","category":"food"}]},{"lat":"37.734017012","long":"127.0580152","imageIndex":7,"items":[{"name":"화승상회","tel":"031-111-1111","addr":"경기도 의정부시 신곡동 432-16번지","indutype":"음료식품 - 농·축·수산품","category":"food"}]},{"lat":"37.752791941","long":"127.07634344","imageIndex":7,"items":[{"name":"효자쉼터","tel":"02-900-1544","addr":"경기도 의정부시 신곡동 768-1번지 효자고등학교","indutype":"음료식품 - 기타음료식품","category":"food"}]}]