[{"lat":"37.337895993","long":"126.78813897","imageIndex":7,"items":[{"name":"K슈퍼안산신길점","tel":"031-493-5115","addr":"경기도 안산시 단원구 신길동 1545번지 104호 ,105,106호","indutype":"유통업 영리 - 슈퍼마켓","category":"mart"},{"name":"초록마을","tel":"031-453-9599","addr":"경기도 안산시 단원구 신길동 1545번지 신길프라자 105호","indutype":"유통업 영리 - 슈퍼마켓","category":"mart"}]},{"lat":"37.329865138","long":"126.78660474","imageIndex":7,"items":[{"name":"굿마트 안산모리아점","tel":"","addr":"경기도 안산시 단원구 신길동 1623번지 외1필지 108호","indutype":"유통업 영리 - 슈퍼마켓","category":"mart"}]},{"lat":"37.3298651375","long":"126.7866047379","imageIndex":7,"items":[{"name":"낚시백화점","tel":"","addr":"경기도 안산시 단원구 신길동 1623번지","indutype":"도매 및 소매업 - 슈퍼마켓,낚시","category":"mart"}]},{"lat":"37.331307726","long":"126.78713092","imageIndex":7,"items":[{"name":"롯데마켓999안산신길가맹점","tel":"031-495-9949","addr":"경기도 안산시 단원구 신길동 1597번지 101호","indutype":"유통업 영리 - 슈퍼마켓","category":"mart"}]},{"lat":"37.3368087057","long":"126.7616127505","imageIndex":7,"items":[{"name":"베니스마트","tel":"031-405-8915","addr":"경기도 안산시 단원구 신길동 1403-7번지","indutype":"도매 및 소매업 - 슈퍼마켓","category":"mart"}]},{"lat":"37.336808706","long":"126.76161275","imageIndex":7,"items":[{"name":"베니스마트","tel":"031-494-8919","addr":"경기도 안산시 단원구 신길동 1403-7번지","indutype":"유통업 영리 - 슈퍼마켓","category":"mart"}]},{"lat":"37.337587727","long":"126.77741968","imageIndex":7,"items":[{"name":"삼익마트","tel":"031-494-5087","addr":"경기도 안산시 단원구 신길동 1438삼익B상가103호","indutype":"유통업 영리 - 슈퍼마켓","category":"mart"}]},{"lat":"37.330143502","long":"126.78608491","imageIndex":7,"items":[{"name":"삼파기타마트/대부","tel":"031-492-7129","addr":"경기도 안산시 단원구 신길동 1625번지 위너스타워 108호","indutype":"유통업 영리 - 슈퍼마켓","category":"mart"}]},{"lat":"37.336029786","long":"126.78263761","imageIndex":7,"items":[{"name":"세븐마트","tel":"031-488-9848","addr":"경기도 안산시 단원구 신길동 1518번지 휴먼시아 101호","indutype":"유통업 영리 - 슈퍼마켓","category":"mart"}]},{"lat":"37.3360297865","long":"126.7826376116","imageIndex":7,"items":[{"name":"세븐마트","tel":"031-488-9848","addr":"경기도 안산시 단원구 신길동 1518번지","indutype":"도매 및 소매업 - 슈퍼","category":"mart"}]},{"lat":"37.336756922","long":"126.77644043","imageIndex":7,"items":[{"name":"신길 공판장","tel":"031-493-5964","addr":"경기도 안산시 단원구 신길동 710-2번지 월산빌딩 1층","indutype":"유통업 영리 - 슈퍼마켓","category":"mart"},{"name":"신길공판장","tel":"031-493-5964","addr":"경기도 안산시 단원구 신길동 710-2번지 101,102호","indutype":"유통업 영리 - 슈퍼마켓","category":"mart"}]},{"lat":"37.3367569217","long":"126.7764404301","imageIndex":7,"items":[{"name":"신길공판장","tel":"031-493-5964","addr":"경기도 안산시 단원구 신길동 710-2번지","indutype":"도매 및 소매업 - 슈퍼마켓","category":"mart"}]},{"lat":"37.334644355","long":"126.77897437","imageIndex":7,"items":[{"name":"열린마트","tel":"070-8171-0083","addr":"경기도 안산시 단원구 신길동 1509번지 휴먼시아 상가동 101호","indutype":"유통업 영리 - 슈퍼마켓","category":"mart"}]},{"lat":"37.3346443553","long":"126.7789743747","imageIndex":7,"items":[{"name":"열린마트","tel":"070-8171-0083","addr":"경기도 안산시 단원구 신길동 1509번지 휴먼시아","indutype":"도매 및 소매업 - 슈퍼","category":"mart"}]},{"lat":"37.332201002","long":"126.78782795","imageIndex":7,"items":[{"name":"우수리마트","tel":"031-405-4404","addr":"경기도 안산시 단원구 신길동 1581번지 103호","indutype":"유통업 영리 - 슈퍼마켓","category":"mart"},{"name":"후레쉬마트","tel":"031-493-0360","addr":"경기도 안산시 단원구 신길동 1581번지 102호","indutype":"유통업 영리 - 슈퍼마켓","category":"mart"}]},{"lat":"37.3322010022","long":"126.7878279521","imageIndex":7,"items":[{"name":"우수리마트","tel":"","addr":"경기도 안산시 단원구 신길동 1581번지","indutype":"도매 및 소매업 - 마트","category":"mart"}]},{"lat":"37.336609908","long":"126.76133128","imageIndex":7,"items":[{"name":"지성중국슈퍼","tel":"031-491-1882","addr":"경기도 안산시 단원구 신길동 1396번지 101호","indutype":"유통업 영리 - 슈퍼마켓","category":"mart"}]},{"lat":"37.330920661","long":"126.78733513","imageIndex":7,"items":[{"name":"타이 인디 (Thai INDY)","tel":"070-8991-9969","addr":"경기도 안산시 단원구 신길동 1611번지 103호","indutype":"유통업 영리 - 슈퍼마켓","category":"mart"}]},{"lat":"37.336169839","long":"126.76203231","imageIndex":7,"items":[{"name":"플러스마트","tel":"031-491-0530","addr":"경기도 안산시 단원구 신길동 1396-6번지 1층","indutype":"유통업 영리 - 슈퍼마켓","category":"mart"}]},{"lat":"37.3361698391","long":"126.7620323080","imageIndex":7,"items":[{"name":"플러스마트","tel":"031-491-0530","addr":"경기도 안산시 단원구 신길동 1396-6번지","indutype":"도매 및 소매업 - 슈퍼","category":"mart"}]},{"lat":"37.3375322904","long":"126.7629758451","imageIndex":7,"items":[{"name":"하나로마트","tel":"031-508-3984","addr":"경기도 안산시 단원구 신길동 1404-23번지","indutype":"도매 및 소매업 - 슈퍼마켓","category":"mart"}]},{"lat":"37.33753229","long":"126.76297585","imageIndex":7,"items":[{"name":"하나로슈퍼","tel":"031-508-3984","addr":"경기도 안산시 단원구 신길동 1404-23번지","indutype":"유통업 영리 - 슈퍼마켓","category":"mart"}]},{"lat":"37.335700394","long":"126.76158244","imageIndex":7,"items":[{"name":"한마음마트","tel":"031-495-0341","addr":"경기도 안산시 단원구 신길동 1426-1,102번지","indutype":"유통업 영리 - 슈퍼마켓","category":"mart"}]},{"lat":"37.331035608","long":"126.78613876","imageIndex":7,"items":[{"name":"한중마트","tel":"031-5882-3588","addr":"경기도 안산시 단원구 신길동 1629번지 103호","indutype":"유통업 영리 - 슈퍼마켓","category":"mart"}]},{"lat":"37.336534907","long":"126.76433312","imageIndex":7,"items":[{"name":"홈마트","tel":"031-506-4833","addr":"경기도 안산시 단원구 신길동 1417-24번지 1층 109,110호","indutype":"유통업 영리 - 슈퍼마켓","category":"mart"}]}]