[{"lat":"37.99050619","long":"126.9194395","imageIndex":4,"items":[{"name":"거북이한식부페","tel":"031-833-4880","addr":"경기도 연천군 백학면 노곡리 622-3번지","indutype":"일반휴게음식 - 일반한식","category":"restaurant"}]},{"lat":"37.99450626","long":"126.919435","imageIndex":4,"items":[{"name":"계림각","tel":"031-835-8229","addr":"경기도 연천군 백학면 노곡리 659-11번지","indutype":"일반휴게음식 - 중국식","category":"restaurant"}]},{"lat":"37.99001114","long":"126.9200776","imageIndex":4,"items":[{"name":"노곡손두부마을","tel":"031-835-1052","addr":"경기도 연천군 백학면 노곡리 615-1번지 가동","indutype":"일반휴게음식 - 일반한식","category":"restaurant"},{"name":"양평해장국","tel":"031-833-8388","addr":"경기도 연천군 백학면 노곡리 615-1번지 나동","indutype":"일반휴게음식 - 일반한식","category":"restaurant"}]},{"lat":"37.98929054","long":"126.9202719","imageIndex":4,"items":[{"name":"대교설렁탕","tel":"031-835-2524","addr":"경기도 연천군 백학면 노곡리 608-3번지","indutype":"일반휴게음식 - 일반한식","category":"restaurant"}]},{"lat":"37.99267785","long":"126.9200746","imageIndex":4,"items":[{"name":"대복능이백숙","tel":"031-832-9212","addr":"경기도 연천군 백학면 노곡리 662-2번지","indutype":"일반휴게음식 - 일반한식","category":"restaurant"}]},{"lat":"37.99537108","long":"126.9193543","imageIndex":4,"items":[{"name":"들녘","tel":"","addr":"경기도 연천군 백학면 노곡리 659-1번지","indutype":"일반휴게음식 - 일반한식","category":"restaurant"}]},{"lat":"37.99909284","long":"126.9207391","imageIndex":4,"items":[{"name":"부어치킨","tel":"031-835-2565","addr":"경기도 연천군 백학면 노곡리 727-3번지","indutype":"일반휴게음식 - 스넥","category":"restaurant"},{"name":"식도락","tel":"031-833-3332","addr":"경기도 연천군 백학면 노곡리 727-3번지 1층","indutype":"일반휴게음식 - 일반한식","category":"restaurant"},{"name":"신망리 순대국","tel":"031-833-3352","addr":"경기도 연천군 백학면 노곡리 727-3번지","indutype":"일반휴게음식 - 일반한식","category":"restaurant"},{"name":"중원","tel":"031-832-3359","addr":"경기도 연천군 백학면 노곡리 727-3번지","indutype":"일반휴게음식 - 중국식","category":"restaurant"},{"name":"충성부대찌개","tel":"031-835-4002","addr":"경기도 연천군 백학면 노곡리 727-3번지 가-2호","indutype":"일반휴게음식 - 일반한식","category":"restaurant"}]},{"lat":"37.99422703","long":"126.919515","imageIndex":4,"items":[{"name":"수랏간 양평해장국","tel":"031-835-0204","addr":"경기도 연천군 백학면 노곡리 659-12번지","indutype":"일반휴게음식 - 일반한식","category":"restaurant"}]},{"lat":"37.99058805","long":"126.9205437","imageIndex":4,"items":[{"name":"약이 되는 밥상","tel":"031-835-2245","addr":"경기도 연천군 백학면 노곡리 563번지","indutype":"일반휴게음식 - 일반한식","category":"restaurant"}]},{"lat":"37.98965081","long":"126.9201349","imageIndex":4,"items":[{"name":"유니크","tel":"031-835-0579","addr":"경기도 연천군 백학면 노곡리 608번지 1층 102호","indutype":"일반휴게음식 - 서양음식","category":"restaurant"}]},{"lat":"37.99106035","long":"126.9134397","imageIndex":4,"items":[{"name":"임진강능이백숙","tel":"031-859-8023","addr":"경기도 연천군 백학면 노곡리 879번지 2층","indutype":"일반휴게음식 - 일반한식","category":"restaurant"}]},{"lat":"37.98947968","long":"126.920192","imageIndex":4,"items":[{"name":"자연밥상","tel":"031-835-6615","addr":"경기도 연천군 백학면 노곡리 608-2번지 1층","indutype":"일반휴게음식 - 일반한식","category":"restaurant"}]},{"lat":"37.98901259","long":"126.9221846","imageIndex":4,"items":[{"name":"제주흑돼지","tel":"031-835-8882","addr":"경기도 연천군 백학면 노곡리 569-4번지","indutype":"일반휴게음식 - 일반한식","category":"restaurant"}]},{"lat":"37.99031684","long":"126.9192121","imageIndex":4,"items":[{"name":"최진사댁부대찌개","tel":"031-835-2202","addr":"경기도 연천군 백학면 노곡리 622-8번지","indutype":"일반휴게음식 - 일반한식","category":"restaurant"}]}]