[{"lat":"37.655588712","long":"127.28094363","imageIndex":0,"items":[{"name":"(주) 화도동부점 현대자동차","tel":"031-592-9393","addr":"경기도 남양주시 화도읍 묵현리 372-4번지","indutype":"자동차정비 유지 - 자동차정비","category":"car"},{"name":"AU지성","tel":"031-594-6120","addr":"경기도 남양주시 화도읍 묵현리 372-4","indutype":"자동차정비 유지 - 자동차부품","category":"car"}]},{"lat":"37.654419814","long":"127.27607778","imageIndex":0,"items":[{"name":"MJ모터스","tel":"031-559-0408","addr":"경기도 남양주시 화도읍 묵현리 388번지","indutype":"자동차정비 유지 - 자동차부품","category":"car"},{"name":"사랑코일매트","tel":"","addr":"경기도 남양주시 화도읍 묵현리 388번지 천마프라자 1층 104호, 2층 203,204호","indutype":"자동차정비 유지 - 자동차부품","category":"car"}]},{"lat":"37.656391644","long":"127.29174644","imageIndex":0,"items":[{"name":"미소드림","tel":"031-594-2119","addr":"경기도 남양주시 화도읍 묵현리 241-6번지","indutype":"자동차정비 유지 - 세차장","category":"car"}]},{"lat":"37.66255964","long":"127.29322101","imageIndex":0,"items":[{"name":"삐카워시","tel":"","addr":"경기도 남양주시 화도읍 묵현리 215-5번지 엔젤파크빌 102동 301호","indutype":"자동차정비 유지 - 세차장","category":"car"}]},{"lat":"37.661636682","long":"127.30202334","imageIndex":0,"items":[{"name":"송라현대공업사","tel":"031-594-3885","addr":"경기도 남양주시 화도읍 묵현리 78번지","indutype":"자동차정비 유지 - 자동차정비","category":"car"}]},{"lat":"37.655164085","long":"127.28144067","imageIndex":0,"items":[{"name":"스피드메이트 장수화도점","tel":"031-559-0511","addr":"경기도 남양주시 화도읍 묵현리 372-14번지","indutype":"자동차정비 유지 - 자동차정비","category":"car"}]},{"lat":"37.654031414","long":"127.28035989","imageIndex":0,"items":[{"name":"쌍용서비스프라자마석코너","tel":"031-594-4417","addr":"경기도 남양주시 화도읍 묵현리 372-74번지","indutype":"자동차정비 유지 - 자동차정비","category":"car"}]},{"lat":"37.669912095","long":"127.30022036","imageIndex":0,"items":[{"name":"썬팅마을","tel":"031-593-8338","addr":"경기도 남양주시 화도읍 묵현리 162-2","indutype":"자동차정비 유지 - 카인테리어","category":"car"}]},{"lat":"37.654610561","long":"127.27540988","imageIndex":0,"items":[{"name":"워시파크","tel":"001-0000-0000","addr":"경기도 남양주시 화도읍 묵현리 390번지","indutype":"자동차정비 유지 - 세차장","category":"car"},{"name":"인앤아웃 모터스","tel":"031-591-5210","addr":"경기도 남양주시 화도읍 묵현리 390번지 1층","indutype":"자동차정비 유지 - 자동차부품","category":"car"}]},{"lat":"37.65639108","long":"127.27296858","imageIndex":0,"items":[{"name":"유한모터스","tel":"","addr":"경기도 남양주시 화도읍 묵현리 427-9번지","indutype":"자동차정비 유지 - 세차장","category":"car"}]},{"lat":"37.656191739","long":"127.29243694","imageIndex":0,"items":[{"name":"일심사","tel":"031-593-2706","addr":"경기도 남양주시 화도읍 묵현리 277번지","indutype":"자동차정비 유지 - 카인테리어","category":"car"}]},{"lat":"37.657413748","long":"127.28637875","imageIndex":0,"items":[{"name":"준카","tel":"031-554-4446","addr":"경기도 남양주시 화도읍 묵현리 312-3번지 1층 아이나비","indutype":"자동차정비 유지 - 자동차부품","category":"car"}]},{"lat":"37.657024057","long":"127.27588334","imageIndex":0,"items":[{"name":"천마자동차정비","tel":"031-594-8254","addr":"경기도 남양주시 화도읍 묵현리 426-5번지","indutype":"자동차정비 유지 - 자동차정비","category":"car"}]},{"lat":"37.656777565","long":"127.27727633","imageIndex":0,"items":[{"name":"천운카서비스","tel":"031-594-5973","addr":"경기도 남양주시 화도읍 묵현리 473-4번지","indutype":"자동차정비 유지 - 자동차정비","category":"car"}]},{"lat":"37.655891771","long":"127.28232731","imageIndex":0,"items":[{"name":"타이어코어(마석점)","tel":"031-511-3344","addr":"경기도 남양주시 화도읍 묵현리 372-46번지 지하2층 203,204호(동문빌)","indutype":"자동차정비 유지 - 자동차시트·타이어","category":"car"}]},{"lat":"37.656336907","long":"127.28832384","imageIndex":0,"items":[{"name":"타이어타운화도점","tel":"031-511-6788","addr":"경기도 남양주시 화도읍 묵현리 287-1번지","indutype":"자동차정비 유지 - 자동차시트·타이어","category":"car"},{"name":"티스테이션화도점","tel":"031-511-6788","addr":"경기도 남양주시 화도읍 묵현리 287-1번지","indutype":"자동차정비 유지 - 자동차시트·타이어","category":"car"}]},{"lat":"37.663637666","long":"127.30169136","imageIndex":0,"items":[{"name":"타이어테크","tel":"031-594-3412","addr":"경기도 남양주시 화도읍 묵현리 72-4","indutype":"자동차정비 유지 - 자동차정비","category":"car"}]},{"lat":"37.665387383","long":"127.30096168","imageIndex":0,"items":[{"name":"태봉카센타","tel":"031-594-8888","addr":"경기도 남양주시 화도읍 묵현리 143-3","indutype":"자동차정비 유지 - 자동차정비","category":"car"}]},{"lat":"37.663365914","long":"127.30226828","imageIndex":0,"items":[{"name":"토우자동차공업사","tel":"031-593-8664","addr":"경기도 남양주시 화도읍 묵현리 72-1번지","indutype":"자동차정비 유지 - 자동차정비","category":"car"}]},{"lat":"37.670025036","long":"127.30187565","imageIndex":0,"items":[{"name":"패밀리손세차","tel":"031-516-5509","addr":"경기도 남양주시 화도읍 묵현리 18-4번지 1층 101호","indutype":"자동차정비 유지 - 세차장","category":"car"}]},{"lat":"37.654698481","long":"127.27635078","imageIndex":0,"items":[{"name":"화도점 기아오토큐","tel":"031-592-8583","addr":"경기도 남양주시 화도읍 묵현리 387-4번지","indutype":"자동차정비 유지 - 자동차정비","category":"car"}]}]