[{"lat":"37.246487625","long":"127.07680721","imageIndex":4,"items":[{"name":"#신슨즈","tel":"","addr":"경기도 용인시 기흥구 서천동 9-3번지","indutype":"일반휴게음식 - 일반한식","category":"restaurant"}]},{"lat":"37.234242399","long":"127.07711079","imageIndex":4,"items":[{"name":"(주)피와이언홀딩스/삼성전자인재개발원공","tel":"031-8031-3192","addr":"경기도 용인시 기흥구 서천동 822번지 2층 삼성전자 인재개발원교육동","indutype":"일반휴게음식 - 서양음식","category":"restaurant"},{"name":"삼성전자인재개발원카페","tel":"031-8031-3191","addr":"경기도 용인시 기흥구 서천동 822번지 B1호 삼성잔자 인재개발원교육동","indutype":"일반휴게음식 - 서양음식","category":"restaurant"}]},{"lat":"37.236936069","long":"127.07777832","imageIndex":4,"items":[{"name":"Nathan(나단)","tel":"031-206-5252","addr":"경기도 용인시 기흥구 서천동 776-11번지 1층","indutype":"일반휴게음식 - 서양음식","category":"restaurant"}]},{"lat":"37.246604569","long":"127.07711164","imageIndex":4,"items":[{"name":"cafe그리니","tel":"031-202-4757","addr":"경기도 용인시 기흥구 서천동 7-2번지 2층","indutype":"일반휴게음식 - 서양음식","category":"restaurant"},{"name":"봉구스밥버거","tel":"031-204-0915","addr":"경기도 용인시 기흥구 서천동 7-2번지 1층","indutype":"일반휴게음식 - 스넥","category":"restaurant"},{"name":"이웃집양념통닭","tel":"031-203-7107","addr":"경기도 용인시 기흥구 서천동 7-2번지","indutype":"일반휴게음식 - 주점","category":"restaurant"},{"name":"청춘과수원","tel":"031-726-4566","addr":"경기도 용인시 기흥구 서천동 7-2번지","indutype":"일반휴게음식 - 서양음식","category":"restaurant"},{"name":"푸오코(FUOCO)","tel":"","addr":"경기도 용인시 기흥구 서천동 7-2번지 1층","indutype":"일반휴게음식 - 서양음식","category":"restaurant"}]},{"lat":"37.246460819","long":"127.07644652","imageIndex":4,"items":[{"name":"감쟈","tel":"031-202-6993","addr":"경기도 용인시 기흥구 서천동 316번지 안동권씨회관 102호","indutype":"일반휴게음식 - 일반한식","category":"restaurant"},{"name":"깜냥","tel":"031-000-0000","addr":"경기도 용인시 기흥구 서천동 316번지 안동권씨회관 1층 103호","indutype":"일반휴게음식 - 일반한식","category":"restaurant"},{"name":"밥은화 경희대국제캠퍼스점","tel":"","addr":"경기도 용인시 기흥구 서천동 316번지 1층 일부","indutype":"일반휴게음식 - 일반한식","category":"restaurant"},{"name":"서양주점 야야","tel":"031-2788-7104","addr":"경기도 용인시 기흥구 서천동 316번지 안동권씨회관 1층 101호","indutype":"일반휴게음식 - 일식·회집","category":"restaurant"},{"name":"서천동316","tel":"","addr":"경기도 용인시 기흥구 서천동 316번지 1층 일부","indutype":"일반휴게음식 - 서양음식","category":"restaurant"}]},{"lat":"37.236963519","long":"127.07711345","imageIndex":4,"items":[{"name":"감통반(서천점)","tel":"070-8877-0469","addr":"경기도 용인시 기흥구 서천동 782번지","indutype":"일반휴게음식 - 일반한식","category":"restaurant"}]},{"lat":"37.242435018","long":"127.07346727","imageIndex":4,"items":[{"name":"강릉해변메밀막국수","tel":"031-205-8801","addr":"경기도 용인시 기흥구 서천동 252번지","indutype":"일반휴게음식 - 일반한식","category":"restaurant"},{"name":"서천골장작구이","tel":"031-205-8801","addr":"경기도 용인시 기흥구 서천동 252번지 외2필지","indutype":"일반휴게음식 - 일반한식","category":"restaurant"}]},{"lat":"37.246516124","long":"127.07441783","imageIndex":4,"items":[{"name":"경희마루","tel":"031-202-3840","addr":"경기도 용인시 기흥구 서천동 320-11번지 2층","indutype":"일반휴게음식 - 일반한식","category":"restaurant"}]},{"lat":"37.244627396","long":"127.06847647","imageIndex":4,"items":[{"name":"국수나무 기흥서천점/(주)제이에이치경영컨","tel":"031-206-7671","addr":"경기도 용인시 기흥구 서천동 360번지 1층 102호","indutype":"일반휴게음식 - 스넥","category":"restaurant"}]},{"lat":"37.240488587","long":"127.07380355","imageIndex":4,"items":[{"name":"김밥엔떡볶이","tel":"031-202-2888","addr":"경기도 용인시 기흥구 서천동 730-1번지","indutype":"일반휴게음식 - 스넥","category":"restaurant"}]},{"lat":"37.245134744","long":"127.07891349","imageIndex":4,"items":[{"name":"까페3/(주)유성티엔에스","tel":"031-3416-6518","addr":"경기도 용인시 기흥구 서천동 1번지 경희대학교국제캠퍼스 제2기숙사 A동 1층 일부호","indutype":"일반휴게음식 - 서양음식","category":"restaurant"},{"name":"달콤커피 경희대국제캠퍼스점","tel":"031-203-5857","addr":"경기도 용인시 기흥구 서천동 1번지 경희대학교국제캠퍼스 1층 외국어대학관","indutype":"일반휴게음식 - 서양음식","category":"restaurant"},{"name":"삼성웰스토리(주)경희대국제캠퍼스제2기숙","tel":"070-7877-8026","addr":"경기도 용인시 기흥구 서천동 1번지 경희대학교국제캠퍼스 여자동","indutype":"일반휴게음식 - 위탁급식업","category":"restaurant"},{"name":"삼성웰스토리(주)경희대국제캠퍼스제2기숙","tel":"070-7877-8026","addr":"경기도 용인시 기흥구 서천동 1번지 경희대학교국제캠퍼스 여자동제2기숙사","indutype":"일반휴게음식 - 위탁급식업","category":"restaurant"},{"name":"일층꺄페","tel":"070-8171-9575","addr":"경기도 용인시 기흥구 서천동 1번지 경희대학교국제캠퍼스우정원 119호","indutype":"일반휴게음식 - 서양음식","category":"restaurant"},{"name":"일층꺄페","tel":"031-206-5085","addr":"경기도 용인시 기흥구 서천동 1번지 경희대학우정원교 119호","indutype":"일반휴게음식 - 서양음식","category":"restaurant"},{"name":"일층카페","tel":"070-8171-9575","addr":"경기도 용인시 기흥구 서천동 1번지 경희대학교제2기숙사내1층","indutype":"일반휴게음식 - 서양음식","category":"restaurant"},{"name":"캠퍼","tel":"031-202-1580","addr":"경기도 용인시 기흥구 서천동 1번지 경희대학교 우정원내","indutype":"일반휴게음식 - 서양음식","category":"restaurant"}]},{"lat":"37.246577276","long":"127.07752863","imageIndex":4,"items":[{"name":"꼬꼬리아통닭","tel":"031-202-7495","addr":"경기도 용인시 기흥구 서천동 5-3번지","indutype":"일반휴게음식 - 칵테일바","category":"restaurant"},{"name":"만월회","tel":"031-205-4555","addr":"경기도 용인시 기흥구 서천동 5-3번지 천성빌딩 1층","indutype":"일반휴게음식 - 서양음식","category":"restaurant"},{"name":"짜마차이나","tel":"031-206-8585","addr":"경기도 용인시 기흥구 서천동 5-3번지 천성빌딩 2층","indutype":"일반휴게음식 - 중국식","category":"restaurant"}]},{"lat":"37.236911399","long":"127.07394671","imageIndex":4,"items":[{"name":"꿈버거 상점","tel":"031-204-0099","addr":"경기도 용인시 기흥구 서천동 807번지 원희캐슬서천2 1층 105호","indutype":"일반휴게음식 - 서양음식","category":"restaurant"},{"name":"바른소바","tel":"","addr":"경기도 용인시 기흥구 서천동 807번지 원희캐슬서천2 2층 204호","indutype":"일반휴게음식 - 일반한식","category":"restaurant"}]},{"lat":"37.245239136","long":"127.07019014","imageIndex":4,"items":[{"name":"낭만포차","tel":"031-202-0892","addr":"경기도 용인시 기흥구 서천동 828번지 영통로효성해링턴플레이스 상가동 지하1층 105호","indutype":"일반휴게음식 - 일반한식","category":"restaurant"},{"name":"카페15그램(CAFE 15GRAM)","tel":"031-8001-2773","addr":"경기도 용인시 기흥구 서천동 828번지 영통로효성해링턴플레이스 상가동 지1층 104호","indutype":"일반휴게음식 - 서양음식","category":"restaurant"}]},{"lat":"37.240407325","long":"127.07408523","imageIndex":4,"items":[{"name":"네네치킨","tel":"031-273-4479","addr":"경기도 용인시 기흥구 서천동 730-3번지 1층 일부","indutype":"일반휴게음식 - 스넥","category":"restaurant"},{"name":"소담샤브샤브칼국수","tel":"","addr":"경기도 용인시 기흥구 서천동 730-3번지 1층 101호","indutype":"일반휴게음식 - 일반한식","category":"restaurant"}]},{"lat":"37.24060597","long":"127.07338668","imageIndex":4,"items":[{"name":"누베빠세오(Nube paseo)","tel":"031-205-7079","addr":"경기도 용인시 기흥구 서천동 722-4번지 1층","indutype":"일반휴게음식 - 주점","category":"restaurant"}]},{"lat":"37.247100207","long":"127.07699941","imageIndex":4,"items":[{"name":"다브카커피","tel":"031-202-5653","addr":"경기도 용인시 기흥구 서천동 7-3번지 2층","indutype":"일반휴게음식 - 서양음식","category":"restaurant"},{"name":"영통푸드","tel":"031-205-1996","addr":"경기도 용인시 기흥구 서천동 7-3번지 경희마트 B동 1층","indutype":"일반휴게음식 - 일반한식","category":"restaurant"},{"name":"카페 바실레이아 (CAFE BASILEIA)","tel":"031-215-6741","addr":"경기도 용인시 기흥구 서천동 7-3번지 경희마트 B동 4층","indutype":"일반휴게음식 - 서양음식","category":"restaurant"},{"name":"한솥도시락","tel":"031-203-1133","addr":"경기도 용인시 기흥구 서천동 7-3번지 경희마트 B동 1층","indutype":"일반휴게음식 - 일반한식","category":"restaurant"}]},{"lat":"37.24326775","long":"127.06680728","imageIndex":4,"items":[{"name":"단향","tel":"070-0000-0000","addr":"경기도 용인시 기흥구 서천동 370-7번지 1층","indutype":"일반휴게음식 - 일반한식","category":"restaurant"}]},{"lat":"37.245272972","long":"127.07396583","imageIndex":4,"items":[{"name":"더쉐어37","tel":"031-273-7078","addr":"경기도 용인시 기흥구 서천동 322-10번지","indutype":"일반휴게음식 - 서양음식","category":"restaurant"},{"name":"피자가문.처갓집치킨","tel":"031-205-8844","addr":"경기도 용인시 기흥구 서천동 322-10번지","indutype":"일반휴게음식 - 칵테일바","category":"restaurant"}]},{"lat":"37.246766896","long":"127.07688638","imageIndex":4,"items":[{"name":"도스마스 수원경희대점","tel":"","addr":"경기도 용인시 기흥구 서천동 7번지 서윤빌딩 1층 105호","indutype":"일반휴게음식 - 서양음식","category":"restaurant"},{"name":"맘스터치","tel":"031-205-5400","addr":"경기도 용인시 기흥구 서천동 7번지 한가족빌딩 1층 일부호","indutype":"일반휴게음식 - 주점","category":"restaurant"},{"name":"쌀쌀맞은 닭","tel":"031-202-5671","addr":"경기도 용인시 기흥구 서천동 7번지 한가족빌딩","indutype":"일반휴게음식 - 스넥","category":"restaurant"},{"name":"아씨닭발","tel":"031-206-2078","addr":"경기도 용인시 기흥구 서천동 7번지 한가족빌딩 2층 204호","indutype":"일반휴게음식 - 일반한식","category":"restaurant"},{"name":"완소포차","tel":"031-204-3594","addr":"경기도 용인시 기흥구 서천동 7외1필지101","indutype":"일반휴게음식 - 일반한식","category":"restaurant"}]},{"lat":"37.235993169","long":"127.07255973","imageIndex":4,"items":[{"name":"돼지세끼","tel":"031-205-8288","addr":"경기도 용인시 기흥구 서천동 816번지 201,202호","indutype":"일반휴게음식 - 일반한식","category":"restaurant"},{"name":"백암순대","tel":"031-204-3737","addr":"경기도 용인시 기흥구 서천동 816번지 103호","indutype":"일반휴게음식 - 일반한식","category":"restaurant"},{"name":"전설의 치킨(서천점)","tel":"031-202-8444","addr":"경기도 용인시 기흥구 서천동 816번지 102호","indutype":"일반휴게음식 - 스넥","category":"restaurant"},{"name":"카페필(caff'e Feel)","tel":"","addr":"경기도 용인시 기흥구 서천동 816번지 104호","indutype":"일반휴게음식 - 서양음식","category":"restaurant"}]},{"lat":"37.246459935","long":"127.07785537","imageIndex":4,"items":[{"name":"둥지","tel":"031-202-5274","addr":"경기도 용인시 기흥구 서천동 5-1번지","indutype":"일반휴게음식 - 일반한식","category":"restaurant"},{"name":"모카팩토리","tel":"070-0000-0000","addr":"경기도 용인시 기흥구 서천동 5-1번지","indutype":"일반휴게음식 - 서양음식","category":"restaurant"}]},{"lat":"37.240299038","long":"127.0743556","imageIndex":4,"items":[{"name":"땡큐꼬마김밥","tel":"070-8815-1200","addr":"경기도 용인시 기흥구 서천동 730-5번지 1층 101호","indutype":"일반휴게음식 - 일반한식","category":"restaurant"},{"name":"해를품은짬뽕 (용인점)","tel":"031-204-5700","addr":"경기도 용인시 기흥구 서천동 730-5번지 102,103호","indutype":"일반휴게음식 - 중국식","category":"restaurant"}]},{"lat":"37.24082217","long":"127.07346577","imageIndex":4,"items":[{"name":"뚱보아저씨","tel":"031-205-8480","addr":"경기도 용인시 기흥구 서천동 720-5번지","indutype":"일반휴게음식 - 서양음식","category":"restaurant"},{"name":"투다리서농점","tel":"031-203-7333","addr":"경기도 용인시 기흥구 서천동 720-5번지 102호","indutype":"일반휴게음식 - 일반한식","category":"restaurant"}]},{"lat":"37.236324046","long":"127.07669586","imageIndex":4,"items":[{"name":"루츠커피랩(ROOTS COFFEE Lab)","tel":"031-202-0100","addr":"경기도 용인시 기흥구 서천동 780번지","indutype":"일반휴게음식 - 서양음식","category":"restaurant"}]},{"lat":"37.240912072","long":"127.07380395","imageIndex":4,"items":[{"name":"마음을담은김치찌개 영통점","tel":"031-204-2200","addr":"경기도 용인시 기흥구 서천동 729번지 102호","indutype":"일반휴게음식 - 일반한식","category":"restaurant"}]},{"lat":"37.243493026","long":"127.06677366","imageIndex":4,"items":[{"name":"만병통찜닭","tel":"031-204-8484","addr":"경기도 용인시 기흥구 서천동 370번지 1층 101호","indutype":"일반휴게음식 - 일반한식","category":"restaurant"},{"name":"페리카나","tel":"031-205-8822","addr":"경기도 용인시 기흥구 서천동 370번지 1층","indutype":"일반휴게음식 - 스넥","category":"restaurant"}]},{"lat":"37.242912295","long":"127.07391853","imageIndex":4,"items":[{"name":"맛있는손칼국수","tel":"031-202-7359","addr":"경기도 용인시 기흥구 서천동 256-4번지","indutype":"일반휴게음식 - 일반한식","category":"restaurant"},{"name":"영이밥상","tel":"031-206-0288","addr":"경기도 용인시 기흥구 서천동 256-4번지 1층","indutype":"일반휴게음식 - 일반한식","category":"restaurant"}]},{"lat":"37.240578105","long":"127.07477285","imageIndex":4,"items":[{"name":"모모식당","tel":"031-273-1750","addr":"경기도 용인시 기흥구 서천동 731번지","indutype":"일반휴게음식 - 일반한식","category":"restaurant"}]},{"lat":"37.243158901","long":"127.06813709","imageIndex":4,"items":[{"name":"미챠이","tel":"031-202-4546","addr":"경기도 용인시 기흥구 서천동 382번지","indutype":"일반휴게음식 - 중국식","category":"restaurant"}]},{"lat":"37.246769028","long":"127.07339242","imageIndex":4,"items":[{"name":"방울엄마국밥","tel":"031-205-5945","addr":"경기도 용인시 기흥구 서천동 335-2번지","indutype":"일반휴게음식 - 일반한식","category":"restaurant"},{"name":"샛뿔추어탕","tel":"031-202-1080","addr":"경기도 용인시 기흥구 서천동 335-2번지 우서빌딩","indutype":"일반휴게음식 - 일반한식","category":"restaurant"},{"name":"서천교동짬뽕","tel":"031-202-5123","addr":"경기도 용인시 기흥구 서천동 335-2번지 우서빌딩 (서천동1층일부,0번지","indutype":"일반휴게음식 - 중국식","category":"restaurant"}]},{"lat":"37.237047298","long":"127.07269593","imageIndex":4,"items":[{"name":"버무리 용인서천마을점","tel":"031-205-8884","addr":"경기도 용인시 기흥구 서천동 813번지 원희캐슬 1층 107호","indutype":"일반휴게음식 - 스넥","category":"restaurant"},{"name":"본죽용인서천점","tel":"031-202-3788","addr":"경기도 용인시 기흥구 서천동 813번지 원희캐슬서전프라자 112호","indutype":"일반휴게음식 - 일반한식","category":"restaurant"},{"name":"서천각","tel":"031-205-0842","addr":"경기도 용인시 기흥구 서천동 813번지 원희캐슬 1층 109호","indutype":"일반휴게음식 - 중국식","category":"restaurant"},{"name":"소풍김밥","tel":"031-205-2054","addr":"경기도 용인시 기흥구 서천동 813번지 원희캐슬 111호","indutype":"일반휴게음식 - 스넥","category":"restaurant"},{"name":"쥬씨 용인서천점","tel":"070-4115-1028","addr":"경기도 용인시 기흥구 서천동 813번지 원희캐슬 102-1호","indutype":"일반휴게음식 - 서양음식","category":"restaurant"},{"name":"치어스(용인서천점)","tel":"031-203-2006","addr":"경기도 용인시 기흥구 서천동 813번지 원희캐슬프라자 204호","indutype":"일반휴게음식 - 서양음식","category":"restaurant"},{"name":"커피에반하다 용인서천점","tel":"031-203-3004","addr":"경기도 용인시 기흥구 서천동 813번지 원희캐슬 101호","indutype":"일반휴게음식 - 서양음식","category":"restaurant"},{"name":"회포장전문점","tel":"031-206-6072","addr":"경기도 용인시 기흥구 서천동 813번지 원희캐슬서천프라자 104호","indutype":"일반휴게음식 - 일반한식","category":"restaurant"}]},{"lat":"37.240633101","long":"127.07321765","imageIndex":4,"items":[{"name":"봉수아피자 영통점","tel":"031-206-8807","addr":"경기도 용인시 기흥구 서천동 722-3번지 1층 103호","indutype":"일반휴게음식 - 서양음식","category":"restaurant"}]},{"lat":"37.237882734","long":"127.07685516","imageIndex":4,"items":[{"name":"부엌에서엄마의반찬","tel":"0341-203-8498","addr":"경기도 용인시 기흥구 서천동 791-7번지 서천동","indutype":"일반휴게음식 - 일반한식","category":"restaurant"}]},{"lat":"37.240353181","long":"127.07422041","imageIndex":4,"items":[{"name":"불소식당(서천점)","tel":"031-205-5592","addr":"경기도 용인시 기흥구 서천동 730-4번지 102호","indutype":"일반휴게음식 - 일반한식","category":"restaurant"}]},{"lat":"37.246460489","long":"127.07697625","imageIndex":4,"items":[{"name":"블루블랙","tel":"031-204-7346","addr":"경기도 용인시 기흥구 서천동 9-4번지","indutype":"일반휴게음식 - 일반한식","category":"restaurant"}]},{"lat":"37.240660226","long":"127.0730599","imageIndex":4,"items":[{"name":"비에이치씨(BHC) 치킨","tel":"031-203-9296","addr":"경기도 용인시 기흥구 서천동 722-2번지","indutype":"일반휴게음식 - 스넥","category":"restaurant"},{"name":"일번지닭갈비","tel":"031-203-0019","addr":"경기도 용인시 기흥구 서천동 722-2번지 1층","indutype":"일반휴게음식 - 일반한식","category":"restaurant"}]},{"lat":"37.23662991","long":"127.07747374","imageIndex":4,"items":[{"name":"슈퍼맵짱떡볶이영통점","tel":"031-202-2546","addr":"경기도 용인시 기흥구 서천동 778-2번지 1호","indutype":"일반휴게음식 - 일반한식","category":"restaurant"}]},{"lat":"37.23821582","long":"127.0773288","imageIndex":4,"items":[{"name":"아니모","tel":"070-2453-7890","addr":"경기도 용인시 기흥구 서천동 789-1번지 1층","indutype":"일반휴게음식 - 서양음식","category":"restaurant"}]},{"lat":"37.240660346","long":"127.07285704","imageIndex":4,"items":[{"name":"아임바리스타서천점","tel":"031-203-5088","addr":"경기도 용인시 기흥구 서천동 722-1번지","indutype":"일반휴게음식 - 일반한식","category":"restaurant"}]},{"lat":"37.240769359","long":"127.0713357","imageIndex":4,"items":[{"name":"알앤비누들/주식회사 알앤비푸드","tel":"031-205-8779","addr":"경기도 용인시 기흥구 서천동 397-16번지","indutype":"일반휴게음식 - 중국식","category":"restaurant"}]},{"lat":"37.240686678","long":"127.07402914","imageIndex":4,"items":[{"name":"앨빈","tel":"031-0000-0000","addr":"경기도 용인시 기흥구 서천동 729-9번지 1층","indutype":"일반휴게음식 - 서양음식","category":"restaurant"},{"name":"카페톡톡","tel":"070-2422-2830","addr":"경기도 용인시 기흥구 서천동 729-9번지","indutype":"일반휴게음식 - 스넥","category":"restaurant"}]},{"lat":"37.246433338","long":"127.07716782","imageIndex":4,"items":[{"name":"엄마닭치킨,호프","tel":"031-202-0457","addr":"경기도 용인시 기흥구 서천동 8번지 1층","indutype":"일반휴게음식 - 주점","category":"restaurant"}]},{"lat":"37.246821162","long":"127.07655958","imageIndex":4,"items":[{"name":"엔제리너스커피수원경희대점","tel":"031-202-0613","addr":"경기도 용인시 기흥구 서천동 7-6번지 협동산업 101호","indutype":"일반휴게음식 - 서양음식","category":"restaurant"}]},{"lat":"37.240794298","long":"127.07486322","imageIndex":4,"items":[{"name":"여기서","tel":"031-203-6255","addr":"경기도 용인시 기흥구 서천동 727-3번지 1층","indutype":"일반휴게음식 - 서양음식","category":"restaurant"}]},{"lat":"37.241380689","long":"127.07366915","imageIndex":4,"items":[{"name":"영천코다리 본점","tel":"031-273-1117","addr":"경기도 용인시 기흥구 서천동 718-3번지 1층","indutype":"일반휴게음식 - 일반한식","category":"restaurant"}]},{"lat":"37.244299668","long":"127.07428049","imageIndex":4,"items":[{"name":"오구쌀피자 용인서천점","tel":"031-206-0059","addr":"경기도 용인시 기흥구 서천동 834번지 용인서천효성해링턴플레이스 상가 116동 108호","indutype":"일반휴게음식 - 서양음식","category":"restaurant"},{"name":"이디야 용인서천점","tel":"031-273-3677","addr":"경기도 용인시 기흥구 서천동 834번지 용인서천 효성해링턴플레이스 상가동106호,107호","indutype":"일반휴게음식 - 서양음식","category":"restaurant"}]},{"lat":"37.236714095","long":"127.07239135","imageIndex":4,"items":[{"name":"오닭꼬치(서천점)","tel":"031-206-9289","addr":"경기도 용인시 기흥구 서천동 814번지 112,113호","indutype":"일반휴게음식 - 일반한식","category":"restaurant"},{"name":"피자스쿨서천점","tel":"031-203-4116","addr":"경기도 용인시 기흥구 서천동 814번지 106호","indutype":"일반휴게음식 - 서양음식","category":"restaurant"}]},{"lat":"37.240217822","long":"127.07455838","imageIndex":4,"items":[{"name":"요거프레소 용인서천점","tel":"031-204-2025","addr":"경기도 용인시 기흥구 서천동 731-2번지 1층","indutype":"일반휴게음식 - 서양음식","category":"restaurant"}]},{"lat":"37.242438335","long":"127.06766312","imageIndex":4,"items":[{"name":"요롱카롱","tel":"","addr":"경기도 용인시 기흥구 서천동 405-2번지 102호","indutype":"일반휴게음식 - 서양음식","category":"restaurant"}]},{"lat":"37.24068747","long":"127.07269929","imageIndex":4,"items":[{"name":"우리동네면반장(서천경희대점)","tel":"031-206-6789","addr":"경기도 용인시 기흥구 서천동 722번지 101동 102호","indutype":"일반휴게음식 - 일반한식","category":"restaurant"}]},{"lat":"37.241245669","long":"127.07344362","imageIndex":4,"items":[{"name":"유림식당","tel":"031-274-8480","addr":"경기도 용인시 기흥구 서천동 718-5번지 1층","indutype":"일반휴게음식 - 일반한식","category":"restaurant"}]},{"lat":"37.246687659","long":"127.07385445","imageIndex":4,"items":[{"name":"일진회수산","tel":"031-202-5778","addr":"경기도 용인시 기흥구 서천동 320-10번지 나동 1층 일부","indutype":"일반휴게음식 - 일식·회집","category":"restaurant"}]},{"lat":"37.237245085","long":"127.07343989","imageIndex":4,"items":[{"name":"주식회사 스시클라우드","tel":"031-1522-3337","addr":"경기도 용인시 기흥구 서천동 806번지 M-STAY호텔 기흥 1층 101호","indutype":"일반휴게음식 - 일반한식","category":"restaurant"}]},{"lat":"37.243655701","long":"127.0658609","imageIndex":4,"items":[{"name":"천만분의일","tel":"070-7798-0901","addr":"경기도 용인시 기흥구 서천동 368번지 천일프라자 1층 101호","indutype":"일반휴게음식 - 서양음식","category":"restaurant"},{"name":"카페오월","tel":"031-970-4165","addr":"경기도 용인시 기흥구 서천동 368번지 천일프라자 104호","indutype":"일반휴게음식 - 서양음식","category":"restaurant"}]},{"lat":"37.242573803","long":"127.06708845","imageIndex":4,"items":[{"name":"최대감","tel":"031-204-9279","addr":"경기도 용인시 기흥구 서천동 377-1번지 1층","indutype":"일반휴게음식 - 일반한식","category":"restaurant"}]},{"lat":"37.246550387","long":"127.07730319","imageIndex":4,"items":[{"name":"칙칙펍펍","tel":"031-204-8485","addr":"경기도 용인시 기흥구 서천동 7-4번지 1층","indutype":"일반휴게음식 - 스넥","category":"restaurant"},{"name":"토네이도","tel":"031-0000-0000","addr":"경기도 용인시 기흥구 서천동 7-4번지","indutype":"일반휴게음식 - 주점","category":"restaurant"}]},{"lat":"37.236936332","long":"127.07736135","imageIndex":4,"items":[{"name":"카페렌토(cafe Lento)","tel":"031-203-2575","addr":"경기도 용인시 기흥구 서천동 778-11번지 1층","indutype":"일반휴게음식 - 서양음식","category":"restaurant"}]},{"lat":"37.242965786","long":"127.07486528","imageIndex":4,"items":[{"name":"카페서천","tel":"","addr":"경기도 용인시 기흥구 서천동 247번지","indutype":"일반휴게음식 - 일반한식","category":"restaurant"}]},{"lat":"37.237549056","long":"127.07732815","imageIndex":4,"items":[{"name":"커피마마 용인서천점","tel":"070-4045-5448","addr":"경기도 용인시 기흥구 서천동 789-6번지 1층","indutype":"일반휴게음식 - 서양음식","category":"restaurant"}]},{"lat":"37.241299965","long":"127.07304922","imageIndex":4,"items":[{"name":"코다와리","tel":"031-203-6787","addr":"경기도 용인시 기흥구 서천동 718-7번지 1층 101호","indutype":"일반휴게음식 - 일식·회집","category":"restaurant"}]},{"lat":"37.240578371","long":"127.07433333","imageIndex":4,"items":[{"name":"코리엔탈푸드","tel":"031-202-8802","addr":"경기도 용인시 기흥구 서천동 729-7번지 1층","indutype":"일반휴게음식 - 스넥","category":"restaurant"}]},{"lat":"37.24379945","long":"127.06663868","imageIndex":4,"items":[{"name":"투다리","tel":"031-204-8386","addr":"경기도 용인시 기흥구 서천동 366번지","indutype":"일반휴게음식 - 주점","category":"restaurant"}]},{"lat":"37.241159721","long":"127.06608422","imageIndex":4,"items":[{"name":"플레이스비제로(PLACEB0)","tel":"031-000-0000","addr":"경기도 용인시 기흥구 서천동 373-10번지 B01호","indutype":"일반휴게음식 - 서양음식","category":"restaurant"}]},{"lat":"37.243074697","long":"127.07355803","imageIndex":4,"items":[{"name":"행복한 김밥","tel":"031-206-5008","addr":"경기도 용인시 기흥구 서천동 286-3번지 해든시티 상가동 101호","indutype":"일반휴게음식 - 스넥","category":"restaurant"}]},{"lat":"37.241102387","long":"127.07194458","imageIndex":4,"items":[{"name":"화평동 왕냉면","tel":"031-203-4421","addr":"경기도 용인시 기흥구 서천동 273번지 1,2층","indutype":"일반휴게음식 - 일반한식","category":"restaurant"}]},{"lat":"37.236134271","long":"127.07758595","imageIndex":4,"items":[{"name":"황궁푸드","tel":"031-5519-9436","addr":"경기도 용인시 기흥구 서천동 776-6번지","indutype":"일반휴게음식 - 일반한식","category":"restaurant"}]},{"lat":"37.241355682","long":"127.07019795","imageIndex":16,"items":[{"name":"(사)한국성품협회","tel":"031-203-0228","addr":"경기도 용인시 기흥구 서천동 395번지","indutype":"회원제형태 - 학원","category":"study"},{"name":"용인 오렌지에듀어학원","tel":"031-695-5435","addr":"경기도 용인시 기흥구 서천동 395번지","indutype":"학원 - 외국어학원","category":"study"},{"name":"지아이에스좋은나무어린이집","tel":"031-204-1122","addr":"경기도 용인시 기흥구 서천동 395번지","indutype":"학원 - 유아원","category":"study"}]},{"lat":"37.240883243","long":"127.07674539","imageIndex":16,"items":[{"name":"3030서천러닝센터영어교습소","tel":"031-000-0000","addr":"경기도 용인시 기흥구 서천동 755번지 서천2차아이파크 상가동 106호","indutype":"학원 - 외국어학원","category":"study"}]},{"lat":"37.242912295","long":"127.07391853","imageIndex":16,"items":[{"name":"KCT 서천 태권도","tel":"031-202-0060","addr":"경기도 용인시 기흥구 서천동 256-4번지 4층","indutype":"학원 - 예·체능계학원","category":"study"},{"name":"대한 검도회 박연정 검도관","tel":"031-206-3111","addr":"경기도 용인시 기흥구 서천동 256-4번지","indutype":"학원 - 예·체능계학원","category":"study"}]},{"lat":"37.237630304","long":"127.0770803","imageIndex":16,"items":[{"name":"감수학 수학교습소","tel":"031-203-9091","addr":"경기도 용인시 기흥구 서천동 791-2번지 1층","indutype":"학원 - 보습학원","category":"study"}]},{"lat":"37.237047298","long":"127.07269593","imageIndex":16,"items":[{"name":"경희대 석다 다온 태권도장","tel":"031-111-1111","addr":"경기도 용인시 기흥구 서천동 813번지 원희캐슬 6층 605호","indutype":"학원 - 예·체능계학원","category":"study"},{"name":"경희대효태권도","tel":"070-4222-3256","addr":"경기도 용인시 기흥구 서천동 813번지 원희캐슬서천프라자 6층 605호","indutype":"학원 - 예·체능계학원","category":"study"},{"name":"뮤직아이음악학원","tel":"070-4125-4229","addr":"경기도 용인시 기흥구 서천동 813번지 원희캐슬서천프라자 604호","indutype":"학원 - 예·체능계학원","category":"study"},{"name":"발레스튜디오톡톡입시전문학원","tel":"031-273-0999","addr":"경기도 용인시 기흥구 서천동 813번지 원희캐슬 506호 서천동,원희캐슬서천프라자","indutype":"회원제형태 - 학원","category":"study"},{"name":"비상잉글리시아이학원","tel":"031-335-3177","addr":"경기도 용인시 기흥구 서천동 813번지 서천원희캐슬프라자 505호","indutype":"학원 - 외국어학원","category":"study"},{"name":"스터디온독서실","tel":"031-755-5022","addr":"경기도 용인시 기흥구 서천동 813번지 원희캐슬 서천프라자 702,703호","indutype":"학원 - 독서실","category":"study"},{"name":"영수마스터클럼학원","tel":"031-202-0501","addr":"경기도 용인시 기흥구 서천동 813번지 원희캐슬 5층 503호","indutype":"학원 - 보습학원","category":"study"}]},{"lat":"37.24379945","long":"127.06663868","imageIndex":16,"items":[{"name":"경희대 신화 태권도장","tel":"031-205-0305","addr":"경기도 용인시 기흥구 서천동 366외4필지 301,302호","indutype":"학원 - 예·체능계학원","category":"study"},{"name":"지니잉글리쉬영어학원","tel":"02-111-1111","addr":"경기도 용인시 기흥구 서천동 366번지 303호 302호,303호","indutype":"학원 - 외국어학원","category":"study"}]},{"lat":"37.236714095","long":"127.07239135","imageIndex":16,"items":[{"name":"그담미술학원","tel":"031-204-2555","addr":"경기도 용인시 기흥구 서천동 814번지 에스비타운 602호","indutype":"학원 - 예·체능계학원","category":"study"},{"name":"무림합기도","tel":"031-205-0902","addr":"경기도 용인시 기흥구 서천동 814번지 201호","indutype":"학원 - 예·체능계학원","category":"study"},{"name":"뮤엠영어이젠수학학원","tel":"031-206-3363","addr":"경기도 용인시 기흥구 서천동 814번지 에스비타운 603호","indutype":"학원 - 보습학원","category":"study"},{"name":"비상 태권도장","tel":"031-206-5111","addr":"경기도 용인시 기흥구 서천동 814번지 605,606호","indutype":"학원 - 예·체능계학원","category":"study"},{"name":"서천바로크음악학원","tel":"031-202-3044","addr":"경기도 용인시 기흥구 서천동 814번지 에스비타운 6층 601호","indutype":"학원 - 예·체능계학원","category":"study"},{"name":"퀸학원","tel":"031-205-0533","addr":"경기도 용인시 기흥구 서천동 814번지 205호","indutype":"학원 - 보습학원","category":"study"},{"name":"탑벤에듀학원","tel":"031-206-0979","addr":"경기도 용인시 기흥구 서천동 814번지 에스비타운 2층 206호","indutype":"학원 - 보습학원","category":"study"}]},{"lat":"37.237882367","long":"127.07744117","imageIndex":16,"items":[{"name":"그림나래미술학원","tel":"070-4204-3696","addr":"경기도 용인시 기흥구 서천동 789-3번지 1층","indutype":"학원 - 예·체능계학원","category":"study"}]},{"lat":"37.238746759","long":"127.07838867","imageIndex":16,"items":[{"name":"기탄 사고력 교실 용인 서천세인트교실","tel":"","addr":"경기도 용인시 기흥구 서천동 765번지 142동 1층 101호","indutype":"학원 - 기타 교육기관","category":"study"}]},{"lat":"37.241293857","long":"127.06796643","imageIndex":16,"items":[{"name":"나토얀 올림픽 태권도","tel":"031-273-0750","addr":"경기도 용인시 기흥구 서천동 705 현대홈타운상가동301~307호","indutype":"학원 - 예·체능계학원","category":"study"},{"name":"반올림음악학원","tel":"031-890-6486","addr":"경기도 용인시 기흥구 서천동 705번지 예현마을현대홈타운 201호,205호~207호","indutype":"학원 - 예·체능계학원","category":"study"}]},{"lat":"37.237739592","long":"127.0751984","imageIndex":16,"items":[{"name":"니하오해법중국어교습소","tel":"033-373-8873","addr":"경기도 용인시 기흥구 서천동 801번지 힐스테이트서천 상가동 202호","indutype":"학원 - 외국어학원","category":"study"},{"name":"더클래식피아노교습소","tel":"031-203-8801","addr":"경기도 용인시 기흥구 서천동 801번지 힐스테이트서천 상가동 201호","indutype":"학원 - 예·체능계학원","category":"study"},{"name":"셀파우등생교실","tel":"","addr":"경기도 용인시 기흥구 서천동 801번지 힐스테이트서천 508동 701호","indutype":"학원 - 기타 교육기관","category":"study"},{"name":"안은진개인과외","tel":"","addr":"경기도 용인시 기흥구 서천동 801번지 힐스테이트서천 507동 1401호","indutype":"학원 - 기타 교육기관","category":"study"},{"name":"파파태권도","tel":"031-203-0301","addr":"경기도 용인시 기흥구 서천동 801번지 힐스테이트서천 상가동 2층 203호 ,204호,205호","indutype":"학원 - 예·체능계학원","category":"study"}]},{"lat":"37.244995588","long":"127.07066328","imageIndex":16,"items":[{"name":"딴생각창의미술학원","tel":"070-7724-8793","addr":"경기도 용인시 기흥구 서천동 339-9번지 해듬빌 201호","indutype":"학원 - 예·체능계학원","category":"study"}]},{"lat":"37.246659816","long":"127.07519565","imageIndex":16,"items":[{"name":"라임평생교육원","tel":"031-211-5026","addr":"경기도 용인시 기흥구 서천동 319-6번지 1,2층 일부","indutype":"학원 - 기타 교육기관","category":"study"},{"name":"주식회사 라임하우스","tel":"070-8878-5026","addr":"경기도 용인시 기흥구 서천동 319-6번지","indutype":"학원 - 기타 교육기관","category":"study"}]},{"lat":"37.237909674","long":"127.07700169","imageIndex":16,"items":[{"name":"리딩팜영어교습소","tel":"031-863-0840","addr":"경기도 용인시 기흥구 서천동 791번지 1동","indutype":"학원 - 보습학원","category":"study"},{"name":"젝스잉글리쉬영어교습소","tel":"070-4220-8385","addr":"경기도 용인시 기흥구 서천동 791번지 1층","indutype":"학원 - 외국어학원","category":"study"}]},{"lat":"37.236911399","long":"127.07394671","imageIndex":16,"items":[{"name":"리버티어학원","tel":"070-4220-8385","addr":"경기도 용인시 기흥구 서천동 807번지 604호","indutype":"학원 - 외국어학원","category":"study"},{"name":"리틀팍스어학원","tel":"031-203-3808","addr":"경기도 용인시 기흥구 서천동 807번지 506,507호","indutype":"학원 - 외국어학원","category":"study"},{"name":"서천예종음악학원","tel":"031-206-2333","addr":"경기도 용인시 기흥구 서천동 807번지 원희캐슬서천2 505호","indutype":"학원 - 예·체능계학원","category":"study"},{"name":"수학의달인윤선생영어서천서농점학원","tel":"031-204-0963","addr":"경기도 용인시 기흥구 서천동 807번지 601호","indutype":"학원 - 외국어학원","category":"study"},{"name":"아카데미라운지 서천독서실","tel":"031-308-0905","addr":"경기도 용인시 기흥구 서천동 807번지 406전체, 407일부호","indutype":"학원 - 독서실","category":"study"},{"name":"이상영어학원","tel":"","addr":"경기도 용인시 기흥구 서천동 807번지 원희캐슬 607호","indutype":"학원 - 외국어학원","category":"study"},{"name":"창의로운미술학원","tel":"031-203-1765","addr":"경기도 용인시 기흥구 서천동 807번지 원희캐슬서천2 5층 501호","indutype":"학원 - 예·체능계학원","category":"study"},{"name":"크림실용음악학원(용인서천점)","tel":"031-205-7174","addr":"경기도 용인시 기흥구 서천동 807번지 원희캐슬서천2 605호","indutype":"학원 - 예·체능계학원","category":"study"},{"name":"해법&엠베스트SE학원","tel":"031-203-2504","addr":"경기도 용인시 기흥구 서천동 807번지 원희캐슬 서천2 504호","indutype":"학원 - 외국어학원","category":"study"},{"name":"해법&엠베스트SE학원","tel":"031-203-2504","addr":"경기도 용인시 기흥구 서천동 807번지 504호","indutype":"학원 - 보습학원","category":"study"}]},{"lat":"37.239624397","long":"127.07245037","imageIndex":16,"items":[{"name":"메릭스해법수학교습소","tel":"031-203-6055","addr":"경기도 용인시 기흥구 서천동 736번지 서천마을 1단지 2층 202호 상가","indutype":"회원제형태 - 학원","category":"study"},{"name":"서천해법영어교실영어교습소","tel":"031-202-4416","addr":"경기도 용인시 기흥구 서천동 736번지 서천마을1단지 상가동 2층 203호","indutype":"학원 - 외국어학원","category":"study"},{"name":"준피아노교습소","tel":"031-273-7008","addr":"경기도 용인시 기흥구 서천동 736번지 서천마을1단지 상가동 204호","indutype":"학원 - 예·체능계학원","category":"study"},{"name":"투래빗 영어교습소","tel":"031-206-5100","addr":"경기도 용인시 기흥구 서천동 736번지 서천마을1단지 상가동 201호","indutype":"학원 - 외국어학원","category":"study"}]},{"lat":"37.235604583","long":"127.07447513","imageIndex":16,"items":[{"name":"모차르트음악교습소","tel":"031-204-6449","addr":"경기도 용인시 기흥구 서천동 823번지 서천마을4단지 상가동 103호","indutype":"학원 - 예·체능계학원","category":"study"}]},{"lat":"37.238188874","long":"127.07719354","imageIndex":16,"items":[{"name":"미술생각미술교습소","tel":"070-8873-9151","addr":"경기도 용인시 기흥구 서천동 789-10번지 101호","indutype":"학원 - 예·체능계학원","category":"study"}]},{"lat":"37.237711256","long":"127.07730577","imageIndex":16,"items":[{"name":"삼성영어서농학원","tel":"031-205-3405","addr":"경기도 용인시 기흥구 서천동 789-7번지 1층 전체","indutype":"회원제형태 - 학원","category":"study"}]},{"lat":"37.243655701","long":"127.0658609","imageIndex":16,"items":[{"name":"삼성영어서천학원","tel":"031-205-2052","addr":"경기도 용인시 기흥구 서천동 368번지 천일프라자 202호","indutype":"학원 - 보습학원","category":"study"},{"name":"하늘검도3관","tel":"031-205-0999","addr":"경기도 용인시 기흥구 서천동 368번지 천일프라자 2층 202-1호","indutype":"학원 - 예·체능계학원","category":"study"}]},{"lat":"37.238017642","long":"127.07724972","imageIndex":16,"items":[{"name":"서천1호점 수학의달인","tel":"031-202-0971","addr":"경기도 용인시 기흥구 서천동 789-9번지 1층","indutype":"회원제형태 - 학원","category":"study"}]},{"lat":"37.244627396","long":"127.06847647","imageIndex":16,"items":[{"name":"스터디엔카페서천센터독서실","tel":"031-206-8610","addr":"경기도 용인시 기흥구 서천동 360번지 201호,202호","indutype":"학원 - 독서실","category":"study"},{"name":"신화태권도장","tel":"031-111-1111","addr":"경기도 용인시 기흥구 서천동 360번지 307호","indutype":"학원 - 예·체능계학원","category":"study"},{"name":"와이비엠(YBM)잉글루엠제이학원","tel":"031-205-5641","addr":"경기도 용인시 기흥구 서천동 360번지 3층 301호","indutype":"학원 - 보습학원","category":"study"},{"name":"위캔매쓰학원","tel":"031-204-1920","addr":"경기도 용인시 기흥구 서천동 360번지 3층 302호","indutype":"학원 - 보습학원","category":"study"},{"name":"유어멜로디음악학원","tel":"031-206-1205","addr":"경기도 용인시 기흥구 서천동 360번지 303호","indutype":"학원 - 예·체능계학원","category":"study"}]},{"lat":"37.23771115","long":"127.07747481","imageIndex":16,"items":[{"name":"스프라우트영어학원","tel":"070-8802-7894","addr":"경기도 용인시 기흥구 서천동 789-4번지 1층","indutype":"학원 - 외국어학원","category":"study"}]},{"lat":"37.238044588","long":"127.07738498","imageIndex":16,"items":[{"name":"아이엘스튜디오음악학원","tel":"070-8250-3160","addr":"경기도 용인시 기흥구 서천동 789-2번지 1층","indutype":"학원 - 예·체능계학원","category":"study"}]},{"lat":"37.237855442","long":"127.0772721","imageIndex":16,"items":[{"name":"아이엘음악교습소","tel":"070-8251-7272","addr":"경기도 용인시 기흥구 서천동 789-8번지 1층","indutype":"학원 - 예·체능계학원","category":"study"}]},{"lat":"37.236323701","long":"127.07724806","imageIndex":16,"items":[{"name":"엔제이(NJ)수학교습소","tel":"031-206-1675","addr":"경기도 용인시 기흥구 서천동 778-7번지 102호","indutype":"학원 - 보습학원","category":"study"}]},{"lat":"37.24326775","long":"127.06680728","imageIndex":16,"items":[{"name":"오육일이삼수학교습소","tel":"031-000-0000","addr":"경기도 용인시 기흥구 서천동 370-7번지 2층 일부호","indutype":"학원 - 보습학원","category":"study"}]},{"lat":"37.236968664","long":"127.06839095","imageIndex":16,"items":[{"name":"와이디케이(YDK)어학원","tel":"070-4069-1708","addr":"경기도 용인시 기흥구 서천동 750번지 예닮유치원","indutype":"학원 - 보습학원","category":"study"}]},{"lat":"37.24224012","long":"127.06764041","imageIndex":16,"items":[{"name":"유혜경수학교실","tel":"","addr":"경기도 용인시 기흥구 서천동 405번지 용우원룸 101호","indutype":"학원 - 기타 교육기관","category":"study"}]},{"lat":"37.237495149","long":"127.07708017","imageIndex":16,"items":[{"name":"제니잉글리쉬(JennyEnglish)영어교습소","tel":"031-111-1111","addr":"경기도 용인시 기흥구 서천동 791-3번지 1층 전체","indutype":"학원 - 외국어학원","category":"study"}]},{"lat":"37.241354644","long":"127.07200116","imageIndex":16,"items":[{"name":"캡틴FC","tel":"031-204-3636","addr":"경기도 용인시 기흥구 서천동 274번지","indutype":"학원 - 예·체능계학원","category":"study"}]},{"lat":"37.243493026","long":"127.06677366","imageIndex":16,"items":[{"name":"타임잉글리쉬학원","tel":"031-202-9538","addr":"경기도 용인시 기흥구 서천동 370번지 3층","indutype":"학원 - 보습학원","category":"study"}]},{"lat":"37.236271915","long":"127.07352914","imageIndex":16,"items":[{"name":"플레이팩토앤블럭수학교습소","tel":"","addr":"경기도 용인시 기흥구 서천동 809번지 202호","indutype":"학원 - 기타 교육기관","category":"study"}]},{"lat":"37.238324064","long":"127.07713733","imageIndex":16,"items":[{"name":"한우리서천독서토론논술교습소","tel":"031-204-0118","addr":"경기도 용인시 기흥구 서천동 789-11번지 1층","indutype":"학원 - 보습학원","category":"study"}]},{"lat":"37.244572199","long":"127.07049385","imageIndex":16,"items":[{"name":"해내는공부방","tel":"","addr":"경기도 용인시 기흥구 서천동 700번지 서그내마을에스케이아파트","indutype":"학원 - 기타 교육기관","category":"study"}]},{"lat":"37.245134744","long":"127.07891349","imageIndex":17,"items":[{"name":"(주)RNA","tel":"031-202-2465","addr":"경기도 용인시 기흥구 서천동 1번지 경흐대산업대학관 308호","indutype":"기타 - 기타 전문점","category":"other"},{"name":"(주)이노시스","tel":"031-273-0029","addr":"경기도 용인시 기흥구 서천동 1번지 경희대학교 819호 멀티미디어관","indutype":"전기제품 - 기타전기제품","category":"other"},{"name":"CRS컴퍼니","tel":"031-206-7576","addr":"경기도 용인시 기흥구 서천동 1번지 경희대학교국제캠퍼스 1층","indutype":"사무통신 - 컴퓨터","category":"other"},{"name":"CRS컴퍼니","tel":"031-206-7576","addr":"경기도 용인시 기흥구 서천동 1번지 경희대학교국제캠퍼스 1층","indutype":"사무통신 - 컴퓨터","category":"other"},{"name":"GS25경희공학관점","tel":"","addr":"경기도 용인시 기흥구 서천동 1번지 공학관","indutype":"유통업 영리 - 편 의 점","category":"other"},{"name":"GS25경희예술도서위성점","tel":"","addr":"경기도 용인시 기흥구 서천동 1번지 예술디자인대학관,중앙도서관","indutype":"유통업 영리 - 편 의 점","category":"other"},{"name":"GS25경희예술도서점","tel":"","addr":"경기도 용인시 기흥구 서천동 1번지 예술디자인대학관,중앙도서관","indutype":"유통업 영리 - 편 의 점","category":"other"},{"name":"GS25경희전자국제위성점","tel":"","addr":"경기도 용인시 기흥구 서천동 1번지 전자정보대학관, 국제대학관","indutype":"유통업 영리 - 편 의 점","category":"other"},{"name":"GS25경희전자국제점","tel":"","addr":"경기도 용인시 기흥구 서천동 1번지 전자정보대학관, 국제대학관","indutype":"유통업 영리 - 편 의 점","category":"other"},{"name":"GS25경희체육경영위성점","tel":"","addr":"경기도 용인시 기흥구 서천동 1번지 체육대학관, 국제,경영대학관","indutype":"유통업 영리 - 편 의 점","category":"other"},{"name":"GS25경희체육경영점","tel":"","addr":"경기도 용인시 기흥구 서천동 1번지 체육대학관, 국제,경영대학관","indutype":"유통업 영리 - 편 의 점","category":"other"},{"name":"경희꽃화원","tel":"031-205-2600","addr":"경기도 용인시 기흥구 서천동 1번지 경희대학교 내우정원","indutype":"문화.취미 - 화원","category":"other"},{"name":"경희대 구내서점","tel":"031-202-5167","addr":"경기도 용인시 기흥구 서천동 1번지 경희대학교 우정원 1층 102호","indutype":"서적문구 - 일반서적","category":"other"},{"name":"경희대 외대 복사","tel":"031-202-7452","addr":"경기도 용인시 기흥구 서천동 1번지 경희대학교국제캠퍼스 외국어대학 관 복사실","indutype":"용역 서비스 - 사무서비스","category":"other"},{"name":"경희대구내서점","tel":"031-202-5167","addr":"경기도 용인시 기흥구 서천동 1번지 경희대학교국제캠퍼스","indutype":"서적문구 - 일반서적","category":"other"},{"name":"경희대우정원문구","tel":"031-205-7291","addr":"경기도 용인시 기흥구 서천동 1번지","indutype":"서적문구 - 문구용품","category":"other"},{"name":"경희대학교 체육대학 총동문회","tel":"031-201-3101","addr":"경기도 용인시 기흥구 서천동 1번지 경희대학교국제캠퍼스 체육대학 403호","indutype":"기타 - 비영리/비대상","category":"other"},{"name":"경희레코드","tel":"031-203-4543","addr":"경기도 용인시 기흥구 서천동 1번지 경희대학교 내우정원","indutype":"레져용품 - 음반/영상물","category":"other"},{"name":"경희복사","tel":"031-202-8578","addr":"경기도 용인시 기흥구 서천동 1번지","indutype":"서적문구 - 출판 및 인쇄물","category":"other"},{"name":"경희텔레콤","tel":"031-203-4023","addr":"경기도 용인시 기흥구 서천동 1번지 경희대학교 1층","indutype":"사무통신 - 통신기기","category":"other"},{"name":"동인문화사","tel":"031-203-9503","addr":"경기도 용인시 기흥구 서천동 1번지 경희대학교 체육대학관","indutype":"서적문구 - 출판 및 인쇄물","category":"other"},{"name":"사단법인 한국환경조명학회","tel":"031-202-3995","addr":"경기도 용인시 기흥구 서천동 1번지 경희대학교 311호 경희대학교공학관","indutype":"용역 서비스 - 사무서비스","category":"other"},{"name":"아이디어투비즈","tel":"031-273-4599","addr":"경기도 용인시 기흥구 서천동 1번지 경희대학교 825호","indutype":"유통업 영리 - 기타유통업","category":"other"},{"name":"예인몰","tel":"031-205-6968","addr":"경기도 용인시 기흥구 서천동 1번지 경희대학교국제캠퍼스 내 우정원 지하1층","indutype":"서적문구 - 일반서적","category":"other"},{"name":"와우통신","tel":"031-203-4023","addr":"경기도 용인시 기흥구 서천동 1번지 경희대학교국제캠퍼스 1층 106호 내","indutype":"사무통신 - 통신기기","category":"other"},{"name":"외대복사","tel":"031-757-7025","addr":"경기도 용인시 기흥구 서천동 1번지","indutype":"서적문구 - 출판 및 인쇄물","category":"other"},{"name":"용인경희대학교우체국","tel":"031-202-2355","addr":"경기도 용인시 기흥구 서천동 1번지 경희대학교","indutype":"용역 서비스 - 공공요금대행서비스/소","category":"other"},{"name":"지우솔루션주식회사","tel":"031-273-5985","addr":"경기도 용인시 기흥구 서천동 1번지 경희대학교수원캠퍼스 멀티미디어관 811호","indutype":"사무통신 - 컴퓨터","category":"other"},{"name":"켐젠주식회사","tel":"031-206-5576","addr":"경기도 용인시 기흥구 서천동 1번지 경희대학교 멀티미디어교육관 803호","indutype":"기타 - 기타 전문점","category":"other"}]},{"lat":"37.237047298","long":"127.07269593","imageIndex":17,"items":[{"name":"(주)더블유산업개발","tel":"02-6012-7758","addr":"경기도 용인시 기흥구 서천동 813번지 원희캐슬 701호","indutype":"건축자재 - 부동산 분양","category":"other"},{"name":"GS25용인서천동점","tel":"","addr":"경기도 용인시 기흥구 서천동 813번지 원희캐슬 103호","indutype":"유통업 영리 - 편 의 점","category":"other"},{"name":"비앤요가","tel":"031-205-5288","addr":"경기도 용인시 기흥구 서천동 813번지 원희캐슬서천프라자 502호","indutype":"회원제형태 - 레져업소","category":"other"}]},{"lat":"37.240938648","long":"127.07455906","imageIndex":17,"items":[{"name":"(주)들창코아","tel":"031-205-9863","addr":"경기도 용인시 기흥구 서천동 727-1번지","indutype":"건축자재 - 인테리어전문","category":"other"}]},{"lat":"37.246659816","long":"127.07519565","imageIndex":17,"items":[{"name":"(주)불씨지킨새색시","tel":"031-217-2484","addr":"경기도 용인시 기흥구 서천동 319-6번지 2층","indutype":"직물 - 침구·수예점","category":"other"}]},{"lat":"37.242912295","long":"127.07391853","imageIndex":17,"items":[{"name":"(주)조은투어","tel":"031-273-4488","addr":"경기도 용인시 기흥구 서천동 256-4번지 305호","indutype":"여행 - 관광여행","category":"other"}]},{"lat":"37.235604583","long":"127.07447513","imageIndex":17,"items":[{"name":"GS25기흥서천점","tel":"","addr":"경기도 용인시 기흥구 서천동 823번지 서천마을4단지 상가 101호","indutype":"유통업 영리 - 편 의 점","category":"other"}]},{"lat":"37.24076794","long":"127.07374747","imageIndex":17,"items":[{"name":"GS25서천에이스점","tel":"080-555-2525","addr":"경기도 용인시 기흥구 서천동 729-11번지 102호","indutype":"유통업 영리 - 편 의 점","category":"other"}]},{"lat":"37.245129789","long":"127.07230891","imageIndex":17,"items":[{"name":"GS25서천현대점","tel":"","addr":"경기도 용인시 기흥구 서천동 294-17번지 백운원룸","indutype":"유통업 영리 - 편 의 점","category":"other"}]},{"lat":"37.237739592","long":"127.0751984","imageIndex":17,"items":[{"name":"GS25서천힐스점","tel":"","addr":"경기도 용인시 기흥구 서천동 801번지 힐스테이트서천 101호","indutype":"유통업 영리 - 편 의 점","category":"other"},{"name":"GS25서천힐스점","tel":"","addr":"경기도 용인시 기흥구 서천동 801번지 힐스테이트서천 1층 101호","indutype":"유통업 영리 - 편 의 점","category":"other"}]},{"lat":"37.244399529","long":"127.07302955","imageIndex":17,"items":[{"name":"경기산림","tel":"031-514-7677","addr":"경기도 용인시 기흥구 서천동 700번지 서그내마을에스케이아파트","indutype":"기타 - 기계공구","category":"other"}]},{"lat":"37.247100207","long":"127.07699941","imageIndex":17,"items":[{"name":"경희인쇄","tel":"031-273-4655","addr":"경기도 용인시 기흥구 서천동 7-3번지","indutype":"서적문구 - 출판 및 인쇄물","category":"other"}]},{"lat":"37.242992583","long":"127.0752485","imageIndex":17,"items":[{"name":"경희타일","tel":"031-306-4388","addr":"경기도 용인시 기흥구 서천동 246번지","indutype":"건축자재 - 건축용 요업제품","category":"other"}]},{"lat":"37.246577276","long":"127.07752863","imageIndex":17,"items":[{"name":"경희편의점","tel":"031-202-8101","addr":"경기도 용인시 기흥구 서천동 5-3번지","indutype":"유통업 영리 - 편 의 점","category":"other"}]},{"lat":"37.243105111","long":"127.06764115","imageIndex":17,"items":[{"name":"그린필크리닝","tel":"070-8864-4357","addr":"경기도 용인시 기흥구 서천동 379-13번지","indutype":"수리서비스 - 세탁소","category":"other"}]},{"lat":"37.244265095","long":"127.07180095","imageIndex":17,"items":[{"name":"금속과학","tel":"031-205-8881","addr":"경기도 용인시 기흥구 서천동 700번지 서그내마을에스케이아파트","indutype":"서적문구 - 과학기자재","category":"other"},{"name":"위드미 서천SK점","tel":"031-000-0000","addr":"경기도 용인시 기흥구 서천동 700번지 상가동 107,108호","indutype":"유통업 영리 - 편 의 점","category":"other"}]},{"lat":"37.236936226","long":"127.07753039","imageIndex":17,"items":[{"name":"꿈꾸는마을","tel":"070-4645-1613","addr":"경기도 용인시 기흥구 서천동 778번지","indutype":"서적문구 - 완구점","category":"other"}]},{"lat":"37.241380689","long":"127.07366915","imageIndex":17,"items":[{"name":"낮져밤이","tel":"","addr":"경기도 용인시 기흥구 서천동 718-3번지 203호","indutype":"광학제품 - 사진관","category":"other"}]},{"lat":"37.24326775","long":"127.06680728","imageIndex":17,"items":[{"name":"뉴디자인 인테리어하우스","tel":"031-203-8989","addr":"경기도 용인시 기흥구 서천동 370-7번지 103호","indutype":"건축자재 - 인테리어전문","category":"other"}]},{"lat":"37.243661174","long":"127.07219486","imageIndex":17,"items":[{"name":"다다홈잡화","tel":"070-8281-4182","addr":"경기도 용인시 기흥구 서천동 700번지 서그내마을에스케이아파트","indutype":"주방용구 - 주방용구","category":"other"},{"name":"퀼트나비","tel":"031-000-0000","addr":"경기도 용인시 기흥구 서천동 700번지","indutype":"직물 - 침구·수예점","category":"other"}]},{"lat":"37.240633101","long":"127.07321765","imageIndex":17,"items":[{"name":"대한민국 수선 1번가","tel":"","addr":"경기도 용인시 기흥구 서천동 722-3번지 1층 102호","indutype":"수리서비스 - 세탁소","category":"other"},{"name":"대한민국세탁1번가","tel":"031-273-8882","addr":"경기도 용인시 기흥구 서천동 722-3번지 101호","indutype":"수리서비스 - 세탁소","category":"other"}]},{"lat":"37.236684326","long":"127.07691033","imageIndex":17,"items":[{"name":"더(THE) 이쁘개","tel":"031-202-8848","addr":"경기도 용인시 기흥구 서천동 782-5번지 1층","indutype":"문화.취미 - 애완동물","category":"other"}]},{"lat":"37.241272814","long":"127.07325206","imageIndex":17,"items":[{"name":"동인디자인","tel":"02-1111-1111","addr":"경기도 용인시 기흥구 서천동 718-6번지 1층 101호","indutype":"건축자재 - 인테리어전문","category":"other"}]},{"lat":"37.240912072","long":"127.07380395","imageIndex":17,"items":[{"name":"디아르떼","tel":"070-8232-6539","addr":"경기도 용인시 기흥구 서천동 729번지","indutype":"의류 - 맞춤복점","category":"other"}]},{"lat":"37.240515719","long":"127.07363453","imageIndex":17,"items":[{"name":"디자인213","tel":"","addr":"경기도 용인시 기흥구 서천동 730번지 상가 103호","indutype":"용역 서비스 - 사무서비스","category":"other"}]},{"lat":"37.24088496","long":"127.07393917","imageIndex":17,"items":[{"name":"뚝딱뚝딱나무공방","tel":"031-287-9880","addr":"경기도 용인시 기흥구 서천동 729-1번지","indutype":"문화.취미 - 민예·공예품","category":"other"}]},{"lat":"37.236161465","long":"127.07732678","imageIndex":17,"items":[{"name":"루디아","tel":"","addr":"경기도 용인시 기흥구 서천동 778-5번지 2층 202호","indutype":"신변잡화 - 액세서리","category":"other"},{"name":"수담","tel":"","addr":"경기도 용인시 기흥구 서천동 778-5번지 상가 1층","indutype":"문화.취미 - 화랑","category":"other"}]},{"lat":"37.240883243","long":"127.07674539","imageIndex":17,"items":[{"name":"리디프","tel":"","addr":"경기도 용인시 기흥구 서천동 755번지 서천2차 아이파크 603동 6층 603호","indutype":"신변잡화 - 액세서리","category":"other"},{"name":"스파클남수원대리점","tel":"031-205-3325","addr":"경기도 용인시 기흥구 서천동 755번지 서천2차아이파크 602동 403호","indutype":"유통업 영리 - 기타유통업","category":"other"}]},{"lat":"37.240353181","long":"127.07422041","imageIndex":17,"items":[{"name":"마망엘리펀트","tel":"070-8711-3984","addr":"경기도 용인시 기흥구 서천동 730-4번지 103호","indutype":"의류 - 정장","category":"other"}]},{"lat":"37.236801177","long":"127.07736122","imageIndex":17,"items":[{"name":"머랭테이블","tel":"070-7420-2216","addr":"경기도 용인시 기흥구 서천동 778-10번지 1층","indutype":"문화.취미 - 문화취미기타","category":"other"},{"name":"여우같은시간 한땀","tel":"031-397-3422","addr":"경기도 용인시 기흥구 서천동 778-10번지","indutype":"문화.취미 - 문화취미기타","category":"other"}]},{"lat":"37.24379945","long":"127.06663868","imageIndex":17,"items":[{"name":"메이듀","tel":"031-235-3345","addr":"경기도 용인시 기흥구 서천동 366번지 302호 일부","indutype":"주방용구 - 주방용식기","category":"other"}]},{"lat":"37.245239136","long":"127.07019014","imageIndex":17,"items":[{"name":"모이","tel":"","addr":"경기도 용인시 기흥구 서천동 828번지 영통로효성해링턴플레이스 상가동 지1층 103호","indutype":"의류 - 정장","category":"other"}]},{"lat":"37.243655701","long":"127.0658609","imageIndex":17,"items":[{"name":"바니이발소","tel":"031-111-1111","addr":"경기도 용인시 기흥구 서천동 368번지 천일프라자 1층 104호","indutype":"문화.취미 - 애완동물","category":"other"}]},{"lat":"37.24060597","long":"127.07338668","imageIndex":17,"items":[{"name":"바이 한(by han)","tel":"031-203-7990","addr":"경기도 용인시 기흥구 서천동 722-4번지","indutype":"의류 - 정장","category":"other"}]},{"lat":"37.237269402","long":"127.07785754","imageIndex":17,"items":[{"name":"백양세탁소","tel":"031-204-9004","addr":"경기도 용인시 기흥구 서천동 785번지 1층 111호","indutype":"수리서비스 - 세탁소","category":"other"}]},{"lat":"37.236714095","long":"127.07239135","imageIndex":17,"items":[{"name":"버디","tel":"031-203-3763","addr":"경기도 용인시 기흥구 서천동 814번지 111호","indutype":"의류 - 정장","category":"other"}]},{"lat":"37.242573803","long":"127.06708845","imageIndex":17,"items":[{"name":"블루냉난방","tel":"","addr":"경기도 용인시 기흥구 서천동 377-1번지","indutype":"전기제품 - 냉열기기","category":"other"}]},{"lat":"37.241686993","long":"127.07374833","imageIndex":17,"items":[{"name":"비누실험실 LABO","tel":"070-8865-4649","addr":"경기도 용인시 기흥구 서천동 716-2번지 101호","indutype":"신변잡화 - 기타잡화","category":"other"}]},{"lat":"37.239624397","long":"127.07245037","imageIndex":17,"items":[{"name":"빨래터명품세탁소","tel":"031-202-8939","addr":"경기도 용인시 기흥구 서천동 736번지 서천마을1단지 상가 106호","indutype":"수리서비스 - 세탁소","category":"other"}]},{"lat":"37.240725689","long":"127.06890135","imageIndex":17,"items":[{"name":"사쟈 SAJHA","tel":"","addr":"경기도 용인시 기흥구 서천동 705번지 예현마을현대홈타운 108동 1702호","indutype":"서적문구 - 완구점","category":"other"}]},{"lat":"37.246795122","long":"127.07494782","imageIndex":17,"items":[{"name":"새림투어닷컴(주)","tel":"031-204-2420","addr":"경기도 용인시 기흥구 서천동 319-7번지","indutype":"여행 - 관광여행","category":"other"}]},{"lat":"37.246381537","long":"127.07347095","imageIndex":17,"items":[{"name":"새한주방가구","tel":"031-273-0658","addr":"경기도 용인시 기흥구 서천동 320-9번지","indutype":"가구 - 일반가구","category":"other"}]},{"lat":"37.236549185","long":"127.07688766","imageIndex":17,"items":[{"name":"샵가스펠","tel":"070-4175-1502","addr":"경기도 용인시 기흥구 서천동 782-4번지 1층","indutype":"의류 - 정장","category":"other"}]},{"lat":"37.236911399","long":"127.07394671","imageIndex":17,"items":[{"name":"서천 모임센터","tel":"031-308-0905","addr":"경기도 용인시 기흥구 서천동 807번지 4층 407호","indutype":"용역 서비스 - 사무서비스","category":"other"}]},{"lat":"37.240406957","long":"127.0746938","imageIndex":17,"items":[{"name":"서천요가학원","tel":"031-203-5789","addr":"경기도 용인시 기흥구 서천동 731-1번지 101호","indutype":"회원제형태 - 레져업소","category":"other"}]},{"lat":"37.238670038","long":"127.07118729","imageIndex":17,"items":[{"name":"선샤인(Sunshine)캔들","tel":"","addr":"경기도 용인시 기흥구 서천동 743번지 서천마을2단지","indutype":"신변잡화 - 기타잡화","category":"other"}]},{"lat":"37.243384357","long":"127.06777663","imageIndex":17,"items":[{"name":"수원영통로타리클럽","tel":"031-203-3750","addr":"경기도 용인시 기흥구 서천동 380-2번지","indutype":"기타 - 비영리/대상","category":"other"}]},{"lat":"37.236773905","long":"127.07774435","imageIndex":17,"items":[{"name":"신도전기","tel":"031-245-5547","addr":"경기도 용인시 기흥구 서천동 776-10번지 101호","indutype":"전기제품 - 기타전기제품","category":"other"}]},{"lat":"37.242906643","long":"127.06808052","imageIndex":17,"items":[{"name":"씨에스아이수원총판","tel":"031-203-9980","addr":"경기도 용인시 기흥구 서천동 382-2번지 서울원룸 101호","indutype":"전기제품 - 가전제품","category":"other"},{"name":"씨유기흥서천점","tel":"080-080-3663","addr":"경기도 용인시 기흥구 서천동 382-2번지 1층","indutype":"유통업 영리 - 편 의 점","category":"other"}]},{"lat":"37.236188581","long":"127.07719158","imageIndex":17,"items":[{"name":"씨유서천힐스점","tel":"031-206-8064","addr":"경기도 용인시 기흥구 서천동 778-6번지 1층 101호","indutype":"유통업 영리 - 편 의 점","category":"other"},{"name":"에이블미디","tel":"","addr":"경기도 용인시 기흥구 서천동 778-6번지 교산 3층 302호","indutype":"용역 서비스 - 종합용역","category":"other"}]},{"lat":"37.240992812","long":"127.07439007","imageIndex":17,"items":[{"name":"안나시랭평생교육원","tel":"031-203-4746","addr":"경기도 용인시 기흥구 서천동 727번지 1층","indutype":"문화.취미 - 문화취미기타","category":"other"},{"name":"주식회사 칸스","tel":"031-203-4746","addr":"경기도 용인시 기흥구 서천동 727번지 1층","indutype":"신변잡화 - 기념품점","category":"other"}]},{"lat":"37.240993333","long":"127.07352228","imageIndex":17,"items":[{"name":"에이라 자전거","tel":"031-273-5368","addr":"경기도 용인시 기흥구 서천동 720-4번지","indutype":"레져용품 - 스포츠·레져용품","category":"other"}]},{"lat":"37.242987336","long":"127.06880189","imageIndex":17,"items":[{"name":"영락종교서적센타","tel":"031-215-9311","addr":"경기도 용인시 기흥구 서천동 385번지","indutype":"서적문구 - 전문서적","category":"other"},{"name":"영통영락교회","tel":"031-215-9311","addr":"경기도 용인시 기흥구 서천동 385번지","indutype":"서적문구 - 전문서적","category":"other"}]},{"lat":"37.236108901","long":"127.07490384","imageIndex":17,"items":[{"name":"우리설비","tel":"","addr":"경기도 용인시 기흥구 서천동 823번지 서천마을4단지","indutype":"용역 서비스 - 기타용역서비스","category":"other"}]},{"lat":"37.236271915","long":"127.07352914","imageIndex":17,"items":[{"name":"월드크리닝 용인서천점","tel":"031-204-3919","addr":"경기도 용인시 기흥구 서천동 809번지 원희캐슬서천2 1층 119호","indutype":"수리서비스 - 세탁소","category":"other"},{"name":"이마트24 용인서천마을점","tel":"","addr":"경기도 용인시 기흥구 서천동 809번지 102,103호","indutype":"유통업 영리 - 편 의 점","category":"other"}]},{"lat":"37.240912568","long":"127.07296997","imageIndex":17,"items":[{"name":"유한태영산업","tel":"031-273-7373","addr":"경기도 용인시 기흥구 서천동 720-8번지 1층","indutype":"신변잡화 - 기타잡화","category":"other"}]},{"lat":"37.241293857","long":"127.06796643","imageIndex":17,"items":[{"name":"음악가","tel":"031-203-1557","addr":"경기도 용인시 기흥구 서천동 705번지 예현마을현대홈타운","indutype":"용역 서비스 - 종합용역","category":"other"},{"name":"현대세탁소","tel":"031-273-3247","addr":"경기도 용인시 기흥구 서천동 705번지 예현마을현대홈타운 상가동 105호","indutype":"수리서비스 - 세탁소","category":"other"}]},{"lat":"37.24068747","long":"127.07269929","imageIndex":17,"items":[{"name":"이마트24 용인서천서로점","tel":"031-205-9288","addr":"경기도 용인시 기흥구 서천동 722번지 1층","indutype":"유통업 영리 - 편 의 점","category":"other"},{"name":"이마트24 용인서천서로점","tel":"031-1111-1111","addr":"경기도 용인시 기흥구 서천동 722번지 1층","indutype":"유통업 영리 - 편 의 점","category":"other"}]},{"lat":"37.238378041","long":"127.07727261","imageIndex":17,"items":[{"name":"이마트24 용인서천점","tel":"031-000-0000","addr":"경기도 용인시 기흥구 서천동 789번지","indutype":"유통업 영리 - 편 의 점","category":"other"}]},{"lat":"37.244299668","long":"127.07428049","imageIndex":17,"items":[{"name":"이마트24 용인서천효성점","tel":"031-000-0000","addr":"경기도 용인시 기흥구 서천동 834번지 용인서천 효성해링턴플레이스 116 상가동 105호","indutype":"유통업 영리 - 편 의 점","category":"other"}]},{"lat":"37.246459935","long":"127.07785537","imageIndex":17,"items":[{"name":"이마트24경희대국제캠퍼스점","tel":"","addr":"경기도 용인시 기흥구 서천동 5-1번지 2층","indutype":"유통업 영리 - 편 의 점","category":"other"},{"name":"채움프린트","tel":"031-202-8055","addr":"경기도 용인시 기흥구 서천동 5-1번지","indutype":"용역 서비스 - 사무서비스","category":"other"}]},{"lat":"37.23865101","long":"127.07291153","imageIndex":17,"items":[{"name":"인버터에어컨","tel":"","addr":"경기도 용인시 기흥구 서천동 736번지 서천마을 1단지","indutype":"용역 서비스 - 기타용역서비스","category":"other"}]},{"lat":"37.244572199","long":"127.07049385","imageIndex":17,"items":[{"name":"잉크가이","tel":"031-225-1454","addr":"경기도 용인시 기흥구 서천동 700번지 서그내마을에스케이아파트","indutype":"사무통신 - 기타 사무용품","category":"other"}]},{"lat":"37.237738548","long":"127.07688882","imageIndex":17,"items":[{"name":"제이아이디플랜(JIDPLAN)","tel":"031-205-0013","addr":"경기도 용인시 기흥구 서천동 791-6번지 상가 101호","indutype":"용역 서비스 - 기타용역서비스","category":"other"}]},{"lat":"37.24104767","long":"127.07306026","imageIndex":17,"items":[{"name":"조이디자인","tel":"031-305-6118","addr":"경기도 용인시 기흥구 서천동 720-1번지","indutype":"가구 - 일반가구","category":"other"}]},{"lat":"37.246687659","long":"127.07385445","imageIndex":17,"items":[{"name":"주식회사 신유","tel":"031-274-6068","addr":"경기도 용인시 기흥구 서천동 320-10번지 신명자동차공업사 가동 6호","indutype":"건축자재 - 부동산 분양","category":"other"}]},{"lat":"37.246769028","long":"127.07339242","imageIndex":17,"items":[{"name":"주식회사 제이드디앤씨","tel":"031-273-6068","addr":"경기도 용인시 기흥구 서천동 335-2번지 우서빌딩 307호","indutype":"건축자재 - 부동산 분양","category":"other"}]},{"lat":"37.243489373","long":"127.07322031","imageIndex":17,"items":[{"name":"주식회사 피에스","tel":"02-6215-0007","addr":"경기도 용인시 기흥구 서천동 287-10번지","indutype":"주방용구 - 주방용구","category":"other"}]},{"lat":"37.241159721","long":"127.06608422","imageIndex":17,"items":[{"name":"주식회사 해피프렌즈","tel":"070-4062-7809","addr":"경기도 용인시 기흥구 서천동 373-10번지 B02호","indutype":"사무통신 - 컴퓨터","category":"other"}]},{"lat":"37.236801333","long":"127.07711329","imageIndex":17,"items":[{"name":"채울","tel":"070-8285-7821","addr":"경기도 용인시 기흥구 서천동 782-1번지 1층","indutype":"건축자재 - 인테리어전문","category":"other"}]},{"lat":"37.240434444","long":"127.07393874","imageIndex":17,"items":[{"name":"컨츄리앤플라워","tel":"031-273-4330","addr":"경기도 용인시 기흥구 서천동 730-2번지 101호","indutype":"문화.취미 - 화원","category":"other"}]},{"lat":"37.238174489","long":"127.07115304","imageIndex":17,"items":[{"name":"크린토피아 용인서천점","tel":"031-273-7322","addr":"경기도 용인시 기흥구 서천동 743번지 서천마을휴먼시아2단지 상가 105호","indutype":"수리서비스 - 세탁소","category":"other"},{"name":"핑크색옷가게","tel":"070-8189-6042","addr":"경기도 용인시 기흥구 서천동 743번지 서천마을휴먼시아2단지 상가동 106호","indutype":"의류 - 정장","category":"other"}]},{"lat":"37.240299038","long":"127.0743556","imageIndex":17,"items":[{"name":"태림시스템","tel":"","addr":"경기도 용인시 기흥구 서천동 730-5번지 201호","indutype":"용역 서비스 - 기타용역서비스","category":"other"}]},{"lat":"37.241020445","long":"127.07338706","imageIndex":17,"items":[{"name":"포스테크","tel":"031-203-6650","addr":"경기도 용인시 기흥구 서천동 720-3번지 101호","indutype":"용역 서비스 - 종합용역","category":"other"}]},{"lat":"37.236963625","long":"127.07694441","imageIndex":17,"items":[{"name":"폴인아트연구소(fallinartlab)","tel":"031-000-0000","addr":"경기도 용인시 기흥구 서천동 782-7번지 1층","indutype":"문화.취미 - 문화취미기타","category":"other"}]},{"lat":"37.244364031","long":"127.07210534","imageIndex":17,"items":[{"name":"프란치스","tel":"031-202-2189","addr":"경기도 용인시 기흥구 서천동 700번지 서그내마을에스케이아파트","indutype":"회원제형태 - 기타4","category":"other"}]},{"lat":"37.238092748","long":"127.07226865","imageIndex":17,"items":[{"name":"하늘보일러","tel":"031-204-3201","addr":"경기도 용인시 기흥구 서천동 743번지 서천마을휴먼시아 203동 203호","indutype":"회원제형태 - 기타4","category":"other"}]},{"lat":"37.24530038","long":"127.0733347","imageIndex":17,"items":[{"name":"한국산업","tel":"031-205-5478","addr":"경기도 용인시 기흥구 서천동 324번지","indutype":"서적문구 - 과학기자재","category":"other"}]},{"lat":"37.240075577","long":"127.07131253","imageIndex":17,"items":[{"name":"한국힐링테라피협회","tel":"","addr":"경기도 용인시 기흥구 서천동 736번지 서천마을 1단지","indutype":"문화.취미 - 문화취미기타","category":"other"}]},{"lat":"37.244679818","long":"127.07137304","imageIndex":17,"items":[{"name":"한길테크","tel":"","addr":"경기도 용인시 기흥구 서천동 700번지 서그내마을에스케이아파트","indutype":"기타 - 기계공구","category":"other"}]},{"lat":"37.242068221","long":"127.06891379","imageIndex":17,"items":[{"name":"핸드메이드 꿀봄","tel":"","addr":"경기도 용인시 기흥구 서천동 705번지 예현마을현대홈타운","indutype":"직물 - 침구·수예점","category":"other"}]},{"lat":"37.240632515","long":"127.07419814","imageIndex":17,"items":[{"name":"홈잡화","tel":"070-8281-4182","addr":"경기도 용인시 기흥구 서천동 729-8번지 401호","indutype":"신변잡화 - 기타잡화","category":"other"}]},{"lat":"37.240912681","long":"127.07277838","imageIndex":17,"items":[{"name":"힐스템 건강 서천점","tel":"","addr":"경기도 용인시 기흥구 서천동 720-9번지 1층","indutype":"전기제품 - 기타전기제품","category":"other"}]},{"lat":"37.234242399","long":"127.07711079","imageIndex":7,"items":[{"name":"(주)피와이언홀딩스/삼성전자연수원매점","tel":"031-215-0402","addr":"경기도 용인시 기흥구 서천동 822번지 연수원 매점","indutype":"음료식품 - 기타음료식품","category":"food"}]},{"lat":"37.245903876","long":"127.07366211","imageIndex":7,"items":[{"name":"고향종합식품","tel":"","addr":"경기도 용인시 기흥구 서천동 320-6번지","indutype":"음료식품 - 기타음료식품","category":"food"},{"name":"우리축산","tel":"070-5118-2236","addr":"경기도 용인시 기흥구 서천동 320-6번지","indutype":"음료식품 - 정육점","category":"food"},{"name":"우리푸드","tel":"031-203-2745","addr":"경기도 용인시 기흥구 서천동 320-6번지 1층 103호","indutype":"음료식품 - 농·축·수산품","category":"food"},{"name":"제이대리점","tel":"031-204-7196","addr":"경기도 용인시 기흥구 서천동 320-6번지 106호","indutype":"음료식품 - 기타음료식품","category":"food"}]},{"lat":"37.23629475","long":"127.08024566","imageIndex":7,"items":[{"name":"꽃대궐","tel":"031-206-6030","addr":"경기도 용인시 기흥구 서천동 89-3","indutype":"음료식품 - 기타음료식품","category":"food"}]},{"lat":"37.241159721","long":"127.06608422","imageIndex":7,"items":[{"name":"농업회사법인루나플로우 주식회사","tel":"02-0000-0000","addr":"경기도 용인시 기흥구 서천동 373-10번지 B02호","indutype":"음료식품 - 농·축·수산품","category":"food"}]},{"lat":"37.236911399","long":"127.07394671","imageIndex":7,"items":[{"name":"담우정육점","tel":"031-273-9245","addr":"경기도 용인시 기흥구 서천동 807번지 101호","indutype":"음료식품 - 정육점","category":"food"}]},{"lat":"37.246769028","long":"127.07339242","imageIndex":7,"items":[{"name":"딜라이트그린빈","tel":"070-4035-5152","addr":"경기도 용인시 기흥구 서천동 335-2번지 우서빌딩 305호 일부","indutype":"음료식품 - 기타음료식품","category":"food"}]},{"lat":"37.245239136","long":"127.07019014","imageIndex":7,"items":[{"name":"리한 베이커리","tel":"031-273-2121","addr":"경기도 용인시 기흥구 서천동 828번지 영통로효성해링턴플레이스 상가동지 1층 102호","indutype":"음료식품 - 제과점","category":"food"}]},{"lat":"37.24379945","long":"127.06663868","imageIndex":7,"items":[{"name":"명품한우 암소정육점","tel":"031-213-3003","addr":"경기도 용인시 기흥구 서천동 366번지 1층","indutype":"음료식품 - 정육점","category":"food"},{"name":"예인떡집","tel":"031-273-2626","addr":"경기도 용인시 기흥구 서천동 366번지 103호","indutype":"음료식품 - 제과점","category":"food"},{"name":"장독대","tel":"031-202-4343","addr":"경기도 용인시 기흥구 서천동 366번지 뉴태영빌딩 1층","indutype":"음료식품 - 기타음료식품","category":"food"},{"name":"장독대","tel":"031-202-4343","addr":"경기도 용인시 기흥구 서천동 366번지 1층","indutype":"음료식품 - 기타음료식품","category":"food"},{"name":"파리바게뜨용인서천점","tel":"031-273-8592","addr":"경기도 용인시 기흥구 서천동 366외4필지105호","indutype":"음료식품 - 제과점","category":"food"}]},{"lat":"37.240488587","long":"127.07380355","imageIndex":7,"items":[{"name":"박가네떡방","tel":"031-273-8222","addr":"경기도 용인시 기흥구 서천동 730-1번지","indutype":"음료식품 - 제과점","category":"food"}]},{"lat":"37.236801177","long":"127.07736122","imageIndex":7,"items":[{"name":"사르르초코","tel":"031-0000-0000","addr":"경기도 용인시 기흥구 서천동 778-10번지 전면좌측 101호","indutype":"음료식품 - 기타음료식품","category":"food"}]},{"lat":"37.237739592","long":"127.0751984","imageIndex":7,"items":[{"name":"샤방샤방 아이스크림할인점","tel":"","addr":"경기도 용인시 기흥구 서천동 801번지 힐스테이트서천 상가동 104호","indutype":"음료식품 - 기타음료식품","category":"food"}]},{"lat":"37.240769921","long":"127.07035521","imageIndex":7,"items":[{"name":"서울우유영통남부고객센터","tel":"031-203-8902","addr":"경기도 용인시 기흥구 서천동 397-19번지","indutype":"음료식품 - 기타음료식품","category":"food"}]},{"lat":"37.241020445","long":"127.07338706","imageIndex":7,"items":[{"name":"송화잔기지떡 용인점","tel":"070-7840-0610","addr":"경기도 용인시 기흥구 서천동 720-3번지 1층","indutype":"음료식품 - 제과점","category":"food"}]},{"lat":"37.242438335","long":"127.06766312","imageIndex":7,"items":[{"name":"신명호베이커리","tel":"031-206-0458","addr":"경기도 용인시 기흥구 서천동 405-2번지 101호","indutype":"음료식품 - 제과점","category":"food"}]},{"lat":"37.246659816","long":"127.07519565","imageIndex":7,"items":[{"name":"신토불이","tel":"031-206-4766","addr":"경기도 용인시 기흥구 서천동 319-6번지","indutype":"음료식품 - 농·축·수산품","category":"food"}]},{"lat":"37.24243818","long":"127.06794487","imageIndex":7,"items":[{"name":"아싸다아이스크림","tel":"031-204-2569","addr":"경기도 용인시 기흥구 서천동 404-2번지","indutype":"음료식품 - 기타음료식품","category":"food"}]},{"lat":"37.241015526","long":"127.06614045","imageIndex":7,"items":[{"name":"은화유통","tel":"031-202-0084","addr":"경기도 용인시 기흥구 서천동 374번지 1층 상가","indutype":"음료식품 - 농·축·수산품","category":"food"}]},{"lat":"37.236549185","long":"127.07688766","imageIndex":7,"items":[{"name":"이쁜물곰과일&후레쉬마켓","tel":"","addr":"경기도 용인시 기흥구 서천동 782-4번지 1층 1호","indutype":"음료식품 - 기타음료식품","category":"food"}]},{"lat":"37.24174233","long":"127.07158452","imageIndex":7,"items":[{"name":"지명TF","tel":"031-000-0000","addr":"경기도 용인시 기흥구 서천동 267번지 102호","indutype":"음료식품 - 기타음료식품","category":"food"}]},{"lat":"37.240515719","long":"127.07363453","imageIndex":7,"items":[{"name":"타니예르","tel":"031-111-1111","addr":"경기도 용인시 기흥구 서천동 730번지 1층 102호","indutype":"음료식품 - 제과점","category":"food"}]},{"lat":"37.237047298","long":"127.07269593","imageIndex":7,"items":[{"name":"파리바게뜨(서천마을)","tel":"041-205-6233","addr":"경기도 용인시 기흥구 서천동 813번지 원희캐슬서천르자1층105호","indutype":"음료식품 - 제과점","category":"food"}]},{"lat":"37.242771809","long":"127.06749435","imageIndex":7,"items":[{"name":"프리미엄 우유(수원 대리점)","tel":"031-304-7177","addr":"경기도 용인시 기흥구 서천동 379-5번지 lplus","indutype":"음료식품 - 기타음료식품","category":"food"}]},{"lat":"37.241293857","long":"127.06796643","imageIndex":7,"items":[{"name":"한우마을","tel":"031-202-8543","addr":"경기도 용인시 기흥구 서천동 705번지 현대홈타운 상가 103호","indutype":"음료식품 - 정육점","category":"food"}]},{"lat":"37.240912072","long":"127.07380395","imageIndex":13,"items":[{"name":"180도 스킨케어","tel":"031-202-0779","addr":"경기도 용인시 기흥구 서천동 729번지 상가동 101호","indutype":"보건위생 - 화장품","category":"beauty"}]},{"lat":"37.238017642","long":"127.07724972","imageIndex":13,"items":[{"name":"21번길6-5호 미장원","tel":"031-205-2165","addr":"경기도 용인시 기흥구 서천동 789-9번지 1층","indutype":"보건위생 - 미용원","category":"beauty"}]},{"lat":"37.241687275","long":"127.07327498","imageIndex":13,"items":[{"name":"네일공방","tel":"051-805-0052","addr":"경기도 용인시 기흥구 서천동 716-5번지 101호","indutype":"보건위생 - 피부미용실","category":"beauty"}]},{"lat":"37.240488587","long":"127.07380355","imageIndex":13,"items":[{"name":"네일따옴","tel":"","addr":"경기도 용인시 기흥구 서천동 730-1번지","indutype":"보건위생 - 피부미용실","category":"beauty"},{"name":"올가스킨","tel":"02-6340-5359","addr":"경기도 용인시 기흥구 서천동 730-1번지 102호","indutype":"보건위생 - 화장품","category":"beauty"}]},{"lat":"37.244299668","long":"127.07428049","imageIndex":13,"items":[{"name":"누벨르","tel":"031-202-1727","addr":"경기도 용인시 기흥구 서천동 834번지 용인서천효성해링턴플레이스 116((상가)동 1층 103호","indutype":"보건위생 - 미용원","category":"beauty"},{"name":"청명","tel":"031-275-9994","addr":"경기도 용인시 기흥구 서천동 834번지 효성해링턴플레이스 106동 2102호","indutype":"보건위생 - 기타대인서비스","category":"beauty"}]},{"lat":"37.237047298","long":"127.07269593","imageIndex":13,"items":[{"name":"더인코어유통","tel":"","addr":"경기도 용인시 기흥구 서천동 813번지 원희캐슬서천프라자 1층 103호","indutype":"보건위생 - 화장품","category":"beauty"},{"name":"머리에 반하다","tel":"031-202-0815","addr":"경기도 용인시 기흥구 서천동 813번지 원희캐슬 106호","indutype":"보건위생 - 미용원","category":"beauty"},{"name":"엘지(LG)럭셔리뷰티 서천점","tel":"031-204-5279","addr":"경기도 용인시 기흥구 서천동 813번지 원희캐슬 4층 402호","indutype":"보건위생 - 화장품","category":"beauty"},{"name":"헤어마루","tel":"031-204-4858","addr":"경기도 용인시 기흥구 서천동 813번지 원희캐슬 203호","indutype":"보건위생 - 미용원","category":"beauty"}]},{"lat":"37.243493026","long":"127.06677366","imageIndex":13,"items":[{"name":"마벨헤어","tel":"031-202-2181","addr":"경기도 용인시 기흥구 서천동 370번지 1층 102호","indutype":"보건위생 - 미용원","category":"beauty"}]},{"lat":"37.238174489","long":"127.07115304","imageIndex":13,"items":[{"name":"머리한올","tel":"031-206-2272","addr":"경기도 용인시 기흥구 서천동 743번지 서천마을2단지 상가동 104호","indutype":"보건위생 - 미용원","category":"beauty"}]},{"lat":"37.240515719","long":"127.07363453","imageIndex":13,"items":[{"name":"무이헤어살롱(Mooi hair salon)","tel":"","addr":"경기도 용인시 기흥구 서천동 730번지 1층 101호","indutype":"보건위생 - 미용원","category":"beauty"}]},{"lat":"37.245239136","long":"127.07019014","imageIndex":13,"items":[{"name":"문헤어","tel":"031-204-9323","addr":"경기도 용인시 기흥구 서천동 828번지 영통로효성해링턴플레이스 108호","indutype":"보건위생 - 미용원","category":"beauty"}]},{"lat":"37.237739592","long":"127.0751984","imageIndex":13,"items":[{"name":"벨로(BELLO)","tel":"","addr":"경기도 용인시 기흥구 서천동 801번지 힐스테이트서천 상가동 104일부호","indutype":"보건위생 - 미용원","category":"beauty"}]},{"lat":"37.23626983","long":"127.07694373","imageIndex":13,"items":[{"name":"블룸바이영","tel":"031-713-7050","addr":"경기도 용인시 기흥구 서천동 780-2번지 102호","indutype":"보건위생 - 화장품","category":"beauty"}]},{"lat":"37.24060597","long":"127.07338668","imageIndex":13,"items":[{"name":"쁘띠헤어","tel":"031-205-8952","addr":"경기도 용인시 기흥구 서천동 722-4번지","indutype":"보건위생 - 미용원","category":"beauty"}]},{"lat":"37.23682847","long":"127.07694428","imageIndex":13,"items":[{"name":"살롱드비안","tel":"031-205-0222","addr":"경기도 용인시 기흥구 서천동 782-6번지 1층","indutype":"보건위생 - 미용원","category":"beauty"}]},{"lat":"37.241218524","long":"127.07363519","imageIndex":13,"items":[{"name":"서네일","tel":"070-4254-0160","addr":"경기도 용인시 기흥구 서천동 718-4번지 101호","indutype":"보건위생 - 피부미용실","category":"beauty"},{"name":"헤어플랜","tel":"031-206-8834","addr":"경기도 용인시 기흥구 서천동 718-4번지 1층 102호","indutype":"보건위생 - 미용원","category":"beauty"}]},{"lat":"37.236575585","long":"127.07789066","imageIndex":13,"items":[{"name":"손톱에반하다","tel":"","addr":"경기도 용인시 기흥구 서천동 776-2번지 402호","indutype":"보건위생 - 화장품","category":"beauty"}]},{"lat":"37.240769921","long":"127.07035521","imageIndex":13,"items":[{"name":"시저스닥터","tel":"031-254-3048","addr":"경기도 용인시 기흥구 서천동 397-19번지","indutype":"보건위생 - 미용재료","category":"beauty"}]},{"lat":"37.242852698","long":"127.06786634","imageIndex":13,"items":[{"name":"시저스닥터헤어살롱","tel":"031-254-3048","addr":"경기도 용인시 기흥구 서천동 379-3번지 102호","indutype":"보건위생 - 미용원","category":"beauty"}]},{"lat":"37.236911399","long":"127.07394671","imageIndex":13,"items":[{"name":"아이라운지 서천점","tel":"031-206-0405","addr":"경기도 용인시 기흥구 서천동 807번지 1층","indutype":"보건위생 - 안경","category":"beauty"}]},{"lat":"37.237738548","long":"127.07688882","imageIndex":13,"items":[{"name":"엘디에스메디칼","tel":"031-205-0013","addr":"경기도 용인시 기흥구 서천동 791-6번지","indutype":"보건위생 - 의료용품","category":"beauty"}]},{"lat":"37.236714095","long":"127.07239135","imageIndex":13,"items":[{"name":"웰컴에스테틱","tel":"031-203-0222","addr":"경기도 용인시 기흥구 서천동 814번지 401호","indutype":"보건위생 - 피부미용실","category":"beauty"}]},{"lat":"37.239624397","long":"127.07245037","imageIndex":13,"items":[{"name":"쩡헤어#","tel":"031-205-3339","addr":"경기도 용인시 기흥구 서천동 736번지 서천마을1단지 상가동 1층 105호","indutype":"보건위생 - 미용원","category":"beauty"}]},{"lat":"37.235604583","long":"127.07447513","imageIndex":13,"items":[{"name":"카라헤어","tel":"031-203-7706","addr":"경기도 용인시 기흥구 서천동 823번지 서천마을4단지 상가 104호","indutype":"보건위생 - 미용원","category":"beauty"}]},{"lat":"37.242068552","long":"127.06831647","imageIndex":13,"items":[{"name":"태양네일일산","tel":"","addr":"경기도 용인시 기흥구 서천동 705번지 예현마을현대홈타운","indutype":"보건위생 - 미용재료","category":"beauty"}]},{"lat":"37.240633101","long":"127.07321765","imageIndex":13,"items":[{"name":"토브(TOV)네일","tel":"070-4212-4141","addr":"경기도 용인시 기흥구 서천동 722-3번지 104호","indutype":"보건위생 - 피부미용실","category":"beauty"}]},{"lat":"37.240883243","long":"127.07674539","imageIndex":13,"items":[{"name":"파크헤어","tel":"031-204-4421","addr":"경기도 용인시 기흥구 서천동 755번지 서천2차아이파크 상가 105호","indutype":"보건위생 - 미용원","category":"beauty"}]},{"lat":"37.241272814","long":"127.07325206","imageIndex":13,"items":[{"name":"편백숲힐링하우스","tel":"070-8273-4744","addr":"경기도 용인시 기흥구 서천동 718-6번지 101호","indutype":"보건위생 - 화장품","category":"beauty"}]},{"lat":"37.245129789","long":"127.07230891","imageIndex":13,"items":[{"name":"헤어지지마","tel":"070-7642-4691","addr":"경기도 용인시 기흥구 서천동 294-17번지","indutype":"보건위생 - 미용원","category":"beauty"}]},{"lat":"37.240524228","long":"127.07446851","imageIndex":13,"items":[{"name":"헤어톡","tel":"031-203-6655","addr":"경기도 용인시 기흥구 서천동 729-6번지","indutype":"보건위생 - 미용원","category":"beauty"}]},{"lat":"37.236323701","long":"127.07724806","imageIndex":13,"items":[{"name":"호기(Hoki)헤어살롱","tel":"031-205-9867","addr":"경기도 용인시 기흥구 서천동 778-7번지 1층 우측","indutype":"보건위생 - 미용원","category":"beauty"}]},{"lat":"37.245239136","long":"127.07019014","imageIndex":0,"items":[{"name":"1만원대 영통구 출장세차","tel":"","addr":"경기도 용인시 기흥구 서천동 828번지 영통로효성해링턴플레이스 103동 104호","indutype":"자동차정비 유지 - 세차장","category":"car"}]},{"lat":"37.24157384","long":"127.0667495","imageIndex":0,"items":[{"name":"뉴로얄카센타","tel":"031-205-8212","addr":"경기도 용인시 기흥구 서천동 407-2번지","indutype":"자동차정비 유지 - 자동차부품","category":"car"}]},{"lat":"37.241911701","long":"127.07466142","imageIndex":0,"items":[{"name":"다인카","tel":"031-206-6258","addr":"경기도 용인시 기흥구 서천동 231-1번지","indutype":"자동차정비 유지 - 자동차부품","category":"car"}]},{"lat":"37.242267366","long":"127.06724598","imageIndex":0,"items":[{"name":"미스터차","tel":"031-204-6788","addr":"경기도 용인시 기흥구 서천동 407-5번지 1층","indutype":"자동차정비 유지 - 카인테리어","category":"car"}]},{"lat":"37.244572199","long":"127.07049385","imageIndex":0,"items":[{"name":"배터리총판","tel":"031-000-0000","addr":"경기도 용인시 기흥구 서천동 700번지 서그내마을에스케이아파트","indutype":"자동차정비 유지 - 자동차부품","category":"car"}]},{"lat":"37.242739677","long":"127.07625131","imageIndex":0,"items":[{"name":"서천셀프세차타운","tel":"070-4038-0434","addr":"경기도 용인시 기흥구 서천동 245-6번지","indutype":"자동차정비 유지 - 세차장","category":"car"},{"name":"현대자동차서천점","tel":"031-203-8572","addr":"경기도 용인시 기흥구 서천동 245-6번지","indutype":"자동차정비 유지 - 자동차시트·타이어","category":"car"}]},{"lat":"37.24088496","long":"127.07393917","imageIndex":0,"items":[{"name":"아우토글라스센터","tel":"","addr":"경기도 용인시 기흥구 서천동 729-1번지 상가 1층 102호","indutype":"자동차정비 유지 - 자동차부품","category":"car"}]},{"lat":"37.236657189","long":"127.07707934","imageIndex":0,"items":[{"name":"오토메카닉","tel":"031-273-2580","addr":"경기도 용인시 기흥구 서천동 782-2번지","indutype":"자동차정비 유지 - 자동차정비","category":"car"}]},{"lat":"37.240713479","long":"127.07441234","imageIndex":0,"items":[{"name":"와이(Y)카클럽","tel":"031-202-4320","addr":"경기도 용인시 기흥구 서천동 729-4번지 1층","indutype":"자동차정비 유지 - 자동차부품","category":"car"}]},{"lat":"37.241074801","long":"127.07289123","imageIndex":0,"items":[{"name":"카레전드","tel":"","addr":"경기도 용인시 기흥구 서천동 720번지 1층","indutype":"자동차정비 유지 - 자동차부품","category":"car"},{"name":"카비우스(CARVIUS)","tel":"031-202-2477","addr":"경기도 용인시 기흥구 서천동 720번지","indutype":"자동차정비 유지 - 카인테리어","category":"car"}]},{"lat":"37.244384366","long":"127.06802544","imageIndex":0,"items":[{"name":"코끼리세차장","tel":"","addr":"경기도 용인시 기흥구 서천동 361-3번지","indutype":"자동차정비 유지 - 세차장","category":"car"}]},{"lat":"37.236495038","long":"127.07702284","imageIndex":0,"items":[{"name":"한울배터리(용인지점)","tel":"031-203-3412","addr":"경기도 용인시 기흥구 서천동 782-3번지 한울 102호","indutype":"자동차정비 유지 - 자동차부품","category":"car"}]},{"lat":"37.246459935","long":"127.07785537","imageIndex":13,"items":[{"name":"SKY당구장","tel":"070-8174-7789","addr":"경기도 용인시 기흥구 서천동 5-1번지 3층","indutype":"레저업소 - 당 구 장","category":"leisure"},{"name":"레몬PC방","tel":"070-3778-7493","addr":"경기도 용인시 기흥구 서천동 5-1번지 4층","indutype":"레저업소 - 기타레져업소","category":"leisure"}]},{"lat":"37.246769028","long":"127.07339242","imageIndex":13,"items":[{"name":"경희M스포츠 탁구클럽","tel":"031-205-4365","addr":"경기도 용인시 기흥구 서천동 335-2번지 우서빌딩 지하층","indutype":"레저업소 - 기타레져업소","category":"leisure"},{"name":"루키아 골프연구소","tel":"02-582-7788","addr":"경기도 용인시 기흥구 서천동 335-2번지 우서빌딩 304호","indutype":"레저업소 - 골프연습장","category":"leisure"}]},{"lat":"37.245134744","long":"127.07891349","imageIndex":13,"items":[{"name":"경희요가필라테스교육센터","tel":"031-201-3623","addr":"경기도 용인시 기흥구 서천동 1번지 경희대학교 B1층 B105호","indutype":"레저업소 - 헬스클럽","category":"leisure"}]},{"lat":"37.244627396","long":"127.06847647","imageIndex":13,"items":[{"name":"골프존파크 서천 우진스크린","tel":"031-273-0770","addr":"경기도 용인시 기흥구 서천동 360번지 305호","indutype":"레저업소 - 스크린골프","category":"leisure"}]},{"lat":"37.247100207","long":"127.07699941","imageIndex":13,"items":[{"name":"궁노래연습장(서천점)","tel":"031-202-6536","addr":"경기도 용인시 기흥구 서천동 7-3번지 3층","indutype":"레저업소 - 노 래 방","category":"leisure"}]},{"lat":"37.237047298","long":"127.07269593","imageIndex":13,"items":[{"name":"라이온피씨용인서천점","tel":"031-302-1471","addr":"경기도 용인시 기흥구 서천동 813번지 원희캐슬 201호","indutype":"레저업소 - 기타레져업소","category":"leisure"},{"name":"메디 필라테스 랩","tel":"031-202-6682","addr":"경기도 용인시 기흥구 서천동 813번지 원희캐슬 5층 504호","indutype":"레저업소 - 헬스클럽","category":"leisure"},{"name":"스타노래연습장","tel":"031-203-0101","addr":"경기도 용인시 기흥구 서천동 813번지 원희캐슬 2층 206호","indutype":"레저업소 - 노 래 방","category":"leisure"},{"name":"프레리키즈카페 서천마을점","tel":"031-205-6611","addr":"경기도 용인시 기흥구 서천동 813번지 원희캐슬 3층","indutype":"레저업소 - 기타레져업소","category":"leisure"}]},{"lat":"37.236714095","long":"127.07239135","imageIndex":13,"items":[{"name":"아이엔지(ING) 필라테스 서천점","tel":"031-206-0025","addr":"경기도 용인시 기흥구 서천동 814번지 에스비타운 704,705호","indutype":"레저업소 - 헬스클럽","category":"leisure"},{"name":"지엠피씨(GMPC)","tel":"","addr":"경기도 용인시 기흥구 서천동 814번지 504호","indutype":"레저업소 - 기타레져업소","category":"leisure"},{"name":"킹노래연습장","tel":"031-205-7208","addr":"경기도 용인시 기흥구 서천동 814번지 에스비타운 301호","indutype":"레저업소 - 노 래 방","category":"leisure"},{"name":"타이혼 복싱 킥복싱","tel":"031-205-7989","addr":"경기도 용인시 기흥구 서천동 814번지 604호","indutype":"레저업소 - 헬스클럽","category":"leisure"},{"name":"패밀리 PT하우스","tel":"031-206-6636","addr":"경기도 용인시 기흥구 서천동 814번지 서천에스비타운 505호","indutype":"레저업소 - 헬스클럽","category":"leisure"},{"name":"홀인원골프","tel":"031-205-1231","addr":"경기도 용인시 기흥구 서천동 814번지 701호","indutype":"레저업소 - 골프연습장","category":"leisure"}]},{"lat":"37.242212153","long":"127.06933091","imageIndex":13,"items":[{"name":"아이픽","tel":"031-206-0700","addr":"경기도 용인시 기흥구 서천동 401-2번지 외2필지","indutype":"레저업소 - 헬스클럽","category":"leisure"}]},{"lat":"37.246766896","long":"127.07688638","imageIndex":13,"items":[{"name":"이에스씨(ESC)당구클럽","tel":"031-203-7588","addr":"경기도 용인시 기흥구 서천동 7번지 한가족빌딩 4층","indutype":"레저업소 - 당 구 장","category":"leisure"},{"name":"케이스타PC","tel":"070-3505-5281","addr":"경기도 용인시 기흥구 서천동 7번지 서윤빌딩 지하 1층 B01호,B02호","indutype":"레저업소 - 기타레져업소","category":"leisure"}]},{"lat":"37.236911399","long":"127.07394671","imageIndex":13,"items":[{"name":"짐오브캐슬","tel":"031-203-8999","addr":"경기도 용인시 기흥구 서천동 807번지 원희캐슬서천2 7층 701~705호","indutype":"레저업소 - 헬스클럽","category":"leisure"}]},{"lat":"37.241210688","long":"127.07164039","imageIndex":13,"items":[{"name":"캡틴FC","tel":"031-204-3636","addr":"경기도 용인시 기흥구 서천동 274-3번지","indutype":"레저업소 - 기타레져업소","category":"leisure"}]},{"lat":"37.245134744","long":"127.07891349","imageIndex":8,"items":[{"name":"경희대학교국제캠퍼스","tel":"031-201-3624","addr":"경기도 용인시 기흥구 서천동 1번지","indutype":"약국 - 한약방","category":"medical"}]},{"lat":"37.243655701","long":"127.0658609","imageIndex":8,"items":[{"name":"다사랑약국","tel":"031-205-0635","addr":"경기도 용인시 기흥구 서천동 368번지 천일프라자 103호","indutype":"약국 - 약국","category":"medical"},{"name":"미래의원","tel":"031-223-7547","addr":"경기도 용인시 기흥구 서천동 368번지 천일프라자","indutype":"의원 - 의원","category":"medical"},{"name":"현치과의원","tel":"031-202-1215","addr":"경기도 용인시 기흥구 서천동 368번지 천일프라자 201호","indutype":"의원 - 치과의원","category":"medical"},{"name":"현치과의원","tel":"031-202-1215","addr":"경기도 용인시 기흥구 서천동 368번지 천일프라자 201호","indutype":"의원 - 치과의원","category":"medical"},{"name":"현치과의원","tel":"031-202-1215","addr":"경기도 용인시 기흥구 서천동 368번지 천일프라자 201호","indutype":"병원 - 치과병원","category":"medical"},{"name":"현치과의원","tel":"031-202-1215","addr":"경기도 용인시 기흥구 서천동 368-1 천일프라자 201","indutype":"의원 - 치과의원","category":"medical"}]},{"lat":"37.236714095","long":"127.07239135","imageIndex":8,"items":[{"name":"다솜약국","tel":"031-273-0033","addr":"경기도 용인시 기흥구 서천동 814번지 에스비상가109,110호","indutype":"약국 - 약국","category":"medical"},{"name":"상쾌한이비인후과의원","tel":"031-278-2828","addr":"경기도 용인시 기흥구 서천동 814번지 서천에스비타운 304호","indutype":"의원 - 의원","category":"medical"},{"name":"서천경희한의원","tel":"031-204-7582","addr":"경기도 용인시 기흥구 서천동 814번지 에스비타운 402호","indutype":"의원 - 한의원","category":"medical"},{"name":"서천프라임치과","tel":"031-204-1675","addr":"경기도 용인시 기흥구 서천동 814번지 에스비타운 404호","indutype":"의원 - 치과의원","category":"medical"},{"name":"연세뉴키즈소아청소년과의원","tel":"031-273-8253","addr":"경기도 용인시 기흥구 서천동 814번지 에스비타운 403호","indutype":"의원 - 의원","category":"medical"},{"name":"유앤미동물병원","tel":"031-235-0075","addr":"경기도 용인시 기흥구 서천동 814번지 에스비타운 105호","indutype":"기타의료기관 - 동물병원","category":"medical"}]},{"lat":"37.237047298","long":"127.07269593","imageIndex":8,"items":[{"name":"박하치과의원","tel":"031-203-2275","addr":"경기도 용인시 기흥구 서천동 813번지 서천원희캐슬 상가 403동 404호","indutype":"의원 - 치과의원","category":"medical"},{"name":"해담한의원","tel":"031-206-1775","addr":"경기도 용인시 기흥구 서천동 813번지 원희캐슬 306호","indutype":"의원 - 한의원","category":"medical"}]},{"lat":"37.240434444","long":"127.07393874","imageIndex":8,"items":[{"name":"봄동물병원","tel":"031-203-4727","addr":"경기도 용인시 기흥구 서천동 730-2번지","indutype":"기타의료기관 - 동물병원","category":"medical"}]},{"lat":"37.24379945","long":"127.06663868","imageIndex":8,"items":[{"name":"성모다솜의원","tel":"031-204-3033","addr":"경기도 용인시 기흥구 서천동 366번지 외4필지 2층 201호","indutype":"의원 - 의원","category":"medical"},{"name":"예원한의원","tel":"031-206-1275","addr":"경기도 용인시 기흥구 서천동 366번지 2층202,202-1호","indutype":"의원 - 한의원","category":"medical"},{"name":"이플러스넷치과의원","tel":"031-203-2872","addr":"경기도 용인시 기흥구 서천동 366번지 상가건물 2층 203호","indutype":"의원 - 치과의원","category":"medical"},{"name":"천사약국","tel":"031-202-6824","addr":"경기도 용인시 기흥구 서천동 366번지 1층 101-3호","indutype":"약국 - 약국","category":"medical"}]},{"lat":"37.238174489","long":"127.07115304","imageIndex":7,"items":[{"name":"두배로행복마트","tel":"031-202-6588","addr":"경기도 용인시 기흥구 서천동 743번지 서천마을휴먼시아제 상가동 102호","indutype":"유통업 영리 - 슈퍼마켓","category":"mart"}]},{"lat":"37.246381537","long":"127.07347095","imageIndex":7,"items":[{"name":"반품마트","tel":"031-284-4115","addr":"경기도 용인시 기흥구 서천동 320-9번지 토지및건물","indutype":"유통업 영리 - 슈퍼마켓","category":"mart"}]}]