[{"lat":"37.295213853","long":"127.63227407","imageIndex":13,"items":[{"name":"D.J물류","tel":"031-4245-2461","addr":"경기도 여주시 창동 140-1번지","indutype":"보건위생 - 기타대인서비스","category":"beauty"}]},{"lat":"37.296332681","long":"127.63367059","imageIndex":13,"items":[{"name":"ForYou헤어샵","tel":"031-885-7982","addr":"경기도 여주시 창동 97-8번지","indutype":"보건위생 - 미용원","category":"beauty"},{"name":"피부홀릭","tel":"031-883-1368","addr":"경기도 여주시 창동 97-8번지","indutype":"보건위생 - 피부미용실","category":"beauty"}]},{"lat":"37.293519311","long":"127.63408693","imageIndex":13,"items":[{"name":"J.M헤어","tel":"","addr":"경기도 여주시 창동 157-4번지","indutype":"보건위생 - 미용원","category":"beauty"}]},{"lat":"37.297741067","long":"127.63483274","imageIndex":13,"items":[{"name":"O' Thank you 헤어","tel":"031-885-1599","addr":"경기도 여주시 창동 69-1번지 1층","indutype":"보건위생 - 미용원","category":"beauty"}]},{"lat":"37.296020457","long":"127.63477323","imageIndex":13,"items":[{"name":"S&B언어심리센터","tel":"031-881-1706","addr":"경기도 여주시 창동 122번지 해성학원 2층","indutype":"보건위생 - 기타대인서비스","category":"beauty"}]},{"lat":"37.29557839","long":"127.63319062","imageIndex":13,"items":[{"name":"unique(유니크)","tel":"031-886-1224","addr":"경기도 여주시 창동 138-2번지","indutype":"보건위생 - 미용원","category":"beauty"},{"name":"아레테헤어","tel":"031-886-3472","addr":"경기도 여주시 창동 138-2번지","indutype":"보건위생 - 미용원","category":"beauty"}]},{"lat":"37.294411127","long":"127.6358086","imageIndex":13,"items":[{"name":"가르마 헤어","tel":"031-881-0016","addr":"경기도 여주시 창동 153-1번지","indutype":"보건위생 - 미용원","category":"beauty"}]},{"lat":"37.297352627","long":"127.63502122","imageIndex":13,"items":[{"name":"구피샵","tel":"031-886-6991","addr":"경기도 여주시 창동 68번지 여주중앙프라자 1층 108호","indutype":"보건위생 - 화장품","category":"beauty"},{"name":"미즈헤어","tel":"031-886-2861","addr":"경기도 여주시 창동 68번지 여주중앙프라자 1층 105호","indutype":"보건위생 - 미용원","category":"beauty"},{"name":"쎄리하우스","tel":"031-883-6660","addr":"경기도 여주시 창동 68번지 여주중앙프라자 111호","indutype":"보건위생 - 미용원","category":"beauty"},{"name":"중앙R&D","tel":"031-886-4524","addr":"경기도 여주시 창동 68번지","indutype":"보건위생 - 사우나","category":"beauty"}]},{"lat":"37.2949435048","long":"127.6339747745","imageIndex":13,"items":[{"name":"그린헤어샵","tel":"031-883-5162","addr":"경기도 여주시 창동 146-25번지","indutype":"보건위생 - 미용원","category":"beauty"}]},{"lat":"37.291910348","long":"127.63505462","imageIndex":13,"items":[{"name":"글라스스토리","tel":"031-886-5150","addr":"경기도 여주시 창동 159-38번지","indutype":"보건위생 - 안경","category":"beauty"}]},{"lat":"37.296915943","long":"127.63580703","imageIndex":13,"items":[{"name":"김피부에스테틱","tel":"031-885-9391","addr":"경기도 여주시 창동 50-4번지","indutype":"보건위생 - 피부미용실","category":"beauty"}]},{"lat":"37.296993082","long":"127.63486031","imageIndex":13,"items":[{"name":"네이처리퍼블릭 여주점","tel":"031-886-5585","addr":"경기도 여주시 창동 64-3번지","indutype":"보건위생 - 화장품","category":"beauty"}]},{"lat":"37.294133454","long":"127.63550178","imageIndex":13,"items":[{"name":"대명","tel":"031-881-5446","addr":"경기도 여주시 창동 148-10번지","indutype":"보건위생 - 미용재료","category":"beauty"},{"name":"대명","tel":"031-308-3365","addr":"경기도 여주시 창동 148-10번지","indutype":"보건위생 - 기타대인서비스","category":"beauty"}]},{"lat":"37.293826522","long":"127.63561199","imageIndex":13,"items":[{"name":"도연중국전통마사지","tel":"031-886-1668","addr":"경기도 여주시 창동 148-18번지 4층","indutype":"보건위생 - 기타대인서비스","category":"beauty"}]},{"lat":"37.296107018","long":"127.63374766","imageIndex":13,"items":[{"name":"르네셀","tel":"031-8051-5788","addr":"경기도 여주시 창동 98-1번지","indutype":"보건위생 - 화장품","category":"beauty"}]},{"lat":"37.295470805","long":"127.63477991","imageIndex":13,"items":[{"name":"마녀손톱","tel":"031-883-4470","addr":"경기도 여주시 창동 131-23번지","indutype":"보건위생 - 피부미용실","category":"beauty"},{"name":"조이천헤어살롱","tel":"031-886-3923","addr":"경기도 여주시 창동 131-23번지","indutype":"보건위생 - 미용원","category":"beauty"}]},{"lat":"37.294608943","long":"127.63419754","imageIndex":13,"items":[{"name":"머릿결사랑염색방","tel":"031-111-1111","addr":"경기도 여주시 창동 146-7번지","indutype":"보건위생 - 미용원","category":"beauty"}]},{"lat":"37.295277465","long":"127.63386479","imageIndex":13,"items":[{"name":"문희경헤어클럽","tel":"031-881-3599","addr":"경기도 여주시 창동 137번지","indutype":"보건위생 - 미용원","category":"beauty"}]},{"lat":"37.293970255","long":"127.63569213","imageIndex":13,"items":[{"name":"바비헤어","tel":"031-884-0558","addr":"경기도 여주시 창동 148-16번지","indutype":"보건위생 - 미용원","category":"beauty"}]},{"lat":"37.296998357","long":"127.6355596","imageIndex":13,"items":[{"name":"밝은안경","tel":"031-886-7841","addr":"경기도 여주시 창동 56-3번지","indutype":"보건위생 - 안경","category":"beauty"},{"name":"보브헤어클리닉","tel":"031-884-0825","addr":"경기도 여주시 창동 56-3번지","indutype":"보건위생 - 미용원","category":"beauty"},{"name":"위드미용실","tel":"031-883-8986","addr":"경기도 여주시 창동 56-3번지 2층","indutype":"보건위생 - 미용원","category":"beauty"}]},{"lat":"37.295525653","long":"127.63294207","imageIndex":13,"items":[{"name":"뷰트리","tel":"","addr":"경기도 여주시 창동 138번지 1층","indutype":"보건위생 - 화장품","category":"beauty"},{"name":"조만선헤어샵","tel":"031-886-2012","addr":"경기도 여주시 창동 138번지","indutype":"보건위생 - 미용원","category":"beauty"}]},{"lat":"37.296992781","long":"127.6349167","imageIndex":13,"items":[{"name":"살롱드 머뭄","tel":"031-881-2233","addr":"경기도 여주시 창동 250-1번지 2층","indutype":"보건위생 - 미용원","category":"beauty"}]},{"lat":"37.297077997","long":"127.63583095","imageIndex":13,"items":[{"name":"삼성디(D)-클리닉","tel":"031-881-1236","addr":"경기도 여주시 창동 50-4번지","indutype":"보건위생 - 기타대인서비스","category":"beauty"}]},{"lat":"37.294825657","long":"127.63410912","imageIndex":13,"items":[{"name":"석미용실","tel":"031-883-8104","addr":"경기도 여주시 창동 146-2번지","indutype":"보건위생 - 미용원","category":"beauty"}]},{"lat":"37.295465526","long":"127.63408064","imageIndex":13,"items":[{"name":"시티보이헤어클럽","tel":"031-886-9009","addr":"경기도 여주시 창동 133-4번지","indutype":"보건위생 - 미용원","category":"beauty"}]},{"lat":"37.29763253","long":"127.63491078","imageIndex":13,"items":[{"name":"아리따움화장품(ARITAUM)","tel":"031-886-1176","addr":"경기도 여주시 창동 69-1번지","indutype":"보건위생 - 화장품","category":"beauty"}]},{"lat":"37.29671984","long":"127.63541066","imageIndex":13,"items":[{"name":"아이펠마르여주점","tel":"031-884-2466","addr":"경기도 여주시 창동 54번지","indutype":"보건위생 - 미용원","category":"beauty"}]},{"lat":"37.297048164","long":"127.63466905","imageIndex":13,"items":[{"name":"에뛰드하우스여주점","tel":"031-884-7945","addr":"경기도 여주시 창동 65-2번지","indutype":"보건위생 - 화장품","category":"beauty"}]},{"lat":"37.29794341","long":"127.63574797","imageIndex":13,"items":[{"name":"유진헤어","tel":"031-885-2707","addr":"경기도 여주시 창동 38-2번지","indutype":"보건위생 - 미용원","category":"beauty"}]},{"lat":"37.29488415","long":"127.63158338","imageIndex":13,"items":[{"name":"은성할인코너","tel":"031-883-3400","addr":"경기도 여주시 창동 141번지","indutype":"보건위생 - 화장품","category":"beauty"}]},{"lat":"37.294496553","long":"127.63499732","imageIndex":13,"items":[{"name":"이양순헤어샵","tel":"031-885-4179","addr":"경기도 여주시 창동 147-23번지","indutype":"보건위생 - 미용원","category":"beauty"}]},{"lat":"37.290548804","long":"127.63186306","imageIndex":13,"items":[{"name":"족욕카페힐링스카이","tel":"","addr":"경기도 여주시 창동 192번지 2층","indutype":"보건위생 - 기타대인서비스","category":"beauty"}]},{"lat":"37.297910806","long":"127.63510484","imageIndex":13,"items":[{"name":"진미머리방","tel":"031-883-0798","addr":"경기도 여주시 창동 24-1번지","indutype":"보건위생 - 미용원","category":"beauty"}]},{"lat":"37.292633111","long":"127.63468851","imageIndex":13,"items":[{"name":"창안목욕탕","tel":"031-885-9249","addr":"경기도 여주시 창동 159-3번지","indutype":"보건위생 - 사우나","category":"beauty"}]},{"lat":"37.291856892","long":"127.6349414","imageIndex":13,"items":[{"name":"컷트클럽","tel":"031-886-1254","addr":"경기도 여주시 창동 159-39번지","indutype":"보건위생 - 미용원","category":"beauty"}]},{"lat":"37.296381447","long":"127.63466347","imageIndex":13,"items":[{"name":"플러스헤어","tel":"031-886-5525","addr":"경기도 여주시 창동 87-6번지","indutype":"보건위생 - 미용원","category":"beauty"}]},{"lat":"37.296384575","long":"127.63407704","imageIndex":13,"items":[{"name":"핑크케이(Pink.K)","tel":"031-111-1111","addr":"경기도 여주시 창동 96-1번지 현광보습학원 1층 2호","indutype":"보건위생 - 피부미용실","category":"beauty"}]},{"lat":"37.292306173","long":"127.63517071","imageIndex":13,"items":[{"name":"현 헤어","tel":"031-886-7083","addr":"경기도 여주시 창동 159-9번지 2층","indutype":"보건위생 - 미용원","category":"beauty"}]}]