[{"lat":"37.90186056","long":"127.2072691","imageIndex":17,"items":[{"name":"(주)영운전기공사","tel":"031-535-1209","addr":"경기도 포천시 신읍동 13-30번지","indutype":"용역 서비스 - 기타용역서비스","category":"other"},{"name":"영운전기공사","tel":"031-535-1209","addr":"경기도 포천시 신읍동 13-30번지 1층","indutype":"용역 서비스 - 기타용역서비스","category":"other"}]},{"lat":"37.899500801","long":"127.20161187","imageIndex":17,"items":[{"name":"(주)올컴코리아","tel":"031-536-4989","addr":"경기도 포천시 신읍동 178-23번지","indutype":"기타 - 기타 전문점","category":"other"}]},{"lat":"37.89913301","long":"127.20066721","imageIndex":17,"items":[{"name":"(주)진구전기공사","tel":"031-535-2622","addr":"경기도 포천시 신읍동 167-37번지 2호","indutype":"전기제품 - 기타전기제품","category":"other"}]},{"lat":"37.8952765","long":"127.19555222","imageIndex":17,"items":[{"name":"(주)퍼스트골드","tel":"031-1111-1111","addr":"경기도 포천시 신읍동 114-29번지 2층 202호","indutype":"용역 서비스 - 사무서비스","category":"other"},{"name":"주식회사 그린케어텍","tel":"031-1111-1111","addr":"경기도 포천시 신읍동 114-29번지 3층 307호","indutype":"용역 서비스 - 사무서비스","category":"other"},{"name":"퍼스트 휘트니스","tel":"031-8080-3100","addr":"경기도 포천시 신읍동 114-29번지 5층","indutype":"레져용품 - 스포츠·레져용품","category":"other"},{"name":"퍼스트휘트니스","tel":"","addr":"경기도 포천시 신읍동 114-29번지","indutype":"서비스 - 체력단련","category":"other"}]},{"lat":"37.897022619","long":"127.19658","imageIndex":17,"items":[{"name":"(주)포프라자","tel":"031-533-7111","addr":"경기도 포천시 신읍동 142-5번지","indutype":"서적문구 - 출판 및 인쇄물","category":"other"},{"name":"영진철물","tel":"031-532-9019","addr":"경기도 포천시 신읍동 142-5번지","indutype":"건축자재 - 목재·석재·철물","category":"other"}]},{"lat":"37.897911213","long":"127.20393832","imageIndex":17,"items":[{"name":"(주)한남투어","tel":"031-535-7445","addr":"경기도 포천시 신읍동 193-4번지","indutype":"여행 - 관광여행","category":"other"}]},{"lat":"37.89760608","long":"127.20324396","imageIndex":17,"items":[{"name":"1001안경 콘텍트 포천점","tel":"533-3830","addr":"경기도 포천시 신읍동 43-42번지","indutype":"소매업 - 안경점","category":"other"}]},{"lat":"37.894500658","long":"127.19618685","imageIndex":17,"items":[{"name":"153군장점","tel":"031-111-1111","addr":"경기도 포천시 신읍동 114-30번지","indutype":"신변잡화 - 기념품점","category":"other"}]},{"lat":"37.89361223","long":"127.19404721","imageIndex":17,"items":[{"name":"A클래스","tel":"535-2124","addr":"경기도 포천시 신읍동 697-1번지 극동1차스타클래스아파트 201동 108호","indutype":"교육서비스 - 교육","category":"other"},{"name":"홍가네 전기상사","tel":"031-535-0825","addr":"경기도 포천시 신읍동 697-1번지 극동1차스타클래스 201동 906호","indutype":"전기제품 - 기타전기제품","category":"other"}]},{"lat":"37.896472418","long":"127.20235409","imageIndex":17,"items":[{"name":"BYC 포천점","tel":"532-8216","addr":"경기도 포천시 신읍동 40-8번지","indutype":"소매업 - 의류","category":"other"}]},{"lat":"37.896555231","long":"127.20133109","imageIndex":17,"items":[{"name":"CU포천신읍점","tel":"535-2104","addr":"경기도 포천시 신읍동 48-7번지","indutype":"편의점 - 편의점","category":"other"}]},{"lat":"37.89689094","long":"127.19446498","imageIndex":17,"items":[{"name":"CU포천신읍점","tel":"533-7158","addr":"경기도 포천시 신읍동 295-1번지","indutype":"편의점 - 잡화","category":"other"},{"name":"모두정육점","tel":"531-6392","addr":"경기도 포천시 신읍동 295-1번지","indutype":"도소매 - 축산물","category":"other"},{"name":"씨유포천신읍점","tel":"031-533-7158","addr":"경기도 포천시 신읍동 295-1번지","indutype":"유통업 영리 - 편 의 점","category":"other"}]},{"lat":"37.89060661","long":"127.19741581","imageIndex":17,"items":[{"name":"CU포천중앙로점","tel":"","addr":"경기도 포천시 신읍동 376-15번지","indutype":"소매업 - 편의점","category":"other"},{"name":"기룡인테리어","tel":"031-531-0163","addr":"경기도 포천시 신읍동 376-15번지","indutype":"직물 - 카페트,커튼,천막,지물","category":"other"},{"name":"씨유포천중앙로점","tel":"031-534-2528","addr":"경기도 포천시 신읍동 376-15번지","indutype":"유통업 영리 - 편 의 점","category":"other"}]},{"lat":"37.895969725","long":"127.20127267","imageIndex":17,"items":[{"name":"GMGP","tel":"031-535-2071","addr":"경기도 포천시 신읍동 52-7번지","indutype":"사무통신 - 컴퓨터","category":"other"},{"name":"뚜루뚜루","tel":"031-535-0825","addr":"경기도 포천시 신읍동 52-7번지","indutype":"의류 - 정장","category":"other"}]},{"lat":"37.895606004","long":"127.20324991","imageIndex":17,"items":[{"name":"GS25신읍본점","tel":"031-535-4143","addr":"경기도 포천시 신읍동 28-34번지 1층일부","indutype":"편의점 - 편의점","category":"other"},{"name":"GS25신읍본점","tel":"080-555-2525","addr":"경기도 포천시 신읍동 28-34번지 1층 일부","indutype":"유통업 영리 - 편 의 점","category":"other"},{"name":"GS25신읍본점","tel":"535-4143","addr":"경기도 포천시 신읍동 28-34번지","indutype":"편의점 - 잡화","category":"other"},{"name":"마홀 ART company","tel":"031-531-2999","addr":"경기도 포천시 신읍동 28-34번지 남도빌딩 2층","indutype":"문화.취미 - 티켓","category":"other"},{"name":"사회복지법인 포천시사회복지협의회","tel":"031-531-0268","addr":"경기도 포천시 신읍동 28-34번지 2층","indutype":"서적문구 - 완구점","category":"other"},{"name":"총각네푸줏간","tel":"536-8987","addr":"경기도 포천시 신읍동 28-34번지","indutype":"도소매 - 축산물","category":"other"}]},{"lat":"37.895250379","long":"127.20044081","imageIndex":17,"items":[{"name":"GS25포천시청점","tel":"","addr":"경기도 포천시 신읍동 59-1번지","indutype":"유통업 영리 - 편 의 점","category":"other"},{"name":"GS25포천시청점","tel":"031-531-2575","addr":"경기도 포천시 신읍동 59-1번지","indutype":"편의점 - 편의점","category":"other"}]},{"lat":"37.893140482","long":"127.19604687","imageIndex":17,"items":[{"name":"GS25포천원모루점","tel":"031-531-7355","addr":"경기도 포천시 신읍동 92-5번지 1층","indutype":"편의점 - 편의점","category":"other"},{"name":"GS25포천원모루점","tel":"","addr":"경기도 포천시 신읍동 92-5번지 1층","indutype":"유통업 영리 - 편 의 점","category":"other"}]},{"lat":"37.900191506","long":"127.2033874","imageIndex":17,"items":[{"name":"GS25포천원앙로점","tel":"","addr":"경기도 포천시 신읍동 186-7번지","indutype":"유통업 영리 - 편 의 점","category":"other"},{"name":"GS25포천원앙로점","tel":"031-532-7250","addr":"경기도 포천시 신읍동 186-7번지","indutype":"편의점 - 편의점","category":"other"}]},{"lat":"37.895556289","long":"127.19524598","imageIndex":17,"items":[{"name":"G스윙","tel":"031-534-3100","addr":"경기도 포천시 신읍동 114-8번지 3층","indutype":"레져용품 - 골프용품 전문점","category":"other"},{"name":"에이스스크린골프클럽","tel":"031-534-3100","addr":"경기도 포천시 신읍동 114-8번지","indutype":"회원제형태 - 레져업소","category":"other"}]},{"lat":"37.892666607","long":"127.19382876","imageIndex":17,"items":[{"name":"J핑크 편의점","tel":"031-536-0840","addr":"경기도 포천시 신읍동 94-19번지","indutype":"유통업 영리 - 편 의 점","category":"other"},{"name":"세븐일레븐 포천제이핑크점","tel":"031-1577-0711","addr":"경기도 포천시 신읍동 94-19번지","indutype":"유통업 영리 - 편 의 점","category":"other"}]},{"lat":"37.899665935","long":"127.20515965","imageIndex":17,"items":[{"name":"LG포천프라자","tel":"534-8181","addr":"경기도 포천시 신읍동 202-34번지","indutype":"소매업 - 가전제품","category":"other"}]},{"lat":"37.897137075","long":"127.20354966","imageIndex":17,"items":[{"name":"M뷰티","tel":"","addr":"경기도 포천시 신읍동 42-14번지","indutype":"회원제형태 - 기타4","category":"other"}]},{"lat":"37.895140503","long":"127.19607483","imageIndex":17,"items":[{"name":"OK노래연습장","tel":"535-0006","addr":"경기도 포천시 신읍동 112-4","indutype":"서비스 - 노래연습장","category":"other"}]},{"lat":"37.899138312","long":"127.20286155","imageIndex":17,"items":[{"name":"PC닥터클리닉","tel":"070-5803-5279","addr":"경기도 포천시 신읍동 191-9번지","indutype":"수리서비스 - 사무·통신기기수리","category":"other"}]},{"lat":"37.89802257","long":"127.20202856","imageIndex":17,"items":[{"name":"SD광고기획","tel":"031-535-0918","addr":"경기도 포천시 신읍동 172-20번지","indutype":"건축자재 - 인테리어전문","category":"other"}]},{"lat":"37.897799734","long":"127.20060679","imageIndex":17,"items":[{"name":"SH텔레콤","tel":"031-532-5900","addr":"경기도 포천시 신읍동 46-35번지","indutype":"사무통신 - 통신기기","category":"other"},{"name":"영경유리","tel":"535-2171","addr":"경기도 포천시 신읍동 46-35","indutype":"소매업 - 유리.액자","category":"other"},{"name":"한지공방카페나들","tel":"031-532-0783","addr":"경기도 포천시 신읍동 46-35번지 2층","indutype":"문화.취미 - 문화취미기타","category":"other"}]},{"lat":"37.895383835","long":"127.20144164","imageIndex":17,"items":[{"name":"SK스마트포천점","tel":"031-535-4286","addr":"경기도 포천시 신읍동 34-5","indutype":"의류 - 단체복","category":"other"},{"name":"그리고","tel":"","addr":"경기도 포천시 신읍동 34-5번지","indutype":"도소매 - 의류","category":"other"},{"name":"그리고...","tel":"031-534-7101","addr":"경기도 포천시 신읍동 34-5번지","indutype":"의류 - 정장","category":"other"},{"name":"떡고을","tel":"536-5766","addr":"경기도 포천시 신읍동 34-5번지 1층","indutype":"제조업 - 떡집","category":"other"},{"name":"허칼라스튜디오","tel":"031-535-7474","addr":"경기도 포천시 신읍동 34-5","indutype":"광학제품 - 사진관","category":"other"}]},{"lat":"37.900138359","long":"127.20285288","imageIndex":17,"items":[{"name":"TINK포천점","tel":"535-8262","addr":"경기도 포천시 신읍동 187-30번지","indutype":"도소매 - 컴퓨터주변기기외","category":"other"},{"name":"TINK포천점","tel":"031-535-8262","addr":"경기도 포천시 신읍동 187-30번지","indutype":"사무통신 - 컴퓨터","category":"other"},{"name":"유럽십자수","tel":"031-536-5207","addr":"경기도 포천시 신읍동 187-30번지","indutype":"직물 - 침구·수예점","category":"other"},{"name":"유럽십자수","tel":"536-5207","addr":"경기도 포천시 신읍동 187-30","indutype":"소매업 - 십자수","category":"other"}]},{"lat":"37.897696037","long":"127.20332379","imageIndex":17,"items":[{"name":"The Fiower뷰티샵","tel":"031-542-3552","addr":"경기도 포천시 신읍동 43-5번지","indutype":"회원제형태 - 기타4","category":"other"},{"name":"안경박사(포천)","tel":"535-3577","addr":"경기도 포천시 신읍동 43-5번지","indutype":"소매업 - 안경점","category":"other"}]},{"lat":"37.9005291","long":"127.20616255","imageIndex":17,"items":[{"name":"V.N.S","tel":"031-536-1122","addr":"경기도 포천시 신읍동 13-24번지 지하1층","indutype":"사무통신 - 사무용 OA기기","category":"other"},{"name":"마드모아젤","tel":"031-531-1680","addr":"경기도 포천시 신읍동 13-24번지","indutype":"의류 - 정장","category":"other"},{"name":"성진통신","tel":"031-535-7017","addr":"경기도 포천시 신읍동 13-24번지","indutype":"사무통신 - 통신기기","category":"other"},{"name":"성진통신","tel":"535-7017","addr":"경기도 포천시 신읍동 13-24번지","indutype":"도소매 - 핸드폰","category":"other"},{"name":"아이디커뮤니티","tel":"","addr":"경기도 포천시 신읍동 13-24번지 2층","indutype":"용역 서비스 - 사무서비스","category":"other"}]},{"lat":"37.897605266","long":"127.20372147","imageIndex":17,"items":[{"name":"WS유통","tel":"031-000-0000","addr":"경기도 포천시 신읍동 42-9번지","indutype":"의류 - 정장","category":"other"}]},{"lat":"37.902799923","long":"127.20588454","imageIndex":17,"items":[{"name":"cu포천신읍가나안점","tel":"","addr":"경기도 포천시 신읍동 210-17번지 102호","indutype":"소매업 - 편의점","category":"other"},{"name":"㈜케미더블유푸드","tel":"535-6609","addr":"경기도 포천시 신읍동 210-17번지 102호","indutype":"축산물판매업 - 식육판매업","category":"other"},{"name":"씨유포천신읍가나안점","tel":"031-533-2221","addr":"경기도 포천시 신읍동 210-17번지 1층","indutype":"유통업 영리 - 편 의 점","category":"other"}]},{"lat":"37.900944311","long":"127.20041055","imageIndex":17,"items":[{"name":"js공인중개사무소","tel":"533-8873","addr":"경기도 포천시 신읍동 161-6번지","indutype":"부동산 - 부동산중개업","category":"other"},{"name":"뉴VIP상조 (뉴브이아이피상조)","tel":"031-847-4422","addr":"경기도 포천시 신읍동 161-6번지","indutype":"용역 서비스 - 가례서비스업","category":"other"},{"name":"천사애견","tel":"031-532-3548","addr":"경기도 포천시 신읍동 161-6번지","indutype":"문화.취미 - 애완동물","category":"other"},{"name":"청하남","tel":"031-535-5557","addr":"경기도 포천시 신읍동 161-6번지","indutype":"용역 서비스 - 종합용역","category":"other"}]},{"lat":"37.896498791","long":"127.20274072","imageIndex":17,"items":[{"name":"美인shop","tel":"-","addr":"경기도 포천시 신읍동 41-2번지","indutype":"소매업 - 잡화","category":"other"},{"name":"레노마키즈","tel":"534-9903","addr":"경기도 포천시 신읍동 41-2번지","indutype":"소매업 - 의류","category":"other"},{"name":"리트머스 포천점","tel":"533-1685","addr":"경기도 포천시 신읍동 41-2번지","indutype":"소매업 - 의류","category":"other"},{"name":"리트머스포천점2","tel":"031-533-1685","addr":"경기도 포천시 신읍동 41-2번지","indutype":"의류 - 정장","category":"other"},{"name":"미인샵","tel":"031-535-0825","addr":"경기도 포천시 신읍동 41-2번지","indutype":"신변잡화 - 기타잡화","category":"other"},{"name":"미인샾","tel":"","addr":"경기도 포천시 신읍동 41-2번지","indutype":"소매업 - 잡화","category":"other"},{"name":"신정보통신","tel":"031-534-8016","addr":"경기도 포천시 신읍동 41-2번지","indutype":"사무통신 - 통신기기","category":"other"},{"name":"쥬비드","tel":"031-535-5211","addr":"경기도 포천시 신읍동 41-2번지","indutype":"의류 - 정장","category":"other"}]},{"lat":"37.899382045","long":"127.20257797","imageIndex":17,"items":[{"name":"가람문구","tel":"031-536-2120","addr":"경기도 포천시 신읍동 189-27번지","indutype":"서적문구 - 문구용품","category":"other"},{"name":"가람문구","tel":"535-1133","addr":"경기도 포천시 신읍동 189-27번지","indutype":"소매업 - 문구","category":"other"}]},{"lat":"37.892998194","long":"127.20035521","imageIndex":17,"items":[{"name":"가우건축사사무소","tel":"031-533-7254","addr":"경기도 포천시 신읍동 65-7번지 (1호)","indutype":"용역 서비스 - 사무서비스","category":"other"}]},{"lat":"37.898886477","long":"127.20261074","imageIndex":17,"items":[{"name":"간이슈퍼","tel":"533-2518","addr":"경기도 포천시 신읍동 175-15번지","indutype":"소매업 - 잡화","category":"other"}]},{"lat":"37.894555308","long":"127.20124614","imageIndex":17,"items":[{"name":"강산스포츠","tel":"536-8883","addr":"경기도 포천시 신읍동 33-14번지","indutype":"소매업 - 스포츠","category":"other"},{"name":"강산스포츠","tel":"031-536-8883","addr":"경기도 포천시 신읍동 33-14번지","indutype":"레져용품 - 스포츠·레져용품","category":"other"},{"name":"건축사사무소하랑","tel":"031-544-0454","addr":"경기도 포천시 신읍동 33-14번지","indutype":"용역 서비스 - 사무서비스","category":"other"},{"name":"우석측량설계공사","tel":"031-536-3500","addr":"경기도 포천시 신읍동 33-14번지","indutype":"기타 - 기타 전문점","category":"other"}]},{"lat":"37.898805298","long":"127.20266736","imageIndex":17,"items":[{"name":"강원전자","tel":"031-535-2065","addr":"경기도 포천시 신읍동 175-17번지","indutype":"수리서비스 - 가정용품수리","category":"other"}]},{"lat":"37.898576575","long":"127.20471325","imageIndex":17,"items":[{"name":"개이뻐","tel":"031-531-3188","addr":"경기도 포천시 신읍동 197-5번지","indutype":"문화.취미 - 애완동물","category":"other"},{"name":"쥬비드","tel":"535-5211","addr":"경기도 포천시 신읍동 197-5번지","indutype":"소매업 - 의류","category":"other"}]},{"lat":"37.894801685","long":"127.1993823","imageIndex":17,"items":[{"name":"건축사사무소 림","tel":"031-532-9256","addr":"경기도 포천시 신읍동 126-10번지 1층","indutype":"용역 서비스 - 사무서비스","category":"other"}]},{"lat":"37.893413649","long":"127.19974241","imageIndex":17,"items":[{"name":"건축사사무소가인","tel":"031-531-8214","addr":"경기도 포천시 신읍동 72-1번지","indutype":"용역 서비스 - 사무서비스","category":"other"},{"name":"경기측량설계공사","tel":"031-535-8822","addr":"경기도 포천시 신읍동 72-1번지 2층","indutype":"용역 서비스 - 사무서비스","category":"other"},{"name":"경일측량설계공사","tel":"031-535-9010","addr":"경기도 포천시 신읍동 72-1번지","indutype":"용역 서비스 - 기타용역서비스","category":"other"},{"name":"법무법인 다음 포천 사무소","tel":"031-535-5757","addr":"경기도 포천시 신읍동 72-1번지 F층","indutype":"용역 서비스 - 법률회계서비스(법인)","category":"other"}]},{"lat":"37.889887554","long":"127.19639078","imageIndex":17,"items":[{"name":"건축사사무소영인","tel":"031-535-001","addr":"경기도 포천시 신읍동 376-2번지 혜성빌딩 2층","indutype":"용역 서비스 - 사무서비스","category":"other"},{"name":"대성환경","tel":"031-534-7733","addr":"경기도 포천시 신읍동 376-2번지 해성빌딩 1층","indutype":"신변잡화 - 기타잡화","category":"other"},{"name":"티업스크린골프","tel":"536-0753","addr":"경기도 포천시 신읍동 376-2번지 3층","indutype":"서비스 - 골프연습장","category":"other"},{"name":"푸른세무회계사무소","tel":"031-533-1800","addr":"경기도 포천시 신읍동 376-2번지 해성빌딩 1층","indutype":"용역 서비스 - 법률회계서비스(개인)","category":"other"}]},{"lat":"37.894141436","long":"127.20091533","imageIndex":17,"items":[{"name":"건축사사무소예지건축","tel":"031-536-9800","addr":"경기도 포천시 신읍동 33-7번지","indutype":"용역 서비스 - 법률회계서비스(개인)","category":"other"},{"name":"양호식법무사사무소","tel":"031-536-8277","addr":"경기도 포천시 신읍동 33-7번지","indutype":"용역 서비스 - 법률회계서비스(개인)","category":"other"}]},{"lat":"37.898777246","long":"127.20326987","imageIndex":17,"items":[{"name":"건축사사무소우창건축","tel":"031-534-2153","addr":"경기도 포천시 신읍동 191-47번지","indutype":"용역 서비스 - 법률회계서비스(개인)","category":"other"},{"name":"국일지물포","tel":"031-535-1148","addr":"경기도 포천시 신읍동 191-47번지 1층","indutype":"직물 - 카페트,커튼,천막,지물","category":"other"},{"name":"씨유포천중앙점","tel":"031-536-4423","addr":"경기도 포천시 신읍동 191-47번지","indutype":"유통업 영리 - 편 의 점","category":"other"}]},{"lat":"37.893079735","long":"127.20008258","imageIndex":17,"items":[{"name":"건축사사무소정인","tel":"031-535-8295","addr":"경기도 포천시 신읍동 65-10번지","indutype":"용역 서비스 - 법률회계서비스(개인)","category":"other"}]},{"lat":"37.899356287","long":"127.2018275","imageIndex":17,"items":[{"name":"경동설비","tel":"031-534-6456","addr":"경기도 포천시 신읍동 178-25번지","indutype":"건축자재 - 보일러·펌프·샷시","category":"other"},{"name":"경동설비","tel":"532-9800","addr":"경기도 포천시 신읍동 178-25번지","indutype":"서비스 - 일반기계장비술","category":"other"}]},{"lat":"37.897635883","long":"127.20160686","imageIndex":17,"items":[{"name":"계림상회","tel":"535-2806","addr":"경기도 포천시 신읍동 171-23번지","indutype":"소매업 - 잡화","category":"other"},{"name":"계림상회","tel":"031-535-2806","addr":"경기도 포천시 신읍동 171-23번지","indutype":"직물 - 옷감·직물","category":"other"}]},{"lat":"37.902580197","long":"127.2026662","imageIndex":17,"items":[{"name":"계명대승리k-타이거즈","tel":"536-5402","addr":"경기도 포천시 신읍동 223-3번지 1층","indutype":"교육서비스 - 태권도장","category":"other"},{"name":"씨유포천행복점","tel":"031-536-5562","addr":"경기도 포천시 신읍동 223-3,224-2","indutype":"유통업 영리 - 편 의 점","category":"other"},{"name":"포천CU행복점","tel":"536-5562","addr":"경기도 포천시 신읍동 223-3번지","indutype":"편의점 - 잡화","category":"other"}]},{"lat":"37.895777856","long":"127.20285246","imageIndex":17,"items":[{"name":"고구려복싱클럽","tel":"536-8038","addr":"경기도 포천시 신읍동 27-19번지 4층","indutype":"교육서비스 - 복싱","category":"other"},{"name":"고구려복싱클럽","tel":"031-536-8038","addr":"경기도 포천시 신읍동 27-19번지 4층","indutype":"회원제형태 - 레져업소","category":"other"},{"name":"한국의류","tel":"536-8770","addr":"경기도 포천시 신읍동 27-19번지","indutype":"소매업 - 의류","category":"other"},{"name":"한국의류","tel":"031-536-8770","addr":"경기도 포천시 신읍동 27-19번지","indutype":"의류 - 정장","category":"other"}]},{"lat":"37.899942274","long":"127.20160169","imageIndex":17,"items":[{"name":"고려유리","tel":"031-535-2706","addr":"경기도 포천시 신읍동 178-13번지","indutype":"건축자재 - 유리","category":"other"},{"name":"명성공인중개사무소","tel":"534-6700","addr":"경기도 포천시 신읍동 178-13","indutype":"부동산 - 부동산중개업","category":"other"},{"name":"포천의료기상사","tel":"534-0050","addr":"경기도 포천시 신읍동 178-13번지","indutype":"도소매 - 의료기","category":"other"}]},{"lat":"37.895940457","long":"127.19721383","imageIndex":17,"items":[{"name":"고바우문구","tel":"","addr":"경기도 포천시 신읍동 131-16","indutype":"소매업 - 문구","category":"other"}]},{"lat":"37.895832158","long":"127.19732724","imageIndex":17,"items":[{"name":"고바우상회","tel":"031-534-1890","addr":"경기도 포천시 신읍동 123-4번지","indutype":"서적문구 - 문구용품","category":"other"}]},{"lat":"37.900025271","long":"127.20046494","imageIndex":17,"items":[{"name":"골드점","tel":"-","addr":"경기도 포천시 신읍동 167-1번지","indutype":"서비스 - 스포츠","category":"other"},{"name":"골드짐","tel":"031-533-5366","addr":"경기도 포천시 신읍동 167-1번지","indutype":"회원제형태 - 레져업소","category":"other"}]},{"lat":"37.895716487","long":"127.20185181","imageIndex":17,"items":[{"name":"골든메인","tel":"031-535-3242","addr":"경기도 포천시 신읍동 35-14번지 4층","indutype":"회원제형태 - 레져업소","category":"other"},{"name":"랜드로바 포천점","tel":"532-7745","addr":"경기도 포천시 신읍동 35-14번지","indutype":"소매업 - 생활","category":"other"},{"name":"랜드로바포천점","tel":"031-532-7745","addr":"경기도 포천시 신읍동 35-14번지 외1필지","indutype":"레져용품 - 스포츠·레져용품","category":"other"},{"name":"미르건축사사무소","tel":"031-536-1328","addr":"경기도 포천시 신읍동 35-14번지","indutype":"용역 서비스 - 기타용역서비스","category":"other"},{"name":"스킨다빈스뷰티샵","tel":"031-533-3393","addr":"경기도 포천시 신읍동 35-14번지","indutype":"회원제형태 - 기타4","category":"other"}]},{"lat":"37.902553641","long":"127.20763486","imageIndex":17,"items":[{"name":"골든지물장식","tel":"031-536-6793","addr":"경기도 포천시 신읍동 6-2번지","indutype":"직물 - 카페트,커튼,천막,지물","category":"other"}]},{"lat":"37.89474677","long":"127.19443668","imageIndex":17,"items":[{"name":"공룡나라어린이집","tel":"535-8593","addr":"경기도 포천시 신읍동 116-19번지","indutype":"교육서비스 - 어린이집","category":"other"}]},{"lat":"37.896997432","long":"127.20088888","imageIndex":17,"items":[{"name":"공장직영신발","tel":"031-535-9264","addr":"경기도 포천시 신읍동 47-11번지","indutype":"신변잡화 - 신발","category":"other"},{"name":"마이아가","tel":"070-8822-4867","addr":"경기도 포천시 신읍동 47-11번지","indutype":"의류 - 아동의류","category":"other"}]},{"lat":"37.89821985","long":"127.20257483","imageIndex":17,"items":[{"name":"광명세탁소","tel":"031-535-5251","addr":"경기도 포천시 신읍동 174-9번지","indutype":"수리서비스 - 세탁소","category":"other"},{"name":"광명세탁소","tel":"535-5251","addr":"경기도 포천시 신읍동 174-9","indutype":"서비스 - 세탁소","category":"other"}]},{"lat":"37.895550004","long":"127.19905459","imageIndex":17,"items":[{"name":"광호","tel":"031-536-0405","addr":"경기도 포천시 신읍동 127-7번지","indutype":"서적문구 - 문구용품","category":"other"}]},{"lat":"37.901275669","long":"127.20685817","imageIndex":17,"items":[{"name":"군내오토바이","tel":"536-5795","addr":"경기도 포천시 신읍동 13-18","indutype":"서비스 - 수리.판매","category":"other"}]},{"lat":"37.891550436","long":"127.19871429","imageIndex":17,"items":[{"name":"귀빈세탁소","tel":"031-531-6695","addr":"경기도 포천시 신읍동 70번지","indutype":"수리서비스 - 세탁소","category":"other"},{"name":"대박광고","tel":"","addr":"경기도 포천시 신읍동 70번지 1층 7호","indutype":"서적문구 - 출판 및 인쇄물","category":"other"},{"name":"스피드디지털인쇄","tel":"031-531-1777","addr":"경기도 포천시 신읍동 70번지","indutype":"서적문구 - 출판 및 인쇄물","category":"other"},{"name":"혜민기획","tel":"031-531-8777","addr":"경기도 포천시 신읍동 70번지","indutype":"서적문구 - 출판 및 인쇄물","category":"other"}]},{"lat":"37.903804335","long":"127.20332898","imageIndex":17,"items":[{"name":"귀족","tel":"031-535-0011","addr":"경기도 포천시 신읍동 225-3번지 왕방빌딩","indutype":"가구 - 일반가구","category":"other"},{"name":"이미지플러스","tel":"031-533-2800","addr":"경기도 포천시 신읍동 225-3번지","indutype":"용역 서비스 - 종합용역","category":"other"}]},{"lat":"37.899333256","long":"127.20477217","imageIndex":17,"items":[{"name":"귀족세탁","tel":"031-532-7739","addr":"경기도 포천시 신읍동 201-20번지","indutype":"수리서비스 - 세탁소","category":"other"},{"name":"귀족세탁","tel":"536-8778","addr":"경기도 포천시 신읍동 201-20","indutype":"서비스 - 세탁소","category":"other"}]},{"lat":"37.89393879","long":"127.19267243","imageIndex":17,"items":[{"name":"금빛냉동","tel":"031-534-0905","addr":"경기도 포천시 신읍동 700번지 휴먼시아 104동 604호","indutype":"용역 서비스 - 기타용역서비스","category":"other"}]},{"lat":"37.891272394","long":"127.19796324","imageIndex":17,"items":[{"name":"금화설비","tel":"031-533-2970","addr":"경기도 포천시 신읍동 81-9번지 대덕빌딩","indutype":"건축자재 - 보일러·펌프·샷시","category":"other"},{"name":"두리광고","tel":"534-3814","addr":"경기도 포천시 신읍동 81-9번지","indutype":"제조업 - 간판및 광고물","category":"other"}]},{"lat":"37.893358699","long":"127.20027659","imageIndex":17,"items":[{"name":"김성기법무사","tel":"031-535-2837","addr":"경기도 포천시 신읍동 65-1","indutype":"용역 서비스 - 법률회계서비스(개인)","category":"other"},{"name":"예공 건축사사무소","tel":"031-536-6600","addr":"경기도 포천시 신읍동 65-1 나동2층","indutype":"용역 서비스 - 사무서비스","category":"other"},{"name":"합동토지측량설계공사","tel":"031-536-8600","addr":"경기도 포천시 신읍동 65-1","indutype":"용역 서비스 - 기타용역서비스","category":"other"},{"name":"해동기술공사","tel":"031-535-0037","addr":"경기도 포천시 신읍동 65-1","indutype":"용역 서비스 - 사무서비스","category":"other"}]},{"lat":"37.889805066","long":"127.19724318","imageIndex":17,"items":[{"name":"김욱환공인행정사사무소","tel":"","addr":"경기도 포천시 신읍동 394-14번지","indutype":"용역 서비스 - 법률회계서비스(개인)","category":"other"},{"name":"김형석법무사사무소","tel":"031-534-8271","addr":"경기도 포천시 신읍동 394-14번지 395동 8호","indutype":"용역 서비스 - 법률회계서비스(개인)","category":"other"},{"name":"동아건축사사무소","tel":"031-531-8843","addr":"경기도 포천시 신읍동 394-14번지 2층","indutype":"용역 서비스 - 사무서비스","category":"other"},{"name":"포천라이온스클럽","tel":"031-536-0206","addr":"경기도 포천시 신읍동 394-14번지","indutype":"기타 - 비영리/비대상","category":"other"}]},{"lat":"37.896134354","long":"127.1998065","imageIndex":17,"items":[{"name":"꽃민들레","tel":"031-536-3933","addr":"경기도 포천시 신읍동 51-19번지","indutype":"문화.취미 - 화원","category":"other"},{"name":"꽃민들레","tel":"536-3933","addr":"경기도 포천시 신읍동 51-19번지","indutype":"소매업 - 꽃,생화","category":"other"},{"name":"슈가&앙꼬","tel":"","addr":"경기도 포천시 신읍동 51-19번지","indutype":"소매업 - 공방","category":"other"},{"name":"슈가&앙꼬","tel":"031-531-3038","addr":"경기도 포천시 신읍동 51-19번지","indutype":"문화.취미 - 문화취미기타","category":"other"}]},{"lat":"37.901492855","long":"127.20630164","imageIndex":17,"items":[{"name":"꽃사랑","tel":"031-535-7763","addr":"경기도 포천시 신읍동 11-2번지","indutype":"문화.취미 - 화원","category":"other"}]},{"lat":"37.896465617","long":"127.20104662","imageIndex":17,"items":[{"name":"꾸오레안경","tel":"531-0655","addr":"경기도 포천시 신읍동 48-18번지","indutype":"소매업 - 안경점","category":"other"}]},{"lat":"37.896913776","long":"127.20241213","imageIndex":17,"items":[{"name":"나나플로라","tel":"-","addr":"경기도 포천시 신읍동 43-25번지","indutype":"소매업 - 꽃,생화","category":"other"},{"name":"이쁜남자","tel":"","addr":"경기도 포천시 신읍동 43-25번지","indutype":"소매업 - 의류","category":"other"}]},{"lat":"37.900636346","long":"127.20666312","imageIndex":17,"items":[{"name":"나라광고","tel":"031-535-0481","addr":"경기도 포천시 신읍동 202-4번지","indutype":"용역 서비스 - 종합용역","category":"other"},{"name":"대성정보통신","tel":"031-536-5982","addr":"경기도 포천시 신읍동 202-4번지","indutype":"사무통신 - 컴퓨터","category":"other"},{"name":"어택존","tel":"031-123-4567","addr":"경기도 포천시 신읍동 202-4번지 2층","indutype":"신변잡화 - 기념품점","category":"other"},{"name":"오딧세이","tel":"031-536-4697","addr":"경기도 포천시 신읍동 202-4번지","indutype":"의류 - 기타의류","category":"other"},{"name":"컴퓨터프라자(대성정보통신)","tel":"536-5982","addr":"경기도 포천시 신읍동 202-4","indutype":"도소매 - 컴퓨터.주변기기","category":"other"}]},{"lat":"37.893660961","long":"127.19729879","imageIndex":17,"items":[{"name":"나래특수","tel":"","addr":"경기도 포천시 신읍동 104-5번지 공원빌라 101동 305호","indutype":"용역 서비스 - 가례서비스업","category":"other"}]},{"lat":"37.892467812","long":"127.19419204","imageIndex":17,"items":[{"name":"나무미술","tel":"534-6318","addr":"경기도 포천시 신읍동 94-5번지","indutype":"서비스 - 교육","category":"other"}]},{"lat":"37.894691083","long":"127.195437","imageIndex":17,"items":[{"name":"나인기획","tel":"","addr":"경기도 포천시 신읍동 114-11번지 2층","indutype":"용역 서비스 - 종합용역","category":"other"}]},{"lat":"37.900029533","long":"127.20327327","imageIndex":17,"items":[{"name":"남곡부동산공인중개사무소","tel":"532-4924","addr":"경기도 포천시 신읍동 186-12번지","indutype":"부동산 - 부동산중개업","category":"other"}]},{"lat":"37.896556727","long":"127.19499846","imageIndex":17,"items":[{"name":"남매떡방앗간","tel":"534-3377","addr":"경기도 포천시 신읍동 119-5번지","indutype":"제조업 - 떡집","category":"other"}]},{"lat":"37.897552063","long":"127.20322107","imageIndex":17,"items":[{"name":"네이처컬렉션","tel":"","addr":"경기도 포천시 신읍동 43-31번지","indutype":"소매업 - 화장품","category":"other"},{"name":"보떼포천터미널","tel":"070-8823-8733","addr":"경기도 포천시 신읍동 43-31번지","indutype":"소매업 - 화장품 등","category":"other"}]},{"lat":"37.897830032","long":"127.20399495","imageIndex":17,"items":[{"name":"논노패션","tel":"031-000-0000","addr":"경기도 포천시 신읍동 193-10번지","indutype":"의류 - 정장","category":"other"}]},{"lat":"37.896774867","long":"127.19929659","imageIndex":17,"items":[{"name":"농업회사법인주식회사 드림앤드림","tel":"031-533-2200","addr":"경기도 포천시 신읍동 136-7번지","indutype":"농업 - 기타농업관련","category":"other"}]},{"lat":"37.89422229","long":"127.20105198","imageIndex":17,"items":[{"name":"누리기획","tel":"533-8016","addr":"경기도 포천시 신읍동 33-36","indutype":"제조업 - 간판및 광고물","category":"other"},{"name":"누리기획","tel":"031-533-8016","addr":"경기도 포천시 신읍동 33-36번지","indutype":"용역 서비스 - 종합용역","category":"other"},{"name":"제일측량설계공사","tel":"031-535-9019","addr":"경기도 포천시 신읍동 33-36","indutype":"기타 - 기타 전문점","category":"other"},{"name":"제일측량설계공사","tel":"031-535-9020","addr":"경기도 포천시 신읍동 33-36","indutype":"용역 서비스 - 사무서비스","category":"other"}]},{"lat":"37.897470224","long":"127.20366426","imageIndex":17,"items":[{"name":"다모아가방","tel":"031-531-2854","addr":"경기도 포천시 신읍동 42-10번지 42-2","indutype":"신변잡화 - 가방","category":"other"},{"name":"모퉁이옷방","tel":"031-534-6070","addr":"경기도 포천시 신읍동 42-10번지 1층","indutype":"의류 - 정장","category":"other"}]},{"lat":"37.896696666","long":"127.20293453","imageIndex":17,"items":[{"name":"다모아텔레콤 (신읍점)","tel":"031-8080-4070","addr":"경기도 포천시 신읍동 41-1번지","indutype":"사무통신 - 통신기기","category":"other"}]},{"lat":"37.900583367","long":"127.20075067","imageIndex":17,"items":[{"name":"다원세무회계사무소","tel":"031-535-4837","addr":"경기도 포천시 신읍동 161-8번지","indutype":"용역 서비스 - 법률회계서비스(개인)","category":"other"}]},{"lat":"37.902354368","long":"127.20824829","imageIndex":17,"items":[{"name":"대건엔지니어링","tel":"031-535-2740","addr":"경기도 포천시 신읍동 3-15번지","indutype":"용역 서비스 - 기타용역서비스","category":"other"}]},{"lat":"37.893664379","long":"127.19521832","imageIndex":17,"items":[{"name":"대단솔루션","tel":"031-531-7713","addr":"경기도 포천시 신읍동 95-3번지 극동 상가 101호","indutype":"수리서비스 - 세탁소","category":"other"},{"name":"세탁을 위한 사람들","tel":"031-531-7713","addr":"경기도 포천시 신읍동 95-3번지 1층","indutype":"수리서비스 - 세탁소","category":"other"},{"name":"씨유포천극동점","tel":"031-531-6725","addr":"경기도 포천시 신읍동 95-3번지","indutype":"유통업 영리 - 편 의 점","category":"other"},{"name":"챔프솔루션","tel":"070-4204-9114","addr":"경기도 포천시 신읍동 95-3번지 1층 101호","indutype":"전기제품 - 기타전기제품","category":"other"}]},{"lat":"37.893196818","long":"127.20010563","imageIndex":17,"items":[{"name":"대동측량토목설계공사","tel":"031-535-0539","addr":"경기도 포천시 신읍동 65-9번지","indutype":"건축자재 - 부동산 분양","category":"other"},{"name":"하나컴퓨터","tel":"533-1190","addr":"경기도 포천시 신읍동 65-9","indutype":"도소매 - 컴퓨터주변기기외","category":"other"},{"name":"하나컴퓨터","tel":"031-533-1190","addr":"경기도 포천시 신읍동 65-9번지","indutype":"사무통신 - 컴퓨터","category":"other"}]},{"lat":"37.894967061","long":"127.20282753","imageIndex":17,"items":[{"name":"대성공구철물상회","tel":"031-533-7760","addr":"경기도 포천시 신읍동 30-6번지","indutype":"기타 - 기계공구","category":"other"},{"name":"러브하우스인테리어","tel":"031-532-6052","addr":"경기도 포천시 신읍동 30-6번지","indutype":"건축자재 - 인테리어전문","category":"other"},{"name":"신비크리닝","tel":"031-536-2241","addr":"경기도 포천시 신읍동 30-6번지","indutype":"용역 서비스 - 종합용역","category":"other"}]},{"lat":"37.898334842","long":"127.20382578","imageIndex":17,"items":[{"name":"대성철물점","tel":"031-534-6800","addr":"경기도 포천시 신읍동 191-31번지","indutype":"건축자재 - 목재·석재·철물","category":"other"},{"name":"써니정보통신(주)/특별할부","tel":"031-531-2016","addr":"경기도 포천시 신읍동 191-31번지","indutype":"사무통신 - 통신기기(무이자할부)","category":"other"},{"name":"프로월드컵포천점","tel":"031-532-7678","addr":"경기도 포천시 신읍동 191-31번지","indutype":"레져용품 - 스포츠·레져용품","category":"other"}]},{"lat":"37.902470442","long":"127.20363236","imageIndex":17,"items":[{"name":"대승빌딩","tel":"031-535-1663","addr":"경기도 포천시 신읍동 216-12번지","indutype":"용역 서비스 - 부동산 중개·임대","category":"other"}]},{"lat":"37.899139353","long":"127.20224759","imageIndex":17,"items":[{"name":"대영사","tel":"031-535-3039","addr":"경기도 포천시 신읍동 189-7","indutype":"신변잡화 - 귀금속","category":"other"},{"name":"주연광고","tel":"031-535-7048","addr":"경기도 포천시 신읍동 189-7번지","indutype":"용역 서비스 - 종합용역","category":"other"}]},{"lat":"37.896057703","long":"127.20252351","imageIndex":17,"items":[{"name":"대원사","tel":"031-534-4567","addr":"경기도 포천시 신읍동 27-12번지","indutype":"수리서비스 - 세탁소","category":"other"},{"name":"버디텔레콤","tel":"535-4477","addr":"경기도 포천시 신읍동 27-12번지","indutype":"소매업 - 이동통신.담배","category":"other"},{"name":"빨간여우","tel":"533-9600","addr":"경기도 포천시 신읍동 27-12번지","indutype":"소매업 - 의류","category":"other"},{"name":"빨간여우","tel":"031-535-0825","addr":"경기도 포천시 신읍동 27-12번지 1층","indutype":"의류 - 정장","category":"other"}]},{"lat":"37.895305438","long":"127.19438128","imageIndex":17,"items":[{"name":"대한드론교육원","tel":"031-534-3628","addr":"경기도 포천시 신읍동 116-36번지 2층 202호","indutype":"서적문구 - 완구점","category":"other"}]},{"lat":"37.897945732","long":"127.20482523","imageIndex":17,"items":[{"name":"대한텔레콤","tel":"031-536-7577","addr":"경기도 포천시 신읍동 20-8번지","indutype":"사무통신 - 통신기기","category":"other"},{"name":"데이앤데이","tel":"070-8809-7299","addr":"경기도 포천시 신읍동 20-8번지 102호","indutype":"유통업 영리 - 편 의 점","category":"other"},{"name":"희망찬의료기","tel":"-","addr":"경기도 포천시 신읍동 20-8번지","indutype":"소매업 - 의료기","category":"other"}]},{"lat":"37.895940679","long":"127.20246635","imageIndex":17,"items":[{"name":"대흥당","tel":"031-535-2874","addr":"경기도 포천시 신읍동 27-2","indutype":"신변잡화 - 시계","category":"other"},{"name":"대흥당","tel":"031-535-2874","addr":"경기도 포천시 신읍동 27-2번지","indutype":"신변잡화 - 귀금속","category":"other"}]},{"lat":"37.897221457","long":"127.20160574","imageIndex":17,"items":[{"name":"댄스복전문","tel":"031-535-2953","addr":"경기도 포천시 신읍동 45-12","indutype":"의류 - 정장","category":"other"},{"name":"우리집반찬","tel":"534-2604","addr":"경기도 포천시 신읍동 45-12번지","indutype":"소매업 - 반찬","category":"other"},{"name":"은아패션","tel":"533-5399","addr":"경기도 포천시 신읍동 45-12번지","indutype":"소매업 - 의류","category":"other"},{"name":"은아패션","tel":"031-534-6070","addr":"경기도 포천시 신읍동 45-12번지","indutype":"의류 - 정장","category":"other"}]},{"lat":"37.897194889","long":"127.20133281","imageIndex":17,"items":[{"name":"댄스복전문점","tel":"","addr":"경기도 포천시 신읍동 45-8번지","indutype":"소매업 - 의류","category":"other"}]},{"lat":"37.889220699","long":"127.19649135","imageIndex":17,"items":[{"name":"댕댕이와 냥이","tel":"031-533-9998","addr":"경기도 포천시 신읍동 394-3번지","indutype":"문화.취미 - 애완동물","category":"other"},{"name":"댕댕이와냥이","tel":"533-9998","addr":"경기도 포천시 신읍동 394-3번지","indutype":"소매업 - 애견","category":"other"}]},{"lat":"37.892494211","long":"127.19457864","imageIndex":17,"items":[{"name":"더담고153아이스크림할인전문점","tel":"031-534-0277","addr":"경기도 포천시 신읍동 90-1번지","indutype":"소매업 - 아이스크림","category":"other"}]},{"lat":"37.89985558","long":"127.19957765","imageIndex":17,"items":[{"name":"덕흥상회","tel":"535-2948","addr":"경기도 포천시 신읍동 153-9번지","indutype":"도소매 - 자전거","category":"other"},{"name":"덕흥상회","tel":"031-535-2948","addr":"경기도 포천시 신읍동 153-9번지","indutype":"레져용품 - 스포츠·레져용품","category":"other"}]},{"lat":"37.899219164","long":"127.2029982","imageIndex":17,"items":[{"name":"도담도담산후도우미","tel":"544-9582","addr":"경기도 포천시 신읍동 191-63번지","indutype":"서비스 - 산호조리원","category":"other"}]},{"lat":"37.893549244","long":"127.19946992","imageIndex":17,"items":[{"name":"드림공인중개사무소","tel":"534-2500","addr":"경기도 포천시 신읍동 108-3번지","indutype":"부동산 - 부동산중개업","category":"other"},{"name":"디자인대진","tel":"541-1070","addr":"경기도 포천시 신읍동 108-3번지","indutype":"제조업 - 판촉,인쇄","category":"other"},{"name":"수목원가는길","tel":"031-541-2018","addr":"경기도 포천시 신읍동 108-3번지 1층","indutype":"서적문구 - 출판 및 인쇄물","category":"other"},{"name":"수목원가는길","tel":"031-541-2018","addr":"경기도 포천시 신읍동 108-3번지 1층","indutype":"서적문구 - 출판 및 인쇄물","category":"other"},{"name":"포천스티커인쇄명함나라","tel":"02-1577-1056","addr":"경기도 포천시 신읍동 108-3번지 1층 2호","indutype":"용역 서비스 - 종합용역","category":"other"}]},{"lat":"37.895166864","long":"127.20188444","imageIndex":17,"items":[{"name":"디어베이비","tel":"535-3181","addr":"경기도 포천시 신읍동 33-33번지","indutype":"소매업 - 의류","category":"other"}]},{"lat":"37.895248081","long":"127.20180508","imageIndex":17,"items":[{"name":"디어베이비포천","tel":"031-535-3181","addr":"경기도 포천시 신읍동 33-32번지","indutype":"의류 - 아동의류","category":"other"}]},{"lat":"37.8966075","long":"127.20238856","imageIndex":17,"items":[{"name":"뚜레쥬르 포천중앙점","tel":"532-0031","addr":"경기도 포천시 신읍동 41-4번지","indutype":"소매업 - 제빵","category":"other"}]},{"lat":"37.898747556","long":"127.20482742","imageIndex":17,"items":[{"name":"러브스타일","tel":"535-5335","addr":"경기도 포천시 신읍동 197-1번지","indutype":"도소매 - 아동복","category":"other"},{"name":"이화어패럴","tel":"533-3149","addr":"경기도 포천시 신읍동 197-1번지","indutype":"소매업 - 스포츠","category":"other"},{"name":"초원실내골프연습장","tel":"031-532-0233","addr":"경기도 포천시 신읍동 197-1번지 지층","indutype":"회원제형태 - 레져업소","category":"other"},{"name":"초원실내골프연습장","tel":"532-0233","addr":"경기도 포천시 신읍동 197-1번지","indutype":"서비스 - 골프연습장","category":"other"},{"name":"휠라포천점","tel":"031-533-3148","addr":"경기도 포천시 신읍동 197-1번지","indutype":"레져용품 - 스포츠·레져용품","category":"other"}]},{"lat":"37.897165476","long":"127.20274252","imageIndex":17,"items":[{"name":"러블리","tel":"031-532-1509","addr":"경기도 포천시 신읍동 43-4 한빛빌딩1층","indutype":"레져용품 - 스포츠·레져용품","category":"other"}]},{"lat":"37.898248897","long":"127.20138111","imageIndex":17,"items":[{"name":"럭스PC방(신읍동)","tel":"","addr":"경기도 포천시 신읍동 171-3번지 소매시장 202호","indutype":"수리서비스 - 사무·통신기기수리","category":"other"},{"name":"서원라이프","tel":"02-2231-1301","addr":"경기도 포천시 신읍동 171-3번지","indutype":"주방용구 - 주방용구","category":"other"}]},{"lat":"37.889697405","long":"127.19697006","imageIndex":17,"items":[{"name":"레이노 포천점","tel":"535-2296","addr":"경기도 포천시 신읍동 394-15번지","indutype":"소매업 - 카오디오수리","category":"other"},{"name":"포천봉우리 로타리클럽","tel":"031-534-1233","addr":"경기도 포천시 신읍동 394-15번지","indutype":"기타 - 비영리/비대상","category":"other"}]},{"lat":"37.897382585","long":"127.20222012","imageIndex":17,"items":[{"name":"레인보우통신","tel":"031-531-7011","addr":"경기도 포천시 신읍동 43-47번지","indutype":"사무통신 - 통신기기","category":"other"}]},{"lat":"37.892359963","long":"127.19950086","imageIndex":17,"items":[{"name":"로그인","tel":"533-8243","addr":"경기도 포천시 신읍동 71-1번지","indutype":"소매업 - 담배.핸드폰","category":"other"},{"name":"무지개인쇄사","tel":"031-535-0286","addr":"경기도 포천시 신읍동 71-1번지","indutype":"서적문구 - 출판 및 인쇄물","category":"other"},{"name":"무지개종합광고인쇄사","tel":"535-0286","addr":"경기도 포천시 신읍동 71-1번지","indutype":"제조업 - 판촉,인쇄","category":"other"},{"name":"예진꽃화원","tel":"031-535-3349","addr":"경기도 포천시 신읍동 71-1번지","indutype":"문화.취미 - 화원","category":"other"},{"name":"예진꽃화원","tel":"535-3349","addr":"경기도 포천시 신읍동 71-1번지","indutype":"소매업 - 꽃,생화","category":"other"}]},{"lat":"37.897385632","long":"127.20041241","imageIndex":17,"items":[{"name":"로또방","tel":"536-9681","addr":"경기도 포천시 신읍동 46-26번지","indutype":"소매업 - 음료.커피","category":"other"},{"name":"블라썸네일","tel":"","addr":"경기도 포천시 신읍동 46-26번지","indutype":"서비스 - 네일","category":"other"}]},{"lat":"37.896049445","long":"127.20208009","imageIndex":17,"items":[{"name":"르까프","tel":"031-535-0323","addr":"경기도 포천시 신읍동 36-2번지","indutype":"레져용품 - 스포츠·레져용품","category":"other"}]},{"lat":"37.895471483","long":"127.20288574","imageIndex":17,"items":[{"name":"르네셀","tel":"031-533-1005","addr":"경기도 포천시 신읍동 29-15번지 신도읍","indutype":"신변잡화 - 기타잡화","category":"other"}]},{"lat":"37.897049257","long":"127.18555189","imageIndex":17,"items":[{"name":"리빙공인중개사무소","tel":"533-2480","addr":"경기도 포천시 신읍동 515번지","indutype":"부동산 - 부동산중개업","category":"other"},{"name":"예원노블키즈어린이집","tel":"533-2700","addr":"경기도 포천시 신읍동 515번지","indutype":"교육서비스 - 어린이집","category":"other"}]},{"lat":"37.89649794","long":"127.20324096","imageIndex":17,"items":[{"name":"리플라워","tel":"031-535-1567","addr":"경기도 포천시 신읍동 23-4번지","indutype":"문화.취미 - 화원","category":"other"},{"name":"리플라워","tel":"535-1567","addr":"경기도 포천시 신읍동 23-4","indutype":"소매업 - 꽃,생화","category":"other"},{"name":"아이티세상","tel":"031-535-0590","addr":"경기도 포천시 신읍동 23-4번지","indutype":"사무통신 - 사무용 OA기기","category":"other"}]},{"lat":"37.896995245","long":"127.20218496","imageIndex":17,"items":[{"name":"마-루","tel":"031-534-6757","addr":"경기도 포천시 신읍동 43-37번지","indutype":"신변잡화 - 제화","category":"other"},{"name":"마루","tel":"-","addr":"경기도 포천시 신읍동 43-37번지","indutype":"소매업 - 의류","category":"other"},{"name":"원더우먼","tel":"031-534-4223","addr":"경기도 포천시 신읍동 43-37번지","indutype":"의류 - 기타의류","category":"other"},{"name":"유리구두","tel":"533-4472","addr":"경기도 포천시 신읍동 43-37번지","indutype":"도소매 - 신발","category":"other"},{"name":"유리구두","tel":"031-533-4472","addr":"경기도 포천시 신읍동 43-37번지","indutype":"신변잡화 - 신발","category":"other"}]},{"lat":"37.889912764","long":"127.19749356","imageIndex":17,"items":[{"name":"마홀OA","tel":"031-535-1305","addr":"경기도 포천시 신읍동 394-2번지 씨동","indutype":"사무통신 - 사무용 OA기기","category":"other"},{"name":"제이건축사사무소","tel":"031-533-4377","addr":"경기도 포천시 신읍동 394-2번지 C","indutype":"용역 서비스 - 사무서비스","category":"other"},{"name":"현대공인중개사사무소","tel":"532-7007","addr":"경기도 포천시 신읍동 394-2번지","indutype":"부동산 - 부동산중개업","category":"other"},{"name":"황금OA","tel":"031-536-4353","addr":"경기도 포천시 신읍동 394-2번지 씨동","indutype":"사무통신 - 사무용 OA기기","category":"other"}]},{"lat":"37.898632807","long":"127.20344002","imageIndex":17,"items":[{"name":"만능열쇠도장","tel":"533-8282","addr":"경기도 포천시 신읍동 191-20번지","indutype":"소매업 - 열쇠도장","category":"other"},{"name":"만능하우스","tel":"031-533-8282","addr":"경기도 포천시 신읍동 191-20번지","indutype":"전기제품 - 기타전기제품","category":"other"}]},{"lat":"37.898110986","long":"127.20301794","imageIndex":17,"items":[{"name":"만족기프트","tel":"","addr":"경기도 포천시 신읍동 175-33번지","indutype":"유통업 영리 - 기타유통업","category":"other"}]},{"lat":"37.897802616","long":"127.20422226","imageIndex":17,"items":[{"name":"만종원농자재백화점","tel":"534-2414","addr":"경기도 포천시 신읍동 22-5번지","indutype":"도소매 - 농약등","category":"other"}]},{"lat":"37.895635229","long":"127.19655363","imageIndex":17,"items":[{"name":"매일공인중개사무소","tel":"533-3000","addr":"경기도 포천시 신읍동 122-5번지","indutype":"부동산 - 부동산중개업","category":"other"}]},{"lat":"37.893479591","long":"127.19250072","imageIndex":17,"items":[{"name":"매일군장점","tel":"","addr":"경기도 포천시 신읍동 698번지 포천극동2차스타클래스아파트 104동 501호","indutype":"수리서비스 - 세탁소","category":"other"}]},{"lat":"37.896357085","long":"127.20129645","imageIndex":17,"items":[{"name":"매일당구","tel":"","addr":"경기도 포천시 신읍동 48-29번지 2층","indutype":"서비스 - 당구장","category":"other"}]},{"lat":"37.896194918","long":"127.20129602","imageIndex":17,"items":[{"name":"매일정육점","tel":"535-0900","addr":"경기도 포천시 신읍동 48-31번지 1층","indutype":"도소매 - 축산물","category":"other"}]},{"lat":"37.897081599","long":"127.19904728","imageIndex":17,"items":[{"name":"메이플라워","tel":"533-2778","addr":"경기도 포천시 신읍동 137-73번지","indutype":"소매업 - 꽃,생화","category":"other"}]},{"lat":"37.894438417","long":"127.2011094","imageIndex":17,"items":[{"name":"명건축사사무소","tel":"031-532-2134","addr":"경기도 포천시 신읍동 33-15번지","indutype":"용역 서비스 - 사무서비스","category":"other"},{"name":"재원건축사사무소","tel":"031-535-2750","addr":"경기도 포천시 신읍동 33-15번지","indutype":"용역 서비스 - 법률회계서비스(개인)","category":"other"}]},{"lat":"37.89254986","long":"127.19908073","imageIndex":17,"items":[{"name":"명공인중개사무소","tel":"533-3003","addr":"경기도 포천시 신읍동 75-4번지","indutype":"부동산 - 부동산중개업","category":"other"}]},{"lat":"37.895967935","long":"127.19694105","imageIndex":17,"items":[{"name":"명물유통(아이스크림할인점)","tel":"","addr":"경기도 포천시 신읍동 121-3번지","indutype":"도소매 - 빙과.음료","category":"other"},{"name":"소담","tel":"533-9327","addr":"경기도 포천시 신읍동 121-3번지","indutype":"소매업 - 반찬","category":"other"},{"name":"소풍엔 홈클래스","tel":"","addr":"경기도 포천시 신읍동 121-3번지 소풍엔홈클래스 1층 105호","indutype":"문화.취미 - 문화취미기타","category":"other"}]},{"lat":"37.8930808","long":"127.19944594","imageIndex":17,"items":[{"name":"명성측량엔지니어링","tel":"031-534-1015","addr":"경기도 포천시 신읍동 72-5","indutype":"용역 서비스 - 사무서비스","category":"other"},{"name":"포천건축사사무소","tel":"031-536-0090","addr":"경기도 포천시 신읍동 72-5번지 2층","indutype":"용역 서비스 - 사무서비스","category":"other"}]},{"lat":"37.888610247","long":"127.1951597","imageIndex":17,"items":[{"name":"명지산업개발(주)","tel":"031-544-7070","addr":"경기도 포천시 신읍동 384-6번지","indutype":"용역 서비스 - 종합용역","category":"other"},{"name":"에코측량설계공사","tel":"031-536-4241","addr":"경기도 포천시 신읍동 384-6번지 1층","indutype":"용역 서비스 - 사무서비스","category":"other"},{"name":"포천정보통신","tel":"031-534-8076","addr":"경기도 포천시 신읍동 384-6번지 1층","indutype":"사무통신 - 통신기기","category":"other"}]},{"lat":"37.892027189","long":"127.19915892","imageIndex":17,"items":[{"name":"명품공인중개사사무소","tel":"531-8838","addr":"경기도 포천시 신읍동 71-2번지","indutype":"부동산 - 부동산중개업","category":"other"},{"name":"스포츠샵","tel":"031-535-0988","addr":"경기도 포천시 신읍동 71-2번지 1층","indutype":"레져용품 - 스포츠·레져용품","category":"other"},{"name":"스포츠샾","tel":"535-0988","addr":"경기도 포천시 신읍동 71-2번지","indutype":"소매업 - 스포츠","category":"other"},{"name":"월로펌프㈜포천대리점","tel":"535-0460","addr":"경기도 포천시 신읍동 71-2","indutype":"도소매 - 모터 등","category":"other"},{"name":"윌로엘지점프","tel":"031-535-0460","addr":"경기도 포천시 신읍동 71-2번지","indutype":"건축자재 - 보일러·펌프·샷시","category":"other"},{"name":"제일종합사무기상사","tel":"031-535-5851","addr":"경기도 포천시 신읍동 71-2번지","indutype":"사무통신 - 사무용 OA기기","category":"other"}]},{"lat":"37.897166498","long":"127.20213995","imageIndex":17,"items":[{"name":"모란꽃방","tel":"535-2205","addr":"경기도 포천시 신읍동 43-29번지","indutype":"소매업 - 꽃,생화","category":"other"}]},{"lat":"37.897663294","long":"127.20137954","imageIndex":17,"items":[{"name":"모아주류뱅크 포천점","tel":"535-8908","addr":"경기도 포천시 신읍동 45-2","indutype":"소매업 - 주류","category":"other"}]},{"lat":"37.895581424","long":"127.20180598","imageIndex":17,"items":[{"name":"미성칼라","tel":"031-534-9435","addr":"경기도 포천시 신읍동 34-2번지","indutype":"광학제품 - 사진관","category":"other"},{"name":"포천미성사진관","tel":"534-9435","addr":"경기도 포천시 신읍동 34-2번지","indutype":"서비스 - 사진관","category":"other"}]},{"lat":"37.895887567","long":"127.20190912","imageIndex":17,"items":[{"name":"미센스","tel":"031-534-6588","addr":"경기도 포천시 신읍동 35-5번지","indutype":"레져용품 - 스포츠·레져용품","category":"other"},{"name":"예스","tel":"535-5422","addr":"경기도 포천시 신읍동 35-5번지","indutype":"소매업 - 의류","category":"other"},{"name":"예스포천점","tel":"031-535-5422","addr":"경기도 포천시 신읍동 35-5번지","indutype":"의류 - 내의판매","category":"other"},{"name":"포천고무상회","tel":"031-535-4362","addr":"경기도 포천시 신읍동 35-5번지","indutype":"신변잡화 - 신발","category":"other"},{"name":"포천고무상회","tel":"535-4362","addr":"경기도 포천시 신읍동 35-5번지","indutype":"소매업 - 잡화","category":"other"}]},{"lat":"37.896193555","long":"127.20210322","imageIndex":17,"items":[{"name":"바른손포천점","tel":"031-535-2059","addr":"경기도 포천시 신읍동 39-6번지","indutype":"서적문구 - 문구용품","category":"other"},{"name":"바른손포천점","tel":"535-2059","addr":"경기도 포천시 신읍동 39-6번지","indutype":"소매업 - 문구","category":"other"}]},{"lat":"37.896804584","long":"127.20304851","imageIndex":17,"items":[{"name":"박광배법무사사무소","tel":"031-535-4212","addr":"경기도 포천시 신읍동 42-23번지","indutype":"용역 서비스 - 법률회계서비스(개인)","category":"other"},{"name":"법무사 조광렬","tel":"031-535-4212","addr":"경기도 포천시 신읍동 42-23번지","indutype":"용역 서비스 - 법률회계서비스(개인)","category":"other"}]},{"lat":"37.89627458","long":"127.20213755","imageIndex":17,"items":[{"name":"백금사","tel":"031-535-2461","addr":"경기도 포천시 신읍동 39-5번지","indutype":"신변잡화 - 시계","category":"other"},{"name":"아리따움포천신읍점","tel":"532-1800","addr":"경기도 포천시 신읍동 39-5번지","indutype":"소매업 - 화장품 등","category":"other"}]},{"lat":"37.898999484","long":"127.20502139","imageIndex":17,"items":[{"name":"번영인쇄공사","tel":"031-536-0223","addr":"경기도 포천시 신읍동 201-3번지","indutype":"서적문구 - 출판 및 인쇄물","category":"other"}]},{"lat":"37.897857952","long":"127.20347203","imageIndex":17,"items":[{"name":"법무사 안민환 사무소","tel":"031-532-5990","addr":"경기도 포천시 신읍동 42-6번지","indutype":"용역 서비스 - 법률회계서비스(개인)","category":"other"},{"name":"베스킨라빈스","tel":"535-2069","addr":"경기도 포천시 신읍동 42-6번지","indutype":"소매업 - 아이스크림","category":"other"},{"name":"아이룩안경원","tel":"535-7752","addr":"경기도 포천시 신읍동 42-6번지","indutype":"소매업 - 안경점","category":"other"}]},{"lat":"37.893943385","long":"127.20082385","imageIndex":17,"items":[{"name":"법무사노경훈사무소","tel":"031-531-3078","addr":"경기도 포천시 신읍동 33-48 3층","indutype":"용역 서비스 - 법률회계서비스(개인)","category":"other"},{"name":"아름다운사진","tel":"535-5236","addr":"경기도 포천시 신읍동 33-48번지 2층","indutype":"서비스 - 사진관","category":"other"},{"name":"아름다운사진","tel":"031-535-5236","addr":"경기도 포천시 신읍동 33-48번지 2층","indutype":"광학제품 - 사진관","category":"other"}]},{"lat":"37.902633417","long":"127.20838551","imageIndex":17,"items":[{"name":"법무사신상철사무소","tel":"031-535-4488","addr":"경기도 포천시 신읍동 3-16번지","indutype":"용역 서비스 - 법률회계서비스(개인)","category":"other"}]},{"lat":"37.895247908","long":"127.2019074","imageIndex":17,"items":[{"name":"법무사이승호사무소","tel":"031-573-8234","addr":"경기도 포천시 신읍동 33-11번지","indutype":"용역 서비스 - 법률회계서비스(개인)","category":"other"},{"name":"스마트","tel":"535-4286","addr":"경기도 포천시 신읍동 33-11번지 2층","indutype":"도소매 - 교복","category":"other"},{"name":"천송이플라워'N","tel":"534-5544","addr":"경기도 포천시 신읍동 33-11번지","indutype":"도소매 - 꽃,생화","category":"other"},{"name":"천송이플라워'N","tel":"031-534-5544","addr":"경기도 포천시 신읍동 33-11번지","indutype":"문화.취미 - 화원","category":"other"}]},{"lat":"37.890552836","long":"127.19724514","imageIndex":17,"items":[{"name":"법무사임창학사무소","tel":"031-533-5690","addr":"경기도 포천시 신읍동 376-1번지","indutype":"용역 서비스 - 법률회계서비스(개인)","category":"other"},{"name":"탑측량설계사무실","tel":"031-531-9678","addr":"경기도 포천시 신읍동 376-1번지 1층 3호","indutype":"용역 서비스 - 사무서비스","category":"other"}]},{"lat":"37.897716966","long":"127.20160707","imageIndex":17,"items":[{"name":"베비라","tel":"031-533-8667","addr":"경기도 포천시 신읍동 171-11번지","indutype":"의류 - 정장","category":"other"}]},{"lat":"37.898640399","long":"127.20427002","imageIndex":17,"items":[{"name":"베스트텔레콤","tel":"031-536-3018","addr":"경기도 포천시 신읍동 192-36번지","indutype":"사무통신 - 통신기기","category":"other"},{"name":"애플큐어포천점","tel":"070-7420-4566","addr":"경기도 포천시 신읍동 192-36번지","indutype":"수리서비스 - 사무·통신기기수리","category":"other"},{"name":"애플큐어포천점","tel":"","addr":"경기도 포천시 신읍동 192-36번지","indutype":"서비스 - 휴대폰수리","category":"other"},{"name":"이삭","tel":"031-536-1321","addr":"경기도 포천시 신읍동 192-36번지 오르쎄","indutype":"의류 - 정장","category":"other"}]},{"lat":"37.898660976","long":"127.2027693","imageIndex":17,"items":[{"name":"보석장","tel":"031-535-5233","addr":"경기도 포천시 신읍동 175-20번지","indutype":"신변잡화 - 귀금속","category":"other"}]},{"lat":"37.895525828","long":"127.20271535","imageIndex":17,"items":[{"name":"복음자리가구","tel":"031-531-5883","addr":"경기도 포천시 신읍동 29-3번지","indutype":"주방용구 - 주방용구","category":"other"},{"name":"서진광고기획","tel":"031-536-1064","addr":"경기도 포천시 신읍동 29-3번지","indutype":"용역 서비스 - 종합용역","category":"other"},{"name":"선덕공인중개사사무소","tel":"534-1591","addr":"경기도 포천시 신읍동 29-3번지","indutype":"부동산 - 부동산중개업","category":"other"},{"name":"아남포천대리점성진전자","tel":"031-536-1600","addr":"경기도 포천시 신읍동 29-3번지","indutype":"전기제품 - 가전제품","category":"other"}]},{"lat":"37.90144062","long":"127.19993433","imageIndex":17,"items":[{"name":"복컨설팅","tel":"531-1300","addr":"경기도 포천시 신읍동 161-9번지","indutype":"부동산 - 부동산중개업","category":"other"}]},{"lat":"37.897166921","long":"127.20188983","imageIndex":17,"items":[{"name":"뷰티크레딧","tel":"533-1177","addr":"경기도 포천시 신읍동 44-9번지","indutype":"소매업 - 화장품 등","category":"other"}]},{"lat":"37.895527618","long":"127.20165803","imageIndex":17,"items":[{"name":"비버리힐즈","tel":"536-3387","addr":"경기도 포천시 신읍동 34-3번지","indutype":"소매업 - 의류","category":"other"},{"name":"비버리힐즈폴로클럽(포천점)","tel":"031-536-3387","addr":"경기도 포천시 신읍동 34-3번지","indutype":"레져용품 - 스포츠·레져용품","category":"other"},{"name":"올리비아로렌","tel":"031-536-7725","addr":"경기도 포천시 신읍동 34-3번지","indutype":"레져용품 - 스포츠·레져용품","category":"other"},{"name":"올리비아로렌 포천점","tel":"536-7725","addr":"경기도 포천시 신읍동 34-3번지","indutype":"소매업 - 의류","category":"other"}]},{"lat":"37.898306128","long":"127.18838599","imageIndex":17,"items":[{"name":"사계절","tel":"031-534-1566","addr":"경기도 포천시 신읍동 571-3번지 1층","indutype":"의류 - 정장","category":"other"}]},{"lat":"37.897914132","long":"127.20222155","imageIndex":17,"items":[{"name":"사계절양품","tel":"535-3034","addr":"경기도 포천시 신읍동 173-18번지","indutype":"소매업 - 의류","category":"other"},{"name":"사계절양품","tel":"031-535-3034","addr":"경기도 포천시 신읍동 173-18번지","indutype":"의류 - 정장","category":"other"}]},{"lat":"37.902415862","long":"127.2039392","imageIndex":17,"items":[{"name":"사운골프","tel":"","addr":"경기도 포천시 신읍동 209-3번지 해피하우스 102동 401호","indutype":"레져용품 - 스포츠·레져용품","category":"other"}]},{"lat":"37.895860961","long":"127.20165893","imageIndex":17,"items":[{"name":"삼강지물","tel":"031-535-2549","addr":"경기도 포천시 신읍동 35-22번지","indutype":"직물 - 카페트,커튼,천막,지물","category":"other"},{"name":"중앙기름집","tel":"535-2787","addr":"경기도 포천시 신읍동 35-22번지","indutype":"제조업 - 방앗간","category":"other"}]},{"lat":"37.903217919","long":"127.20380494","imageIndex":17,"items":[{"name":"삼광세탁소","tel":"533-2224","addr":"경기도 포천시 신읍동 215-13번지","indutype":"서비스 - 세탁소","category":"other"}]},{"lat":"37.896690236","long":"127.20141104","imageIndex":17,"items":[{"name":"삼손떡방앗간","tel":"535-2788","addr":"경기도 포천시 신읍동 47-42번지","indutype":"제조업 - 떡집","category":"other"}]},{"lat":"37.896189196","long":"127.19386059","imageIndex":17,"items":[{"name":"상상텔레콤","tel":"031-531-0004","addr":"경기도 포천시 신읍동 314-10번지","indutype":"사무통신 - 통신기기","category":"other"},{"name":"예당떡방","tel":"534-2080","addr":"경기도 포천시 신읍동 314-10번지","indutype":"제조업 - 떡집","category":"other"},{"name":"크린토피아(포천점)","tel":"535-0631","addr":"경기도 포천시 신읍동 314-10번지","indutype":"서비스 - 세탁소","category":"other"},{"name":"크린토피아포천점","tel":"031-535-0631","addr":"경기도 포천시 신읍동 314-10번지","indutype":"수리서비스 - 세탁소","category":"other"}]},{"lat":"37.894834825","long":"127.20111046","imageIndex":17,"items":[{"name":"상우건축사사무소","tel":"031-531-2532","addr":"경기도 포천시 신읍동 58-16.2층","indutype":"용역 서비스 - 사무서비스","category":"other"},{"name":"한국중앙열쇠","tel":"031-535-7171","addr":"경기도 포천시 신읍동 58-16번지 1층일부","indutype":"수리서비스 - 기타수리서비스","category":"other"}]},{"lat":"37.897217523","long":"127.19307877","imageIndex":17,"items":[{"name":"상일세탁소","tel":"031-535-3287","addr":"경기도 포천시 신읍동 295-15번지","indutype":"수리서비스 - 세탁소","category":"other"}]},{"lat":"37.897911861","long":"127.192694","imageIndex":17,"items":[{"name":"상일세탁소","tel":"535-3287","addr":"경기도 포천시 신읍동 295-18","indutype":"서비스 - 세탁소","category":"other"}]},{"lat":"37.895827346","long":"127.19476919","imageIndex":17,"items":[{"name":"샆노래연습장","tel":"535-3588","addr":"경기도 포천시 신읍동 116-12번지","indutype":"서비스 - 노래연습장","category":"other"}]},{"lat":"37.903381751","long":"127.20282755","imageIndex":17,"items":[{"name":"새봄유통","tel":"070-8709-4403","addr":"경기도 포천시 신읍동 227-23번지 402호","indutype":"의류 - 내의판매","category":"other"}]},{"lat":"37.895887835","long":"127.20174995","imageIndex":17,"items":[{"name":"생활용품 할인매장","tel":"031-532-8042","addr":"경기도 포천시 신읍동 35-7번지","indutype":"신변잡화 - 기타잡화","category":"other"}]},{"lat":"37.892882975","long":"127.19921804","imageIndex":17,"items":[{"name":"서현측량설계사무소","tel":"031-533-4040","addr":"경기도 포천시 신읍동 72-7(주) 문암빌딩1층","indutype":"용역 서비스 - 사무서비스","category":"other"},{"name":"탑독서실","tel":"533-0014","addr":"경기도 포천시 신읍동 72-7번지 5층","indutype":"교육서비스 - 독서실","category":"other"}]},{"lat":"37.898498055","long":"127.20321227","imageIndex":17,"items":[{"name":"선경철물,자전거","tel":"031-535-5048","addr":"경기도 포천시 신읍동 191-22번지 191-7호","indutype":"레져용품 - 스포츠·레져용품","category":"other"}]},{"lat":"37.89838219","long":"127.20247294","imageIndex":17,"items":[{"name":"선편물","tel":"031-533-2124","addr":"경기도 포천시 신읍동 174-14","indutype":"직물 - 침구·수예점","category":"other"},{"name":"선편물","tel":"533-2124","addr":"경기도 포천시 신읍동 174-14번지","indutype":"소매업 - 수,편사","category":"other"}]},{"lat":"37.892189943","long":"127.19880693","imageIndex":17,"items":[{"name":"성학벽지장판할인매장","tel":"535-8639","addr":"경기도 포천시 신읍동 75-6번지","indutype":"도소매 - 벽지.장판","category":"other"},{"name":"성학벽지할인매장","tel":"031-535-8637","addr":"경기도 포천시 신읍동 75-6번지","indutype":"직물 - 카페트,커튼,천막,지물","category":"other"}]},{"lat":"37.899884338","long":"127.20388684","imageIndex":17,"items":[{"name":"세기축산","tel":"031-535-5799","addr":"경기도 포천시 신읍동 185-24번지","indutype":"농업 - 기타농업관련","category":"other"}]},{"lat":"37.896998844","long":"127.20004756","imageIndex":17,"items":[{"name":"세븐일레븐 포천신읍문화점","tel":"031-531-9167","addr":"경기도 포천시 신읍동 47-58번지","indutype":"편의점 - 편의점","category":"other"},{"name":"세븐일레븐포천순화점","tel":"531-9167","addr":"경기도 포천시 신읍동 47-58번지","indutype":"도소매 - 편의점","category":"other"},{"name":"현주뷰티샵","tel":"031-533-4262","addr":"경기도 포천시 신읍동 47-58번지 2층","indutype":"회원제형태 - 기타4","category":"other"}]},{"lat":"37.902882558","long":"127.1996653","imageIndex":17,"items":[{"name":"세븐일레븐 포천신읍현대점","tel":"031-531-7395","addr":"경기도 포천시 신읍동 235-11번지","indutype":"편의점 - 편의점","category":"other"}]},{"lat":"37.896030137","long":"127.19746419","imageIndex":17,"items":[{"name":"세종문구","tel":"","addr":"경기도 포천시 신읍동 131-14","indutype":"소매업 - 문구","category":"other"},{"name":"세종문구","tel":"031-533-2147","addr":"경기도 포천시 신읍동 131-14번지","indutype":"서적문구 - 문구용품","category":"other"}]},{"lat":"37.898362665","long":"127.20335971","imageIndex":17,"items":[{"name":"세진커텐이불","tel":"031-536-0035","addr":"경기도 포천시 신읍동 191-33번지 2층","indutype":"직물 - 침구·수예점","category":"other"},{"name":"청운서림","tel":"535-2320","addr":"경기도 포천시 신읍동 191-33번지","indutype":"소매업 - 서점","category":"other"},{"name":"청운서림","tel":"031-535-2320","addr":"경기도 포천시 신읍동 191-33번지","indutype":"서적문구 - 일반서적","category":"other"}]},{"lat":"37.898696007","long":"127.20336061","imageIndex":17,"items":[{"name":"세진커텐이불","tel":"533-0650","addr":"경기도 포천시 신읍동 191-46번지","indutype":"소매업 - 침구류","category":"other"}]},{"lat":"37.898443845","long":"127.20330308","imageIndex":17,"items":[{"name":"세진커텐장식","tel":"536-0456","addr":"경기도 포천시 신읍동 191-32번지","indutype":"소매업 - 침구류","category":"other"},{"name":"세진커텐장식","tel":"031-536-0456","addr":"경기도 포천시 신읍동 191-32번지","indutype":"직물 - 카페트,커튼,천막,지물","category":"other"},{"name":"제일중고전자","tel":"031-535-8846","addr":"경기도 포천시 신읍동 191-32번지","indutype":"용역 서비스 - 기타용역서비스","category":"other"}]},{"lat":"37.889139054","long":"127.19683218","imageIndex":17,"items":[{"name":"소망건축설비토목","tel":"031-535-7908","addr":"경기도 포천시 신읍동 394-21번지","indutype":"용역 서비스 - 기타용역서비스","category":"other"}]},{"lat":"37.89877771","long":"127.20299701","imageIndex":17,"items":[{"name":"소망떡방앗간","tel":"535-2727","addr":"경기도 포천시 신읍동 191-90번지","indutype":"제조업 - 떡집","category":"other"}]},{"lat":"37.89608577","long":"127.20190965","imageIndex":17,"items":[{"name":"속옷나라","tel":"031-535-2824","addr":"경기도 포천시 신읍동 37-3번지","indutype":"의류 - 내의판매","category":"other"},{"name":"주주애견","tel":"031-536-3505","addr":"경기도 포천시 신읍동 37-3번지","indutype":"문화.취미 - 애완동물","category":"other"},{"name":"주주애견","tel":"536-3505","addr":"경기도 포천시 신읍동 37-3번지","indutype":"소매업 - 애견","category":"other"}]},{"lat":"37.895997307","long":"127.20094304","imageIndex":17,"items":[{"name":"속옷나라","tel":"535-2824","addr":"경기도 포천시 신읍동 54-18번지","indutype":"소매업 - 의류","category":"other"}]},{"lat":"37.899633686","long":"127.20294248","imageIndex":17,"items":[{"name":"송아지 옷수선","tel":"536-5161","addr":"경기도 포천시 신읍동 189-15번지","indutype":"서비스 - 의류수선","category":"other"},{"name":"송아지 옷수선","tel":"031-536-5161","addr":"경기도 포천시 신읍동 189-15번지","indutype":"수리서비스 - 세탁소","category":"other"}]},{"lat":"37.899527079","long":"127.20205536","imageIndex":17,"items":[{"name":"송월타월포천대리점","tel":"533-8989","addr":"경기도 포천시 신읍동 178-7번지","indutype":"도소매 - 타월.우산","category":"other"},{"name":"신안타올","tel":"031-533-8988","addr":"경기도 포천시 신읍동 178-7번지","indutype":"직물 - 기타직물","category":"other"}]},{"lat":"37.89966241","long":"127.20194202","imageIndex":17,"items":[{"name":"송호철공인중개사무소","tel":"535-3800","addr":"경기도 포천시 신읍동 178-5번지","indutype":"부동산 - 부동산중개업","category":"other"},{"name":"천송이플라워","tel":"031-534-9968","addr":"경기도 포천시 신읍동 178-5번지","indutype":"문화.취미 - 화원","category":"other"},{"name":"천송이플라워","tel":"534-9968","addr":"경기도 포천시 신읍동 178-5번지","indutype":"소매업 - 꽃,생화","category":"other"}]},{"lat":"37.896246473","long":"127.20277414","imageIndex":17,"items":[{"name":"수경사","tel":"031-535-3250","addr":"경기도 포천시 신읍동 26번지","indutype":"신변잡화 - 귀금속","category":"other"}]},{"lat":"37.901410709","long":"127.20691539","imageIndex":17,"items":[{"name":"수민침장","tel":"","addr":"경기도 포천시 신읍동 13-17번지","indutype":"도소매 - 이불","category":"other"},{"name":"수민침장","tel":"031-535-7722","addr":"경기도 포천시 신읍동 13-17번지","indutype":"직물 - 침구·수예점","category":"other"}]},{"lat":"37.899410535","long":"127.20171395","imageIndex":17,"items":[{"name":"수정세탁소","tel":"535-2712","addr":"경기도 포천시 신읍동 178-24번지","indutype":"서비스 - 세탁소","category":"other"}]},{"lat":"37.895668797","long":"127.20340924","imageIndex":17,"items":[{"name":"수지만물상","tel":"031-535-2678","addr":"경기도 포천시 신읍동 28-35번지","indutype":"기타 - 기타 전문점","category":"other"},{"name":"수지만물상","tel":"535-2678","addr":"경기도 포천시 신읍동 28-35번지","indutype":"소매업 - 생활","category":"other"}]},{"lat":"37.901634796","long":"127.20757546","imageIndex":17,"items":[{"name":"스마일당구장클럽","tel":"","addr":"경기도 포천시 신읍동 2-3번지","indutype":"서비스 - 당구장","category":"other"},{"name":"스마일당구클럽","tel":"","addr":"경기도 포천시 신읍동 2-3번지","indutype":"서비스 - 당구장","category":"other"},{"name":"오리표주방가구","tel":"031-536-4374","addr":"경기도 포천시 신읍동 2-3번지 1층 4호","indutype":"주방용구 - 주방용구","category":"other"},{"name":"호수공구","tel":"031-535-0989","addr":"경기도 포천시 신읍동 2-3번지","indutype":"기타 - 기계공구","category":"other"}]},{"lat":"37.898945467","long":"127.2049985","imageIndex":17,"items":[{"name":"스케치","tel":"534-0103","addr":"경기도 포천시 신읍동 201-15번지","indutype":"소매업 - 의류","category":"other"},{"name":"스케치","tel":"031-534-0103","addr":"경기도 포천시 신읍동 201-15번지","indutype":"의류 - 정장","category":"other"}]},{"lat":"37.897218527","long":"127.20333386","imageIndex":17,"items":[{"name":"스킨푸드 포천점","tel":"535-1232","addr":"경기도 포천시 신읍동 43-44번지 1층","indutype":"도소매 - 화장품 등","category":"other"},{"name":"크로커다일(여성) 포천지점","tel":"031-535-5746","addr":"경기도 포천시 신읍동 43-44번지","indutype":"의류 - 스포츠의류","category":"other"}]},{"lat":"37.895583855","long":"127.20036212","imageIndex":17,"items":[{"name":"스타일난다","tel":"070-4129-0040","addr":"경기도 포천시 신읍동 58-22번지","indutype":"의류 - 정장","category":"other"}]},{"lat":"37.89680632","long":"127.20202529","imageIndex":17,"items":[{"name":"스페샬","tel":"031-535-7785","addr":"경기도 포천시 신읍동 44-7번지","indutype":"의류 - 기타의류","category":"other"}]},{"lat":"37.897553241","long":"127.20252755","imageIndex":17,"items":[{"name":"스피드","tel":"031-533-2449","addr":"경기도 포천시 신읍동 43-20번지 예원프라자 1층 146호","indutype":"의류 - 기타의류","category":"other"},{"name":"엠아이 상사","tel":"","addr":"경기도 포천시 신읍동 43-20번지 동원예원프라자 148호","indutype":"유통업 영리 - 기타유통업","category":"other"}]},{"lat":"37.892638756","long":"127.19979719","imageIndex":17,"items":[{"name":"승지측량설계사무소","tel":"533-9473","addr":"경기도 포천시 신읍동 65-15번지","indutype":"서비스 - 측량설계","category":"other"},{"name":"예장건축사사무소","tel":"031-544-8848","addr":"경기도 포천시 신읍동 65-15","indutype":"용역 서비스 - 사무서비스","category":"other"}]},{"lat":"37.89716669","long":"127.20202626","imageIndex":17,"items":[{"name":"신꼬가세","tel":"531-5052","addr":"경기도 포천시 신읍동 44-2번지","indutype":"소매업 - 신발","category":"other"},{"name":"신꼬가세","tel":"031-531-5052","addr":"경기도 포천시 신읍동 44-2번지","indutype":"신변잡화 - 신발","category":"other"}]},{"lat":"37.899414105","long":"127.20490882","imageIndex":17,"items":[{"name":"신데렐라","tel":"031-532-5935","addr":"경기도 포천시 신읍동 202-18","indutype":"의류 - 정장","category":"other"},{"name":"포천바이웰","tel":"535-8268","addr":"경기도 포천시 신읍동 202-18번지","indutype":"도소매 - 동물약품","category":"other"}]},{"lat":"37.897048954","long":"127.20238976","imageIndex":17,"items":[{"name":"신발프라자","tel":"531-9599","addr":"경기도 포천시 신읍동 43-36번지","indutype":"소매업 - 생활","category":"other"},{"name":"신발프라자","tel":"031-531-9599","addr":"경기도 포천시 신읍동 43-36번지","indutype":"신변잡화 - 신발","category":"other"}]},{"lat":"37.901279119","long":"127.20485707","imageIndex":17,"items":[{"name":"신북방앗간","tel":"533-2478","addr":"경기도 포천시 신읍동 205-13번지","indutype":"제조업 - 방앗간","category":"other"}]},{"lat":"37.897665663","long":"127.19996975","imageIndex":17,"items":[{"name":"신앙촌상회","tel":"531-9885","addr":"경기도 포천시 신읍동 46-32번지","indutype":"소매업 - 잡화","category":"other"},{"name":"해바라기","tel":"535-7293","addr":"경기도 포천시 신읍동 46-32번지","indutype":"소매업 - 의류","category":"other"}]},{"lat":"37.89827456","long":"127.20218841","imageIndex":17,"items":[{"name":"신은상회","tel":"535-2391","addr":"경기도 포천시 신읍동 173-6번지","indutype":"소매업 - 침구류","category":"other"}]},{"lat":"37.898274329","long":"127.20232485","imageIndex":17,"items":[{"name":"신일","tel":"031-535-2786","addr":"경기도 포천시 신읍동 173-4번지","indutype":"전기제품 - 기타전기제품","category":"other"},{"name":"신일","tel":"535-2786","addr":"경기도 포천시 신읍동 173-4번지","indutype":"소매업 - 전기재료","category":"other"}]},{"lat":"37.899722598","long":"127.20363627","imageIndex":17,"items":[{"name":"신일전기공사","tel":"031-535-1711","addr":"경기도 포천시 신읍동 190-11번지","indutype":"용역 서비스 - 기타용역서비스","category":"other"}]},{"lat":"37.897723334","long":"127.19779836","imageIndex":17,"items":[{"name":"쌍용건재","tel":"031-531-3910","addr":"경기도 포천시 신읍동 138-4번지","indutype":"건축자재 - 기타건축자재","category":"other"}]},{"lat":"37.896805291","long":"127.19725021","imageIndex":17,"items":[{"name":"써니정보통신(주)","tel":"031-532-6016","addr":"경기도 포천시 신읍동 133번지","indutype":"별도관리 - 자체물품대금","category":"other"}]},{"lat":"37.898109843","long":"127.20368873","imageIndex":17,"items":[{"name":"써니정보통신(주)","tel":"0031-0531-2016","addr":"경기도 포천시 신읍동 191-3번지","indutype":"별도관리 - 자체물품대금","category":"other"},{"name":"써니정보통신(주)","tel":"031-531-2016","addr":"경기도 포천시 신읍동 191-3번지","indutype":"사무통신 - 통신기기","category":"other"}]},{"lat":"37.892028249","long":"127.19852229","imageIndex":17,"items":[{"name":"씨씨티비뱅크","tel":"031-535-0476","addr":"경기도 포천시 신읍동 75-2번지","indutype":"전기제품 - 기타전기제품","category":"other"}]},{"lat":"37.900854027","long":"127.200524","imageIndex":17,"items":[{"name":"씨유포천보건소점","tel":"031-535-5917","addr":"경기도 포천시 신읍동 161-7번지","indutype":"소매업 - 편의점","category":"other"},{"name":"씨유포천보건소점","tel":"031-535-3633","addr":"경기도 포천시 신읍동 161-7번지","indutype":"유통업 영리 - 편 의 점","category":"other"}]},{"lat":"37.897362268","long":"127.20357301","imageIndex":17,"items":[{"name":"씨유포천터미널점","tel":"031-536-5532","addr":"경기도 포천시 신읍동 42-11번지","indutype":"유통업 영리 - 편 의 점","category":"other"}]},{"lat":"37.896888402","long":"127.20143431","imageIndex":17,"items":[{"name":"아기자기","tel":"031-535-2582","addr":"경기도 포천시 신읍동 47-4번지","indutype":"신변잡화 - 기타잡화","category":"other"},{"name":"아기자기소품","tel":"535-2582","addr":"경기도 포천시 신읍동 47-4번지","indutype":"소매업 - 생활","category":"other"}]},{"lat":"37.89699457","long":"127.20258289","imageIndex":17,"items":[{"name":"아라패션","tel":"031-536-0150","addr":"경기도 포천시 신읍동 43-34번지","indutype":"의류 - 정장","category":"other"},{"name":"유진칼라","tel":"532-7575","addr":"경기도 포천시 신읍동 43-34번지","indutype":"소매업 - 사진관","category":"other"}]},{"lat":"37.898833558","long":"127.20193979","imageIndex":17,"items":[{"name":"아울렛DC마트","tel":"533-3378","addr":"경기도 포천시 신읍동 176-4번지","indutype":"소매업 - 잡화","category":"other"},{"name":"아울렛DC마트","tel":"031-533-3378","addr":"경기도 포천시 신읍동 176-4번지","indutype":"직물 - 카페트,커튼,천막,지물","category":"other"}]},{"lat":"37.896916769","long":"127.20063854","imageIndex":17,"items":[{"name":"아울렛포천점","tel":"531-8056","addr":"경기도 포천시 신읍동 47-22번지 1층","indutype":"도소매 - 핸드폰","category":"other"},{"name":"폰아울렛포천점","tel":"","addr":"경기도 포천시 신읍동 47-22번지","indutype":"사무통신 - 통신기기","category":"other"}]},{"lat":"37.895806521","long":"127.20188616","imageIndex":17,"items":[{"name":"아이월드안경","tel":"532-0366","addr":"경기도 포천시 신읍동 35-6번지","indutype":"소매업 - 안경점","category":"other"}]},{"lat":"37.897077539","long":"127.20146892","imageIndex":17,"items":[{"name":"아이천국","tel":"031-535-8389","addr":"경기도 포천시 신읍동 45-22","indutype":"의류 - 아동의류","category":"other"}]},{"lat":"37.896167276","long":"127.20165975","imageIndex":17,"items":[{"name":"알파와오메가","tel":"031-536-6668","addr":"경기도 포천시 신읍동 38-3번지","indutype":"신변잡화 - 기타잡화","category":"other"}]},{"lat":"37.902084625","long":"127.20794055","imageIndex":17,"items":[{"name":"애견미용샵","tel":"031-535-3313","addr":"경기도 포천시 신읍동 2-1번지","indutype":"문화.취미 - 애완동물","category":"other"}]},{"lat":"37.898996435","long":"127.20151956","imageIndex":17,"items":[{"name":"엄지우먼센스","tel":"031-533-7379","addr":"경기도 포천시 신읍동 176-16번지","indutype":"의류 - 정장","category":"other"},{"name":"포천의료기상사","tel":"031-534-0050","addr":"경기도 포천시 신읍동 176-16","indutype":"기타의료기관 - 기타의료기관 및 기타","category":"other"}]},{"lat":"37.898639581","long":"127.20474753","imageIndex":17,"items":[{"name":"엘렌","tel":"","addr":"경기도 포천시 신읍동 197-4번지 1층","indutype":"의류 - 정장","category":"other"},{"name":"엘렌","tel":"-","addr":"경기도 포천시 신읍동 197-4번지","indutype":"소매업 - 의류","category":"other"}]},{"lat":"37.897029816","long":"127.20304912","imageIndex":17,"items":[{"name":"엘리트포천점(경남모직)","tel":"","addr":"경기도 포천시 신읍동 43-15번지","indutype":"도소매 - 학생복","category":"other"},{"name":"엘리트포천점(경남모직학생복)","tel":"031-535-2632","addr":"경기도 포천시 신읍동 43-15번지","indutype":"의류 - 기타의류","category":"other"}]},{"lat":"37.900444153","long":"127.20316069","imageIndex":17,"items":[{"name":"엘림 군장점","tel":"031-000-0000","addr":"경기도 포천시 신읍동 187-11번지","indutype":"신변잡화 - 기념품점","category":"other"}]},{"lat":"37.894945824","long":"127.19391423","imageIndex":17,"items":[{"name":"엣지기획","tel":"031-536-6295","addr":"경기도 포천시 신읍동 116-14번지 203동 402호","indutype":"전기제품 - 기타전기제품","category":"other"}]},{"lat":"37.897466716","long":"127.20041262","imageIndex":17,"items":[{"name":"영경유리","tel":"031-535-2171","addr":"경기도 포천시 신읍동 46-2번지","indutype":"건축자재 - 유리","category":"other"}]},{"lat":"37.89577934","long":"127.19657674","imageIndex":17,"items":[{"name":"영선수선집","tel":"","addr":"경기도 포천시 신읍동 121-19번지","indutype":"서비스 - 의류수선","category":"other"}]},{"lat":"37.900718589","long":"127.20599252","imageIndex":17,"items":[{"name":"영창우드&샤시","tel":"031-536-8934","addr":"경기도 포천시 신읍동 12-9번지","indutype":"건축자재 - 인테리어전문","category":"other"}]},{"lat":"37.89755635","long":"127.20068573","imageIndex":17,"items":[{"name":"예담플라워","tel":"031-536-2778","addr":"경기도 포천시 신읍동 47-24번지","indutype":"문화.취미 - 화원","category":"other"},{"name":"예담플라워","tel":"","addr":"경기도 포천시 신읍동 47-24번지","indutype":"소매업 - 생화","category":"other"},{"name":"일동지게차","tel":"031-754-2523","addr":"경기도 포천시 신읍동 47-24번지 1층","indutype":"기타 - 기계공구","category":"other"},{"name":"정훈건설기계 (운천지게차)","tel":"031-531-0021","addr":"경기도 포천시 신읍동 47-24번지","indutype":"기타 - 기계공구","category":"other"}]},{"lat":"37.901133829","long":"127.20021776","imageIndex":17,"items":[{"name":"예삐꽃방","tel":"031-531-5559","addr":"경기도 포천시 신읍동 161-10번지","indutype":"문화.취미 - 화원","category":"other"},{"name":"포천예삐꽃방","tel":"531-5559","addr":"경기도 포천시 신읍동 161-10번지","indutype":"소매업 - 꽃,생화","category":"other"}]},{"lat":"37.896912405","long":"127.20321934","imageIndex":17,"items":[{"name":"예원서점","tel":"031-535-8633","addr":"경기도 포천시 신읍동 42-18번지","indutype":"서적문구 - 일반서적","category":"other"},{"name":"예원서점","tel":"031-535-8633","addr":"경기도 포천시 신읍동 42-18번지","indutype":"서적문구 - 일반서적","category":"other"},{"name":"예원서점","tel":"535-8633","addr":"경기도 포천시 신읍동 42-18번지","indutype":"소매업 - 서점","category":"other"}]},{"lat":"37.897525287","long":"127.2030732","imageIndex":17,"items":[{"name":"오로클래식","tel":"031-536-1856","addr":"경기도 포천시 신읍동 43-10번지 오로클래식","indutype":"신변잡화 - 액세서리","category":"other"},{"name":"헌트키즈","tel":"536-6003","addr":"경기도 포천시 신읍동 43-10번지","indutype":"소매업 - 의류","category":"other"},{"name":"헌트키즈","tel":"031-536-6003","addr":"경기도 포천시 신읍동 43-10번지","indutype":"레져용품 - 스포츠·레져용품","category":"other"}]},{"lat":"37.897582288","long":"127.20133385","imageIndex":17,"items":[{"name":"오시날개","tel":"031-534-9468","addr":"경기도 포천시 신읍동 45-9번지","indutype":"의류 - 정장","category":"other"},{"name":"오시날개","tel":"534-9468","addr":"경기도 포천시 신읍동 45-9번지","indutype":"소매업 - 의류","category":"other"}]},{"lat":"37.895382855","long":"127.20202145","imageIndex":17,"items":[{"name":"오피스알파","tel":"031-535-2043","addr":"경기도 포천시 신읍동 33-8번지","indutype":"서적문구 - 문구용품","category":"other"},{"name":"오피스알파","tel":"535-2043","addr":"경기도 포천시 신읍동 33-8번지","indutype":"도소매 - 문구","category":"other"},{"name":"포천예원BYC","tel":"535-2776","addr":"경기도 포천시 신읍동 33-8번지","indutype":"소매업 - 침구류","category":"other"}]},{"lat":"37.898973177","long":"127.20460064","imageIndex":17,"items":[{"name":"올리브","tel":"031-533-4244","addr":"경기도 포천시 신읍동 201-13번지","indutype":"의류 - 정장","category":"other"}]},{"lat":"37.897164665","long":"127.20322002","imageIndex":17,"items":[{"name":"올리비아하슬러","tel":"031-535-5030","addr":"경기도 포천시 신읍동 43-13번지","indutype":"레져용품 - 스포츠·레져용품","category":"other"},{"name":"올리비아하슬러","tel":"535-5030","addr":"경기도 포천시 신읍동 43-13번지","indutype":"소매업 - 의류","category":"other"}]},{"lat":"37.89655406","long":"127.20202461","imageIndex":17,"items":[{"name":"옷장","tel":"031-535-8292","addr":"경기도 포천시 신읍동 39-1번지","indutype":"의류 - 정장","category":"other"}]},{"lat":"37.894078524","long":"127.20082421","imageIndex":17,"items":[{"name":"와사비사진관","tel":"8080-4747","addr":"경기도 포천시 신읍동 33-28번지","indutype":"서비스 - 사진관","category":"other"},{"name":"와사비사진관","tel":"031-8080-4747","addr":"경기도 포천시 신읍동 33-28번지 1층","indutype":"광학제품 - 사진관","category":"other"},{"name":"정인당","tel":"535-5651","addr":"경기도 포천시 신읍동 33-28","indutype":"제조업 - 도장인쇄","category":"other"},{"name":"정인당","tel":"031-535-5652","addr":"경기도 포천시 신읍동 33-28번지 1층","indutype":"건축자재 - 목재·석재·철물","category":"other"}]},{"lat":"37.900354253","long":"127.20304675","imageIndex":17,"items":[{"name":"왕방떡방앗간","tel":"535-7744","addr":"경기도 포천시 신읍동 187-17번지","indutype":"제조업 - 떡집","category":"other"},{"name":"주연광고","tel":"535-7048","addr":"경기도 포천시 신읍동 187-17번지","indutype":"제조업 - 간판및 광고물","category":"other"}]},{"lat":"37.900079555","long":"127.20032865","imageIndex":17,"items":[{"name":"왕호기획","tel":"","addr":"경기도 포천시 신읍동 167-25번지 2층","indutype":"서비스 - 행사.주차서비스","category":"other"},{"name":"왕호종합체육관","tel":"031-535-2990","addr":"경기도 포천시 신읍동 167-25번지","indutype":"회원제형태 - 레져업소","category":"other"},{"name":"왕호종합체육관","tel":"","addr":"경기도 포천시 신읍동 167-25번지 2층","indutype":"서비스 - 체육관","category":"other"}]},{"lat":"37.898690703","long":"127.184419","imageIndex":17,"items":[{"name":"용성타올","tel":"031-533-1189","addr":"경기도 포천시 신읍동 539-2번지","indutype":"직물 - 옷감·직물","category":"other"}]},{"lat":"37.898390698","long":"127.20276857","imageIndex":17,"items":[{"name":"용춘지물","tel":"031-535-3702","addr":"경기도 포천시 신읍동 174-3번지","indutype":"직물 - 카페트,커튼,천막,지물","category":"other"}]},{"lat":"37.889022401","long":"127.19654767","imageIndex":17,"items":[{"name":"우드아트(나무간판)","tel":"031-544-8856","addr":"경기도 포천시 신읍동 394-4","indutype":"건축자재 - 인테리어전문","category":"other"}]},{"lat":"37.900195522","long":"127.20629807","imageIndex":17,"items":[{"name":"우리고기백화점","tel":"532-8885","addr":"경기도 포천시 신읍동 202-20번지","indutype":"도소매 - 축산물","category":"other"}]},{"lat":"37.890444912","long":"127.19713118","imageIndex":17,"items":[{"name":"우성철물상사","tel":"031-535-1224","addr":"경기도 포천시 신읍동 376-14번지","indutype":"기타 - 기계공구","category":"other"},{"name":"현건축사사무소","tel":"031-531-6467","addr":"경기도 포천시 신읍동 376-14번지","indutype":"용역 서비스 - 사무서비스","category":"other"}]},{"lat":"37.901496195","long":"127.19902489","imageIndex":17,"items":[{"name":"우주빌리어드클럽","tel":"535-0759","addr":"경기도 포천시 신읍동 157-1번지 태정빌딩 2층","indutype":"서비스 - 당구장","category":"other"},{"name":"천일고속관광(주)","tel":"031-534-1117","addr":"경기도 포천시 신읍동 157-1번지","indutype":"여행 - 고속버스","category":"other"},{"name":"포천스크린","tel":"535-0753","addr":"경기도 포천시 신읍동 157-1번지 3층","indutype":"서비스 - 골프연습장","category":"other"}]},{"lat":"37.898640594","long":"127.20415632","imageIndex":17,"items":[{"name":"웅비통상","tel":"","addr":"경기도 포천시 신읍동 192-12번지","indutype":"소매업 - 속옷","category":"other"},{"name":"웅비통상","tel":"031-532-8832","addr":"경기도 포천시 신읍동 192-12번지","indutype":"의류 - 내의판매","category":"other"},{"name":"포천예원BYC","tel":"031-535-2776","addr":"경기도 포천시 신읍동 192-12번지","indutype":"의류 - 내의판매","category":"other"}]},{"lat":"37.90080699","long":"127.20697057","imageIndex":17,"items":[{"name":"원일종합공구","tel":"031-534-0109","addr":"경기도 포천시 신읍동 15-1번지","indutype":"기타 - 기계공구","category":"other"},{"name":"일진알미늄샷시","tel":"031-535-3062","addr":"경기도 포천시 신읍동 15-1번지","indutype":"건축자재 - 보일러·펌프·샷시","category":"other"}]},{"lat":"37.892521769","long":"127.1997173","imageIndex":17,"items":[{"name":"원측량설계공사","tel":"031-536-6071","addr":"경기도 포천시 신읍동 65-17번지","indutype":"용역 서비스 - 사무서비스","category":"other"}]},{"lat":"37.895190239","long":"127.19868983","imageIndex":17,"items":[{"name":"웨이트 앤 스피디","tel":"031-535-0825","addr":"경기도 포천시 신읍동 127-17번지 1층","indutype":"레져용품 - 스포츠·레져용품","category":"other"}]},{"lat":"37.897965928","long":"127.20355191","imageIndex":17,"items":[{"name":"위너텔레콤","tel":"031-536-8300","addr":"경기도 포천시 신읍동 42-1번지","indutype":"사무통신 - 통신기기","category":"other"}]},{"lat":"37.892162081","long":"127.19930707","imageIndex":17,"items":[{"name":"유명건축사사무소","tel":"031-535-7992","addr":"경기도 포천시 신읍동 71-7번지","indutype":"용역 서비스 - 법률회계서비스(개인)","category":"other"}]},{"lat":"37.897162303","long":"127.19927488","imageIndex":17,"items":[{"name":"유진설비","tel":"","addr":"경기도 포천시 신읍동 137-22번지","indutype":"건설업 - 일반건축공사.보일러설비","category":"other"},{"name":"유진설비","tel":"031-533-2884","addr":"경기도 포천시 신읍동 137-22번지","indutype":"용역 서비스 - 기타용역서비스","category":"other"}]},{"lat":"37.897218952","long":"127.20308374","imageIndex":17,"items":[{"name":"유진칼라","tel":"031-532-7575","addr":"경기도 포천시 신읍동 43-3","indutype":"광학제품 - 사진관","category":"other"}]},{"lat":"37.902189386","long":"127.20466627","imageIndex":17,"items":[{"name":"윤자매","tel":"070-8031-4038","addr":"경기도 포천시 신읍동 209-7번지 청솔홈타운 104동 3층 301호","indutype":"의류 - 정장","category":"other"},{"name":"청솔공인중개사무소","tel":"532-2002","addr":"경기도 포천시 신읍동 209-7번지 청솔홈타운 103동 101호","indutype":"부동산 - 부동산중개업","category":"other"}]},{"lat":"37.896884758","long":"127.20358308","imageIndex":17,"items":[{"name":"은혜사","tel":"031-535-4610","addr":"경기도 포천시 신읍동 23-3","indutype":"수리서비스 - 신변잡화수리","category":"other"},{"name":"은혜사","tel":"535-4610","addr":"경기도 포천시 신읍동 23-3번지","indutype":"소매업 - 의류","category":"other"},{"name":"은혜사","tel":"031-535-4610","addr":"경기도 포천시 신읍동 23-3","indutype":"수리서비스 - 신변잡화수리","category":"other"},{"name":"제일사진","tel":"031-535-2483","addr":"경기도 포천시 신읍동 23-3번지 제일사진","indutype":"광학제품 - 사진관","category":"other"}]},{"lat":"37.897110706","long":"127.20316303","imageIndex":17,"items":[{"name":"이니스프리 포천점","tel":"531-8888","addr":"경기도 포천시 신읍동 43-14번지 1층","indutype":"도소매 - 화장품 등","category":"other"},{"name":"헌트인너웨어","tel":"031-533-4430","addr":"경기도 포천시 신읍동 43-14번지","indutype":"의류 - 내의판매","category":"other"}]},{"lat":"37.894858157","long":"127.1924133","imageIndex":17,"items":[{"name":"이마트 24          (포천 이함내과)","tel":"","addr":"경기도 포천시 신읍동 318-4번지","indutype":"편의점 - 잡화","category":"other"},{"name":"이마트24 포천이함내과점","tel":"031-111-1111","addr":"경기도 포천시 신읍동 318-4번지 승진빌딩","indutype":"유통업 영리 - 편 의 점","category":"other"}]},{"lat":"37.892169062","long":"127.19507801","imageIndex":17,"items":[{"name":"이마트24 포천신읍점","tel":"","addr":"경기도 포천시 신읍동 91번지","indutype":"유통업 영리 - 편 의 점","category":"other"},{"name":"이마트27 포천신읍점","tel":"536-3414","addr":"경기도 포천시 신읍동 91번지","indutype":"소매업 - 편의점","category":"other"}]},{"lat":"37.893363016","long":"127.19768454","imageIndex":17,"items":[{"name":"이마트24 포천체육공원점","tel":"02-1599-7670","addr":"경기도 포천시 신읍동 104-5번지 공원빌라 107동 101호","indutype":"유통업 영리 - 편 의 점","category":"other"},{"name":"이마트24 포천체육공원점","tel":"031-111-1111","addr":"경기도 포천시 신읍동 104-5번지 공원빌라 107동 101호","indutype":"유통업 영리 - 편 의 점","category":"other"},{"name":"이마트24포천체육공원점","tel":"","addr":"경기도 포천시 신읍동 104-5번지 공원빌라 107동 101호","indutype":"소매업 - 편의점","category":"other"}]},{"lat":"37.895724553","long":"127.20240892","imageIndex":17,"items":[{"name":"이솝포토","tel":"031-533-2525","addr":"경기도 포천시 신읍동 29-4번지","indutype":"광학제품 - 사진관","category":"other"},{"name":"이솝포토","tel":"533-2525","addr":"경기도 포천시 신읍동 29-4번지","indutype":"서비스 - 사진관","category":"other"}]},{"lat":"37.896771837","long":"127.20110429","imageIndex":17,"items":[{"name":"일구팔육(1986)","tel":"","addr":"경기도 포천시 신읍동 47-63번지","indutype":"의류 - 정장","category":"other"}]},{"lat":"37.890390988","long":"127.19705146","imageIndex":17,"items":[{"name":"일신측량설계공사","tel":"031-535-3300","addr":"경기도 포천시 신읍동 376-13번지","indutype":"용역 서비스 - 사무서비스","category":"other"}]},{"lat":"37.895910791","long":"127.19880542","imageIndex":17,"items":[{"name":"일호세탁소","tel":"031-535-0857","addr":"경기도 포천시 신읍동 130-3번지","indutype":"수리서비스 - 세탁소","category":"other"}]},{"lat":"37.896217031","long":"127.19885171","imageIndex":17,"items":[{"name":"장난감나라","tel":"031-535-8674","addr":"경기도 포천시 신읍동 135-3번지","indutype":"서적문구 - 완구점","category":"other"}]},{"lat":"37.896028299","long":"127.19307571","imageIndex":17,"items":[{"name":"장비CMG북부영업소","tel":"031-536-3779","addr":"경기도 포천시 신읍동 315-1번지","indutype":"기타 - 기타 전문점","category":"other"}]},{"lat":"37.898968505","long":"127.20205385","imageIndex":17,"items":[{"name":"정원플라워","tel":"031-533-8523","addr":"경기도 포천시 신읍동 176-14번지","indutype":"문화.취미 - 화원","category":"other"}]},{"lat":"37.895384314","long":"127.20115741","imageIndex":17,"items":[{"name":"정택진세무회계사무소","tel":"031-536-1551","addr":"경기도 포천시 신읍동 58-26번지 삼목빌딩 2층","indutype":"용역 서비스 - 법률회계서비스(개인)","category":"other"},{"name":"태성측량설계공사","tel":"031-531-3535","addr":"경기도 포천시 신읍동 58-26번지 삼목빌딩 3층","indutype":"용역 서비스 - 사무서비스","category":"other"}]},{"lat":"37.896331777","long":"127.20027316","imageIndex":17,"items":[{"name":"제이엠시큐리티","tel":"031-534-2372","addr":"경기도 포천시 신읍동 50-1번지 1층","indutype":"용역 서비스 - 기타용역서비스","category":"other"}]},{"lat":"37.895721524","long":"127.19335915","imageIndex":17,"items":[{"name":"조원유통","tel":"535-6836","addr":"경기도 포천시 신읍동 315-5번지","indutype":"도소매 - 축산물","category":"other"}]},{"lat":"37.891443193","long":"127.19819106","imageIndex":17,"items":[{"name":"조은요양원","tel":"533-5077","addr":"경기도 포천시 신읍동 81-2(중앙로45)","indutype":"서비스 - 요양원","category":"other"}]},{"lat":"37.894832061","long":"127.19183342","imageIndex":17,"items":[{"name":"주공공인중개사무소","tel":"532-0003","addr":"경기도 포천시 신읍동 319-1번지","indutype":"부동산 - 부동산중개업","category":"other"}]},{"lat":"37.891082004","long":"127.19318804","imageIndex":17,"items":[{"name":"주식회사 나래라이프","tel":"031-1833-3013","addr":"경기도 포천시 신읍동 369-84번지 장미빌라 4동 502호","indutype":"용역 서비스 - 사무서비스","category":"other"}]},{"lat":"37.898105342","long":"127.20102828","imageIndex":17,"items":[{"name":"주연컴퓨터","tel":"031-534-9091","addr":"경기도 포천시 신읍동 47-2번지","indutype":"사무통신 - 컴퓨터","category":"other"},{"name":"주연컴퓨터","tel":"534-9091","addr":"경기도 포천시 신읍동 47-2","indutype":"소매업 - 컴퓨터주변기기외","category":"other"},{"name":"주연컴퓨터","tel":"534-9091","addr":"경기도 포천시 신읍동 47-2","indutype":"소매업 - 컴퓨터","category":"other"}]},{"lat":"37.901945785","long":"127.1995491","imageIndex":17,"items":[{"name":"처음처럼 노인주간돌봄센터","tel":"031-531-3937","addr":"경기도 포천시 신읍동 233-1번지 성신빌딩 1층","indutype":"기타의료기관 - 기타의료기관 및 기타","category":"other"}]},{"lat":"37.899302097","long":"127.20190694","imageIndex":17,"items":[{"name":"천지공인중개사무소","tel":"535-8835","addr":"경기도 포천시 신읍동 178-26번지","indutype":"부동산 - 부동산중개업","category":"other"}]},{"lat":"37.895696483","long":"127.20302277","imageIndex":17,"items":[{"name":"청구농자재","tel":"031-535-6120","addr":"경기도 포천시 신읍동 27-20번지","indutype":"농업 - 비료,사료,종자","category":"other"},{"name":"청구농자재","tel":"535-6120","addr":"경기도 포천시 신읍동 27-20번지","indutype":"도소매 - 농약등","category":"other"},{"name":"청구이불","tel":"031-535-6122","addr":"경기도 포천시 신읍동 27-20번지","indutype":"직물 - 침구·수예점","category":"other"},{"name":"청구이불","tel":"535-6122","addr":"경기도 포천시 신읍동 27-20번지","indutype":"도소매 - 이불","category":"other"}]},{"lat":"37.89641533","long":"127.19330409","imageIndex":17,"items":[{"name":"청산공인중개사무소","tel":"536-7474","addr":"경기도 포천시 신읍동 314-2번지","indutype":"부동산 - 부동산중개업","category":"other"}]},{"lat":"37.898855472","long":"127.20494141","imageIndex":17,"items":[{"name":"청화어패럴(로엠)","tel":"031-536-9994","addr":"경기도 포천시 신읍동 201-16번지","indutype":"레져용품 - 스포츠·레져용품","category":"other"},{"name":"청화어페럴","tel":"536-9994","addr":"경기도 포천시 신읍동 201-16번지","indutype":"서비스 - 스포츠","category":"other"},{"name":"포천냉열","tel":"031-531-4488","addr":"경기도 포천시 신읍동 201-16번지","indutype":"전기제품 - 냉열기기","category":"other"}]},{"lat":"37.895830596","long":"127.19827087","imageIndex":17,"items":[{"name":"추강서강","tel":"031-535-0825","addr":"경기도 포천시 신읍동 131-6번지 1층 4호","indutype":"건축자재 - 인테리어전문","category":"other"}]},{"lat":"37.893272744","long":"127.19227282","imageIndex":17,"items":[{"name":"카타딘&KWPT","tel":"542-5626","addr":"경기도 포천시 신읍동 698번지 포천극동2차스타클래스아파트","indutype":"서비스 - 정수기외","category":"other"}]},{"lat":"37.893942866","long":"127.1957079","imageIndex":17,"items":[{"name":"케이크린 경기북부","tel":"","addr":"경기도 포천시 신읍동 97-1번지 대일연립 D동 204호","indutype":"용역 서비스 - 종합용역","category":"other"}]},{"lat":"37.894468738","long":"127.19366288","imageIndex":17,"items":[{"name":"크린에이드","tel":"532-8999","addr":"경기도 포천시 신읍동 316-11번지 무궁화빌라 102호","indutype":"서비스 - 세탁소","category":"other"},{"name":"크린에이드","tel":"031-532-8999","addr":"경기도 포천시 신읍동 316-11번지 무궁화빌라 102호","indutype":"수리서비스 - 세탁소","category":"other"}]},{"lat":"37.898496484","long":"127.20413319","imageIndex":17,"items":[{"name":"크린토피아 포천시청점","tel":"031-531-1277","addr":"경기도 포천시 신읍동 192-5번지","indutype":"수리서비스 - 세탁소","category":"other"},{"name":"폰아울렛본점","tel":"031-533-6055","addr":"경기도 포천시 신읍동 192-5번지 1층","indutype":"사무통신 - 통신기기","category":"other"},{"name":"풀아울렛본점","tel":"533-6055","addr":"경기도 포천시 신읍동 192-5번지","indutype":"소매업 - 핸드폰","category":"other"}]},{"lat":"37.90405005","long":"127.19647334","imageIndex":17,"items":[{"name":"킴스골프랜드","tel":"533-1686","addr":"경기도 포천시 신읍동 산2-6번지","indutype":"서비스 - 골프연습장","category":"other"}]},{"lat":"37.894860936","long":"127.19624464","imageIndex":17,"items":[{"name":"태양환경방역","tel":"031-531-8887","addr":"경기도 포천시 신읍동 112-15번지","indutype":"용역 서비스 - 종합용역","category":"other"}]},{"lat":"37.90005513","long":"127.19877093","imageIndex":17,"items":[{"name":"토2 도예","tel":"031-0000-0000","addr":"경기도 포천시 신읍동 152-21번지","indutype":"문화.취미 - 문화취미기타","category":"other"}]},{"lat":"37.893889654","long":"127.20063044","imageIndex":17,"items":[{"name":"투어삼육오(주)","tel":"031-534-3365","addr":"경기도 포천시 신읍동 64-1번지","indutype":"여행 - 관광여행","category":"other"}]},{"lat":"37.898552478","long":"127.2029964","imageIndex":17,"items":[{"name":"트윈SKIN","tel":"070-7528-7869","addr":"경기도 포천시 신읍동 175-22번지 1층 2호","indutype":"회원제형태 - 기타4","category":"other"}]},{"lat":"37.89583224","long":"127.20265933","imageIndex":17,"items":[{"name":"파크랜드 포천점","tel":"031-535-8242","addr":"경기도 포천시 신읍동 29-9번지","indutype":"소매업 - 의류","category":"other"}]},{"lat":"37.900305625","long":"127.19982898","imageIndex":17,"items":[{"name":"포.연.철장례문화연구소","tel":"031-536-4114","addr":"경기도 포천시 신읍동 153-4번지","indutype":"용역 서비스 - 가례서비스업","category":"other"}]},{"lat":"37.897473978","long":"127.19046449","imageIndex":17,"items":[{"name":"포인트가구전시장","tel":"031-535-1404","addr":"경기도 포천시 신읍동 300-1","indutype":"가구 - 일반가구","category":"other"}]},{"lat":"37.895021406","long":"127.20265714","imageIndex":17,"items":[{"name":"포천 기름집","tel":"535-3439","addr":"경기도 포천시 신읍동 30-5","indutype":"제조업 - 방앗간","category":"other"}]},{"lat":"37.900160511","long":"127.18935707","imageIndex":17,"items":[{"name":"포천IT사랑봉사회","tel":"031-535-2233","addr":"경기도 포천시 신읍동 288서광빌딩3층302호","indutype":"기타 - 비영리/대상","category":"other"}]},{"lat":"37.902750497","long":"127.20840857","imageIndex":17,"items":[{"name":"포천공구철물","tel":"031-535-3361","addr":"경기도 포천시 신읍동 5-5번지 7통5반","indutype":"기타 - 기계공구","category":"other"}]},{"lat":"37.902723509","long":"127.20838576","imageIndex":17,"items":[{"name":"포천공구철물","tel":"535-3361","addr":"경기도 포천시 신읍동 3-14번지","indutype":"도소매 - 공구 등","category":"other"}]},{"lat":"37.895384773","long":"127.20088456","imageIndex":17,"items":[{"name":"포천그릇판매장","tel":"031-535-3312","addr":"경기도 포천시 신읍동 58-1번지","indutype":"주방용구 - 주방용식기","category":"other"},{"name":"포천그릇판매장","tel":"535-3312","addr":"경기도 포천시 신읍동 58-1번지","indutype":"소매업 - 생활","category":"other"}]},{"lat":"37.901217409","long":"127.18757466","imageIndex":17,"items":[{"name":"포천농산물","tel":"","addr":"경기도 포천시 신읍동 590번지","indutype":"소매업 - 농산물","category":"other"}]},{"lat":"37.89738782","long":"127.20443715","imageIndex":17,"items":[{"name":"포천농약사","tel":"533-3022","addr":"경기도 포천시 신읍동 21-2","indutype":"도소매 - 농약등","category":"other"},{"name":"포천농약사","tel":"031-533-3022","addr":"경기도 포천시 신읍동 21-2번지","indutype":"농업 - 기타농업관련","category":"other"},{"name":"현대문구","tel":"031-535-4562","addr":"경기도 포천시 신읍동 21-2","indutype":"서적문구 - 문구용품","category":"other"},{"name":"현대문구","tel":"535-4562","addr":"경기도 포천시 신읍동 21-2번지","indutype":"소매업 - 문구","category":"other"}]},{"lat":"37.898134335","long":"127.1998573","imageIndex":17,"items":[{"name":"포천동주민자치센터","tel":"538-4798","addr":"경기도 포천시 신읍동 169-2번지","indutype":"주민자치센터 - 주민자치센터","category":"other"}]},{"lat":"37.897747488","long":"127.19952656","imageIndex":17,"items":[{"name":"포천로타리클럽","tel":"031-534-1233","addr":"경기도 포천시 신읍동 46-17번지","indutype":"기타 - 비영리/대상","category":"other"}]},{"lat":"37.896111469","long":"127.20269419","imageIndex":17,"items":[{"name":"포천르까프","tel":"535-0323","addr":"경기도 포천시 신읍동 27-11번지","indutype":"소매업 - 스포츠","category":"other"}]},{"lat":"37.892497881","long":"127.19783005","imageIndex":17,"items":[{"name":"포천번호판제작소","tel":"031-536-6093","addr":"경기도 포천시 신읍동 107-1번지","indutype":"기타 - 기타 전문점","category":"other"},{"name":"포천시청상하수도/CAT","tel":"031-538-3428","addr":"경기도 포천시 신읍동 107-1번지 포천시청 상하수과 요금팀","indutype":"용역 서비스 - 조세서비스","category":"other"},{"name":"포천시청상하수도/인터넷","tel":"031-538-3428","addr":"경기도 포천시 신읍동 107-1번지 포천시청 상하수과 요금팀","indutype":"용역 서비스 - 조세서비스","category":"other"}]},{"lat":"37.901332843","long":"127.20505051","imageIndex":17,"items":[{"name":"포천불교사","tel":"535-6633","addr":"경기도 포천시 신읍동 10-25번지","indutype":"도매 - 불교용품판매","category":"other"},{"name":"포천불교사","tel":"031-535-6633","addr":"경기도 포천시 신읍동 10-25번지","indutype":"신변잡화 - 기념품점","category":"other"}]},{"lat":"37.894636104","long":"127.20141689","imageIndex":17,"items":[{"name":"포천삼화페인트","tel":"031-535-2631","addr":"경기도 포천시 신읍동 33-34","indutype":"건축자재 - 페인트","category":"other"},{"name":"합동인쇄공사","tel":"534-4000","addr":"경기도 포천시 신읍동 33-34","indutype":"제조업 - 판촉,인쇄","category":"other"},{"name":"합동인쇄공사","tel":"031-534-4000","addr":"경기도 포천시 신읍동 33-34번지","indutype":"서적문구 - 출판 및 인쇄물","category":"other"}]},{"lat":"37.894800106","long":"127.20032591","imageIndex":17,"items":[{"name":"포천시마홀남성합창단","tel":"031-535-2222","addr":"경기도 포천시 신읍동 58-2번지 포천시청 문화체육과","indutype":"기타 - 비영리/비대상","category":"other"},{"name":"포천시청(교통행정과)","tel":"031-538-3473","addr":"경기도 포천시 신읍동 58-2번지 포천시청","indutype":"용역 서비스 - 사무서비스","category":"other"},{"name":"포천시청/세외수입","tel":"031-538-3473","addr":"경기도 포천시 신읍동 58-2번지","indutype":"용역 서비스 - 조세서비스","category":"other"},{"name":"포천시청교통행정/CAT","tel":"031-538-3464","addr":"경기도 포천시 신읍동 58-2번지 포천시청 교통행정과 교통지도팀","indutype":"용역 서비스 - 조세서비스","category":"other"},{"name":"포천시청교통행정/인터넷","tel":"031-538-3464","addr":"경기도 포천시 신읍동 58-2번지 포천시청 교통행정과 교통지도팀","indutype":"용역 서비스 - 조세서비스","category":"other"},{"name":"포천시청세외수입/CAT","tel":"031-538-2192","addr":"경기도 포천시 신읍동 58-2번지 포천시청 세정과","indutype":"용역 서비스 - 조세서비스","category":"other"},{"name":"포천시청세외수입/인터넷","tel":"031-538-2192","addr":"경기도 포천시 신읍동 58-2번지 포천시청 세정과","indutype":"용역 서비스 - 조세서비스","category":"other"},{"name":"포천시청지방세/ARS","tel":"031-538-2192","addr":"경기도 포천시 신읍동 58-2번지","indutype":"-","category":"other"},{"name":"포천시청지방세/CAT","tel":"031-538-2192","addr":"경기도 포천시 신읍동 58-2번지","indutype":"-","category":"other"},{"name":"포천시청지방세/인터넷","tel":"031-538-2192","addr":"경기도 포천시 신읍동 58-2번지","indutype":"-","category":"other"}]},{"lat":"37.900636773","long":"127.20113739","imageIndex":17,"items":[{"name":"포천시보건소","tel":"031-538-3617","addr":"경기도 포천시 신읍동 164-3번지 포천시보건소","indutype":"기타의료기관 - 기타의료기관 및 기타","category":"other"}]},{"lat":"37.888800203","long":"127.19469411","imageIndex":17,"items":[{"name":"포천연와","tel":"031-535-0160","addr":"경기도 포천시 신읍동 384번지","indutype":"건축자재 - 기타건축자재","category":"other"}]},{"lat":"37.897721299","long":"127.20435847","imageIndex":17,"items":[{"name":"포천인삼영농조합직판점","tel":"534-3312","addr":"경기도 포천시 신읍동 22-6번지","indutype":"소매업 - 농산물","category":"other"}]},{"lat":"37.901134249","long":"127.20527736","imageIndex":17,"items":[{"name":"포천코아루공인중개사무소","tel":"536-7600","addr":"경기도 포천시 신읍동 11-3번지 가동 1층","indutype":"부동산 - 부동산중개업","category":"other"},{"name":"포천코아루공인중개사사무소","tel":"031-536-7600","addr":"경기도 포천시 신읍동 11-3번지 가동 1층 101호","indutype":"용역 서비스 - 부동산 중개·임대","category":"other"}]},{"lat":"37.895301291","long":"127.20230546","imageIndex":17,"items":[{"name":"포천특수열쇠","tel":"031-536-1119","addr":"경기도 포천시 신읍동 30-1번지","indutype":"기타 - 기계공구","category":"other"},{"name":"폰매니저","tel":"031-536-2017","addr":"경기도 포천시 신읍동 30-1번지","indutype":"사무통신 - 통신기기","category":"other"}]},{"lat":"37.899162508","long":"127.20452157","imageIndex":17,"items":[{"name":"포천프라자㈜","tel":"536-7001","addr":"경기도 포천시 신읍동 201-5번지","indutype":"도소매 - 가전제품","category":"other"}]},{"lat":"37.895611291","long":"127.1946663","imageIndex":17,"items":[{"name":"포천합기도용무관","tel":"535-0774","addr":"경기도 포천시 신읍동 116-37번지","indutype":"교육서비스 - 합기도","category":"other"}]},{"lat":"37.89952681","long":"127.20221453","imageIndex":17,"items":[{"name":"포천핸드폰아울렛","tel":"536-1920","addr":"경기도 포천시 신읍동 178-8번지","indutype":"소매업 - 휴대폰","category":"other"}]},{"lat":"37.897021791","long":"127.20246927","imageIndex":17,"items":[{"name":"폼나리","tel":"533-1708","addr":"경기도 포천시 신읍동 43-35번지","indutype":"소매업 - 의류","category":"other"},{"name":"폼나리","tel":"031-533-1708","addr":"경기도 포천시 신읍동 43-35번지 토지상두상가중오른쪽","indutype":"의류 - 정장","category":"other"}]},{"lat":"37.890164798","long":"127.19763064","imageIndex":17,"items":[{"name":"푸른기획","tel":"031-535-6206","addr":"경기도 포천시 신읍동 395-15번지","indutype":"서적문구 - 출판 및 인쇄물","category":"other"},{"name":"푸른기획","tel":"535-6206","addr":"경기도 포천시 신읍동 395-15번지","indutype":"제조업 - 판촉,인쇄","category":"other"},{"name":"한건축사사무소","tel":"031-531-5261","addr":"경기도 포천시 신읍동 395-15번지","indutype":"용역 서비스 - 사무서비스","category":"other"}]},{"lat":"37.898524231","long":"127.2037126","imageIndex":17,"items":[{"name":"프로월드컵포천점","tel":"532-7678","addr":"경기도 포천시 신읍동 191-19","indutype":"소매업 - 스포츠용품","category":"other"}]},{"lat":"37.89319526","long":"127.19002162","imageIndex":17,"items":[{"name":"하나 꽃 농원","tel":"031-532-1119","addr":"경기도 포천시 신읍동 369-57","indutype":"문화.취미 - 화원","category":"other"}]},{"lat":"37.89655504","long":"127.20144478","imageIndex":17,"items":[{"name":"하누도니","tel":"533-2513","addr":"경기도 포천시 신읍동 48-1번지","indutype":"소매업 - 축산물","category":"other"}]},{"lat":"37.897633068","long":"127.19238631","imageIndex":17,"items":[{"name":"한국공인중개사","tel":"531-8791","addr":"경기도 포천시 신읍동 295-23번지 한국아파트","indutype":"공인중개사 - 부동산중개업","category":"other"}]},{"lat":"37.893752291","long":"127.19654869","imageIndex":17,"items":[{"name":"한글주소관리센터","tel":"02-391-3667","addr":"경기도 포천시 신읍동 103-9번지 3층","indutype":"용역 서비스 - 종합용역","category":"other"}]},{"lat":"37.895912283","long":"127.19790727","imageIndex":17,"items":[{"name":"한농쌀상회","tel":"","addr":"경기도 포천시 신읍동 131-5","indutype":"도소매 - 쌀","category":"other"}]},{"lat":"37.899300961","long":"127.20257775","imageIndex":17,"items":[{"name":"한북,사료,쌀","tel":"536-8187","addr":"경기도 포천시 신읍동 189-28번지","indutype":"도소매 - 사료","category":"other"}]},{"lat":"37.903329851","long":"127.20155394","imageIndex":17,"items":[{"name":"한신슈퍼","tel":"","addr":"경기도 포천시 신읍동 228-5번지","indutype":"소매업 - 잡화","category":"other"}]},{"lat":"37.896056506","long":"127.19786218","imageIndex":17,"items":[{"name":"한우리","tel":"534-4114","addr":"경기도 포천시 신읍동 132-2","indutype":"소매업 - 잡화","category":"other"}]},{"lat":"37.895688779","long":"127.19686073","imageIndex":17,"items":[{"name":"한우리","tel":"031-534-4114","addr":"경기도 포천시 신읍동 123-2번지","indutype":"신변잡화 - 기타잡화","category":"other"}]},{"lat":"37.897748644","long":"127.19883303","imageIndex":17,"items":[{"name":"할렐루야기름집","tel":"535-5311","addr":"경기도 포천시 신읍동 150-23번지","indutype":"제조업 - 방앗간","category":"other"}]},{"lat":"37.896779811","long":"127.20171825","imageIndex":17,"items":[{"name":"해바라기","tel":"031-535-7273","addr":"경기도 포천시 신읍동 38-1번지","indutype":"의류 - 정장","category":"other"}]},{"lat":"37.899387506","long":"127.20465862","imageIndex":17,"items":[{"name":"헤븐즈노마드","tel":"02-747-3066","addr":"경기도 포천시 신읍동 201-19번지 3층 302호","indutype":"문화.취미 - 티켓","category":"other"}]},{"lat":"37.887582687","long":"127.19546396","imageIndex":17,"items":[{"name":"현대가설재","tel":"031-535-2956","addr":"경기도 포천시 신읍동 404-2번지","indutype":"건축자재 - 기타건축자재","category":"other"}]},{"lat":"37.900692738","long":"127.20000056","imageIndex":17,"items":[{"name":"현대모터샵","tel":"536-9671","addr":"경기도 포천시 신읍동 160-2","indutype":"소매업 - 오토바이","category":"other"}]},{"lat":"37.896831844","long":"127.20291215","imageIndex":17,"items":[{"name":"현대사진관","tel":"535-3061","addr":"경기도 포천시 신읍동 43-17번지","indutype":"소매업 - 사진관","category":"other"}]},{"lat":"37.902327935","long":"127.20790712","imageIndex":17,"items":[{"name":"현대측량설계공사","tel":"031-536-3838","addr":"경기도 포천시 신읍동 3-7번지","indutype":"용역 서비스 - 사무서비스","category":"other"}]},{"lat":"37.896133573","long":"127.20027263","imageIndex":17,"items":[{"name":"형제제유","tel":"535-1215","addr":"경기도 포천시 신읍동 51-10","indutype":"제조업 - 방앗간","category":"other"}]},{"lat":"37.901329626","long":"127.20691516","imageIndex":17,"items":[{"name":"호구공구","tel":"535-0989","addr":"경기도 포천시 신읍동 13-49번지","indutype":"소매업 - 공구","category":"other"}]},{"lat":"37.896805626","long":"127.20243458","imageIndex":17,"items":[{"name":"화성양행","tel":"535-2910","addr":"경기도 포천시 신읍동 43-40","indutype":"소매업 - 속옷","category":"other"},{"name":"화성양행","tel":"031-535-2910","addr":"경기도 포천시 신읍동 43-40번지","indutype":"의류 - 내의판매","category":"other"}]},{"lat":"37.902552899","long":"127.20282531","imageIndex":17,"items":[{"name":"효사랑노인복지센터","tel":"534-0555","addr":"경기도 포천시 신읍동 223-4번지","indutype":"보건업 - 주간보호(노인)","category":"other"}]},{"lat":"37.900024621","long":"127.20613842","imageIndex":17,"items":[{"name":"흥진타이루","tel":"031-535-0808","addr":"경기도 포천시 신읍동 202-21번지","indutype":"건축자재 - 건축용 요업제품","category":"other"}]},{"lat":"37.897692367","long":"127.2001631","imageIndex":17,"items":[{"name":"희망광고","tel":"031-536-1600","addr":"경기도 포천시 신읍동 46-19번지","indutype":"용역 서비스 - 종합용역","category":"other"},{"name":"희망디자인","tel":"","addr":"경기도 포천시 신읍동 46-19번지","indutype":"유통업 영리 - 기타유통업","category":"other"},{"name":"희망디자인","tel":"536-1600","addr":"경기도 포천시 신읍동 46-19번지","indutype":"제조업 - 판촉,인쇄","category":"other"}]},{"lat":"37.901716551","long":"127.20718911","imageIndex":17,"items":[{"name":"희망세탁소","tel":"031-535-0318","addr":"경기도 포천시 신읍동 13-14번지","indutype":"수리서비스 - 세탁소","category":"other"}]}]