[{"lat":"37.40036296","long":"127.1855706","imageIndex":7,"items":[{"name":"대림배농원","tel":"031-769-4582","addr":"경기도 광주시 직동 186-1번지","indutype":"음료식품 - 농·축·수산품","category":"food"}]},{"lat":"37.40014081","long":"127.2004552","imageIndex":7,"items":[{"name":"대양수산","tel":"031-000-0000","addr":"경기도 광주시 직동 34-2번지 1층","indutype":"음료식품 - 농·축·수산품","category":"food"}]},{"lat":"37.39975631","long":"127.187489","imageIndex":7,"items":[{"name":"미주물산(주)","tel":"031-766-0890","addr":"경기도 광주시 직동 176번지","indutype":"음료식품 - 농·축·수산품","category":"food"}]},{"lat":"37.39997186","long":"127.18793","imageIndex":7,"items":[{"name":"새벽통상","tel":"031-766-6987","addr":"경기도 광주시 직동 152-1번지","indutype":"음료식품 - 농·축·수산품","category":"food"}]},{"lat":"37.400396","long":"127.1987054","imageIndex":7,"items":[{"name":"재영기계","tel":"031-765-6220","addr":"경기도 광주시 직동 47-2번지","indutype":"음료식품 - 기타음료식품","category":"food"}]},{"lat":"37.3998657","long":"127.2033118","imageIndex":7,"items":[{"name":"제일무역","tel":"031-716-0009","addr":"경기도 광주시 직동 18-1번지 영신빌딩 2층","indutype":"음료식품 - 농·축·수산품","category":"food"}]},{"lat":"37.40139099","long":"127.190757","imageIndex":7,"items":[{"name":"주식회사 성대유통","tel":"070-7619-3954","addr":"경기도 광주시 직동 162-1번지","indutype":"음료식품 - 주류 판매점","category":"food"}]},{"lat":"37.40006055","long":"127.1999581","imageIndex":7,"items":[{"name":"한국식품","tel":"031-766-1375","addr":"경기도 광주시 직동 34-8번지 1층","indutype":"음료식품 - 농·축·수산품","category":"food"}]}]