[{"lat":"37.645776254","long":"127.23558371","imageIndex":7,"items":[{"name":"(주)두플레이","tel":"031-593-0480","addr":"경기도 남양주시 평내동 579-3번지 M2 PLAZA 501호","indutype":"음료식품 - 기타음료식품","category":"food"},{"name":"맘씨솜씨선경씨 반찬가게","tel":"031-000-0000","addr":"경기도 남양주시 평내동 579-3번지 평내엠투프라자 1층 121-1호","indutype":"음료식품 - 기타음료식품","category":"food"},{"name":"별별식빵","tel":"031-593-5552","addr":"경기도 남양주시 평내동 579-3번지 평내엠투프라자 101호","indutype":"음료식품 - 제과점","category":"food"}]},{"lat":"37.643196898","long":"127.23689","imageIndex":7,"items":[{"name":"CAFE 마카롱","tel":"031-594-9318","addr":"경기도 남양주시 평내동 604번지 드림코아 112호","indutype":"음료식품 - 제과점","category":"food"},{"name":"쿵떡","tel":"031-511-6414","addr":"경기도 남양주시 평내동 604번지 드림코아 112호","indutype":"음료식품 - 제과점","category":"food"}]},{"lat":"37.645267258","long":"127.2423126","imageIndex":7,"items":[{"name":"건강약촌","tel":"070-7608-1014","addr":"경기도 남양주시 평내동 599번지 평내마을중흥에스클래스 2007동 1703호","indutype":"건강식품 - 기타건강식품","category":"food"}]},{"lat":"37.645863041","long":"127.24174797","imageIndex":7,"items":[{"name":"건어물총판","tel":"031-592-3434","addr":"경기도 남양주시 평내동 599번지 평내마을중흥에스클래스 상가 1동 114호","indutype":"음료식품 - 농·축·수산품","category":"food"},{"name":"황제제과찐빵","tel":"031-594-9244","addr":"경기도 남양주시 평내동 599중흥에스클래스상가2동104","indutype":"음료식품 - 제과점","category":"food"}]},{"lat":"37.649643723","long":"127.24341446","imageIndex":7,"items":[{"name":"광동상사(성동)","tel":"031-511-1983","addr":"경기도 남양주시 평내동 136번지","indutype":"음료식품 - 기타음료식품","category":"food"}]},{"lat":"37.64533117","long":"127.23282895","imageIndex":7,"items":[{"name":"남양주 지점 구내매점","tel":"031-591-0299","addr":"경기도 남양주시 평내동 573번지 3층","indutype":"음료식품 - 기타음료식품","category":"food"}]},{"lat":"37.647391294","long":"127.24341853","imageIndex":7,"items":[{"name":"남양주와이엠씨에이등대소비자생활협동조합","tel":"031-595-6677","addr":"경기도 남양주시 평내동 597-2번지 4층","indutype":"음료식품 - 농·축·수산품","category":"food"},{"name":"멘토건강식품 (웰빙)건강원","tel":"031-559-6188","addr":"경기도 남양주시 평내동 597-2번지 늘봄프라자 108호","indutype":"회원제형태 - 건강식품","category":"food"},{"name":"바다유통","tel":"031-592-3434","addr":"경기도 남양주시 평내동 597-2번지 늘봄프라자 B동 102호","indutype":"음료식품 - 농·축·수산품","category":"food"}]},{"lat":"37.64514399","long":"127.23638622","imageIndex":7,"items":[{"name":"더달달아이스크림할인점(평내점)","tel":"070-7423-6603","addr":"경기도 남양주시 평내동 580-1번지 CH리베로2 115호","indutype":"음료식품 - 기타음료식품","category":"food"},{"name":"부안 상회","tel":"","addr":"경기도 남양주시 평내동 580-1번지 CH리베로2 1층 104호","indutype":"음료식품 - 농·축·수산품","category":"food"},{"name":"종로떡방","tel":"031-592-9997","addr":"경기도 남양주시 평내동 580-1번지 CH리베로2 106호","indutype":"음료식품 - 제과점","category":"food"},{"name":"착한 정육점","tel":"031-591-3735","addr":"경기도 남양주시 평내동 580-1번지 CH리베로2 113호","indutype":"음료식품 - 정육점","category":"food"},{"name":"착한정육점","tel":"031-591-3735","addr":"경기도 남양주시 평내동 580-1번지 CH리베로2 113호","indutype":"음료식품 - 정육점","category":"food"}]},{"lat":"37.650581638","long":"127.23849959","imageIndex":7,"items":[{"name":"떡보의 하루(남양주점)","tel":"031-592-4427","addr":"경기도 남양주시 평내동 121-2번지 제일빌딩 1층 1호","indutype":"음료식품 - 기타음료식품","category":"food"}]},{"lat":"37.646774913","long":"127.23630068","imageIndex":7,"items":[{"name":"라라카롱","tel":"","addr":"경기도 남양주시 평내동 585-3번지 101호","indutype":"음료식품 - 기타음료식품","category":"food"}]},{"lat":"37.646692659","long":"127.23688963","imageIndex":7,"items":[{"name":"레몬하우스","tel":"031-593-4455","addr":"경기도 남양주시 평내동 586-5번지 지층","indutype":"음료식품 - 기타음료식품","category":"food"}]},{"lat":"37.64791572","long":"127.2425024","imageIndex":7,"items":[{"name":"로히커피","tel":"031-591-5999","addr":"경기도 남양주시 평내동 89-2번지 지층","indutype":"음료식품 - 기타음료식품","category":"food"}]},{"lat":"37.648637546","long":"127.23749629","imageIndex":7,"items":[{"name":"류디저트집","tel":"031-111-1111","addr":"경기도 남양주시 평내동 268-1번지 1층","indutype":"음료식품 - 기타음료식품","category":"food"}]},{"lat":"37.645886821","long":"127.23433766","imageIndex":7,"items":[{"name":"르하임스터디카페 남양주평내점","tel":"031-522-5739","addr":"경기도 남양주시 평내동 578-1번지 다모아프라자 303호","indutype":"음료식품 - 기타음료식품","category":"food"},{"name":"베스킨라빈스31","tel":"031-592-3330","addr":"경기도 남양주시 평내동 578-1번지 다모아프라자 1층 108호","indutype":"음료식품 - 제과점","category":"food"},{"name":"아빠손두부","tel":"031-511-1029","addr":"경기도 남양주시 평내동 578-1번지 다모아프라자 116호","indutype":"음료식품 - 기타음료식품","category":"food"},{"name":"예스24","tel":"031-511-6307","addr":"경기도 남양주시 평내동 578-1번지 다모아프라자 106호","indutype":"음료식품 - 기타음료식품","category":"food"},{"name":"철수네과일야채","tel":"","addr":"경기도 남양주시 평내동 578-1번지 다모아프라자 1층 116호","indutype":"음료식품 - 농·축·수산품","category":"food"}]},{"lat":"37.644922523","long":"127.23447064","imageIndex":7,"items":[{"name":"마이 팜","tel":"","addr":"경기도 남양주시 평내동 577-10번지 101호","indutype":"음료식품 - 농·축·수산품","category":"food"}]},{"lat":"37.642944696","long":"127.23685522","imageIndex":7,"items":[{"name":"마켓찌니","tel":"031-111-1111","addr":"경기도 남양주시 평내동 604-10번지 우영프라자 1층 112호","indutype":"음료식품 - 기타음료식품","category":"food"},{"name":"파리바게트평내마을점","tel":"031-511-8211","addr":"경기도 남양주시 평내동 604-10번지 우영프라자 109호,110호","indutype":"음료식품 - 제과점","category":"food"},{"name":"한삼인평내점","tel":"031-595-2133","addr":"경기도 남양주시 평내동 604-10번지 외2필지우영프라자 101호","indutype":"건강식품 - 홍삼제품","category":"food"},{"name":"허브힐링점핑","tel":"031-595-7677","addr":"경기도 남양주시 평내동 604-10번지 우영프라자 1동 3층 301호","indutype":"건강식품 - 기타건강식품","category":"food"}]},{"lat":"37.64579012","long":"127.23767996","imageIndex":7,"items":[{"name":"마포석수","tel":"022-6455-4377","addr":"경기도 남양주시 평내동 581 평내1차대주파크빌 1505-101","indutype":"음료식품 - 기타음료식품","category":"food"}]},{"lat":"37.642555548","long":"127.23772643","imageIndex":7,"items":[{"name":"만나떡고추기름방앗간","tel":"031-511-0393","addr":"경기도 남양주시 평내동 604-5번지 외1필지 동부프라자 110","indutype":"음료식품 - 제과점","category":"food"},{"name":"식빵의품격","tel":"031-511-0077","addr":"경기도 남양주시 평내동 604-5번지 동부프라자 1층 107호","indutype":"음료식품 - 제과점","category":"food"},{"name":"오레시피남양주평내점","tel":"031-592-9744","addr":"경기도 남양주시 평내동 604-5번지 동부프라자 1층 103호","indutype":"음료식품 - 기타음료식품","category":"food"},{"name":"평내중매인축산물직판장","tel":"031-592-3788","addr":"경기도 남양주시 평내동 604-5번지 외1필지동부프라자 106호","indutype":"음료식품 - 정육점","category":"food"}]},{"lat":"37.648914563","long":"127.23864163","imageIndex":7,"items":[{"name":"맛나방앗간","tel":"031-559-9993","addr":"경기도 남양주시 평내동 269-20번지 대양빌딩 104호","indutype":"음료식품 - 제과점","category":"food"},{"name":"해동방앗간","tel":"031-591-9950","addr":"경기도 남양주시 평내동 269-20번지","indutype":"음료식품 - 기타음료식품","category":"food"}]},{"lat":"37.646029015","long":"127.23533522","imageIndex":7,"items":[{"name":"미코(MICO)","tel":"031-594-6472","addr":"경기도 남양주시 평내동 579-2번지 강남프라자 105호","indutype":"음료식품 - 제과점","category":"food"},{"name":"한돈,한우정육","tel":"031-591-0001","addr":"경기도 남양주시 평내동 579-2번지 115,116,1117호","indutype":"음료식품 - 정육점","category":"food"},{"name":"허브힐링센타","tel":"","addr":"경기도 남양주시 평내동 579-2번지 오렌지웰빙타워 2층","indutype":"음료식품 - 기타음료식품","category":"food"}]},{"lat":"37.650138365","long":"127.23486077","imageIndex":7,"items":[{"name":"민다교역","tel":"031-594-4376","addr":"경기도 남양주시 평내동 215","indutype":"건강식품 - 기타건강식품","category":"food"}]},{"lat":"37.644779302","long":"127.23399431","imageIndex":7,"items":[{"name":"바이스콧","tel":"","addr":"경기도 남양주시 평내동 577-4번지 101호","indutype":"음료식품 - 기타음료식품","category":"food"}]},{"lat":"37.642644651","long":"127.23822525","imageIndex":7,"items":[{"name":"번창수산","tel":"031-592-0292","addr":"경기도 남양주시 평내동 603-6번지 케이마트","indutype":"음료식품 - 농·축·수산품","category":"food"}]},{"lat":"37.643199427","long":"127.23099817","imageIndex":7,"items":[{"name":"빠띠최","tel":"080-8888-8444","addr":"경기도 남양주시 평내동 559-2번지 1층","indutype":"음료식품 - 제과점","category":"food"}]},{"lat":"37.647169292","long":"127.23733304","imageIndex":7,"items":[{"name":"생기건강원","tel":"031-595-4288","addr":"경기도 남양주시 평내동 587-5번지","indutype":"건강식품 - 기타건강식품","category":"food"},{"name":"생기건강원","tel":"031-595-4288","addr":"경기도 남양주시 평내동 587-5번지","indutype":"건강식품 - 기타건강식품","category":"food"}]},{"lat":"37.647864921","long":"127.23638341","imageIndex":7,"items":[{"name":"생약초수집소(전국)","tel":"031-000-0000","addr":"경기도 남양주시 평내동 588-7번지 302호","indutype":"음료식품 - 농·축·수산품","category":"food"}]},{"lat":"37.646666506","long":"127.23644764","imageIndex":7,"items":[{"name":"소담찬&착한마녀","tel":"","addr":"경기도 남양주시 평내동 585-5번지 1층","indutype":"음료식품 - 기타음료식품","category":"food"}]},{"lat":"37.650026019","long":"127.23700208","imageIndex":7,"items":[{"name":"시외버스매표소","tel":"031-592-5262","addr":"경기도 남양주시 평내동 202-1","indutype":"음료식품 - 기타음료식품","category":"food"}]},{"lat":"37.649254328","long":"127.23541326","imageIndex":7,"items":[{"name":"신촌","tel":"031-591-7363","addr":"경기도 남양주시 평내동 222-3번지","indutype":"음료식품 - 기타음료식품","category":"food"}]},{"lat":"37.646946409","long":"127.23614258","imageIndex":7,"items":[{"name":"양화당","tel":"031-0000-0000","addr":"경기도 남양주시 평내동 584-12번지 1층","indutype":"음료식품 - 기타음료식품","category":"food"}]},{"lat":"37.644751762","long":"127.23425483","imageIndex":7,"items":[{"name":"어울림마트","tel":"031-559-6370","addr":"경기도 남양주시 평내동 577-12번지","indutype":"음료식품 - 기타음료식품","category":"food"}]},{"lat":"37.647224946","long":"127.23652871","imageIndex":7,"items":[{"name":"엄마의 부엌","tel":"031-594-6083","addr":"경기도 남양주시 평내동 584-9번지 1층","indutype":"음료식품 - 기타음료식품","category":"food"}]},{"lat":"37.650274905","long":"127.2431672","imageIndex":7,"items":[{"name":"에스에이치S.H축산","tel":"031-511-7666","addr":"경기도 남양주시 평내동 140번지 리치플러스 지층 B102-B105호 마트내 정육코너","indutype":"음료식품 - 정육점","category":"food"},{"name":"주성민약원","tel":"031-573-2063","addr":"경기도 남양주시 평내동 140번지 리치플러스 상가 122호","indutype":"건강식품 - 기타건강식품","category":"food"},{"name":"평내축산정육점","tel":"031-593-5145","addr":"경기도 남양주시 평내동 140번지","indutype":"음료식품 - 정육점","category":"food"}]},{"lat":"37.650059577","long":"127.23824864","imageIndex":7,"items":[{"name":"엘림매점","tel":"","addr":"경기도 남양주시 평내동 200-1번지 1층 일부호 후면상가","indutype":"음료식품 - 기타음료식품","category":"food"}]},{"lat":"37.650805042","long":"127.23941815","imageIndex":7,"items":[{"name":"옛고을손찐방집","tel":"031-559-1457","addr":"경기도 남양주시 평내동 118-2번지 태복빌딩 102호","indutype":"음료식품 - 제과점","category":"food"}]},{"lat":"37.64369984","long":"127.23769604","imageIndex":7,"items":[{"name":"오늘의찬","tel":"031-511-9133","addr":"경기도 남양주시 평내동 552외1필지대주파크빌상가-103","indutype":"음료식품 - 기타음료식품","category":"food"}]},{"lat":"37.643005827","long":"127.23782983","imageIndex":7,"items":[{"name":"오병이어","tel":"031-511-5022","addr":"경기도 남양주시 평내동 603-3번지 101호","indutype":"음료식품 - 농·축·수산품","category":"food"}]},{"lat":"37.645248712","long":"127.2335312","imageIndex":7,"items":[{"name":"요니와","tel":"031-111-1111","addr":"경기도 남양주시 평내동 575-9번지","indutype":"음료식품 - 제과점","category":"food"}]},{"lat":"37.641585605","long":"127.23155975","imageIndex":7,"items":[{"name":"우남마트","tel":"031-511-5325","addr":"경기도 남양주시 평내동 561우남상가103","indutype":"음료식품 - 기타음료식품","category":"food"}]},{"lat":"37.643636488","long":"127.22860877","imageIndex":7,"items":[{"name":"우리수산","tel":"031-591-6881","addr":"경기도 남양주시 평내동 398-1번지 한우촌 101호","indutype":"음료식품 - 농·축·수산품","category":"food"}]},{"lat":"37.643778142","long":"127.22991221","imageIndex":7,"items":[{"name":"자연애","tel":"031-511-0818","addr":"경기도 남양주시 평내동 558-2번지","indutype":"음료식품 - 기타음료식품","category":"food"}]},{"lat":"37.649835443","long":"127.2376927","imageIndex":7,"items":[{"name":"좋은가게","tel":"","addr":"경기도 남양주시 평내동 202-5번지 중앙빌딩 1층 좌측코너","indutype":"음료식품 - 농·축·수산품","category":"food"}]},{"lat":"37.647308717","long":"127.23516924","imageIndex":7,"items":[{"name":"주식회사 바론푸드","tel":"031-592-8500","addr":"경기도 남양주시 평내동 588-17번지 101호","indutype":"음료식품 - 기타음료식품","category":"food"}]},{"lat":"37.649142431","long":"127.24622302","imageIndex":7,"items":[{"name":"주식회사 세븐스타","tel":"031-592-8168","addr":"경기도 남양주시 평내동 45-1번지 고려코팅 3호","indutype":"음료식품 - 기타음료식품","category":"food"}]},{"lat":"37.646027427","long":"127.23613971","imageIndex":7,"items":[{"name":"진승건강원","tel":"031-593-3282","addr":"경기도 남양주시 평내동 582-7번지","indutype":"건강식품 - 기타건강식품","category":"food"}]},{"lat":"37.646334538","long":"127.23574409","imageIndex":7,"items":[{"name":"착한횟집","tel":"070-8613-7003","addr":"경기도 남양주시 평내동 582-5번지 102-1호","indutype":"음료식품 - 농·축·수산품","category":"food"}]},{"lat":"37.648582654","long":"127.23791538","imageIndex":7,"items":[{"name":"케이크데이","tel":"","addr":"경기도 남양주시 평내동 269-4번지 늘을빌딩 102호","indutype":"음료식품 - 기타음료식품","category":"food"}]},{"lat":"37.645336098","long":"127.23491382","imageIndex":7,"items":[{"name":"쿠키스타","tel":"","addr":"경기도 남양주시 평내동 578-3번지 메인프라자 112호","indutype":"음료식품 - 기타음료식품","category":"food"},{"name":"호랭이떡방","tel":"031-511-2115","addr":"경기도 남양주시 평내동 578-3번지 메인프라자 114호","indutype":"음료식품 - 제과점","category":"food"}]},{"lat":"37.647945716","long":"127.23653097","imageIndex":7,"items":[{"name":"크리스마스빈 로스팅 랩","tel":"070-8861-7000","addr":"경기도 남양주시 평내동 588-4번지 상가동 1층 104호","indutype":"음료식품 - 기타음료식품","category":"food"}]},{"lat":"37.645283509","long":"127.23416583","imageIndex":7,"items":[{"name":"탑프로","tel":"031-592-5533","addr":"경기도 남양주시 평내동 576-5번지 주차장빌딩 102호","indutype":"건강식품 - 기타건강식품","category":"food"}]},{"lat":"37.642360763","long":"127.23139217","imageIndex":7,"items":[{"name":"파리바게트","tel":"031-594-1230","addr":"경기도 남양주시 평내동 560에코타운307-2103.48/6","indutype":"음료식품 - 제과점","category":"food"}]},{"lat":"37.649664756","long":"127.23744287","imageIndex":7,"items":[{"name":"파리바게트 평내중앙점","tel":"031-511-7071","addr":"경기도 남양주시 평내동 203-8번지","indutype":"음료식품 - 제과점","category":"food"}]},{"lat":"37.650418808","long":"127.23882769","imageIndex":7,"items":[{"name":"평내떡백화점","tel":"031-562-5959","addr":"경기도 남양주시 평내동 117-4번지","indutype":"음료식품 - 제과점","category":"food"}]},{"lat":"37.643394076","long":"127.23741182","imageIndex":7,"items":[{"name":"한우랑 한돈이랑","tel":"031-595-5251","addr":"경기도 남양주시 평내동 603번지 씨티프라자 1층 106호","indutype":"음료식품 - 정육점","category":"food"}]},{"lat":"37.648975142","long":"127.23535573","imageIndex":7,"items":[{"name":"호랑카롱","tel":"031-595-2028","addr":"경기도 남양주시 평내동 250-7번지 구덕빌딩 102호","indutype":"음료식품 - 제과점","category":"food"}]}]