[{"lat":"37.954486808","long":"126.91860419","imageIndex":8,"items":[{"name":"굿모닝치과","tel":"031-959-2804","addr":"경기도 파주시 적성면 마지리 46-8번지","indutype":"병원 - 치과병원","category":"medical"}]},{"lat":"37.954126878","long":"126.91921902","imageIndex":8,"items":[{"name":"박영우의원","tel":"031-958-8838","addr":"경기도 파주시 적성면 마지리 62-18번지","indutype":"의원 - 의원","category":"medical"},{"name":"적성웰치과의원","tel":"031-958-2804","addr":"경기도 파주시 적성면 마지리 62-18번지","indutype":"의원 - 치과의원","category":"medical"},{"name":"정민약국","tel":"031-958-8830","addr":"경기도 파주시 적성면 마지리 62-18번지","indutype":"약국 - 약국","category":"medical"},{"name":"천일한의원","tel":"031-958-7774","addr":"경기도 파주시 적성면 마지리 62-18번지","indutype":"의원 - 한의원","category":"medical"}]},{"lat":"37.953738765","long":"126.9182182","imageIndex":8,"items":[{"name":"서울치과의원","tel":"031-959-2275","addr":"경기도 파주시 적성면 마지리 50-4번지","indutype":"의원 - 치과의원","category":"medical"},{"name":"적성연세의원","tel":"031-959-1300","addr":"경기도 파주시 적성면 마지리 50-4번지","indutype":"의원 - 의원","category":"medical"}]},{"lat":"37.954594862","long":"126.91852442","imageIndex":8,"items":[{"name":"솔직한약초","tel":"031-959-3361","addr":"경기도 파주시 적성면 마지리 46-7번지","indutype":"약국 - 한약방","category":"medical"}]},{"lat":"37.954594976","long":"126.91868372","imageIndex":8,"items":[{"name":"신일약국","tel":"031-959-4219","addr":"경기도 파주시 적성면 마지리 46-9번지 화랑빌딩 1층","indutype":"약국 - 약국","category":"medical"},{"name":"제일의원","tel":"031-959-6005","addr":"경기도 파주시 적성면 마지리 46-9번지","indutype":"의원 - 의원","category":"medical"}]},{"lat":"37.953017526","long":"126.91752497","imageIndex":8,"items":[{"name":"적성실로암약국","tel":"031-958-4008","addr":"경기도 파주시 적성면 마지리 51-3번지","indutype":"약국 - 약국","category":"medical"},{"name":"적성이강흉부외과의원","tel":"031-959-2119","addr":"경기도 파주시 적성면 마지리 51-3번지","indutype":"의원 - 의원","category":"medical"}]},{"lat":"37.960066592","long":"126.91068943","imageIndex":8,"items":[{"name":"한성동물병원","tel":"031-958-7511","addr":"경기도 파주시 적성면 마지리 193-19번지","indutype":"기타의료기관 - 동물병원","category":"medical"}]}]