[{"lat":"37.835731734","long":"127.50901854","imageIndex":4,"items":[{"name":"201410화정족발","tel":"031-581-1818","addr":"경기도 가평군 가평읍 읍내리 738-8번지 1층","indutype":"일반휴게음식 - 일반한식","category":"restaurant"},{"name":"연인산잣닭갈비","tel":"031-581-5589","addr":"경기도 가평군 가평읍 읍내리 738-8번지","indutype":"일반휴게음식 - 일반한식","category":"restaurant"}]},{"lat":"37.826681933","long":"127.51835009","imageIndex":4,"items":[{"name":"6호점읍내7리마을회","tel":"070-7013-8871","addr":"경기도 가평군 가평읍 읍내리 1035 외9필지","indutype":"일반휴게음식 - 일반한식","category":"restaurant"},{"name":"현기네송어구이","tel":"070-7013-8874","addr":"경기도 가평군 가평읍 읍내리 1035 외 14필지","indutype":"일반휴게음식 - 일반한식","category":"restaurant"}]},{"lat":"37.833729133","long":"127.50960691","imageIndex":4,"items":[{"name":"BHC치킨 가평점","tel":"031-581-2930","addr":"경기도 가평군 가평읍 읍내리 635-2번지 에이스1차","indutype":"일반휴게음식 - 스넥","category":"restaurant"},{"name":"안동닭갈비","tel":"031-582-4760","addr":"경기도 가평군 가평읍 읍내리 635-2","indutype":"일반휴게음식 - 일반한식","category":"restaurant"},{"name":"안동닭갈비","tel":"031-582-4760","addr":"경기도 가평군 가평읍 읍내리 635-2 1층상가 4호,5호","indutype":"일반휴게음식 - 일반한식","category":"restaurant"}]},{"lat":"37.831815788","long":"127.51038897","imageIndex":4,"items":[{"name":"가리온야식","tel":"031-581-6883","addr":"경기도 가평군 가평읍 읍내리 508-8번지 우진빌딩 2층","indutype":"일반휴게음식 - 일반한식","category":"restaurant"}]},{"lat":"37.825708115","long":"127.51232347","imageIndex":4,"items":[{"name":"가평감자탕","tel":"031-582-0225","addr":"경기도 가평군 가평읍 읍내리 615-9번지 푸른농수산슈퍼 2동","indutype":"일반휴게음식 - 일반한식","category":"restaurant"},{"name":"감자보리밥","tel":"031-582-4934","addr":"경기도 가평군 가평읍 읍내리 613-1번지","indutype":"일반휴게음식 - 일반한식","category":"restaurant"}]},{"lat":"37.838649117","long":"127.50730037","imageIndex":4,"items":[{"name":"가평기사식당","tel":"031-582-5155","addr":"경기도 가평군 가평읍 읍내리 764-1번지","indutype":"일반휴게음식 - 일반한식","category":"restaurant"},{"name":"가평기사식당","tel":"031-582-5155","addr":"경기도 가평군 가평읍 읍내리 764-1번지","indutype":"일반휴게음식 - 일반한식","category":"restaurant"},{"name":"타이푸샤브샤브양꼬치","tel":"070-7543-5157","addr":"경기도 가평군 가평읍 읍내리 764-1번지","indutype":"일반휴게음식 - 일반한식","category":"restaurant"}]},{"lat":"37.832702051","long":"127.50961125","imageIndex":4,"items":[{"name":"가평다문화가족카페A-ha","tel":"070-7510-5875","addr":"경기도 가평군 가평읍 읍내리 613-3번지","indutype":"일반휴게음식 - 서양음식","category":"restaurant"},{"name":"먹거리식당","tel":"031-582-7216","addr":"경기도 가평군 가평읍 읍내리 613-3번지","indutype":"일반휴게음식 - 일반한식","category":"restaurant"}]},{"lat":"37.82670536","long":"127.51504497","imageIndex":4,"items":[{"name":"가평숯불고기","tel":"031-582-4331","addr":"경기도 가평군 가평읍 읍내리 349-5번지","indutype":"일반휴게음식 - 일반한식","category":"restaurant"}]},{"lat":"37.828564386","long":"127.51433087","imageIndex":4,"items":[{"name":"가평추어탕","tel":"031-582-7051","addr":"경기도 가평군 가평읍 읍내리 476-2번지","indutype":"일반휴게음식 - 일반한식","category":"restaurant"},{"name":"또뽀끼야","tel":"031-581-3082","addr":"경기도 가평군 가평읍 읍내리 475-29번지","indutype":"일반휴게음식 - 일반한식","category":"restaurant"},{"name":"또뽀끼야가평점","tel":"031-581-3082","addr":"경기도 가평군 가평읍 읍내리 475-29번지","indutype":"일반휴게음식 - 일반한식","category":"restaurant"}]},{"lat":"37.829709672","long":"127.51407752","imageIndex":4,"items":[{"name":"감자옹심이칼국수","tel":"031-582-5355","addr":"경기도 가평군 가평읍 읍내리 474-1","indutype":"일반휴게음식 - 일반한식","category":"restaurant"},{"name":"기냥돼지투","tel":"031-581-3395","addr":"경기도 가평군 가평읍 읍내리 474-1번지","indutype":"일반휴게음식 - 일반한식","category":"restaurant"},{"name":"미당등촌샤브샤브","tel":"031-582-8215","addr":"경기도 가평군 가평읍 읍내리 474-1","indutype":"일반휴게음식 - 일반한식","category":"restaurant"},{"name":"선우소막창","tel":"031-581-7386","addr":"경기도 가평군 가평읍 읍내리 474-1번지 B동","indutype":"일반휴게음식 - 일반한식","category":"restaurant"},{"name":"오 필승닭발","tel":"031-581-0556","addr":"경기도 가평군 가평읍 읍내리 474-1번지 B동","indutype":"일반휴게음식 - 일반한식","category":"restaurant"},{"name":"토박이순대국","tel":"031-581-1591","addr":"경기도 가평군 가평읍 읍내리 474-1 제2호","indutype":"일반휴게음식 - 일반한식","category":"restaurant"}]},{"lat":"37.832189462","long":"127.50939192","imageIndex":4,"items":[{"name":"강촌","tel":"031-581-7775","addr":"경기도 가평군 가평읍 읍내리 609번지 B동","indutype":"일반휴게음식 - 일반한식","category":"restaurant"},{"name":"승리 손칼국수","tel":"031-581-7775","addr":"경기도 가평군 가평읍 읍내리 609번지 B동","indutype":"일반휴게음식 - 일반한식","category":"restaurant"}]},{"lat":"37.832312549","long":"127.51218713","imageIndex":4,"items":[{"name":"강포차","tel":"","addr":"경기도 가평군 가평읍 읍내리 267-4번지","indutype":"일반휴게음식 - 일반한식","category":"restaurant"},{"name":"스마일 명품 찹쌀 꽈배기","tel":"031-582-6232","addr":"경기도 가평군 가평읍 읍내리 267-4번지","indutype":"일반휴게음식 - 일반한식","category":"restaurant"},{"name":"허브생삼겹","tel":"031-581-8208","addr":"경기도 가평군 가평읍 읍내리 267-4번지","indutype":"일반휴게음식 - 일반한식","category":"restaurant"}]},{"lat":"37.830873664","long":"127.51366526","imageIndex":4,"items":[{"name":"개코막걸리","tel":"031-582-7228","addr":"경기도 가평군 가평읍 읍내리 408-4번지 1층","indutype":"일반휴게음식 - 일반한식","category":"restaurant"}]},{"lat":"37.836426847","long":"127.50869386","imageIndex":4,"items":[{"name":"거북선횟집","tel":"031-582-3203","addr":"경기도 가평군 가평읍 읍내리 636번지","indutype":"일반휴게음식 - 일반한식","category":"restaurant"}]},{"lat":"37.832481088","long":"127.51071158","imageIndex":4,"items":[{"name":"고은골","tel":"031-581-1211","addr":"경기도 가평군 가평읍 읍내리 622-1","indutype":"일반휴게음식 - 일반한식","category":"restaurant"}]},{"lat":"37.831842505","long":"127.51254739","imageIndex":4,"items":[{"name":"고은김밥","tel":"031-582-8862","addr":"경기도 가평군 가평읍 읍내리 443-6번지","indutype":"일반휴게음식 - 일반한식","category":"restaurant"},{"name":"고은김밥","tel":"031-582-8862","addr":"경기도 가평군 가평읍 읍내리 443-6번지","indutype":"일반휴게음식 - 일반한식","category":"restaurant"}]},{"lat":"37.829400016","long":"127.51276912","imageIndex":4,"items":[{"name":"고향마을","tel":"031-581-5259","addr":"경기도 가평군 가평읍 읍내리 468-46번지","indutype":"일반휴게음식 - 일반한식","category":"restaurant"}]},{"lat":"37.830287484","long":"127.51379753","imageIndex":4,"items":[{"name":"고향집","tel":"","addr":"경기도 가평군 가평읍 읍내리 475","indutype":"일반휴게음식- 일반한식","category":"restaurant"}]},{"lat":"37.830793321","long":"127.51349433","imageIndex":4,"items":[{"name":"골목집","tel":"031-582-2855","addr":"경기도 가평군 가평읍 읍내리 402-30번지","indutype":"일반휴게음식 - 일반한식","category":"restaurant"},{"name":"용성각","tel":"02-582-8852","addr":"경기도 가평군 가평읍 읍내리 471-4번지","indutype":"일반휴게음식 - 중국식","category":"restaurant"},{"name":"용성각","tel":"02-582-8852","addr":"경기도 가평군 가평읍 읍내리 471-4번지","indutype":"일반휴게음식 - 중국식","category":"restaurant"},{"name":"장군한정식","tel":"031-582-7885","addr":"경기도 가평군 가평읍 읍내리 464-5번지","indutype":"일반휴게음식 - 일반한식","category":"restaurant"}]},{"lat":"37.830513548","long":"127.51360599","imageIndex":4,"items":[{"name":"교동식당","tel":"031-582-2151","addr":"경기도 가평군 가평읍 읍내리 471-2번지","indutype":"일반휴게음식 - 일반한식","category":"restaurant"},{"name":"바우네 나주곰탕","tel":"031-582-3335","addr":"경기도 가평군 가평읍 읍내리 471-2번지 1층","indutype":"일반휴게음식 - 일반한식","category":"restaurant"},{"name":"삼삼(33)떡볶이","tel":"031-582-3352","addr":"경기도 가평군 가평읍 읍내리 471-2번지 1층","indutype":"일반휴게음식 - 스넥","category":"restaurant"},{"name":"피자스쿨 가평점","tel":"031-581-6988","addr":"경기도 가평군 가평읍 읍내리 471-2번지","indutype":"일반휴게음식 - 서양음식","category":"restaurant"}]},{"lat":"37.82898796","long":"127.51429971","imageIndex":4,"items":[{"name":"교동짬뽕","tel":"031-582-8489","addr":"경기도 가평군 가평읍 읍내리 475-1번지","indutype":"일반휴게음식 - 중국식","category":"restaurant"}]},{"lat":"37.830763039","long":"127.51216512","imageIndex":4,"items":[{"name":"굿데이쭈꾸미","tel":"031-581-9001","addr":"경기도 가평군 가평읍 읍내리 459-4번지 1동 1층","indutype":"일반휴게음식 - 일반한식","category":"restaurant"}]},{"lat":"37.836065655","long":"127.50888451","imageIndex":4,"items":[{"name":"그램그램","tel":"031-582-5567","addr":"경기도 가평군 가평읍 읍내리 738-2번지 1층","indutype":"일반휴게음식 - 일반한식","category":"restaurant"}]},{"lat":"37.830563609","long":"127.51452641","imageIndex":4,"items":[{"name":"금잔디식당","tel":"031-581-5578","addr":"경기도 가평군 가평읍 읍내리 407-1번지","indutype":"일반휴게음식 - 일반한식","category":"restaurant"}]},{"lat":"37.830736113","long":"127.51422091","imageIndex":4,"items":[{"name":"기사식당","tel":"031-582-3411","addr":"경기도 가평군 가평읍 읍내리 408-1","indutype":"일반휴게음식 - 일반한식","category":"restaurant"},{"name":"로뎀해장국가평점","tel":"031-582-2505","addr":"경기도 가평군 가평읍 읍내리 408-1번지","indutype":"일반휴게음식 - 일반한식","category":"restaurant"}]},{"lat":"37.828900383","long":"127.51371981","imageIndex":4,"items":[{"name":"길다방","tel":"031-582-0708","addr":"경기도 가평군 가평읍 읍내리 476-9번지","indutype":"일반휴게음식 - 서양음식","category":"restaurant"},{"name":"중화루","tel":"031-582-6920","addr":"경기도 가평군 가평읍 읍내리 476-9번지","indutype":"일반휴게음식 - 중국식","category":"restaurant"}]},{"lat":"37.836595285","long":"127.50933116","imageIndex":4,"items":[{"name":"김밥이다","tel":"031-581-1397","addr":"경기도 가평군 가평읍 읍내리 741-7번지 1층","indutype":"일반휴게음식 - 스넥","category":"restaurant"},{"name":"육공판","tel":"031-581-8830","addr":"경기도 가평군 가평읍 읍내리 741-7번지","indutype":"일반휴게음식 - 일반한식","category":"restaurant"}]},{"lat":"37.831039814","long":"127.51274633","imageIndex":4,"items":[{"name":"김밥천국(읍내점)","tel":"031-582-0805","addr":"경기도 가평군 가평읍 읍내리 449-1번지","indutype":"일반휴게음식 - 일반한식","category":"restaurant"},{"name":"이태원다방","tel":"031-581-4884","addr":"경기도 가평군 가평읍 읍내리 449-1번지","indutype":"일반휴게음식 - 서양음식","category":"restaurant"}]},{"lat":"37.829313094","long":"127.51618751","imageIndex":4,"items":[{"name":"깻잎두마리 칩킨","tel":"031-582-9071","addr":"경기도 가평군 가평읍 읍내리 392-3번지","indutype":"일반휴게음식 - 스넥","category":"restaurant"}]},{"lat":"37.830452143","long":"127.51529804","imageIndex":4,"items":[{"name":"깻잎두마리칩킨","tel":"","addr":"경기도 가평군 가평읍 읍내리 392-3번지","indutype":"일반휴게음식 - 스넥","category":"restaurant"},{"name":"할머니손순대","tel":"031-582-8058","addr":"경기도 가평군 가평읍 읍내리 411-1번지","indutype":"일반휴게음식 - 일반한식","category":"restaurant"},{"name":"할머니손순대","tel":"031-582-8058","addr":"경기도 가평군 가평읍 읍내리 411-1번지","indutype":"일반휴게음식 - 일반한식","category":"restaurant"}]},{"lat":"37.83531717","long":"127.50904979","imageIndex":4,"items":[{"name":"나는포차","tel":"031-582-7536","addr":"경기도 가평군 가평읍 읍내리 672-4번지","indutype":"일반휴게음식 - 일반한식","category":"restaurant"},{"name":"손씨네캠프식당","tel":"031-581-2652","addr":"경기도 가평군 가평읍 읍내리 672-4번지 일억조참치삼치 A동","indutype":"일반휴게음식 - 일반한식","category":"restaurant"},{"name":"왕대구막창","tel":"031-582-3206","addr":"경기도 가평군 가평읍 읍내리 672-4번지","indutype":"일반휴게음식 - 일반한식","category":"restaurant"},{"name":"은성칼국수 비빔국수","tel":"031-582-2277","addr":"경기도 가평군 가평읍 읍내리 672-4번지 일억조참치삼치 A동 1층","indutype":"일반휴게음식 - 일반한식","category":"restaurant"},{"name":"캠프부대찌개","tel":"031-581-2652","addr":"경기도 가평군 가평읍 읍내리 672-4번지","indutype":"일반휴게음식 - 일반한식","category":"restaurant"}]},{"lat":"37.832565155","long":"127.51001924","imageIndex":4,"items":[{"name":"내고향밥상","tel":"031-582-2400","addr":"경기도 가평군 가평읍 읍내리 615-5번지 616동 2호","indutype":"일반휴게음식 - 일반한식","category":"restaurant"},{"name":"생선구이전문점","tel":"031-582-4571","addr":"경기도 가평군 가평읍 읍내리 615-5번지","indutype":"일반휴게음식 - 일반한식","category":"restaurant"},{"name":"원조통큰할매순대국","tel":"031-581-3789","addr":"경기도 가평군 가평읍 읍내리 615-5번지","indutype":"일반휴게음식 - 일반한식","category":"restaurant"},{"name":"콩두레","tel":"031-581-0988","addr":"경기도 가평군 가평읍 읍내리 615-5번지","indutype":"일반휴게음식 - 일반한식","category":"restaurant"}]},{"lat":"37.833042146","long":"127.5101361","imageIndex":4,"items":[{"name":"누나홀닭 가평점","tel":"031-582-9992","addr":"경기도 가평군 가평읍 읍내리 616-6번지 1층 2호","indutype":"일반휴게음식 - 일반한식","category":"restaurant"},{"name":"승리손칼국수","tel":"","addr":"경기도 가평군 가평읍 읍내리 609번지","indutype":"일반휴게음식 - 일반한식","category":"restaurant"},{"name":"엄마네집밥","tel":"031-581-1250","addr":"경기도 가평군 가평읍 읍내리 616-6번지 1층","indutype":"일반휴게음식 - 일반한식","category":"restaurant"},{"name":"참새와방앗간","tel":"","addr":"경기도 가평군 가평읍 읍내리 329-1번지","indutype":"일반휴게음식 - 일반한식","category":"restaurant"},{"name":"태양부숯불양꼬치","tel":"031-581-2555","addr":"경기도 가평군 가평읍 읍내리 616-6번지","indutype":"일반휴게음식 - 일반한식","category":"restaurant"},{"name":"태양부숯불양꼬치","tel":"031-581-2555","addr":"경기도 가평군 가평읍 읍내리 616-6번지","indutype":"일반휴게음식 - 일반한식","category":"restaurant"}]},{"lat":"37.832258211","long":"127.51016481","imageIndex":4,"items":[{"name":"다빈치","tel":"031-582-9510","addr":"경기도 가평군 가평읍 읍내리 617-5","indutype":"일반휴게음식 - 일반한식","category":"restaurant"}]},{"lat":"37.823430538","long":"127.51191029","imageIndex":4,"items":[{"name":"다한우","tel":"031-581-9227","addr":"경기도 가평군 가평읍 읍내리 342-3번지","indutype":"일반휴게음식 - 일반한식","category":"restaurant"}]},{"lat":"37.83103615","long":"127.51566557","imageIndex":4,"items":[{"name":"달 그리고 별 다방","tel":"031-582-7574","addr":"경기도 가평군 가평읍 읍내리 416-2번지 1층","indutype":"일반휴게음식 - 서양음식","category":"restaurant"}]},{"lat":"37.831014949","long":"127.51224636","imageIndex":4,"items":[{"name":"대나무통와인삼겹","tel":"031-582-7545","addr":"경기도 가평군 가평읍 읍내리 457-10번지","indutype":"일반휴게음식 - 일반한식","category":"restaurant"}]},{"lat":"37.826848764","long":"127.51521634","imageIndex":4,"items":[{"name":"대박장어","tel":"031-581-5646","addr":"경기도 가평군 가평읍 읍내리 360-3번지","indutype":"일반휴게음식 - 일반한식","category":"restaurant"}]},{"lat":"37.83162373","long":"127.51313656","imageIndex":4,"items":[{"name":"대흥각","tel":"031-581-1195","addr":"경기도 가평군 가평읍 읍내리 445-2번지 1층","indutype":"일반휴게음식 - 일반한식","category":"restaurant"}]},{"lat":"37.832458854","long":"127.51168833","imageIndex":4,"items":[{"name":"덕성원","tel":"031-582-9057","addr":"경기도 가평군 가평읍 읍내리 619-1번지 덕성원","indutype":"일반휴게음식 - 중국식","category":"restaurant"},{"name":"덕성원","tel":"031-582-9057","addr":"경기도 가평군 가평읍 읍내리 619-1번지","indutype":"일반휴게음식 - 중국식","category":"restaurant"}]},{"lat":"37.829564303","long":"127.51019181","imageIndex":4,"items":[{"name":"도원 뚝배기 짬뽕","tel":"031-582-5552","addr":"경기도 가평군 가평읍 읍내리 535번지","indutype":"일반휴게음식 - 중국식","category":"restaurant"}]},{"lat":"37.833289008","long":"127.5092972","imageIndex":4,"items":[{"name":"돈통","tel":"031-581-0778","addr":"경기도 가평군 가평읍 읍내리 615-9번지","indutype":"일반휴게음식 - 일반한식","category":"restaurant"},{"name":"박원철자이언트피자","tel":"031-581-7700","addr":"경기도 가평군 가평읍 읍내리 615-9번지 푸른농수산슈퍼 2동","indutype":"일반휴게음식 - 서양음식","category":"restaurant"},{"name":"상록수","tel":"070-7793-4843","addr":"경기도 가평군 가평읍 읍내리 615-9번지","indutype":"일반휴게음식 - 일반한식","category":"restaurant"},{"name":"와사비","tel":"031-582-0059","addr":"경기도 가평군 가평읍 읍내리 615-9번지","indutype":"일반휴게음식 - 일반한식","category":"restaurant"}]},{"lat":"37.834007925","long":"127.50972241","imageIndex":4,"items":[{"name":"동이 동치미 메밀 막국수","tel":"031-582-3432","addr":"경기도 가평군 가평읍 읍내리 635-1번지","indutype":"일반휴게음식 - 일반한식","category":"restaurant"},{"name":"우렁각시쌈밥","tel":"031-581-1239","addr":"경기도 가평군 가평읍 읍내리 635-1번지","indutype":"일반휴게음식 - 일반한식","category":"restaurant"},{"name":"지중해","tel":"031-582-4689","addr":"경기도 가평군 가평읍 읍내리 635-1번지 지중해갈락탕","indutype":"일반휴게음식 - 일반한식","category":"restaurant"}]},{"lat":"37.830511035","long":"127.51418528","imageIndex":4,"items":[{"name":"두리회수산","tel":"031-582-8808","addr":"경기도 가평군 가평읍 읍내리 407-11번지","indutype":"일반휴게음식 - 일반한식","category":"restaurant"},{"name":"추억의옛날통닭","tel":"031-581-7209","addr":"경기도 가평군 가평읍 읍내리 407-11번지","indutype":"일반휴게음식 - 스넥","category":"restaurant"}]},{"lat":"37.833063537","long":"127.50935246","imageIndex":4,"items":[{"name":"등갈비 먹고 껍데기","tel":"031-581-7317","addr":"경기도 가평군 가평읍 읍내리 613-1번지 순덕이네 102호","indutype":"일반휴게음식 - 일반한식","category":"restaurant"},{"name":"쏘맥포차","tel":"031-582-3340","addr":"경기도 가평군 가평읍 읍내리 613-1번지 순덕이네 B동","indutype":"일반휴게음식 - 일반한식","category":"restaurant"},{"name":"옛날옛적","tel":"031-582-0006","addr":"경기도 가평군 가평읍 읍내리 613-1번지","indutype":"일반휴게음식 - 일반한식","category":"restaurant"},{"name":"옛날옛적","tel":"031-582-0006","addr":"경기도 가평군 가평읍 읍내리 613-1번지","indutype":"일반휴게음식 - 일반한식","category":"restaurant"}]},{"lat":"37.829732","long":"127.51099943","imageIndex":4,"items":[{"name":"땡촌 닭발","tel":"031-581-4578","addr":"경기도 가평군 가평읍 읍내리 493-3번지 1층","indutype":"일반휴게음식 - 일반한식","category":"restaurant"},{"name":"우리동네꽃족발","tel":"031-581-7999","addr":"경기도 가평군 가평읍 읍내리 493-3번지","indutype":"일반휴게음식 - 일반한식","category":"restaurant"}]},{"lat":"37.832098285","long":"127.5054383","imageIndex":4,"items":[{"name":"뚝배기짬뽕패밀리","tel":"031-582-1003","addr":"경기도 가평군 가평읍 읍내리 867-5번지 A동 1층","indutype":"일반휴게음식 - 중국식","category":"restaurant"}]},{"lat":"37.82943055","long":"127.52227663","imageIndex":4,"items":[{"name":"라바빌리지","tel":"031-000-0000","addr":"경기도 가평군 가평읍 읍내리 316-4번지","indutype":"일반휴게음식 - 일반한식","category":"restaurant"}]},{"lat":"37.8295091541","long":"127.5146099969","imageIndex":4,"items":[{"name":"래티오커피","tel":"","addr":"경기도 가평군 가평읍 읍내리 403","indutype":"일반휴게음식 - 서양음식","category":"restaurant"}]},{"lat":"37.829509154","long":"127.51461","imageIndex":4,"items":[{"name":"래티오커피(RATIO COFFEE)","tel":"031-111-1111","addr":"경기도 가평군 가평읍 읍내리 403번지","indutype":"일반휴게음식 - 서양음식","category":"restaurant"},{"name":"리에또 파니노","tel":"","addr":"경기도 가평군 가평읍 읍내리 403","indutype":"일반휴게음식 - 서양음식","category":"restaurant"},{"name":"리에또 파니노","tel":"","addr":"경기도 가평군 가평읍 읍내리 403번지","indutype":"일반휴게음식 - 서양음식","category":"restaurant"},{"name":"백스도그","tel":"","addr":"경기도 가평군 가평읍 읍내리 403","indutype":"일반휴게음식 - 서양음식","category":"restaurant"},{"name":"백스도그","tel":"","addr":"경기도 가평군 가평읍 읍내리 403번지","indutype":"일반휴게음식 - 서양음식","category":"restaurant"},{"name":"불로초밥","tel":"","addr":"경기도 가평군 가평읍 읍내리 403","indutype":"간이음식포장 - 판매전문점","category":"restaurant"},{"name":"잣고을 꼬꼬치","tel":"031-3901-1164","addr":"경기도 가평군 가평읍 읍내리 403번지","indutype":"일반휴게음식 - 서양음식","category":"restaurant"},{"name":"잣고을 꼬꼬치","tel":"031-3901-1164","addr":"경기도 가평군 가평읍 읍내리 403","indutype":"일반휴게음식 - 서양음식","category":"restaurant"},{"name":"잣고을153닭강정","tel":"","addr":"경기도 가평군 가평읍 읍내리 403번지","indutype":"일반휴게음식 - 스넥","category":"restaurant"},{"name":"잣고을153닭강정","tel":"031-581-7719","addr":"경기도 가평군 가평읍 읍내리 403","indutype":"일반휴게음식 - 스넥","category":"restaurant"},{"name":"팟타임","tel":"","addr":"경기도 가평군 가평읍 읍내리 403","indutype":"일반휴게음식 - 서양음식","category":"restaurant"},{"name":"팟타임","tel":"","addr":"경기도 가평군 가평읍 읍내리 403번지","indutype":"일반휴게음식 - 서양음식","category":"restaurant"},{"name":"휴일어때","tel":"","addr":"경기도 가평군 가평읍 읍내리 403","indutype":"일반휴게음식 - 서양음식","category":"restaurant"},{"name":"휴일어때?","tel":"031-000-0000","addr":"경기도 가평군 가평읍 읍내리 403번지","indutype":"일반휴게음식 - 서양음식","category":"restaurant"}]},{"lat":"37.829123836","long":"127.51413027","imageIndex":4,"items":[{"name":"롯데리아 가평점 ","tel":"031-581-0055","addr":"경기도 가평군 가평읍 읍내리 474-15번지","indutype":"일반휴게음식 - 서양음식","category":"restaurant"},{"name":"롯데리아가평점","tel":"031-581-0055","addr":"경기도 가평군 가평읍 읍내리 474-15번지 외1필지","indutype":"일반휴게음식 - 서양음식","category":"restaurant"}]},{"lat":"37.827509931","long":"127.51441446","imageIndex":4,"items":[{"name":"륭림닭발","tel":"031-582-2236","addr":"경기도 가평군 가평읍 읍내리 349-13번지 1층","indutype":"일반휴게음식 - 일반한식","category":"restaurant"},{"name":"요거프레소 가평점","tel":"070-7404-1465","addr":"경기도 가평군 가평읍 읍내리 349-13번지","indutype":"일반휴게음식 - 서양음식","category":"restaurant"}]},{"lat":"37.830708297","long":"127.51232377","imageIndex":4,"items":[{"name":"마당왕족발보쌈","tel":"031-581-9797","addr":"경기도 가평군 가평읍 읍내리 464-1번지 **연번지 2","indutype":"일반휴게음식 - 일반한식","category":"restaurant"}]},{"lat":"37.834126659","long":"127.51143851","imageIndex":4,"items":[{"name":"마루까페","tel":"031-581-6466","addr":"경기도 가평군 가평읍 읍내리 627-2번지","indutype":"일반휴게음식 - 서양음식","category":"restaurant"}]},{"lat":"37.833237443","long":"127.50871752","imageIndex":4,"items":[{"name":"만터부대찌개","tel":"031-582-1515","addr":"경기도 가평군 가평읍 읍내리 639-1번지 만터부대찌개","indutype":"일반휴게음식 - 일반한식","category":"restaurant"}]},{"lat":"37.826516172","long":"127.51711088","imageIndex":4,"items":[{"name":"맘스터치치킨","tel":"031-581-5556","addr":"경기도 가평군 가평읍 읍내리 380-32번지","indutype":"일반휴게음식 - 스넥","category":"restaurant"}]},{"lat":"37.837455002","long":"127.5084396","imageIndex":4,"items":[{"name":"맛깔촌","tel":"031-582-6311","addr":"경기도 가평군 가평읍 읍내리 749-5","indutype":"일반휴게음식 - 일반한식","category":"restaurant"}]},{"lat":"37.829625489","long":"127.51271388","imageIndex":4,"items":[{"name":"맛있는술집 미술관","tel":"02-111-1111","addr":"경기도 가평군 가평읍 읍내리 468-45번지 1층","indutype":"일반휴게음식 - 주점","category":"restaurant"}]},{"lat":"37.829565182","long":"127.51415603","imageIndex":4,"items":[{"name":"메가엠지씨커피가평점","tel":"","addr":"경기도 가평군 가평읍 읍내리 474-3번지 1층","indutype":"일반휴게음식 - 서양음식","category":"restaurant"},{"name":"신용문객잔","tel":"02-977-7411","addr":"경기도 가평군 가평읍 읍내리 474-3번지 1호","indutype":"일반휴게음식 - 일반한식","category":"restaurant"},{"name":"호프타임","tel":"","addr":"경기도 가평군 가평읍 읍내리 474-3번지","indutype":"일반휴게음식 - 일반한식","category":"restaurant"}]},{"lat":"37.834820695","long":"127.50927359","imageIndex":4,"items":[{"name":"멕시카나가평행복점","tel":"031-558-9969","addr":"경기도 가평군 가평읍 읍내리 673번지","indutype":"일반휴게음식 - 스넥","category":"restaurant"},{"name":"멕시카나가평행복점","tel":"031-558-9969","addr":"경기도 가평군 가평읍 읍내리 673번지 A동 1층","indutype":"일반휴게음식 - 스넥","category":"restaurant"},{"name":"참이맛 감자탕","tel":"031-581-8818","addr":"경기도 가평군 가평읍 읍내리 673번지","indutype":"일반휴게음식 - 일반한식","category":"restaurant"},{"name":"투다리","tel":"031-581-5792","addr":"경기도 가평군 가평읍 읍내리 673번지","indutype":"일반휴게음식 - 일반한식","category":"restaurant"}]},{"lat":"37.834125679","long":"127.50957555","imageIndex":4,"items":[{"name":"몰디브","tel":"031-581-9494","addr":"경기도 가평군 가평읍 읍내리 635-3번지","indutype":"일반휴게음식 - 일반한식","category":"restaurant"}]},{"lat":"37.832041967","long":"127.50807324","imageIndex":4,"items":[{"name":"미소참치","tel":"031-581-7787","addr":"경기도 가평군 가평읍 읍내리 584-7","indutype":"일반휴게음식 - 일식·회집","category":"restaurant"}]},{"lat":"37.833454392","long":"127.50854861","imageIndex":4,"items":[{"name":"민선네막창","tel":"031-582-9290","addr":"경기도 가평군 가평읍 읍내리 639번지","indutype":"일반휴게음식 - 일반한식","category":"restaurant"}]},{"lat":"37.830154515","long":"127.51329682","imageIndex":4,"items":[{"name":"바우네 나주곰탕","tel":"031-581-3335","addr":"경기도 가평군 가평읍 읍내리 471-2번지","indutype":"일반휴게음식 - 일반한식","category":"restaurant"}]},{"lat":"37.830372623","long":"127.51077665","imageIndex":4,"items":[{"name":"바이밍 (by ming)","tel":"","addr":"경기도 가평군 가평읍 읍내리 492-21번지 1층","indutype":"일반휴게음식 - 서양음식","category":"restaurant"}]},{"lat":"37.828647292","long":"127.51391117","imageIndex":4,"items":[{"name":"백년족발보쌈 가평점","tel":"031-581-0110","addr":"경기도 가평군 가평읍 읍내리 476-2번지","indutype":"일반휴게음식 - 일반한식","category":"restaurant"},{"name":"술이랑전이랑","tel":"031-581-0850","addr":"경기도 가평군 가평읍 읍내리 476-2번지","indutype":"일반휴게음식 - 일반한식","category":"restaurant"}]},{"lat":"37.830876557","long":"127.5150738","imageIndex":4,"items":[{"name":"변산횟집","tel":"031-582-3197","addr":"경기도 가평군 가평읍 읍내리 413-2번지","indutype":"일반휴게음식 - 일반한식","category":"restaurant"}]},{"lat":"37.830092373","long":"127.51515925","imageIndex":4,"items":[{"name":"별미촌 얼큰순대국","tel":"","addr":"경기도 가평군 가평읍 읍내리 397-9번지 1,층","indutype":"일반휴게음식 - 일반한식","category":"restaurant"}]},{"lat":"37.828207163","long":"127.51152283","imageIndex":4,"items":[{"name":"보양식오리","tel":"031-581-2715","addr":"경기도 가평군 가평읍 읍내리 329-1번지","indutype":"일반휴게음식 - 일반한식","category":"restaurant"},{"name":"선희네","tel":"031-581-5567","addr":"경기도 가평군 가평읍 읍내리 329-1번지 외1필지","indutype":"일반휴게음식 - 일반한식","category":"restaurant"},{"name":"잘살아보세","tel":"031-582-7586","addr":"경기도 가평군 가평읍 읍내리 329-1번지","indutype":"일반휴게음식 - 일반한식","category":"restaurant"},{"name":"청양골","tel":"031-582-1079","addr":"경기도 가평군 가평읍 읍내리 329-1번지","indutype":"일반휴게음식 - 일반한식","category":"restaurant"},{"name":"청평어죽 추어탕","tel":"031-582-9200","addr":"경기도 가평군 가평읍 읍내리 329-1번지","indutype":"일반휴게음식 - 일반한식","category":"restaurant"}]},{"lat":"37.830008203","long":"127.51379561","imageIndex":4,"items":[{"name":"본죽엔비빔밥","tel":"031-582-1111","addr":"경기도 가평군 가평읍 읍내리 473-20번지 1층","indutype":"일반휴게음식 - 일반한식","category":"restaurant"},{"name":"본죽엔비빔밥","tel":"031-582-1111","addr":"경기도 가평군 가평읍 읍내리 473-20번지","indutype":"일반휴게음식 - 일반한식","category":"restaurant"}]},{"lat":"37.828710355","long":"127.5139116","imageIndex":4,"items":[{"name":"봉구비어","tel":"031-581-9909","addr":"경기도 가평군 가평읍 읍내리 476-6번지","indutype":"일반휴게음식 - 일반한식","category":"restaurant"},{"name":"봉구비어","tel":"02-000-0000","addr":"경기도 가평군 가평읍 읍내리 476-6번지","indutype":"일반휴게음식 - 주점","category":"restaurant"}]},{"lat":"37.83373094","long":"127.50918663","imageIndex":4,"items":[{"name":"부뚜막야식","tel":"","addr":"경기도 가평군 가평읍 읍내리 637-6번지 준수대중목욕탕 103호","indutype":"일반휴게음식 - 일반한식","category":"restaurant"},{"name":"조일종합분식","tel":"031-582-5857","addr":"경기도 가평군 가평읍 읍내리 637-6","indutype":"일반휴게음식 - 스넥","category":"restaurant"}]},{"lat":"37.832126205","long":"127.51152701","imageIndex":4,"items":[{"name":"북성로연탄불고기","tel":"031-581-8892","addr":"경기도 가평군 가평읍 읍내리 618-6번지 1호","indutype":"일반휴게음식 - 일반한식","category":"restaurant"}]},{"lat":"37.834678601","long":"127.50879552","imageIndex":4,"items":[{"name":"븟석쇠불고기백반","tel":"031-581-6359","addr":"경기도 가평군 가평읍 읍내리 669-3번지","indutype":"일반휴게음식 - 일반한식","category":"restaurant"}]},{"lat":"37.830785031","long":"127.51124519","imageIndex":4,"items":[{"name":"비비큐(bbq)올리브카페치킨","tel":"031-582-9289","addr":"경기도 가평군 가평읍 읍내리 496-11번지","indutype":"일반휴게음식 - 일반한식","category":"restaurant"}]},{"lat":"37.830425845","long":"127.51097011","imageIndex":4,"items":[{"name":"비비큐올리브카페치킨","tel":"031-582-9289","addr":"경기도 가평군 가평읍 읍내리 496-11번지","indutype":"기타음식점","category":"restaurant"}]},{"lat":"37.827429342","long":"127.51430031","imageIndex":4,"items":[{"name":"뼈다귀천국","tel":"031-581-3359","addr":"경기도 가평군 가평읍 읍내리 349-6번지","indutype":"일반휴게음식 - 일반한식","category":"restaurant"},{"name":"뼈다귀천국","tel":"031-581-3359","addr":"경기도 가평군 가평읍 읍내리 349-6번지 외3필지","indutype":"일반휴게음식 - 일반한식","category":"restaurant"}]},{"lat":"37.831096767","long":"127.51207654","imageIndex":4,"items":[{"name":"사거리부대찌개","tel":"031-582-3445","addr":"경기도 가평군 가평읍 읍내리 457-2번지 1층","indutype":"일반휴게음식 - 일반한식","category":"restaurant"}]},{"lat":"37.832341736","long":"127.51168752","imageIndex":4,"items":[{"name":"산골냉면","tel":"031-582-2178","addr":"경기도 가평군 가평읍 읍내리 618-14번지","indutype":"일반휴게음식 - 일반한식","category":"restaurant"},{"name":"트윈버거","tel":"031-581-7785","addr":"경기도 가평군 가평읍 읍내리 618-14번지","indutype":"일반휴게음식 - 서양음식","category":"restaurant"},{"name":"호식이두마리치킨(가평점)","tel":"031-582-9989","addr":"경기도 가평군 가평읍 읍내리 618-14번지","indutype":"일반휴게음식 - 스넥","category":"restaurant"}]},{"lat":"37.831011545","long":"127.51510881","imageIndex":4,"items":[{"name":"산성생고기마을","tel":"031-582-6147","addr":"경기도 가평군 가평읍 읍내리 415-6","indutype":"일반휴게음식 - 일반한식","category":"restaurant"}]},{"lat":"37.833765315","long":"127.51166322","imageIndex":4,"items":[{"name":"삼교리 동치미 막국수","tel":"031-581-3922","addr":"경기도 가평군 가평읍 읍내리 626-1번지","indutype":"일반휴게음식 - 일반한식","category":"restaurant"},{"name":"삼교리 동치미 막국수","tel":"031-581-3922","addr":"경기도 가평군 가평읍 읍내리 626-1번지","indutype":"일반휴게음식 - 일반한식","category":"restaurant"}]},{"lat":"37.83584372","long":"127.51021208","imageIndex":4,"items":[{"name":"삼삼구이","tel":"031-581-9235","addr":"경기도 가평군 가평읍 읍내리 737번지 디지털프라자 1층","indutype":"일반휴게음식 - 일반한식","category":"restaurant"}]},{"lat":"37.838514923","long":"127.50497062","imageIndex":4,"items":[{"name":"삽다리곱창","tel":"031-582-9450","addr":"경기도 가평군 가평읍 읍내리 797번지","indutype":"일반휴게음식 - 일반한식","category":"restaurant"},{"name":"정칼국수","tel":"031-581-9980","addr":"경기도 가평군 가평읍 읍내리 797번지","indutype":"일반휴게음식 - 일반한식","category":"restaurant"}]},{"lat":"37.829652361","long":"127.5148268","imageIndex":4,"items":[{"name":"선죽","tel":"031-581-4452","addr":"경기도 가평군 가평읍 읍내리 406-2 3호점","indutype":"일반휴게음식 - 일반한식","category":"restaurant"}]},{"lat":"37.832840716","long":"127.51088444","imageIndex":4,"items":[{"name":"세움","tel":"","addr":"경기도 가평군 가평읍 읍내리 621-14번지 1층","indutype":"일반휴게음식 - 일반한식","category":"restaurant"}]},{"lat":"37.828205672","long":"127.51602082","imageIndex":4,"items":[{"name":"소문난 정통 닭갈비","tel":"031-581-7250","addr":"경기도 가평군 가평읍 읍내리 400-3번지","indutype":"일반휴게음식 - 일반한식","category":"restaurant"},{"name":"소문난정통닭갈비","tel":"031-581-7250","addr":"경기도 가평군 가평읍 읍내리 400-3","indutype":"일반휴게음식 - 일반한식","category":"restaurant"}]},{"lat":"37.826623636","long":"127.51519206","imageIndex":4,"items":[{"name":"송원막국수","tel":"031-582-1408","addr":"경기도 가평군 가평읍 읍내리 363-1번지","indutype":"일반휴게음식 - 일반한식","category":"restaurant"}]},{"lat":"37.82898555","long":"127.51277763","imageIndex":4,"items":[{"name":"수원갈비본가","tel":"031-581-0307","addr":"경기도 가평군 가평읍 읍내리 482-10번지 1층","indutype":"일반휴게음식 - 일반한식","category":"restaurant"}]},{"lat":"37.831182631","long":"127.51305401","imageIndex":4,"items":[{"name":"수제파이&퀼트사랑","tel":"031-581-8203","addr":"경기도 가평군 가평읍 읍내리 446-16번지","indutype":"일반휴게음식 - 서양음식","category":"restaurant"}]},{"lat":"37.831928981","long":"127.50288134","imageIndex":4,"items":[{"name":"시골국수","tel":"031-582-0722","addr":"경기도 가평군 가평읍 읍내리 855-10","indutype":"일반휴게음식 - 일반한식","category":"restaurant"}]},{"lat":"37.834543074","long":"127.50888547","imageIndex":4,"items":[{"name":"신성루","tel":"031-581-8255","addr":"경기도 가평군 가평읍 읍내리 669-6번지","indutype":"일반휴게음식 - 중국식","category":"restaurant"},{"name":"한미닭갈비","tel":"031-582-8388","addr":"경기도 가평군 가평읍 읍내리 669-6번지","indutype":"일반휴게음식 - 일반한식","category":"restaurant"}]},{"lat":"37.829372439","long":"127.51497253","imageIndex":4,"items":[{"name":"쌍둥이네","tel":"031-582-1908","addr":"경기도 가평군 가평읍 읍내리 404번지 가평재래시장 A동 107호","indutype":"일반휴게음식 - 일반한식","category":"restaurant"}]},{"lat":"37.83004061","long":"127.51046768","imageIndex":4,"items":[{"name":"아삭김밥전문점","tel":"031-582-5479","addr":"경기도 가평군 가평읍 읍내리 494-10번지 외2필지","indutype":"일반휴게음식 - 스넥","category":"restaurant"},{"name":"이삭","tel":"070-7504-1080","addr":"경기도 가평군 가평읍 읍내리 494-10번지 외2필지","indutype":"일반휴게음식 - 스넥","category":"restaurant"}]},{"lat":"37.828181677","long":"127.51324916","imageIndex":4,"items":[{"name":"알쓰","tel":"070-4318-6444","addr":"경기도 가평군 가평읍 읍내리 338-13번지","indutype":"일반휴게음식 - 일반한식","category":"restaurant"}]},{"lat":"37.829121764","long":"127.51460732","imageIndex":4,"items":[{"name":"애향식당","tel":"031-582-7044","addr":"경기도 가평군 가평읍 읍내리 402-26","indutype":"일반휴게음식 - 일반한식","category":"restaurant"}]},{"lat":"37.830956106","long":"127.51126908","imageIndex":4,"items":[{"name":"어머니손맛","tel":"031-582-1414","addr":"경기도 가평군 가평읍 읍내리 495-38번지","indutype":"일반휴게음식 - 일반한식","category":"restaurant"},{"name":"어머니손맛","tel":"031-582-1414","addr":"경기도 가평군 가평읍 읍내리 495-38번지","indutype":"일반휴게음식 - 일반한식","category":"restaurant"}]},{"lat":"37.827093498","long":"127.51279869","imageIndex":4,"items":[{"name":"어부네집","tel":"031-582-5515","addr":"경기도 가평군 가평읍 읍내리 342-3번지 1층","indutype":"일반휴게음식 - 일반한식","category":"restaurant"}]},{"lat":"37.829980821","long":"127.51179626","imageIndex":4,"items":[{"name":"연담정","tel":"031-582-5550","addr":"경기도 가평군 가평읍 읍내리 489-4번지 1동 1층","indutype":"일반휴게음식 - 일반한식","category":"restaurant"}]},{"lat":"37.827844253","long":"127.51418959","imageIndex":4,"items":[{"name":"영천해장국","tel":"031-581-0627","addr":"경기도 가평군 가평읍 읍내리 349-3","indutype":"일반휴게음식 - 일반한식","category":"restaurant"}]},{"lat":"37.83331413","long":"127.50974039","imageIndex":4,"items":[{"name":"영화식당","tel":"031-582-3929","addr":"경기도 가평군 가평읍 읍내리 615-2","indutype":"일반휴게음식 - 일반한식","category":"restaurant"},{"name":"영화식당","tel":"031-582-3929","addr":"경기도 가평군 가평읍 읍내리 615-2번지","indutype":"일반휴게음식 - 일반한식","category":"restaurant"},{"name":"오늘도떡볶이","tel":"031-582-5347","addr":"경기도 가평군 가평읍 읍내리 615-2번지","indutype":"일반휴게음식 - 일반한식","category":"restaurant"},{"name":"하나식당","tel":"031-582-0773","addr":"경기도 가평군 가평읍 읍내리 615-2번지","indutype":"일반휴게음식 - 일반한식","category":"restaurant"},{"name":"하나식당","tel":"031-582-0773","addr":"경기도 가평군 가평읍 읍내리 615-2","indutype":"일반휴게음식 - 일반한식","category":"restaurant"}]},{"lat":"37.832096184","long":"127.51221972","imageIndex":4,"items":[{"name":"옛날통닭 부뚜막치킨","tel":"","addr":"경기도 가평군 가평읍 읍내리 443-18번지","indutype":"일반휴게음식 - 일반한식","category":"restaurant"},{"name":"옛날통닭 부뚜막치킨","tel":"","addr":"경기도 가평군 가평읍 읍내리 443-18번지","indutype":"일반휴게음식 - 일반한식","category":"restaurant"}]},{"lat":"37.838233386","long":"127.50760426","imageIndex":4,"items":[{"name":"옛촌가든","tel":"031-581-6789","addr":"경기도 가평군 가평읍 읍내리 765-1번지","indutype":"일반휴게음식 - 일반한식","category":"restaurant"}]},{"lat":"37.83418198","long":"127.50905339","imageIndex":4,"items":[{"name":"우담골","tel":"031-582-7559","addr":"경기도 가평군 가평읍 읍내리 636번지","indutype":"일반휴게음식 - 일반한식","category":"restaurant"}]},{"lat":"37.827897713","long":"127.51224765","imageIndex":4,"items":[{"name":"우두머리 국밥","tel":"","addr":"경기도 가평군 가평읍 읍내리 329-7번지","indutype":"일반휴게음식 - 일반한식","category":"restaurant"},{"name":"행복식당","tel":"031-581-3138","addr":"경기도 가평군 가평읍 읍내리 329-7","indutype":"일반휴게음식 - 일반한식","category":"restaurant"}]},{"lat":"37.829515537","long":"127.51105474","imageIndex":4,"items":[{"name":"우렁촌쌈밥","tel":"031-582-9385","addr":"경기도 가평군 가평읍 읍내리 489-10번지","indutype":"일반휴게음식 - 일반한식","category":"restaurant"}]},{"lat":"37.83095164","long":"127.51230272","imageIndex":4,"items":[{"name":"우정잔치국수","tel":"031-581-2532","addr":"경기도 가평군 가평읍 읍내리 457-13번지 1층","indutype":"일반휴게음식 - 일반한식","category":"restaurant"}]},{"lat":"37.832873614","long":"127.50952155","imageIndex":4,"items":[{"name":"우주라이크커피","tel":"031-582-8523","addr":"경기도 가평군 가평읍 읍내리 613-2번지 1층 2호","indutype":"일반휴게음식 - 서양음식","category":"restaurant"}]},{"lat":"37.829127186","long":"127.5133579","imageIndex":4,"items":[{"name":"울엄마네","tel":"031-581-3020","addr":"경기도 가평군 가평읍 읍내리 479-6번지","indutype":"일반휴게음식 - 일반한식","category":"restaurant"},{"name":"홍가네해물탕","tel":"031-581-1373","addr":"경기도 가평군 가평읍 읍내리 479-6번지","indutype":"일반휴게음식 - 일반한식","category":"restaurant"}]},{"lat":"37.826452365","long":"127.5152136","imageIndex":4,"items":[{"name":"원할머니보쌈","tel":"031-582-6117","addr":"경기도 가평군 가평읍 읍내리 362-2번지","indutype":"일반휴게음식 - 일반한식","category":"restaurant"}]},{"lat":"37.829821524","long":"127.51321502","imageIndex":4,"items":[{"name":"유타카","tel":"031-582-8125","addr":"경기도 가평군 가평읍 읍내리 468-7번지","indutype":"일반휴게음식 - 일반한식","category":"restaurant"}]},{"lat":"37.828538444","long":"127.5140808","imageIndex":4,"items":[{"name":"육가원 맛보기터","tel":"031-581-8443","addr":"경기도 가평군 가평읍 읍내리 476-4번지","indutype":"일반휴게음식 - 일반한식","category":"restaurant"},{"name":"쿨하우스","tel":"031-581-0880","addr":"경기도 가평군 가평읍 읍내리 476-4번지 외2필지","indutype":"일반휴게음식 - 일반한식","category":"restaurant"}]},{"lat":"37.848814928","long":"127.50863076","imageIndex":4,"items":[{"name":"이가네 손두부","tel":"031-581-9534","addr":"경기도 가평군 가평읍 읍내리 98-2번지 B동 1층","indutype":"일반휴게음식 - 일반한식","category":"restaurant"}]},{"lat":"37.828871089","long":"127.51424211","imageIndex":4,"items":[{"name":"이디야","tel":"031-582-0049","addr":"경기도 가평군 가평읍 읍내리 475-9번지 1층","indutype":"일반휴게음식 - 서양음식","category":"restaurant"},{"name":"이디야","tel":"031-582-0049","addr":"경기도 가평군 가평읍 읍내리 475-9번지","indutype":"일반휴게음식 - 서양음식","category":"restaurant"},{"name":"한우리식당","tel":"031-581-7652","addr":"경기도 가평군 가평읍 읍내리 475-9번지","indutype":"일반휴게음식 - 일반한식","category":"restaurant"}]},{"lat":"37.830985415","long":"127.51282547","imageIndex":4,"items":[{"name":"이모김밥","tel":"031-582-2220","addr":"경기도 가평군 가평읍 읍내리 448-1번지","indutype":"일반휴게음식 - 일반한식","category":"restaurant"},{"name":"이모김밥","tel":"031-582-2220","addr":"경기도 가평군 가평읍 읍내리 448-1번지","indutype":"일반휴게음식 - 일반한식","category":"restaurant"}]},{"lat":"37.83198505","long":"127.51083313","imageIndex":4,"items":[{"name":"이숙자피자","tel":"02-000-0000","addr":"경기도 가평군 가평읍 읍내리 503-9번지","indutype":"일반휴게음식 - 서양음식","category":"restaurant"}]},{"lat":"37.832928987","long":"127.50921522","imageIndex":4,"items":[{"name":"이쎈피자","tel":"031-582-3356","addr":"경기도 가평군 가평읍 읍내리 613번지","indutype":"일반휴게음식 - 서양음식","category":"restaurant"}]},{"lat":"37.834317604","long":"127.50894073","imageIndex":4,"items":[{"name":"이프","tel":"031-584-4679","addr":"경기도 가평군 가평읍 읍내리 669-5번지 1층 2층","indutype":"일반휴게음식 - 일반한식","category":"restaurant"}]},{"lat":"37.829511716","long":"127.50985068","imageIndex":4,"items":[{"name":"잣고을곰탕","tel":"031-581-2966","addr":"경기도 가평군 가평읍 읍내리 532번지 잣고을곰탕","indutype":"일반휴게음식 - 일반한식","category":"restaurant"}]},{"lat":"37.831679949","long":"127.51263714","imageIndex":4,"items":[{"name":"장충동왕족발보쌈","tel":"031-581-3380","addr":"경기도 가평군 가평읍 읍내리 443-17번지","indutype":"일반휴게음식 - 주점","category":"restaurant"}]},{"lat":"37.828986974","long":"127.51452688","imageIndex":4,"items":[{"name":"장터 칡 냉면","tel":"031-582-7676","addr":"경기도 가평군 가평읍 읍내리 350-23번지","indutype":"일반휴게음식 - 일반한식","category":"restaurant"}]},{"lat":"37.830121326","long":"127.51471645","imageIndex":4,"items":[{"name":"장터해장국","tel":"031-582-7935","addr":"경기도 가평군 가평읍 읍내리 407-5번지","indutype":"일반휴게음식 - 일반한식","category":"restaurant"}]},{"lat":"37.831037157","long":"127.5133597","imageIndex":4,"items":[{"name":"전원다실","tel":"031-582-3426","addr":"경기도 가평군 가평읍 읍내리 447-5번지","indutype":"일반휴게음식 - 서양음식","category":"restaurant"}]},{"lat":"37.831319581","long":"127.51471337","imageIndex":4,"items":[{"name":"전원식당","tel":"031-581-2867","addr":"경기도 가평군 가평읍 읍내리 426-8","indutype":"일반휴게음식 - 일반한식","category":"restaurant"}]},{"lat":"37.830956898","long":"127.51524474","imageIndex":4,"items":[{"name":"정'S 짬뽕","tel":"031-582-9898","addr":"경기도 가평군 가평읍 읍내리 415-2번지","indutype":"일반휴게음식 - 일반한식","category":"restaurant"}]},{"lat":"37.832452023","long":"127.51326721","imageIndex":4,"items":[{"name":"주공회관","tel":"031-582-5982","addr":"경기도 가평군 가평읍 읍내리 270-2번지","indutype":"일반휴게음식 - 일반한식","category":"restaurant"}]},{"lat":"37.830845102","long":"127.5119385","imageIndex":4,"items":[{"name":"지암막국수","tel":"031-581-8838","addr":"경기도 가평군 가평읍 읍내리 497-5번지 외3필지","indutype":"일반휴게음식 - 일반한식","category":"restaurant"}]},{"lat":"37.828510233","long":"127.51435321","imageIndex":4,"items":[{"name":"쪼치킨바","tel":"031-582-0404","addr":"경기도 가평군 가평읍 읍내리 475-24번지 1층","indutype":"일반휴게음식 - 스넥","category":"restaurant"}]},{"lat":"37.831536885","long":"127.51238626","imageIndex":4,"items":[{"name":"쫄깃한 떡뽁기","tel":"031-582-9179","addr":"경기도 가평군 가평읍 읍내리 453-5번지","indutype":"일반휴게음식 - 스넥","category":"restaurant"}]},{"lat":"37.832207529","long":"127.50938068","imageIndex":4,"items":[{"name":"착한식당","tel":"031-582-4000","addr":"경기도 가평군 가평읍 읍내리 609번지","indutype":"일반휴게음식 - 일반한식","category":"restaurant"}]},{"lat":"37.831265778","long":"127.5125775","imageIndex":4,"items":[{"name":"처갓집양념치킨 가평점","tel":"031-582-9191","addr":"경기도 가평군 가평읍 읍내리 452번지 1층","indutype":"일반휴게음식 - 스넥","category":"restaurant"}]},{"lat":"37.829347633","long":"127.51238256","imageIndex":4,"items":[{"name":"천계닭갈비","tel":"031-582-8725","addr":"경기도 가평군 가평읍 읍내리 468-34번지 1층","indutype":"일반휴게음식 - 일반한식","category":"restaurant"}]},{"lat":"37.829870159","long":"127.51238616","imageIndex":4,"items":[{"name":"천지항아리갈비","tel":"031-582-1347","addr":"경기도 가평군 가평읍 읍내리 461-16번지 외1필지","indutype":"일반휴게음식 - 일반한식","category":"restaurant"}]},{"lat":"37.834702503","long":"127.50952269","imageIndex":4,"items":[{"name":"청춘식당 가평점","tel":"","addr":"경기도 가평군 가평읍 읍내리 675번지 1층","indutype":"일반휴게음식 - 일반한식","category":"restaurant"}]},{"lat":"37.831987328","long":"127.50820918","imageIndex":4,"items":[{"name":"초원화로구이","tel":"070-1111-1111","addr":"경기도 가평군 가평읍 읍내리 584-7번지","indutype":"일반휴게음식 - 일반한식","category":"restaurant"},{"name":"초원화로구이","tel":"070-1111-1111","addr":"경기도 가평군 가평읍 읍내리 584-7번지 B동 1층","indutype":"일반휴게음식 - 일반한식","category":"restaurant"}]},{"lat":"37.826287879","long":"127.5157463","imageIndex":4,"items":[{"name":"커피앤카피","tel":"031-581-8215","addr":"경기도 가평군 가평읍 읍내리 362-7번지 1층","indutype":"일반휴게음식 - 서양음식","category":"restaurant"}]},{"lat":"37.829649958","long":"127.51330471","imageIndex":4,"items":[{"name":"커피인더카툰 가평점","tel":"031-581-4637","addr":"경기도 가평군 가평읍 읍내리 468-22번지 2층","indutype":"일반휴게음식 - 서양음식","category":"restaurant"}]},{"lat":"37.828565964","long":"127.5139674","imageIndex":4,"items":[{"name":"커피홀 가평점","tel":"031-582-2226","addr":"경기도 가평군 가평읍 읍내리 476-23번지","indutype":"일반휴게음식 - 서양음식","category":"restaurant"}]},{"lat":"37.833624979","long":"127.50868609","imageIndex":4,"items":[{"name":"쿠치나","tel":"031-582-3848","addr":"경기도 가평군 가평읍 읍내리 637-4번지","indutype":"일반휴게음식 - 일반한식","category":"restaurant"}]},{"lat":"37.834763513","long":"127.51000021","imageIndex":4,"items":[{"name":"크림슨피자","tel":"031-581-5812","addr":"경기도 가평군 가평읍 읍내리 680-10번지 크림슨피자","indutype":"일반휴게음식 - 서양음식","category":"restaurant"}]},{"lat":"37.830982397","long":"127.51143965","imageIndex":4,"items":[{"name":"큰손왕만두","tel":"031-581-5848","addr":"경기도 가평군 가평읍 읍내리 495-3번지 1층","indutype":"일반휴게음식 - 일반한식","category":"restaurant"}]},{"lat":"37.827285444","long":"127.51424253","imageIndex":4,"items":[{"name":"투썸플레이스가평점","tel":"031-582-1313","addr":"경기도 가평군 가평읍 읍내리 349-14","indutype":"일반휴게음식 - 서양음식","category":"restaurant"}]},{"lat":"37.830731931","long":"127.5131077","imageIndex":4,"items":[{"name":"페리카나양념통닭","tel":"031-582-5555","addr":"경기도 가평군 가평읍 읍내리 467-5","indutype":"일반휴게음식 - 일반한식","category":"restaurant"}]},{"lat":"37.828563696","long":"127.51448988","imageIndex":4,"items":[{"name":"플로리안","tel":"031-582-5007","addr":"경기도 가평군 가평읍 읍내리 350-17번지 1층","indutype":"일반휴게음식 - 서양음식","category":"restaurant"}]},{"lat":"37.829872919","long":"127.51382875","imageIndex":4,"items":[{"name":"피자랑쥬(가평점)","tel":"031-581-5585","addr":"경기도 가평군 가평읍 읍내리 473-16","indutype":"일반휴게음식 - 서양음식","category":"restaurant"},{"name":"피자랑쥬가평점","tel":"031-581-5585","addr":"경기도 가평군 가평읍 읍내리 473-16번지","indutype":"일반휴게음식 - 서양음식","category":"restaurant"}]},{"lat":"37.830733014","long":"127.51285781","imageIndex":4,"items":[{"name":"피자에땅(가평점)","tel":"031-581-1588","addr":"경기도 가평군 가평읍 읍내리 467-4번지","indutype":"일반휴게음식 - 서양음식","category":"restaurant"}]},{"lat":"37.830230779","long":"127.5102418","imageIndex":4,"items":[{"name":"피자집 가평점","tel":"031-582-5578","addr":"경기도 가평군 가평읍 읍내리 495-28번지 1층","indutype":"일반휴게음식 - 서양음식","category":"restaurant"}]},{"lat":"37.831926018","long":"127.50779983","imageIndex":4,"items":[{"name":"하모니","tel":"031-1111-111","addr":"경기도 가평군 가평읍 읍내리 583-1번지","indutype":"일반휴게음식 - 일반한식","category":"restaurant"}]},{"lat":"37.826154849","long":"127.50690864","imageIndex":4,"items":[{"name":"한까페","tel":"","addr":"경기도 가평군 가평읍 읍내리 579-15번지","indutype":"일반휴게음식-서양음식","category":"restaurant"}]},{"lat":"37.827598689","long":"127.51472175","imageIndex":4,"items":[{"name":"한솥도시락가평점","tel":"031-582-4884","addr":"경기도 가평군 가평읍 읍내리 475-11번지 1층","indutype":"일반휴게음식 - 일반한식","category":"restaurant"}]},{"lat":"37.829733348","long":"127.50648999","imageIndex":4,"items":[{"name":"한카페","tel":"","addr":"경기도 가평군 가평읍 읍내리 579-15번지","indutype":"일반휴게음식 - 서양음식","category":"restaurant"}]},{"lat":"37.830230177","long":"127.51246814","imageIndex":4,"items":[{"name":"해누리","tel":"031-581-8821","addr":"경기도 가평군 가평읍 읍내리 459-10번지","indutype":"일반휴게음식 - 일반한식","category":"restaurant"}]},{"lat":"37.831096423","long":"127.51215605","imageIndex":4,"items":[{"name":"해물은홍가네요","tel":"031-581-1373","addr":"경기도 가평군 가평읍 읍내리 457-12번지","indutype":"일반휴게음식 - 일반한식","category":"restaurant"}]},{"lat":"37.8300387","long":"127.51091066","imageIndex":4,"items":[{"name":"헤븐","tel":"031-581-5486","addr":"경기도 가평군 가평읍 읍내리 493-6번지","indutype":"일반휴게음식 - 일반한식","category":"restaurant"},{"name":"헤븐","tel":"031-581-5486","addr":"경기도 가평군 가평읍 읍내리 493-6번지 원희빌딩","indutype":"일반휴게음식 - 일반한식","category":"restaurant"}]},{"lat":"37.83062534","long":"127.51483353","imageIndex":4,"items":[{"name":"홍가냉면","tel":"02-581-9981","addr":"경기도 가평군 가평읍 읍내리 410-2번지","indutype":"일반휴게음식 - 일반한식","category":"restaurant"}]},{"lat":"37.836895611","long":"127.5086289","imageIndex":4,"items":[{"name":"화객","tel":"031-582-8989","addr":"경기도 가평군 가평읍 읍내리 748-8번지","indutype":"일반휴게음식 - 일반한식","category":"restaurant"}]},{"lat":"37.836312396","long":"127.50596672","imageIndex":4,"items":[{"name":"화덕닭갈비 가평점","tel":"","addr":"경기도 가평군 가평읍 읍내리 786-2번지","indutype":"일반휴게음식 - 일반한식","category":"restaurant"}]},{"lat":"37.831346772","long":"127.52085882","imageIndex":4,"items":[{"name":"황태천국","tel":"031-582-1818","addr":"경기도 가평군 가평읍 읍내리 295-30번지","indutype":"일반휴게음식 - 일반한식","category":"restaurant"},{"name":"황태천국","tel":"031-582-1818","addr":"경기도 가평군 가평읍 읍내리 295-30번지","indutype":"일반휴게음식 - 일반한식","category":"restaurant"}]}]