[{"lat":"37.646894765","long":"127.43375477","imageIndex":4,"items":[{"name":"곡달계곡오복집","tel":"031-773-6472","addr":"경기도 양평군 서종면 노문리 440-4번지","indutype":"일반휴게음식 - 일반한식","category":"restaurant"}]},{"lat":"37.624731845","long":"127.42353394","imageIndex":5,"items":[{"name":"노문리에서","tel":"031-774-3629","addr":"경기도 양평군 서종면 노문리 654번지","indutype":"숙박업 - 여관/기타숙박업","category":"hotel"}]},{"lat":"37.634588428","long":"127.42353285","imageIndex":5,"items":[{"name":"녹색향기 펜션","tel":"031-254-0111","addr":"경기도 양평군 서종면 노문리 625-1번지","indutype":"숙박업 - 여관/기타숙박업","category":"hotel"}]},{"lat":"37.636478931","long":"127.42647781","imageIndex":5,"items":[{"name":"랏지하우스","tel":"031-774-8287","addr":"경기도 양평군 서종면 노문리 587-5번지","indutype":"숙박업 - 여관/기타숙박업","category":"hotel"}]},{"lat":"37.640563929","long":"127.43294777","imageIndex":5,"items":[{"name":"펜션아나앤지나","tel":"031-774-9844","addr":"경기도 양평군 서종면 노문리 397-7번지","indutype":"숙박업 - 여관/기타숙박업","category":"hotel"}]},{"lat":"37.647813654","long":"127.42631555","imageIndex":7,"items":[{"name":"서종힐링캠핑장","tel":"031-774-8500","addr":"경기도 양평군 서종면 노문리 465번지","indutype":"유통업 영리 - 슈퍼마켓","category":"mart"},{"name":"서종힐링캠핑장","tel":"031-774-8500","addr":"경기도 양평군 서종면 노문리 465번지","indutype":"유통업 영리 - 슈퍼마켓","category":"mart"}]},{"lat":"37.635841461","long":"127.42836618","imageIndex":17,"items":[{"name":"주식회사 로이넘스","tel":"070-4236-0087","addr":"경기도 양평군 서종면 노문리 609-1 2,5번지","indutype":"용역 서비스 - 소프트웨어","category":"other"}]}]