[{"lat":"37.956120387","long":"126.92276681","imageIndex":17,"items":[{"name":"25시편의점","tel":"031-959-1114","addr":"경기도 파주시 적성면 구읍리 589-1번지","indutype":"유통업 영리 - 편 의 점","category":"other"},{"name":"삼성종합공사","tel":"031-959-2012","addr":"경기도 파주시 적성면 구읍리 589-1번지","indutype":"건축자재 - 기타건축자재","category":"other"}]},{"lat":"37.956094266","long":"126.92410948","imageIndex":17,"items":[{"name":"OK냉동","tel":"031-959-3350","addr":"경기도 파주시 적성면 구읍리 609-1번지","indutype":"전기제품 - 냉열기기","category":"other"},{"name":"적성농기계수리센타","tel":"031-959-4313","addr":"경기도 파주시 적성면 구읍리 609-1번지","indutype":"수리서비스 - 기타수리서비스","category":"other"}]},{"lat":"37.955236742","long":"126.92168684","imageIndex":17,"items":[{"name":"꽃동산","tel":"031-958-4052","addr":"경기도 파주시 적성면 구읍리 642-4번지","indutype":"문화.취미 - 화원","category":"other"}]},{"lat":"37.955209019","long":"126.92068558","imageIndex":17,"items":[{"name":"농촌사랑종묘농약사","tel":"031-959-0012","addr":"경기도 파주시 적성면 구읍리 652-2번지","indutype":"농업 - 비료,사료,종자","category":"other"},{"name":"월드문구센터","tel":"031-959-0403","addr":"경기도 파주시 적성면 구읍리 652-2번지","indutype":"서적문구 - 완구점","category":"other"}]},{"lat":"37.955208492","long":"126.91993462","imageIndex":17,"items":[{"name":"대성철물","tel":"031-959-4618","addr":"경기도 파주시 적성면 구읍리 650-5번지","indutype":"건축자재 - 목재·석재·철물","category":"other"}]},{"lat":"37.965536188","long":"126.92449769","imageIndex":17,"items":[{"name":"대원씽크(김승호)","tel":"031-959-2325","addr":"경기도 파주시 적성면 구읍리 409-1번지","indutype":"주방용구 - 주방용구","category":"other"}]},{"lat":"37.955596479","long":"126.92077618","imageIndex":17,"items":[{"name":"디자인필","tel":"031-959-5541","addr":"경기도 파주시 적성면 구읍리 654-10","indutype":"용역 서비스 - 종합용역","category":"other"}]},{"lat":"37.956039981","long":"126.92376819","imageIndex":17,"items":[{"name":"백노철재","tel":"","addr":"경기도 파주시 적성면 구읍리 609번지","indutype":"건축자재 - 기타건축자재","category":"other"}]},{"lat":"37.95539868","long":"126.92135669","imageIndex":17,"items":[{"name":"부흥낚시","tel":"031-959-3368","addr":"경기도 파주시 적성면 구읍리 641-4번지","indutype":"레져용품 - 스포츠·레져용품","category":"other"}]},{"lat":"37.955208396","long":"126.91979808","imageIndex":17,"items":[{"name":"비와이씨","tel":"031-958-4954","addr":"경기도 파주시 적성면 구읍리 649-24번지","indutype":"의류 - 내의판매","category":"other"},{"name":"서울지물포","tel":"031-958-6468","addr":"경기도 파주시 적성면 구읍리 649-24번지","indutype":"직물 - 카페트,커튼,천막,지물","category":"other"}]},{"lat":"37.956482102","long":"126.92476902","imageIndex":17,"items":[{"name":"산들","tel":"031-958-0033","addr":"경기도 파주시 적성면 구읍리 606-1번지","indutype":"문화.취미 - 화원","category":"other"},{"name":"팜스코북부대리점","tel":"031-958-4245","addr":"경기도 파주시 적성면 구읍리 606-1","indutype":"농업 - 비료,사료,종자","category":"other"}]},{"lat":"37.95273365","long":"126.92385138","imageIndex":17,"items":[{"name":"선영디자인","tel":"031-959-5380","addr":"경기도 파주시 적성면 구읍리 634-4번지","indutype":"용역 서비스 - 사무서비스","category":"other"}]},{"lat":"37.955958507","long":"126.92318798","imageIndex":17,"items":[{"name":"씨씨티비","tel":"031-959-7959","addr":"경기도 파주시 적성면 구읍리 610-2번지","indutype":"전기제품 - 기타전기제품","category":"other"}]},{"lat":"37.956123318","long":"126.92719299","imageIndex":17,"items":[{"name":"애니피드","tel":"031-959-3009","addr":"경기도 파주시 적성면 구읍리 162-7","indutype":"농업 - 비료,사료,종자","category":"other"}]},{"lat":"37.957959614","long":"126.92476745","imageIndex":17,"items":[{"name":"적성가설재","tel":"031-959-4220","addr":"경기도 파주시 적성면 구읍리 595-3번지","indutype":"건축자재 - 기타건축자재","category":"other"}]},{"lat":"37.953238151","long":"126.92382809","imageIndex":17,"items":[{"name":"적성고물상","tel":"031-959-3007","addr":"경기도 파주시 적성면 구읍리 630-8,22","indutype":"직물 - 카페트,커튼,천막,지물","category":"other"}]},{"lat":"37.955542977","long":"126.92157272","imageIndex":17,"items":[{"name":"적성공구","tel":"031-959-7730","addr":"경기도 파주시 적성면 구읍리 641-2번지","indutype":"건축자재 - 목재·석재·철물","category":"other"}]},{"lat":"37.955181191","long":"126.91954779","imageIndex":17,"items":[{"name":"적성열쇠.보수","tel":"031-958-6619","addr":"경기도 파주시 적성면 구읍리 649-21번지","indutype":"건축자재 - 목재·석재·철물","category":"other"}]},{"lat":"37.955291181","long":"126.92224431","imageIndex":17,"items":[{"name":"적성천막사","tel":"031-959-3927","addr":"경기도 파주시 적성면 구읍리 640-4","indutype":"직물 - 카페트,커튼,천막,지물","category":"other"}]},{"lat":"37.954627999","long":"126.92752449","imageIndex":17,"items":[{"name":"전우사","tel":"031-959-8048","addr":"경기도 파주시 적성면 구읍리 158번지","indutype":"서적문구 - 문구용품","category":"other"}]},{"lat":"37.952565307","long":"126.92818651","imageIndex":17,"items":[{"name":"중고재활용센타","tel":"031-959-2080","addr":"경기도 파주시 적성면 구읍리 128-1","indutype":"회원제형태 - 기타4","category":"other"}]},{"lat":"37.959565724","long":"126.91546919","imageIndex":17,"items":[{"name":"코오롱종합장식","tel":"031-958-2096","addr":"경기도 파주시 적성면 구읍리 685번지","indutype":"직물 - 카페트,커튼,천막,지물","category":"other"}]},{"lat":"37.964429129","long":"126.92612616","imageIndex":17,"items":[{"name":"한신크린","tel":"02-2665-0246","addr":"경기도 파주시 적성면 구읍리 451-1번지","indutype":"기타 - 기계공구","category":"other"}]},{"lat":"37.95582316","long":"126.92288091","imageIndex":17,"items":[{"name":"한일종합모터","tel":"031-958-0662","addr":"경기도 파주시 적성면 구읍리 610-18","indutype":"건축자재 - 보일러·펌프·샷시","category":"other"}]},{"lat":"37.955958507","long":"126.92318798","imageIndex":4,"items":[{"name":"992닭강정","tel":"031-959-5992","addr":"경기도 파주시 적성면 구읍리 610-2번지","indutype":"일반휴게음식 - 일반한식","category":"restaurant"}]},{"lat":"37.952402931","long":"126.92785672","imageIndex":4,"items":[{"name":"감악산 샤브샤브","tel":"031-959-0335","addr":"경기도 파주시 적성면 구읍리 628-19번지","indutype":"일반휴게음식 - 일반한식","category":"restaurant"},{"name":"사랑채참숯황토바베큐","tel":"031-959-4116","addr":"경기도 파주시 적성면 구읍리 628-19번지","indutype":"일반휴게음식 - 일반한식","category":"restaurant"}]},{"lat":"37.956429521","long":"126.927022","imageIndex":4,"items":[{"name":"감악산복칼국수","tel":"031-959-5282","addr":"경기도 파주시 적성면 구읍리 162-8번지","indutype":"일반휴게음식 - 일반한식","category":"restaurant"}]},{"lat":"37.965905452","long":"126.9243266","imageIndex":4,"items":[{"name":"감악산손짜장마을","tel":"031-958-7797","addr":"경기도 파주시 적성면 구읍리 407-3번지","indutype":"일반휴게음식 - 일반한식","category":"restaurant"}]},{"lat":"37.957906272","long":"126.92584848","imageIndex":4,"items":[{"name":"감악산약수촌","tel":"031-959-1313","addr":"경기도 파주시 적성면 구읍리 596-9번지","indutype":"일반휴게음식 - 일반한식","category":"restaurant"}]},{"lat":"37.95493413","long":"126.92723972","imageIndex":4,"items":[{"name":"남원추어탕","tel":"031-959-9777","addr":"경기도 파주시 적성면 구읍리 159-2번지","indutype":"일반휴게음식 - 일반한식","category":"restaurant"}]},{"lat":"37.966013986","long":"126.92496376","imageIndex":4,"items":[{"name":"농부네","tel":"031-959-0423","addr":"경기도 파주시 적성면 구읍리 427-1번지","indutype":"일반휴게음식 - 일반한식","category":"restaurant"}]},{"lat":"37.956321462","long":"126.92710176","imageIndex":4,"items":[{"name":"능이백숙오리,닭칼국수","tel":"031-959-3487","addr":"경기도 파주시 적성면 구읍리 162-4번지","indutype":"일반휴게음식 - 일반한식","category":"restaurant"}]},{"lat":"37.955678421","long":"126.92201632","imageIndex":4,"items":[{"name":"목화까페","tel":"031-958-8766","addr":"경기도 파주시 적성면 구읍리 639번지 1층","indutype":"일반휴게음식 - 일반한식","category":"restaurant"},{"name":"왕가해물찜","tel":"031-958-8866","addr":"경기도 파주시 적성면 구읍리 639번지","indutype":"일반휴게음식 - 일반한식","category":"restaurant"}]},{"lat":"37.955488209","long":"126.92054873","imageIndex":4,"items":[{"name":"미미분식","tel":"031-958-9771","addr":"경기도 파주시 적성면 구읍리 654-12번지","indutype":"일반휴게음식 - 일반한식","category":"restaurant"}]},{"lat":"37.954763028","long":"126.92735368","imageIndex":4,"items":[{"name":"봉평막국수","tel":"","addr":"경기도 파주시 적성면 구읍리 159-5번지","indutype":"일반휴게음식 - 일반한식","category":"restaurant"}]},{"lat":"37.95629122","long":"126.92226597","imageIndex":4,"items":[{"name":"봉평메밀막국수","tel":"031-959-3350","addr":"경기도 파주시 적성면 구읍리 588-1번지","indutype":"일반휴게음식 - 일반한식","category":"restaurant"}]},{"lat":"37.955316563","long":"126.91987761","imageIndex":4,"items":[{"name":"불고기센터","tel":"031-959-4627","addr":"경기도 파주시 적성면 구읍리 650-4번지","indutype":"일반휴게음식 - 일반한식","category":"restaurant"}]},{"lat":"37.958986057","long":"126.92385606","imageIndex":4,"items":[{"name":"산아래해물","tel":"031-959-0818","addr":"경기도 파주시 적성면 구읍리 577-1번지","indutype":"일반휴게음식 - 일반한식","category":"restaurant"}]},{"lat":"37.955037573","long":"126.92029892","imageIndex":4,"items":[{"name":"술이야","tel":"031-958-8818","addr":"경기도 파주시 적성면 구읍리 649-47번지","indutype":"일반휴게음식 - 일반한식","category":"restaurant"}]},{"lat":"37.95539868","long":"126.92135669","imageIndex":4,"items":[{"name":"식당윤숙이네감자탕","tel":"031-959-5700","addr":"경기도 파주시 적성면 구읍리 641-4번지 643-2","indutype":"일반휴게음식 - 일반한식","category":"restaurant"},{"name":"홍가네돈부속","tel":"031-959-0171","addr":"경기도 파주시 적성면 구읍리 641-4번지","indutype":"일반휴게음식 - 일반한식","category":"restaurant"}]},{"lat":"37.954704016","long":"126.91999208","imageIndex":4,"items":[{"name":"신남생고기하우스","tel":"031-958-2046","addr":"경기도 파주시 적성면 구읍리 649-30번지","indutype":"일반휴게음식 - 일반한식","category":"restaurant"}]},{"lat":"37.955543173","long":"126.92185717","imageIndex":4,"items":[{"name":"신미보신탕","tel":"031-959-3085","addr":"경기도 파주시 적성면 구읍리 640-2번지","indutype":"일반휴게음식 - 일반한식","category":"restaurant"}]},{"lat":"37.954759715","long":"126.92235867","imageIndex":4,"items":[{"name":"윤식당","tel":"031-959-4202","addr":"경기도 파주시 적성면 구읍리 638-4번지","indutype":"일반휴게음식 - 일반한식","category":"restaurant"}]},{"lat":"37.954316891","long":"126.92037937","imageIndex":4,"items":[{"name":"장수인삼족발보쌈","tel":"031-958-4081","addr":"경기도 파주시 적성면 구읍리 649-34번지","indutype":"일반휴게음식 - 일반한식","category":"restaurant"}]},{"lat":"37.955155123","long":"126.92091321","imageIndex":4,"items":[{"name":"적성실내포차","tel":"031-958-7174","addr":"경기도 파주시 적성면 구읍리 653-10번지","indutype":"일반휴게음식 - 주점","category":"restaurant"}]},{"lat":"37.955515142","long":"126.92041216","imageIndex":4,"items":[{"name":"정가네왕솥뚜껑삼겹살","tel":"031-959-4924","addr":"경기도 파주시 적성면 구읍리 654-13번지","indutype":"일반휴게음식 - 일반한식","category":"restaurant"}]},{"lat":"37.955037733","long":"126.92052648","imageIndex":4,"items":[{"name":"쪼끼쪼끼","tel":"031-959-7100","addr":"경기도 파주시 적성면 구읍리 648-5번지","indutype":"일반휴게음식 - 일반한식","category":"restaurant"}]},{"lat":"37.956094266","long":"126.92410948","imageIndex":4,"items":[{"name":"천용각","tel":"031-958-5552","addr":"경기도 파주시 적성면 구읍리 609-1번지","indutype":"일반휴게음식 - 중국식","category":"restaurant"}]},{"lat":"37.955871147","long":"126.92732979","imageIndex":4,"items":[{"name":"청담갈비탕","tel":"031-959-3309","addr":"경기도 파주시 적성면 구읍리 162-1번지","indutype":"일반휴게음식 - 일반한식","category":"restaurant"}]},{"lat":"37.955538105","long":"126.92779664","imageIndex":4,"items":[{"name":"청산흑가마","tel":"031-959-4955","addr":"경기도 파주시 적성면 구읍리 161-4번지","indutype":"일반휴게음식 - 일반한식","category":"restaurant"}]},{"lat":"37.956400389","long":"126.9238247","imageIndex":4,"items":[{"name":"카페붕따우","tel":"","addr":"경기도 파주시 적성면 구읍리 608-12번지","indutype":"일반휴게음식 - 서양음식","category":"restaurant"}]},{"lat":"37.95787338","long":"126.91736005","imageIndex":4,"items":[{"name":"카페우","tel":"","addr":"경기도 파주시 적성면 구읍리 680-5번지","indutype":"일반휴게음식 - 서양음식","category":"restaurant"}]},{"lat":"37.955677052","long":"126.92004788","imageIndex":4,"items":[{"name":"포항집","tel":"031-958-8652","addr":"경기도 파주시 적성면 구읍리 651-3번지","indutype":"일반휴게음식 - 일반한식","category":"restaurant"}]},{"lat":"37.95543276","long":"126.91858036","imageIndex":4,"items":[{"name":"황소가든","tel":"031-959-5003","addr":"경기도 파주시 적성면 구읍리 649-14번지","indutype":"일반휴게음식 - 일반한식","category":"restaurant"}]},{"lat":"37.956120387","long":"126.92276681","imageIndex":7,"items":[{"name":"강원건강원","tel":"031-959-3019","addr":"경기도 파주시 적성면 구읍리 589-1번지","indutype":"건강식품 - 기타건강식품","category":"food"}]},{"lat":"37.966428266","long":"126.9247471","imageIndex":7,"items":[{"name":"농부네동산","tel":"031-959-0423","addr":"경기도 파주시 적성면 구읍리 427-7번지","indutype":"음료식품 - 농·축·수산품","category":"food"}]},{"lat":"37.962210965","long":"126.92327226","imageIndex":7,"items":[{"name":"농업회사법인주식회사 디엠지 천년꽃차(DMZ","tel":"031-959-2353","addr":"경기도 파주시 적성면 구읍리 528-1번지","indutype":"음료식품 - 기타음료식품","category":"food"},{"name":"디엠지(DMZ) 천년꽃차","tel":"","addr":"경기도 파주시 적성면 구읍리 528-1번지","indutype":"음료식품 - 기타음료식품","category":"food"}]},{"lat":"37.955542977","long":"126.92157272","imageIndex":7,"items":[{"name":"도토미 양돈사업단","tel":"031-959-0088","addr":"경기도 파주시 적성면 구읍리 641-2번지","indutype":"음료식품 - 정육점","category":"food"}]},{"lat":"37.955678421","long":"126.92201632","imageIndex":7,"items":[{"name":"백세건강원","tel":"031-959-0077","addr":"경기도 파주시 적성면 구읍리 639번지","indutype":"건강식품 - 기타건강식품","category":"food"},{"name":"적성축산","tel":"031-959-2207","addr":"경기도 파주시 적성면 구읍리 639번지","indutype":"음료식품 - 정육점","category":"food"},{"name":"적성축산","tel":"031-959-2207","addr":"경기도 파주시 적성면 구읍리 639번지","indutype":"음료식품 - 정육점","category":"food"}]},{"lat":"37.955150817","long":"126.92796771","imageIndex":7,"items":[{"name":"삼채농장","tel":"031-952-8818","addr":"경기도 파주시 적성면 구읍리 157-1번지","indutype":"음료식품 - 농·축·수산품","category":"food"},{"name":"선주유황삼채","tel":"031-959-4597","addr":"경기도 파주시 적성면 구읍리 157-1번지","indutype":"건강식품 - 기타건강식품","category":"food"},{"name":"파주유황삼채","tel":"031-959-4597","addr":"경기도 파주시 적성면 구읍리 157-1번지","indutype":"음료식품 - 농·축·수산품","category":"food"}]},{"lat":"37.980704226","long":"126.9333255","imageIndex":7,"items":[{"name":"설마상회","tel":"031-959-3381","addr":"경기도 파주시 적성면 구읍리 30번지","indutype":"음료식품 - 기타음료식품","category":"food"}]},{"lat":"37.961843559","long":"126.92624264","imageIndex":7,"items":[{"name":"에덴농원","tel":"","addr":"경기도 파주시 적성면 구읍리 567번지","indutype":"음료식품 - 농·축·수산품","category":"food"}]},{"lat":"37.955794856","long":"126.92102628","imageIndex":7,"items":[{"name":"웰빙건강원","tel":"031-959-3986","addr":"경기도 파주시 적성면 구읍리 658-6번지","indutype":"건강식품 - 기타건강식품","category":"food"}]},{"lat":"37.954316891","long":"126.92037937","imageIndex":7,"items":[{"name":"임씨네 방앗간","tel":"031-958-8002","addr":"경기도 파주시 적성면 구읍리 649-34번지","indutype":"음료식품 - 제과점","category":"food"}]},{"lat":"37.972236458","long":"126.93482438","imageIndex":7,"items":[{"name":"태양당명가","tel":"031-959-8008","addr":"경기도 파주시 적성면 구읍리 54-1번지","indutype":"음료식품 - 기타음료식품","category":"food"}]},{"lat":"37.966424584","long":"126.91938715","imageIndex":7,"items":[{"name":"평해농원","tel":"031-959-3084","addr":"경기도 파주시 적성면 구읍리 722번지","indutype":"음료식품 - 농·축·수산품","category":"food"}]},{"lat":"37.958183869","long":"126.92331074","imageIndex":7,"items":[{"name":"한마음유통","tel":"","addr":"경기도 파주시 적성면 구읍리 583-6번지 수정그린빌","indutype":"음료식품 - 농·축·수산품","category":"food"}]},{"lat":"37.955262628","long":"126.92004834","imageIndex":7,"items":[{"name":"현대떡방앗간","tel":"031-959-5553","addr":"경기도 파주시 적성면 구읍리 650-3번지","indutype":"음료식품 - 제과점","category":"food"}]},{"lat":"37.958571088","long":"126.92304862","imageIndex":0,"items":[{"name":"남경자동차정비(적성점)","tel":"031-958-8600","addr":"경기도 파주시 적성면 구읍리 578-4번지","indutype":"자동차정비 유지 - 자동차정비","category":"car"}]},{"lat":"37.958427294","long":"126.92357219","imageIndex":0,"items":[{"name":"대원공업사","tel":"031-959-4589","addr":"경기도 파주시 적성면 구읍리 577-4","indutype":"자동차정비 유지 - 자동차정비","category":"car"}]},{"lat":"37.955984358","long":"126.92146983","imageIndex":0,"items":[{"name":"만물카프라자","tel":"031-959-4706","addr":"경기도 파주시 적성면 구읍리 588-7번지","indutype":"자동차정비 유지 - 자동차정비","category":"car"}]},{"lat":"37.95629342","long":"126.92554295","imageIndex":0,"items":[{"name":"서울카센타","tel":"031-958-7850","addr":"경기도 파주시 적성면 구읍리 604-13번지","indutype":"자동차정비 유지 - 자동차시트·타이어","category":"car"}]},{"lat":"37.965067838","long":"126.92469164","imageIndex":0,"items":[{"name":"우민카센타","tel":"031-953-6218","addr":"경기도 파주시 적성면 구읍리 413번지","indutype":"자동차정비 유지 - 자동차정비","category":"car"}]},{"lat":"37.955150817","long":"126.92796771","imageIndex":0,"items":[{"name":"현대자동차공업사","tel":"031-959-1577","addr":"경기도 파주시 적성면 구읍리 157-1번지","indutype":"자동차정비 유지 - 자동차정비","category":"car"}]},{"lat":"37.954821216","long":"126.92010573","imageIndex":13,"items":[{"name":"당사모","tel":"031-959-1030","addr":"경기도 파주시 적성면 구읍리 649-28번지","indutype":"레저업소 - 당 구 장","category":"leisure"}]},{"lat":"37.955038074","long":"126.92101574","imageIndex":13,"items":[{"name":"승원노래방","tel":"031-959-4347","addr":"경기도 파주시 적성면 구읍리 653-11번지","indutype":"레저업소 - 노 래 방","category":"leisure"},{"name":"승원노래연습장","tel":"031-959-3324","addr":"경기도 파주시 적성면 구읍리 653-11번지","indutype":"레저업소 - 노 래 방","category":"leisure"}]},{"lat":"37.956177461","long":"126.92732947","imageIndex":13,"items":[{"name":"실버들노래연습장","tel":"031-959-0022","addr":"경기도 파주시 적성면 구읍리 162-10","indutype":"레저업소 - 노 래 방","category":"leisure"}]},{"lat":"37.95546095","long":"126.92021879","imageIndex":13,"items":[{"name":"적성당구장","tel":"031-835-7768","addr":"경기도 파주시 적성면 구읍리 651-13번지","indutype":"레저업소 - 당 구 장","category":"leisure"}]},{"lat":"37.954704016","long":"126.91999208","imageIndex":13,"items":[{"name":"질러존","tel":"031-959-4156","addr":"경기도 파주시 적성면 구읍리 649-30번지","indutype":"레저업소 - 노 래 방","category":"leisure"}]},{"lat":"37.95582316","long":"126.92288091","imageIndex":7,"items":[{"name":"랍땅 아시아 마트","tel":"070-7166-7189","addr":"경기도 파주시 적성면 구읍리 610-18번지","indutype":"유통업 영리 - 슈퍼마켓","category":"mart"}]},{"lat":"37.955038074","long":"126.92101574","imageIndex":7,"items":[{"name":"태양마트","tel":"","addr":"경기도 파주시 적성면 구읍리 653-11번지","indutype":"유통업 영리 - 슈퍼마켓","category":"mart"}]},{"lat":"37.954956546","long":"126.92037865","imageIndex":5,"items":[{"name":"모텔25시","tel":"031-958-7025","addr":"경기도 파주시 적성면 구읍리 649-10","indutype":"숙박업 - 여관/기타숙박업","category":"hotel"}]},{"lat":"37.959288025","long":"126.9176315","imageIndex":5,"items":[{"name":"연정황토펜션","tel":"031-959-5722","addr":"경기도 파주시 적성면 구읍리 678-2번지","indutype":"숙박업 - 여관/기타숙박업","category":"hotel"}]},{"lat":"37.962210965","long":"126.92327226","imageIndex":5,"items":[{"name":"파주펜션힐","tel":"031-959-2353","addr":"경기도 파주시 적성면 구읍리 528-1번지","indutype":"숙박업 - 여관/기타숙박업","category":"hotel"}]},{"lat":"37.955678421","long":"126.92201632","imageIndex":13,"items":[{"name":"미란화장품","tel":"031-959-5383","addr":"경기도 파주시 적성면 구읍리 639번지","indutype":"보건위생 - 화장품","category":"beauty"}]},{"lat":"37.954821916","long":"126.92110701","imageIndex":13,"items":[{"name":"승원 24시사우나","tel":"031-959-4347","addr":"경기도 파주시 적성면 구읍리 645-1 외4필지","indutype":"보건위생 - 사우나","category":"beauty"}]},{"lat":"37.955794856","long":"126.92102628","imageIndex":13,"items":[{"name":"원맨","tel":"031-959-0830","addr":"경기도 파주시 적성면 구읍리 658-6번지","indutype":"보건위생 - 미용원","category":"beauty"}]},{"lat":"37.955678421","long":"126.92201632","imageIndex":8,"items":[{"name":"중부가축약품","tel":"031-959-9159","addr":"경기도 파주시 적성면 구읍리 639번지","indutype":"약국 - 약국","category":"medical"}]},{"lat":"37.962210965","long":"126.92327226","imageIndex":16,"items":[{"name":"파주로1박2일협동조합","tel":"031-111-1111","addr":"경기도 파주시 적성면 구읍리 528-1번지","indutype":"학원 - 기타 교육기관","category":"study"}]},{"lat":"37.954010832","long":"126.92074381","imageIndex":16,"items":[{"name":"하이스터디학원","tel":"031-959-9500","addr":"경기도 파주시 적성면 구읍리 649-37번지","indutype":"학원 - 기타 교육기관","category":"study"}]}]