[{"lat":"37.296093984","long":"127.01128423","imageIndex":0,"items":[{"name":"(주)한국지엠수원정문바로서비스","tel":"031-246-8255","addr":"경기도 수원시 장안구 조원동 777-11번지","indutype":"자동차정비 유지 - 자동차정비","category":"car"},{"name":"기능카센타","tel":"031-251-0727","addr":"경기도 수원시 장안구 조원동 777-11번지","indutype":"자동차정비 유지 - 자동차정비","category":"car"}]},{"lat":"37.302482027","long":"127.01392427","imageIndex":0,"items":[{"name":"가족모터샵","tel":"031-245-0635","addr":"경기도 수원시 장안구 조원동 728-12번지","indutype":"자동차판매 - 이륜차판매","category":"car"}]},{"lat":"37.301814933","long":"127.01708231","imageIndex":0,"items":[{"name":"강남카센타","tel":"031-253-9787","addr":"경기도 수원시 장안구 조원동 866-7번지 102동 103호","indutype":"자동차정비 유지 - 자동차정비","category":"car"}]},{"lat":"37.306410951","long":"127.00637869","imageIndex":0,"items":[{"name":"경기도와이퍼총판","tel":"031-111-1111","addr":"경기도 수원시 장안구 조원동 881번지 수원한일타운 104동 1001호","indutype":"자동차정비 유지 - 자동차부품","category":"car"}]},{"lat":"37.306176076","long":"127.01539117","imageIndex":0,"items":[{"name":"경남밧데리","tel":"031-8003-2570","addr":"경기도 수원시 장안구 조원동 48-1","indutype":"자동차정비 유지 - 자동차부품","category":"car"}]},{"lat":"37.295597986","long":"127.01605483","imageIndex":0,"items":[{"name":"광수생각 수원점","tel":"031-241-0118","addr":"경기도 수원시 장안구 조원동 563-4번지 1층","indutype":"자동차정비 유지 - 자동차부품","category":"car"},{"name":"현대디지털","tel":"031-241-2334","addr":"경기도 수원시 장안구 조원동 563-4번지 1층","indutype":"자동차정비 유지 - 카인테리어","category":"car"}]},{"lat":"37.29665229","long":"127.01506252","imageIndex":0,"items":[{"name":"그린모터스","tel":"031-248-6003","addr":"경기도 수원시 장안구 조원동 774-26번지","indutype":"자동차정비 유지 - 자동차정비","category":"car"}]},{"lat":"37.299543732","long":"127.02155953","imageIndex":0,"items":[{"name":"그린자동차유리","tel":"031-255-0600","addr":"경기도 수원시 장안구 조원동 472번지","indutype":"자동차정비 유지 - 자동차부품","category":"car"}]},{"lat":"37.29695867","long":"127.01475806","imageIndex":0,"items":[{"name":"금호자동차공업사","tel":"031-255-4002","addr":"경기도 수원시 장안구 조원동 774-28번지","indutype":"자동차정비 유지 - 자동차정비","category":"car"}]},{"lat":"37.298094072","long":"127.01358527","imageIndex":0,"items":[{"name":"대성카써비스","tel":"031-243-1666","addr":"경기도 수원시 장안구 조원동 763-23번지","indutype":"자동차정비 유지 - 자동차정비","category":"car"}]},{"lat":"37.302067904","long":"127.00917571","imageIndex":0,"items":[{"name":"메가플러스빌딩번영회","tel":"031-241-4154","addr":"경기도 수원시 장안구 조원동 898-1번지","indutype":"자동차정비 유지 - 주차장","category":"car"},{"name":"메가플러스빌딩번영회","tel":"031-241-4154","addr":"경기도 수원시 장안구 조원동 898-1번지","indutype":"자동차정비 유지 - 주차장","category":"car"}]},{"lat":"37.30342853","long":"127.00739369","imageIndex":0,"items":[{"name":"북수원패션아울렛","tel":"031-303-0000","addr":"경기도 수원시 장안구 조원동 893번지","indutype":"자동차정비 유지 - 주차장","category":"car"},{"name":"세차하는사람들","tel":"","addr":"경기도 수원시 장안구 조원동 893번지 아울렛쇼핑타운 지하1층 주차장","indutype":"자동차정비 유지 - 세차장","category":"car"}]},{"lat":"37.29629199","long":"127.01394592","imageIndex":0,"items":[{"name":"붕붕카케어","tel":"","addr":"경기도 수원시 장안구 조원동 780-15번지 가림주택 B동 402호","indutype":"자동차정비 유지 - 세차장","category":"car"}]},{"lat":"37.299400668","long":"127.01227713","imageIndex":0,"items":[{"name":"비앤비","tel":"031-232-7950","addr":"경기도 수원시 장안구 조원동 762-14번지","indutype":"자동차정비 유지 - 자동차시트·타이어","category":"car"}]},{"lat":"37.302094356","long":"127.01616875","imageIndex":0,"items":[{"name":"수정중기","tel":"031-244-2486","addr":"경기도 수원시 장안구 조원동 731-15번지 메가타워 604호","indutype":"자동차정비 유지 - 중장비수리","category":"car"}]},{"lat":"37.300454875","long":"127.01216447","imageIndex":0,"items":[{"name":"아름다운사람들","tel":"031-244-6557","addr":"경기도 수원시 장안구 조원동 753-10번지 고향생고기전문점 301호","indutype":"자동차정비 유지 - 세차장","category":"car"}]},{"lat":"37.296760428","long":"127.01491592","imageIndex":0,"items":[{"name":"오렌지카서비스조원점","tel":"031-257-0302","addr":"경기도 수원시 장안구 조원동 774-27번지","indutype":"자동차정비 유지 - 자동차정비","category":"car"},{"name":"한광사","tel":"031-255-1145","addr":"경기도 수원시 장안구 조원동 774-27번지","indutype":"자동차정비 유지 - 자동차부품","category":"car"}]},{"lat":"37.29465205","long":"127.01472386","imageIndex":0,"items":[{"name":"으뜸타이어","tel":"031-252-5750","addr":"경기도 수원시 장안구 조원동 640-3번지","indutype":"자동차정비 유지 - 자동차정비","category":"car"}]},{"lat":"37.303068095","long":"127.00803659","imageIndex":0,"items":[{"name":"일호골든타워관리단","tel":"031-303-1515","addr":"경기도 수원시 장안구 조원동 894번지 일호골든타워","indutype":"자동차정비 유지 - 주차장","category":"car"},{"name":"주식회사 티에이치씨엔에스","tel":"031-271-7800","addr":"경기도 수원시 장안구 조원동 894번지 일호골든타워 507호","indutype":"자동차정비 유지 - 주차장","category":"car"}]},{"lat":"37.310068963","long":"127.0096163","imageIndex":0,"items":[{"name":"조원자동차공업사","tel":"031-257-4974","addr":"경기도 수원시 장안구 조원동 123-1번지","indutype":"자동차정비 유지 - 자동차정비","category":"car"}]},{"lat":"37.299815173","long":"127.01183731","imageIndex":0,"items":[{"name":"조원점현대자동차","tel":"031-257-8587","addr":"경기도 수원시 장안구 조원동 762-17번지","indutype":"자동차정비 유지 - 카인테리어","category":"car"}]},{"lat":"37.304229968","long":"127.01438698","imageIndex":0,"items":[{"name":"조원카정비공업사","tel":"031-253-2158","addr":"경기도 수원시 장안구 조원동 725-2번지","indutype":"자동차정비 유지 - 자동차정비","category":"car"}]},{"lat":"37.297373158","long":"127.01458895","imageIndex":0,"items":[{"name":"천지타이어","tel":"031-111-1111","addr":"경기도 수원시 장안구 조원동 774-16번지","indutype":"자동차정비 유지 - 자동차시트·타이어","category":"car"}]},{"lat":"37.302373832","long":"127.01466868","imageIndex":0,"items":[{"name":"출장세차","tel":"031-293-8122","addr":"경기도 수원시 장안구 조원동 729-7번지 1층","indutype":"자동차정비 유지 - 세차장","category":"car"}]},{"lat":"37.304725949","long":"127.00865707","imageIndex":0,"items":[{"name":"클린카 출장손세차","tel":"","addr":"경기도 수원시 장안구 조원동 881번지 수원한일타운 130동 103호","indutype":"자동차정비 유지 - 세차장","category":"car"}]},{"lat":"37.297093838","long":"127.01461146","imageIndex":0,"items":[{"name":"타이어직매장수원점","tel":"031-244-4004","addr":"경기도 수원시 장안구 조원동 774-33번지","indutype":"자동차정비 유지 - 자동차시트·타이어","category":"car"}]},{"lat":"37.299732955","long":"127.02150319","imageIndex":0,"items":[{"name":"하루출장세차","tel":"070-8600-3268","addr":"경기도 수원시 장안구 조원동 471-10번지 202호","indutype":"자동차정비 유지 - 세차장","category":"car"}]}]