[{"lat":"37.013218629","long":"127.117447","imageIndex":16,"items":[{"name":"AP미용학원","tel":"031-1111-1111","addr":"경기도 평택시 죽백동 383-2번지 2층","indutype":"학원 - 기능학원","category":"study"}]},{"lat":"37.005101942","long":"127.11542374","imageIndex":16,"items":[{"name":"가내숲미술창작소","tel":"031-000-0000","addr":"경기도 평택시 죽백동 753-1번지 103호","indutype":"학원 - 예·체능계학원","category":"study"},{"name":"가내음악학원","tel":"031-652-8083","addr":"경기도 평택시 죽백동 753-1번지 2층","indutype":"학원 - 예·체능계학원","category":"study"},{"name":"경희대 가내태권도장","tel":"031-651-7703","addr":"경기도 평택시 죽백동 753-1번지 4층","indutype":"학원 - 예·체능계학원","category":"study"},{"name":"뮤엠영어가내초점학원","tel":"031-691-1587","addr":"경기도 평택시 죽백동 753-1번지 301호","indutype":"학원 - 외국어학원","category":"study"},{"name":"셀파우등생학원","tel":"031-000-0000","addr":"경기도 평택시 죽백동 753-1번지 3층 302호","indutype":"학원 - 보습학원","category":"study"}]},{"lat":"37.006490593","long":"127.11435844","imageIndex":16,"items":[{"name":"가내초등학교","tel":"031-686-1602","addr":"경기도 평택시 죽백동 738번지 가내초등학교","indutype":"학원 - 초중고교육기관","category":"study"},{"name":"가내초등학교 병설유치원[아이행복]","tel":"031-686-1603","addr":"경기도 평택시 죽백동 738번지 가내초등학교","indutype":"학원 - 유치원","category":"study"},{"name":"가내초등학교_수업료","tel":"031-686-1602","addr":"경기도 평택시 죽백동 738번지 가내초등학교","indutype":"학원 - 초중고교육기관","category":"study"}]},{"lat":"37.006158873","long":"127.11256032","imageIndex":16,"items":[{"name":"개인과외","tel":"","addr":"경기도 평택시 죽백동 737번지 평택소사벌호반베르디움 1101동 501호","indutype":"학원 - 기타 교육기관","category":"study"},{"name":"김정희개인과외","tel":"","addr":"경기도 평택시 죽백동 737번지 평택소사벌호반베르디움 1108동 102호","indutype":"학원 - 기타 교육기관","category":"study"},{"name":"센수학","tel":"","addr":"경기도 평택시 죽백동 737번지 평택소사벌호반베르디움 1107동 303호","indutype":"학원 - 기타 교육기관","category":"study"},{"name":"신동진 개인과외","tel":"031-691-7571","addr":"경기도 평택시 죽백동 737번지 평택소사벌호반베르디움 1108동 704호","indutype":"학원 - 기타 교육기관","category":"study"},{"name":"한솔플러스 수학교실","tel":"","addr":"경기도 평택시 죽백동 737번지 평택소사벌호반베르디움 1108동 103호","indutype":"학원 - 기타 교육기관","category":"study"},{"name":"호반베르디움어린이집[아이행복]","tel":"031-654-7479","addr":"경기도 평택시 죽백동 737번지 평택소사벌호반베르디움 관리동","indutype":"학원 - 유아원","category":"study"}]},{"lat":"37.010160992","long":"127.11106047","imageIndex":16,"items":[{"name":"기탄사고력교실 소사반도유보라교실","tel":"","addr":"경기도 평택시 죽백동 720번지 평택소사벌반도유보라아이비파크 201동 6층 4호","indutype":"학원 - 기타 교육기관","category":"study"},{"name":"솔숲어린이집[아이행복]","tel":"031-7388-7584","addr":"경기도 평택시 죽백동 720번지 평택소사벌반도유보라아이비파크 관리동","indutype":"학원 - 유아원","category":"study"},{"name":"아이린어린이집[아이행복]","tel":"031-656-6444","addr":"경기도 평택시 죽백동 720번지 평택소사벌반도유보라아이비파크 203동 104호","indutype":"학원 - 유아원","category":"study"},{"name":"행복가득한 어린이집[아이행복]","tel":"031-656-8286","addr":"경기도 평택시 죽백동 720번지 반도유보라아이비파크 206동 101호","indutype":"학원 - 유아원","category":"study"}]},{"lat":"37.00135356","long":"127.12449571","imageIndex":16,"items":[{"name":"더샵 행복한 어린이집[아이행복]","tel":"031-8094-1977","addr":"경기도 평택시 죽백동 817번지 소사벌더샵마스터뷰 1층 관리동","indutype":"학원 - 유아원","category":"study"},{"name":"미술개인과외교습","tel":"02-1111-1111","addr":"경기도 평택시 죽백동 817번지 소사벌더샵마스터뷰 106동 702호","indutype":"학원 - 기타 교육기관","category":"study"},{"name":"이유수학학원","tel":"031-656-9981","addr":"경기도 평택시 죽백동 817번지 소사벌더샵마스터뷰 203호,204호","indutype":"학원 - 보습학원","category":"study"}]},{"lat":"37.008413809","long":"127.1100805","imageIndex":16,"items":[{"name":"드림 어린이집[아이행복]","tel":"031-653-5331","addr":"경기도 평택시 죽백동 721번지 중흥S-클래스에코시티 102동 105호","indutype":"학원 - 유아원","category":"study"},{"name":"비상잉글리쉬아이중흥S클래스점","tel":"070-2653-7799","addr":"경기도 평택시 죽백동 721번지 소사벌중흥S-클래스에코시티 101동 105호","indutype":"학원 - 기타 교육기관","category":"study"},{"name":"에코아이어린이집[아이행복]","tel":"031-691-7474","addr":"경기도 평택시 죽백동 721번지 소사벌중흥S-클래스에코시티","indutype":"학원 - 유아원","category":"study"},{"name":"중흥 Math-cIass","tel":"031-651-1933","addr":"경기도 평택시 죽백동 721번지 평택소사벌중흥에스-클래스에코시티 105동 203호","indutype":"학원 - 기타 교육기관","category":"study"}]},{"lat":"37.008492074","long":"127.11317039","imageIndex":16,"items":[{"name":"드림스터디","tel":"031-818-0591","addr":"경기도 평택시 죽백동 722번지 평택소사벌반도유보라아이비파크 104동 503호","indutype":"학원 - 기타 교육기관","category":"study"},{"name":"반도가람어린이집[아이행복]","tel":"031-618-7982","addr":"경기도 평택시 죽백동 722번지 평택소사벌반도유보라아이비파크","indutype":"학원 - 유아원","category":"study"},{"name":"비전공부방","tel":"070-8966-6992","addr":"경기도 평택시 죽백동 722번지 평택소사벌반도유보라아이비파크 103동 301호","indutype":"학원 - 기타 교육기관","category":"study"},{"name":"유보라키즈 어린이집[아이행복]","tel":"031-656-9994","addr":"경기도 평택시 죽백동 722번지 평택소사벌반도유보라아이비파크 104동 104호","indutype":"학원 - 유아원","category":"study"},{"name":"윤선생우리집앞영어교실아이비파크캠퍼스","tel":"070-8823-0219","addr":"경기도 평택시 죽백동 722번지 평택소사벌반도유보라아이비파크 105동 202호","indutype":"학원 - 외국어학원","category":"study"},{"name":"환희공부방","tel":"02-1111-1111","addr":"경기도 평택시 죽백동 722번지 평택소사벌반도유보라아이비파크 103동 302호","indutype":"학원 - 기타 교육기관","category":"study"}]},{"lat":"37.003854201","long":"127.11983722","imageIndex":16,"items":[{"name":"모모아동발달센터","tel":"","addr":"경기도 평택시 죽백동 772번지 배다리프라자 4층 403호","indutype":"학원 - 기타 교육기관","category":"study"}]},{"lat":"37.005273198","long":"127.11536782","imageIndex":16,"items":[{"name":"백호태권도장","tel":"031-618-7144","addr":"경기도 평택시 죽백동 753번지 401호,402호","indutype":"학원 - 예·체능계학원","category":"study"},{"name":"삼성영어PEI학원","tel":"031-655-8830","addr":"경기도 평택시 죽백동 753번지 202호","indutype":"학원 - 보습학원","category":"study"},{"name":"슈슈아트미술학원","tel":"031-000-0000","addr":"경기도 평택시 죽백동 753번지 302호 전부","indutype":"학원 - 예·체능계학원","category":"study"},{"name":"이화뮤즈 음악학원","tel":"031-652-2522","addr":"경기도 평택시 죽백동 753번지 3층 301호","indutype":"학원 - 예·체능계학원","category":"study"},{"name":"최고봉영수학원","tel":"031-654-2272","addr":"경기도 평택시 죽백동 753번지 드림빌딩 201호","indutype":"학원 - 보습학원","category":"study"}]},{"lat":"37.005102963","long":"127.12355794","imageIndex":16,"items":[{"name":"시립배다리마을5단지어린이집[아이행복]","tel":"031-658-9055","addr":"경기도 평택시 죽백동 815번지 평택LH행복주택","indutype":"학원 - 유아원","category":"study"}]},{"lat":"37.00319199","long":"127.12425147","imageIndex":16,"items":[{"name":"시립우미린레이크어린이집[아이행복]","tel":"031-652-1031","addr":"경기도 평택시 죽백동 816번지 평택소사벌우미린레이크파크","indutype":"학원 - 유아원","category":"study"},{"name":"아트피크닉미술아뜰리에미술교습소","tel":"031-611-2442","addr":"경기도 평택시 죽백동 816번지 평택소사벌우미린레이크파크 상가동 201호","indutype":"학원 - 예·체능계학원","category":"study"},{"name":"용인대청호태권도장","tel":"031-653-1210","addr":"경기도 평택시 죽백동 816번지 평택소사벌우미린레이크파크 상가동 205호","indutype":"학원 - 예·체능계학원","category":"study"},{"name":"키움해법교실","tel":"","addr":"경기도 평택시 죽백동 816번지 평택소사벌우미린레이크파크 204동 302호","indutype":"학원 - 기타 교육기관","category":"study"},{"name":"헨델음악학원","tel":"031-656-0059","addr":"경기도 평택시 죽백동 816번지 평택소사벌우미린레이크파크 상가동 202호","indutype":"학원 - 예·체능계학원","category":"study"}]},{"lat":"37.013689238","long":"127.13294261","imageIndex":16,"items":[{"name":"인수농원","tel":"031-655-1267","addr":"경기도 평택시 죽백동 107-1번지","indutype":"학원 - 기타 교육기관","category":"study"}]},{"lat":"37.013413679","long":"127.13763891","imageIndex":16,"items":[{"name":"죽백초등학교","tel":"031-651-5803","addr":"경기도 평택시 죽백동 36-2번지 죽백초등학교","indutype":"학원 - 초중고교육기관","category":"study"},{"name":"죽백초등학교병설유치원[아이행복]","tel":"031-656-9638","addr":"경기도 평택시 죽백동 36-2번지 죽백초등학교","indutype":"학원 - 유치원","category":"study"}]},{"lat":"37.003912672","long":"127.11527594","imageIndex":16,"items":[{"name":"챔프짐","tel":"031-653-1279","addr":"경기도 평택시 죽백동 757-2번지 2층","indutype":"학원 - 예·체능계학원","category":"study"}]},{"lat":"37.005881192","long":"127.12025602","imageIndex":16,"items":[{"name":"평택하람어린이집[아이행복]","tel":"031-618-1717","addr":"경기도 평택시 죽백동 778번지","indutype":"학원 - 유아원","category":"study"}]},{"lat":"37.004885644","long":"127.11546837","imageIndex":16,"items":[{"name":"한국체대 현 태권도장","tel":"","addr":"경기도 평택시 죽백동 754번지 4층 401,402호","indutype":"학원 - 예·체능계학원","category":"study"}]}]