[{"lat":"37.10390896","long":"127.51201688","imageIndex":4,"items":[{"name":"DIOS (디오스)","tel":"031-000-0000","addr":"경기도 안성시 일죽면 당촌리 58-1번지","indutype":"일반휴게음식 - 서양음식","category":"restaurant"}]},{"lat":"37.104512539","long":"127.50570988","imageIndex":4,"items":[{"name":"머시꺽정인가","tel":"031-674-3787","addr":"경기도 안성시 일죽면 당촌리 105-15번지","indutype":"일반휴게음식 - 일반한식","category":"restaurant"},{"name":"장수왕갈비탕","tel":"031-672-1977","addr":"경기도 안성시 일죽면 당촌리 105-15번지","indutype":"일반휴게음식 - 일반한식","category":"restaurant"}]},{"lat":"37.108458323","long":"127.50376718","imageIndex":4,"items":[{"name":"물탕골오리","tel":"031-677-5258","addr":"경기도 안성시 일죽면 당촌리 460","indutype":"일반휴게음식 - 일반한식","category":"restaurant"}]},{"lat":"37.1003231","long":"127.50984432","imageIndex":4,"items":[{"name":"본가장수촌","tel":"031-674-2640","addr":"경기도 안성시 일죽면 당촌리 134-3","indutype":"일반휴게음식 - 일반한식","category":"restaurant"}]},{"lat":"37.103487166","long":"127.50951667","imageIndex":4,"items":[{"name":"생극해장곰탕","tel":"031-675-8518","addr":"경기도 안성시 일죽면 당촌리 92번지","indutype":"일반휴게음식 - 일반한식","category":"restaurant"}]},{"lat":"37.099294943","long":"127.50795891","imageIndex":4,"items":[{"name":"시골집생선국수","tel":"031-672-2575","addr":"경기도 안성시 일죽면 당촌리 137-22번지","indutype":"일반휴게음식 - 일반한식","category":"restaurant"}]},{"lat":"37.101180467","long":"127.5116274","imageIndex":4,"items":[{"name":"청용식당","tel":"031-672-6690","addr":"경기도 안성시 일죽면 당촌리 34-12","indutype":"일반휴게음식 - 일반한식","category":"restaurant"}]},{"lat":"37.100853055","long":"127.50387459","imageIndex":4,"items":[{"name":"켈리포니아BBQ(바비큐)","tel":"031-672-5990","addr":"경기도 안성시 일죽면 당촌리 233-17번지","indutype":"일반휴게음식 - 주점","category":"restaurant"}]}]