[{"lat":"37.27329612","long":"127.10866217","imageIndex":5,"items":[{"name":"G모텔","tel":"031-281-1814","addr":"경기도 용인시 기흥구 신갈동 51-2번지","indutype":"숙박업 - 여관/기타숙박업","category":"hotel"},{"name":"그리온모텔","tel":"031-281-1814","addr":"경기도 용인시 기흥구 신갈동 51-2번지","indutype":"숙박업 - 여관/기타숙박업","category":"hotel"}]},{"lat":"37.287732944","long":"127.10596463","imageIndex":5,"items":[{"name":"그레이스모텔","tel":"031-282-1120","addr":"경기도 용인시 기흥구 신갈동 246-6번지","indutype":"숙박업 - 여관/기타숙박업","category":"hotel"}]},{"lat":"37.270625978","long":"127.10182615","imageIndex":5,"items":[{"name":"남양모텔","tel":"031-281-8291","addr":"경기도 용인시 기흥구 신갈동 455-8번지","indutype":"숙박업 - 여관/기타숙박업","category":"hotel"},{"name":"남양모텔","tel":"031-281-8291","addr":"경기도 용인시 기흥구 신갈동 455-8번지 남양빌딩 4층","indutype":"숙박업 - 여관/기타숙박업","category":"hotel"}]},{"lat":"37.272460689","long":"127.10579724","imageIndex":5,"items":[{"name":"대호장","tel":"031-283-7676","addr":"경기도 용인시 기흥구 신갈동 60번지","indutype":"숙박업 - 여관/기타숙박업","category":"hotel"}]},{"lat":"37.289234489","long":"127.09901994","imageIndex":5,"items":[{"name":"더블유호텔(W Hotel)","tel":"031-895-5000","addr":"경기도 용인시 기흥구 신갈동 297-25번지","indutype":"숙박업 - 여관/기타숙박업","category":"hotel"}]},{"lat":"37.288515292","long":"127.09700043","imageIndex":5,"items":[{"name":"라고","tel":"031-281-3601","addr":"경기도 용인시 기흥구 신갈동 536-5번지 외1필지","indutype":"숙박업 - 여관/기타숙박업","category":"hotel"}]},{"lat":"37.272600878","long":"127.11027348","imageIndex":5,"items":[{"name":"리오모텔","tel":"031-281-0888","addr":"경기도 용인시 기흥구 신갈동 64-13번지","indutype":"숙박업 - 여관/기타숙박업","category":"hotel"}]},{"lat":"37.288983851","long":"127.09696718","imageIndex":5,"items":[{"name":"메리엘","tel":"031-281-2031","addr":"경기도 용인시 기흥구 신갈동 537-31번지","indutype":"숙박업 - 여관/기타숙박업","category":"hotel"}]},{"lat":"37.272099669","long":"127.10649577","imageIndex":5,"items":[{"name":"삼화여관","tel":"031-282-5259","addr":"경기도 용인시 기흥구 신갈동 60-12번지","indutype":"숙박업 - 여관/기타숙박업","category":"hotel"}]},{"lat":"37.270873639","long":"127.10721565","imageIndex":5,"items":[{"name":"샹그리아모텔","tel":"031-282-4608","addr":"경기도 용인시 기흥구 신갈동 69-10번지","indutype":"숙박업 - 여관/기타숙박업","category":"hotel"}]},{"lat":"37.288066126","long":"127.10619062","imageIndex":5,"items":[{"name":"센추럴팍","tel":"031-282-1122","addr":"경기도 용인시 기흥구 신갈동 246-7번지","indutype":"숙박업 - 여관/기타숙박업","category":"hotel"}]},{"lat":"37.270965464","long":"127.10524275","imageIndex":5,"items":[{"name":"신갈장여관","tel":"031-283-2700","addr":"경기도 용인시 기흥구 신갈동 71-6번지","indutype":"숙박업 - 여관/기타숙박업","category":"hotel"}]},{"lat":"37.270769811","long":"127.10222094","imageIndex":5,"items":[{"name":"신라파크모텔","tel":"031-281-2901","addr":"경기도 용인시 기흥구 신갈동 455-5번지 안전빌딩","indutype":"숙박업 - 여관/기타숙박업","category":"hotel"}]},{"lat":"37.273791956","long":"127.10835844","imageIndex":5,"items":[{"name":"엘레강스모텔","tel":"031-282-0238","addr":"경기도 용인시 기흥구 신갈동 52-7번지","indutype":"숙박업 - 여관/기타숙박업","category":"hotel"}]},{"lat":"37.273791805","long":"127.10852757","imageIndex":5,"items":[{"name":"엠(M)모텔","tel":"031-283-2651","addr":"경기도 용인시 기흥구 신갈동 52-8번지","indutype":"숙박업 - 여관/기타숙박업","category":"hotel"}]},{"lat":"37.288984529","long":"127.09611012","imageIndex":5,"items":[{"name":"오투","tel":"031-281-5837","addr":"경기도 용인시 기흥구 신갈동 537-57번지","indutype":"숙박업 - 여관/기타숙박업","category":"hotel"}]},{"lat":"37.289179996","long":"127.09954989","imageIndex":5,"items":[{"name":"윈져캐슬관광호텔","tel":"031-895-5000","addr":"경기도 용인시 기흥구 신갈동 297-10번지","indutype":"숙박업 - 여관/기타숙박업","category":"hotel"}]},{"lat":"37.288876122","long":"127.09647085","imageIndex":5,"items":[{"name":"제스트호텔","tel":"031-285-0707","addr":"경기도 용인시 기흥구 신갈동 536-12번지 외 1","indutype":"숙박업 - 여관/기타숙박업","category":"hotel"}]},{"lat":"37.273629228","long":"127.10896706","imageIndex":5,"items":[{"name":"큐모텔","tel":"031-285-4242","addr":"경기도 용인시 기흥구 신갈동 50-16번지","indutype":"숙박업 - 여관/기타숙박업","category":"hotel"}]},{"lat":"37.271018121","long":"127.10685507","imageIndex":5,"items":[{"name":"폴","tel":"031-274-5473","addr":"경기도 용인시 기흥구 신갈동 69-4번지","indutype":"숙박업 - 여관/기타숙박업","category":"hotel"}]},{"lat":"37.272153928","long":"127.10627035","imageIndex":5,"items":[{"name":"풍원장","tel":"031-281-1987","addr":"경기도 용인시 기흥구 신갈동 60-13번지","indutype":"숙박업 - 여관/기타숙박업","category":"hotel"}]},{"lat":"37.270262896","long":"127.10497122","imageIndex":5,"items":[{"name":"호텔 M7","tel":"031-275-6900","addr":"경기도 용인시 기흥구 신갈동 71-30번지","indutype":"숙박업 - 여관/기타숙박업","category":"hotel"},{"name":"호텔M7","tel":"031-275-6900","addr":"경기도 용인시 기흥구 신갈동 71-30번지","indutype":"숙박업 - 여관/기타숙박업","category":"hotel"}]}]