[{"lat":"37.703079189","long":"127.54499117","imageIndex":7,"items":[{"name":"(주)에스피씨삼립 가평(서울방향)휴게소","tel":"031-584-1425","addr":"경기도 가평군 설악면 미사리 145-3번지 외 37필지","indutype":"음료식품 - 기타음료식품","category":"food"}]},{"lat":"37.701585674","long":"127.54649975","imageIndex":7,"items":[{"name":"(주)에스피씨삼립 가평(춘천방향)휴게소","tel":"031-000-0000","addr":"경기도 가평군 설악면 미사리 149-4번지 외 47필지","indutype":"음료식품 - 기타음료식품","category":"food"}]},{"lat":"37.718166822","long":"127.54177796","imageIndex":7,"items":[{"name":"파로","tel":"","addr":"경기도 가평군 설악면 미사리 498-3번지","indutype":"음료식품 - 기타음료식품","category":"food"}]},{"lat":"37.698695269","long":"127.54024232","imageIndex":17,"items":[{"name":"PET VILLAGE","tel":"","addr":"경기도 가평군 설악면 미사리 266-2번지","indutype":"문화.취미 - 애완동물","category":"other"}]},{"lat":"37.703079189","long":"127.54499117","imageIndex":17,"items":[{"name":"씨유E가평휴게소상행선점","tel":"02-1577-8007","addr":"경기도 가평군 설악면 미사리 145-3번지 외 37필지","indutype":"유통업 영리 - 편 의 점","category":"other"},{"name":"씨유가평휴게소상행선점","tel":"031-584-5902","addr":"경기도 가평군 설악면 미사리 145-3번지 설악휴게소","indutype":"유통업 영리 - 편 의 점","category":"other"}]},{"lat":"37.701585674","long":"127.54649975","imageIndex":17,"items":[{"name":"씨유E가평휴게소하행선점","tel":"02-1577-8007","addr":"경기도 가평군 설악면 미사리 149-4번지 외 47필지","indutype":"유통업 영리 - 편 의 점","category":"other"},{"name":"씨유가평휴게소하행선점","tel":"031-584-5901","addr":"경기도 가평군 설악면 미사리 149-4번지","indutype":"유통업 영리 - 편 의 점","category":"other"},{"name":"크록스","tel":"","addr":"경기도 가평군 설악면 미사리 149-4번지 가평휴게소 (하행) 춘천방향","indutype":"신변잡화 - 신발","category":"other"},{"name":"푸른솔","tel":"070-2699-0807","addr":"경기도 가평군 설악면 미사리 149-4번지","indutype":"의류 - 정장","category":"other"}]},{"lat":"37.701585674","long":"127.54649975","imageIndex":0,"items":[{"name":"대아카센타","tel":"031-765-7443","addr":"경기도 가평군 설악면 미사리 149-4번지","indutype":"자동차정비 유지 - 자동차정비","category":"car"}]},{"lat":"37.714973759","long":"127.53863598","imageIndex":0,"items":[{"name":"대아카센타","tel":"031-584-5872","addr":"경기도 가평군 설악면 미사리 544","indutype":"자동차정비 유지 - 자동차정비","category":"car"}]},{"lat":"37.714418632","long":"127.5418302","imageIndex":4,"items":[{"name":"덕고개","tel":"031-585-9755","addr":"경기도 가평군 설악면 미사리 449-2번지","indutype":"일반휴게음식 - 일반한식","category":"restaurant"},{"name":"덕고개","tel":"031-585-9755","addr":"경기도 가평군 설악면 미사리 449-2번지","indutype":"일반휴게음식 - 일반한식","category":"restaurant"}]},{"lat":"37.718385459","long":"127.54321995","imageIndex":4,"items":[{"name":"미사식당","tel":"031-584-7992","addr":"경기도 가평군 설악면 미사리 743-1번지","indutype":"일반휴게음식 - 일반한식","category":"restaurant"}]},{"lat":"37.712889916","long":"127.54119537","imageIndex":4,"items":[{"name":"장락식당","tel":"031-1661-2743","addr":"경기도 가평군 설악면 미사리 459-1번지","indutype":"일반휴게음식 - 일반한식","category":"restaurant"}]},{"lat":"37.72152864","long":"127.5473827","imageIndex":5,"items":[{"name":"레이크힐","tel":"031-584-6331","addr":"경기도 가평군 설악면 미사리 19-6번지 외3필지 외1필지 19-1","indutype":"숙박업 - 여관/기타숙박업","category":"hotel"}]},{"lat":"37.726021739","long":"127.55376764","imageIndex":5,"items":[{"name":"장락원","tel":"070-7716-7789","addr":"경기도 가평군 설악면 미사리 4-1번지","indutype":"숙박업 - 여관/기타숙박업","category":"hotel"}]},{"lat":"37.718166822","long":"127.54177796","imageIndex":5,"items":[{"name":"파로티아 워터하우스","tel":"031-584-6800","addr":"경기도 가평군 설악면 미사리 498-3번지","indutype":"숙박업 - 여관/기타숙박업","category":"hotel"},{"name":"파로티아 워터하우스","tel":"031-584-6800","addr":"경기도 가평군 설악면 미사리 498-3번지","indutype":"숙박업 - 여관/기타숙박업","category":"hotel"},{"name":"파로티아 워터하우스 호텔","tel":"031-582-2123","addr":"경기도 가평군 설악면 미사리 498-3번지","indutype":"숙박업 - 여관/기타숙박업","category":"hotel"}]},{"lat":"37.718246038","long":"127.54218683","imageIndex":13,"items":[{"name":"물놀이","tel":"031-584-8616","addr":"경기도 가평군 설악면 미사리 498-1","indutype":"레저업소 - 기타레져업소","category":"leisure"}]},{"lat":"37.723301854","long":"127.54968687","imageIndex":13,"items":[{"name":"산울로수상레져","tel":"031-584-9953","addr":"경기도 가평군 설악면 미사리 10-3번지","indutype":"레저업소 - 기타레져업소","category":"leisure"}]},{"lat":"37.722136283","long":"127.54846467","imageIndex":13,"items":[{"name":"이지수상레져","tel":"031-584-6775","addr":"경기도 가평군 설악면 미사리 12-4","indutype":"레저업소 - 기타레져업소","category":"leisure"}]},{"lat":"37.701585674","long":"127.54649975","imageIndex":8,"items":[{"name":"설악약국","tel":"031-584-1426","addr":"경기도 가평군 설악면 미사리 149-4번지","indutype":"약국 - 약국","category":"medical"}]}]