[{"lat":"37.001664618","long":"127.15899754","imageIndex":13,"items":[{"name":"깍자헤어","tel":"031-653-9872","addr":"경기도 안성시 공도읍 용두리 518-2번지 1층","indutype":"보건위생 - 미용원","category":"beauty"}]},{"lat":"36.999385244","long":"127.15874573","imageIndex":13,"items":[{"name":"꺼멍머리","tel":"031-657-3676","addr":"경기도 안성시 공도읍 용두리 752번지 주은풍림아파트 1층 110호","indutype":"보건위생 - 미용원","category":"beauty"}]},{"lat":"37.004774973","long":"127.15772311","imageIndex":13,"items":[{"name":"닥터 스튜드 코리아","tel":"070-4282-9908","addr":"경기도 안성시 공도읍 용두리 530-2번지 2층 202호","indutype":"보건위생 - 화장품","category":"beauty"}]},{"lat":"37.000689409","long":"127.16719667","imageIndex":13,"items":[{"name":"더 예쁨","tel":"031-616-6556","addr":"경기도 안성시 공도읍 용두리 755번지 우미린더퍼스트 상가 2동 106호","indutype":"보건위생 - 미용원","category":"beauty"},{"name":"지니헤어샵","tel":"031-656-5509","addr":"경기도 안성시 공도읍 용두리 755번지 우미린 더퍼스트상가 106호","indutype":"보건위생 - 미용원","category":"beauty"}]},{"lat":"37.000159236","long":"127.16613951","imageIndex":13,"items":[{"name":"램스스킨","tel":"","addr":"경기도 안성시 공도읍 용두리 755-4번지 더스페이스 3동 301호 2","indutype":"보건위생 - 피부미용실","category":"beauty"}]},{"lat":"37.00655204","long":"127.16957993","imageIndex":13,"items":[{"name":"럭셔리뷰티 공도점","tel":"031-692-5279","addr":"경기도 안성시 공도읍 용두리 104-5번지 2층","indutype":"보건위생 - 화장품","category":"beauty"},{"name":"오휘 카운셀러","tel":"031-691-5279","addr":"경기도 안성시 공도읍 용두리 104-5번지 2층","indutype":"보건위생 - 화장품","category":"beauty"},{"name":"오휘화장품공도점","tel":"031-692-5279","addr":"경기도 안성시 공도읍 용두리 104-5번지","indutype":"보건위생 - 화장품","category":"beauty"}]},{"lat":"36.997993055","long":"127.15530528","imageIndex":13,"items":[{"name":"바비헤어비스","tel":"031-618-2555","addr":"경기도 안성시 공도읍 용두리 717-19번지 2층","indutype":"보건위생 - 미용원","category":"beauty"}]},{"lat":"37.00391195","long":"127.1695517","imageIndex":13,"items":[{"name":"바이오포톤공도점","tel":"031-656-8257","addr":"경기도 안성시 공도읍 용두리 132-4번지 301호","indutype":"보건위생 - 피부미용실","category":"beauty"}]},{"lat":"36.999048195","long":"127.15461087","imageIndex":13,"items":[{"name":"은주스킨케어","tel":"","addr":"경기도 안성시 공도읍 용두리 682-15번지","indutype":"보건위생 - 피부미용실","category":"beauty"}]},{"lat":"37.00712899","long":"127.16939019","imageIndex":13,"items":[{"name":"이오헤어","tel":"031-654-1452","addr":"경기도 안성시 공도읍 용두리 102-3번지","indutype":"보건위생 - 미용원","category":"beauty"}]},{"lat":"36.998939319","long":"127.15519483","imageIndex":13,"items":[{"name":"제이네일(J. Nail)","tel":"","addr":"경기도 안성시 공도읍 용두리 682-19번지 1층 2호","indutype":"보건위생 - 피부미용실","category":"beauty"}]},{"lat":"37.007714035","long":"127.16985212","imageIndex":13,"items":[{"name":"제이제이헤어","tel":"031-655-2373","addr":"경기도 안성시 공도읍 용두리 103-1번지","indutype":"보건위생 - 미용원","category":"beauty"},{"name":"주식회사 제이제이코리아","tel":"031-655-2373","addr":"경기도 안성시 공도읍 용두리 103-1번지 1층","indutype":"보건위생 - 미용원","category":"beauty"}]},{"lat":"36.998852118","long":"127.16655237","imageIndex":13,"items":[{"name":"행복나눔안경","tel":"031-658-0067","addr":"경기도 안성시 공도읍 용두리 273-1번지 101호(공도버스정류장)","indutype":"보건위생 - 안경","category":"beauty"}]},{"lat":"36.999300852","long":"127.15433051","imageIndex":13,"items":[{"name":"헤어뉴스 (Hair News)","tel":"031-692-3133","addr":"경기도 안성시 공도읍 용두리 682-10번지","indutype":"보건위생 - 미용원","category":"beauty"}]}]