[{"lat":"37.3932537","long":"127.2275961","imageIndex":13,"items":[{"name":"#헤어","tel":"031-639-0066","addr":"경기도 광주시 태전동 282-1번지 1층","indutype":"보건위생 - 미용원","category":"beauty"},{"name":"글로리아에스테틱","tel":"","addr":"경기도 광주시 태전동 282-1번지 티큐브 3층 202호","indutype":"보건위생 - 피부미용실","category":"beauty"},{"name":"네일 더 빛나 인뷰티","tel":"02-1111-1111","addr":"경기도 광주시 태전동 282-1번지 티큐브 302호","indutype":"보건위생 - 피부미용실","category":"beauty"},{"name":"빛나","tel":"","addr":"경기도 광주시 태전동 282-1번지 티큐브 3층 302호","indutype":"보건위생 - 피부미용실","category":"beauty"},{"name":"심리상담센터 아이뜰","tel":"031-797-9870","addr":"경기도 광주시 태전동 282-1번지 티큐브 402호","indutype":"보건위생 - 기타대인서비스","category":"beauty"}]},{"lat":"37.38825339","long":"127.2321432","imageIndex":13,"items":[{"name":"e편한헤어","tel":"031-767-6936","addr":"경기도 광주시 태전동 695번지 상가동1동 1층 1-4호","indutype":"보건위생 - 미용원","category":"beauty"},{"name":"속눈썹 일일구","tel":"031-766-2243","addr":"경기도 광주시 태전동 695번지 이편한세상태전2차 지층 2-1호","indutype":"보건위생 - 피부미용실","category":"beauty"},{"name":"이끌림헤어","tel":"031-761-3357","addr":"경기도 광주시 태전동 695번지 상가 2동 2-2호","indutype":"보건위생 - 미용원","category":"beauty"}]},{"lat":"37.393002","long":"127.2272905","imageIndex":13,"items":[{"name":"가우디헤어샵","tel":"031-7678-8886","addr":"경기도 광주시 태전동 281-9번지 2층","indutype":"보건위생 - 미용원","category":"beauty"}]},{"lat":"37.39261615","long":"127.231174","imageIndex":13,"items":[{"name":"골드핑거(GOLD FINGER)","tel":"031-765-8753","addr":"경기도 광주시 태전동 267-1번지","indutype":"보건위생 - 피부미용실","category":"beauty"},{"name":"벨리타헤어살롱","tel":"031-762-3618","addr":"경기도 광주시 태전동 267-1번지 202호","indutype":"보건위생 - 미용원","category":"beauty"}]},{"lat":"37.38383469","long":"127.2294198","imageIndex":13,"items":[{"name":"글라스스토리(광주태전점)","tel":"031-762-1123","addr":"경기도 광주시 태전동 87번지 태전아이파크 상가동 2층 103호","indutype":"보건위생 - 안경","category":"beauty"},{"name":"포유(for you)","tel":"031-797-4117","addr":"경기도 광주시 태전동 87번지 태전아이파크 상가동 지하2층 108호","indutype":"보건위생 - 미용원","category":"beauty"}]},{"lat":"37.39292428","long":"127.225506","imageIndex":13,"items":[{"name":"끌리 (G)헤어","tel":"031-8027-0022","addr":"경기도 광주시 태전동 298번지 102호","indutype":"보건위생 - 미용원","category":"beauty"},{"name":"끌리G메이크업","tel":"","addr":"경기도 광주시 태전동 298번지 102호","indutype":"보건위생 - 미용원","category":"beauty"}]},{"lat":"37.38669927","long":"127.2343968","imageIndex":13,"items":[{"name":"나이스가이(태전점)","tel":"031-765-0918","addr":"경기도 광주시 태전동 162-5번지 퍼스트타워 107호","indutype":"보건위생 - 미용원","category":"beauty"}]},{"lat":"37.38550579","long":"127.2365046","imageIndex":13,"items":[{"name":"내츄럴헤어비스","tel":"031-796-6262","addr":"경기도 광주시 태전동 7-4번지 태림빌딩 102호","indutype":"보건위생 - 미용원","category":"beauty"}]},{"lat":"37.38861839","long":"127.2297617","imageIndex":13,"items":[{"name":"네일,그대와","tel":"031-767-4141","addr":"경기도 광주시 태전동 628번지 성원프라자 144호","indutype":"보건위생 - 피부미용실","category":"beauty"},{"name":"마녀네일&뷰티","tel":"031-768-6103","addr":"경기도 광주시 태전동 628번지 성원프라자 2층 210호","indutype":"보건위생 - 피부미용실","category":"beauty"},{"name":"썬초본화장품","tel":"031-721-7750","addr":"경기도 광주시 태전동 628번지 성원프라자 210호","indutype":"보건위생 - 화장품","category":"beauty"},{"name":"자르니헤어샵","tel":"031-763-8829","addr":"경기도 광주시 태전동 628번지 성원프라자 2층 211호","indutype":"보건위생 - 미용원","category":"beauty"},{"name":"처음처럼","tel":"031-766-7571","addr":"경기도 광주시 태전동 628번지 성원프라자 1층 109호","indutype":"보건위생 - 미용재료","category":"beauty"},{"name":"팔레트","tel":"","addr":"경기도 광주시 태전동 628번지 성원프라자 120호","indutype":"보건위생 - 미용원","category":"beauty"},{"name":"피부나라","tel":"031-766-9886","addr":"경기도 광주시 태전동 628번지 성원프라자 2층 225호","indutype":"보건위생 - 피부미용실","category":"beauty"},{"name":"헤어도우미","tel":"031-797-5268","addr":"경기도 광주시 태전동 628번지 성원프라자 1층 110호","indutype":"보건위생 - 미용원","category":"beauty"}]},{"lat":"37.3917781","long":"127.2312279","imageIndex":13,"items":[{"name":"네일공간","tel":"070-4768-4115","addr":"경기도 광주시 태전동 667-4번지 2층 1호","indutype":"보건위생 - 피부미용실","category":"beauty"},{"name":"백원장헤어","tel":"031-766-7988","addr":"경기도 광주시 태전동 667-4번지 2층 1호","indutype":"보건위생 - 미용원","category":"beauty"}]},{"lat":"37.3841457","long":"127.2362859","imageIndex":13,"items":[{"name":"누리야헤어","tel":"031-762-4045","addr":"경기도 광주시 태전동 9번지","indutype":"보건위생 - 미용원","category":"beauty"}]},{"lat":"37.39278221","long":"127.2195318","imageIndex":13,"items":[{"name":"다인의료기","tel":"031-765-1251","addr":"경기도 광주시 태전동 521번지","indutype":"보건위생 - 의료용품","category":"beauty"}]},{"lat":"37.38455967","long":"127.2319287","imageIndex":13,"items":[{"name":"더헤어","tel":"031-765-3184","addr":"경기도 광주시 태전동 699번지 힐스테이트태전 1536동 108호","indutype":"보건위생 - 미용원","category":"beauty"}]},{"lat":"37.3870633","long":"127.2325348","imageIndex":13,"items":[{"name":"디 아르헤어","tel":"031-798-1747","addr":"경기도 광주시 태전동 696번지 이편한세상태전2차 1호","indutype":"보건위생 - 미용원","category":"beauty"}]},{"lat":"37.39339421","long":"127.2247621","imageIndex":13,"items":[{"name":"루시헤어","tel":"031-767-6953","addr":"경기도 광주시 태전동 367-12번지","indutype":"보건위생 - 미용원","category":"beauty"}]},{"lat":"37.39241814","long":"127.2310605","imageIndex":13,"items":[{"name":"루체헤어","tel":"031-797-6661","addr":"경기도 광주시 태전동 267-3번지 1층","indutype":"보건위생 - 미용원","category":"beauty"}]},{"lat":"37.39033787","long":"127.2305121","imageIndex":13,"items":[{"name":"마임광주태전지사","tel":"031-765-0377","addr":"경기도 광주시 태전동 676번지 계단기준북측 2층","indutype":"보건위생 - 화장품","category":"beauty"},{"name":"힐링샵","tel":"031-765-8387","addr":"경기도 광주시 태전동 676번지","indutype":"보건위생 - 화장품","category":"beauty"}]},{"lat":"37.38159032","long":"127.2298647","imageIndex":13,"items":[{"name":"메이드인(MADE IN)","tel":"031-761-9876","addr":"경기도 광주시 태전동 702-20번지 2동 201호","indutype":"보건위생 - 미용원","category":"beauty"}]},{"lat":"37.39306376","long":"127.2279795","imageIndex":13,"items":[{"name":"민낯뷰티","tel":"","addr":"경기도 광주시 태전동 280-1번지 태경빌딩 1층 110호","indutype":"보건위생 - 피부미용실","category":"beauty"},{"name":"앙포레모리노헤어 태전점","tel":"031-763-4041","addr":"경기도 광주시 태전동 280-1번지 태경빌딩 1층 103호","indutype":"보건위생 - 미용원","category":"beauty"}]},{"lat":"37.39194919","long":"127.2312849","imageIndex":13,"items":[{"name":"바른자세 척추교정원","tel":"031-763-0467","addr":"경기도 광주시 태전동 262-12번지 201호","indutype":"보건위생 - 기타대인서비스","category":"beauty"},{"name":"새봄헤어아트","tel":"031-765-8261","addr":"경기도 광주시 태전동 262-12번지","indutype":"보건위생 - 미용원","category":"beauty"}]},{"lat":"37.38481151","long":"127.2367622","imageIndex":13,"items":[{"name":"반하나(BANHANA)","tel":"031-763-2123","addr":"경기도 광주시 태전동 694번지 태전지웰 104호","indutype":"보건위생 - 피부미용실","category":"beauty"},{"name":"살롱드미장원","tel":"031-000-0000","addr":"경기도 광주시 태전동 694번지 태전지웰상가 G동 1층 103호","indutype":"보건위생 - 미용원","category":"beauty"}]},{"lat":"37.38669975","long":"127.2341484","imageIndex":13,"items":[{"name":"본샵","tel":"031-797-7797","addr":"경기도 광주시 태전동 162-8번지 에듀프라자 2층 206호","indutype":"보건위생 - 미용원","category":"beauty"}]},{"lat":"37.38829255","long":"127.2305285","imageIndex":13,"items":[{"name":"브라보스 미용재료","tel":"031-798-1571","addr":"경기도 광주시 태전동 222번지 2단지성원아파트","indutype":"보건위생 - 미용재료","category":"beauty"}]},{"lat":"37.38887019","long":"127.2300109","imageIndex":13,"items":[{"name":"블루클럽","tel":"031-768-8998","addr":"경기도 광주시 태전동 252-1번지","indutype":"보건위생 - 미용원","category":"beauty"},{"name":"올가스킨","tel":"","addr":"경기도 광주시 태전동 252-1번지","indutype":"보건위생 - 피부미용실","category":"beauty"}]},{"lat":"37.38586905","long":"127.2304196","imageIndex":13,"items":[{"name":"살롱드 봄(salon de 봄)","tel":"031-766-0405","addr":"경기도 광주시 태전동 698번지 힐스테이트태전 1528동 지1층 103호","indutype":"보건위생 - 미용원","category":"beauty"}]},{"lat":"37.39178369","long":"127.2283145","imageIndex":13,"items":[{"name":"서미인헤어살롱","tel":"","addr":"경기도 광주시 태전동 705번지 태전효송해링턴플레이스 119동 2층 203호","indutype":"보건위생 - 미용원","category":"beauty"},{"name":"서율헤어","tel":"031-767-2894","addr":"경기도 광주시 태전동 705번지 태전효성해링턴플레이스 상가 2동 2층 202호","indutype":"보건위생 - 미용원","category":"beauty"},{"name":"트리니티코스메틱","tel":"031-781-5763","addr":"경기도 광주시 태전동 705번지 태전효성해링턴플레이스 109동 801호","indutype":"보건위생 - 화장품","category":"beauty"}]},{"lat":"37.38420092","long":"127.2356989","imageIndex":13,"items":[{"name":"설헤어","tel":"031-765-0072","addr":"경기도 광주시 태전동 143번지 1층 광낭상가 전면좌측","indutype":"보건위생 - 미용원","category":"beauty"},{"name":"코코네일","tel":"031-765-1013","addr":"경기도 광주시 태전동 143번지 1층","indutype":"보건위생 - 피부미용실","category":"beauty"},{"name":"코코네일","tel":"031-765-1013","addr":"경기도 광주시 태전동 143번지","indutype":"보건위생 - 피부미용실","category":"beauty"}]},{"lat":"37.38656482","long":"127.234035","imageIndex":13,"items":[{"name":"손발꾸락","tel":"","addr":"경기도 광주시 태전동 162-4번지 메디프라자 1층 106호","indutype":"보건위생 - 피부미용실","category":"beauty"},{"name":"참빛옵틱","tel":"070-4649-1101","addr":"경기도 광주시 태전동 162-4번지 104,105호","indutype":"보건위생 - 안경","category":"beauty"},{"name":"토리헤어","tel":"031-797-6766","addr":"경기도 광주시 태전동 162-4번지 메디프라자 4층 402호","indutype":"보건위생 - 미용원","category":"beauty"}]},{"lat":"37.39239218","long":"127.2305071","imageIndex":13,"items":[{"name":"수","tel":"031-765-6094","addr":"경기도 광주시 태전동 261-7번지","indutype":"보건위생 - 기타대인서비스","category":"beauty"}]},{"lat":"37.39061603","long":"127.2263913","imageIndex":13,"items":[{"name":"수뷰티","tel":"031-765-9815","addr":"경기도 광주시 태전동 245-19번지 도움빌 201호","indutype":"보건위생 - 화장품","category":"beauty"}]},{"lat":"37.39228556","long":"127.2297276","imageIndex":13,"items":[{"name":"수빈헤어샵","tel":"031-768-1740","addr":"경기도 광주시 태전동 272-2번지","indutype":"보건위생 - 미용원","category":"beauty"}]},{"lat":"37.39509121","long":"127.2182059","imageIndex":13,"items":[{"name":"숙헤어샵","tel":"031-765-9401","addr":"경기도 광주시 태전동 502-2","indutype":"보건위생 - 미용원","category":"beauty"}]},{"lat":"37.39325672","long":"127.2260039","imageIndex":13,"items":[{"name":"스타일리쉬 헤어샵","tel":"070-4063-2543","addr":"경기도 광주시 태전동 281-2번지 1층 4호","indutype":"보건위생 - 미용원","category":"beauty"}]},{"lat":"37.38617036","long":"127.2283428","imageIndex":13,"items":[{"name":"아름다운헤어","tel":"070-4119-9236","addr":"경기도 광주시 태전동 692번지 우림필유 206동 105호","indutype":"보건위생 - 미용원","category":"beauty"}]},{"lat":"37.39000461","long":"127.2304547","imageIndex":13,"items":[{"name":"아이존안경원","tel":"031-769-8844","addr":"경기도 광주시 태전동 261-43번지","indutype":"보건위생 - 안경","category":"beauty"},{"name":"아이존옵틱","tel":"031-769-8844","addr":"경기도 광주시 태전동 261-43번지","indutype":"보건위생 - 안경","category":"beauty"}]},{"lat":"37.39030838","long":"127.2317881","imageIndex":13,"items":[{"name":"에스테티아 태전1호점","tel":"031-766-0830","addr":"경기도 광주시 태전동 683번지","indutype":"보건위생 - 피부미용실","category":"beauty"},{"name":"태후사랑","tel":"031-766-0670","addr":"경기도 광주시 태전동 683번지","indutype":"보건위생 - 이용원","category":"beauty"}]},{"lat":"37.38614124","long":"127.2340902","imageIndex":13,"items":[{"name":"에스테틱 피움","tel":"031-761-0711","addr":"경기도 광주시 태전동 160-7번지 201호","indutype":"보건위생 - 피부미용실","category":"beauty"}]},{"lat":"37.39277887","long":"127.2308922","imageIndex":13,"items":[{"name":"오땡큐 태전점","tel":"031-768-5705","addr":"경기도 광주시 태전동 268-1번지 2층","indutype":"보건위생 - 이용원","category":"beauty"}]},{"lat":"37.389008","long":"127.2286223","imageIndex":13,"items":[{"name":"젠틀맨남성커트점","tel":"031-767-6400","addr":"경기도 광주시 태전동 228번지 성원아파트 2층 202호","indutype":"보건위생 - 미용원","category":"beauty"}]},{"lat":"37.39095136","long":"127.2300962","imageIndex":13,"items":[{"name":"죠슈아헤어","tel":"031-766-5841","addr":"경기도 광주시 태전동 261-14번지","indutype":"보건위생 - 미용원","category":"beauty"}]},{"lat":"37.3843631","long":"127.2356994","imageIndex":13,"items":[{"name":"진짜사나이","tel":"031-769-5967","addr":"경기도 광주시 태전동 143-2번지","indutype":"보건위생 - 이용원","category":"beauty"}]},{"lat":"37.39261834","long":"127.2300335","imageIndex":13,"items":[{"name":"청춘미장원","tel":"031-769-8701","addr":"경기도 광주시 태전동 261-1번지 2층","indutype":"보건위생 - 미용원","category":"beauty"}]},{"lat":"37.39120338","long":"127.2302325","imageIndex":13,"items":[{"name":"태전밝은안경원","tel":"031-765-3663","addr":"경기도 광주시 태전동 261-23번지 1층 101호~102호","indutype":"보건위생 - 안경","category":"beauty"}]},{"lat":"37.39372956","long":"127.2284784","imageIndex":13,"items":[{"name":"하늘당 벌상","tel":"070-4219-0063","addr":"경기도 광주시 태전동 284-2번지","indutype":"보건위생 - 기타대인서비스","category":"beauty"}]},{"lat":"37.38042081","long":"127.228924","imageIndex":13,"items":[{"name":"헤어바이주디","tel":"031-763-2098","addr":"경기도 광주시 태전동 702번지 힐스테이트 상가 1층 103호","indutype":"보건위생 - 미용원","category":"beauty"}]},{"lat":"37.38389409","long":"127.2359464","imageIndex":13,"items":[{"name":"헤어시티","tel":"031-767-7525","addr":"경기도 광주시 태전동 14-3번지 영주빌딩","indutype":"보건위생 - 미용원","category":"beauty"}]}]