[{"lat":"37.382138316","long":"126.86170965","imageIndex":17,"items":[{"name":"건강한정형외과","tel":"031-411-7333","addr":"경기도 시흥시 목감동 408번지 302~304호","indutype":"보건업 - 정형외과","category":"other"},{"name":"글라스토리 목감점","tel":"031-411-9008","addr":"경기도 시흥시 목감동 408번지 동한메티컬프라자 114호","indutype":"소매업 - 안경","category":"other"},{"name":"용인대 비전 태권도장","tel":"","addr":"경기도 시흥시 목감동 408번지 동한메티컬프라자 6층 601호","indutype":"교육서비스업 - 태권도","category":"other"},{"name":"주식회사 이루어짐 목감1호점","tel":"","addr":"경기도 시흥시 목감동 408번지 5층","indutype":"스포츠및여가관련서비스업 - 체력단련장","category":"other"}]},{"lat":"37.385695469","long":"126.86017861","imageIndex":17,"items":[{"name":"골든헬스클럽","tel":"031-484-1022","addr":"경기도 시흥시 목감동 240-5번지 미덕상가 지층 B01,02호","indutype":"스포츠및여가관련서비스업 - 헬스클럽","category":"other"},{"name":"꿀돼지참한우","tel":"","addr":"경기도 시흥시 목감동 240-5번지 1층 103,104호","indutype":"소매업 - 정육점","category":"other"},{"name":"목감열린치과","tel":"031-480-7528","addr":"경기도 시흥시 목감동 240-5번지 2층","indutype":"보건업 - 치과","category":"other"},{"name":"청주이발관","tel":"","addr":"경기도 시흥시 목감동 240-5번지","indutype":"개인서비스업 - 이발소","category":"other"}]},{"lat":"37.381857405","long":"126.86037783","imageIndex":17,"items":[{"name":"금강태권도 효 교육관","tel":"031-403-6066","addr":"경기도 시흥시 목감동 403-1번지 목감시티프라자 5층 505호,506호","indutype":"교육서비스업 - 태권도장","category":"other"},{"name":"떡두꺼비","tel":"031-439-7079","addr":"경기도 시흥시 목감동 403-1번지 목감시티프라자 119호","indutype":"제조업 - 떡,제조","category":"other"},{"name":"목감 검도 교실","tel":"","addr":"경기도 시흥시 목감동 403-1번지 목감시티프라자 601호","indutype":"교육서비스업 - 검도","category":"other"},{"name":"서울감동치과의원","tel":"031-504-2750","addr":"경기도 시흥시 목감동 403-1번지 목감시티프라자 301호","indutype":"보건업 - 치과","category":"other"},{"name":"탑클래스 유도","tel":"","addr":"경기도 시흥시 목감동 403-1번지 목감시티프라자 5층 505호","indutype":"교육서비스업 - 유도","category":"other"}]},{"lat":"37.38228111","long":"126.86056898","imageIndex":17,"items":[{"name":"꼼꼼네일","tel":"031-401-1238","addr":"경기도 시흥시 목감동 402-3번지 다인로얄팰리스3차 118호","indutype":"개인서비스업 - 네일","category":"other"},{"name":"꽃므","tel":"031-520-4088","addr":"경기도 시흥시 목감동 402-3번지 다인로얄팰리스3차 106호","indutype":"소매업 - 꽃집","category":"other"},{"name":"월드크리닝 코인월드 시흥목감","tel":"031-411-1219","addr":"경기도 시흥시 목감동 402-3번지 다인로얄팰리스3차 1층 117호","indutype":"개인서비스업 - 세탁","category":"other"}]},{"lat":"37.38191186","long":"126.86070517","imageIndex":17,"items":[{"name":"다함 한약국","tel":"031-411-5475","addr":"경기도 시흥시 목감동 403-2번지 한울플러스 405호","indutype":"보건업 - 한약","category":"other"},{"name":"에스핏(S-FIT) 점핑다이어트클럽","tel":"031-403-4450","addr":"경기도 시흥시 목감동 403-2번지 한울플러스 5층 503호","indutype":"스포츠및여가관련서비스업 - 건강기능식","category":"other"}]},{"lat":"37.386249614","long":"126.86398286","imageIndex":17,"items":[{"name":"도도펫","tel":"","addr":"경기도 시흥시 목감동 206-3번지","indutype":"소매업 - 애완용품","category":"other"}]},{"lat":"37.387112325","long":"126.86207295","imageIndex":17,"items":[{"name":"동보사우나","tel":"031-486-8285","addr":"경기도 시흥시 목감동 238-6번지","indutype":"개인서비스업 - 일반사우나탕","category":"other"}]},{"lat":"37.386554358","long":"126.86262729","imageIndex":17,"items":[{"name":"루이까스텔 시흥목감점","tel":"031-411-3386","addr":"경기도 시흥시 목감동 235-2번지","indutype":"소매업 - 스포츠용품","category":"other"},{"name":"목감낚시할인마트","tel":"031-403-7715","addr":"경기도 시흥시 목감동 235-2번지","indutype":"소매업 - 낚시용품","category":"other"},{"name":"인디안 목감점","tel":"031-405-7701","addr":"경기도 시흥시 목감동 235-2번지","indutype":"소매업 - 의류","category":"other"},{"name":"장난감광장","tel":"031-411-3501","addr":"경기도 시흥시 목감동 235-2번지 뉴홍익빌딩 1층 103호","indutype":"소매업 - 장난감","category":"other"}]},{"lat":"37.386912645","long":"126.86085381","imageIndex":17,"items":[{"name":"미래로안경원","tel":"031-403-8808","addr":"경기도 시흥시 목감동 202-14번지 쇼팽음악학원 상가동 1층 2호","indutype":"소매업 - 안경","category":"other"}]},{"lat":"37.383028689","long":"126.86035303","imageIndex":17,"items":[{"name":"부자마을공인중개사사무소","tel":"031-413-0070","addr":"경기도 시흥시 목감동 243번지","indutype":"개인서비스업 - 부동산","category":"other"},{"name":"옷시짱","tel":"","addr":"경기도 시흥시 목감동 243번지 102호","indutype":"소매업 - 의류","category":"other"}]},{"lat":"37.385416088","long":"126.86012268","imageIndex":17,"items":[{"name":"순스킨케어","tel":"031-486-7160","addr":"경기도 시흥시 목감동 241번지 3층","indutype":"개인서비스업 - 피부관리실","category":"other"}]},{"lat":"37.382308548","long":"126.86090766","imageIndex":17,"items":[{"name":"아이편안(EYE편안)안경&콘택트","tel":"031-411-5617","addr":"경기도 시흥시 목감동 402-2번지 1,2층","indutype":"소매업 - 안경","category":"other"}]},{"lat":"37.383983717","long":"126.86031735","imageIndex":17,"items":[{"name":"월드하우징","tel":"031-405-8802","addr":"경기도 시흥시 목감동 242-10번지 현대빌라 2동 101호","indutype":"소매업 - 인테리어","category":"other"}]},{"lat":"37.382830331","long":"126.8602405","imageIndex":17,"items":[{"name":"진로마트 목감점","tel":"031-411-0988","addr":"경기도 시흥시 목감동 244-1번지","indutype":"소매업 - 생활잡화","category":"other"}]},{"lat":"37.383940804","long":"126.86210146","imageIndex":17,"items":[{"name":"착한한우","tel":"031-404-7676","addr":"경기도 시흥시 목감동 406번지 호반베르디움더프라임 401동 101호","indutype":"소매업 - 정육점","category":"other"}]},{"lat":"37.385974958","long":"126.86032487","imageIndex":17,"items":[{"name":"테라컴퍼니","tel":"031-405-1128","addr":"경기도 시흥시 목감동 240-2번지 목감상가 1동 101호","indutype":"소매업 - 의류","category":"other"}]},{"lat":"37.383308029","long":"126.86037509","imageIndex":17,"items":[{"name":"한마음이랑사회적협동조합","tel":"031-411-0999","addr":"경기도 시흥시 목감동 242-10번지 현대빌라 7동 지하","indutype":"기타 - 환경개선 및 공익사업","category":"other"}]},{"lat":"37.386612274","long":"126.87393021","imageIndex":17,"items":[{"name":"행운 주식회사","tel":"031-484-8500","addr":"경기도 시흥시 목감동 348-1번지","indutype":"소매업 - 보자기,가방","category":"other"}]}]