[{"lat":"37.799740433","long":"127.52324951","imageIndex":5,"items":[{"name":"(주)더블유지우리조트","tel":"031-581-7770","addr":"경기도 가평군 가평읍 달전리 159-15번지","indutype":"숙박업 - 콘도","category":"hotel"}]},{"lat":"37.803072343","long":"127.52360217","imageIndex":5,"items":[{"name":"남이섬 더 휴","tel":"031-581-9733","addr":"경기도 가평군 가평읍 달전리 150번지 1동","indutype":"숙박업 - 여관/기타숙박업","category":"hotel"}]},{"lat":"37.809708927","long":"127.52435283","imageIndex":5,"items":[{"name":"남이섬 리베라 펜션","tel":"031-581-5999","addr":"경기도 가평군 가평읍 달전리 54-4번지","indutype":"숙박업 - 여관/기타숙박업","category":"hotel"},{"name":"남이섬리페라펜션","tel":"031-581-5999","addr":"경기도 가평군 가평읍 달전리 54-4","indutype":"숙박업 - 여관/기타숙박업","category":"hotel"}]},{"lat":"37.810537583","long":"127.52236002","imageIndex":5,"items":[{"name":"남이섬 섬나루펜션","tel":"031-582-3814","addr":"경기도 가평군 가평읍 달전리 264-3번지","indutype":"숙박업 - 여관/기타숙박업","category":"hotel"}]},{"lat":"37.812398423","long":"127.51919333","imageIndex":5,"items":[{"name":"남이섬산장","tel":"031-582-9117","addr":"경기도 가평군 가평읍 달전리 293번지","indutype":"숙박업 - 여관/기타숙박업","category":"hotel"},{"name":"남이섬호텔","tel":"031-582-9117","addr":"경기도 가평군 가평읍 달전리 293번지","indutype":"숙박업 - 여관/기타숙박업","category":"hotel"}]},{"lat":"37.809598684","long":"127.52279632","imageIndex":5,"items":[{"name":"남이섬앤디209펜션","tel":"031-582-6701","addr":"경기도 가평군 가평읍 달전리 209-4번지","indutype":"숙박업 - 여관/기타숙박업","category":"hotel"}]},{"lat":"37.809455391","long":"127.52260227","imageIndex":5,"items":[{"name":"남이섬앤디펜션","tel":"031-582-6701","addr":"경기도 가평군 가평읍 달전리 208-1번지","indutype":"숙박업 - 여관/기타숙박업","category":"hotel"}]},{"lat":"37.809788476","long":"127.52266138","imageIndex":5,"items":[{"name":"남이섬하늘사랑","tel":"031-581-0031","addr":"경기도 가평군 가평읍 달전리 210-4번지","indutype":"숙박업 - 여관/기타숙박업","category":"hotel"}]},{"lat":"37.811621102","long":"127.51976708","imageIndex":5,"items":[{"name":"섬섬하우스","tel":"031-581-5851","addr":"경기도 가평군 가평읍 달전리 311-1번지","indutype":"숙박업 - 여관/기타숙박업","category":"hotel"}]},{"lat":"37.802956329","long":"127.52335156","imageIndex":5,"items":[{"name":"아롬","tel":"031-582-2088","addr":"경기도 가평군 가평읍 달전리 150-11번지","indutype":"숙박업 - 여관/기타숙박업","category":"hotel"}]},{"lat":"37.804069189","long":"127.52432453","imageIndex":5,"items":[{"name":"아이리스","tel":"031-581-0058","addr":"경기도 가평군 가평읍 달전리 134번지 외 3필지","indutype":"숙박업 - 여관/기타숙박업","category":"hotel"}]},{"lat":"37.809904993","long":"127.52279847","imageIndex":5,"items":[{"name":"이모네민박","tel":"031-582-3354","addr":"경기도 가평군 가평읍 달전리 210-1번지 B동","indutype":"숙박업 - 여관/기타숙박업","category":"hotel"}]},{"lat":"37.810184698","long":"127.52474227","imageIndex":5,"items":[{"name":"자라스파펜션","tel":"031-582-8928","addr":"경기도 가평군 가평읍 달전리 57-1번지","indutype":"숙박업 - 여관/기타숙박업","category":"hotel"}]},{"lat":"37.809928811","long":"127.5235254","imageIndex":5,"items":[{"name":"해연채펜션","tel":"031-582-3510","addr":"경기도 가평군 가평읍 달전리 50-5번지","indutype":"숙박업 - 여관/기타숙박업","category":"hotel"}]},{"lat":"37.802874595","long":"127.52349859","imageIndex":5,"items":[{"name":"허브향기","tel":"031-581-6797","addr":"경기도 가평군 가평읍 달전리 150-9번지","indutype":"숙박업 - 여관/기타숙박업","category":"hotel"}]},{"lat":"37.805905484","long":"127.52468945","imageIndex":5,"items":[{"name":"헬로캠프(리버플)","tel":"031-582-2127","addr":"경기도 가평군 가평읍 달전리 119번지","indutype":"숙박업 - 여관/기타숙박업","category":"hotel"}]}]