[{"lat":"37.822897971","long":"127.15697431","imageIndex":17,"items":[{"name":"(주)대기문구유통","tel":"031-544-8989","addr":"경기도 포천시 소흘읍 이가팔리 440-3번지","indutype":"서적문구 - 문구용품","category":"other"},{"name":"대기문구사","tel":"031-544-8989","addr":"경기도 포천시 소흘읍 이가팔리 440-3번지","indutype":"서적문구 - 문구용품","category":"other"}]},{"lat":"37.828758992","long":"127.16008744","imageIndex":17,"items":[{"name":"(주)에스케이플라스틱파렛트","tel":"070-4036-9950","addr":"경기도 포천시 소흘읍 이가팔리 754번지","indutype":"건축자재 - 기타건축자재","category":"other"}]},{"lat":"37.826759879","long":"127.15241624","imageIndex":17,"items":[{"name":"IT네트워크","tel":"","addr":"경기도 포천시 소흘읍 이가팔리 310-1번지 송우전화국 4층","indutype":"용역 서비스 - 기타용역서비스","category":"other"},{"name":"온누리텔레콤","tel":"031-544-8000","addr":"경기도 포천시 소흘읍 이가팔리 310-1번지 1층","indutype":"사무통신 - 통신기기","category":"other"}]},{"lat":"37.824758432","long":"127.15347986","imageIndex":17,"items":[{"name":"M통신","tel":"031-543-1906","addr":"경기도 포천시 소흘읍 이가팔리 485-2번지","indutype":"사무통신 - 통신기기","category":"other"},{"name":"삼성천막","tel":"031-542-4888","addr":"경기도 포천시 소흘읍 이가팔리 485-2","indutype":"직물 - 카페트,커튼,천막,지물","category":"other"},{"name":"알뜰구제cafe","tel":"031-543-1522","addr":"경기도 포천시 소흘읍 이가팔리 485-2번지 2호 상가","indutype":"의류 - 정장","category":"other"}]},{"lat":"37.82272842","long":"127.15572459","imageIndex":17,"items":[{"name":"NK furniture","tel":"070-7797-0426","addr":"경기도 포천시 소흘읍 이가팔리 449번지","indutype":"가구 - 일반가구","category":"other"}]},{"lat":"37.827146474","long":"127.15305309","imageIndex":17,"items":[{"name":"Natural Box","tel":"031-8080-0062","addr":"경기도 포천시 소흘읍 이가팔리 340-1번지 삼광빌라 302호","indutype":"회원제형태 - 레져업소","category":"other"}]},{"lat":"37.823815364","long":"127.15816881","imageIndex":17,"items":[{"name":"PP뱅크","tel":"031-541-5834","addr":"경기도 포천시 소흘읍 이가팔리 418-1","indutype":"서적문구 - 문구용품","category":"other"}]},{"lat":"37.823116046","long":"127.15555503","imageIndex":17,"items":[{"name":"가구와씽크대공장직판장","tel":"031-543-0400","addr":"경기도 포천시 소흘읍 이가팔리 452-3","indutype":"가구 - 일반가구","category":"other"}]},{"lat":"37.825951369","long":"127.15056319","imageIndex":17,"items":[{"name":"가야기프트","tel":"031-2265-4154","addr":"경기도 포천시 소흘읍 이가팔리 321-8","indutype":"유통업 영리 - 기타유통업","category":"other"}]},{"lat":"37.819841843","long":"127.15844442","imageIndex":17,"items":[{"name":"경기전기","tel":"031-544-0664","addr":"경기도 포천시 소흘읍 이가팔리 565-10번지","indutype":"수리서비스 - 기타수리서비스","category":"other"}]},{"lat":"37.814559687","long":"127.16042074","imageIndex":17,"items":[{"name":"광영개발","tel":"031-844-9456","addr":"경기도 포천시 소흘읍 이가팔리 971-2번지","indutype":"문화.취미 - 화원","category":"other"}]},{"lat":"37.821284842","long":"127.15731169","imageIndex":17,"items":[{"name":"광일장갑","tel":"031-544-7076","addr":"경기도 포천시 소흘읍 이가팔리 542-5번지","indutype":"의류 - 기타의류","category":"other"}]},{"lat":"37.824063894","long":"127.1541145","imageIndex":17,"items":[{"name":"굿타임24시송우점","tel":"031-542-4878","addr":"경기도 포천시 소흘읍 이가팔리 456-6번지 외2필지","indutype":"유통업 영리 - 편 의 점","category":"other"},{"name":"씨유이가팔리점","tel":"031-544-1215","addr":"경기도 포천시 소흘읍 이가팔리 456-6번지","indutype":"유통업 영리 - 편 의 점","category":"other"}]},{"lat":"37.823646404","long":"127.15647612","imageIndex":17,"items":[{"name":"금강","tel":"031-876-5249","addr":"경기도 포천시 소흘읍 이가팔리 461-1번지","indutype":"전기제품 - 냉열기기","category":"other"}]},{"lat":"37.826060894","long":"127.15650384","imageIndex":17,"items":[{"name":"다빈치","tel":"031-544-4981","addr":"경기도 포천시 소흘읍 이가팔리 361번지","indutype":"직물 - 카페트,커튼,천막,지물","category":"other"}]},{"lat":"37.823787396","long":"127.15192184","imageIndex":17,"items":[{"name":"대국이엔씨 주식회사","tel":"031-541-9291","addr":"경기도 포천시 소흘읍 이가팔리 488번지","indutype":"용역 서비스 - 사무서비스","category":"other"},{"name":"무짜렐라","tel":"","addr":"경기도 포천시 소흘읍 이가팔리 488번지 해왕팰리스","indutype":"의류 - 정장","category":"other"}]},{"lat":"37.826418227","long":"127.15185898","imageIndex":17,"items":[{"name":"대명천막공사","tel":"031-543-1238","addr":"경기도 포천시 소흘읍 이가팔리 326번지","indutype":"직물 - 카페트,커튼,천막,지물","category":"other"}]},{"lat":"37.826312484","long":"127.14997328","imageIndex":17,"items":[{"name":"대산자원","tel":"031-544-8813","addr":"경기도 포천시 소흘읍 이가팔리 499번지 1층","indutype":"신변잡화 - 기타잡화","category":"other"}]},{"lat":"37.820536002","long":"127.15811651","imageIndex":17,"items":[{"name":"대신모타","tel":"031-542-9944","addr":"경기도 포천시 소흘읍 이가팔리 565-7번지","indutype":"수리서비스 - 기타수리서비스","category":"other"}]},{"lat":"37.814478861","long":"127.16022751","imageIndex":17,"items":[{"name":"동양철물","tel":"031-542-2521","addr":"경기도 포천시 소흘읍 이가팔리 971-3번지","indutype":"건축자재 - 목재·석재·철물","category":"other"}]},{"lat":"37.824982356","long":"127.15450256","imageIndex":17,"items":[{"name":"레이스가구","tel":"031-542-4809","addr":"경기도 포천시 소흘읍 이가팔리 473-2번지","indutype":"가구 - 일반가구","category":"other"}]},{"lat":"37.82353749","long":"127.15708922","imageIndex":17,"items":[{"name":"미아트사운드","tel":"031-541-8859","addr":"경기도 포천시 소흘읍 이가팔리 439번지","indutype":"용역 서비스 - 기타용역서비스","category":"other"}]},{"lat":"37.82650961","long":"127.15083691","imageIndex":17,"items":[{"name":"믿음인테리어","tel":"031-533-9436","addr":"경기도 포천시 소흘읍 이가팔리 320-5번지","indutype":"건축자재 - 인테리어전문","category":"other"}]},{"lat":"37.825147643","long":"127.15206088","imageIndex":17,"items":[{"name":"삼성샷다금속","tel":"031-544-8208","addr":"경기도 포천시 소흘읍 이가팔리 490-15번지 16,492-7","indutype":"기타 - 기타 전문점","category":"other"}]},{"lat":"37.821724098","long":"127.15203127","imageIndex":17,"items":[{"name":"삼진기업","tel":"031-541-8532","addr":"경기도 포천시 소흘읍 이가팔리 509-6번지","indutype":"기타 - 기계공구","category":"other"}]},{"lat":"37.815952933","long":"127.16280863","imageIndex":17,"items":[{"name":"서린푸드(농업회사법인 주식회사)","tel":"541-1995","addr":"경기도 포천시 소흘읍 이가팔리 26-13번지","indutype":"도소매 - 축산물","category":"other"}]},{"lat":"37.831282181","long":"127.15967251","imageIndex":17,"items":[{"name":"성심공조설비","tel":"031-541-0337","addr":"경기도 포천시 소흘읍 이가팔리 613-23","indutype":"용역 서비스 - 기타용역서비스","category":"other"}]},{"lat":"37.824225318","long":"127.1546941","imageIndex":17,"items":[{"name":"송우중고","tel":"031-541-4935","addr":"경기도 포천시 소흘읍 이가팔리 457-8","indutype":"신변잡화 - 기타잡화","category":"other"},{"name":"철물만돌이","tel":"541-0904","addr":"경기도 포천시 소흘읍 이가팔리 457-8번지","indutype":"소매업 - 철물","category":"other"}]},{"lat":"37.821948916","long":"127.1523611","imageIndex":17,"items":[{"name":"수성상사","tel":"031-541-3554","addr":"경기도 포천시 소흘읍 이가팔리 509-2번지","indutype":"직물 - 옷감·직물","category":"other"}]},{"lat":"37.825784485","long":"127.15427703","imageIndex":17,"items":[{"name":"에듀키즈","tel":"031-848-7721","addr":"경기도 포천시 소흘읍 이가팔리 472번지","indutype":"서적문구 - 과학기자재","category":"other"}]},{"lat":"37.81875945","long":"127.15939616","imageIndex":17,"items":[{"name":"영애농장","tel":"070-8202-6373","addr":"경기도 포천시 소흘읍 이가팔리 728","indutype":"농업 - 비료,사료,종자","category":"other"}]},{"lat":"37.818643066","long":"127.15883941","imageIndex":17,"items":[{"name":"예전 떡 방앗간","tel":"543-9480","addr":"경기도 포천시 소흘읍 이가팔리 730","indutype":"제조업 - 떡집","category":"other"}]},{"lat":"37.821284231","long":"127.15777735","imageIndex":17,"items":[{"name":"위드미포천신탑점","tel":"02-6916-1500","addr":"경기도 포천시 소흘읍 이가팔리 548-1번지","indutype":"유통업 영리 - 편 의 점","category":"other"}]},{"lat":"37.817059931","long":"127.16366279","imageIndex":17,"items":[{"name":"유림조경농원","tel":"031-775-7868","addr":"경기도 포천시 소흘읍 이가팔리 59번지","indutype":"농업 - 비료,사료,종자","category":"other"}]},{"lat":"37.822230218","long":"127.15777932","imageIndex":17,"items":[{"name":"유진상사-2","tel":"031-543-0909","addr":"경기도 포천시 소흘읍 이가팔리 545-1번지","indutype":"주방용구 - 주방용구","category":"other"},{"name":"태영","tel":"031-543-4988","addr":"경기도 포천시 소흘읍 이가팔리 545-1","indutype":"건축자재 - 목재·석재·철물","category":"other"}]},{"lat":"37.824121303","long":"127.15147955","imageIndex":17,"items":[{"name":"유한(UH)","tel":"031-541-0727","addr":"경기도 포천시 소흘읍 이가팔리 503-11번지","indutype":"전기제품 - 기타전기제품","category":"other"}]},{"lat":"37.816010142","long":"127.16046925","imageIndex":17,"items":[{"name":"정교톱제작","tel":"031-543-7090","addr":"경기도 포천시 소흘읍 이가팔리 929-2번지","indutype":"회원제형태 - 기타4","category":"other"}]},{"lat":"37.817200868","long":"127.1593588","imageIndex":17,"items":[{"name":"주식회사 시아토건","tel":"031-1111-1111","addr":"경기도 포천시 소흘읍 이가팔리 738-1번지","indutype":"건축자재 - 기타건축자재","category":"other"}]},{"lat":"37.820369351","long":"127.15464077","imageIndex":17,"items":[{"name":"주식회사 안새고열","tel":"02-466-8548","addr":"경기도 포천시 소흘읍 이가팔리 526번지 나동","indutype":"건축자재 - 보일러·펌프·샷시","category":"other"}]},{"lat":"37.822587732","long":"127.1530325","imageIndex":17,"items":[{"name":"주식회사 와이앤제이글로벌","tel":"070-8803-2224","addr":"경기도 포천시 소흘읍 이가팔리 508-42번지","indutype":"유통업 영리 - 기타유통업","category":"other"}]},{"lat":"37.820283588","long":"127.15822956","imageIndex":17,"items":[{"name":"주식회사 착한공기에어웰","tel":"031-852-9321","addr":"경기도 포천시 소흘읍 이가팔리 565-9번지","indutype":"건축자재 - 기타건축자재","category":"other"}]},{"lat":"37.820757894","long":"127.15375568","imageIndex":17,"items":[{"name":"주식회사 쾌적한","tel":"031-1800-3204","addr":"경기도 포천시 소흘읍 이가팔리 513번지","indutype":"전기제품 - 냉열기기","category":"other"}]},{"lat":"37.823148848","long":"127.15803112","imageIndex":17,"items":[{"name":"진 쥬얼리","tel":"031-796-2554","addr":"경기도 포천시 소흘읍 이가팔리 435-1번지 대경다가구주택 가동 102호","indutype":"신변잡화 - 액세서리","category":"other"}]},{"lat":"37.818228347","long":"127.15905432","imageIndex":17,"items":[{"name":"청비닐포장","tel":"031-544-1649","addr":"경기도 포천시 소흘읍 이가팔리 730-4번지","indutype":"유통업 영리 - 기타유통업","category":"other"}]},{"lat":"37.81942729","long":"127.15853441","imageIndex":17,"items":[{"name":"태양초경","tel":"","addr":"경기도 포천시 소흘읍 이가팔리 565-6번지 101호","indutype":"건축자재 - 목재·석재·철물","category":"other"}]},{"lat":"37.824783035","long":"127.15536537","imageIndex":17,"items":[{"name":"패널티코리아(PENALTY KOREA)","tel":"","addr":"경기도 포천시 소흘읍 이가팔리 457-3번지 삼성그랜드빌라 203호","indutype":"레져용품 - 스포츠·레져용품","category":"other"}]},{"lat":"37.828335178","long":"127.15347577","imageIndex":17,"items":[{"name":"포근포근 포냥이","tel":"","addr":"경기도 포천시 소흘읍 이가팔리 344-1번지 현대빌라 나동 401호","indutype":"가구 - 기타가구","category":"other"}]},{"lat":"37.824780535","long":"127.1572849","imageIndex":17,"items":[{"name":"한울","tel":"031-543-1693","addr":"경기도 포천시 소흘읍 이가팔리 413-1","indutype":"사무통신 - 기타 사무용품","category":"other"}]},{"lat":"37.826003924","long":"127.15175593","imageIndex":17,"items":[{"name":"화인메디칼엔지니어링","tel":"031-543-5421","addr":"경기도 포천시 소흘읍 이가팔리 328번지","indutype":"기타 - 기타 전문점","category":"other"}]}]