[{"lat":"37.183418993","long":"127.10746689","imageIndex":13,"items":[{"name":"EJ헤어","tel":"031-373-3525","addr":"경기도 화성시 오산동 1040-1번지 3층 305호","indutype":"보건위생 - 미용원","category":"beauty"},{"name":"선도척추기공","tel":"","addr":"경기도 화성시 오산동 1040-1번지 5층 505호","indutype":"보건위생 - 기타대인서비스","category":"beauty"}]},{"lat":"37.197493384","long":"127.09652689","imageIndex":13,"items":[{"name":"굿왁싱","tel":"031-273-0580","addr":"경기도 화성시 오산동 968-6번지 윤정프라자 4층 403호","indutype":"보건위생 - 피부미용실","category":"beauty"},{"name":"닥터오심리상담센터","tel":"031-374-8508","addr":"경기도 화성시 오산동 968-6번지 901호","indutype":"보건위생 - 기타대인서비스","category":"beauty"},{"name":"닥터오심리상담센터","tel":"031-374-8508","addr":"경기도 화성시 오산동 968-6번지 윤정프라자 901호","indutype":"보건위생 - 기타대인서비스","category":"beauty"},{"name":"탐나는토탈 뷰티스토리","tel":"","addr":"경기도 화성시 오산동 968-6번지 윤정프라자 7층 706호","indutype":"보건위생 - 피부미용실","category":"beauty"}]},{"lat":"37.189445408","long":"127.08675252","imageIndex":13,"items":[{"name":"그린팍(GREEN PARK)","tel":"031-8043-1755","addr":"경기도 화성시 오산동 993번지 동탄2신도시 에일린의뜰 209동 1층 111호","indutype":"보건위생 - 미용원","category":"beauty"},{"name":"띠앗머리","tel":"031-372-0733","addr":"경기도 화성시 오산동 993번지 동탄2신도시에일린의뜰 209동 1층 103호","indutype":"보건위생 - 미용원","category":"beauty"},{"name":"심리상담센터 마음(심)","tel":"","addr":"경기도 화성시 오산동 993번지 동탄2신도시에일린의뜰 1608동 101호","indutype":"보건위생 - 기타대인서비스","category":"beauty"}]},{"lat":"37.18489115","long":"127.10347103","imageIndex":13,"items":[{"name":"글라트","tel":"031-377-1007","addr":"경기도 화성시 오산동 1032-2번지","indutype":"보건위생 - 안경","category":"beauty"},{"name":"더율헤어","tel":"031-377-4563","addr":"경기도 화성시 오산동 1032-1번지 104호","indutype":"보건위생 - 미용원","category":"beauty"}]},{"lat":"37.184721035","long":"127.10218698","imageIndex":13,"items":[{"name":"꼬메 쌤쁘레(Come Sempre)","tel":"031-1111-1111","addr":"경기도 화성시 오산동 1034-4번지 1층 102호","indutype":"보건위생 - 미용원","category":"beauty"}]},{"lat":"37.197104987","long":"127.09772034","imageIndex":13,"items":[{"name":"꿈자라다 운동발달센터","tel":"031-375-7442","addr":"경기도 화성시 오산동 969-4번지 신유메디프라자 308호","indutype":"보건위생 - 기타대인서비스","category":"beauty"},{"name":"네일 THE 맑음","tel":"070-5099-0844","addr":"경기도 화성시 오산동 969-4번지 509호","indutype":"보건위생 - 피부미용실","category":"beauty"},{"name":"더레이디스킨앤바디","tel":"031-373-1107","addr":"경기도 화성시 오산동 969-4번지 신유메디프라자 507호","indutype":"보건위생 - 화장품","category":"beauty"},{"name":"동탄누리아동발달센터","tel":"031-378-0862","addr":"경기도 화성시 오산동 969-4번지 신유메디프라자 6층 608호","indutype":"보건위생 - 기타대인서비스","category":"beauty"},{"name":"벤자롱스파","tel":"031-111-1111","addr":"경기도 화성시 오산동 969-4번지 신유메디프라자 3층 302호","indutype":"보건위생 - 피부미용실","category":"beauty"},{"name":"인디아테라피","tel":"031-378-1771","addr":"경기도 화성시 오산동 969-4번지 7층 709,710호","indutype":"보건위생 - 피부미용실","category":"beauty"},{"name":"크라이오랩 동탄2신도시점","tel":"","addr":"경기도 화성시 오산동 969-4번지 306호","indutype":"보건위생 - 피부미용실","category":"beauty"},{"name":"헤어인폼","tel":"031-373-8860","addr":"경기도 화성시 오산동 969-4번지 207호","indutype":"보건위생 - 미용원","category":"beauty"}]},{"lat":"37.186468357","long":"127.09171572","imageIndex":13,"items":[{"name":"네일 에일린(aileen)","tel":"","addr":"경기도 화성시 오산동 1017번지 동탄2LHC26단지 상가동 111호","indutype":"보건위생 - 피부미용실","category":"beauty"},{"name":"한별미술심리클리닉","tel":"","addr":"경기도 화성시 오산동 1017번지 동탄2LHC26단지 2604동 308호","indutype":"보건위생 - 기타대인서비스","category":"beauty"}]},{"lat":"37.183943583","long":"127.10519278","imageIndex":13,"items":[{"name":"네일그리다","tel":"031-377-5733","addr":"경기도 화성시 오산동 1036-21번지 1층","indutype":"보건위생 - 화장품","category":"beauty"}]},{"lat":"37.18355311","long":"127.10863826","imageIndex":13,"items":[{"name":"노랑머리","tel":"02-1577-0000","addr":"경기도 화성시 오산동 1040-4번지 2층 208호","indutype":"보건위생 - 미용원","category":"beauty"}]},{"lat":"37.197275787","long":"127.09821615","imageIndex":13,"items":[{"name":"노블에스테틱","tel":"031-378-1599","addr":"경기도 화성시 오산동 969-3번지 우성KTX타워 4층 9호","indutype":"보건위생 - 피부미용실","category":"beauty"},{"name":"다비치안경 동탄역사점","tel":"031-372-3726","addr":"경기도 화성시 오산동 969-3번지 117,209호","indutype":"보건위생 - 안경","category":"beauty"},{"name":"디딤마음상담연구소","tel":"031-373-9904","addr":"경기도 화성시 오산동 969-3번지 우성KTX타워 8층 801-2호","indutype":"보건위생 - 기타대인서비스","category":"beauty"},{"name":"디딤마음상담연구소","tel":"031-373-9904","addr":"경기도 화성시 오산동 969-3번지 우성KTX타워 8층 801-2호","indutype":"보건위생 - 기타대인서비스","category":"beauty"},{"name":"명품","tel":"","addr":"경기도 화성시 오산동 969-3번지 210호","indutype":"보건위생 - 피부미용실","category":"beauty"},{"name":"모찌왁싱","tel":"031-378-8281","addr":"경기도 화성시 오산동 969-3번지 125호","indutype":"보건위생 - 화장품","category":"beauty"},{"name":"오손도손 네일","tel":"031-378-8286","addr":"경기도 화성시 오산동 969-3번지 우성케이티엑스타워 1층 124호","indutype":"보건위생 - 피부미용실","category":"beauty"},{"name":"이&영헤어","tel":"","addr":"경기도 화성시 오산동 969-3번지 우성KTX타워 2층 208호","indutype":"보건위생 - 미용원","category":"beauty"},{"name":"착한남자","tel":"031-000-0000","addr":"경기도 화성시 오산동 969-3번지 우성KTX타워 1층 129호","indutype":"보건위생 - 미용원","category":"beauty"},{"name":"채에스테틱동탄점","tel":"070-7614-3579","addr":"경기도 화성시 오산동 969-3번지 3층 302호","indutype":"보건위생 - 피부미용실","category":"beauty"}]},{"lat":"37.195582412","long":"127.09749317","imageIndex":13,"items":[{"name":"다움헤어(DAWOOM HAIR)","tel":"031-373-0809","addr":"경기도 화성시 오산동 1020번지 동탄역린스트라우스 2층 2037,2038호","indutype":"보건위생 - 미용원","category":"beauty"},{"name":"더크라운헤어 동탄점","tel":"031-111-1111","addr":"경기도 화성시 오산동 1020번지 동탄역린스트라우스 2층 2053호","indutype":"보건위생 - 미용원","category":"beauty"},{"name":"더트루옵티칼","tel":"031-377-1178","addr":"경기도 화성시 오산동 1020번지 동탄2택지개발지구씨12블럭 동탄역린스트라우스판매시설 1층 1107,1108호","indutype":"보건위생 - 안경","category":"beauty"},{"name":"리얼'한 네일","tel":"031-373-4448","addr":"경기도 화성시 오산동 1020번지 동탄역린스트라우스 2층 2036호","indutype":"보건위생 - 피부미용실","category":"beauty"},{"name":"오써니데이","tel":"","addr":"경기도 화성시 오산동 1020번지 동탄역린스트라우스 2층 2020호","indutype":"보건위생 - 피부미용실","category":"beauty"},{"name":"주식회사 모이리네일","tel":"031-377-4426","addr":"경기도 화성시 오산동 1020번지 앨리스빌 상가 2층 2026호","indutype":"보건위생 - 피부미용실","category":"beauty"},{"name":"헤어오름","tel":"031-373-9780","addr":"경기도 화성시 오산동 1020번지 동탄역린스트라우스 2층 2011호,2012호","indutype":"보건위생 - 미용원","category":"beauty"}]},{"lat":"37.198051608","long":"127.09705697","imageIndex":13,"items":[{"name":"더(The) 수","tel":"031-377-1995","addr":"경기도 화성시 오산동 968-2번지 1동 1층 406호","indutype":"보건위생 - 화장품","category":"beauty"}]},{"lat":"37.20211084","long":"127.09113704","imageIndex":13,"items":[{"name":"더마스튜디오","tel":"","addr":"경기도 화성시 오산동 973번지 동탄역반도유보라아이비파크8.0 207동 1층 E106호","indutype":"보건위생 - 화장품","category":"beauty"},{"name":"라라뷰티","tel":"","addr":"경기도 화성시 오산동 973번지 동탄역반도유보라아이비파크8.0 207동 지하1층 E032호","indutype":"보건위생 - 피부미용실","category":"beauty"},{"name":"라보떼(LA BEAUTE)","tel":"031-5423-2085","addr":"경기도 화성시 오산동 973번지 반도유보라아이비파크8.0 동탄(2)택지개발지구 C-88L 206동 406호","indutype":"보건위생 - 화장품","category":"beauty"},{"name":"루아부띠끄","tel":"","addr":"경기도 화성시 오산동 973번지 동탄역반도유보라아이비파크8.0 207동 E101호","indutype":"보건위생 - 피부미용실","category":"beauty"},{"name":"미스터라운지","tel":"","addr":"경기도 화성시 오산동 973번지 동탄역반도유보라아이비파크8.0 207동 지하1층 E039호","indutype":"보건위생 - 미용원","category":"beauty"},{"name":"보니타","tel":"031-378-8077","addr":"경기도 화성시 오산동 973번지 동탄역반도유보라아이비파크8.0 207동 지하1층 E046호","indutype":"보건위생 - 피부미용실","category":"beauty"},{"name":"살롱우아한","tel":"031-8055-0993","addr":"경기도 화성시 오산동 973번지 동탄역반도유보라아이비파크8.0 207동 1층 E123호","indutype":"보건위생 - 미용원","category":"beauty"},{"name":"여울수기원","tel":"031-376-9912","addr":"경기도 화성시 오산동 973번지 동탄역반도유보라아이비파크8.0 207동 J208호","indutype":"보건위생 - 화장품","category":"beauty"},{"name":"오늘 그리고 네일","tel":"","addr":"경기도 화성시 오산동 973번지 동탄역반도유보라아이비파크8.0 207동 지하1층 E042호","indutype":"보건위생 - 피부미용실","category":"beauty"},{"name":"올가드림뷰티","tel":"031-377-2885","addr":"경기도 화성시 오산동 973번지 동탄역반도유보라아이비파크8.0 207동 E211호","indutype":"보건위생 - 피부미용실","category":"beauty"},{"name":"우디헤어","tel":"","addr":"경기도 화성시 오산동 973번지 동탄역 반도유보라 아이비파크 8.0 1층E108호,109호","indutype":"보건위생 - 미용원","category":"beauty"},{"name":"제이에스테틱","tel":"031-8058-5262","addr":"경기도 화성시 오산동 973번지 동탄역반도유보라아이비파크8.0 207동 E209호","indutype":"보건위생 - 피부미용실","category":"beauty"},{"name":"필헤어","tel":"031-377-8561","addr":"경기도 화성시 오산동 973번지 동탄역반도유보라아이비파크8.0 207동 지하1층 E047호","indutype":"보건위생 - 미용원","category":"beauty"},{"name":"핏네일","tel":"","addr":"경기도 화성시 오산동 973번지 동탄역반도유보라아이비파크8.0 207동 E103호","indutype":"보건위생 - 피부미용실","category":"beauty"}]},{"lat":"37.197888493","long":"127.09821692","imageIndex":13,"items":[{"name":"동탄가발히트모","tel":"","addr":"경기도 화성시 오산동 969-2번지 동탄역리치안 4층 405호","indutype":"보건위생 - 미용재료","category":"beauty"},{"name":"윤헤어","tel":"","addr":"경기도 화성시 오산동 969-2번지 동탄역리치안 405호 일부호","indutype":"보건위생 - 미용원","category":"beauty"},{"name":"윤헤어","tel":"","addr":"경기도 화성시 오산동 969-2번지 4층 405호","indutype":"보건위생 - 미용원","category":"beauty"},{"name":"탑스칼프 동탄점","tel":"031-337-8599","addr":"경기도 화성시 오산동 969-2번지 동탄역리치안 3층 307호","indutype":"보건위생 - 화장품","category":"beauty"},{"name":"헤어 쁘띠블랑(Hair 쁘띠블랑)","tel":"","addr":"경기도 화성시 오산동 969-2번지 2층 204호","indutype":"보건위생 - 미용원","category":"beauty"}]},{"lat":"37.197501974","long":"127.09705629","imageIndex":13,"items":[{"name":"레하브레인발달센터/레하솔루션 주식회사","tel":"070-8624-3002","addr":"경기도 화성시 오산동 968-4번지 동탄역리코빌 405호","indutype":"보건위생 - 기타대인서비스","category":"beauty"},{"name":"북경","tel":"031-377-3123","addr":"경기도 화성시 오산동 968-4번지 402호","indutype":"보건위생 - 화장품","category":"beauty"},{"name":"북경","tel":"","addr":"경기도 화성시 오산동 968-4번지 4층 402호","indutype":"보건위생 - 화장품","category":"beauty"},{"name":"크로양스뽀","tel":"031-8043-8815","addr":"경기도 화성시 오산동 968-4번지 7층 18호","indutype":"보건위생 - 화장품","category":"beauty"}]},{"lat":"37.20186281","long":"127.09729825","imageIndex":13,"items":[{"name":"리안헤어","tel":"031-375-8788","addr":"경기도 화성시 오산동 1019번지 2층 219호","indutype":"보건위생 - 미용원","category":"beauty"},{"name":"미스터힐링 동탄역점","tel":"031-375-2022","addr":"경기도 화성시 오산동 1019번지 2층 220호","indutype":"보건위생 - 기타대인서비스","category":"beauty"},{"name":"살롱드프롬 2동탄점","tel":"031-375-9089","addr":"경기도 화성시 오산동 1019번지 2층 라스플로레스 247호","indutype":"보건위생 - 미용원","category":"beauty"},{"name":"에리카헤어 동탄점","tel":"031-377-1177","addr":"경기도 화성시 오산동 1019번지 라스플로레스 1층 1023,1024호","indutype":"보건위생 - 미용원","category":"beauty"},{"name":"허그맘 허그인 동탄 심리상담 센타","tel":"031-378-3866","addr":"경기도 화성시 오산동 1019번지 4층 412호","indutype":"보건위생 - 기타대인서비스","category":"beauty"}]},{"lat":"37.181861408","long":"127.10607961","imageIndex":13,"items":[{"name":"마이제이헤어","tel":"031-376-1230","addr":"경기도 화성시 오산동 1044번지 반도유보라아이비파크3 상가동 1층 108호","indutype":"보건위생 - 미용원","category":"beauty"}]},{"lat":"37.184829461","long":"127.10182675","imageIndex":13,"items":[{"name":"미스코리아에스테틱","tel":"031-377-5560","addr":"경기도 화성시 오산동 1034-1번지 103호","indutype":"보건위생 - 피부미용실","category":"beauty"}]},{"lat":"37.19741134","long":"127.09772072","imageIndex":13,"items":[{"name":"여우 스킨","tel":"","addr":"경기도 화성시 오산동 969-5번지 607호","indutype":"보건위생 - 화장품","category":"beauty"},{"name":"윤스킨앤왁싱","tel":"031-374-1447","addr":"경기도 화성시 오산동 969-5번지 1층 114호","indutype":"보건위생 - 피부미용실","category":"beauty"}]},{"lat":"37.1961411372","long":"127.0973924981","imageIndex":13,"items":[{"name":"오케타니(통곡)육아상담실","tel":"053-291-0488","addr":"경기도 화성시 오산동 동탄2택지개발지구 C-12블럭 동탄린스트라우스더센트럴 201동 1301호","indutype":"보건위생 - 기타대인서비스","category":"beauty"}]},{"lat":"37.184891996","long":"127.10246875","imageIndex":13,"items":[{"name":"허니네일","tel":"031-373-7751","addr":"경기도 화성시 오산동 1034-6번지 1층 104호","indutype":"보건위생 - 피부미용실","category":"beauty"}]}]