[{"lat":"37.3916372035","long":"126.9879984416","imageIndex":0,"items":[{"name":"(주)세진디테일링안양점","tel":"031-424-0505","addr":"경기도 의왕시 포일동 242-11번지","indutype":"자동차정비 유지 - 세차장","category":"car"}]},{"lat":"37.3934479562","long":"126.9859427985","imageIndex":0,"items":[{"name":"그린셀프세차장","tel":"070-8888-6082","addr":"경기도 의왕시 포일동 505-36","indutype":"자동차정비 유지 - 세차장","category":"car"}]},{"lat":"37.3936101589","long":"126.9860895683","imageIndex":0,"items":[{"name":"그린포스","tel":"031-421-0678","addr":"경기도 의왕시 포일동 505-121번지","indutype":"자동차정비 유지 - 자동차정비","category":"car"}]},{"lat":"37.3895834277","long":"126.9930351667","imageIndex":0,"items":[{"name":"금호타이어형제대리점","tel":"031-421-5474","addr":"경기도 의왕시 포일동 109-3번지","indutype":"자동차정비 유지 - 자동차시트·타이어","category":"car"}]},{"lat":"37.3858351888","long":"126.9926178669","imageIndex":0,"items":[{"name":"동진사","tel":"031-452-8995","addr":"경기도 의왕시 포일동 142-7번지","indutype":"자동차정비 유지 - 자동차정비","category":"car"}]},{"lat":"37.4009449504","long":"126.9908313688","imageIndex":0,"items":[{"name":"서호유통","tel":"070-4773-7670","addr":"경기도 의왕시 포일동 653번지 A동 지하3층 에이비307호","indutype":"자동차정비 유지 - 윤활유 전문 판매","category":"car"},{"name":"인덕원IT밸리 관리단","tel":"031-8069-8111","addr":"경기도 의왕시 포일동 653번지 인덕원IT밸리 A동 지하1층","indutype":"자동차정비 유지 - 주차장","category":"car"},{"name":"제이에스모터스","tel":"031-8069-8875","addr":"경기도 의왕시 포일동 653번지 인덕원IT밸리 B동B201호","indutype":"자동차정비 유지 - 자동차부품","category":"car"}]},{"lat":"37.3984120876","long":"126.9831747686","imageIndex":0,"items":[{"name":"스타일워시 디테일링샵","tel":"031-423-1474","addr":"경기도 의왕시 포일동 669번지 101호","indutype":"자동차정비 유지 - 카인테리어","category":"car"}]},{"lat":"37.3974756657","long":"126.9873874441","imageIndex":0,"items":[{"name":"에이스청계타워관리단","tel":"031-5177-7700","addr":"경기도 의왕시 포일동 657-2번지 에이스청계타워","indutype":"자동차정비 유지 - 주차장","category":"car"},{"name":"주식회사 신오오토넷","tel":"031-348-2377","addr":"경기도 의왕시 포일동 657-2번지 에이스청계타워 1010호","indutype":"자동차정비 유지 - 자동차부품","category":"car"}]},{"lat":"37.3960786627","long":"126.9843385762","imageIndex":0,"items":[{"name":"에이치엘사이언스 빌딩관리사무소","tel":"031-423-3809","addr":"경기도 의왕시 포일동 664-2번지","indutype":"자동차정비 유지 - 주차장","category":"car"}]},{"lat":"37.3878897677","long":"126.9965245981","imageIndex":0,"items":[{"name":"와이드비전","tel":"031-424-4810","addr":"경기도 의왕시 포일동 125-1번지","indutype":"자동차정비 유지 - 카인테리어","category":"car"},{"name":"카미고","tel":"031-422-5804","addr":"경기도 의왕시 포일동 125-1번지","indutype":"자동차정비 유지 - 자동차부품","category":"car"}]},{"lat":"37.3912756283","long":"126.9805567896","imageIndex":0,"items":[{"name":"원 타이어","tel":"031-221-0129","addr":"경기도 의왕시 포일동 643번지 위브호수마을2단지","indutype":"자동차정비 유지 - 자동차시트·타이어","category":"car"}]},{"lat":"37.3918893870","long":"126.9872304990","imageIndex":0,"items":[{"name":"진우자동차정비","tel":"031-422-7585","addr":"경기도 의왕시 포일동 509-3번지 외1필지","indutype":"자동차정비 유지 - 자동차정비","category":"car"},{"name":"청계카공업사","tel":"031-424-1010","addr":"경기도 의왕시 포일동 509-3번지","indutype":"자동차정비 유지 - 자동차정비","category":"car"}]},{"lat":"37.3916632966","long":"126.9818327278","imageIndex":0,"items":[{"name":"청화세차장","tel":"031-425-6436","addr":"경기도 의왕시 포일동 559-3번지","indutype":"자동차정비 유지 - 세차장","category":"car"},{"name":"청화카센타","tel":"031-421-8277","addr":"경기도 의왕시 포일동 559-3번지","indutype":"자동차정비 유지 - 자동차정비","category":"car"}]},{"lat":"37.3933578762","long":"126.9860896246","imageIndex":0,"items":[{"name":"카웍스공임나라","tel":"031-423-9842","addr":"경기도 의왕시 포일동 505-39번지 금호빌딩 1층","indutype":"자동차정비 유지 - 자동차정비","category":"car"}]},{"lat":"37.3952228774","long":"126.9854793842","imageIndex":0,"items":[{"name":"카카오파츠","tel":"031-422-7773","addr":"경기도 의왕시 포일동 661-2번지 포레스타타워 105,106호","indutype":"자동차정비 유지 - 자동차부품","category":"car"}]},{"lat":"37.3916372359","long":"126.9882581692","imageIndex":0,"items":[{"name":"타이어100프로","tel":"031-422-2320","addr":"경기도 의왕시 포일동 242-21번지","indutype":"자동차정비 유지 - 자동차시트·타이어","category":"car"}]},{"lat":"37.3912768624","long":"126.9885066731","imageIndex":0,"items":[{"name":"휠포스","tel":"","addr":"경기도 의왕시 포일동 168-5번지 2층","indutype":"자동차정비 유지 - 자동차시트·타이어","category":"car"}]}]