[{"lat":"37.495167581","long":"127.48575774","imageIndex":7,"items":[{"name":"경기할인마트","tel":"031-773-4546","addr":"경기도 양평군 양평읍 양근리 527-10번지 1층","indutype":"유통업 영리 - 슈퍼마켓","category":"mart"}]},{"lat":"37.491856875","long":"127.49331242","imageIndex":7,"items":[{"name":"관문슈퍼","tel":"031-774-9875","addr":"경기도 양평군 양평읍 양근리 164-1번지","indutype":"유통업 영리 - 슈퍼마켓","category":"mart"}]},{"lat":"37.491722632","long":"127.48873203","imageIndex":7,"items":[{"name":"런슈퍼","tel":"031-771-9686","addr":"경기도 양평군 양평읍 양근리 446-7번지","indutype":"유통업 영리 - 슈퍼마켓","category":"mart"}]},{"lat":"37.497968259","long":"127.48167082","imageIndex":7,"items":[{"name":"마리","tel":"031-8786-9153","addr":"경기도 양평군 양평읍 양근리 504-9번지 가-1","indutype":"유통업 영리 - 슈퍼마켓","category":"mart"}]},{"lat":"37.495023844","long":"127.49222495","imageIndex":7,"items":[{"name":"양근할인마트","tel":"031-774-5788","addr":"경기도 양평군 양평읍 양근리 141-2번지","indutype":"유통업 영리 - 슈퍼마켓","category":"mart"}]},{"lat":"37.491077067","long":"127.4945059","imageIndex":7,"items":[{"name":"양평DC마트","tel":"031-774-9993","addr":"경기도 양평군 양평읍 양근리 170-8번지","indutype":"유통업 영리 - 슈퍼마켓","category":"mart"}]},{"lat":"37.4911116","long":"127.49486797","imageIndex":7,"items":[{"name":"양평DC백화점","tel":"031-774-5946","addr":"경기도 양평군 양평읍 양근리 169-1번지","indutype":"유통업 영리 - 슈퍼마켓","category":"mart"}]},{"lat":"37.490384454","long":"127.492059","imageIndex":7,"items":[{"name":"양평장터쇼핑","tel":"031-774-4131","addr":"경기도 양평군 양평읍 양근리 358-3번지 1층","indutype":"유통업 영리 - 슈퍼마켓","category":"mart"},{"name":"양평장터쇼핑 주식회사","tel":"031-774-4131","addr":"경기도 양평군 양평읍 양근리 358-3번지 1층","indutype":"유통업 영리 - 슈퍼마켓","category":"mart"},{"name":"양평장터쇼핑주식회사","tel":"031-774-4131","addr":"경기도 양평군 양평읍 양근리 358-3번지 1층","indutype":"유통업 영리 - 슈퍼마켓","category":"mart"}]},{"lat":"37.487298713","long":"127.49311303","imageIndex":7,"items":[{"name":"우리홈마트","tel":"031-772-4555","addr":"경기도 양평군 양평읍 양근리 230","indutype":"유통업 영리 - 슈퍼마켓","category":"mart"}]},{"lat":"37.491080591","long":"127.49797728","imageIndex":7,"items":[{"name":"주식회사남한강마트양평점","tel":"031-775-8412","addr":"경기도 양평군 양평읍 양근리 170-82번지","indutype":"유통업 영리 - 슈퍼마켓","category":"mart"}]},{"lat":"37.49030163","long":"127.4968075","imageIndex":7,"items":[{"name":"초록마을 양평점","tel":"031-775-5278","addr":"경기도 양평군 양평읍 양근리 184-7번지","indutype":"유통업 영리 - 슈퍼마켓","category":"mart"}]}]