[{"lat":"37.3535787","long":"127.1633238","imageIndex":0,"items":[{"name":"J STEAM","tel":"","addr":"경기도 광주시 오포읍 능평리 463-1번지 오포현대아파트","indutype":"자동차정비 유지 - 세차장","category":"car"}]},{"lat":"37.34817652","long":"127.1912338","imageIndex":0,"items":[{"name":"S#motor (에스샵모터)","tel":"031-768-9317","addr":"경기도 광주시 오포읍 능평리 37-2번지 1층","indutype":"자동차정비 유지 - 카인테리어","category":"car"}]},{"lat":"37.35020089","long":"127.169129","imageIndex":0,"items":[{"name":"금호렌탈","tel":"031-718-8582","addr":"경기도 광주시 오포읍 능평리 266-2번지 1층","indutype":"자동차정비 유지 - 세차장","category":"car"}]},{"lat":"37.35012023","long":"127.1688241","imageIndex":0,"items":[{"name":"금호세차장","tel":"031-718-8581","addr":"경기도 광주시 오포읍 능평리 266-20번지","indutype":"자동차정비 유지 - 세차장","category":"car"}]},{"lat":"37.34583952","long":"127.1757328","imageIndex":0,"items":[{"name":"능평점현대자동차","tel":"031-766-9005","addr":"경기도 광주시 오포읍 능평리 174-4번지","indutype":"자동차정비 유지 - 자동차정비","category":"car"},{"name":"드림카맨샵","tel":"031-768-3720","addr":"경기도 광주시 오포읍 능평리 174-4번지","indutype":"자동차정비 유지 - 자동차정비","category":"car"}]},{"lat":"37.35792136","long":"127.163491","imageIndex":0,"items":[{"name":"대광세차장","tel":"031-713-9225","addr":"경기도 광주시 오포읍 능평리 433-2번지 101호","indutype":"자동차정비 유지 - 세차장","category":"car"},{"name":"잭슨카 썬팅","tel":"031-726-5323","addr":"경기도 광주시 오포읍 능평리 433-2번지 (101,102)","indutype":"자동차정비 유지 - 자동차부품","category":"car"}]},{"lat":"37.35303643","long":"127.1645416","imageIndex":0,"items":[{"name":"대명자동차공업사","tel":"031-781-1577","addr":"경기도 광주시 오포읍 능평리 342-2번지","indutype":"자동차정비 유지 - 자동차정비","category":"car"}]},{"lat":"37.3580883","long":"127.1665954","imageIndex":0,"items":[{"name":"도우상사","tel":"031-272-8913","addr":"경기도 광주시 오포읍 능평리 412-1번지 모아맨션","indutype":"자동차정비 유지 - 자동차시트·타이어","category":"car"}]},{"lat":"37.35778877","long":"127.1615945","imageIndex":0,"items":[{"name":"디렉스모터스(Drax motors)","tel":"061-537-5849","addr":"경기도 광주시 오포읍 능평리 440-3번지","indutype":"자동차정비 유지 - 카인테리어","category":"car"}]},{"lat":"37.34797855","long":"127.1732322","imageIndex":0,"items":[{"name":"모터코리아","tel":"031-717-4102","addr":"경기도 광주시 오포읍 능평리 197-4번지","indutype":"자동차정비 유지 - 자동차정비","category":"car"},{"name":"워시 디테일링 센터","tel":"","addr":"경기도 광주시 오포읍 능평리 197-4번지","indutype":"자동차정비 유지 - 카인테리어","category":"car"}]},{"lat":"37.34526234","long":"127.1760926","imageIndex":0,"items":[{"name":"밧데리백화점","tel":"031-763-4982","addr":"경기도 광주시 오포읍 능평리 172-10번지 외1필지","indutype":"자동차정비 유지 - 자동차부품","category":"car"}]},{"lat":"37.34948152","long":"127.1805377","imageIndex":0,"items":[{"name":"봄모터스 (Bommotors)","tel":"","addr":"경기도 광주시 오포읍 능평리 104-3번지 굿모닝하우스 101동 203호","indutype":"자동차정비 유지 - 세차장","category":"car"}]},{"lat":"37.34975433","long":"127.1848159","imageIndex":0,"items":[{"name":"분당공업사광주점","tel":"031-767-8062","addr":"경기도 광주시 오포읍 능평리 22-1번지","indutype":"자동차정비 유지 - 카인테리어","category":"car"},{"name":"분당공업사광주점","tel":"031-767-8062","addr":"경기도 광주시 오포읍 능평리 22-1번지","indutype":"자동차정비 유지 - 자동차정비","category":"car"}]},{"lat":"37.34722868","long":"127.1807356","imageIndex":0,"items":[{"name":"삼정오토미션","tel":"02-2214-5588","addr":"경기도 광주시 오포읍 능평리 128-2번지","indutype":"자동차정비 유지 - 자동차부품","category":"car"},{"name":"삼정카메오","tel":"02-6498-5232","addr":"경기도 광주시 오포읍 능평리 128-2번지","indutype":"자동차정비 유지 - 자동차부품","category":"car"}]},{"lat":"37.35828428","long":"127.1616294","imageIndex":0,"items":[{"name":"서진카써비스","tel":"031-718-3275","addr":"경기도 광주시 오포읍 능평리 437-8","indutype":"자동차정비 유지 - 자동차정비","category":"car"}]},{"lat":"37.35745499","long":"127.1618985","imageIndex":0,"items":[{"name":"슈츠","tel":"031-111-1111","addr":"경기도 광주시 오포읍 능평리 444-1번지","indutype":"자동차정비 유지 - 카인테리어","category":"car"},{"name":"올드카팩토리","tel":"070-4127-7462","addr":"경기도 광주시 오포읍 능평리 444-1번지 1층 104호","indutype":"자동차정비 유지 - 자동차부품","category":"car"}]},{"lat":"37.34873023","long":"127.1705478","imageIndex":0,"items":[{"name":"스마트모터스(Smart motors)","tel":"031-713-3121","addr":"경기도 광주시 오포읍 능평리 194-6번지","indutype":"자동차정비 유지 - 자동차부품","category":"car"},{"name":"휠스타일","tel":"031-718-4494","addr":"경기도 광주시 오포읍 능평리 194-6번지 2층","indutype":"자동차정비 유지 - 자동차시트·타이어","category":"car"}]},{"lat":"37.34790058","long":"127.1832878","imageIndex":0,"items":[{"name":"스피드메이트능평점","tel":"031-767-5710","addr":"경기도 광주시 오포읍 능평리 96-6번지 1층","indutype":"자동차정비 유지 - 자동차정비","category":"car"},{"name":"엠스피드","tel":"02-2297-1142","addr":"경기도 광주시 오포읍 능평리 96-6번지","indutype":"자동차정비 유지 - 자동차정비","category":"car"}]},{"lat":"37.34597686","long":"127.1742321","imageIndex":0,"items":[{"name":"써브스킨","tel":"031-767-7057","addr":"경기도 광주시 오포읍 능평리 176번지","indutype":"자동차정비 유지 - 카인테리어","category":"car"}]},{"lat":"37.34967755","long":"127.1696583","imageIndex":0,"items":[{"name":"썬가드","tel":"031-746-7755","addr":"경기도 광주시 오포읍 능평리 262-8번지 1층","indutype":"자동차정비 유지 - 자동차부품","category":"car"}]},{"lat":"37.3578444","long":"127.1670464","imageIndex":0,"items":[{"name":"아이원커스텀","tel":"031-111-1111","addr":"경기도 광주시 오포읍 능평리 415-2번지 1층","indutype":"자동차정비 유지 - 카인테리어","category":"car"}]},{"lat":"37.35064332","long":"127.1684641","imageIndex":0,"items":[{"name":"알핀코리아","tel":"","addr":"경기도 광주시 오포읍 능평리 245-2번지 보민타운 101호","indutype":"자동차정비 유지 - 윤활유 전문 판매","category":"car"}]},{"lat":"37.35566994","long":"127.1692088","imageIndex":0,"items":[{"name":"에스12모터스","tel":"031-712-1214","addr":"경기도 광주시 오포읍 능평리 365-1번지 1층","indutype":"자동차정비 유지 - 자동차시트·타이어","category":"car"}]},{"lat":"37.34734262","long":"127.1828463","imageIndex":0,"items":[{"name":"에스에스(S.S)바이크","tel":"031-768-8757","addr":"경기도 광주시 오포읍 능평리 96-7번지","indutype":"자동차판매 - 이륜차판매","category":"car"}]},{"lat":"37.35045324","long":"127.1873231","imageIndex":0,"items":[{"name":"에이스모터스","tel":"031-798-5454","addr":"경기도 광주시 오포읍 능평리 29-1번지","indutype":"자동차정비 유지 - 자동차정비","category":"car"}]},{"lat":"37.34622829","long":"127.1748195","imageIndex":0,"items":[{"name":"월드비젼 스팀손세차","tel":"031-767-6002","addr":"경기도 광주시 오포읍 능평리 174-7번지 1층","indutype":"자동차정비 유지 - 세차장","category":"car"}]},{"lat":"37.35595293","long":"127.1665682","imageIndex":0,"items":[{"name":"유워시 분당광주점","tel":"","addr":"경기도 광주시 오포읍 능평리 350번지","indutype":"자동차정비 유지 - 세차장","category":"car"}]},{"lat":"37.35244986","long":"127.1652062","imageIndex":0,"items":[{"name":"제이피","tel":"031-626-2068","addr":"경기도 광주시 오포읍 능평리 340-24번지 더베일리하우스 302동 1층 105호","indutype":"자동차정비 유지 - 자동차부품","category":"car"}]},{"lat":"37.35575969","long":"127.1694573","imageIndex":0,"items":[{"name":"주식회사 에이치에스피코리아","tel":"070-4405-0608","addr":"경기도 광주시 오포읍 능평리 365-5번지","indutype":"자동차정비 유지 - 자동차부품","category":"car"},{"name":"진컴퍼니주식회사","tel":"031-717-3655","addr":"경기도 광주시 오포읍 능평리 365-5번지","indutype":"자동차정비 유지 - 자동차부품","category":"car"}]},{"lat":"37.34823366","long":"127.1834805","imageIndex":0,"items":[{"name":"주식회사 프라임모터스","tel":"031-766-9909","addr":"경기도 광주시 오포읍 능평리 93-3번지","indutype":"자동차정비 유지 - 자동차정비","category":"car"}]},{"lat":"37.35797646","long":"127.169259","imageIndex":0,"items":[{"name":"준자동차정비공장","tel":"031-726-2016","addr":"경기도 광주시 오포읍 능평리 381-3번지","indutype":"자동차정비 유지 - 자동차정비","category":"car"}]},{"lat":"37.35509094","long":"127.1643993","imageIndex":0,"items":[{"name":"카뜨리에(CATELIER)","tel":"070-5104-8967","addr":"경기도 광주시 오포읍 능평리 456-1번지","indutype":"자동차정비 유지 - 카인테리어","category":"car"}]},{"lat":"37.34628389","long":"127.1737588","imageIndex":0,"items":[{"name":"투투판매","tel":"031-766-5264","addr":"경기도 광주시 오포읍 능평리 175-9번지","indutype":"자동차정비 유지 - 카인테리어","category":"car"}]},{"lat":"37.3499773","long":"127.1862949","imageIndex":0,"items":[{"name":"프로카센타","tel":"031-767-9960","addr":"경기도 광주시 오포읍 능평리 26-10번지","indutype":"자동차정비 유지 - 자동차정비","category":"car"}]},{"lat":"37.35103315","long":"127.1731262","imageIndex":0,"items":[{"name":"프리미어모터스 (주)광주오포서비스","tel":"031-726-2008","addr":"경기도 광주시 오포읍 능평리 205-1번지","indutype":"자동차정비 유지 - 자동차정비","category":"car"}]}]