[{"lat":"37.211740716","long":"126.75453117","imageIndex":17,"items":[{"name":"(주)천일씨존레저서비스","tel":"031-355-1222","addr":"경기도 화성시 송산면 삼존리 778번지","indutype":"여행 - 여객선","category":"other"}]},{"lat":"37.218215168","long":"126.76577652","imageIndex":17,"items":[{"name":"금강천막","tel":"031-944-2249","addr":"경기도 화성시 송산면 삼존리 649-486","indutype":"직물 - 카페트,커튼,천막,지물","category":"other"}]},{"lat":"37.223127271","long":"126.75333331","imageIndex":17,"items":[{"name":"노블레스 디엠(D.M)","tel":"031-357-7928","addr":"경기도 화성시 송산면 삼존리 621-66번지","indutype":"용역 서비스 - 종합용역","category":"other"}]},{"lat":"37.211827072","long":"126.75705439","imageIndex":17,"items":[{"name":"대명철망","tel":"031-366-7340","addr":"경기도 화성시 송산면 삼존리 750-1번지","indutype":"건축자재 - 기타건축자재","category":"other"}]},{"lat":"37.22365113","long":"126.74550075","imageIndex":17,"items":[{"name":"더툴샵","tel":"070-4244-3233","addr":"경기도 화성시 송산면 삼존리 313-3번지","indutype":"전기제품 - 기타전기제품","category":"other"}]},{"lat":"37.211771791","long":"126.74795195","imageIndex":17,"items":[{"name":"마도상사","tel":"031-356-4389","addr":"경기도 화성시 송산면 삼존리 529-1번지","indutype":"건축자재 - 기타건축자재","category":"other"}]},{"lat":"37.211738183","long":"126.75764049","imageIndex":17,"items":[{"name":"성신콤프레샤","tel":"031-355-0999","addr":"경기도 화성시 송산면 삼존리 750-3번지","indutype":"기타 - 기계공구","category":"other"},{"name":"야르풍력","tel":"031-366-7107","addr":"경기도 화성시 송산면 삼존리 750-3번지 5호","indutype":"건축자재 - 보일러·펌프·샷시","category":"other"},{"name":"야르풍력","tel":"","addr":"경기도 화성시 송산면 삼존리 750-3번지 5,6호","indutype":"기타 - 기계공구","category":"other"}]},{"lat":"37.219651574","long":"126.72986478","imageIndex":17,"items":[{"name":"성현하우징","tel":"031-956-8657","addr":"경기도 화성시 송산면 삼존리 54-8번지","indutype":"건축자재 - 기타건축자재","category":"other"}]},{"lat":"37.211711223","long":"126.75335965","imageIndex":17,"items":[{"name":"씨유송산나들목점","tel":"031-357-9166","addr":"경기도 화성시 송산면 삼존리 779번지 1층","indutype":"유통업 영리 - 편 의 점","category":"other"}]},{"lat":"37.211050165","long":"126.76044783","imageIndex":17,"items":[{"name":"씨유화성삼존점","tel":"031-898-6569","addr":"경기도 화성시 송산면 삼존리 769-11번지 101,102호","indutype":"유통업 영리 - 편 의 점","category":"other"},{"name":"하이공조닥트","tel":"","addr":"경기도 화성시 송산면 삼존리 769-11번지 1층 110호","indutype":"용역 서비스 - 기타용역서비스","category":"other"},{"name":"한빛용접기","tel":"031-366-8203","addr":"경기도 화성시 송산면 삼존리 769-11번지 1층","indutype":"기타 - 기계공구","category":"other"}]},{"lat":"37.211934002","long":"126.75647949","imageIndex":17,"items":[{"name":"위드유 편의점","tel":"070-7653-9872","addr":"경기도 화성시 송산면 삼존리 750-2번지 103호","indutype":"유통업 영리 - 편 의 점","category":"other"},{"name":"학표농자재마트","tel":"031-357-8541","addr":"경기도 화성시 송산면 삼존리 750-2번지","indutype":"농업 - 농기계","category":"other"}]},{"lat":"37.221793798","long":"126.75336024","imageIndex":17,"items":[{"name":"주식회사 유진에너지산업","tel":"031-356-9802","addr":"경기도 화성시 송산면 삼존리 621-28번지","indutype":"건축자재 - 기타건축자재","category":"other"},{"name":"파워컨테이너","tel":"031-356-4071","addr":"경기도 화성시 송산면 삼존리 621-28번지","indutype":"건축자재 - 기타건축자재","category":"other"}]},{"lat":"37.211382923","long":"126.76014259","imageIndex":17,"items":[{"name":"주식회사 철공소","tel":"031-000-0000","addr":"경기도 화성시 송산면 삼존리 769-12번지","indutype":"기타 - 기계공구","category":"other"}]},{"lat":"37.213959461","long":"126.76888798","imageIndex":17,"items":[{"name":"준마플랜트","tel":"031-355-3168","addr":"경기도 화성시 송산면 삼존리 649-288 외3필지","indutype":"용역 서비스 - 기타용역서비스","category":"other"}]},{"lat":"37.210793607","long":"126.77183804","imageIndex":17,"items":[{"name":"퍼지시스템","tel":"070-7604-3316","addr":"경기도 화성시 송산면 삼존리 649-340","indutype":"건축자재 - 보일러·펌프·샷시","category":"other"}]},{"lat":"37.225762089","long":"126.73847381","imageIndex":17,"items":[{"name":"한누리영농조합법인","tel":"031-357-7253","addr":"경기도 화성시 송산면 삼존리 1236-2번지","indutype":"문화.취미 - 화원","category":"other"}]},{"lat":"37.2119332","long":"126.74759091","imageIndex":17,"items":[{"name":"화성자재","tel":"070-8709-8708","addr":"경기도 화성시 송산면 삼존리 528-3번지","indutype":"건축자재 - 기타건축자재","category":"other"}]}]