[{"lat":"37.53070121","long":"126.78807391","imageIndex":17,"items":[{"name":"(재)대한불교관음종도솔천봉원사","tel":"032-673-9096","addr":"경기도 부천시 오정동 112-32번지","indutype":"기타 - 비영리/대상","category":"other"},{"name":"포스코리아 밴정보통신","tel":"070-4335-0164","addr":"경기도 부천시 오정동 112-32번지 지층","indutype":"사무통신 - 통신기기","category":"other"}]},{"lat":"37.524032674","long":"126.78251601","imageIndex":17,"items":[{"name":"(주)다원","tel":"032-247-2347","addr":"경기도 부천시 오정동 609-8번지 2층","indutype":"기타 - 기계공구","category":"other"}]},{"lat":"37.527927268","long":"126.77896359","imageIndex":17,"items":[{"name":"(주)부형정밀몰드","tel":"032-679-8855","addr":"경기도 부천시 오정동 773-9번지 1층","indutype":"기타 - 기계공구","category":"other"},{"name":"태양레이저","tel":"032-679-5557","addr":"경기도 부천시 오정동 773-9번지","indutype":"기타 - 기계공구","category":"other"},{"name":"하나로테크","tel":"032-676-2664","addr":"경기도 부천시 오정동 773-9번지 3층","indutype":"기타 - 기계공구","category":"other"}]},{"lat":"37.531288573","long":"126.77929295","imageIndex":17,"items":[{"name":"(주)비에스인테크","tel":"070-8627-6388","addr":"경기도 부천시 오정동 758-9번지 4층","indutype":"전기제품 - 기타전기제품","category":"other"}]},{"lat":"37.529787247","long":"126.78590438","imageIndex":17,"items":[{"name":"(주)제이에스기술","tel":"032-676-3600","addr":"경기도 부천시 오정동 725번지 오정프라자 304호","indutype":"전기제품 - 기타전기제품","category":"other"},{"name":"(주)행복드림여성장애인기업","tel":"02-674-7336","addr":"경기도 부천시 오정동 725번지 오정프라자 201호","indutype":"사무통신 - 기타 사무용품","category":"other"},{"name":"골프존스크린오정점","tel":"032-676-7272","addr":"경기도 부천시 오정동 725번지 오정프라자 406~408호","indutype":"회원제형태 - 레져업소","category":"other"},{"name":"빠짐플러스","tel":"032-677-3287","addr":"경기도 부천시 오정동 725번지 오정프라자 208호","indutype":"레져용품 - 스포츠·레져용품","category":"other"},{"name":"씨유오정프라자점","tel":"032-671-4441","addr":"경기도 부천시 오정동 725번지 오정프라자 113호","indutype":"유통업 영리 - 편 의 점","category":"other"},{"name":"정아카데미","tel":"032-677-5051","addr":"경기도 부천시 오정동 725번지 오정프라자 204호","indutype":"레져용품 - 스포츠·레져용품","category":"other"},{"name":"포토꼴라쥬","tel":"032-676-2323","addr":"경기도 부천시 오정동 725번지 오정프라자 303호","indutype":"광학제품 - 사진관","category":"other"},{"name":"황금스크린골프","tel":"032-676-7272","addr":"경기도 부천시 오정동 725번지 오정프라자 4층","indutype":"회원제형태 - 레져업소","category":"other"}]},{"lat":"37.525787427","long":"126.79626706","imageIndex":17,"items":[{"name":"(주)팀싸파","tel":"032-226-4800","addr":"경기도 부천시 오정동 154-3번지 2층 일부","indutype":"레져용품 - 스포츠·레져용품","category":"other"}]},{"lat":"37.528479734","long":"126.7902637","imageIndex":17,"items":[{"name":"(주)휴먼아이앤디","tel":"032-684-8676","addr":"경기도 부천시 오정동 114-22번지 4층","indutype":"전기제품 - 가전제품","category":"other"}]},{"lat":"37.524477898","long":"126.77970921","imageIndex":17,"items":[{"name":"(주)희망테크프론/원격지","tel":"032-671-1300","addr":"경기도 부천시 오정동 598-1번지","indutype":"기타 - 기타 전문점","category":"other"}]},{"lat":"37.525287045","long":"126.79351948","imageIndex":17,"items":[{"name":"1175군장","tel":"070-5022-4846","addr":"경기도 부천시 오정동 148번지","indutype":"신변잡화 - 기념품점","category":"other"}]},{"lat":"37.530949464","long":"126.78102492","imageIndex":17,"items":[{"name":"153레이저용접","tel":"032-671-5153","addr":"경기도 부천시 오정동 763-3번지 107호 153 레이저용접","indutype":"용역 서비스 - 기타용역서비스","category":"other"},{"name":"메이플라워","tel":"02-1544-5435","addr":"경기도 부천시 오정동 763-3번지 105호","indutype":"문화.취미 - 화원","category":"other"}]},{"lat":"37.526093198","long":"126.78590377","imageIndex":17,"items":[{"name":"BYC미래유통","tel":"032-681-6229","addr":"경기도 부천시 오정동 571-20번지","indutype":"의류 - 내의판매","category":"other"}]},{"lat":"37.526755726","long":"126.78362797","imageIndex":17,"items":[{"name":"G5기획인쇄","tel":"032-674-3669","addr":"경기도 부천시 오정동 592-17번지","indutype":"서적문구 - 출판 및 인쇄물","category":"other"}]},{"lat":"37.523566598","long":"126.78873917","imageIndex":17,"items":[{"name":"GS25오정대로점","tel":"","addr":"경기도 부천시 오정동 613-15번지 1층","indutype":"유통업 영리 - 편 의 점","category":"other"}]},{"lat":"37.527090205","long":"126.79935188","imageIndex":17,"items":[{"name":"GS25오정스타점","tel":"","addr":"경기도 부천시 오정동 137-5번지 1층","indutype":"유통업 영리 - 편 의 점","category":"other"}]},{"lat":"37.527951585","long":"126.78718807","imageIndex":17,"items":[{"name":"GS25오정타운점","tel":"","addr":"경기도 부천시 오정동 558-10번지 1층","indutype":"유통업 영리 - 편 의 점","category":"other"}]},{"lat":"37.530781959","long":"126.78299395","imageIndex":17,"items":[{"name":"GS25오정휴먼시아점","tel":"","addr":"경기도 부천시 오정동 717번지 오정휴먼시아 상가동 1층 101호","indutype":"유통업 영리 - 편 의 점","category":"other"},{"name":"가나안기획인쇄","tel":"032-674-3817","addr":"경기도 부천시 오정동 717번지 오정생활휴먼시아1단지아파트","indutype":"용역 서비스 - 종합용역","category":"other"},{"name":"애드칼라","tel":"070-4146-7876","addr":"경기도 부천시 오정동 717번지 오정생활휴먼시아1단지아파트","indutype":"건축자재 - 페인트","category":"other"},{"name":"인크로쉐(in crochet)","tel":"","addr":"경기도 부천시 오정동 717번지 오정생활휴먼시아1단지아파트","indutype":"직물 - 침구·수예점","category":"other"}]},{"lat":"37.527034397","long":"126.78818624","imageIndex":17,"items":[{"name":"JK24공조","tel":"02-1111-1111","addr":"경기도 부천시 오정동 561번지 프라임캐슬 B동 202호","indutype":"용역 서비스 - 기타용역서비스","category":"other"}]},{"lat":"37.529310378","long":"126.78140311","imageIndex":17,"items":[{"name":"S&H (에스엔에이치)","tel":"032-682-4240","addr":"경기도 부천시 오정동 395-15번지 1층","indutype":"주방용구 - 주방용구","category":"other"}]},{"lat":"37.527201885","long":"126.78616075","imageIndex":17,"items":[{"name":"강쥐들의 천국","tel":"","addr":"경기도 부천시 오정동 573-20번지 1층","indutype":"문화.취미 - 애완동물","category":"other"}]},{"lat":"37.526956267","long":"126.78488311","imageIndex":17,"items":[{"name":"개 편한세상","tel":"032-677-5608","addr":"경기도 부천시 오정동 579-11번지","indutype":"문화.취미 - 애완동물","category":"other"},{"name":"늘푸른인테리어","tel":"032-674-7816","addr":"경기도 부천시 오정동 579-11번지","indutype":"직물 - 카페트,커튼,천막,지물","category":"other"}]},{"lat":"37.526453404","long":"126.78580091","imageIndex":17,"items":[{"name":"갤러리(예쁜옷집)","tel":"032-666-6666","addr":"경기도 부천시 오정동 571번지 1층","indutype":"의류 - 정장","category":"other"},{"name":"인생모바일","tel":"031-000-0000","addr":"경기도 부천시 오정동 571번지 1층","indutype":"사무통신 - 통신기기","category":"other"}]},{"lat":"37.526511431","long":"126.78307436","imageIndex":17,"items":[{"name":"고등어","tel":"031-111-1111","addr":"경기도 부천시 오정동 592-3번지 진도홈빌 103동 2층 201호","indutype":"용역 서비스 - 사무서비스","category":"other"}]},{"lat":"37.524614713","long":"126.78543292","imageIndex":17,"items":[{"name":"광명의자","tel":"031-676-0890","addr":"경기도 부천시 오정동 585-4번지 금호빌라 101동 101호","indutype":"수리서비스 - 가정용품수리","category":"other"}]},{"lat":"37.524537182","long":"126.7824919","imageIndex":17,"items":[{"name":"광성진공열처리","tel":"032-681-0072","addr":"경기도 부천시 오정동 608번지","indutype":"기타 - 기타 전문점","category":"other"}]},{"lat":"37.526841741","long":"126.78629755","imageIndex":17,"items":[{"name":"구두수선","tel":"032-676-3155","addr":"경기도 부천시 오정동 572번지 오정종합시장 지하층 53호","indutype":"수리서비스 - 신변잡화수리","category":"other"},{"name":"디자인 윤","tel":"","addr":"경기도 부천시 오정동 572번지 네제 1층 104호","indutype":"건축자재 - 인테리어전문","category":"other"},{"name":"상일리베가구","tel":"032-683-9993","addr":"경기도 부천시 오정동 572번지 오정 종합상가 1층","indutype":"가구 - 일반가구","category":"other"},{"name":"연화침구","tel":"032-671-8111","addr":"경기도 부천시 오정동 572번지","indutype":"직물 - 침구·수예점","category":"other"},{"name":"오정레포츠","tel":"032-675-4672","addr":"경기도 부천시 오정동 572번지 오정시장 102호","indutype":"레져용품 - 스포츠·레져용품","category":"other"},{"name":"한빛인테리어","tel":"032-681-8961","addr":"경기도 부천시 오정동 572번지 오정종합시장 1층 123호","indutype":"직물 - 카페트,커튼,천막,지물","category":"other"}]},{"lat":"37.532754645","long":"126.78762678","imageIndex":17,"items":[{"name":"굿모닝시스템","tel":"","addr":"경기도 부천시 오정동 732번지 오정생활휴먼시아3단지아파트","indutype":"수리서비스 - 기타수리서비스","category":"other"},{"name":"뜨란채세탁소","tel":"032-678-1441","addr":"경기도 부천시 오정동 732번지 주공3단지 상가 202호","indutype":"수리서비스 - 세탁소","category":"other"},{"name":"무제오인터내셔널","tel":"","addr":"경기도 부천시 오정동 732번지 오정생활휴먼시아3단지아파트","indutype":"의류 - 정장","category":"other"}]},{"lat":"37.524282015","long":"126.78579589","imageIndex":17,"items":[{"name":"그린인테리어","tel":"070-8142-1811","addr":"경기도 부천시 오정동 585-19번지 한진타운 104호","indutype":"건축자재 - 인테리어전문","category":"other"},{"name":"이마트24 부천오정점","tel":"032-0000-0000","addr":"경기도 부천시 오정동 585-19번지 105,106호","indutype":"유통업 영리 - 편 의 점","category":"other"},{"name":"이마트24 부천오정점","tel":"032-671-7984","addr":"경기도 부천시 오정동 585-19번지 105호 106호","indutype":"유통업 영리 - 편 의 점","category":"other"}]},{"lat":"37.524898609","long":"126.78304516","imageIndex":17,"items":[{"name":"근화산업","tel":"032-681-8239","addr":"경기도 부천시 오정동 607-2번지","indutype":"기타 - 기타 전문점","category":"other"}]},{"lat":"37.528032508","long":"126.78709733","imageIndex":17,"items":[{"name":"금성판매장","tel":"032-671-2685","addr":"경기도 부천시 오정동 558-7번지","indutype":"전기제품 - 가전제품","category":"other"}]},{"lat":"37.528259687","long":"126.77846482","imageIndex":17,"items":[{"name":"금영건드릴","tel":"032-679-3907","addr":"경기도 부천시 오정동 772-2번지 1층","indutype":"용역 서비스 - 기타용역서비스","category":"other"},{"name":"미성정밀","tel":"032-663-4946","addr":"경기도 부천시 오정동 772-2번지 1층","indutype":"기타 - 기계공구","category":"other"},{"name":"새영테크","tel":"032-439-7903","addr":"경기도 부천시 오정동 772-2번지","indutype":"기타 - 기계공구","category":"other"}]},{"lat":"37.525369764","long":"126.78446916","imageIndex":17,"items":[{"name":"나리슈퍼","tel":"032-671-6965","addr":"경기도 부천시 오정동 589-12번지","indutype":"유통업 영리 - 기타유통업","category":"other"}]},{"lat":"37.525428109","long":"126.78679939","imageIndex":17,"items":[{"name":"나오미","tel":"070-2699-0807","addr":"경기도 부천시 오정동 569-6번지 1층 동","indutype":"의류 - 내의판매","category":"other"}]},{"lat":"37.52756724","long":"126.78396499","imageIndex":17,"items":[{"name":"남양수도상사","tel":"032-671-7760","addr":"경기도 부천시 오정동 577-1번지","indutype":"용역 서비스 - 기타용역서비스","category":"other"},{"name":"여명칸오디오","tel":"032-675-4777","addr":"경기도 부천시 오정동 577-1번지","indutype":"수리서비스 - 기타수리서비스","category":"other"},{"name":"오정광고","tel":"032-678-9951","addr":"경기도 부천시 오정동 577-1번지 1층","indutype":"건축자재 - 인테리어전문","category":"other"}]},{"lat":"37.524202423","long":"126.78174627","imageIndex":17,"items":[{"name":"네이처아이","tel":"070-8638-9313","addr":"경기도 부천시 오정동 601-5번지 3층","indutype":"신변잡화 - 기타잡화","category":"other"},{"name":"세영정공","tel":"032-672-2110","addr":"경기도 부천시 오정동 601-5번지","indutype":"기타 - 기타 전문점","category":"other"},{"name":"주식회사 세명카본","tel":"032-672-2100","addr":"경기도 부천시 오정동 601-5번지 2층","indutype":"기타 - 기계공구","category":"other"},{"name":"투투(TWOTWO)","tel":"032-675-6662","addr":"경기도 부천시 오정동 601-5번지 3층","indutype":"주방용구 - 주방용구","category":"other"}]},{"lat":"37.534007271","long":"126.79277101","imageIndex":17,"items":[{"name":"농업회사법인 대한기업진흥(주)","tel":"070-0000-0000","addr":"경기도 부천시 오정동 67-12번지","indutype":"문화.취미 - 화원","category":"other"}]},{"lat":"37.528289777","long":"126.79490259","imageIndex":17,"items":[{"name":"다오린","tel":"070-4686-9412","addr":"경기도 부천시 오정동 160-1번지 2층","indutype":"신변잡화 - 기타잡화","category":"other"}]},{"lat":"37.525949353","long":"126.78607387","imageIndex":17,"items":[{"name":"다인 저울 계측기","tel":"032-651-9119","addr":"경기도 부천시 오정동 570-12번지 1층 1호","indutype":"기타 - 기계공구","category":"other"},{"name":"태양전파사","tel":"032`-671-8559","addr":"경기도 부천시 오정동 570-12번지","indutype":"건축자재 - 조명기구","category":"other"}]},{"lat":"37.52809115","long":"126.78468749","imageIndex":17,"items":[{"name":"대륙상사","tel":"032-681-7730","addr":"경기도 부천시 오정동 576-1번지 1층","indutype":"건축자재 - 페인트","category":"other"}]},{"lat":"37.532253176","long":"126.78932527","imageIndex":17,"items":[{"name":"대성공조시스템","tel":"032-672-0472","addr":"경기도 부천시 오정동 103-1번지 1층","indutype":"전기제품 - 냉열기기","category":"other"}]},{"lat":"37.527395697","long":"126.78377317","imageIndex":17,"items":[{"name":"대원레포츠","tel":"032-671-2697","addr":"경기도 부천시 오정동 577-3번지 3층","indutype":"레져용품 - 스포츠·레져용품","category":"other"}]},{"lat":"37.527456292","long":"126.78732525","imageIndex":17,"items":[{"name":"대한냉난방시스템","tel":"","addr":"경기도 부천시 오정동 559-11번지 베스트빌 403호","indutype":"전기제품 - 냉열기기","category":"other"}]},{"lat":"37.525894941","long":"126.78588172","imageIndex":17,"items":[{"name":"도경","tel":"032-673-9526","addr":"경기도 부천시 오정동 570번지 1층","indutype":"직물 - 침구·수예점","category":"other"},{"name":"천냥DC마트","tel":"","addr":"경기도 부천시 오정동 570번지 1층","indutype":"신변잡화 - 기타잡화","category":"other"}]},{"lat":"37.528509015","long":"126.78654162","imageIndex":17,"items":[{"name":"도로시의옷장","tel":"032-674-9503","addr":"경기도 부천시 오정동 557번지 오정빌딩 1층","indutype":"의류 - 정장","category":"other"},{"name":"세일공인중개사사무소","tel":"032-674-8833","addr":"경기도 부천시 오정동 557번지","indutype":"용역 서비스 - 부동산 중개·임대","category":"other"},{"name":"이지엠","tel":"032-674-2316","addr":"경기도 부천시 오정동 557번지 오정빌딩 4층 401호","indutype":"건축자재 - 인테리어전문","category":"other"}]},{"lat":"37.527034358","long":"126.78326514","imageIndex":17,"items":[{"name":"도배나라","tel":"032-671-8752","addr":"경기도 부천시 오정동 593번지 102호","indutype":"용역 서비스 - 기타용역서비스","category":"other"},{"name":"플레이보이","tel":"032-673-8737","addr":"경기도 부천시 오정동 593번지","indutype":"의류 - 정장","category":"other"}]},{"lat":"37.522452559","long":"126.7955749","imageIndex":17,"items":[{"name":"도배사랑","tel":"","addr":"경기도 부천시 오정동 140-12번지 서남빌라 401호","indutype":"직물 - 카페트,커튼,천막,지물","category":"other"}]},{"lat":"37.52789645","long":"126.78659995","imageIndex":17,"items":[{"name":"동네언니야","tel":"032-111-1111","addr":"경기도 부천시 오정동 558-3번지 1층 1호","indutype":"의류 - 정장","category":"other"}]},{"lat":"37.525451208","long":"126.78466124","imageIndex":17,"items":[{"name":"동아일보 오정지국","tel":"032-672-7000","addr":"경기도 부천시 오정동 582-13번지 현대맨션 1층","indutype":"서적문구 - 정기간행물","category":"other"}]},{"lat":"37.52494852","long":"126.78082775","imageIndex":17,"items":[{"name":"동일테크","tel":"032-673-8259","addr":"경기도 부천시 오정동 596번지","indutype":"건축자재 - 보일러·펌프·샷시","category":"other"}]},{"lat":"37.5292864","long":"126.78793089","imageIndex":17,"items":[{"name":"두리씽크","tel":"032-682-0933","addr":"경기도 부천시 오정동 545-3번지 지하,1층","indutype":"가구 - 일반가구","category":"other"},{"name":"전국장의운송사","tel":"032-663-4010","addr":"경기도 부천시 오정동 545-3번지","indutype":"용역 서비스 - 가례서비스업","category":"other"},{"name":"클린월","tel":"032-1577-4596","addr":"경기도 부천시 오정동 545-3번지","indutype":"건축자재 - 인테리어전문","category":"other"}]},{"lat":"37.525476684","long":"126.79891507","imageIndex":17,"items":[{"name":"두은공조","tel":"070-7565-3672","addr":"경기도 부천시 오정동 139-5번지 경성그린빌라 나동 402호","indutype":"용역 서비스 - 기타용역서비스","category":"other"}]},{"lat":"37.533011054","long":"126.78496731","imageIndex":17,"items":[{"name":"디어라비","tel":"","addr":"경기도 부천시 오정동 745-3번지","indutype":"문화.취미 - 문화취미기타","category":"other"}]},{"lat":"37.524615772","long":"126.7811568","imageIndex":17,"items":[{"name":"디엘라이트","tel":"02-858-3434","addr":"경기도 부천시 오정동 603-1번지","indutype":"용역 서비스 - 종합용역","category":"other"}]},{"lat":"37.526867024","long":"126.7853472","imageIndex":17,"items":[{"name":"라띠","tel":"032-674-2458","addr":"경기도 부천시 오정동 573-5번지","indutype":"의류 - 정장","category":"other"}]},{"lat":"37.526508211","long":"126.78620801","imageIndex":17,"items":[{"name":"라움","tel":"032-111-1111","addr":"경기도 부천시 오정동 571-4번지 1층","indutype":"의류 - 정장","category":"other"}]},{"lat":"37.531005212","long":"126.78679462","imageIndex":17,"items":[{"name":"레이져뱅크","tel":"02-2654-9224","addr":"경기도 부천시 오정동 726번지 오정생활휴먼시아 상가 102호","indutype":"사무통신 - 컴퓨터","category":"other"},{"name":"별내스마트러닝센터","tel":"031-527-2584","addr":"경기도 부천시 오정동 726번지 오정생활휴먼시아2단지아파트","indutype":"서적문구 - 기타서적문구","category":"other"},{"name":"유진아로마크래프트아카데미(EACA)","tel":"032-675-4382","addr":"경기도 부천시 오정동 726번지 오정생활휴먼시아 상가동 103.204호","indutype":"문화.취미 - 문화취미기타","category":"other"},{"name":"휴먼세탁소","tel":"032-675-3737","addr":"경기도 부천시 오정동 726 오정주공2단지상가동 103호","indutype":"수리서비스 - 세탁소","category":"other"}]},{"lat":"37.528733762","long":"126.78626945","imageIndex":17,"items":[{"name":"레인보우","tel":"032-671-6662","addr":"경기도 부천시 오정동 556-29번지","indutype":"의류 - 정장","category":"other"},{"name":"우쭈쭈베베","tel":"070-5025-9005","addr":"경기도 부천시 오정동 556-29번지","indutype":"의류 - 아동의류","category":"other"}]},{"lat":"37.528454721","long":"126.78155271","imageIndex":17,"items":[{"name":"마그마홀드","tel":"032-231-0137","addr":"경기도 부천시 오정동 387-4번지 3층","indutype":"레져용품 - 스포츠·레져용품","category":"other"}]},{"lat":"37.528588056","long":"126.79037653","imageIndex":17,"items":[{"name":"마마문구편의점","tel":"032-682-0227","addr":"경기도 부천시 오정동 114-54번지 덕산빌딩 1층 108호","indutype":"서적문구 - 문구용품","category":"other"}]},{"lat":"37.530532113","long":"126.77948753","imageIndex":17,"items":[{"name":"마이크론메저먼트시스템 (MS)","tel":"032-259-0052","addr":"경기도 부천시 오정동 759번지 한국금형센터업무동 2층 204호","indutype":"용역 서비스 - 사무서비스","category":"other"}]},{"lat":"37.529864954","long":"126.7840714","imageIndex":17,"items":[{"name":"만세기프트","tel":"070-4287-0698","addr":"경기도 부천시 오정동 373번지 창보아파트","indutype":"유통업 영리 - 기타유통업","category":"other"},{"name":"아이엠어메이커","tel":"070-7150-4958","addr":"경기도 부천시 오정동 373번지 창보아파트","indutype":"사무통신 - 컴퓨터","category":"other"}]},{"lat":"37.524704786","long":"126.7805796","imageIndex":17,"items":[{"name":"매점","tel":"032-672-1055","addr":"경기도 부천시 오정동 596-1번지 1층","indutype":"유통업 비영리 - 구내매점(국가기관","category":"other"},{"name":"아주펌프","tel":"032-676-3338","addr":"경기도 부천시 오정동 596-1번지 1층","indutype":"건축자재 - 보일러·펌프·샷시","category":"other"}]},{"lat":"37.526976182","long":"126.78591252","imageIndex":17,"items":[{"name":"멍멍이네","tel":"032-673-7278","addr":"경기도 부천시 오정동 573-13번지","indutype":"문화.취미 - 애완동물","category":"other"},{"name":"바비옷장","tel":"032-673-6942","addr":"경기도 부천시 오정동 573-13번지","indutype":"의류 - 정장","category":"other"}]},{"lat":"37.525118032","long":"126.78476402","imageIndex":17,"items":[{"name":"명성유통","tel":"032-668-7005","addr":"경기도 부천시 오정동 583-9번지 가현팰리스","indutype":"신변잡화 - 기타잡화","category":"other"}]},{"lat":"37.525759377","long":"126.78565586","imageIndex":17,"items":[{"name":"명신당","tel":"032-674-4676","addr":"경기도 부천시 오정동 582-31번지","indutype":"신변잡화 - 시계","category":"other"},{"name":"통일인터내셔날(TONGIL INTERNATIONAL)","tel":"02-111-1111","addr":"경기도 부천시 오정동 582-31번지","indutype":"신변잡화 - 기타잡화","category":"other"}]},{"lat":"37.522425827","long":"126.79574466","imageIndex":17,"items":[{"name":"모아","tel":"070-8141-5018","addr":"경기도 부천시 오정동 140-79 서남빌라 2-1 21/6","indutype":"회원제형태 - 기타4","category":"other"}]},{"lat":"37.52914286","long":"126.7882707","imageIndex":17,"items":[{"name":"문구백화점","tel":"032-679-5769","addr":"경기도 부천시 오정동 546번지","indutype":"서적문구 - 문구용품","category":"other"},{"name":"아뜰리에","tel":"032-674-5219","addr":"경기도 부천시 오정동 546번지","indutype":"회원제형태 - 기타4","category":"other"},{"name":"하루플라워","tel":"032-674-5219","addr":"경기도 부천시 오정동 546번지 1층","indutype":"문화.취미 - 화원","category":"other"},{"name":"핸디페어 오정동점","tel":"032-680-4823","addr":"경기도 부천시 오정동 546번지 1층","indutype":"건축자재 - 인테리어전문","category":"other"}]},{"lat":"37.526122088","long":"126.78204605","imageIndex":17,"items":[{"name":"미니스톱 부천IC점","tel":"031-1577-9621","addr":"경기도 부천시 오정동 594번지 일광오정파크 1층","indutype":"유통업 영리 - 편 의 점","category":"other"}]},{"lat":"37.526843314","long":"126.78715732","imageIndex":17,"items":[{"name":"미니스톱 오정성진점","tel":"031-1577-9621","addr":"경기도 부천시 오정동 560-13번지 1층","indutype":"유통업 영리 - 편 의 점","category":"other"}]},{"lat":"37.526174245","long":"126.78588091","imageIndex":17,"items":[{"name":"미니앤맥스(Mini&Max)","tel":"032-000-0000","addr":"경기도 부천시 오정동 571-10번지","indutype":"의류 - 정장","category":"other"}]},{"lat":"37.525039505","long":"126.78615569","imageIndex":17,"items":[{"name":"미도화원","tel":"032-671-3215","addr":"경기도 부천시 오정동 568-11번지 미도주택 C","indutype":"문화.취미 - 화원","category":"other"}]},{"lat":"37.528755335","long":"126.78821525","imageIndex":17,"items":[{"name":"미미피부관리","tel":"032-675-8013","addr":"경기도 부천시 오정동 546-3번지","indutype":"회원제형태 - 기타4","category":"other"}]},{"lat":"37.5272331","long":"126.78354738","imageIndex":17,"items":[{"name":"미성당","tel":"032-681-1845","addr":"경기도 부천시 오정동 577-2번지","indutype":"신변잡화 - 시계","category":"other"}]},{"lat":"37.528536572","long":"126.78195974","imageIndex":17,"items":[{"name":"미성씽크","tel":"031-977-2586","addr":"경기도 부천시 오정동 387-2번지 1층","indutype":"주방용구 - 주방용구","category":"other"},{"name":"삼전섬유","tel":"032-673-3956","addr":"경기도 부천시 오정동 387-2번지","indutype":"직물 - 기타직물","category":"other"},{"name":"우성아이비 AS 센타","tel":"032-675-7736","addr":"경기도 부천시 오정동 387-2번지 3층","indutype":"수리서비스 - 레져용품수리","category":"other"},{"name":"제백코리아","tel":"032-556-4100","addr":"경기도 부천시 오정동 387-2번지 4층","indutype":"레져용품 - 스포츠·레져용품","category":"other"}]},{"lat":"37.524201591","long":"126.78615812","imageIndex":17,"items":[{"name":"베스트월드","tel":"032-683-7288","addr":"경기도 부천시 오정동 566-10번지","indutype":"의류 - 정장","category":"other"}]},{"lat":"37.527533871","long":"126.7805712","imageIndex":17,"items":[{"name":"보성산업","tel":"032-679-5394","addr":"경기도 부천시 오정동 781-1번지","indutype":"기타 - 기계공구","category":"other"}]},{"lat":"37.523839159","long":"126.78505055","imageIndex":17,"items":[{"name":"부천시노동복지회관","tel":"032-679-2900","addr":"경기도 부천시 오정동 611번지","indutype":"기타 - 비영리/대상","category":"other"}]},{"lat":"37.529447726","long":"126.78257928","imageIndex":17,"items":[{"name":"부천우편집중국","tel":"032-680-0320","addr":"경기도 부천시 오정동 384번지","indutype":"용역 서비스 - 공공요금대행서비스/소","category":"other"}]},{"lat":"37.529898367","long":"126.78754449","imageIndex":17,"items":[{"name":"브리스코리아","tel":"070-5486-3528","addr":"경기도 부천시 오정동 177-1번지 세종아파트","indutype":"의류 - 내의판매","category":"other"},{"name":"홈플러스365Plus오정세종점","tel":"02-3459-8000","addr":"경기도 부천시 오정동 177-1번지 세종상가 102호","indutype":"유통업 영리 - 대형할인점","category":"other"}]},{"lat":"37.526614561","long":"126.78524611","imageIndex":17,"items":[{"name":"블랙스미스 피씨","tel":"070-8277-9897","addr":"경기도 부천시 오정동 580번지 오거리타운 201호","indutype":"수리서비스 - 사무·통신기기수리","category":"other"}]},{"lat":"37.528587921","long":"126.78535351","imageIndex":17,"items":[{"name":"비비모터스","tel":"032-671-5197","addr":"경기도 부천시 오정동 555-1번지","indutype":"수리서비스 - 레져용품수리","category":"other"},{"name":"주식회사천지유통자산관리","tel":"032-677-1373","addr":"경기도 부천시 오정동 555-1번지","indutype":"회원제형태 - 기타2","category":"other"}]},{"lat":"37.527038315","long":"126.78540326","imageIndex":17,"items":[{"name":"사랑상사","tel":"032-673-1652","addr":"경기도 부천시 오정동 573-4번지 지층","indutype":"용역 서비스 - 기타용역서비스","category":"other"}]},{"lat":"37.522202855","long":"126.79704617","imageIndex":17,"items":[{"name":"삼성시스템에어컨 부천점","tel":"032-000-0000","addr":"경기도 부천시 오정동 140-46번지 대진빌라 101동 301호","indutype":"용역 서비스 - 기타용역서비스","category":"other"}]},{"lat":"37.522731725","long":"126.79549494","imageIndex":17,"items":[{"name":"삼성이벤트","tel":"031-945-8281","addr":"경기도 부천시 오정동 140-83번지 토담빌라","indutype":"용역 서비스 - 사무서비스","category":"other"}]},{"lat":"37.523006754","long":"126.79307336","imageIndex":17,"items":[{"name":"삼성지게차서비스","tel":"032-327-1929","addr":"경기도 부천시 오정동 617번지","indutype":"건축자재 - 기타건축자재","category":"other"}]},{"lat":"37.525869283","long":"126.78176397","imageIndex":17,"items":[{"name":"삼원제작","tel":"032-675-7001","addr":"경기도 부천시 오정동 594-2번지","indutype":"기타 - 기계공구","category":"other"},{"name":"시지텍","tel":"032-673-0049","addr":"경기도 부천시 오정동 594-2번지 2층 일부","indutype":"신변잡화 - 기타잡화","category":"other"},{"name":"인버터뱅크","tel":"070-7326-2001","addr":"경기도 부천시 오정동 594-2번지 1층","indutype":"전기제품 - 기타전기제품","category":"other"}]},{"lat":"37.524643031","long":"126.78613422","imageIndex":17,"items":[{"name":"삼천리자전거","tel":"032-672-8388","addr":"경기도 부천시 오정동 567-1번지 삼우빌라","indutype":"레져용품 - 스포츠·레져용품","category":"other"},{"name":"프리 지니의 패션 하우스","tel":"032-1111-1111","addr":"경기도 부천시 오정동 567-1번지 킹덤하우스 101호","indutype":"의류 - 정장","category":"other"}]},{"lat":"37.527371949","long":"126.78554936","imageIndex":17,"items":[{"name":"삼화공조","tel":"070-7578-2406","addr":"경기도 부천시 오정동 574-16번지 1층","indutype":"수리서비스 - 기타수리서비스","category":"other"}]},{"lat":"37.527898228","long":"126.78757286","imageIndex":17,"items":[{"name":"상우개발","tel":"032-683-8843","addr":"경기도 부천시 오정동 552-2번지","indutype":"건축자재 - 목재·석재·철물","category":"other"}]},{"lat":"37.526755729","long":"126.79870796","imageIndex":17,"items":[{"name":"생생꽃농원","tel":"032-321-2611","addr":"경기도 부천시 오정동 137-9번지","indutype":"문화.취미 - 화원","category":"other"}]},{"lat":"37.527484126","long":"126.78776637","imageIndex":17,"items":[{"name":"서광샷시","tel":"032-679-4945","addr":"경기도 부천시 오정동 560번지 1층 2호","indutype":"건축자재 - 기타건축자재","category":"other"}]},{"lat":"37.527173274","long":"126.78530106","imageIndex":17,"items":[{"name":"성광엠이","tel":"070-5342-3663","addr":"경기도 부천시 오정동 574-5번지","indutype":"서적문구 - 출판 및 인쇄물","category":"other"}]},{"lat":"37.527253633","long":"126.78490487","imageIndex":17,"items":[{"name":"성신공사","tel":"032-671-2384","addr":"경기도 부천시 오정동 574-3번지","indutype":"건축자재 - 유리","category":"other"}]},{"lat":"37.527588538","long":"126.78574105","imageIndex":17,"items":[{"name":"성훈철물","tel":"032-681-2399","addr":"경기도 부천시 오정동 574-8번지","indutype":"건축자재 - 기타건축자재","category":"other"}]},{"lat":"37.52934284","long":"126.78924306","imageIndex":17,"items":[{"name":"세븐유통","tel":"","addr":"경기도 부천시 오정동 179번지 세종아파트","indutype":"별도관리 - 자체물품대금","category":"other"},{"name":"에프에스에이치엔(FSHN)","tel":"","addr":"경기도 부천시 오정동 179번지 세종아파트","indutype":"건축자재 - 건축용 요업제품","category":"other"}]},{"lat":"37.529448124","long":"126.78768154","imageIndex":17,"items":[{"name":"세븐일레븐부천세종점","tel":"031-1577-0711","addr":"경기도 부천시 오정동 192-22번지 엠지성새빌딩 1층 102호","indutype":"유통업 영리 - 편 의 점","category":"other"}]},{"lat":"37.528787261","long":"126.78596384","imageIndex":17,"items":[{"name":"세진설비공사","tel":"032-673-9557","addr":"경기도 부천시 오정동 556-1번지 1층","indutype":"건축자재 - 목재·석재·철물","category":"other"}]},{"lat":"37.524928889","long":"126.78479851","imageIndex":17,"items":[{"name":"소리대장간우디","tel":"032-681-7588","addr":"경기도 부천시 오정동 584번지 1층","indutype":"전기제품 - 가전제품","category":"other"}]},{"lat":"37.524649405","long":"126.77987839","imageIndex":17,"items":[{"name":"소슬아이텍","tel":"032-325-4668","addr":"경기도 부천시 오정동 598-5번지","indutype":"기타 - 기계공구","category":"other"}]},{"lat":"37.529811862","long":"126.77977251","imageIndex":17,"items":[{"name":"송정하이테크","tel":"032-545-3450","addr":"경기도 부천시 오정동 768-12 오정산업단지16-11블럭","indutype":"전기제품 - 기타전기제품","category":"other"}]},{"lat":"37.523814583","long":"126.78638549","imageIndex":17,"items":[{"name":"스타디자인","tel":"032-671-2999","addr":"경기도 부천시 오정동 612번지 계성빌딩 104호","indutype":"건축자재 - 인테리어전문","category":"other"},{"name":"유찬주방","tel":"000-1661-8933","addr":"경기도 부천시 오정동 612번지 계성빌딩 1층 104호","indutype":"주방용구 - 주방용식기","category":"other"}]},{"lat":"37.53117471","long":"126.78102425","imageIndex":17,"items":[{"name":"스타세일러","tel":"02-1666-3951","addr":"경기도 부천시 오정동 763-2번지","indutype":"기타 - 기타 전문점","category":"other"},{"name":"주식회사광성이앤에스","tel":"031-611-9356","addr":"경기도 부천시 오정동 763-2번지 3층","indutype":"신변잡화 - 기타잡화","category":"other"}]},{"lat":"37.530341809","long":"126.76960023","imageIndex":17,"items":[{"name":"스파크 종합상사","tel":"032-676-4070","addr":"경기도 부천시 오정동 805-4번지 1층","indutype":"전기제품 - 기타전기제품","category":"other"}]},{"lat":"37.529897417","long":"126.78702408","imageIndex":17,"items":[{"name":"신미가꽃예술원","tel":"032-671-3481","addr":"경기도 부천시 오정동 177-9번지 세종프라자 1층 103호","indutype":"문화.취미 - 화원","category":"other"},{"name":"오정장식","tel":"032-671-7368","addr":"경기도 부천시 오정동 177-9번지 세종프라자 101호","indutype":"직물 - 카페트,커튼,천막,지물","category":"other"},{"name":"정언텔레콤","tel":"032-678-7222","addr":"경기도 부천시 오정동 177-9번지 세종프라자 1동 106호","indutype":"사무통신 - 통신기기","category":"other"}]},{"lat":"37.52270533","long":"126.79585701","imageIndex":17,"items":[{"name":"신영전산","tel":"032-681-4940","addr":"경기도 부천시 오정동 140-13번지 21/6 삼성주택 202호","indutype":"사무통신 - 컴퓨터","category":"other"}]},{"lat":"37.524840189","long":"126.78071495","imageIndex":17,"items":[{"name":"실버텍","tel":"070-4922-1261","addr":"경기도 부천시 오정동 596-4번지 3층","indutype":"전기제품 - 기타전기제품","category":"other"},{"name":"진우주방","tel":"032-677-0901","addr":"경기도 부천시 오정동 596-4번지 지하층","indutype":"주방용구 - 주방용구","category":"other"}]},{"lat":"37.528588941","long":"126.78590785","imageIndex":17,"items":[{"name":"심원사몰","tel":"032-805-9589","addr":"경기도 부천시 오정동 556-22번지 2층","indutype":"신변잡화 - 기념품점","category":"other"}]},{"lat":"37.528198976","long":"126.77970944","imageIndex":17,"items":[{"name":"심테크","tel":"032-679-1248","addr":"경기도 부천시 오정동 773-5번지 2층","indutype":"신변잡화 - 기타잡화","category":"other"},{"name":"케이엔비/원격지","tel":"032-684-7811","addr":"경기도 부천시 오정동 773-5번지","indutype":"기타 - 기타 전문점","category":"other"}]},{"lat":"37.525032437","long":"126.79732121","imageIndex":17,"items":[{"name":"싱싱다육그린원","tel":"032-681-0044","addr":"경기도 부천시 오정동 146-8번지","indutype":"문화.취미 - 화원","category":"other"}]},{"lat":"37.527590329","long":"126.7818494","imageIndex":17,"items":[{"name":"썬바이오의료기","tel":"032-676-9877","addr":"경기도 부천시 오정동 781-6번지 한밭철강부천공장 301호","indutype":"직물 - 침구·수예점","category":"other"}]},{"lat":"37.522703362","long":"126.7947371","imageIndex":17,"items":[{"name":"씨스페이스부천오정점","tel":"032-683-0068","addr":"경기도 부천시 오정동 618-1번지","indutype":"유통업 영리 - 편 의 점","category":"other"}]},{"lat":"37.527394141","long":"126.78293602","imageIndex":17,"items":[{"name":"씨엠복싱","tel":"032-664-6669","addr":"경기도 부천시 오정동 207-8번지 5층","indutype":"회원제형태 - 레져업소","category":"other"},{"name":"씨유부천오정점","tel":"032-111-1111","addr":"경기도 부천시 오정동 207-8번지 태영빌딩 106호","indutype":"유통업 영리 - 편 의 점","category":"other"},{"name":"오정모터스","tel":"032-682-5949","addr":"경기도 부천시 오정동 207-8번지","indutype":"레져용품 - 스포츠·레져용품","category":"other"},{"name":"원사무기","tel":"032-671-0012","addr":"경기도 부천시 오정동 207-8번지","indutype":"사무통신 - 사무용 OA기기","category":"other"}]},{"lat":"37.533481252","long":"126.78588237","imageIndex":17,"items":[{"name":"씨유부천오정원룸점","tel":"032-678-8745","addr":"경기도 부천시 오정동 743번지 1층","indutype":"유통업 영리 - 편 의 점","category":"other"}]},{"lat":"37.530367408","long":"126.77346932","imageIndex":17,"items":[{"name":"씨유부천큐브에스점","tel":"080-080-3663","addr":"경기도 부천시 오정동 802번지 켄달스퀘어부천 로지스틱스파크 B동 140호","indutype":"유통업 영리 - 편 의 점","category":"other"}]},{"lat":"37.52579685","long":"126.78643632","imageIndex":17,"items":[{"name":"아라클린","tel":"","addr":"경기도 부천시 오정동 570-5번지 우진아파트","indutype":"용역 서비스 - 종합용역","category":"other"}]},{"lat":"37.524282621","long":"126.78127091","imageIndex":17,"items":[{"name":"아주테크","tel":"032-682-1888","addr":"경기도 부천시 오정동 600-3번지","indutype":"기타 - 기계공구","category":"other"},{"name":"주식회사 이륜코리아","tel":"032-676-9411","addr":"경기도 부천시 오정동 600-3번지 세영빌딩 4층","indutype":"사무통신 - 사무용 OA기기","category":"other"},{"name":"주식회사 주원에스테크","tel":"032-551-1742","addr":"경기도 부천시 오정동 600-3번지 세영빌딩 4층","indutype":"사무통신 - 사무용 OA기기","category":"other"}]},{"lat":"37.527809796","long":"126.78848947","imageIndex":17,"items":[{"name":"알오 Internationl","tel":"070-7686-4632","addr":"경기도 부천시 오정동 551번지 삼두아파트","indutype":"신변잡화 - 기타잡화","category":"other"}]},{"lat":"37.526428862","long":"126.78715851","imageIndex":17,"items":[{"name":"엄마의하루","tel":"02-335-2526","addr":"경기도 부천시 오정동 562-1번지 1층 1호","indutype":"주방용구 - 주방용구","category":"other"}]},{"lat":"37.527280914","long":"126.78020994","imageIndex":17,"items":[{"name":"엄브레러","tel":"02-1899-6991","addr":"경기도 부천시 오정동 772-19번지 (주)제너렉스 5층 1호","indutype":"기타 - 기계공구","category":"other"}]},{"lat":"37.52400653","long":"126.78299121","imageIndex":17,"items":[{"name":"에스앤에이치 홀딩스","tel":"031-1800-2635","addr":"경기도 부천시 오정동 609-5번지 3층 일부","indutype":"신변잡화 - 기타잡화","category":"other"}]},{"lat":"37.523171476","long":"126.78946428","imageIndex":17,"items":[{"name":"에어월드","tel":"070-8542-3245","addr":"경기도 부천시 오정동 614-17번지 예스빌라 지층 2호","indutype":"수리서비스 - 가정용품수리","category":"other"}]},{"lat":"37.530080826","long":"126.78878843","imageIndex":17,"items":[{"name":"영구크린","tel":"032-674-9633","addr":"경기도 부천시 오정동 114-66번지 하나아트빌 7동 202호","indutype":"용역 서비스 - 종합용역","category":"other"}]},{"lat":"37.52542672","long":"126.78604145","imageIndex":17,"items":[{"name":"영주상회","tel":"032-677-6388","addr":"경기도 부천시 오정동 569번지","indutype":"주방용구 - 주방용구","category":"other"}]},{"lat":"37.527340728","long":"126.7784902","imageIndex":17,"items":[{"name":"영진테크","tel":"032-665-2633","addr":"경기도 부천시 오정동 772-7번지 3층","indutype":"기타 - 기계공구","category":"other"}]},{"lat":"37.525587483","long":"126.78527172","imageIndex":17,"items":[{"name":"예일 시스템","tel":"032-672-7768","addr":"경기도 부천시 오정동 582-17번지 다온빌 402호","indutype":"용역 서비스 - 기타용역서비스","category":"other"}]},{"lat":"37.524814218","long":"126.78613372","imageIndex":17,"items":[{"name":"오땡큐","tel":"032-683-7333","addr":"경기도 부천시 오정동 567번지 조강홈타운 101동 101호","indutype":"회원제형태 - 기타1","category":"other"}]},{"lat":"37.526871781","long":"126.78305068","imageIndex":17,"items":[{"name":"오성공구철물","tel":"032-671-0536","addr":"경기도 부천시 오정동 593-1번지 1층","indutype":"기타 - 기계공구","category":"other"},{"name":"한일모타","tel":"032-671-2385","addr":"경기도 부천시 오정동 593-1번지","indutype":"기타 - 기계공구","category":"other"},{"name":"현대피엠텍","tel":"032-671-7704","addr":"경기도 부천시 오정동 593-1번지","indutype":"건축자재 - 페인트","category":"other"}]},{"lat":"37.528369793","long":"126.77479906","imageIndex":17,"items":[{"name":"오에스테크","tel":"032-670-8277","addr":"경기도 부천시 오정동 808-1번지 1층","indutype":"기타 - 기계공구","category":"other"}]},{"lat":"37.526480829","long":"126.78601577","imageIndex":17,"items":[{"name":"오정D.C","tel":"032-683-1717","addr":"경기도 부천시 오정동 571-3번지 1층","indutype":"신변잡화 - 기타잡화","category":"other"}]},{"lat":"37.528732965","long":"126.7907947","imageIndex":17,"items":[{"name":"오정동주민자치위원회","tel":"032-677-0608","addr":"경기도 부천시 오정동 114-4번지","indutype":"회원제형태 - 레져업소","category":"other"}]},{"lat":"37.524121167","long":"126.78652035","imageIndex":17,"items":[{"name":"오정설비철물전기","tel":"032-672-7463","addr":"경기도 부천시 오정동 566-18번지","indutype":"건축자재 - 목재·석재·철물","category":"other"}]},{"lat":"37.52711884","long":"126.78509758","imageIndex":17,"items":[{"name":"오정열쇠도장","tel":"032-676-3000","addr":"경기도 부천시 오정동 574-4번지","indutype":"건축자재 - 목재·석재·철물","category":"other"}]},{"lat":"37.529591228","long":"126.78710415","imageIndex":17,"items":[{"name":"오정윤업사","tel":"032-681-4795","addr":"경기도 부천시 오정동 192-7번지","indutype":"레져용품 - 스포츠·레져용품","category":"other"}]},{"lat":"37.52442346","long":"126.78432486","imageIndex":17,"items":[{"name":"오정인쇄문구","tel":"032-682-3649","addr":"경기도 부천시 오정동 586-11번지","indutype":"서적문구 - 문구용품","category":"other"}]},{"lat":"37.522345452","long":"126.79615212","imageIndex":17,"items":[{"name":"오정테크","tel":"032-676-6906","addr":"경기도 부천시 오정동 140-40번지","indutype":"기타 - 기계공구","category":"other"}]},{"lat":"37.529482034","long":"126.78651618","imageIndex":17,"items":[{"name":"올리브영 부천오정점","tel":"032-677-5290","addr":"경기도 부천시 오정동 543번지 신오빌딩1 1층 104호","indutype":"유통업 영리 - 편 의 점","category":"other"}]},{"lat":"37.527562983","long":"126.78654435","imageIndex":17,"items":[{"name":"우신인테리어","tel":"032-672-2990","addr":"경기도 부천시 오정동 558-4번지 삼두아파트","indutype":"용역 서비스 - 기타용역서비스","category":"other"}]},{"lat":"37.525588752","long":"126.78596179","imageIndex":17,"items":[{"name":"월드D.C","tel":"032-681-5384","addr":"경기도 부천시 오정동 570-6번지","indutype":"서적문구 - 문구용품","category":"other"},{"name":"핑크하우스","tel":"02-2631-3798","addr":"경기도 부천시 오정동 570-6번지 1층","indutype":"직물 - 침구·수예점","category":"other"}]},{"lat":"37.528455577","long":"126.78688116","imageIndex":17,"items":[{"name":"월드필터텍","tel":"032-671-9426","addr":"경기도 부천시 오정동 554-24번지","indutype":"주방용구 - 정수기","category":"other"}]},{"lat":"37.527038386","long":"126.7954604","imageIndex":17,"items":[{"name":"웰투어협동조합","tel":"032-671-0041","addr":"경기도 부천시 오정동 159-3번지","indutype":"여행 - 관광여행","category":"other"},{"name":"주식회사 더원관광","tel":"","addr":"경기도 부천시 오정동 159-3번지 2층","indutype":"여행 - 관광여행","category":"other"}]},{"lat":"37.52367205","long":"126.7973815","imageIndex":17,"items":[{"name":"위드미 오정부촌점","tel":"02-6916-1580","addr":"경기도 부천시 오정동 140-37번지 1층 일부","indutype":"유통업 영리 - 편 의 점","category":"other"}]},{"lat":"37.527148459","long":"126.77688435","imageIndex":17,"items":[{"name":"유리목재","tel":"032-681-3648","addr":"경기도 부천시 오정동 428-75번지 1층","indutype":"건축자재 - 목재·석재·철물","category":"other"}]},{"lat":"37.528478558","long":"126.77985568","imageIndex":17,"items":[{"name":"유보트레포츠(U Boat Leports)","tel":"032-652-6352","addr":"경기도 부천시 오정동 773-4번지 명성프라자 301호","indutype":"레져용품 - 스포츠·레져용품","category":"other"},{"name":"천금연마","tel":"032-683-5239","addr":"경기도 부천시 오정동 773-4번지 명성프라자 1층 102호","indutype":"기타 - 기계공구","category":"other"}]},{"lat":"37.527782166","long":"126.77846625","imageIndex":17,"items":[{"name":"윤석테크","tel":"032-672-5331","addr":"경기도 부천시 오정동 772-4번지 2층","indutype":"문화.취미 - 문화취미기타","category":"other"},{"name":"주식회사하이스트코리아","tel":"070-4259-1370","addr":"경기도 부천시 오정동 772-4번지 2층","indutype":"전기제품 - 가전제품","category":"other"}]},{"lat":"37.530313025","long":"126.78765643","imageIndex":17,"items":[{"name":"윤선생영어교실부천오정북영어숲","tel":"032-678-0594","addr":"경기도 부천시 오정동 181-8번지 외3필지 3층","indutype":"회원제형태 - 서적","category":"other"}]},{"lat":"37.524317388","long":"126.78543379","imageIndex":17,"items":[{"name":"은아","tel":"032-671-5814","addr":"경기도 부천시 오정동 585-20번지 건영하이츠빌라 102호","indutype":"의류 - 정장","category":"other"},{"name":"향토미락","tel":"032-671-5814","addr":"경기도 부천시 오정동 585-20번지 건영빌라 102호","indutype":"회원제형태 - 기타1","category":"other"}]},{"lat":"37.528869639","long":"126.78180037","imageIndex":17,"items":[{"name":"이마트24 오정산단점","tel":"032-671-2998","addr":"경기도 부천시 오정동 394-22번지","indutype":"유통업 영리 - 편 의 점","category":"other"}]},{"lat":"37.527589764","long":"126.78640851","imageIndex":17,"items":[{"name":"이하드림재능센터","tel":"032-324-0085","addr":"경기도 부천시 오정동 558-4번지 삼두아파트","indutype":"회원제형태 - 기타4","category":"other"}]},{"lat":"37.524783505","long":"126.77932367","imageIndex":17,"items":[{"name":"이화정밀","tel":"032-524-9644","addr":"경기도 부천시 오정동 599-8번지","indutype":"기타 - 기계공구","category":"other"}]},{"lat":"37.523033301","long":"126.79280179","imageIndex":17,"items":[{"name":"인더라인 부천상오정점","tel":"","addr":"경기도 부천시 오정동 616-16번지 미소더테라스 101~103호","indutype":"유통업 영리 - 편 의 점","category":"other"}]},{"lat":"37.527008211","long":"126.78374036","imageIndex":17,"items":[{"name":"인덕쌍방울","tel":"032-671-9830","addr":"경기도 부천시 오정동 578-3번지","indutype":"의류 - 내의판매","category":"other"}]},{"lat":"37.523037532","long":"126.79013209","imageIndex":17,"items":[{"name":"장운공구","tel":"032-672-0002","addr":"경기도 부천시 오정동 614-26번지","indutype":"기타 - 기계공구","category":"other"}]},{"lat":"37.534148944","long":"126.791379","imageIndex":17,"items":[{"name":"전국컨테이너","tel":"032-671-6464","addr":"경기도 부천시 오정동 56","indutype":"건축자재 - 기타건축자재","category":"other"}]},{"lat":"37.526116595","long":"126.78393529","imageIndex":17,"items":[{"name":"정성냉동공조","tel":"032-676-9278","addr":"경기도 부천시 오정동 590-2번지 누리안아파트","indutype":"전기제품 - 냉열기기","category":"other"}]},{"lat":"37.529008267","long":"126.78857654","imageIndex":17,"items":[{"name":"정수기마트","tel":"032-541-1385","addr":"경기도 부천시 오정동 546-5번지 세종빌딩 1층","indutype":"주방용구 - 정수기","category":"other"}]},{"lat":"37.525506123","long":"126.7851249","imageIndex":17,"items":[{"name":"정인","tel":"032-675-2378","addr":"경기도 부천시 오정동 582-16번지 삼경그린빌 403호","indutype":"주방용구 - 주방용식기","category":"other"}]},{"lat":"37.526892174","long":"126.78432897","imageIndex":17,"items":[{"name":"제너럴케이","tel":"","addr":"경기도 부천시 오정동 579-8번지 502호","indutype":"신변잡화 - 액세서리","category":"other"}]},{"lat":"37.527311474","long":"126.78696365","imageIndex":17,"items":[{"name":"조아유통","tel":"032-471-6003","addr":"경기도 부천시 오정동 559-2번지 효마을아파트","indutype":"회원제형태 - 기타1","category":"other"}]},{"lat":"37.527534764","long":"126.78104634","imageIndex":17,"items":[{"name":"주식회사 대건에스씨","tel":"070-7844-6725","addr":"경기도 부천시 오정동 781-3번지","indutype":"전기제품 - 냉열기기","category":"other"}]},{"lat":"37.528477981","long":"126.77955022","imageIndex":17,"items":[{"name":"주식회사 버블코리아","tel":"070-4623-6251","addr":"경기도 부천시 오정동 773-3번지 3층","indutype":"레져용품 - 스포츠·레져용품","category":"other"}]},{"lat":"37.527868226","long":"126.77635047","imageIndex":17,"items":[{"name":"주식회사 부천광명","tel":"070-5241-3574","addr":"경기도 부천시 오정동 810-3번지 신한테크노밸리 101호","indutype":"기타 - 기계공구","category":"other"}]},{"lat":"37.531642284","long":"126.78052507","imageIndex":17,"items":[{"name":"주식회사 아름다운강산","tel":"032-613-0083","addr":"경기도 부천시 오정동 756번지","indutype":"용역 서비스 - 종합용역","category":"other"}]},{"lat":"37.527534339","long":"126.78082009","imageIndex":17,"items":[{"name":"주식회사 엔젤스포츠","tel":"032-674-6785","addr":"경기도 부천시 오정동 781-2번지 2층 일부","indutype":"레져용품 - 스포츠·레져용품","category":"other"}]},{"lat":"37.524343751","long":"126.78507171","imageIndex":17,"items":[{"name":"주식회사 엠케이도어시스템","tel":"032-710-1215","addr":"경기도 부천시 오정동 585-3번지 정보주상빌라트 104,105,106호","indutype":"용역 서비스 - 기타용역서비스","category":"other"}]},{"lat":"37.527754491","long":"126.78291233","imageIndex":17,"items":[{"name":"주식회사 히든템","tel":"02-1661-1289","addr":"경기도 부천시 오정동 206-8번지 2층","indutype":"신변잡화 - 기타잡화","category":"other"}]},{"lat":"37.52690045","long":"126.783933","imageIndex":17,"items":[{"name":"주식회사대신기업","tel":"032-679-1431","addr":"경기도 부천시 오정동 578-4번지 한오빌딩 4층 403호","indutype":"용역 서비스 - 기타용역서비스","category":"other"}]},{"lat":"37.532953957","long":"126.78332698","imageIndex":17,"items":[{"name":"주식회사디엔오이(DnOe Co.,Ltd.)","tel":"032-680-7092","addr":"경기도 부천시 오정동 739-7번지 3층","indutype":"신변잡화 - 기타잡화","category":"other"}]},{"lat":"37.526536409","long":"126.79693245","imageIndex":17,"items":[{"name":"주식회사아싸","tel":"02-863-0155","addr":"경기도 부천시 오정동 156-7번지","indutype":"전기제품 - 가전제품","category":"other"}]},{"lat":"37.530566157","long":"126.77843529","imageIndex":17,"items":[{"name":"주식회사제미타","tel":"070-4006-7000","addr":"경기도 부천시 오정동 758-3번지 현대하이테크부천공장 201호","indutype":"레져용품 - 스포츠·레져용품","category":"other"}]},{"lat":"37.522921747","long":"126.79087902","imageIndex":17,"items":[{"name":"주은특수강정공","tel":"032-677-0998","addr":"경기도 부천시 오정동 615-4번지 1층","indutype":"기타 - 기계공구","category":"other"}]},{"lat":"37.525340989","long":"126.79859869","imageIndex":17,"items":[{"name":"주홍가게","tel":"","addr":"경기도 부천시 오정동 139-10번지 상지연립 7동 2층 202호","indutype":"광학제품 - 사진관","category":"other"},{"name":"프롬모모","tel":"032-622-7320","addr":"경기도 부천시 오정동 139-10번지 상지연립 2동 201호","indutype":"의류 - 정장","category":"other"}]},{"lat":"37.524009573","long":"126.7846315","imageIndex":17,"items":[{"name":"중고알뜰센타","tel":"032-671-7805","addr":"경기도 부천시 오정동 610-2번지","indutype":"수리서비스 - 가정용품수리","category":"other"}]},{"lat":"37.523571818","long":"126.79673698","imageIndex":17,"items":[{"name":"즐거울락이벤트","tel":"070-4763-5713","addr":"경기도 부천시 오정동 140-5번지 부촌아파트","indutype":"용역 서비스 - 종합용역","category":"other"}]},{"lat":"37.527811149","long":"126.78923612","imageIndex":17,"items":[{"name":"지니솔루션(GENIE SOLUTION)","tel":"","addr":"경기도 부천시 오정동 550번지 예다움빌리지 1동 402호","indutype":"신변잡화 - 기타잡화","category":"other"}]},{"lat":"37.53225573","long":"126.76699213","imageIndex":17,"items":[{"name":"지성건기","tel":"032-684-4006","addr":"경기도 부천시 오정동 480-4 1층","indutype":"기타 - 기계공구","category":"other"}]},{"lat":"37.527727494","long":"126.78782224","imageIndex":17,"items":[{"name":"진흥상사","tel":"032-325-4144","addr":"경기도 부천시 오정동 552-7번지","indutype":"기타 - 기계공구","category":"other"}]},{"lat":"37.528978498","long":"126.78707198","imageIndex":17,"items":[{"name":"최PD의 희스토리","tel":"","addr":"경기도 부천시 오정동 554-9번지 지인빌 501호","indutype":"용역 서비스 - 종합용역","category":"other"}]},{"lat":"37.525454124","long":"126.786245","imageIndex":17,"items":[{"name":"컴이랑 잉크랑","tel":"032-673-6003","addr":"경기도 부천시 오정동 569-10번지","indutype":"사무통신 - 컴퓨터","category":"other"}]},{"lat":"37.528397848","long":"126.77533069","imageIndex":17,"items":[{"name":"케이풀바운스","tel":"070-7527-6532","addr":"경기도 부천시 오정동 808-2번지 5층 501호","indutype":"레져용품 - 스포츠·레져용품","category":"other"}]},{"lat":"37.5252825","long":"126.78115483","imageIndex":17,"items":[{"name":"코리아이피","tel":"032-678-4746","addr":"경기도 부천시 오정동 595-1번지 1층","indutype":"용역 서비스 - 기타용역서비스","category":"other"}]},{"lat":"37.525372163","long":"126.7857701","imageIndex":17,"items":[{"name":"쾌남정보통신 오정점","tel":"070-4388-4600","addr":"경기도 부천시 오정동 583-10번지 1층","indutype":"사무통신 - 통신기기","category":"other"}]},{"lat":"37.529506819","long":"126.78529428","imageIndex":17,"items":[{"name":"크린토피아 부천오정동점","tel":"032-682-8280","addr":"경기도 부천시 오정동 216-1번지 썬프라자 106호","indutype":"수리서비스 - 세탁소","category":"other"}]},{"lat":"37.528864562","long":"126.78882584","imageIndex":17,"items":[{"name":"크린토피아 코인워시 부천오정세종점","tel":"032-674-8288","addr":"경기도 부천시 오정동 547번지 103호","indutype":"수리서비스 - 세탁소","category":"other"}]},{"lat":"37.523953425","long":"126.78841","imageIndex":17,"items":[{"name":"태공이엔지","tel":"","addr":"경기도 부천시 오정동 565-14번지 오복타운 102동 203호","indutype":"용역 서비스 - 기타용역서비스","category":"other"}]},{"lat":"37.527927186","long":"126.79365917","imageIndex":17,"items":[{"name":"태광","tel":"032-679-8166","addr":"경기도 부천시 오정동 119-12","indutype":"건축자재 - 기타건축자재","category":"other"}]},{"lat":"37.525759897","long":"126.78593867","imageIndex":17,"items":[{"name":"태광상사","tel":"032-679-0696","addr":"경기도 부천시 오정동 570-15번지 1층","indutype":"의류 - 내의판매","category":"other"}]},{"lat":"37.524119478","long":"126.79562685","imageIndex":17,"items":[{"name":"티티키즈","tel":"031-1111-1111","addr":"경기도 부천시 오정동 146번지","indutype":"의류 - 정장","category":"other"}]},{"lat":"37.530565918","long":"126.7879951","imageIndex":17,"items":[{"name":"푸른환경","tel":"032-673-7123","addr":"경기도 부천시 오정동 112-2번지","indutype":"용역 서비스 - 종합용역","category":"other"}]},{"lat":"37.526254626","long":"126.78549604","imageIndex":17,"items":[{"name":"한마음특수","tel":"032-677-2338","addr":"경기도 부천시 오정동 581-8번지 대운연립 A동 305호","indutype":"용역 서비스 - 가례서비스업","category":"other"}]},{"lat":"37.533782056","long":"126.76432856","imageIndex":17,"items":[{"name":"한우리분재교실","tel":"032-681-3439","addr":"경기도 부천시 오정동 493-7번지","indutype":"문화.취미 - 화원","category":"other"}]},{"lat":"37.523067957","long":"126.79713429","imageIndex":17,"items":[{"name":"행복사","tel":"032-671-3375","addr":"경기도 부천시 오정동 140-6번지 부촌아파트","indutype":"회원제형태 - 기타4","category":"other"}]},{"lat":"37.526705222","long":"126.7855513","imageIndex":17,"items":[{"name":"행복한 팬시","tel":"032-677-1210","addr":"경기도 부천시 오정동 573-14번지 ,13 ,1층","indutype":"서적문구 - 문구용품","category":"other"}]},{"lat":"37.534038276","long":"126.78018985","imageIndex":17,"items":[{"name":"행복한선물","tel":"070-7592-3622","addr":"경기도 부천시 오정동 332-1 3층","indutype":"신변잡화 - 기타잡화","category":"other"}]},{"lat":"37.528031949","long":"126.78679188","imageIndex":17,"items":[{"name":"향기나는 아.달.해.깃","tel":"032-671-6171","addr":"경기도 부천시 오정동 558-1번지 1층","indutype":"문화.취미 - 화원","category":"other"}]},{"lat":"37.527225537","long":"126.784328","imageIndex":17,"items":[{"name":"홈플러스365Plus오정중앙점","tel":"02-3459-8000","addr":"경기도 부천시 오정동 578-5번지 킹덤하우스","indutype":"유통업 영리 - 대형할인점","category":"other"}]},{"lat":"37.5356159","long":"126.76227486","imageIndex":17,"items":[{"name":"화이트플라워","tel":"032-673-4955","addr":"경기도 부천시 오정동 486-2","indutype":"문화.취미 - 화원","category":"other"}]},{"lat":"37.528476867","long":"126.77896195","imageIndex":17,"items":[{"name":"훈필정밀용접","tel":"032-681-2389","addr":"경기도 부천시 오정동 773-1번지 대원와이어컷","indutype":"기타 - 기계공구","category":"other"}]}]