[{"lat":"37.018462928","long":"127.27698691","imageIndex":13,"items":[{"name":"K-1헬스케어","tel":"031-671-2447","addr":"경기도 안성시 당왕동 산50-1번지","indutype":"보건위생 - 의료용품","category":"beauty"}]},{"lat":"37.015999408","long":"127.26665158","imageIndex":13,"items":[{"name":"m salon(엠살롱)","tel":"031-677-1590","addr":"경기도 안성시 당왕동 538-1번지 1층","indutype":"보건위생 - 미용원","category":"beauty"}]},{"lat":"37.016332095","long":"127.2587421","imageIndex":13,"items":[{"name":"광신 대리운전","tel":"031-673-0042","addr":"경기도 안성시 당왕동 477-17번지","indutype":"보건위생 - 기타대인서비스","category":"beauty"}]},{"lat":"37.016801009","long":"127.25857512","imageIndex":13,"items":[{"name":"그린퀸","tel":"","addr":"경기도 안성시 당왕동 475번지","indutype":"보건위생 - 화장품","category":"beauty"},{"name":"동현불가마사우나","tel":"031-671-6700","addr":"경기도 안성시 당왕동 475번지","indutype":"보건위생 - 사우나","category":"beauty"}]},{"lat":"37.014860142","long":"127.2560404","imageIndex":13,"items":[{"name":"루비네일샵","tel":"031-673-3251","addr":"경기도 안성시 당왕동 534 대우상가 132호","indutype":"보건위생 - 피부미용실","category":"beauty"},{"name":"목화헤어샵","tel":"031-671-5643","addr":"경기도 안성시 당왕동 534번지 대우1차 상가 103호","indutype":"보건위생 - 미용원","category":"beauty"},{"name":"밀라도피스","tel":"031-671-1248","addr":"경기도 안성시 당왕동 534 대우상가 133","indutype":"보건위생 - 화장품","category":"beauty"},{"name":"수&정헤어","tel":"031-8052-6161","addr":"경기도 안성시 당왕동 534번지 대우아파트 136호","indutype":"보건위생 - 미용원","category":"beauty"}]},{"lat":"37.016470861","long":"127.26123711","imageIndex":13,"items":[{"name":"병원의료기 복지용구","tel":"031-675-2525","addr":"경기도 안성시 당왕동 437번지","indutype":"보건위생 - 의료용품","category":"beauty"}]},{"lat":"37.015355496","long":"127.26445823","imageIndex":13,"items":[{"name":"쌍용헤어샵","tel":"031-671-3556","addr":"경기도 안성시 당왕동 536쌍용상가101","indutype":"보건위생 - 미용원","category":"beauty"},{"name":"헤어스토리","tel":"031-676-8249","addr":"경기도 안성시 당왕동 536번지 쌍용상가 123호","indutype":"보건위생 - 미용원","category":"beauty"}]},{"lat":"37.016384922","long":"127.25931534","imageIndex":13,"items":[{"name":"아모레카운셀러","tel":"031-651-0785","addr":"경기도 안성시 당왕동 470-3번지","indutype":"보건위생 - 화장품","category":"beauty"},{"name":"아모레카운셀러","tel":"031-676-8303","addr":"경기도 안성시 당왕동 470-3번지","indutype":"보건위생 - 화장품","category":"beauty"},{"name":"아모레카운셀러","tel":"031-673-6695","addr":"경기도 안성시 당왕동 470-3번지","indutype":"보건위생 - 화장품","category":"beauty"},{"name":"아모레카운셀러","tel":"031-673-6695","addr":"경기도 안성시 당왕동 470-3번지","indutype":"보건위생 - 화장품","category":"beauty"},{"name":"아모레카운셀러","tel":"031-673-6695","addr":"경기도 안성시 당왕동 470-3번지","indutype":"보건위생 - 화장품","category":"beauty"},{"name":"아모레카운셀러","tel":"031-677-4567","addr":"경기도 안성시 당왕동 470-3번지","indutype":"보건위생 - 화장품","category":"beauty"}]},{"lat":"37.01657509","long":"127.25887775","imageIndex":13,"items":[{"name":"제이뷰티클럽","tel":"031-672-2133","addr":"경기도 안성시 당왕동 476-11","indutype":"보건위생 - 피부미용실","category":"beauty"}]},{"lat":"37.013414943","long":"127.26593476","imageIndex":13,"items":[{"name":"헤어살롱B&G","tel":"031-672-6985","addr":"경기도 안성시 당왕동 546-3번지","indutype":"보건위생 - 미용원","category":"beauty"}]}]