[{"lat":"37.309587862","long":"126.81577703","imageIndex":7,"items":[{"name":"(주)큐엔씨한샘할인점","tel":"031-439-1421","addr":"경기도 안산시 단원구 초지동 727-9번지","indutype":"유통업 영리 - 슈퍼마켓","category":"mart"}]},{"lat":"37.30758746","long":"126.81569175","imageIndex":7,"items":[{"name":"(주)큐엔씨한샘할인점초지동지점","tel":"031-487-1425","addr":"경기도 안산시 단원구 초지동 734-14,15번지","indutype":"유통업 영리 - 슈퍼마켓","category":"mart"}]},{"lat":"37.307479826","long":"126.81037919","imageIndex":7,"items":[{"name":"그린빌마트","tel":"031-414-8255","addr":"경기도 안산시 단원구 초지동 737그린빌상가동1층105","indutype":"유통업 영리 - 슈퍼마켓","category":"mart"}]},{"lat":"37.3074798258","long":"126.8103791902","imageIndex":7,"items":[{"name":"그린빌마트","tel":"031-414-8299","addr":"경기도 안산시 단원구 초지동 737번지","indutype":"도매 및 소매업 - 슈퍼마켓","category":"mart"}]},{"lat":"37.311421757","long":"126.81885206","imageIndex":7,"items":[{"name":"그린빌싱싱마트","tel":"031-413-7533","addr":"경기도 안산시 단원구 초지동 723그린빌상가11단지105","indutype":"유통업 영리 - 슈퍼마켓","category":"mart"}]},{"lat":"37.3114217568","long":"126.8188520601","imageIndex":7,"items":[{"name":"그린빌싱싱마트","tel":"031-413-7533","addr":"경기도 안산시 단원구 초지동 723번지 그린빌주공11단지아파트","indutype":"도매 및 소매업 - 슈퍼마켓,담배","category":"mart"}]},{"lat":"37.3250863991","long":"126.8053022830","imageIndex":7,"items":[{"name":"금호슈퍼","tel":"031-401-9670","addr":"경기도 안산시 단원구 초지동 604-4번지","indutype":"도매 및 소매업 - 슈퍼,주류,잡화,","category":"mart"}]},{"lat":"37.314115728","long":"126.81880037","imageIndex":7,"items":[{"name":"대농마트","tel":"031-410-2291","addr":"경기도 안산시 단원구 초지동 708-5번지","indutype":"유통업 영리 - 슈퍼마켓","category":"mart"}]},{"lat":"37.3141157282","long":"126.8188003698","imageIndex":7,"items":[{"name":"대농마트","tel":"031-410-2291","addr":"경기도 안산시 단원구 초지동 708-5번지","indutype":"도매 및 소매업 - 슈퍼마켓","category":"mart"}]},{"lat":"37.304344525","long":"126.81616225","imageIndex":7,"items":[{"name":"롯데마켓999안산초지가맹점","tel":"031-411-9483","addr":"경기도 안산시 단원구 초지동 740-2번지 한남스포랜드 102호","indutype":"유통업 영리 - 슈퍼마켓","category":"mart"}]},{"lat":"37.302478165","long":"126.80977159","imageIndex":7,"items":[{"name":"모노마트 안산점/(주)모노링크","tel":"031-411-6348","addr":"경기도 안산시 단원구 초지동 743번지 엔즈타워오피스텔 105호","indutype":"유통업 영리 - 슈퍼마켓","category":"mart"}]},{"lat":"37.30147909","long":"126.81604526","imageIndex":7,"items":[{"name":"서해할인마트","tel":"031-414-0083","addr":"경기도 안산시 단원구 초지동 741번지 행복한마을제분산 상가동 101호","indutype":"유통업 영리 - 슈퍼마켓","category":"mart"},{"name":"행복마트","tel":"031-000-0000","addr":"경기도 안산시 단원구 초지동 741 행복한마을제주상가동제1층제101호","indutype":"유통업 영리 - 슈퍼마켓","category":"mart"}]},{"lat":"37.3014790903","long":"126.8160452610","imageIndex":7,"items":[{"name":"서해할인마트","tel":"031-414-0083","addr":"경기도 안산시 단원구 초지동 741번지","indutype":"도매 및 소매업 - 슈퍼마켓,담배","category":"mart"},{"name":"행복마트","tel":"031-504-8555","addr":"경기도 안산시 단원구 초지동 741번지","indutype":"도매 및 소매업 - 슈퍼마켓","category":"mart"}]},{"lat":"37.324690084","long":"126.8053823","imageIndex":7,"items":[{"name":"손 미니슈퍼","tel":"031-413-9922","addr":"경기도 안산시 단원구 초지동 604-4번지 안산시민시장 7동 35호","indutype":"유통업 영리 - 슈퍼마켓","category":"mart"}]},{"lat":"37.3246900845","long":"126.8053822978","imageIndex":7,"items":[{"name":"손 미니슈퍼","tel":"031-413-9922","addr":"경기도 안산시 단원구 초지동 604-4번지","indutype":"도매 및 소매업 - 슈퍼마켓,담배","category":"mart"}]},{"lat":"37.315085739","long":"126.81682382","imageIndex":7,"items":[{"name":"싱싱마트","tel":"031-485-9686","addr":"경기도 안산시 단원구 초지동 697-5번지","indutype":"유통업 영리 - 슈퍼마켓","category":"mart"}]},{"lat":"37.3150857392","long":"126.8168238248","imageIndex":7,"items":[{"name":"싱싱마트","tel":"031-485-9686","addr":"경기도 안산시 단원구 초지동 697-5번지","indutype":"도매 및 소매업 - 슈퍼마켓,담배","category":"mart"}]},{"lat":"37.3067598232","long":"126.8165172270","imageIndex":7,"items":[{"name":"아울렛마트","tel":"031-482-8383","addr":"경기도 안산시 단원구 초지동 733-5번지","indutype":"도매 및 소매업 - 슈퍼마켓","category":"mart"},{"name":"아울렛마트","tel":"031-482-8383","addr":"경기도 안산시 단원구 초지동 733-5번지","indutype":"도매 및 소매업 - 슈퍼","category":"mart"}]},{"lat":"37.306759823","long":"126.81651723","imageIndex":7,"items":[{"name":"아울렛마트","tel":"031-482-8383","addr":"경기도 안산시 단원구 초지동 733-5 108.109.110.114.115.116.117호","indutype":"유통업 영리 - 슈퍼마켓","category":"mart"}]},{"lat":"37.3057815775","long":"126.8189898816","imageIndex":7,"items":[{"name":"아이원마트","tel":"031-410-0335","addr":"경기도 안산시 단원구 초지동 731번지","indutype":"도매 및 소매업 - 슈퍼","category":"mart"}]},{"lat":"37.325506583","long":"126.81432725","imageIndex":7,"items":[{"name":"안산화랑오토캠핑장 매점","tel":"","addr":"경기도 안산시 단원구 초지동 667번지","indutype":"유통업 영리 - 슈퍼마켓","category":"mart"}]},{"lat":"37.322195288","long":"126.80599806","imageIndex":7,"items":[{"name":"열린할인마트","tel":"031-486-0576","addr":"경기도 안산시 단원구 초지동 592번지 푸르지오메트로타운 136,137호","indutype":"유통업 영리 - 슈퍼마켓","category":"mart"}]},{"lat":"37.314563805","long":"126.81724251","imageIndex":7,"items":[{"name":"왕발이할인마트","tel":"031-482-6476","addr":"경기도 안산시 단원구 초지동 703-5번지 1층","indutype":"유통업 영리 - 슈퍼마켓","category":"mart"}]},{"lat":"37.314424015","long":"126.8200518","imageIndex":7,"items":[{"name":"위드미","tel":"031-405-8061","addr":"경기도 안산시 단원구 초지동 701-6번지","indutype":"유통업 영리 - 슈퍼마켓","category":"mart"}]},{"lat":"37.3144240152","long":"126.8200518011","imageIndex":7,"items":[{"name":"위드미안산초지점","tel":"031-405-8061","addr":"경기도 안산시 단원구 초지동 701-6번지","indutype":"도매 및 소매업 - 슈퍼마켓","category":"mart"}]},{"lat":"37.315170532","long":"126.81919263","imageIndex":7,"items":[{"name":"초지마트","tel":"031-487-3374","addr":"경기도 안산시 단원구 초지동 692-11번지 101,102호","indutype":"유통업 영리 - 슈퍼마켓","category":"mart"}]},{"lat":"37.3077586537","long":"126.8156913269","imageIndex":7,"items":[{"name":"큐엔씨한샘초지동지점","tel":"031-487-8810","addr":"경기도 안산시 단원구 초지동 734-15번지","indutype":"도매 및 소매업 - 슈퍼마켓","category":"mart"}]},{"lat":"37.324782307","long":"126.80665698","imageIndex":7,"items":[{"name":"프라임홈마트","tel":"031-413-3205","addr":"경기도 안산시 단원구 초지동 608번지 단지내상가 21호","indutype":"유통업 영리 - 슈퍼마켓","category":"mart"}]},{"lat":"37.307838941","long":"126.81518353","imageIndex":7,"items":[{"name":"하늘정원","tel":"031-402-9311","addr":"경기도 안산시 단원구 초지동 735-1번지 세종프라자 504호","indutype":"유통업 영리 - 슈퍼마켓","category":"mart"}]},{"lat":"37.3078389413","long":"126.8151835304","imageIndex":7,"items":[{"name":"하늘정원 슈퍼","tel":"","addr":"경기도 안산시 단원구 초지동 735-1번지","indutype":"도매 및 소매업 - 슈퍼","category":"mart"}]}]