[{"lat":"37.292079444","long":"127.51215433","imageIndex":4,"items":[{"name":"보쌈의진수","tel":"031-632-1995","addr":"경기도 이천시 부발읍 신원리 543번지 A동 1호","indutype":"일반휴게음식 - 일반한식","category":"restaurant"},{"name":"소나무집","tel":"031-638-6574","addr":"경기도 이천시 부발읍 신원리 543번지 2층","indutype":"일반휴게음식 - 일반한식","category":"restaurant"},{"name":"신원뷔페기사식당","tel":"031-638-6574","addr":"경기도 이천시 부발읍 신원리 543번지 외2필지","indutype":"일반휴게음식 - 일반한식","category":"restaurant"},{"name":"하얼빈","tel":"031-635-6617","addr":"경기도 이천시 부발읍 신원리 543번지","indutype":"일반휴게음식 - 중국식","category":"restaurant"}]},{"lat":"37.290662081","long":"127.50648358","imageIndex":4,"items":[{"name":"부부식당","tel":"031-636-1114","addr":"경기도 이천시 부발읍 신원리 558-6번지","indutype":"일반휴게음식 - 일반한식","category":"restaurant"}]},{"lat":"37.292215724","long":"127.5243124","imageIndex":4,"items":[{"name":"소풍","tel":"031-633-1641","addr":"경기도 이천시 부발읍 신원리 6-11번지","indutype":"일반휴게음식 - 일반한식","category":"restaurant"}]},{"lat":"37.292492459","long":"127.51873192","imageIndex":4,"items":[{"name":"정가네김밥","tel":"031-634-3002","addr":"경기도 이천시 부발읍 신원리 76-8번지","indutype":"일반휴게음식 - 스넥","category":"restaurant"}]},{"lat":"37.29230337","long":"127.50614492","imageIndex":4,"items":[{"name":"치킨매니아 부발점","tel":"031-633-3666","addr":"경기도 이천시 부발읍 신원리 561-18번지 산하빌라","indutype":"일반휴게음식 - 스넥","category":"restaurant"}]},{"lat":"37.291636163","long":"127.5125686","imageIndex":4,"items":[{"name":"카페리올","tel":"031-631-6801","addr":"경기도 이천시 부발읍 신원리 547-3번지","indutype":"일반휴게음식 - 서양음식","category":"restaurant"}]},{"lat":"37.292323603","long":"127.51403932","imageIndex":4,"items":[{"name":"평촌해장국","tel":"031-636-5067","addr":"경기도 이천시 부발읍 신원리 119-10번지","indutype":"일반휴게음식 - 일반한식","category":"restaurant"}]},{"lat":"37.291215507","long":"127.50770522","imageIndex":4,"items":[{"name":"하람사철탕","tel":"031-635-3947","addr":"경기도 이천시 부발읍 신원리 559-3번지 1층","indutype":"일반휴게음식 - 일반한식","category":"restaurant"}]},{"lat":"37.290884015","long":"127.50726319","imageIndex":4,"items":[{"name":"행복","tel":"031-635-5506","addr":"경기도 이천시 부발읍 신원리 559-17번지","indutype":"일반휴게음식 - 일반한식","category":"restaurant"}]}]