[{"lat":"37.271459248","long":"127.01805749","imageIndex":0,"items":[{"name":"(주)백산","tel":"031-234-5252","addr":"경기도 수원시 팔달구 매교동 224-48번지","indutype":"자동차판매 - 이륜차판매","category":"car"}]},{"lat":"37.264819106","long":"127.01411042","imageIndex":0,"items":[{"name":"VIP출장세차","tel":"031-241-8278","addr":"경기도 수원시 팔달구 매교동 169-7번지 1층","indutype":"자동차정비 유지 - 세차장","category":"car"}]},{"lat":"37.266206798","long":"127.01291561","imageIndex":0,"items":[{"name":"경기수원지역자활센터","tel":"031-232-0179","addr":"경기도 수원시 팔달구 매교동 111-59번지 대영빌딩 3층","indutype":"자동차정비 유지 - 세차장","category":"car"}]},{"lat":"37.265846133","long":"127.01556488","imageIndex":0,"items":[{"name":"경인카센타","tel":"031-236-7751","addr":"경기도 수원시 팔달구 매교동 161-5번지","indutype":"자동차정비 유지 - 자동차정비","category":"car"}]},{"lat":"37.265017308","long":"127.01436974","imageIndex":0,"items":[{"name":"대성카센타","tel":"031-221-8873","addr":"경기도 수원시 팔달구 매교동 169-16번지","indutype":"자동차정비 유지 - 자동차정비","category":"car"}]},{"lat":"37.268098575","long":"127.01672648","imageIndex":0,"items":[{"name":"더타이어샵 매교점","tel":"031-235-0038","addr":"경기도 수원시 팔달구 매교동 158-25 1층.지하","indutype":"자동차정비 유지 - 자동차시트·타이어","category":"car"}]},{"lat":"37.265098193","long":"127.01634263","imageIndex":0,"items":[{"name":"만오토하우스","tel":"031-267-1456","addr":"경기도 수원시 팔달구 매교동 175-28번지","indutype":"자동차정비 유지 - 자동차부품","category":"car"}]},{"lat":"37.268044595","long":"127.01600493","imageIndex":0,"items":[{"name":"문화카공업사","tel":"031-232-8601","addr":"경기도 수원시 팔달구 매교동 159-20번지","indutype":"자동차정비 유지 - 세차장","category":"car"}]},{"lat":"37.265269577","long":"127.01456143","imageIndex":0,"items":[{"name":"버블샤인","tel":"031-221-8873","addr":"경기도 수원시 팔달구 매교동 169-3번지","indutype":"자동차정비 유지 - 세차장","category":"car"}]},{"lat":"37.26501734","long":"127.01403154","imageIndex":0,"items":[{"name":"수지명인출장세차","tel":"070-7552-2284","addr":"경기도 수원시 팔달구 매교동 164-9번지","indutype":"자동차정비 유지 - 세차장","category":"car"}]},{"lat":"37.269567504","long":"127.01437043","imageIndex":0,"items":[{"name":"카젠매교점","tel":"031-224-1433","addr":"경기도 수원시 팔달구 매교동 71-1번지 1층","indutype":"자동차정비 유지 - 자동차정비","category":"car"}]},{"lat":"37.269819808","long":"127.01420136","imageIndex":0,"items":[{"name":"홍진오토바이부속상사","tel":"031-236-7583","addr":"경기도 수원시 팔달구 매교동 77-29번지","indutype":"자동차판매 - 이륜차판매","category":"car"}]}]