[{"lat":"37.080787113","long":"127.0572013","imageIndex":7,"items":[{"name":"JUN농장","tel":"031-664-4547","addr":"경기도 평택시 지산동 757-44번지 1층","indutype":"음료식품 - 기타음료식품","category":"food"}]},{"lat":"37.079649316","long":"127.06233994","imageIndex":7,"items":[{"name":"SJ매점","tel":"031-662-5641","addr":"경기도 평택시 지산동 1078번지 서울프라자 1층","indutype":"음료식품 - 기타음료식품","category":"food"}]},{"lat":"37.079678428","long":"127.05803272","imageIndex":7,"items":[{"name":"가자주류송탄점","tel":"031-611-1030","addr":"경기도 평택시 지산동 773-8번지","indutype":"음료식품 - 기타음료식품","category":"food"}]},{"lat":"37.081562186","long":"127.05684197","imageIndex":7,"items":[{"name":"건강드림내과 (건강기능식품)","tel":"031-666-8275","addr":"경기도 평택시 지산동 753-6번지 2층","indutype":"건강식품 - 기타건강식품","category":"food"},{"name":"시장상회","tel":"031-665-5949","addr":"경기도 평택시 지산동 753-6번지","indutype":"음료식품 - 농·축·수산품","category":"food"}]},{"lat":"37.07990202","long":"127.07755612","imageIndex":7,"items":[{"name":"건강마당","tel":"031-662-1472","addr":"경기도 평택시 지산동 1238-6번지","indutype":"건강식품 - 기타건강식품","category":"food"}]},{"lat":"37.080958793","long":"127.05614428","imageIndex":7,"items":[{"name":"경기계란유통","tel":"031-668-3892","addr":"경기도 평택시 지산동 757-4번지","indutype":"음료식품 - 농·축·수산품","category":"food"}]},{"lat":"37.081570248","long":"127.05888882","imageIndex":7,"items":[{"name":"경란상회","tel":"031-663-1096","addr":"경기도 평택시 지산동 729-11번지","indutype":"음료식품 - 농·축·수산품","category":"food"}]},{"lat":"37.080985433","long":"127.05701026","imageIndex":7,"items":[{"name":"경성상회","tel":"031-667-1424","addr":"경기도 평택시 지산동 756-56번지","indutype":"음료식품 - 농·축·수산품","category":"food"}]},{"lat":"37.075235585","long":"127.05936771","imageIndex":7,"items":[{"name":"고기파는사람들","tel":"031-000-0000","addr":"경기도 평택시 지산동 855-1번지","indutype":"음료식품 - 정육점","category":"food"}]},{"lat":"37.081426801","long":"127.05733672","imageIndex":7,"items":[{"name":"고려 건강원","tel":"031-667-1331","addr":"경기도 평택시 지산동 754-32번지","indutype":"건강식품 - 기타건강식품","category":"food"},{"name":"고려건강원","tel":"","addr":"경기도 평택시 지산동 754-32번지","indutype":"소매업 - 건강기능식품","category":"food"}]},{"lat":"37.080985268","long":"127.05737014","imageIndex":7,"items":[{"name":"고창수산","tel":"031-733-9589","addr":"경기도 평택시 지산동 756-75번지","indutype":"음료식품 - 농·축·수산품","category":"food"}]},{"lat":"37.080009107","long":"127.06358854","imageIndex":7,"items":[{"name":"김가네떡사랑","tel":"031-663-3329","addr":"경기도 평택시 지산동 1125번지","indutype":"음료식품 - 제과점","category":"food"}]},{"lat":"37.081345768","long":"127.0572017","imageIndex":7,"items":[{"name":"나나상회","tel":"031-666-2439","addr":"경기도 평택시 지산동 754-13","indutype":"음료식품 - 제과점","category":"food"}]},{"lat":"37.081318711","long":"127.05725792","imageIndex":7,"items":[{"name":"나주야채상회","tel":"031-665-5789","addr":"경기도 평택시 지산동 754-12번지","indutype":"음료식품 - 농·축·수산품","category":"food"}]},{"lat":"37.081534938","long":"127.0573143","imageIndex":7,"items":[{"name":"남규닭집","tel":"031-666-5516","addr":"경기도 평택시 지산동 753-28번지","indutype":"음료식품 - 정육점","category":"food"},{"name":"사랑다섯스푼","tel":"031-8029-3365","addr":"경기도 평택시 지산동 753-28번지","indutype":"음료식품 - 기타음료식품","category":"food"}]},{"lat":"37.078543107","long":"127.05800941","imageIndex":7,"items":[{"name":"농업회사법인우리엘바이오주식회사","tel":"031-668-7887","addr":"경기도 평택시 지산동 778-1번지 4층","indutype":"음료식품 - 미곡상","category":"food"}]},{"lat":"37.081093498","long":"127.05714529","imageIndex":7,"items":[{"name":"뉴대성건강원","tel":"031-663-6012","addr":"경기도 평택시 지산동 756-61번지 1층","indutype":"건강식품 - 기타건강식품","category":"food"},{"name":"뉴대성건강원","tel":"","addr":"경기도 평택시 지산동 756-61번지 1층","indutype":"도소매업 - 건강식품","category":"food"}]},{"lat":"37.081264811","long":"127.05689799","imageIndex":7,"items":[{"name":"대명상회","tel":"031-663-2772","addr":"경기도 평택시 지산동 756-37번지","indutype":"음료식품 - 농·축·수산품","category":"food"}]},{"lat":"37.08078744","long":"127.05648155","imageIndex":7,"items":[{"name":"대복청과","tel":"031-000-0000","addr":"경기도 평택시 지산동 757-48번지","indutype":"음료식품 - 농·축·수산품","category":"food"}]},{"lat":"37.081733197","long":"127.05725821","imageIndex":7,"items":[{"name":"대성방아","tel":"031-666-8962","addr":"경기도 평택시 지산동 753-33번지","indutype":"음료식품 - 제과점","category":"food"}]},{"lat":"37.078958607","long":"127.05578301","imageIndex":7,"items":[{"name":"대통상사","tel":"031-666-0876","addr":"경기도 평택시 지산동 809-2번지 2층","indutype":"음료식품 - 기타음료식품","category":"food"}]},{"lat":"37.081345654","long":"127.05744912","imageIndex":7,"items":[{"name":"대흥상회","tel":"031-666-6497","addr":"경기도 평택시 지산동 753-14번지","indutype":"음료식품 - 농·축·수산품","category":"food"}]},{"lat":"37.079622453","long":"127.06200254","imageIndex":7,"items":[{"name":"더네이쳐기능식품","tel":"031-668-3579","addr":"경기도 평택시 지산동 1077번지 1층","indutype":"건강식품 - 기타건강식품","category":"food"}]},{"lat":"37.081066389","long":"127.05731397","imageIndex":7,"items":[{"name":"동령상회","tel":"031-666-8941","addr":"경기도 평택시 지산동 756-69번지","indutype":"음료식품 - 미곡상","category":"food"}]},{"lat":"37.081237538","long":"127.05742655","imageIndex":7,"items":[{"name":"동아상회","tel":"031-667-1243","addr":"경기도 평택시 지산동 756-66번지","indutype":"음료식품 - 농·축·수산품","category":"food"},{"name":"충북상회","tel":"031-666-2959","addr":"경기도 평택시 지산동 756-66번지","indutype":"음료식품 - 농·축·수산품","category":"food"}]},{"lat":"37.081930221","long":"127.05983378","imageIndex":7,"items":[{"name":"동진상사","tel":"031-664-0373","addr":"경기도 평택시 지산동 1005번지","indutype":"소매업 - 식품","category":"food"},{"name":"동진상사","tel":"031-666-6082","addr":"경기도 평택시 지산동 1005번지","indutype":"음료식품 - 기타음료식품","category":"food"}]},{"lat":"37.081426672","long":"127.05761787","imageIndex":7,"items":[{"name":"땅스부대찌개(송북시장점)","tel":"","addr":"경기도 평택시 지산동 753-15번지","indutype":"음료식품 - 기타음료식품","category":"food"}]},{"lat":"37.081399148","long":"127.05867501","imageIndex":7,"items":[{"name":"라도상회","tel":"031-665-4920","addr":"경기도 평택시 지산동 759-26번지","indutype":"음료식품 - 농·축·수산품","category":"food"}]},{"lat":"37.080223348","long":"127.06740116","imageIndex":7,"items":[{"name":"러브리사(lovelisa)","tel":"031-662-3091","addr":"경기도 평택시 지산동 1217번지 케이씨씨스위첸 107동 1204호","indutype":"음료식품 - 기타음료식품","category":"food"}]},{"lat":"37.079928224","long":"127.06317237","imageIndex":7,"items":[{"name":"롯데리아 나뚜루팝 평택지산점","tel":"031-664-1123","addr":"경기도 평택시 지산동 1123번지","indutype":"음료식품 - 제과점","category":"food"}]},{"lat":"37.080426488","long":"127.05763965","imageIndex":7,"items":[{"name":"마중물산야초건강원","tel":"031-665-0152","addr":"경기도 평택시 지산동 762-8번지 동호빌딩 102호","indutype":"음료식품 - 농·축·수산품","category":"food"}]},{"lat":"37.08050739","long":"127.07486887","imageIndex":7,"items":[{"name":"만복차예","tel":"","addr":"경기도 평택시 지산동 426-6번지 101호","indutype":"음료식품 - 기타음료식품","category":"food"}]},{"lat":"37.081426966","long":"127.05697683","imageIndex":7,"items":[{"name":"맛나식당","tel":"031-664-7695","addr":"경기도 평택시 지산동 754-24번지","indutype":"음료식품 - 기타음료식품","category":"food"},{"name":"송북새아침협동조합육터","tel":"031-662-3368","addr":"경기도 평택시 지산동 754-24번지","indutype":"음료식품 - 기타음료식품","category":"food"}]},{"lat":"37.076043472","long":"127.06547463","imageIndex":7,"items":[{"name":"매일유업남부유통대리점","tel":"031-377-4481","addr":"경기도 평택시 지산동 1163","indutype":"음료식품 - 기타음료식품","category":"food"}]},{"lat":"37.081345896","long":"127.05692055","imageIndex":7,"items":[{"name":"민속떡집","tel":"031-667-6254","addr":"경기도 평택시 지산동 754-26번지","indutype":"음료식품 - 제과점","category":"food"}]},{"lat":"37.081066656","long":"127.05672916","imageIndex":7,"items":[{"name":"반찬냉장고","tel":"031-666-8782","addr":"경기도 평택시 지산동 757-101번지","indutype":"음료식품 - 기타음료식품","category":"food"}]},{"lat":"37.081038767","long":"127.05858478","imageIndex":7,"items":[{"name":"백세건강원","tel":"","addr":"경기도 평택시 지산동 759-34번지","indutype":"건강식품 - 기타건강식품","category":"food"}]},{"lat":"37.075596099","long":"127.0591768","imageIndex":7,"items":[{"name":"보시엘드파리과자점","tel":"031-665-6464","addr":"경기도 평택시 지산동 687번지 외3필지","indutype":"음료식품 - 제과점","category":"food"}]},{"lat":"37.083807761","long":"127.07062075","imageIndex":7,"items":[{"name":"본Food","tel":"031-668-8769","addr":"경기도 평택시 지산동 621-57번지 더팰리스 C동 401호","indutype":"음료식품 - 농·축·수산품","category":"food"}]},{"lat":"37.081480978","long":"127.05708934","imageIndex":7,"items":[{"name":"부부떡집","tel":"031-666-6154","addr":"경기도 평택시 지산동 754-19번지","indutype":"음료식품 - 제과점","category":"food"}]},{"lat":"37.080985319","long":"127.05725768","imageIndex":7,"items":[{"name":"삼성수산","tel":"031-665-8439","addr":"경기도 평택시 지산동 756-70번지","indutype":"음료식품 - 농·축·수산품","category":"food"}]},{"lat":"37.081120795","long":"127.0565605","imageIndex":7,"items":[{"name":"상미네과일나라","tel":"031-666-4001","addr":"경기도 평택시 지산동 756-28번지","indutype":"음료식품 - 농·축·수산품","category":"food"},{"name":"우리상회","tel":"031-662-3796","addr":"경기도 평택시 지산동 756-28번지","indutype":"음료식품 - 농·축·수산품","category":"food"}]},{"lat":"37.081237897","long":"127.05663931","imageIndex":7,"items":[{"name":"서탄떡방앗간","tel":"031-667-3495","addr":"경기도 평택시 지산동 756-27번지","indutype":"음료식품 - 제과점","category":"food"},{"name":"서탄상회","tel":"031-663-0563","addr":"경기도 평택시 지산동 756-27번지","indutype":"음료식품 - 농·축·수산품","category":"food"}]},{"lat":"37.07648518","long":"127.06511514","imageIndex":7,"items":[{"name":"소망","tel":"031-663-7254","addr":"경기도 평택시 지산동 1150번지","indutype":"음료식품 - 기타음료식품","category":"food"}]},{"lat":"37.080760286","long":"127.05675144","imageIndex":7,"items":[{"name":"소연식품","tel":"031-667-5159","addr":"경기도 평택시 지산동 757-12번지","indutype":"음료식품 - 기타음료식품","category":"food"},{"name":"소연식품","tel":"031-664-2246","addr":"경기도 평택시 지산동 757-12번지","indutype":"제조업 - 식품","category":"food"}]},{"lat":"37.081237831","long":"127.05678551","imageIndex":7,"items":[{"name":"송북새아침협동조합","tel":"031-662-3368","addr":"경기도 평택시 지산동 756-80번지 3층","indutype":"음료식품 - 기타음료식품","category":"food"}]},{"lat":"37.080895658","long":"127.05627919","imageIndex":7,"items":[{"name":"송북축산","tel":"031-616-4000","addr":"경기도 평택시 지산동 757-16번지","indutype":"음료식품 - 정육점","category":"food"},{"name":"할매반찬찌개","tel":"","addr":"경기도 평택시 지산동 757-16번지","indutype":"음료식품 - 미곡상","category":"food"}]},{"lat":"37.080814067","long":"127.05737002","imageIndex":7,"items":[{"name":"송탄복떡집","tel":"031-662-5742","addr":"경기도 평택시 지산동 757-7번지","indutype":"음료식품 - 제과점","category":"food"}]},{"lat":"37.081624554","long":"127.05837152","imageIndex":7,"items":[{"name":"송탄상회","tel":"031-664-4396","addr":"경기도 평택시 지산동 759-1번지","indutype":"음료식품 - 농·축·수산품","category":"food"}]},{"lat":"37.082868734","long":"127.05680916","imageIndex":7,"items":[{"name":"송탄토종한우직판장","tel":"031-611-6817","addr":"경기도 평택시 지산동 740-12번지","indutype":"음료식품 - 정육점","category":"food"}]},{"lat":"37.074930022","long":"127.05766943","imageIndex":7,"items":[{"name":"순수","tel":"","addr":"경기도 평택시 지산동 850번지 1층","indutype":"음료식품 - 기타음료식품","category":"food"}]},{"lat":"37.080899281","long":"127.06714307","imageIndex":7,"items":[{"name":"신가네하나로축산","tel":"031-611-9849","addr":"경기도 평택시 지산동 631-20번지","indutype":"음료식품 - 정육점","category":"food"}]},{"lat":"37.081426837","long":"127.05725799","imageIndex":7,"items":[{"name":"신흥정육점","tel":"031-666-6810","addr":"경기도 평택시 지산동 754-37번지","indutype":"음료식품 - 정육점","category":"food"}]},{"lat":"37.081598079","long":"127.05716814","imageIndex":7,"items":[{"name":"싱싱수산","tel":"031-663-7513","addr":"경기도 평택시 지산동 753-29번지","indutype":"음료식품 - 농·축·수산품","category":"food"}]},{"lat":"37.082400133","long":"127.05692129","imageIndex":7,"items":[{"name":"쌀사랑유통","tel":"031-668-2467","addr":"경기도 평택시 지산동 743-4","indutype":"음료식품 - 미곡상","category":"food"}]},{"lat":"37.082537149","long":"127.0708333","imageIndex":7,"items":[{"name":"쎈언니 쎈오빠 떡볶이","tel":"031-611-3948","addr":"경기도 평택시 지산동 608-1번지 더팰리스스위트 103동 302호","indutype":"음료식품 - 기타음료식품","category":"food"}]},{"lat":"37.073398491","long":"127.05708358","imageIndex":7,"items":[{"name":"안골양봉","tel":"031-256-9869","addr":"경기도 평택시 지산동 844-17번지","indutype":"건강식품 - 기타건강식품","category":"food"}]},{"lat":"37.081012704","long":"127.0564817","imageIndex":7,"items":[{"name":"야채나라","tel":"031-662-8106","addr":"경기도 평택시 지산동 756-31번지","indutype":"음료식품 - 농·축·수산품","category":"food"}]},{"lat":"37.081678268","long":"127.05911382","imageIndex":7,"items":[{"name":"영광방아","tel":"031-662-0265","addr":"경기도 평택시 지산동 729-3번지","indutype":"음료식품 - 제과점","category":"food"}]},{"lat":"37.079568485","long":"127.06181132","imageIndex":7,"items":[{"name":"예담떡","tel":"02-668-0505","addr":"경기도 평택시 지산동 1076번지","indutype":"음료식품 - 제과점","category":"food"}]},{"lat":"37.080063014","long":"127.06389223","imageIndex":7,"items":[{"name":"오레시피(평택지산점)","tel":"031-666-6198","addr":"경기도 평택시 지산동 1127번지 1층","indutype":"음료식품 - 기타음료식품","category":"food"}]},{"lat":"37.081985056","long":"127.05820309","imageIndex":7,"items":[{"name":"올스본코리아","tel":"031-663-7589","addr":"경기도 평택시 지산동 735-27번지 3층","indutype":"건강식품 - 기타건강식품","category":"food"}]},{"lat":"37.080840974","long":"127.05763995","imageIndex":7,"items":[{"name":"우리동네축산할인마트","tel":"031-666-0607","addr":"경기도 평택시 지산동 757-2번지 1층","indutype":"음료식품 - 정육점","category":"food"}]},{"lat":"37.079570773","long":"127.05700925","imageIndex":7,"items":[{"name":"우리쌀농산물","tel":"031-654-3580","addr":"경기도 평택시 지산동 768-77번지 1층","indutype":"음료식품 - 미곡상","category":"food"},{"name":"정도유통","tel":"041-577-1232","addr":"경기도 평택시 지산동 768-77번지 지하1층","indutype":"음료식품 - 기타음료식품","category":"food"}]},{"lat":"37.075425395","long":"127.05811961","imageIndex":7,"items":[{"name":"우리집반찬&김밥(지산점)","tel":"031-663-8787","addr":"경기도 평택시 지산동 산190-4번지 삼우빌딩 1층","indutype":"음료식품 - 기타음료식품","category":"food"}]},{"lat":"37.073983692","long":"127.05814105","imageIndex":7,"items":[{"name":"웰빙푸드","tel":"031-235-3941","addr":"경기도 평택시 지산동 850-19번지 신화빌리지 301호","indutype":"음료식품 - 기타음료식품","category":"food"}]},{"lat":"37.081625198","long":"127.05697698","imageIndex":7,"items":[{"name":"일미정육점","tel":"031-662-5061","addr":"경기도 평택시 지산동 753-36번지","indutype":"음료식품 - 정육점","category":"food"}]},{"lat":"37.073289325","long":"127.08925581","imageIndex":7,"items":[{"name":"정육점은 위고","tel":"031-667-3757","addr":"경기도 평택시 지산동 223-6번지","indutype":"음료식품 - 정육점","category":"food"}]},{"lat":"37.080065846","long":"127.05811173","imageIndex":7,"items":[{"name":"제이와이","tel":"031-663-9798","addr":"경기도 평택시 지산동 761-12번지 3층 일부","indutype":"건강식품 - 기타건강식품","category":"food"}]},{"lat":"37.080092011","long":"127.05994486","imageIndex":7,"items":[{"name":"제일농수산물","tel":"031-665-0016","addr":"경기도 평택시 지산동 1028번지 제일아파트","indutype":"음료식품 - 농·축·수산품","category":"food"}]},{"lat":"37.081651926","long":"127.05764053","imageIndex":7,"items":[{"name":"주옥식품","tel":"031-662-9616","addr":"경기도 평택시 지산동 753-39번지","indutype":"소매업 - 식품","category":"food"},{"name":"주옥식품","tel":"031-665-2586","addr":"경기도 평택시 지산동 753-39번지","indutype":"음료식품 - 기타음료식품","category":"food"}]},{"lat":"37.083175032","long":"127.05694434","imageIndex":7,"items":[{"name":"중국식품점","tel":"031-667-6796","addr":"경기도 평택시 지산동 740-10번지 1층","indutype":"음료식품 - 기타음료식품","category":"food"}]},{"lat":"37.076876575","long":"127.05708606","imageIndex":7,"items":[{"name":"지산수입코너","tel":"031-666-5090","addr":"경기도 평택시 지산동 800-4번지","indutype":"음료식품 - 기타음료식품","category":"food"}]},{"lat":"37.081291258","long":"127.05816885","imageIndex":7,"items":[{"name":"진천상회","tel":"031-662-7492","addr":"경기도 평택시 지산동 752-9번지","indutype":"음료식품 - 농·축·수산품","category":"food"}]},{"lat":"37.08117449","long":"127.05737028","imageIndex":7,"items":[{"name":"충남식품","tel":"031-663-8239","addr":"경기도 평택시 지산동 756-68번지","indutype":"음료식품 - 농·축·수산품","category":"food"}]},{"lat":"37.081291321","long":"127.05803389","imageIndex":7,"items":[{"name":"충주떡방앗간","tel":"031-662-7670","addr":"경기도 평택시 지산동 752-18번지","indutype":"음료식품 - 제과점","category":"food"}]},{"lat":"37.081202088","long":"127.05612196","imageIndex":7,"items":[{"name":"케익나라","tel":"031-666-7688","addr":"경기도 평택시 지산동 755-9번지","indutype":"음료식품 - 제과점","category":"food"}]},{"lat":"37.07631379","long":"127.06547486","imageIndex":7,"items":[{"name":"키즈앤아트","tel":"","addr":"경기도 평택시 지산동 1166번지","indutype":"음료식품 - 제과점","category":"food"}]},{"lat":"37.080841417","long":"127.05667277","imageIndex":7,"items":[{"name":"텃밭야채","tel":"031-666-9449","addr":"경기도 평택시 지산동 757-100번지","indutype":"음료식품 - 농·축·수산품","category":"food"}]},{"lat":"37.080152818","long":"127.0644771","imageIndex":7,"items":[{"name":"파리바게뜨송탄지산2호점","tel":"031-663-0408","addr":"경기도 평택시 지산동 642-3번지","indutype":"음료식품 - 제과점","category":"food"}]},{"lat":"37.079370569","long":"127.06117014","imageIndex":7,"items":[{"name":"파리바케뜨지산점","tel":"031-611-0020","addr":"경기도 평택시 지산동 1073번지","indutype":"음료식품 - 제과점","category":"food"}]},{"lat":"37.08345361","long":"127.05856405","imageIndex":7,"items":[{"name":"풍기홍삼","tel":"031-667-6602","addr":"경기도 평택시 지산동 732-2번지","indutype":"회원제형태 - 건강식품","category":"food"}]},{"lat":"37.081785873","long":"127.0602048","imageIndex":7,"items":[{"name":"한성닭집","tel":"031-664-6613","addr":"경기도 평택시 지산동 1002번지","indutype":"음료식품 - 정육점","category":"food"}]},{"lat":"37.081400062","long":"127.05669566","imageIndex":7,"items":[{"name":"한우랑정육도매점","tel":"031-666-7415","addr":"경기도 평택시 지산동 754-28번지","indutype":"음료식품 - 정육점","category":"food"}]},{"lat":"37.079202127","long":"127.05525462","imageIndex":7,"items":[{"name":"현이네 반찬","tel":"031-111-1111","addr":"경기도 평택시 지산동 767-14번지 1층","indutype":"음료식품 - 기타음료식품","category":"food"}]},{"lat":"37.081399702","long":"127.0574829","imageIndex":7,"items":[{"name":"화정상회","tel":"031-665-6471","addr":"경기도 평택시 지산동 753-13번지","indutype":"음료식품 - 농·축·수산품","category":"food"}]},{"lat":"37.081147664","long":"127.0569204","imageIndex":7,"items":[{"name":"황해고추집","tel":"031-662-2122","addr":"경기도 평택시 지산동 756-45번지","indutype":"음료식품 - 농·축·수산품","category":"food"}]}]