[{"lat":"37.30547623","long":"126.85871736","imageIndex":0,"items":[{"name":"(주)지앤지홀딩스","tel":"031-416-2210","addr":"경기도 안산시 상록구 이동 579번지 가산빌딩 1,2층","indutype":"자동차정비 유지 - 자동차부품","category":"car"}]},{"lat":"37.308367791","long":"126.8509399","imageIndex":0,"items":[{"name":"(주)케이비엠주택관리","tel":"031-487-6811","addr":"경기도 안산시 상록구 이동 715-3번지 강우빌딩 308호","indutype":"자동차정비 유지 - 주차장","category":"car"}]},{"lat":"37.310535505","long":"126.84804776","imageIndex":0,"items":[{"name":"2016모터스","tel":"031-415-2621","addr":"경기도 안산시 상록구 이동 701-1번지 101호","indutype":"자동차정비 유지 - 자동차정비","category":"car"}]},{"lat":"37.306983099","long":"126.846239","imageIndex":0,"items":[{"name":"BR모터스","tel":"031-406-5129","addr":"경기도 안산시 상록구 이동 692-2번지","indutype":"자동차정비 유지 - 카인테리어","category":"car"}]},{"lat":"37.30594995","long":"126.84854219","imageIndex":0,"items":[{"name":"OK자동차서비스","tel":"070-7789-9969","addr":"경기도 안산시 상록구 이동 719-4번지","indutype":"자동차정비 유지 - 자동차정비","category":"car"}]},{"lat":"37.311286847","long":"126.85074225","imageIndex":0,"items":[{"name":"SK네트웍스(주)스피드메이트한대역점","tel":"031-501-5149","addr":"경기도 안산시 상록구 이동 622-2번지","indutype":"자동차정비 유지 - 자동차정비","category":"car"},{"name":"스피드메이트 한대역점","tel":"031-501-5149","addr":"경기도 안산시 상록구 이동 622-2번지","indutype":"자동차정비 유지 - 자동차정비","category":"car"}]},{"lat":"37.307676741","long":"126.86038258","imageIndex":0,"items":[{"name":"강서자동차","tel":"031-505-8658","addr":"경기도 안산시 상록구 이동 599-1번지","indutype":"자동차정비 유지 - 자동차정비","category":"car"}]},{"lat":"37.310648083","long":"126.85870748","imageIndex":0,"items":[{"name":"경안기업","tel":"031-415-1517","addr":"경기도 안산시 상록구 이동 527-19번지","indutype":"자동차정비 유지 - 자동차부품","category":"car"}]},{"lat":"37.3075928","long":"126.84399303","imageIndex":0,"items":[{"name":"경현모터스","tel":"031-407-9990","addr":"경기도 안산시 상록구 이동 686-2번지 1층 전체","indutype":"자동차정비 유지 - 자동차정비","category":"car"}]},{"lat":"37.3079281815","long":"126.8454925592","imageIndex":0,"items":[{"name":"고카","tel":"","addr":"경기도 안산시 상록구 이동 684-5번지","indutype":"도매 및 소매업 - 자동차용품","category":"car"}]},{"lat":"37.3114475893","long":"126.8496251619","imageIndex":0,"items":[{"name":"골든카케어3호점","tel":"031-502-8610","addr":"경기도 안산시 상록구 이동 696-3번지","indutype":"도매 및 소매업 - 자동차선팅","category":"car"}]},{"lat":"37.311447589","long":"126.84962516","imageIndex":0,"items":[{"name":"골든카케어3호점","tel":"031-502-8610","addr":"경기도 안산시 상록구 이동 696-3번지","indutype":"자동차정비 유지 - 카인테리어","category":"car"}]},{"lat":"37.30862123","long":"126.84493839","imageIndex":0,"items":[{"name":"공임나라이동점","tel":"031-416-1079","addr":"경기도 안산시 상록구 이동 677-2번지 101호,102호","indutype":"자동차정비 유지 - 자동차정비","category":"car"},{"name":"오토존","tel":"031-437-8661","addr":"경기도 안산시 상록구 이동 677-2번지","indutype":"자동차정비 유지 - 자동차정비","category":"car"}]},{"lat":"37.307729869","long":"126.85235117","imageIndex":0,"items":[{"name":"광명자동차","tel":"031-438-2222","addr":"경기도 안산시 상록구 이동 716-2번지 한미오피스텔 3층 307호","indutype":"자동차정비 유지 - 자동차정비","category":"car"}]},{"lat":"37.309483937","long":"126.85006908","imageIndex":0,"items":[{"name":"광빨","tel":"031-405-4739","addr":"경기도 안산시 상록구 이동 708-7번지 101호","indutype":"자동차정비 유지 - 카인테리어","category":"car"}]},{"lat":"37.313808492","long":"126.84298724","imageIndex":0,"items":[{"name":"꼽슬이종합세차장","tel":"031-501-8201","addr":"경기도 안산시 상록구 이동 628-1번지","indutype":"자동차정비 유지 - 세차장","category":"car"}]},{"lat":"37.309809813","long":"126.85124156","imageIndex":0,"items":[{"name":"나비아이","tel":"031-413-2213","addr":"경기도 안산시 상록구 이동 706-7번지 현대빌딩 1층","indutype":"자동차정비 유지 - 카인테리어","category":"car"},{"name":"주식회사 넥트라","tel":"031-427-3969","addr":"경기도 안산시 상록구 이동 706-7번지 현대빌딩 2층","indutype":"자동차정비 유지 - 자동차부품","category":"car"}]},{"lat":"37.311371653","long":"126.86098476","imageIndex":0,"items":[{"name":"나은자동차정비","tel":"031-409-3990","addr":"경기도 안산시 상록구 이동 539-10번지","indutype":"자동차정비 유지 - 자동차정비","category":"car"}]},{"lat":"37.310670657","long":"126.84804749","imageIndex":0,"items":[{"name":"네비나라","tel":"031-407-0773","addr":"경기도 안산시 상록구 이동 701번지","indutype":"자동차정비 유지 - 자동차부품","category":"car"},{"name":"루카스시트카바","tel":"031-501-5056","addr":"경기도 안산시 상록구 이동 701번지 1층","indutype":"자동차정비 유지 - 자동차시트·타이어","category":"car"}]},{"lat":"37.313781842","long":"126.84326931","imageIndex":0,"items":[{"name":"뉴꼽슬이광택","tel":"031-501-8201","addr":"경기도 안산시 상록구 이동 626-11번지","indutype":"자동차정비 유지 - 카인테리어","category":"car"}]},{"lat":"37.313031548","long":"126.84821186","imageIndex":0,"items":[{"name":"대영자동차공업사","tel":"031-416-0896","addr":"경기도 안산시 상록구 이동 658번지","indutype":"자동차정비 유지 - 자동차정비","category":"car"}]},{"lat":"37.311838799","long":"126.84563105","imageIndex":0,"items":[{"name":"대형운수","tel":"","addr":"경기도 안산시 상록구 이동 663-3번지 나라빌딩 2층 201호","indutype":"자동차정비 유지 - 견인서비스","category":"car"}]},{"lat":"37.311677675","long":"126.86071345","imageIndex":0,"items":[{"name":"대흥오토바이","tel":"031-409-5533","addr":"경기도 안산시 상록구 이동 534-12번지 1층","indutype":"자동차판매 - 이륜차판매","category":"car"}]},{"lat":"37.308036304","long":"126.84549233","imageIndex":0,"items":[{"name":"돔방자동차정비","tel":"031-416-9650","addr":"경기도 안산시 상록구 이동 684-4번지","indutype":"자동차정비 유지 - 자동차정비","category":"car"}]},{"lat":"37.311642795","long":"126.86168364","imageIndex":0,"items":[{"name":"드렁큰타이어 안산점","tel":"031-505-5166","addr":"경기도 안산시 상록구 이동 539-16번지 1층","indutype":"자동차정비 유지 - 자동차정비","category":"car"}]},{"lat":"37.310034778","long":"126.8510155","imageIndex":0,"items":[{"name":"렉사니타이어","tel":"","addr":"경기도 안산시 상록구 이동 706-5번지","indutype":"자동차정비 유지 - 자동차시트·타이어","category":"car"},{"name":"리조코리아","tel":"","addr":"경기도 안산시 상록구 이동 706-5번지 1층","indutype":"자동차정비 유지 - 자동차시트·타이어","category":"car"}]},{"lat":"37.308594981","long":"126.84552501","imageIndex":0,"items":[{"name":"매니져카모터스","tel":"031-416-0762","addr":"경기도 안산시 상록구 이동 677-5번지","indutype":"자동차정비 유지 - 자동차정비","category":"car"}]},{"lat":"37.307178146","long":"126.8654369","imageIndex":0,"items":[{"name":"매화카센타","tel":"031-408-3869","addr":"경기도 안산시 상록구 이동 552번지","indutype":"자동차정비 유지 - 자동차부품","category":"car"}]},{"lat":"37.309394562","long":"126.85063327","imageIndex":0,"items":[{"name":"미광카센타","tel":"031-408-9989","addr":"경기도 안산시 상록구 이동 709-3번지 한솔빌딩 1층","indutype":"자동차정비 유지 - 자동차정비","category":"car"}]},{"lat":"37.309510442","long":"126.84966293","imageIndex":0,"items":[{"name":"미르타이어","tel":"031-418-1233","addr":"경기도 안산시 상록구 이동 710-11번지 101호","indutype":"자동차정비 유지 - 자동차시트·타이어","category":"car"}]},{"lat":"37.306673439","long":"126.85060491","imageIndex":0,"items":[{"name":"비엠(BM)주차장","tel":"031-418-3661","addr":"경기도 안산시 상록구 이동 718-1번지","indutype":"자동차정비 유지 - 주차장","category":"car"}]},{"lat":"37.30736774","long":"126.86576367","imageIndex":0,"items":[{"name":"사운드스테이지","tel":"031-407-5456","addr":"경기도 안산시 상록구 이동 551-8번지","indutype":"자동차정비 유지 - 자동차부품","category":"car"}]},{"lat":"37.304594271","long":"126.85957628","imageIndex":0,"items":[{"name":"서울자동차공업사","tel":"031-406-7526","addr":"경기도 안산시 상록구 이동 579-10번지 1층","indutype":"자동차정비 유지 - 자동차정비","category":"car"},{"name":"영자동차멀티샵","tel":"031-406-7526","addr":"경기도 안산시 상록구 이동 579-10번지 1층 부분","indutype":"자동차정비 유지 - 자동차부품","category":"car"}]},{"lat":"37.310511782","long":"126.85059717","imageIndex":0,"items":[{"name":"슈퍼덴트칼라","tel":"031-409-4708","addr":"경기도 안산시 상록구 이동 706-1번지 101호","indutype":"자동차정비 유지 - 자동차정비","category":"car"}]},{"lat":"37.306565168","long":"126.85765498","imageIndex":0,"items":[{"name":"스팀&워시","tel":"031-1577-7294","addr":"경기도 안산시 상록구 이동 589-15번지 1층","indutype":"자동차정비 유지 - 카인테리어","category":"car"}]},{"lat":"37.304091534","long":"126.86109995","imageIndex":0,"items":[{"name":"스팀보이 안산상록점","tel":"031-501-1119","addr":"경기도 안산시 상록구 이동 575-6번지 1층 101호","indutype":"자동차정비 유지 - 세차장","category":"car"}]},{"lat":"37.310031979","long":"126.8488497","imageIndex":0,"items":[{"name":"스팀카샤인","tel":"070-8977-6514","addr":"경기도 안산시 상록구 이동 710-5번지 101호","indutype":"자동차정비 유지 - 세차장","category":"car"}]},{"lat":"37.310844839","long":"126.85034833","imageIndex":0,"items":[{"name":"스피디모터스","tel":"031-501-5189","addr":"경기도 안산시 상록구 이동 697-4번지 1층","indutype":"자동차정비 유지 - 자동차정비","category":"car"}]},{"lat":"37.304037702","long":"126.8612918","imageIndex":0,"items":[{"name":"시흥자동차공업사","tel":"031-407-8500","addr":"경기도 안산시 상록구 이동 575-5번지","indutype":"자동차정비 유지 - 자동차시트·타이어","category":"car"}]},{"lat":"37.305842561","long":"126.84910639","imageIndex":0,"items":[{"name":"신중앙주차장","tel":"031-419-3387","addr":"경기도 안산시 상록구 이동 719번지","indutype":"자동차정비 유지 - 주차장","category":"car"}]},{"lat":"37.311758861","long":"126.86079226","imageIndex":0,"items":[{"name":"신진자동차정비센터","tel":"031-419-9770","addr":"경기도 안산시 상록구 이동 534-11번지","indutype":"자동차정비 유지 - 자동차정비","category":"car"}]},{"lat":"37.311257805","long":"126.84918561","imageIndex":0,"items":[{"name":"신창기아상사","tel":"031-417-4444","addr":"경기도 안산시 상록구 이동 696번지","indutype":"자동차정비 유지 - 자동차부품","category":"car"}]},{"lat":"37.312754194","long":"126.8429105","imageIndex":0,"items":[{"name":"신현대카공업사","tel":"031-406-5180","addr":"경기도 안산시 상록구 이동 629-3번지","indutype":"자동차정비 유지 - 자동차정비","category":"car"}]},{"lat":"37.3066734393","long":"126.8506049122","imageIndex":0,"items":[{"name":"신흥상사","tel":"031-485-4312","addr":"경기도 안산시 상록구 이동 718-1번지","indutype":"도매 및 소매업 - 자동차부품","category":"car"}]},{"lat":"37.307539195","long":"126.86598896","imageIndex":0,"items":[{"name":"쌍용자동차공업사","tel":"031-415-7570","addr":"경기도 안산시 상록구 이동 551-6번지 1층","indutype":"자동차정비 유지 - 자동차정비","category":"car"}]},{"lat":"37.312006272","long":"126.84285569","imageIndex":0,"items":[{"name":"쌍용차정비서비스","tel":"031-406-1479","addr":"경기도 안산시 상록구 이동 636번지 1층","indutype":"자동차정비 유지 - 국산신차 직영부품","category":"car"}]},{"lat":"37.306394416","long":"126.85801626","imageIndex":0,"items":[{"name":"아띠모안산점","tel":"031-406-0951","addr":"경기도 안산시 상록구 이동 586-1번지","indutype":"자동차판매 - 이륜차판매","category":"car"}]},{"lat":"37.306366118","long":"126.84984979","imageIndex":0,"items":[{"name":"아우토반","tel":"","addr":"경기도 안산시 상록구 이동 718-8번지","indutype":"자동차정비 유지 - 세차장","category":"car"}]},{"lat":"37.311366906","long":"126.84994118","imageIndex":0,"items":[{"name":"안산 밧데리할인매장","tel":"031-416-4988","addr":"경기도 안산시 상록구 이동 697번지 103호","indutype":"자동차정비 유지 - 자동차부품","category":"car"}]},{"lat":"37.306983427","long":"126.84648715","imageIndex":0,"items":[{"name":"안산 차 밧데리","tel":"","addr":"경기도 안산시 상록구 이동 692-3번지 103호","indutype":"자동차정비 유지 - 자동차부품","category":"car"}]},{"lat":"37.313532203","long":"126.84524398","imageIndex":0,"items":[{"name":"안산에바크리닝실내크리닝아지트(Agit)","tel":"070-7420-9597","addr":"경기도 안산시 상록구 이동 647-2번지 용지빌딩 101호","indutype":"자동차정비 유지 - 자동차정비","category":"car"}]},{"lat":"37.311615266","long":"126.86126631","imageIndex":0,"items":[{"name":"엘리트스팀세차","tel":"031-501-5377","addr":"경기도 안산시 상록구 이동 539-13번지","indutype":"자동차정비 유지 - 세차장","category":"car"}]},{"lat":"37.307534889","long":"126.84788472","imageIndex":0,"items":[{"name":"엘케이온라인","tel":"","addr":"경기도 안산시 상록구 이동 712번지 굿모닝오피스텔 1층 112호","indutype":"자동차정비 유지 - 자동차부품","category":"car"}]},{"lat":"37.310952831","long":"126.85024659","imageIndex":0,"items":[{"name":"오일베스트","tel":"031-406-5130","addr":"경기도 안산시 상록구 이동 697-3번지","indutype":"자동차정비 유지 - 자동차정비","category":"car"}]},{"lat":"37.310175023","long":"126.8479921","imageIndex":0,"items":[{"name":"오토챔프(이동점)","tel":"031-408-5185","addr":"경기도 안산시 상록구 이동 710번지","indutype":"자동차정비 유지 - 자동차정비","category":"car"}]},{"lat":"37.307594357","long":"126.85206944","imageIndex":0,"items":[{"name":"유앤유상사","tel":"031-409-8272","addr":"경기도 안산시 상록구 이동 716-3번지 숭실프라자 508-3호","indutype":"자동차정비 유지 - 윤활유 전문 판매","category":"car"}]},{"lat":"37.313565217","long":"126.84298775","imageIndex":0,"items":[{"name":"이동점현대자동차","tel":"031-417-5356","addr":"경기도 안산시 상록구 이동 628-3번지","indutype":"자동차정비 유지 - 자동차정비","category":"car"}]},{"lat":"37.312919466","long":"126.84521142","imageIndex":0,"items":[{"name":"자동차마을본점","tel":"070-7101-4840","addr":"경기도 안산시 상록구 이동 648번지 1층","indutype":"자동차정비 유지 - 자동차부품","category":"car"}]},{"lat":"37.310259758","long":"126.85080073","imageIndex":0,"items":[{"name":"장수카크리닉","tel":"031-408-7755","addr":"경기도 안산시 상록구 이동 706-3번지 광명빌딩 1층","indutype":"자동차정비 유지 - 자동차정비","category":"car"}]},{"lat":"37.313177749","long":"126.84296601","imageIndex":0,"items":[{"name":"제이오토픽스","tel":"031-407-7703","addr":"경기도 안산시 상록구 이동 629번지 규현빌딩 1층","indutype":"자동차정비 유지 - 자동차정비","category":"car"}]},{"lat":"37.306420863","long":"126.85037983","imageIndex":0,"items":[{"name":"주식회사 대승플러스","tel":"031-416-0888","addr":"경기도 안산시 상록구 이동 718-2번지 썬프라자 203호","indutype":"자동차정비 유지 - 주차장","category":"car"},{"name":"주식회사 대승플러스","tel":"031-416-0888","addr":"경기도 안산시 상록구 이동 718-2번지 이동썬프라자 203호","indutype":"자동차정비 유지 - 주차장","category":"car"}]},{"lat":"37.307448962","long":"126.86587632","imageIndex":0,"items":[{"name":"준자동차공업사","tel":"031-408-2468","addr":"경기도 안산시 상록구 이동 551-7번지","indutype":"자동차정비 유지 - 자동차정비","category":"car"}]},{"lat":"37.307591329","long":"126.84971195","imageIndex":0,"items":[{"name":"중앙주차장","tel":"031-418-0105","addr":"경기도 안산시 상록구 이동 714-1번지","indutype":"자동차정비 유지 - 주차장","category":"car"}]},{"lat":"37.31303354","long":"126.84293247","imageIndex":0,"items":[{"name":"천마카센타","tel":"031-410-8731","addr":"경기도 안산시 상록구 이동 629-1번지 1층","indutype":"자동차정비 유지 - 자동차정비","category":"car"}]},{"lat":"37.30775595","long":"126.8447146","imageIndex":0,"items":[{"name":"출장광택","tel":"","addr":"경기도 안산시 상록구 이동 689번지 302호","indutype":"자동차정비 유지 - 카인테리어","category":"car"}]},{"lat":"37.312204496","long":"126.84285527","imageIndex":0,"items":[{"name":"카매니저","tel":"031-409-0665","addr":"경기도 안산시 상록구 이동 635-1번지 1층","indutype":"자동차정비 유지 - 자동차정비","category":"car"}]},{"lat":"37.313565598","long":"126.84326977","imageIndex":0,"items":[{"name":"카메이트","tel":"031-502-0444","addr":"경기도 안산시 상록구 이동 627번지 1층","indutype":"자동차정비 유지 - 자동차정비","category":"car"}]},{"lat":"37.310781156","long":"126.84987468","imageIndex":0,"items":[{"name":"카포스상사","tel":"031-491-8858","addr":"경기도 안산시 상록구 이동 698-7번지 101호","indutype":"자동차정비 유지 - 자동차부품","category":"car"}]},{"lat":"37.3107811564","long":"126.8498746832","imageIndex":0,"items":[{"name":"카포스상사","tel":"031-491-8858","addr":"경기도 안산시 상록구 이동 698-7번지","indutype":"도매 및 소매업 - 자동차부품","category":"car"}]},{"lat":"37.306205175","long":"126.85799406","imageIndex":0,"items":[{"name":"카포유","tel":"031-401-4404","addr":"경기도 안산시 상록구 이동 586-9번지 1층","indutype":"자동차정비 유지 - 카인테리어","category":"car"}]},{"lat":"37.309924794","long":"126.84957185","imageIndex":0,"items":[{"name":"캔카(CAN CAR)","tel":"031-409-5029","addr":"경기도 안산시 상록구 이동 705-7번지 1층","indutype":"자동차정비 유지 - 자동차정비","category":"car"}]},{"lat":"37.307620443","long":"126.86612417","imageIndex":0,"items":[{"name":"타이어월드","tel":"031-501-4441","addr":"경기도 안산시 상록구 이동 551-5번지","indutype":"자동차정비 유지 - 자동차시트·타이어","category":"car"}]},{"lat":"37.306313186","long":"126.85790362","imageIndex":0,"items":[{"name":"프로카오디오","tel":"031-418-8412","addr":"경기도 안산시 상록구 이동 586번지 1층","indutype":"자동차정비 유지 - 카인테리어","category":"car"}]},{"lat":"37.308261589","long":"126.84551442","imageIndex":0,"items":[{"name":"하나카서비스","tel":"031-418-5583","addr":"경기도 안산시 상록구 이동 678-6번지","indutype":"자동차정비 유지 - 자동차정비","category":"car"}]},{"lat":"37.305949699","long":"126.84835044","imageIndex":0,"items":[{"name":"한양카센타","tel":"031-409-8288","addr":"경기도 안산시 상록구 이동 719-3번지","indutype":"자동차정비 유지 - 자동차정비","category":"car"}]},{"lat":"37.305368204","long":"126.85879652","imageIndex":0,"items":[{"name":"현대내비서비스","tel":"031-416-2210","addr":"경기도 안산시 상록구 이동 579-1번지 101호","indutype":"자동차정비 유지 - 자동차부품","category":"car"}]},{"lat":"37.308149786","long":"126.84957546","imageIndex":0,"items":[{"name":"현대주차장","tel":"031-408-6944","addr":"경기도 안산시 상록구 이동 713","indutype":"자동차정비 유지 - 주차장","category":"car"}]},{"lat":"37.310979454","long":"126.84993068","imageIndex":0,"items":[{"name":"홍성카포스","tel":"031-417-5978","addr":"경기도 안산시 상록구 이동 698-3번지 경성빌딩 1층","indutype":"자동차정비 유지 - 자동차부품","category":"car"}]},{"lat":"37.309396776","long":"126.85962357","imageIndex":0,"items":[{"name":"화인카써비스","tel":"031-407-9585","addr":"경기도 안산시 상록구 이동 610-8번지","indutype":"자동차정비 유지 - 자동차정비","category":"car"}]},{"lat":"37.307615241","long":"126.84732056","imageIndex":0,"items":[{"name":"휠매직","tel":"031-415-2347","addr":"경기도 안산시 상록구 이동 694번지 102,103호","indutype":"자동차정비 유지 - 자동차시트·타이어","category":"car"}]}]