[{"lat":"37.345890329","long":"126.82184895","imageIndex":7,"items":[{"name":"(주)선우마트","tel":"031-402-7676","addr":"경기도 안산시 단원구 와동 780-7번지","indutype":"유통업 영리 - 슈퍼마켓","category":"mart"},{"name":"(주)선우마트","tel":"031-402-9939","addr":"경기도 안산시 단원구 와동 780-7번지","indutype":"유통업 영리 - 슈퍼마켓","category":"mart"},{"name":"(주)선우마트","tel":"031-402-0808","addr":"경기도 안산시 단원구 와동 780-7번지","indutype":"유통업 영리 - 슈퍼마켓","category":"mart"},{"name":"(주)선우마트","tel":"031-402-3838","addr":"경기도 안산시 단원구 와동 780-7번지","indutype":"유통업 영리 - 슈퍼마켓","category":"mart"}]},{"lat":"37.331753899","long":"126.82819037","imageIndex":7,"items":[{"name":"HM마트","tel":"031-410-3172","addr":"경기도 안산시 단원구 와동 681-4번지 1층","indutype":"유통업 영리 - 슈퍼마켓","category":"mart"}]},{"lat":"37.3471429949","long":"126.8220152318","imageIndex":7,"items":[{"name":"가람마트","tel":"031-414-8164","addr":"경기도 안산시 단원구 와동 786-12번지","indutype":"도매 및 소매업 - 슈퍼마켓","category":"mart"}]},{"lat":"37.347142995","long":"126.82201523","imageIndex":7,"items":[{"name":"가람마트","tel":"031-414-8164","addr":"경기도 안산시 단원구 와동 786-12번지 102호","indutype":"유통업 영리 - 슈퍼마켓","category":"mart"}]},{"lat":"37.335169972","long":"126.81715796","imageIndex":7,"items":[{"name":"강서할인마트","tel":"031-411-6060","addr":"경기도 안산시 단원구 와동 827-6번지 101호","indutype":"유통업 영리 - 슈퍼마켓","category":"mart"}]},{"lat":"37.3351699725","long":"126.8171579574","imageIndex":7,"items":[{"name":"강서할인마트","tel":"031-411-6060","addr":"경기도 안산시 단원구 와동 827-6번지","indutype":"도매 및 소매업 - 슈퍼마켓, 담배","category":"mart"}]},{"lat":"37.3386451820","long":"126.8212118385","imageIndex":7,"items":[{"name":"공원마트","tel":"031-439-5366","addr":"경기도 안산시 단원구 와동 753-9번지","indutype":"도매 및 소매업 - 슈퍼마켓,담배","category":"mart"}]},{"lat":"37.338645182","long":"126.82121184","imageIndex":7,"items":[{"name":"공원마트","tel":"031-439-5366","addr":"경기도 안산시 단원구 와동 753-9번지","indutype":"유통업 영리 - 슈퍼마켓","category":"mart"}]},{"lat":"37.339978419","long":"126.8269977","imageIndex":7,"items":[{"name":"그린하이퍼","tel":"031-482-6394","addr":"경기도 안산시 단원구 와동 112-13번지","indutype":"유통업 영리 - 슈퍼마켓","category":"mart"}]},{"lat":"37.337727462","long":"126.82207166","imageIndex":7,"items":[{"name":"남부할인 마트","tel":"032-494-9640","addr":"경기도 안산시 단원구 와동 747-7번지 1층","indutype":"유통업 영리 - 슈퍼마켓","category":"mart"}]},{"lat":"37.3377274620","long":"126.8220716642","imageIndex":7,"items":[{"name":"남부할인마트","tel":"031-494-9640","addr":"경기도 안산시 단원구 와동 747-7번지","indutype":"도매 및 소매업 - 슈퍼마켓,담배","category":"mart"}]},{"lat":"37.336585344","long":"126.82954457","imageIndex":7,"items":[{"name":"농심가와동공판장","tel":"031-480-4244","addr":"경기도 안산시 단원구 와동 705번지","indutype":"유통업 영리 - 슈퍼마켓","category":"mart"}]},{"lat":"37.340916945","long":"126.82798859","imageIndex":7,"items":[{"name":"대명슈퍼","tel":"031-484-9497","addr":"경기도 안산시 단원구 와동 110-6번지","indutype":"유통업 영리 - 슈퍼마켓","category":"mart"}]},{"lat":"37.343699588","long":"126.8210191","imageIndex":7,"items":[{"name":"대복마트","tel":"031-486-6768","addr":"경기도 안산시 단원구 와동 805번지 1층","indutype":"유통업 영리 - 슈퍼마켓","category":"mart"}]},{"lat":"37.3436995877","long":"126.8210190984","imageIndex":7,"items":[{"name":"대복마트","tel":"031-486-6768","addr":"경기도 안산시 단원구 와동 805번지","indutype":"도매 및 소매업 - 슈퍼담배","category":"mart"}]},{"lat":"37.337612604","long":"126.81771616","imageIndex":7,"items":[{"name":"두꺼비마트","tel":"031-480-6510","addr":"경기도 안산시 단원구 와동 820-7번지 1층","indutype":"유통업 영리 - 슈퍼마켓","category":"mart"}]},{"lat":"37.346332687","long":"126.82241217","imageIndex":7,"items":[{"name":"두리마트","tel":"031-413-0095","addr":"경기도 안산시 단원구 와동 781-9번지 상가주택 1층","indutype":"유통업 영리 - 슈퍼마켓","category":"mart"}]},{"lat":"37.3425874972","long":"126.8304900128","imageIndex":7,"items":[{"name":"디지털할인마트","tel":"031-413-9335","addr":"경기도 안산시 단원구 와동 129번지","indutype":"도매 및 소매업 - 슈퍼마켓,담배,소","category":"mart"}]},{"lat":"37.342587497","long":"126.83049001","imageIndex":7,"items":[{"name":"디지털할인마트","tel":"031-413-9335","addr":"경기도 안산시 단원구 와동 129번지 101호","indutype":"유통업 영리 - 슈퍼마켓","category":"mart"}]},{"lat":"37.332063891","long":"126.81871145","imageIndex":7,"items":[{"name":"럭키마트","tel":"031-414-6588","addr":"경기도 안산시 단원구 와동 840-5번지 101호","indutype":"유통업 영리 - 슈퍼마켓","category":"mart"}]},{"lat":"37.337529534","long":"126.82826727","imageIndex":7,"items":[{"name":"럭키마트","tel":"031-403-4003","addr":"경기도 안산시 단원구 와동 713-2번지","indutype":"유통업 영리 - 슈퍼마켓","category":"mart"}]},{"lat":"37.3320638905","long":"126.8187114523","imageIndex":7,"items":[{"name":"럭키마트","tel":"031-414-6588","addr":"경기도 안산시 단원구 와동 840-5번지","indutype":"도매 및 소매업 - 슈퍼마켓","category":"mart"}]},{"lat":"37.3375295342","long":"126.8282672651","imageIndex":7,"items":[{"name":"럭키마트","tel":"031-403-4003","addr":"경기도 안산시 단원구 와동 713-2번지","indutype":"도매 및 소매업 - 슈퍼마켓","category":"mart"}]},{"lat":"37.335416215","long":"126.83104804","imageIndex":7,"items":[{"name":"무지개슈퍼","tel":"","addr":"경기도 안산시 단원구 와동 703-6번지 1층","indutype":"유통업 영리 - 슈퍼마켓","category":"mart"}]},{"lat":"37.3354162151","long":"126.8310480378","imageIndex":7,"items":[{"name":"무지개슈퍼","tel":"031-402-3166","addr":"경기도 안산시 단원구 와동 703-6번지","indutype":"도매 및 소매업 - 슈퍼마켓","category":"mart"}]},{"lat":"37.3413325602","long":"126.8287662835","imageIndex":7,"items":[{"name":"빛나리할인마트","tel":"031-482-8787","addr":"경기도 안산시 단원구 와동 107-1번지","indutype":"도매 및 소매업 - 슈퍼마켓","category":"mart"}]},{"lat":"37.34133256","long":"126.82876628","imageIndex":7,"items":[{"name":"빛나리할인마트","tel":"031-482-8787","addr":"경기도 안산시 단원구 와동 107-1번지 1층","indutype":"유통업 영리 - 슈퍼마켓","category":"mart"}]},{"lat":"37.34255916","long":"126.82354972","imageIndex":7,"items":[{"name":"생수슈퍼마켓","tel":"031-403-5148","addr":"경기도 안산시 단원구 와동 859번지","indutype":"유통업 영리 - 슈퍼마켓","category":"mart"}]},{"lat":"37.333530691","long":"126.8294049","imageIndex":7,"items":[{"name":"선길종합슈퍼","tel":"031-410-6796","addr":"경기도 안산시 단원구 와동 696-1번지","indutype":"유통업 영리 - 슈퍼마켓","category":"mart"}]},{"lat":"37.332837689","long":"126.81802126","imageIndex":7,"items":[{"name":"성도슈퍼","tel":"031-487-7737","addr":"경기도 안산시 단원구 와동 842-1번지 주택상가","indutype":"유통업 영리 - 슈퍼마켓","category":"mart"}]},{"lat":"37.332723539","long":"126.81993976","imageIndex":7,"items":[{"name":"쇼핑촌","tel":"031-414-8249","addr":"경기도 안산시 단원구 와동 837-1번지 1층,지하전부","indutype":"유통업 영리 - 슈퍼마켓","category":"mart"}]},{"lat":"37.3327235389","long":"126.8199397613","imageIndex":7,"items":[{"name":"쇼핑촌","tel":"031-410-1527","addr":"경기도 안산시 단원구 와동 837-1번지","indutype":"도매 및 소매업 - 슈퍼마켓,담배","category":"mart"}]},{"lat":"37.3423385376","long":"126.8206838274","imageIndex":7,"items":[{"name":"승희슈퍼","tel":"031-411-4680","addr":"경기도 안산시 단원구 와동 809-9번지","indutype":"도매 및 소매업 - 슈퍼 담배","category":"mart"}]},{"lat":"37.342338538","long":"126.82068383","imageIndex":7,"items":[{"name":"승희슈퍼","tel":"031-411-4680","addr":"경기도 안산시 단원구 와동 809-9번지","indutype":"유통업 영리 - 슈퍼마켓","category":"mart"}]},{"lat":"37.334919044","long":"126.82388383","imageIndex":7,"items":[{"name":"신선마트","tel":"031-410-2248","addr":"경기도 안산시 단원구 와동 731-8번지","indutype":"유통업 영리 - 슈퍼마켓","category":"mart"}]},{"lat":"37.3349190440","long":"126.8238838345","imageIndex":7,"items":[{"name":"신선마트","tel":"031-410-2248","addr":"경기도 안산시 단원구 와동 731-8번지","indutype":"도매 및 소매업 - 슈퍼마켓","category":"mart"}]},{"lat":"37.334782902","long":"126.82926661","imageIndex":7,"items":[{"name":"쌩큐마트","tel":"031-405-7753","addr":"경기도 안산시 단원구 와동 716-6번지","indutype":"유통업 영리 - 슈퍼마켓","category":"mart"}]},{"lat":"37.338034402","long":"126.82846922","imageIndex":7,"items":[{"name":"안산마트","tel":"031-401-2722","addr":"경기도 안산시 단원구 와동 712번지 1층","indutype":"유통업 영리 - 슈퍼마켓","category":"mart"}]},{"lat":"37.331168156","long":"126.8281353","imageIndex":7,"items":[{"name":"알뜰할인마트","tel":"031-413-3733","addr":"경기도 안산시 단원구 와동 683-5번지 101,102호","indutype":"유통업 영리 - 슈퍼마켓","category":"mart"}]},{"lat":"37.3311681558","long":"126.8281353043","imageIndex":7,"items":[{"name":"알뜰할인마트","tel":"031-413-3733","addr":"경기도 안산시 단원구 와동 683-5번지","indutype":"도매 및 소매업 - 슈퍼","category":"mart"}]},{"lat":"37.333727425","long":"126.82238591","imageIndex":7,"items":[{"name":"에스25","tel":"031-487-8457","addr":"경기도 안산시 단원구 와동 736-1번지 101호 상가","indutype":"유통업 영리 - 슈퍼마켓","category":"mart"}]},{"lat":"37.34564309","long":"126.81927643","imageIndex":7,"items":[{"name":"우리마트","tel":"031-405-3335","addr":"경기도 안산시 단원구 와동 797-21번지 102호","indutype":"유통업 영리 - 슈퍼마켓","category":"mart"}]},{"lat":"37.331229202","long":"126.82676987","imageIndex":7,"items":[{"name":"우리마트","tel":"031-0000-0000","addr":"경기도 안산시 단원구 와동 682-9번지","indutype":"유통업 영리 - 슈퍼마켓","category":"mart"}]},{"lat":"37.3397553378","long":"126.8284652372","imageIndex":7,"items":[{"name":"유성할인마트","tel":"031-482-6371","addr":"경기도 안산시 단원구 와동 122-5번지","indutype":"도매 및 소매업 - 슈퍼","category":"mart"}]},{"lat":"37.339755338","long":"126.82846524","imageIndex":7,"items":[{"name":"유성할인마트","tel":"031-482-6371","addr":"경기도 안산시 단원구 와동 122-5번지 1층 101호","indutype":"유통업 영리 - 슈퍼마켓","category":"mart"}]},{"lat":"37.340728835","long":"126.82271899","imageIndex":7,"items":[{"name":"유정슈퍼","tel":"","addr":"경기도 안산시 단원구 와동 756번지","indutype":"유통업 영리 - 슈퍼마켓","category":"mart"}]},{"lat":"37.3407288351","long":"126.8227189912","imageIndex":7,"items":[{"name":"유정슈퍼","tel":"031-401-3861","addr":"경기도 안산시 단원구 와동 756번지","indutype":"도매 및 소매업 - 슈퍼 담배 기타","category":"mart"},{"name":"유정슈퍼","tel":"031-401-3861","addr":"경기도 안산시 단원구 와동 756번지","indutype":"도매 및 소매업 - 슈퍼마켓","category":"mart"}]},{"lat":"37.344833542","long":"126.82015867","imageIndex":7,"items":[{"name":"인제할인마트","tel":"031-411-7912","addr":"경기도 안산시 단원구 와동 799-19번지 1층","indutype":"유통업 영리 - 슈퍼마켓","category":"mart"}]},{"lat":"37.332785281","long":"126.81908205","imageIndex":7,"items":[{"name":"초이마트(강서)","tel":"031-487-1944","addr":"경기도 안산시 단원구 와동 839번지 1층","indutype":"유통업 영리 - 슈퍼마켓","category":"mart"}]},{"lat":"37.3327852809","long":"126.8190820525","imageIndex":7,"items":[{"name":"초이마트(강서점)","tel":"031-487-1944","addr":"경기도 안산시 단원구 와동 839번지","indutype":"도매 및 소매업 - 슈퍼,식육판매,담","category":"mart"}]},{"lat":"37.346332945","long":"126.82258146","imageIndex":7,"items":[{"name":"충남마트","tel":"031-411-7483","addr":"경기도 안산시 단원구 와동 781-8번지","indutype":"유통업 영리 - 슈퍼마켓","category":"mart"}]},{"lat":"37.343115504","long":"126.82204746","imageIndex":7,"items":[{"name":"코사마트은성점","tel":"031-485-2634","addr":"경기도 안산시 단원구 와동 771-6번지 1층","indutype":"유통업 영리 - 슈퍼마켓","category":"mart"}]},{"lat":"37.333115578","long":"126.82294028","imageIndex":7,"items":[{"name":"콜마트","tel":"","addr":"경기도 안산시 단원구 와동 734-3번지","indutype":"유통업 영리 - 슈퍼마켓","category":"mart"}]},{"lat":"37.338200602","long":"126.81921556","imageIndex":7,"items":[{"name":"평택쌀농산","tel":"031-484-3929","addr":"경기도 안산시 단원구 와동 819-13번지 101호","indutype":"유통업 영리 - 슈퍼마켓","category":"mart"}]},{"lat":"37.3461668309","long":"126.8200200087","imageIndex":7,"items":[{"name":"하나로공판장","tel":"031-414-4684","addr":"경기도 안산시 단원구 와동 796-7번지","indutype":"도매 및 소매업 - 슈퍼","category":"mart"}]},{"lat":"37.346166831","long":"126.82002001","imageIndex":7,"items":[{"name":"하나로공판장","tel":"031-414-4684","addr":"경기도 안산시 단원구 와동 796-7번지","indutype":"유통업 영리 - 슈퍼마켓","category":"mart"}]},{"lat":"37.3358394459","long":"126.8308778117","imageIndex":7,"items":[{"name":"하늘소마트","tel":"031-413-6622","addr":"경기도 안산시 단원구 와동 703-9번지","indutype":"도매 및 소매업 - 슈퍼마켓","category":"mart"}]},{"lat":"37.335839446","long":"126.83087781","imageIndex":7,"items":[{"name":"하늘소할인마트","tel":"031-413-6622","addr":"경기도 안산시 단원구 와동 703-9번지 1층","indutype":"유통업 영리 - 슈퍼마켓","category":"mart"}]},{"lat":"37.334396491","long":"126.8299671","imageIndex":7,"items":[{"name":"한국유통","tel":"031-402-5111","addr":"경기도 안산시 단원구 와동 699번지 1층","indutype":"유통업 영리 - 슈퍼마켓","category":"mart"},{"name":"한국유통","tel":"031-416-3656","addr":"경기도 안산시 단원구 와동 699번지 1층","indutype":"유통업 영리 - 슈퍼마켓","category":"mart"}]},{"lat":"37.339944231","long":"126.82224691","imageIndex":7,"items":[{"name":"한아름마트","tel":"031-411-7127","addr":"경기도 안산시 단원구 와동 757-6번지 1층","indutype":"유통업 영리 - 슈퍼마켓","category":"mart"}]},{"lat":"37.334864969","long":"126.82993218","imageIndex":7,"items":[{"name":"한아름마트","tel":"031-411-7754","addr":"경기도 안산시 단원구 와동 694-10번지 1층","indutype":"유통업 영리 - 슈퍼마켓","category":"mart"}]},{"lat":"37.341612583","long":"126.82321342","imageIndex":7,"items":[{"name":"한아름마트","tel":"031-411-8013","addr":"경기도 안산시 단원구 와동 764-12번지 1층","indutype":"유통업 영리 - 슈퍼마켓","category":"mart"}]},{"lat":"37.3416125830","long":"126.8232134198","imageIndex":7,"items":[{"name":"한아름마트","tel":"031-411-8013","addr":"경기도 안산시 단원구 와동 764-12번지","indutype":"도매 및 소매업 - 슈퍼마켓,담배","category":"mart"}]},{"lat":"37.3399442309","long":"126.8222469061","imageIndex":7,"items":[{"name":"한아름마트","tel":"031-411-7127","addr":"경기도 안산시 단원구 와동 757-6번지","indutype":"도매 및 소매업 - 슈퍼","category":"mart"}]},{"lat":"37.340557157","long":"126.82840696","imageIndex":7,"items":[{"name":"행복마트","tel":"031-484-1113","addr":"경기도 안산시 단원구 와동 108-9번지","indutype":"유통업 영리 - 슈퍼마켓","category":"mart"}]},{"lat":"37.3405571567","long":"126.8284069588","imageIndex":7,"items":[{"name":"행복마트","tel":"031-484-1113","addr":"경기도 안산시 단원구 와동 108-9번지","indutype":"도매 및 소매업 - 슈퍼마켓","category":"mart"}]},{"lat":"37.332286362","long":"126.82877588","imageIndex":7,"items":[{"name":"현대마트","tel":"031-411-5894","addr":"경기도 안산시 단원구 와동 695-13번지","indutype":"유통업 영리 - 슈퍼마켓","category":"mart"}]}]