[{"lat":"37.382330034","long":"126.80126806","imageIndex":17,"items":[{"name":"㈜경인기획","tel":"031-317-0323","addr":"경기도 시흥시 장현동 531-2번지","indutype":"제조업 - 인쇄, 광고대행","category":"other"}]},{"lat":"37.381998218","long":"126.80218352","imageIndex":17,"items":[{"name":"㈜다원복지","tel":"031-318-9696","addr":"경기도 시흥시 장현동 548-3번지 이지라이프 206호","indutype":"소매업 - 사회서비스,생활용품","category":"other"},{"name":"더낭(THE NANG)","tel":"031-520-2052","addr":"경기도 시흥시 장현동 548-3번지 이즈라이프상가 107호","indutype":"소매업 - 공예품","category":"other"},{"name":"동영사무기","tel":"","addr":"경기도 시흥시 장현동 548-3번지 이즈라이프 2층 204호중2","indutype":"소매업 - 컴퓨터및주변기기","category":"other"},{"name":"베베산모도우미","tel":"031-494-7230","addr":"경기도 시흥시 장현동 548-3번지 이즈라이프 203호","indutype":"보건업 - 산모도우미","category":"other"},{"name":"아이미래로 시흥지사","tel":"031-499-7992","addr":"경기도 시흥시 장현동 548-3번지 이즈라이프 203호","indutype":"개인서비스업 - 산모도우미파견","category":"other"}]},{"lat":"37.381250191","long":"126.80207261","imageIndex":17,"items":[{"name":"㈜연홍","tel":"","addr":"경기도 시흥시 장현동 547-6번지 해솔프라자","indutype":"소매업 - 침구","category":"other"}]},{"lat":"37.381002327","long":"126.79938604","imageIndex":17,"items":[{"name":"개구장이","tel":"","addr":"경기도 시흥시 장현동 538-2번지 101호","indutype":"소매업 - 문구,서적,팬시,컴퓨터용품","category":"other"}]},{"lat":"37.380885468","long":"126.79954443","imageIndex":17,"items":[{"name":"경희대장현태권도","tel":"031-404-0667","addr":"경기도 시흥시 장현동 538-3번지 204호 경희대장현태권도","indutype":"교육서비스업 - 태권도","category":"other"},{"name":"모닝글로리 장현점","tel":"031-435-1322","addr":"경기도 시흥시 장현동 538-3번지","indutype":"소매업 - 문구","category":"other"},{"name":"몽땅달콤 장현점","tel":"","addr":"경기도 시흥시 장현동 538-3번지 106호","indutype":"소매업 - 아이스크림,과자,슬러시,군","category":"other"},{"name":"크린토피아 장현점","tel":"031-435-1011","addr":"경기도 시흥시 장현동 538-3번지 새재타운 105호","indutype":"개인서비스업 - 세탁중개업","category":"other"}]},{"lat":"37.382132621","long":"126.80174281","imageIndex":17,"items":[{"name":"고기나라","tel":"031-318-8311","addr":"경기도 시흥시 장현동 530-3번지 1층","indutype":"소매업 - 육류","category":"other"},{"name":"이벤트종합상사","tel":"031-312-5000","addr":"경기도 시흥시 장현동 530-3번지 삼하빌딩 302호","indutype":"제조업 - 간판 및 광고물","category":"other"},{"name":"점핑하이 ","tel":"","addr":"경기도 시흥시 장현동 530-3번지 삼하빌딩 5층 501호","indutype":"개인서비스업 - 운동","category":"other"}]},{"lat":"37.380076903","long":"126.80091279","imageIndex":17,"items":[{"name":"누리그래픽","tel":"031-318-2456","addr":"경기도 시흥시 장현동 542번지 (장현2앤플러스빌지하1층108호)","indutype":"개인서비스업 - 복사업,판촉물","category":"other"}]},{"lat":"37.38169155","long":"126.80199239","imageIndex":17,"items":[{"name":"다리미","tel":"031-318-7938","addr":"경기도 시흥시 장현동 546-1번지 드림펠리스","indutype":"소매업 - 귀금속, 시계","category":"other"},{"name":"연성당구클럽","tel":"031-317-7715","addr":"경기도 시흥시 장현동 546-1번지 드림펠리스 201호","indutype":"개인서비스업 - 스포츠","category":"other"}]},{"lat":"37.380301209","long":"126.80035894","imageIndex":17,"items":[{"name":"당근모바일","tel":"031-481-9010","addr":"경기도 시흥시 장현동 541-4번지 장현1 엔플러스빌 130호 당근모바일","indutype":"소매업 - 휴대폰,휴대폰악세사리","category":"other"},{"name":"손에핀꽃","tel":"031-435-3733","addr":"경기도 시흥시 장현동 541-4번지 장현1 엔플러스빌 1층 122호","indutype":"개인서비스업 - 네일아트","category":"other"},{"name":"유호세탁소","tel":"031-318-7010","addr":"경기도 시흥시 장현동 541-4번지 장현1 엔플러스빌","indutype":"개인서비스업 - 세탁","category":"other"},{"name":"이든네이처 시흥장현지사","tel":"031-311-2006","addr":"경기도 시흥시 장현동 541-4번지 장현1 엔플러스빌 1층 123호","indutype":"소매업 - 화장품","category":"other"},{"name":"줄리엣홈","tel":"","addr":"경기도 시흥시 장현동 541-4번지 장현1 엔플러스빌","indutype":"소매업 - 의류","category":"other"},{"name":"코디(Codi)","tel":"031-312-1190","addr":"경기도 시흥시 장현동 541-4번지 장현1엔플러스빌 124호","indutype":"소매업 - 의류잡화","category":"other"}]},{"lat":"37.379668643","long":"126.79927673","imageIndex":17,"items":[{"name":"대동청구부동산 공인중개사사무소","tel":"031-313-3318","addr":"경기도 시흥시 장현동 540번지 새재마을대동아파트 상가동 109호","indutype":"개인서비스업 - 부동산중개업","category":"other"},{"name":"시흥우리치과의원","tel":"","addr":"경기도 시흥시 장현동 540번지 201호,202호,203호","indutype":"보건업 - 치과","category":"other"},{"name":"이리오개","tel":"031-404-5125","addr":"경기도 시흥시 장현동 540번지","indutype":"소매업 - 애견용품","category":"other"},{"name":"장현골프클럽","tel":"031-509-0307","addr":"경기도 시흥시 장현동 540번지 상가동 지하1층 101, 107호","indutype":"개인서비스업 - 스크린골프","category":"other"}]},{"lat":"37.381327678","long":"126.799961","imageIndex":17,"items":[{"name":"대운농장","tel":"031-435-0548","addr":"경기도 시흥시 장현동 536-8번지 1층","indutype":"소매업 - 계란","category":"other"}]},{"lat":"37.382304234","long":"126.80199076","imageIndex":17,"items":[{"name":"덕산종합상사","tel":"031-317-0036","addr":"경기도 시흥시 장현동 530-1번지 1층","indutype":"소매업 - 건설","category":"other"}]},{"lat":"37.382386129","long":"126.80246477","imageIndex":17,"items":[{"name":"도토리","tel":"031-435-2848","addr":"경기도 시흥시 장현동 527-6번지 대성빌딩 501호","indutype":"개인서비스업 - 스토리텔링, 인쇄","category":"other"}]},{"lat":"37.381195286","long":"126.80157595","imageIndex":17,"items":[{"name":"디자인스토리","tel":"031-506-3398","addr":"경기도 시흥시 장현동 544-1번지 101호","indutype":"제조업 - 안내판, 현수막","category":"other"}]},{"lat":"37.382413484","long":"126.80265664","imageIndex":17,"items":[{"name":"롯데캐논 가이아텍","tel":"031-317-7484","addr":"경기도 시흥시 장현동 527-5번지 202호","indutype":"개인서비스업 - 프린터,팩스,스캐너","category":"other"},{"name":"버니베이프","tel":"070-7723-0196","addr":"경기도 시흥시 장현동 527-5번지 2층 201호","indutype":"소매업 - 담배소매업","category":"other"}]},{"lat":"37.381299697","long":"126.79940782","imageIndex":17,"items":[{"name":"무극 멀티짐","tel":"031-404-0480","addr":"경기도 시흥시 장현동 537-10번지 2층","indutype":"교육서비스업 - 합기도,검도","category":"other"}]},{"lat":"37.380663693","long":"126.80157738","imageIndex":17,"items":[{"name":"민트스튜디오","tel":"031-317-3880","addr":"경기도 시흥시 장현동 543-4번지 제이파크 107호","indutype":"개인서비스업 - 사진관","category":"other"},{"name":"밝은세상안경원","tel":"","addr":"경기도 시흥시 장현동 543-4번지 J-PARK (주상복합아파트)","indutype":"소매업 - 안경","category":"other"}]},{"lat":"37.38139005","long":"126.79955435","imageIndex":17,"items":[{"name":"샤론플라워","tel":"031-317-4540","addr":"경기도 시흥시 장현동 537-1번지 1층","indutype":"소매업 - 생화,식물","category":"other"}]},{"lat":"37.380914742","long":"126.80085409","imageIndex":17,"items":[{"name":"세망스크린골프","tel":"031-507-3345","addr":"경기도 시흥시 장현동 545-5번지","indutype":"개인서비스업 - 스크린골프","category":"other"},{"name":"안심축산물전문점 시흥시청점","tel":"","addr":"경기도 시흥시 장현동 545-5번지","indutype":"소매업 - 식육","category":"other"}]},{"lat":"37.381665516","long":"126.8025796","imageIndex":17,"items":[{"name":"세일마트","tel":"031-317-9724","addr":"경기도 시흥시 장현동 548-6번지","indutype":"소매업 - 생활용품","category":"other"}]},{"lat":"37.381833208","long":"126.80052418","imageIndex":17,"items":[{"name":"소망","tel":"031-317-7292","addr":"경기도 시흥시 장현동 533-7번지","indutype":"개인서비스업 - 이발소","category":"other"}]},{"lat":"37.38111134","long":"126.79990512","imageIndex":17,"items":[{"name":"시흥기업","tel":"031-317-1117","addr":"경기도 시흥시 장현동 537-4번지","indutype":"제조업 - 철구조물,디자인","category":"other"}]},{"lat":"37.379855429","long":"126.80313765","imageIndex":17,"items":[{"name":"시흥꿈상회 시흥시청점","tel":"070-7797-4989","addr":"경기도 시흥시 장현동 300번지","indutype":"소매업 - 선물용품,민예품 소매업","category":"other"},{"name":"시흥시청직장금고","tel":"031-310-2950","addr":"경기도 시흥시 장현동 300번지","indutype":"소매업 - 식잡,담배","category":"other"}]},{"lat":"37.380743975","long":"126.80110295","imageIndex":17,"items":[{"name":"씽씽노래연습장","tel":"","addr":"경기도 시흥시 장현동 544-5번지","indutype":"스포츠및여가관련서비스업 - 노래연습장","category":"other"},{"name":"한발두발놀이터협동조합","tel":"070-8803-1279","addr":"경기도 시흥시 장현동 544-5번지","indutype":"교육서비스업 - 놀이교육, 수업교구유","category":"other"}]},{"lat":"37.381110971","long":"126.7996906","imageIndex":17,"items":[{"name":"안녕나의마카롱","tel":"","addr":"경기도 시흥시 장현동 537-8번지 102호","indutype":"제조업 - 빵및곡분과자제조업","category":"other"}]},{"lat":"37.38154993","long":"126.80349447","imageIndex":17,"items":[{"name":"연성동주민자치위원회","tel":"031-310-4717","addr":"경기도 시흥시 장현동 272-9번지 주민자치센터","indutype":"기타 -","category":"other"}]},{"lat":"37.381715749","long":"126.80033255","imageIndex":17,"items":[{"name":"온정","tel":"","addr":"경기도 시흥시 장현동 535-2번지","indutype":"소매업 - 소매","category":"other"}]},{"lat":"37.381888176","long":"126.80105472","imageIndex":17,"items":[{"name":"이벤트광고","tel":"","addr":"경기도 시흥시 장현동 532-5번지 102호","indutype":"제조업 - 사인물,판촉물 등","category":"other"}]},{"lat":"37.380859639","long":"126.80024453","imageIndex":17,"items":[{"name":"장문석법무사사무소","tel":"031-317-1377","addr":"경기도 시흥시 장현동 539-1번지 은성빌딩 201호","indutype":"개인서비스업 - 부동산중개","category":"other"}]},{"lat":"37.381246839","long":"126.800108","imageIndex":17,"items":[{"name":"주식회사 미래기업","tel":"","addr":"경기도 시흥시 장현동 536-7번지 1층 102호","indutype":"제조업 - 현수막 및 홍보용품","category":"other"}]},{"lat":"37.380552677","long":"126.79988405","imageIndex":17,"items":[{"name":"참좋은축산","tel":"031-318-0240","addr":"경기도 시흥시 장현동 539-4번지 1층","indutype":"소매업 - 축산물판매","category":"other"}]},{"lat":"37.380772294","long":"126.80185936","imageIndex":17,"items":[{"name":"클린바다짐","tel":"","addr":"경기도 시흥시 장현동 543-3번지 5층","indutype":"개인서비스업 - 헬스장","category":"other"}]},{"lat":"37.381077963","long":"126.80146336","imageIndex":17,"items":[{"name":"폰다방","tel":"031-317-4111","addr":"경기도 시흥시 장현동 544-2번지 명문타운 101호","indutype":"소매업 - 핸드폰판매,커피숍","category":"other"}]}]