[{"lat":"37.598731841","long":"127.18134378","imageIndex":17,"items":[{"name":"(주)성원지엠이엔지","tel":"031-555-2746","addr":"경기도 남양주시 수석동 1129번지","indutype":"건축자재 - 기타건축자재","category":"other"}]},{"lat":"37.586366505","long":"127.16533915","imageIndex":17,"items":[{"name":"(주)이유엔인터내셔널","tel":"031-569-1236","addr":"경기도 남양주시 수석동 394번지","indutype":"의류 - 정장","category":"other"}]},{"lat":"37.588817095","long":"127.17180946","imageIndex":17,"items":[{"name":"ANTEER KOREA","tel":"031-555-5820","addr":"경기도 남양주시 수석동 214-3번지","indutype":"신변잡화 - 신발","category":"other"},{"name":"주식회사 텍스메이드","tel":"02-533-4460","addr":"경기도 남양주시 수석동 214-3번지","indutype":"직물 - 카페트,커튼,천막,지물","category":"other"}]},{"lat":"37.586561329","long":"127.17411402","imageIndex":17,"items":[{"name":"CP소프트","tel":"031-541-9797","addr":"경기도 남양주시 수석동 136번지","indutype":"용역 서비스 - 소프트웨어","category":"other"}]},{"lat":"37.586035434","long":"127.17015019","imageIndex":17,"items":[{"name":"JDX/(주)신한코리아 미음나루점","tel":"031-568-8797","addr":"경기도 남양주시 수석동 364번지","indutype":"레져용품 - 스포츠·레져용품","category":"other"}]},{"lat":"37.596365732","long":"127.17903949","imageIndex":17,"items":[{"name":"MD코리아(MD COREA)","tel":"031-567-4057","addr":"경기도 남양주시 수석동 1074-1번지","indutype":"기타 - 기계공구","category":"other"}]},{"lat":"37.593031789","long":"127.17925809","imageIndex":17,"items":[{"name":"골프존파크","tel":"031-566-8801","addr":"경기도 남양주시 수석동 26번지 2,3층","indutype":"레져용품 - 골프용품 전문점","category":"other"}]},{"lat":"37.595113885","long":"127.17869685","imageIndex":17,"items":[{"name":"광신이엔지","tel":"031-568-0832","addr":"경기도 남양주시 수석동 1159번지","indutype":"건축자재 - 보일러·펌프·샷시","category":"other"}]},{"lat":"37.5963911","long":"127.18014924","imageIndex":17,"items":[{"name":"국제냉동설비","tel":"02-764-7118","addr":"경기도 남양주시 수석동 1085-2번지","indutype":"전기제품 - 냉열기기","category":"other"}]},{"lat":"37.589892763","long":"127.16934361","imageIndex":17,"items":[{"name":"금교상사","tel":"","addr":"경기도 남양주시 수석동 350-8번지","indutype":"레져용품 - 스포츠·레져용품","category":"other"}]},{"lat":"37.589369413","long":"127.16989724","imageIndex":17,"items":[{"name":"남양주다산로타리클럽","tel":"031-558-6223","addr":"경기도 남양주시 수석동 349-3번지","indutype":"기타 - 비영리/비대상","category":"other"}]},{"lat":"37.588508447","long":"127.16706477","imageIndex":17,"items":[{"name":"누리밴딩/게이트뱅크(일반)","tel":"","addr":"경기도 남양주시 수석동 338-1번지","indutype":"기타 - 기타 전문점","category":"other"}]},{"lat":"37.585926304","long":"127.17086322","imageIndex":17,"items":[{"name":"다산","tel":"031-555-7733","addr":"경기도 남양주시 수석동 201번지","indutype":"레져용품 - 골프용품 전문점","category":"other"}]},{"lat":"37.588926827","long":"127.17067748","imageIndex":17,"items":[{"name":"다원종합주방","tel":"031-555-5105","addr":"경기도 남양주시 수석동 212-5번지","indutype":"주방용구 - 주방용구","category":"other"}]},{"lat":"37.589280769","long":"127.16886671","imageIndex":17,"items":[{"name":"대광발코니","tel":"031-566-0581","addr":"경기도 남양주시 수석동 343번지","indutype":"건축자재 - 기타건축자재","category":"other"}]},{"lat":"37.589835958","long":"127.17127961","imageIndex":17,"items":[{"name":"레브스에스제이","tel":"031-557-5721","addr":"경기도 남양주시 수석동 248-2번지","indutype":"주방용구 - 주방용구","category":"other"}]},{"lat":"37.594395037","long":"127.17739301","imageIndex":17,"items":[{"name":"미의 뜰","tel":"031-558-9410","addr":"경기도 남양주시 수석동 1182-3번지","indutype":"가구 - 일반가구","category":"other"}]},{"lat":"37.592615337","long":"127.1805932","imageIndex":17,"items":[{"name":"미호박물관","tel":"031-566-7377","addr":"경기도 남양주시 수석동 3-1번지","indutype":"문화.취미 - 티켓","category":"other"}]},{"lat":"37.591150152","long":"127.17214308","imageIndex":17,"items":[{"name":"바이네르아울렛","tel":"031-569-3117","addr":"경기도 남양주시 수석동 255번지","indutype":"신변잡화 - 가방","category":"other"}]},{"lat":"37.595671034","long":"127.17967196","imageIndex":17,"items":[{"name":"색디자인","tel":"031-558-5340","addr":"경기도 남양주시 수석동 1106-2번지","indutype":"서적문구 - 출판 및 인쇄물","category":"other"}]},{"lat":"37.591841383","long":"127.18000258","imageIndex":17,"items":[{"name":"석실농원","tel":"031-565-4618","addr":"경기도 남양주시 수석동 7-3번지","indutype":"문화.취미 - 화원","category":"other"}]},{"lat":"37.586810514","long":"127.16998209","imageIndex":17,"items":[{"name":"세븐일레븐미음나루점","tel":"031-1577-0711","addr":"경기도 남양주시 수석동 369번지 1층","indutype":"유통업 영리 - 편 의 점","category":"other"},{"name":"아크디자인(ARK design)","tel":"031-521-3311","addr":"경기도 남양주시 수석동 369번지","indutype":"가구 - 일반가구","category":"other"},{"name":"에이스스포츠","tel":"031-567-8283","addr":"경기도 남양주시 수석동 369번지","indutype":"레져용품 - 스포츠·레져용품","category":"other"}]},{"lat":"37.598370199","long":"127.18216955","imageIndex":17,"items":[{"name":"싸인텍(주)","tel":"031-551-8822","addr":"경기도 남양주시 수석동 1131-2번지","indutype":"건축자재 - 기타건축자재","category":"other"}]},{"lat":"37.587919706","long":"127.1692826","imageIndex":17,"items":[{"name":"아임이앤씨","tel":"031-569-2777","addr":"경기도 남양주시 수석동 374번지","indutype":"전기제품 - 냉열기기","category":"other"}]},{"lat":"37.588757022","long":"127.16970339","imageIndex":17,"items":[{"name":"에이스침대 구리점","tel":"031-566-9998","addr":"경기도 남양주시 수석동 347번지","indutype":"가구 - 일반가구","category":"other"},{"name":"제이엘티엠(JLTM)유통","tel":"031-564-6540","addr":"경기도 남양주시 수석동 347번지","indutype":"레져용품 - 스포츠·레져용품","category":"other"}]},{"lat":"37.598703765","long":"127.18203446","imageIndex":17,"items":[{"name":"에이치에스(HS)컴퍼니","tel":"031-1661-8604","addr":"경기도 남양주시 수석동 1131-1번지","indutype":"용역 서비스 - 종합용역","category":"other"}]},{"lat":"37.588586779","long":"127.169035","imageIndex":17,"items":[{"name":"영원프라자","tel":"02-3424-3036","addr":"경기도 남양주시 수석동 346-3번지","indutype":"전기제품 - 가전제품","category":"other"}]},{"lat":"37.590838867","long":"127.1692891","imageIndex":17,"items":[{"name":"예일그래픽포토스튜디오","tel":"031-553-5106","addr":"경기도 남양주시 수석동 351","indutype":"광학제품 - 사진관","category":"other"}]},{"lat":"37.589475519","long":"127.17131276","imageIndex":17,"items":[{"name":"자연그래픽","tel":"070-8628-7870","addr":"경기도 남양주시 수석동 223번지 201호","indutype":"서적문구 - 출판 및 인쇄물","category":"other"}]},{"lat":"37.595922849","long":"127.17997828","imageIndex":17,"items":[{"name":"장원공조","tel":"070-7759-2441","addr":"경기도 남양주시 수석동 1107-3번지 G.S.L물류내","indutype":"전기제품 - 가전제품","category":"other"}]},{"lat":"37.588872253","long":"127.17103967","imageIndex":17,"items":[{"name":"주식회사 비알코퍼레이션","tel":"031-1522-2508","addr":"경기도 남양주시 수석동 213번지 2층","indutype":"사무통신 - 통신기기","category":"other"}]},{"lat":"37.592977289","long":"127.1734267","imageIndex":17,"items":[{"name":"주식회사 엘엔디컴퍼니","tel":"02-6749-7709","addr":"경기도 남양주시 수석동 266번지 1층","indutype":"의류 - 정장","category":"other"}]},{"lat":"37.595230302","long":"127.1791727","imageIndex":17,"items":[{"name":"퍼펙트독애견훈련학교","tel":"031-553-4924","addr":"경기도 남양주시 수석동 1158번지","indutype":"문화.취미 - 애완동물","category":"other"}]},{"lat":"37.598311396","long":"127.17933849","imageIndex":17,"items":[{"name":"피엠 (P.M)스포츠","tel":"","addr":"경기도 남양주시 수석동 1078번지","indutype":"레져용품 - 스포츠·레져용품","category":"other"}]},{"lat":"37.593673239","long":"127.17189969","imageIndex":17,"items":[{"name":"한농업기계","tel":"031-565-3081","addr":"경기도 남양주시 수석동 285-3번지","indutype":"농업 - 농기계","category":"other"}]},{"lat":"37.58947899","long":"127.17515103","imageIndex":17,"items":[{"name":"해피동산","tel":"031-562-4997","addr":"경기도 남양주시 수석동 산2-28번지","indutype":"문화.취미 - 화원","category":"other"},{"name":"해피동산","tel":"031-562-4997","addr":"경기도 남양주시 수석동 산2-28번지","indutype":"문화.취미 - 화원","category":"other"}]},{"lat":"37.585975109","long":"127.16820271","imageIndex":17,"items":[{"name":"현대콘테이너","tel":"031-566-6699","addr":"경기도 남양주시 수석동 385-21번지","indutype":"건축자재 - 기타건축자재","category":"other"}]}]