[{"lat":"37.27545448","long":"126.9426728","imageIndex":7,"items":[{"name":"가람떡","tel":"031-227-6971","addr":"경기도 수원시 권선구 금곡동 1076번지 가온마을3단지 303동 602호","indutype":"음료식품 - 기타음료식품","category":"food"}]},{"lat":"37.278316004","long":"126.95411521","imageIndex":7,"items":[{"name":"경기공판정육점","tel":"031-295-0640","addr":"경기도 수원시 권선구 금곡동 77-8번지 금곡프라자 1층 104호","indutype":"음료식품 - 정육점","category":"food"}]},{"lat":"37.27387733","long":"126.94198629","imageIndex":7,"items":[{"name":"고기백화점","tel":"031-896-5522","addr":"경기도 수원시 권선구 금곡동 1085-2번지 우성메디피아 1층 103호","indutype":"음료식품 - 정육점","category":"food"}]},{"lat":"37.270071326","long":"126.95345534","imageIndex":7,"items":[{"name":"구움D","tel":"","addr":"경기도 수원시 권선구 금곡동 245-3번지 1층","indutype":"음료식품 - 기타음료식품","category":"food"}]},{"lat":"37.273958734","long":"126.94259507","imageIndex":7,"items":[{"name":"국선생금곡점/(주)홈스푸드","tel":"031-227-2253","addr":"경기도 수원시 권선구 금곡동 1085-3번지 이수프라자 1층 102호","indutype":"음료식품 - 기타음료식품","category":"food"}]},{"lat":"37.272011842","long":"126.94128877","imageIndex":7,"items":[{"name":"굿샵 호매실점","tel":"031-292-9008","addr":"경기도 수원시 권선구 금곡동 1083-2번지 주공프라자 1층 108호","indutype":"음료식품 - 기타음료식품","category":"food"}]},{"lat":"37.272705533","long":"126.94109653","imageIndex":7,"items":[{"name":"금곡상회","tel":"031-278-2751","addr":"경기도 수원시 권선구 금곡동 1083번지 플리프라자 1층 112호","indutype":"음료식품 - 농·축·수산품","category":"food"}]},{"lat":"37.272793107","long":"126.93642872","imageIndex":7,"items":[{"name":"금곡정육점","tel":"031-296-7177","addr":"경기도 수원시 권선구 금곡동 530번지 엘지빌리지종합상가 119호","indutype":"음료식품 - 정육점","category":"food"}]},{"lat":"37.274564692","long":"126.94722861","imageIndex":7,"items":[{"name":"깨금상회","tel":"031-273-0580","addr":"경기도 수원시 권선구 금곡동 1072번지 수원호매실휴먼시아4단지 404동 601호","indutype":"음료식품 - 농·축·수산품","category":"food"}]},{"lat":"37.272487874","long":"126.95795236","imageIndex":7,"items":[{"name":"꽃차 자수를만나다","tel":"","addr":"경기도 수원시 권선구 금곡동 1130번지 1층","indutype":"음료식품 - 기타음료식품","category":"food"}]},{"lat":"37.27507256","long":"126.95473743","imageIndex":7,"items":[{"name":"노천사랑방","tel":"031-227-2661","addr":"경기도 수원시 권선구 금곡동 1115-4번지 221호","indutype":"음료식품 - 기타음료식품","category":"food"}]},{"lat":"37.269317009","long":"126.93984786","imageIndex":7,"items":[{"name":"농업회사법인 (주)농업생명회사 그린플래닛","tel":"031-293-0982","addr":"경기도 수원시 권선구 금곡동 1100번지 칠보마을6단지 609층 403호","indutype":"음료식품 - 농·축·수산품","category":"food"}]},{"lat":"37.272345151","long":"126.9411532","imageIndex":7,"items":[{"name":"늘베이커리","tel":"031-297-6393","addr":"경기도 수원시 권선구 금곡동 1083-1번지 107호","indutype":"음료식품 - 제과점","category":"food"},{"name":"진이찬방 호매실금곡점","tel":"031-295-3345","addr":"경기도 수원시 권선구 금곡동 1083-1번지 호매실프라자 1층 105호","indutype":"음료식품 - 기타음료식품","category":"food"}]},{"lat":"37.272346147","long":"126.94309244","imageIndex":7,"items":[{"name":"담아담아 호매실점","tel":"070-7872-4298","addr":"경기도 수원시 권선구 금곡동 1091-2번지 1층","indutype":"음료식품 - 제과점","category":"food"}]},{"lat":"37.27015439","long":"126.95842727","imageIndex":7,"items":[{"name":"대가떡방앗간","tel":"031-8081-7984","addr":"경기도 수원시 권선구 금곡동 240-33번지 1층","indutype":"음료식품 - 제과점","category":"food"}]},{"lat":"37.273814782","long":"126.94301235","imageIndex":7,"items":[{"name":"대박집","tel":"","addr":"경기도 수원시 권선구 금곡동 1085-4번지 1층 106호","indutype":"음료식품 - 농·축·수산품","category":"food"},{"name":"블럭제빵소","tel":"031-297-0400","addr":"경기도 수원시 권선구 금곡동 1085-4번지 유동타워 1층 110호","indutype":"음료식품 - 제과점","category":"food"},{"name":"솔직한반찬","tel":"031-293-1188","addr":"경기도 수원시 권선구 금곡동 1085-4번지 유동타워 115호","indutype":"음료식품 - 기타음료식품","category":"food"},{"name":"스위트파티 호매실점","tel":"031-227-4353","addr":"경기도 수원시 권선구 금곡동 1085-4번지 유동타워 103호","indutype":"음료식품 - 기타음료식품","category":"food"},{"name":"호매실스토어","tel":"031-278-2922","addr":"경기도 수원시 권선구 금곡동 1085-4번지 105호","indutype":"건강식품 - 기타건강식품","category":"food"}]},{"lat":"37.274233842","long":"126.95290015","imageIndex":7,"items":[{"name":"대한수산","tel":"031-292-1577","addr":"경기도 수원시 권선구 금곡동 1113-4번지 해피라움 212호","indutype":"음료식품 - 농·축·수산품","category":"food"}]},{"lat":"37.273684862","long":"126.95445644","imageIndex":7,"items":[{"name":"더달달수원금곡점","tel":"070-7423-6603","addr":"경기도 수원시 권선구 금곡동 1117-5번지 SG프라자 103호","indutype":"음료식품 - 기타음료식품","category":"food"},{"name":"팡드슈","tel":"031-292-5025","addr":"경기도 수원시 권선구 금곡동 1117-5번지 109호","indutype":"음료식품 - 제과점","category":"food"}]},{"lat":"37.273460007","long":"126.95544877","imageIndex":7,"items":[{"name":"도쿄팡야 호매실점","tel":"031-548-1782","addr":"경기도 수원시 권선구 금곡동 1125번지 서울JS프라자 105호","indutype":"음료식품 - 제과점","category":"food"}]},{"lat":"37.274072226","long":"126.95426452","imageIndex":7,"items":[{"name":"드림로또마켓","tel":"","addr":"경기도 수원시 권선구 금곡동 1117번지 127호","indutype":"음료식품 - 기타음료식품","category":"food"},{"name":"떡마당","tel":"031-292-5393","addr":"경기도 수원시 권선구 금곡동 1117번지 105호","indutype":"음료식품 - 제과점","category":"food"},{"name":"쌀눈쌀현미누룽지","tel":"","addr":"경기도 수원시 권선구 금곡동 1117번지 1층 128호","indutype":"음료식품 - 기타음료식품","category":"food"},{"name":"정관장 호매실점","tel":"031-298-2304","addr":"경기도 수원시 권선구 금곡동 1117번지 1층 104호","indutype":"건강식품 - 홍삼제품","category":"food"}]},{"lat":"37.272317299","long":"126.93959732","imageIndex":7,"items":[{"name":"떡갈나무","tel":"031-295-9448","addr":"경기도 수원시 권선구 금곡동 1081번지 수원호매실휴먼시아5단지 나상가 519동 107호","indutype":"음료식품 - 제과점","category":"food"},{"name":"엄마네꼬마김밥","tel":"031-292-9500","addr":"경기도 수원시 권선구 금곡동 1081번지 수원호매실휴먼시아5단지아파트 104호 가상가동","indutype":"음료식품 - 기타음료식품","category":"food"}]},{"lat":"37.271795997","long":"126.94206689","imageIndex":7,"items":[{"name":"뚜레쥬르 호매실점","tel":"031-298-6288","addr":"경기도 수원시 권선구 금곡동 1087번지 1층 104호","indutype":"음료식품 - 제과점","category":"food"}]},{"lat":"37.273264828","long":"126.94237013","imageIndex":7,"items":[{"name":"라몽떼","tel":"031-298-1122","addr":"경기도 수원시 권선구 금곡동 1088번지","indutype":"음료식품 - 제과점","category":"food"}]},{"lat":"37.275538217","long":"126.94811863","imageIndex":7,"items":[{"name":"라온매점","tel":"","addr":"경기도 수원시 권선구 금곡동 1071번지 칠보체육관","indutype":"음료식품 - 기타음료식품","category":"food"}]},{"lat":"37.273210483","long":"126.94181771","imageIndex":7,"items":[{"name":"로또 2 5 시","tel":"031-294-4149","addr":"경기도 수원시 권선구 금곡동 1085번지 비즈웍스 111호","indutype":"음료식품 - 기타음료식품","category":"food"},{"name":"벽계수스파내매점","tel":"031-223-5214","addr":"경기도 수원시 권선구 금곡동 1085번지 비즈웍스 601호","indutype":"음료식품 - 기타음료식품","category":"food"},{"name":"스튜디오 오늘","tel":"02-0000-0000","addr":"경기도 수원시 권선구 금곡동 1085번지 비지윅스 3층 327호","indutype":"음료식품 - 기타음료식품","category":"food"},{"name":"안심축산물판매점","tel":"031-294-4592","addr":"경기도 수원시 권선구 금곡동 1085번지 1층 127,128호","indutype":"음료식품 - 정육점","category":"food"},{"name":"장독대금곡점","tel":"031-298-5233","addr":"경기도 수원시 권선구 금곡동 1085번지 비즈웍스 1층 110호","indutype":"음료식품 - 기타음료식품","category":"food"}]},{"lat":"37.273373221","long":"126.94289996","imageIndex":7,"items":[{"name":"물랑드파리","tel":"031-227-6809","addr":"경기도 수원시 권선구 금곡동 1088-1번지 일담타워 1층 112호","indutype":"음료식품 - 제과점","category":"food"},{"name":"손두부한모","tel":"031-000-0000","addr":"경기도 수원시 권선구 금곡동 1088-1번지 일담타워 1층 108호","indutype":"음료식품 - 기타음료식품","category":"food"},{"name":"주식회사 자이언트킹","tel":"031-269-5100","addr":"경기도 수원시 권선구 금곡동 1088-1번지 일담타워 105호","indutype":"음료식품 - 기타음료식품","category":"food"}]},{"lat":"37.2704849","long":"126.95134676","imageIndex":7,"items":[{"name":"밀","tel":"","addr":"경기도 수원시 권선구 금곡동 1147번지 호반베르디움더센트럴 311(상가)동 107호","indutype":"음료식품 - 제과점","category":"food"},{"name":"청년정육점","tel":"031-227-4618","addr":"경기도 수원시 권선구 금곡동 1147번지 호반베르디움더센트럴 311동 106호","indutype":"음료식품 - 정육점","category":"food"}]},{"lat":"37.270983605","long":"126.95914835","imageIndex":7,"items":[{"name":"베스킨라빈스 (금곡점)","tel":"031-295-5309","addr":"경기도 수원시 권선구 금곡동 1138번지","indutype":"음료식품 - 제과점","category":"food"}]},{"lat":"37.27309918","long":"126.95442299","imageIndex":7,"items":[{"name":"비타민","tel":"","addr":"경기도 수원시 권선구 금곡동 1124번지 광일프라자 112호","indutype":"음료식품 - 농·축·수산품","category":"food"}]},{"lat":"37.27548934","long":"126.9403952","imageIndex":7,"items":[{"name":"뻥튀기공작소","tel":"070-7543-3121","addr":"경기도 수원시 권선구 금곡동 1077번지 수원모아미래도센트럴타운2단지 B동 213호","indutype":"음료식품 - 기타음료식품","category":"food"},{"name":"손이가는반찬","tel":"031-360-7676","addr":"경기도 수원시 권선구 금곡동 1077번지 수원모아미래도센트럴타운2단지 상가동 B226호","indutype":"음료식품 - 기타음료식품","category":"food"},{"name":"아싸비어 호매실점","tel":"031-295-4425","addr":"경기도 수원시 권선구 금곡동 1077번지 수원모아미래도센트럴타운2단지 상가동 비201호,비202호","indutype":"음료식품 - 기타음료식품","category":"food"},{"name":"이두부야","tel":"","addr":"경기도 수원시 권선구 금곡동 1077번지 수원모아미래도센트럴타운2단지 상가 B230호","indutype":"음료식품 - 기타음료식품","category":"food"}]},{"lat":"37.270711121","long":"126.93534821","imageIndex":7,"items":[{"name":"상촌달팽이","tel":"","addr":"경기도 수원시 권선구 금곡동 732번지","indutype":"음료식품 - 농·축·수산품","category":"food"}]},{"lat":"37.275152209","long":"126.93365298","imageIndex":7,"items":[{"name":"서울떡집","tel":"031-298-0203","addr":"경기도 수원시 권선구 금곡동 520번지 LG빌리지주상가동B01호","indutype":"음료식품 - 제과점","category":"food"}]},{"lat":"37.273786836","long":"126.94123095","imageIndex":7,"items":[{"name":"서현이네 정육점","tel":"031-297-0403","addr":"경기도 수원시 권선구 금곡동 1082번지 칠보프라자 105호","indutype":"음료식품 - 정육점","category":"food"},{"name":"파리바게트 금곡칠보점","tel":"031-278-6576","addr":"경기도 수원시 권선구 금곡동 1082번지 109호-110호","indutype":"음료식품 - 제과점","category":"food"}]},{"lat":"37.2790658","long":"126.95908729","imageIndex":7,"items":[{"name":"성주농장","tel":"031-278-1520","addr":"경기도 수원시 권선구 금곡동 51-1","indutype":"음료식품 - 농·축·수산품","category":"food"}]},{"lat":"37.275542165","long":"126.93809503","imageIndex":7,"items":[{"name":"소담스레","tel":"","addr":"경기도 수원시 권선구 금곡동 1078번지 수원모아미래도센트럴타운1단지 상가동 B125호","indutype":"음료식품 - 기타음료식품","category":"food"}]},{"lat":"37.274017323","long":"126.95225762","imageIndex":7,"items":[{"name":"슈케익하우스","tel":"031-298-7198","addr":"경기도 수원시 권선구 금곡동 1113-5번지 로얄팰리스 1층 104호","indutype":"음료식품 - 제과점","category":"food"}]},{"lat":"37.27306686","long":"126.94287765","imageIndex":7,"items":[{"name":"어사출또","tel":"031-295-3999","addr":"경기도 수원시 권선구 금곡동 1088-2번지 리치빌딩 1층 101호","indutype":"음료식품 - 농·축·수산품","category":"food"}]},{"lat":"37.270235546","long":"126.95859634","imageIndex":7,"items":[{"name":"엄마반찬","tel":"031-298-8859","addr":"경기도 수원시 권선구 금곡동 240-34번지 1층","indutype":"음료식품 - 기타음료식품","category":"food"}]},{"lat":"37.26982061","long":"126.93804356","imageIndex":7,"items":[{"name":"엘지상촌방앗간","tel":"031-296-2959","addr":"경기도 수원시 권선구 금곡동 756-5번지 1층","indutype":"음료식품 - 제과점","category":"food"}]},{"lat":"37.273288635","long":"126.95500916","imageIndex":7,"items":[{"name":"원브레드","tel":"031-295-9920","addr":"경기도 수원시 권선구 금곡동 1124-2번지 CM타워 109호","indutype":"음료식품 - 제과점","category":"food"}]},{"lat":"37.273318261","long":"126.9411524","imageIndex":7,"items":[{"name":"잇카롱","tel":"","addr":"경기도 수원시 권선구 금곡동 1082-1번지 센타프라자 1층 112호","indutype":"음료식품 - 기타음료식품","category":"food"}]},{"lat":"37.27912799","long":"126.95676447","imageIndex":7,"items":[{"name":"정수농장","tel":"031-227-3172","addr":"경기도 수원시 권선구 금곡동 29-1, 28번지","indutype":"음료식품 - 농·축·수산품","category":"food"}]},{"lat":"37.272735463","long":"126.94692554","imageIndex":7,"items":[{"name":"제이디유통","tel":"","addr":"경기도 수원시 권선구 금곡동 1095번지 수원호매실휴먼시아8단지 801동 803호","indutype":"음료식품 - 농·축·수산품","category":"food"},{"name":"행복한정육","tel":"031-265-3389","addr":"경기도 수원시 권선구 금곡동 1095번지 수원호매실휴먼시아8단지 상가동 101호","indutype":"음료식품 - 정육점","category":"food"}]},{"lat":"37.271595654","long":"126.95742299","imageIndex":7,"items":[{"name":"주식회사 두경컴퍼니","tel":"031-292-1003","addr":"경기도 수원시 권선구 금곡동 1134-5번지","indutype":"음료식품 - 기타음료식품","category":"food"}]},{"lat":"37.275406375","long":"126.95581963","imageIndex":7,"items":[{"name":"찬란수산","tel":"031-298-9868","addr":"경기도 수원시 권선구 금곡동 1115-2번지 110호","indutype":"음료식품 - 농·축·수산품","category":"food"}]},{"lat":"37.279704207","long":"126.95564782","imageIndex":7,"items":[{"name":"칠보농장","tel":"032-111-1111","addr":"경기도 수원시 권선구 금곡동 13-2번지","indutype":"음료식품 - 농·축·수산품","category":"food"}]},{"lat":"37.269793706","long":"126.95770593","imageIndex":7,"items":[{"name":"칠보떡방","tel":"031-292-7579","addr":"경기도 수원시 권선구 금곡동 240-27번지 1층","indutype":"음료식품 - 제과점","category":"food"}]},{"lat":"37.269739571","long":"126.9575143","imageIndex":7,"items":[{"name":"파리바게뜨","tel":"031-296-0489","addr":"경기도 수원시 권선구 금곡동 241-3번지","indutype":"음료식품 - 제과점","category":"food"}]},{"lat":"37.274765737","long":"126.95358757","imageIndex":7,"items":[{"name":"파리바게트 호매실역점","tel":"031-000-0000","addr":"경기도 수원시 권선구 금곡동 1114번지 딜라이트1 108,109호","indutype":"음료식품 - 제과점","category":"food"}]},{"lat":"37.268900045","long":"126.9535914","imageIndex":7,"items":[{"name":"파리바게트호매실점","tel":"031-295-4556","addr":"경기도 수원시 권선구 금곡동 245-66번지","indutype":"음료식품 - 제과점","category":"food"}]},{"lat":"37.275378567","long":"126.95390288","imageIndex":7,"items":[{"name":"프레그뉴트(PREGNUTE)","tel":"032-329-6800","addr":"경기도 수원시 권선구 금곡동 1109-2번지 2층","indutype":"건강식품 - 기타건강식품","category":"food"}]},{"lat":"37.273378169","long":"126.9536223","imageIndex":7,"items":[{"name":"황쌤점핑허브다이어트","tel":"031-297-5001","addr":"경기도 수원시 권선구 금곡동 1118-6번지 거성빌딩 405호","indutype":"건강식품 - 기타건강식품","category":"food"}]}]