[{"lat":"37.576121261","long":"127.22180511","imageIndex":16,"items":[{"name":"M큐브수학","tel":"031-4153-8229","addr":"경기도 남양주시 와부읍 도곡리 1117번지 건영덕소리버파크 108동 602호","indutype":"학원 - 보습학원","category":"study"}]},{"lat":"37.579429075","long":"127.22114687","imageIndex":16,"items":[{"name":"T-영어학원","tel":"031-521-0988","addr":"경기도 남양주시 와부읍 도곡리 996-6번지 골드타워 501호","indutype":"학원 - 보습학원","category":"study"},{"name":"연정다례문화원","tel":"070-8241-1078","addr":"경기도 남양주시 와부읍 도곡리 996-6번지 골드타워 1002호","indutype":"회원제형태 - 학원","category":"study"},{"name":"채움수학학원","tel":"031-576-9311","addr":"경기도 남양주시 와부읍 도곡리 996-6번지 골드타워 502호","indutype":"학원 - 보습학원","category":"study"}]},{"lat":"37.575372209","long":"127.23655309","imageIndex":16,"items":[{"name":"건국승마","tel":"031-521-6288","addr":"경기도 남양주시 와부읍 도곡리 305-3","indutype":"회원제형태 - 학원","category":"study"}]},{"lat":"37.579402464","long":"127.22092038","imageIndex":16,"items":[{"name":"경희체육관","tel":"031-577-7634","addr":"경기도 남양주시 와부읍 도곡리 996-4번지","indutype":"학원 - 기타 교육기관","category":"study"},{"name":"남양주 크낙새 태권도장","tel":"070-8945-3313","addr":"경기도 남양주시 와부읍 도곡리 996-4번지","indutype":"학원 - 예·체능계학원","category":"study"},{"name":"덕소창조의 아침미술학원","tel":"031-576-4220","addr":"경기도 남양주시 와부읍 도곡리 996-4번지 외2필지 8층 801호","indutype":"학원 - 예·체능계학원","category":"study"},{"name":"덕소창조의 아침미술학원","tel":"031-576-4220","addr":"경기도 남양주시 와부읍 도곡리 996-4번지 외2필지 8층 801호","indutype":"학원 - 예·체능계학원","category":"study"},{"name":"신탑학원","tel":"031-521-0757","addr":"경기도 남양주시 와부읍 도곡리 996-4번지 3층","indutype":"학원 - 보습학원","category":"study"},{"name":"최용훈국어에이펙스학원","tel":"031-577-5503","addr":"경기도 남양주시 와부읍 도곡리 996-4번지 지소2 3층","indutype":"학원 - 보습학원","category":"study"}]},{"lat":"37.577096252","long":"127.22558899","imageIndex":16,"items":[{"name":"경희클래식음악학원","tel":"031-527-7575","addr":"경기도 남양주시 와부읍 도곡리 1062-18번지 강변스포렉스 504호","indutype":"학원 - 예·체능계학원","category":"study"},{"name":"대한태권도스쿨","tel":"031-577-6800","addr":"경기도 남양주시 와부읍 도곡리 1062-18 강변스포렉스 606.607호","indutype":"학원 - 예·체능계학원","category":"study"},{"name":"덕소큐이엠학원","tel":"031-521-0578","addr":"경기도 남양주시 와부읍 도곡리 1062-18번지 강변스포렉스 507호","indutype":"학원 - 보습학원","category":"study"},{"name":"도곡한국UPI학원","tel":"031-521-4115","addr":"경기도 남양주시 와부읍 도곡리 1062-18번지 강변스포렉스 506호","indutype":"학원 - 보습학원","category":"study"},{"name":"에이스독서실","tel":"031-521-4438","addr":"경기도 남양주시 와부읍 도곡리 1062-18번지 강변스포렉스 706동 707호","indutype":"학원 - 독서실","category":"study"},{"name":"의치한덕소학원","tel":"031-556-1357","addr":"경기도 남양주시 와부읍 도곡리 1062-18번지 406~407호","indutype":"학원 - 보습학원","category":"study"}]},{"lat":"37.577034697","long":"127.22478506","imageIndex":16,"items":[{"name":"국어생각수학생각학원","tel":"031-717-9927","addr":"경기도 남양주시 와부읍 도곡리 1071-4번지 금강빌딩","indutype":"학원 - 보습학원","category":"study"}]},{"lat":"37.580096789","long":"127.21566951","imageIndex":16,"items":[{"name":"김현아음악학원","tel":"031-577-3156","addr":"경기도 남양주시 와부읍 도곡리 985번지 덕소두산위브아파트 402,403호","indutype":"회원제형태 - 학원","category":"study"},{"name":"뉴베리영어교습소","tel":"031-521-9505","addr":"경기도 남양주시 와부읍 도곡리 985번지 두산 상가 304호","indutype":"학원 - 외국어학원","category":"study"},{"name":"어필황국오교습소","tel":"031-577-8164","addr":"경기도 남양주시 와부읍 도곡리 985번지 두산 상가 307호","indutype":"회원제형태 - 학원","category":"study"}]},{"lat":"37.564677009","long":"127.23683661","imageIndex":16,"items":[{"name":"꽃드란농원","tel":"031-576-1076","addr":"경기도 남양주시 와부읍 도곡리 448-2번지","indutype":"학원 - 기타 교육기관","category":"study"}]},{"lat":"37.579506929","long":"127.21799992","imageIndex":16,"items":[{"name":"남양주도곡초등학교병설유치원[아이행복]","tel":"031-521-5305","addr":"경기도 남양주시 와부읍 도곡리 산46-7번지 남양주도곡초등학교","indutype":"학원 - 유치원","category":"study"}]},{"lat":"37.57939454","long":"127.22033167","imageIndex":16,"items":[{"name":"뉴스카이독서실","tel":"031-521-4435","addr":"경기도 남양주시 와부읍 도곡리 997-10번지 3층 302호","indutype":"학원 - 독서실","category":"study"},{"name":"에이블청담(ABLE ChungDam)학원","tel":"031-521-8655","addr":"경기도 남양주시 와부읍 도곡리 997-10번지 2층 일부","indutype":"학원 - 보습학원","category":"study"},{"name":"투비스마트학원","tel":"031-577-1028","addr":"경기도 남양주시 와부읍 도곡리 997-10번지 301호","indutype":"학원 - 보습학원","category":"study"}]},{"lat":"37.575679469","long":"127.22197362","imageIndex":16,"items":[{"name":"달콩피아노교습소","tel":"070-8754-9280","addr":"경기도 남양주시 와부읍 도곡리 1117번지 1층 205호,206호","indutype":"학원 - 예·체능계학원","category":"study"},{"name":"셈수학교습소","tel":"031-512-2966","addr":"경기도 남양주시 와부읍 도곡리 1117 건영상가210호","indutype":"회원제형태 - 학원","category":"study"}]},{"lat":"37.579311655","long":"127.22130502","imageIndex":16,"items":[{"name":"덕소토마스국제어학원","tel":"031-576-0579","addr":"경기도 남양주시 와부읍 도곡리 1027-10번지","indutype":"학원 - 외국어학원","category":"study"}]},{"lat":"37.580262655","long":"127.23749669","imageIndex":16,"items":[{"name":"도곡개구리어린이집[아이행복]","tel":"070-4201-1214","addr":"경기도 남양주시 와부읍 도곡리 721-1","indutype":"학원 - 유아원","category":"study"}]},{"lat":"37.576619269","long":"127.22530456","imageIndex":16,"items":[{"name":"도곡큐이엠학원","tel":"031-000-0000","addr":"경기도 남양주시 와부읍 도곡리 1090-1번지 3층","indutype":"학원 - 보습학원","category":"study"}]},{"lat":"37.580065605","long":"127.22763559","imageIndex":16,"items":[{"name":"도심초등학교병설유치원[아이행복]","tel":"031-521-9827","addr":"경기도 남양주시 와부읍 도곡리 1051-7번지 도심초등학교","indutype":"학원 - 유치원","category":"study"}]},{"lat":"37.578145177","long":"127.21869788","imageIndex":16,"items":[{"name":"따뜻한11월학원","tel":"070-4150-4911","addr":"경기도 남양주시 와부읍 도곡리 991-5번지 도곡빌딩 301호","indutype":"학원 - 보습학원","category":"study"},{"name":"수력발전소 수학학원","tel":"","addr":"경기도 남양주시 와부읍 도곡리 991-5번지 도곡빌딩 2층 201호","indutype":"학원 - 보습학원","category":"study"}]},{"lat":"37.576144452","long":"127.22386547","imageIndex":16,"items":[{"name":"로얄킨더어린이집[아이행복]","tel":"031-576-0747","addr":"경기도 남양주시 와부읍 도곡리 1086-5번지","indutype":"학원 - 유아원","category":"study"}]},{"lat":"37.576648171","long":"127.22430845","imageIndex":16,"items":[{"name":"로얄킨더어린이집[아이행복]","tel":"031-576-9101","addr":"경기도 남양주시 와부읍 도곡리 1087-3","indutype":"학원 - 유아원","category":"study"}]},{"lat":"37.580923024","long":"127.21714359","imageIndex":16,"items":[{"name":"미성음악학원","tel":"031-577-1243","addr":"경기도 남양주시 와부읍 도곡리 976-1번지 벽산상가 304.305호","indutype":"학원 - 예·체능계학원","category":"study"}]},{"lat":"37.575951327","long":"127.23066837","imageIndex":16,"items":[{"name":"사단법인한국숲밧줄놀이연구회","tel":"031-576-9559","addr":"경기도 남양주시 와부읍 도곡리 575-2번지","indutype":"학원 - 기타 교육기관","category":"study"},{"name":"아이다움숲,자연놀이 숲생태교육연구소","tel":"031-521-5152","addr":"경기도 남양주시 와부읍 도곡리 575-2번지","indutype":"학원 - 기타 교육기관","category":"study"}]},{"lat":"37.579261723","long":"127.21906336","imageIndex":16,"items":[{"name":"스마트바둑학원","tel":"031-521-5921","addr":"경기도 남양주시 와부읍 도곡리 982-10번지 한강프라자 203호","indutype":"학원 - 기타 교육기관","category":"study"},{"name":"윤선생영어숲덕소동학원/도곡","tel":"031-553-0505","addr":"경기도 남양주시 와부읍 도곡리 982-10번지 한강프라자 4층","indutype":"학원 - 보습학원","category":"study"}]},{"lat":"37.577617451","long":"127.23102438","imageIndex":16,"items":[{"name":"시립와부어린이집[아이행복]","tel":"031-576-6868","addr":"경기도 남양주시 와부읍 도곡리 649-1번지","indutype":"학원 - 유아원","category":"study"},{"name":"시립와부어린이집[아이행복]","tel":"031-576-6868","addr":"경기도 남양주시 와부읍 도곡리 649-1번지","indutype":"학원 - 유아원","category":"study"}]},{"lat":"37.578259149","long":"127.22525283","imageIndex":16,"items":[{"name":"쎈수학러닝센터도곡학원","tel":"031-512-9202","addr":"경기도 남양주시 와부읍 도곡리 1060-2번지 가은빌딩 2층 203호","indutype":"학원 - 보습학원","category":"study"}]},{"lat":"37.59203527","long":"127.23908485","imageIndex":16,"items":[{"name":"안골예절학교","tel":"031-521-2238","addr":"경기도 남양주시 와부읍 도곡리 49-3 외1필지","indutype":"학원 - 기타 교육기관","category":"study"}]},{"lat":"37.576399681","long":"127.22228138","imageIndex":16,"items":[{"name":"알콩미술학원","tel":"070-7126-9280","addr":"경기도 남양주시 와부읍 도곡리 1079-4번지 태양빌딩 2층 2일부","indutype":"학원 - 예·체능계학원","category":"study"}]},{"lat":"37.577479671","long":"127.2229185","imageIndex":16,"items":[{"name":"연세대태랑태권도장","tel":"031-521-3500","addr":"경기도 남양주시 와부읍 도곡리 1012번지 우성 상가 307호","indutype":"학원 - 예·체능계학원","category":"study"}]},{"lat":"37.578674614","long":"127.21986543","imageIndex":16,"items":[{"name":"예솔어린이집[아이행복]","tel":"031-521-0556","addr":"경기도 남양주시 와부읍 도곡리 993번지 쌍용아파트","indutype":"학원 - 유아원","category":"study"}]},{"lat":"37.576619887","long":"127.22497627","imageIndex":16,"items":[{"name":"와부빛예꼬어린이집[아이행복]","tel":"031-577-2345","addr":"경기도 남양주시 와부읍 도곡리 1089-5번지","indutype":"학원 - 유아원","category":"study"}]},{"lat":"37.577178278","long":"127.22509113","imageIndex":16,"items":[{"name":"윤선생우리집앞영어교실도심학원","tel":"031-576-0595","addr":"경기도 남양주시 와부읍 도곡리 1062-20번지 외1필지","indutype":"학원 - 보습학원","category":"study"}]},{"lat":"37.568287695","long":"127.23796849","imageIndex":16,"items":[{"name":"주식회사 경기항공","tel":"031-576-0801","addr":"경기도 남양주시 와부읍 도곡리 356번지 신한농산 (주)사무실 2동","indutype":"학원 - 기능학원","category":"study"}]},{"lat":"37.577121894","long":"127.23103419","imageIndex":16,"items":[{"name":"주식회사 피스빌딩","tel":"031-577-8690","addr":"경기도 남양주시 와부읍 도곡리 594-9번지","indutype":"학원 - 외국어학원","category":"study"}]},{"lat":"37.576369548","long":"127.22394538","imageIndex":16,"items":[{"name":"지예피아노","tel":"031-577-3199","addr":"경기도 남양주시 와부읍 도곡리 1086-1","indutype":"회원제형태 - 학원","category":"study"}]},{"lat":"37.578956699","long":"127.2232285","imageIndex":16,"items":[{"name":"티엠에스학원","tel":"031-576-8334","addr":"경기도 남양주시 와부읍 도곡리 1038-3번지 도심빌딩 2층","indutype":"학원 - 보습학원","category":"study"}]},{"lat":"37.577977567","long":"127.23578012","imageIndex":16,"items":[{"name":"팀리얼","tel":"070-7808-8753","addr":"경기도 남양주시 와부읍 도곡리 685-1번지 1층","indutype":"학원 - 예·체능계학원","category":"study"}]},{"lat":"37.575625095","long":"127.22214327","imageIndex":16,"items":[{"name":"푸르니어린이집[아이행복]","tel":"031-576-4451","addr":"경기도 남양주시 와부읍 도곡리 1117번지 건영덕소리버파크 104동 101호","indutype":"학원 - 유아원","category":"study"}]},{"lat":"37.578867024","long":"127.22300182","imageIndex":16,"items":[{"name":"한스실용음악학원","tel":"031-577-8285","addr":"경기도 남양주시 와부읍 도곡리 1042-11번지 3층","indutype":"학원 - 예·체능계학원","category":"study"}]},{"lat":"37.58275754","long":"127.22391898","imageIndex":16,"items":[{"name":"한옥예술 어린이집[아이행복]","tel":"031-576-0019","addr":"경기도 남양주시 와부읍 도곡리 946-6번지 외2필지","indutype":"학원 - 유아원","category":"study"},{"name":"한옥예술유치원","tel":"031-576-0019","addr":"경기도 남양주시 와부읍 도곡리 946-6번지","indutype":"학원 - 유치원","category":"study"}]},{"lat":"37.58290108","long":"127.22424772","imageIndex":16,"items":[{"name":"한옥예술유치원[아이행복]","tel":"031-576-0019","addr":"경기도 남양주시 와부읍 도곡리 945-3번지","indutype":"학원 - 유치원","category":"study"}]},{"lat":"37.583063404","long":"127.22416895","imageIndex":16,"items":[{"name":"한옥체험학당","tel":"031-576-0019","addr":"경기도 남양주시 와부읍 도곡리 945-5번지","indutype":"학원 - 기타 교육기관","category":"study"}]}]