[{"lat":"37.052817326","long":"127.10075576","imageIndex":0,"items":[{"name":"SY모터텍","tel":"031-665-0940","addr":"경기도 평택시 도일동 761-1번지","indutype":"자동차정비 유지 - 자동차부품","category":"car"}]},{"lat":"37.039906265","long":"127.09933416","imageIndex":0,"items":[{"name":"VK모터스","tel":"031-654-7723","addr":"경기도 평택시 도일동 1166-5번지 1층 101호","indutype":"자동차정비 유지 - 카인테리어","category":"car"}]},{"lat":"37.037823028","long":"127.10150083","imageIndex":0,"items":[{"name":"금마정비&타이어","tel":"070-8666-1081","addr":"경기도 평택시 도일동 1173-2번지","indutype":"자동차정비 유지 - 자동차시트·타이어","category":"car"}]},{"lat":"37.043572193","long":"127.11138887","imageIndex":0,"items":[{"name":"남부특장","tel":"031-668-9226","addr":"경기도 평택시 도일동 196-3번지","indutype":"자동차판매 - 기타운송","category":"car"}]},{"lat":"37.039708705","long":"127.09850214","imageIndex":0,"items":[{"name":"넥스피아","tel":"","addr":"경기도 평택시 도일동 1165-3번지","indutype":"자동차정비 유지 - 자동차정비","category":"car"},{"name":"카톡 (자동차를말하다)","tel":"070-4115-6669","addr":"경기도 평택시 도일동 1165-3번지 나동","indutype":"자동차정비 유지 - 자동차부품","category":"car"}]},{"lat":"37.048377353","long":"127.09797342","imageIndex":0,"items":[{"name":"뉴서울자동차용품","tel":"031-665-6132","addr":"경기도 평택시 도일동 983-5번지","indutype":"자동차정비 유지 - 자동차부품","category":"car"}]},{"lat":"37.042960106","long":"127.11069108","imageIndex":0,"items":[{"name":"대박상사","tel":"070-7420-8288","addr":"경기도 평택시 도일동 643-8번지 나동 1층 4,5호","indutype":"자동차정비 유지 - 자동차부품","category":"car"},{"name":"송탄전자","tel":"031-663-3605","addr":"경기도 평택시 도일동 643-8번지","indutype":"자동차정비 유지 - 자동차부품","category":"car"},{"name":"오일리브","tel":"031-1212-1212","addr":"경기도 평택시 도일동 643-8번지 1층","indutype":"자동차정비 유지 - 윤활유 전문 판매","category":"car"},{"name":"오일쉐프","tel":"031-668-1998","addr":"경기도 평택시 도일동 643-8번지 가동5,6호","indutype":"자동차정비 유지 - 자동차부품","category":"car"}]},{"lat":"37.052350671","long":"127.1090293","imageIndex":0,"items":[{"name":"대성미션","tel":"031-664-0667","addr":"경기도 평택시 도일동 559번지","indutype":"자동차정비 유지 - 자동차부품","category":"car"}]},{"lat":"37.055880498","long":"127.12103002","imageIndex":0,"items":[{"name":"대성타이어","tel":"031-618-1040","addr":"경기도 평택시 도일동 26-1번지 외2필지 1동","indutype":"자동차정비 유지 - 자동차시트·타이어","category":"car"}]},{"lat":"37.0481516","long":"127.09858018","imageIndex":0,"items":[{"name":"도일자동차","tel":"031-667-7924","addr":"경기도 평택시 도일동 983-6번지","indutype":"자동차정비 유지 - 자동차정비","category":"car"}]},{"lat":"37.043824708","long":"127.10077794","imageIndex":0,"items":[{"name":"동명산기","tel":"031-667-2631","addr":"경기도 평택시 도일동 989-6번지 1층","indutype":"자동차판매 - 기타운송","category":"car"}]},{"lat":"37.053206255","long":"127.10950266","imageIndex":0,"items":[{"name":"리프트특장","tel":"00-1566-7599","addr":"경기도 평택시 도일동 472-1","indutype":"자동차판매 - 기타운송","category":"car"}]},{"lat":"37.038212623","long":"127.09889366","imageIndex":0,"items":[{"name":"만복JW자동차용품점","tel":"031-611-3080","addr":"경기도 평택시 도일동 1171-2번지","indutype":"자동차정비 유지 - 카인테리어","category":"car"}]},{"lat":"37.053071247","long":"127.10933384","imageIndex":0,"items":[{"name":"선진부란자","tel":"031-655-2295","addr":"경기도 평택시 도일동 472번지","indutype":"자동차정비 유지 - 자동차정비","category":"car"},{"name":"주식회사 태영자동차","tel":"031-611-2171","addr":"경기도 평택시 도일동 472번지","indutype":"자동차정비 유지 - 자동차부품","category":"car"}]},{"lat":"37.049485973","long":"127.09758135","imageIndex":0,"items":[{"name":"송탄판매서비스","tel":"031-663-2070","addr":"경기도 평택시 도일동 784-24번지","indutype":"자동차정비 유지 - 자동차시트·타이어","category":"car"}]},{"lat":"37.043270881","long":"127.11563742","imageIndex":0,"items":[{"name":"영진사","tel":"031-668-6553","addr":"경기도 평택시 도일동 188-12번지 2동","indutype":"자동차정비 유지 - 자동차시트·타이어","category":"car"}]},{"lat":"37.035518372","long":"127.09898019","imageIndex":0,"items":[{"name":"운진자동차정비","tel":"031-667-9300","addr":"경기도 평택시 도일동 1004-6번지","indutype":"자동차정비 유지 - 자동차부품","category":"car"}]},{"lat":"37.039347962","long":"127.09889509","imageIndex":0,"items":[{"name":"원스탑서비스","tel":"","addr":"경기도 평택시 도일동 1166-11번지","indutype":"서비스업 - 자동차정비","category":"car"},{"name":"원스탑서비스","tel":"","addr":"경기도 평택시 도일동 1166-11번지 1층 101호","indutype":"자동차정비 유지 - 카인테리어","category":"car"},{"name":"원스탑서비스(ONESTOP SERVICE)","tel":"031-665-1110","addr":"경기도 평택시 도일동 1166-11번지","indutype":"자동차정비 유지 - 자동차정비","category":"car"}]},{"lat":"37.062872971","long":"127.11133764","imageIndex":0,"items":[{"name":"원천타이어","tel":"031-216-6849","addr":"경기도 평택시 도일동 351","indutype":"자동차정비 유지 - 자동차시트·타이어","category":"car"}]},{"lat":"37.035960166","long":"127.09864356","imageIndex":0,"items":[{"name":"지티(GT)카써비스","tel":"031-647-0985","addr":"경기도 평택시 도일동 1004-3번지","indutype":"자동차정비 유지 - 자동차정비","category":"car"},{"name":"평택쑈카","tel":"031-647-0988","addr":"경기도 평택시 도일동 1004-3번지","indutype":"자동차정비 유지 - 자동차부품","category":"car"}]},{"lat":"37.035716159","long":"127.09953118","imageIndex":0,"items":[{"name":"평택 카스페이스","tel":"","addr":"경기도 평택시 도일동 1002-39번지","indutype":"자동차정비 유지 - 카인테리어","category":"car"}]},{"lat":"37.039186179","long":"127.09838908","imageIndex":0,"items":[{"name":"평택번호판제작(주)","tel":"031-665-7775","addr":"경기도 평택시 도일동 1165-5번지","indutype":"자동차정비 유지 - 자동차부품","category":"car"}]},{"lat":"37.055929448","long":"127.11705023","imageIndex":0,"items":[{"name":"평택지게차정비공업사","tel":"031-656-8228","addr":"경기도 평택시 도일동 136-4번지","indutype":"자동차정비 유지 - 중장비수리","category":"car"}]}]