[{"lat":"37.738575036","long":"127.08937613","imageIndex":13,"items":[{"name":"(주)잠언의료기 송산점","tel":"031-852-7589","addr":"경기도 의정부시 민락동 744-4번지 2층","indutype":"보건위생 - 의료용품","category":"beauty"}]},{"lat":"37.745379209","long":"127.09850625","imageIndex":13,"items":[{"name":"706살롱","tel":"031-853-0706","addr":"경기도 의정부시 민락동 839-5번지 1층","indutype":"보건위생 - 미용원","category":"beauty"}]},{"lat":"37.74448946","long":"127.0957594","imageIndex":13,"items":[{"name":"BOBOS 안경","tel":"031-852-2262","addr":"경기도 의정부시 민락동 804-8번지 씨티프라자 1층 111호","indutype":"보건위생 - 안경","category":"beauty"},{"name":"마크뷰티컴퍼니","tel":"","addr":"경기도 의정부시 민락동 804-8번지 민락시티프라자 205호","indutype":"보건위생 - 화장품","category":"beauty"},{"name":"마크헤어살롱","tel":"031-853-6523","addr":"경기도 의정부시 민락동 804-8번지 씨티프라자 205호","indutype":"보건위생 - 미용원","category":"beauty"},{"name":"맑은서울 보청기센타","tel":"031-851-5475","addr":"경기도 의정부시 민락동 804-8번지 씨티프라자 4층 402호","indutype":"보건위생 - 의료용품","category":"beauty"}]},{"lat":"37.745398894","long":"127.09642996","imageIndex":13,"items":[{"name":"Cutie skin care","tel":"031-851-1511","addr":"경기도 의정부시 민락동 812번지 골든프라자 4층 404호","indutype":"보건위생 - 피부미용실","category":"beauty"},{"name":"루루앤 아이래쉬 의정부점","tel":"031-852-3538","addr":"경기도 의정부시 민락동 812번지 골든프라자 205호","indutype":"보건위생 - 화장품","category":"beauty"},{"name":"엠샵네일(M# Nail)","tel":"031-362-6006","addr":"경기도 의정부시 민락동 812번지 골든프라자 204호","indutype":"보건위생 - 피부미용실","category":"beauty"}]},{"lat":"37.7447681","long":"127.09658801","imageIndex":13,"items":[{"name":"GY 뷰티 아로마","tel":"031-876-8943","addr":"경기도 의정부시 민락동 810번지 마운틴주차타워 1층 104호","indutype":"보건위생 - 화장품","category":"beauty"},{"name":"네일도 사랑해 (#)","tel":"","addr":"경기도 의정부시 민락동 810번지 마운틴주차타워 105호","indutype":"보건위생 - 피부미용실","category":"beauty"},{"name":"오렌즈 의정부민락점","tel":"031-852-5302","addr":"경기도 의정부시 민락동 810번지 마운틴주차타워 1층 108호","indutype":"보건위생 - 안경","category":"beauty"}]},{"lat":"37.742126629","long":"127.08685021","imageIndex":13,"items":[{"name":"Hair Waver","tel":"","addr":"경기도 의정부시 민락동 734-1번지 대우프라자 102호","indutype":"보건위생 - 미용원","category":"beauty"}]},{"lat":"37.743406444","long":"127.08620495","imageIndex":13,"items":[{"name":"J재희미용실","tel":"031-848-5110","addr":"경기도 의정부시 민락동 732-3 송산중앙프라자 105~106호","indutype":"보건위생 - 미용원","category":"beauty"},{"name":"가영뷰티","tel":"031-851-7701","addr":"경기도 의정부시 민락동 732-3번지 2층 201호","indutype":"보건위생 - 피부미용실","category":"beauty"},{"name":"다솜누리 아동발달센터","tel":"070-7798-5562","addr":"경기도 의정부시 민락동 732-3번지 송산중앙프라자701호702호","indutype":"보건위생 - 기타대인서비스","category":"beauty"},{"name":"클래식","tel":"031-853-7188","addr":"경기도 의정부시 민락동 732-3번지 송산프라자 206호","indutype":"보건위생 - 화장품","category":"beauty"},{"name":"퓨승네일","tel":"031-560-6770","addr":"경기도 의정부시 민락동 732-3번지 중산중앙프라자 1동 104호","indutype":"보건위생 - 피부미용실","category":"beauty"},{"name":"헤어코코","tel":"031-853-6490","addr":"경기도 의정부시 민락동 732-3번지 송산프라자 109호","indutype":"보건위생 - 미용원","category":"beauty"}]},{"lat":"37.741955196","long":"127.08720173","imageIndex":13,"items":[{"name":"S헤어","tel":"031-851-3777","addr":"경기도 의정부시 민락동 734-4번지 이프라자 1층 101호","indutype":"보건위생 - 미용원","category":"beauty"},{"name":"신데렐라만들기","tel":"031-851-8984","addr":"경기도 의정부시 민락동 734-4번지 이-프라자쓰리 5층 505호","indutype":"보건위생 - 화장품","category":"beauty"}]},{"lat":"37.74045559","long":"127.09264576","imageIndex":13,"items":[{"name":"THE 네일","tel":"031-851-9990","addr":"경기도 의정부시 민락동 700-1번지 성지빌딩 107호","indutype":"보건위생 - 피부미용실","category":"beauty"},{"name":"쿨가이","tel":"031-851-9832","addr":"경기도 의정부시 민락동 700-1번지 성지빌딩 106호","indutype":"보건위생 - 이용원","category":"beauty"},{"name":"헤어라온","tel":"031-853-0801","addr":"경기도 의정부시 민락동 700-1번지 성지빌딩 101-2호","indutype":"보건위생 - 미용원","category":"beauty"}]},{"lat":"37.739347156","long":"127.09298477","imageIndex":13,"items":[{"name":"The 미가인(      )","tel":"031-851-7762","addr":"경기도 의정부시 민락동 551-2번지 3층","indutype":"보건위생 - 피부미용실","category":"beauty"}]},{"lat":"37.744983804","long":"127.10790021","imageIndex":13,"items":[{"name":"bmacKOREA","tel":"031-853-1273","addr":"경기도 의정부시 민락동 857번지","indutype":"보건위생 - 미용재료","category":"beauty"}]},{"lat":"37.740517243","long":"127.09448377","imageIndex":13,"items":[{"name":"hair Top-1","tel":"031-853-9554","addr":"경기도 의정부시 민락동 692-9번지 상가동 101호","indutype":"보건위생 - 미용원","category":"beauty"}]},{"lat":"37.742685366","long":"127.08664662","imageIndex":13,"items":[{"name":"가가헤어스토리","tel":"031-852-8088","addr":"경기도 의정부시 민락동 733-7번지 102호","indutype":"보건위생 - 미용원","category":"beauty"}]},{"lat":"37.741181092","long":"127.09809242","imageIndex":13,"items":[{"name":"가야헤어샵","tel":"031-852-2555","addr":"경기도 의정부시 민락동 694번지 상가동210,211호","indutype":"보건위생 - 미용원","category":"beauty"}]},{"lat":"37.742879727","long":"127.09189987","imageIndex":13,"items":[{"name":"가인미장","tel":"031-852-5550","addr":"경기도 의정부시 민락동 517번지 신안 상가 108호","indutype":"보건위생 - 미용원","category":"beauty"}]},{"lat":"37.737961734","long":"127.09026032","imageIndex":13,"items":[{"name":"가현헤어","tel":"0031-853-1224","addr":"경기도 의정부시 민락동 747-15번지","indutype":"보건위생 - 미용원","category":"beauty"}]},{"lat":"37.749898848","long":"127.11247988","imageIndex":13,"items":[{"name":"감동헤어#","tel":"031-852-3792","addr":"경기도 의정부시 민락동 889번지 의정부민락우미린더스카이 103호","indutype":"보건위생 - 미용재료","category":"beauty"},{"name":"나이스가이 민락점","tel":"","addr":"경기도 의정부시 민락동 889번지 민락우미린더스카이 상가동 1층 102호","indutype":"보건위생 - 미용원","category":"beauty"},{"name":"네일맑음","tel":"070-7420-4182","addr":"경기도 의정부시 민락동 889번지 의정부민락우미린더스카이 상가동 207호","indutype":"보건위생 - 피부미용실","category":"beauty"},{"name":"청담동 헤어살롱","tel":"031-848-8565","addr":"경기도 의정부시 민락동 889번지 민락2지구 우미린상가 113호","indutype":"보건위생 - 미용원","category":"beauty"},{"name":"헤어쇼룸 앨리스 당쥬","tel":"070-8161-1345","addr":"경기도 의정부시 민락동 889번지 의정부민락우미린더스카이 상가동 205호","indutype":"보건위생 - 미용원","category":"beauty"}]},{"lat":"37.749902069","long":"127.11853903","imageIndex":13,"items":[{"name":"고이고이 에스테틱","tel":"031-852-0201","addr":"경기도 의정부시 민락동 905번지 엘스퀘어 2층 207호","indutype":"보건위생 - 피부미용실","category":"beauty"},{"name":"네일바이유","tel":"031-852-7458","addr":"경기도 의정부시 민락동 905번지 헬스케어 208호","indutype":"보건위생 - 피부미용실","category":"beauty"},{"name":"살롱드보나","tel":"031-852-7790","addr":"경기도 의정부시 민락동 905번지 2층 208호","indutype":"보건위생 - 미용원","category":"beauty"}]},{"lat":"37.745399727","long":"127.09537478","imageIndex":13,"items":[{"name":"공감헤어","tel":"031-851-5525","addr":"경기도 의정부시 민락동 808-3번지 트윈타워2 2층 206호","indutype":"보건위생 - 미용원","category":"beauty"},{"name":"뷰티살롱","tel":"070-0000-0000","addr":"경기도 의정부시 민락동 808-3번지 트윈타워2 2층 207-1호","indutype":"보건위생 - 미용원","category":"beauty"},{"name":"에뛰드하우스 의정부민락점","tel":"031-851-5766","addr":"경기도 의정부시 민락동 808-3번지 트윈2타워 112호","indutype":"보건위생 - 화장품","category":"beauty"},{"name":"제이스파 힐링사우나","tel":"031-853-8512","addr":"경기도 의정부시 민락동 808-3번지 5층","indutype":"보건위생 - 기타대인서비스","category":"beauty"},{"name":"제이힐링사우나","tel":"031-853-8512","addr":"경기도 의정부시 민락동 808-3번지 501,601,701호","indutype":"보건위생 - 사우나","category":"beauty"},{"name":"제이힐링피부관리","tel":"031-853-8512","addr":"경기도 의정부시 민락동 808-3번지 6층 601호","indutype":"보건위생 - 피부미용실","category":"beauty"}]},{"lat":"37.737402167","long":"127.09156432","imageIndex":13,"items":[{"name":"그레이스헤어","tel":"031-852-4278","addr":"경기도 의정부시 민락동 752-3번지 1층 101호","indutype":"보건위생 - 미용원","category":"beauty"}]},{"lat":"37.738373785","long":"127.09342605","imageIndex":13,"items":[{"name":"김동욱헤어","tel":"031-852-8558","addr":"경기도 의정부시 민락동 544-4번지 1층","indutype":"보건위생 - 미용원","category":"beauty"}]},{"lat":"37.745847972","long":"127.09817782","imageIndex":13,"items":[{"name":"김윤네일","tel":"031-000-0000","addr":"경기도 의정부시 민락동 841-5번지 102호","indutype":"보건위생 - 피부미용실","category":"beauty"},{"name":"보브클래식","tel":"031-851-7310","addr":"경기도 의정부시 민락동 841-5번지 1층","indutype":"보건위생 - 미용원","category":"beauty"}]},{"lat":"37.751100836","long":"127.11803028","imageIndex":13,"items":[{"name":"꽃길","tel":"031-851-8851","addr":"경기도 의정부시 민락동 902-3번지 1층 103호","indutype":"보건위생 - 화장품","category":"beauty"},{"name":"꽃길헤어살롱(hair salong)","tel":"031-851-8851","addr":"경기도 의정부시 민락동 902-3번지 보광센타프라자 1층 103호","indutype":"보건위생 - 미용원","category":"beauty"},{"name":"퀸에스테틱","tel":"031-851-4829","addr":"경기도 의정부시 민락동 902-3번지 1층 107호","indutype":"보건위생 - 피부미용실","category":"beauty"}]},{"lat":"37.751983847","long":"127.11795222","imageIndex":13,"items":[{"name":"꽃물","tel":"","addr":"경기도 의정부시 민락동 902번지 보광더존프라자 1층 108호","indutype":"보건위생 - 피부미용실","category":"beauty"},{"name":"위드(with)제이엘헤어","tel":"031-852-0306","addr":"경기도 의정부시 민락동 902. 보광더존프라자 203호","indutype":"보건위생 - 미용원","category":"beauty"}]},{"lat":"37.743984107","long":"127.09679124","imageIndex":13,"items":[{"name":"꽃새미","tel":"031-874-7766","addr":"경기도 의정부시 민락동 804-5번지 1층 108호","indutype":"보건위생 - 미용원","category":"beauty"},{"name":"콩샵","tel":"031-851-2250","addr":"경기도 의정부시 민락동 804-5번지 파스텔시티 303호","indutype":"보건위생 - 화장품","category":"beauty"},{"name":"힐헤어","tel":"031-643-3005","addr":"경기도 의정부시 민락동 804-5번지 1층 108호","indutype":"보건위생 - 미용원","category":"beauty"}]},{"lat":"37.745680389","long":"127.09361648","imageIndex":13,"items":[{"name":"끌레르헤어","tel":"031-851-7553","addr":"경기도 의정부시 민락동 806-1번지 웅신프라자 1층 119호","indutype":"보건위생 - 미용원","category":"beauty"},{"name":"헤어팡팡(민락점)","tel":"031-853-1232","addr":"경기도 의정부시 민락동 806-1번지 208호","indutype":"보건위생 - 미용원","category":"beauty"}]},{"lat":"37.744876413","long":"127.09633853","imageIndex":13,"items":[{"name":"나는예쁘다(Hair Salon)","tel":"031-852-4456","addr":"경기도 의정부시 민락동 809-1번지 마운틴프라자 2층 201호","indutype":"보건위생 - 미용원","category":"beauty"},{"name":"베테랑남성컷","tel":"070-7534-4249","addr":"경기도 의정부시 민락동 809-1번지 마운틴프라자 1층 106호","indutype":"보건위생 - 미용원","category":"beauty"},{"name":"아리따움 민락2지구점","tel":"031-851-1205","addr":"경기도 의정부시 민락동 809-1번지 마운틴프라자 1층 112호","indutype":"보건위생 - 화장품","category":"beauty"},{"name":"주식회사 마음샘심리상담센터","tel":"031-894-8052","addr":"경기도 의정부시 민락동 809-1번지 마운틴프라자 502호","indutype":"보건위생 - 기타대인서비스","category":"beauty"}]},{"lat":"37.737824749","long":"127.09271065","imageIndex":13,"items":[{"name":"나무미용실","tel":"031-853-8066","addr":"경기도 의정부시 민락동 574번지 삼보빌딩 103호","indutype":"보건위생 - 미용원","category":"beauty"}]},{"lat":"37.74526358","long":"127.09664536","imageIndex":13,"items":[{"name":"네이처컬렉션 의정부민락점","tel":"031-852-8522","addr":"경기도 의정부시 민락동 812-1번지 1층 112호","indutype":"보건위생 - 화장품","category":"beauty"},{"name":"뮤즈","tel":"","addr":"경기도 의정부시 민락동 812-1번지 진산프라자2 205호","indutype":"보건위생 - 화장품","category":"beauty"},{"name":"엘리시엔 스킨앤바디","tel":"070-4139-1105","addr":"경기도 의정부시 민락동 812-1번지 진산프라자투 2층 203호","indutype":"보건위생 - 피부미용실","category":"beauty"},{"name":"엘리시엔네일앤속눈썹","tel":"070-4139-1105","addr":"경기도 의정부시 민락동 812-1번지 203호","indutype":"보건위생 - 피부미용실","category":"beauty"},{"name":"헤어살롱 뮤즈","tel":"031-851-1155","addr":"경기도 의정부시 민락동 812-1번지 205호","indutype":"보건위생 - 미용원","category":"beauty"}]},{"lat":"37.739321619","long":"127.0910107","imageIndex":13,"items":[{"name":"네일링","tel":"031-851-2223","addr":"경기도 의정부시 민락동 709-12번지 202호","indutype":"보건위생 - 미용재료","category":"beauty"}]},{"lat":"37.73709538","long":"127.09217657","imageIndex":13,"items":[{"name":"네일스케치","tel":"02-1111-1111","addr":"경기도 의정부시 민락동 755-1번지 1층","indutype":"보건위생 - 피부미용실","category":"beauty"},{"name":"제이(J)헤어","tel":"031-000-0000","addr":"경기도 의정부시 민락동 755-1번지 1호","indutype":"보건위생 - 미용원","category":"beauty"}]},{"lat":"37.745373697","long":"127.09409264","imageIndex":13,"items":[{"name":"네일은 설렘","tel":"","addr":"경기도 의정부시 민락동 805번지 1층 104-1호","indutype":"보건위생 - 피부미용실","category":"beauty"},{"name":"안경창고싸군민락점","tel":"031-852-2129","addr":"경기도 의정부시 민락동 805번지 107호","indutype":"보건위생 - 안경","category":"beauty"},{"name":"제이J.BEAUTY_LAB","tel":"031-852-7955","addr":"경기도 의정부시 민락동 805번지 1층 104-2호","indutype":"보건위생 - 피부미용실","category":"beauty"},{"name":"체형비만관리","tel":"070-4215-6688","addr":"경기도 의정부시 민락동 805번지 얼드투타워 천보산불가마사우나","indutype":"보건위생 - 피부미용실","category":"beauty"}]},{"lat":"37.745766776","long":"127.09831387","imageIndex":13,"items":[{"name":"네일의약속","tel":"","addr":"경기도 의정부시 민락동 841-4번지 1층 104호","indutype":"보건위생 - 피부미용실","category":"beauty"},{"name":"다올헤어","tel":"031-851-4001","addr":"경기도 의정부시 민락동 841-4번지 1층 103호","indutype":"보건위생 - 미용원","category":"beauty"}]},{"lat":"37.746625158","long":"127.09520611","imageIndex":13,"items":[{"name":"네일피플","tel":"031-851-4182","addr":"경기도 의정부시 민락동 837번지 1층 106호","indutype":"보건위생 - 피부미용실","category":"beauty"},{"name":"라파팜","tel":"","addr":"경기도 의정부시 민락동 837번지 도영빌딩 4층 403호","indutype":"보건위생 - 의료용품","category":"beauty"}]},{"lat":"37.745070644","long":"127.10122889","imageIndex":13,"items":[{"name":"눈꽃피부","tel":"070-7018-5392","addr":"경기도 의정부시 민락동 847번지 호반베르디움1차 110동 702호","indutype":"보건위생 - 화장품","category":"beauty"},{"name":"눈에꽃이피다 속눈썹&왁싱","tel":"","addr":"경기도 의정부시 민락동 847번지 호반베르디움1차 125동 220호","indutype":"보건위생 - 피부미용실","category":"beauty"},{"name":"맘스테라피","tel":"031-123-3235","addr":"경기도 의정부시 민락동 847번지 호반베르디움1차 125동 221호","indutype":"보건위생 - 피부미용실","category":"beauty"},{"name":"밀크네일","tel":"031-000-0000","addr":"경기도 의정부시 민락동 847번지 호반베르디움1차 상가 125동 206호","indutype":"보건위생 - 피부미용실","category":"beauty"},{"name":"블루클럽","tel":"031-822-6566","addr":"경기도 의정부시 민락동 847번지 호반베르디움1차 125동 109호","indutype":"보건위생 - 미용원","category":"beauty"},{"name":"스토리헤어","tel":"031-851-6554","addr":"경기도 의정부시 민락동 847번지 호반베르디움1차 125동 1층 110호","indutype":"보건위생 - 미용원","category":"beauty"},{"name":"오! 땡큐","tel":"031-852-3346","addr":"경기도 의정부시 민락동 847번지 호반베르디움1차 상가동 208호","indutype":"보건위생 - 미용원","category":"beauty"},{"name":"우연한네일","tel":"031-852-5364","addr":"경기도 의정부시 민락동 847번지 호반베르디움1차 125동 218호","indutype":"보건위생 - 피부미용실","category":"beauty"},{"name":"헤어봄날","tel":"031-848-2411","addr":"경기도 의정부시 민락동 847번지 호반베르디움1차 125동 107호","indutype":"보건위생 - 미용원","category":"beauty"},{"name":"헤어살롱 가꾸다","tel":"031-852-7024","addr":"경기도 의정부시 민락동 847번지 호반베르디움1차 124동 204호","indutype":"보건위생 - 미용원","category":"beauty"}]},{"lat":"37.734880111","long":"127.09073317","imageIndex":13,"items":[{"name":"다미헤어파크뷰","tel":"031-853-5711","addr":"경기도 의정부시 민락동 757-12번지 송산주공4단지 상가 102호","indutype":"보건위생 - 미용원","category":"beauty"}]},{"lat":"37.743371855","long":"127.09629126","imageIndex":13,"items":[{"name":"다비치안경 민락2지구점","tel":"031-853-9129","addr":"경기도 의정부시 민락동 801번지 해동lll(쓰리)타워 1층 103호","indutype":"보건위생 - 안경","category":"beauty"}]},{"lat":"37.736627175","long":"127.09179029","imageIndex":13,"items":[{"name":"다옴헤어","tel":"031-842-3521","addr":"경기도 의정부시 민락동 755-6번지","indutype":"보건위생 - 미용원","category":"beauty"}]},{"lat":"37.738709879","long":"127.08978471","imageIndex":13,"items":[{"name":"단골헤어","tel":"031-851-7177","addr":"경기도 의정부시 민락동 617-16번지 102호","indutype":"보건위생 - 미용원","category":"beauty"}]},{"lat":"37.740401273","long":"127.09298605","imageIndex":13,"items":[{"name":"단월드 민락센터","tel":"031-835-7007","addr":"경기도 의정부시 민락동 700-2번지 4층 401호","indutype":"보건위생 - 기타대인서비스","category":"beauty"},{"name":"베로니안경원","tel":"031-852-0034","addr":"경기도 의정부시 민락동 700-2번지 광희빌딩 103호","indutype":"보건위생 - 안경","category":"beauty"}]},{"lat":"37.73946388","long":"127.09350679","imageIndex":13,"items":[{"name":"더그리다뷰티샵","tel":"031-823-2808","addr":"경기도 의정부시 민락동 699-5번지 1층","indutype":"보건위생 - 화장품","category":"beauty"}]},{"lat":"37.74567944","long":"127.09484186","imageIndex":13,"items":[{"name":"더모드(The Mode)","tel":"031-858-5553","addr":"경기도 의정부시 민락동 808-1번지 벽강프라자 2층 201호","indutype":"보건위생 - 미용원","category":"beauty"}]},{"lat":"37.745237341","long":"127.09564688","imageIndex":13,"items":[{"name":"더예쁜머리 의정부점","tel":"031-871-2731","addr":"경기도 의정부시 민락동 808-4번지 폴리프라자2 205호","indutype":"보건위생 - 미용원","category":"beauty"},{"name":"스파연","tel":"070-2071-7700","addr":"경기도 의정부시 민락동 808-4번지 폴리프라자2 402호","indutype":"보건위생 - 피부미용실","category":"beauty"},{"name":"아인스(EINS)","tel":"031-852-7722","addr":"경기도 의정부시 민락동 808-4번지 폴리프라자2 112호","indutype":"보건위생 - 안경","category":"beauty"},{"name":"오휘민락점","tel":"031-852-3184","addr":"경기도 의정부시 민락동 808-4번지 폴리프라자2 304호","indutype":"보건위생 - 화장품","category":"beauty"},{"name":"힐링편백","tel":"031-853-1811","addr":"경기도 의정부시 민락동 808-4번지 705호","indutype":"보건위생 - 화장품","category":"beauty"}]},{"lat":"37.744984725","long":"127.09608906","imageIndex":13,"items":[{"name":"더타이","tel":"031-851-1235","addr":"경기도 의정부시 민락동 809번지 4층 405호","indutype":"보건위생 - 미용재료","category":"beauty"},{"name":"부러운 아이","tel":"070-7514-0910","addr":"경기도 의정부시 민락동 809번지 3층 302호","indutype":"보건위생 - 기타대인서비스","category":"beauty"},{"name":"와이제이(YJ)스파&Beauty","tel":"02-1489-7159","addr":"경기도 의정부시 민락동 809번지 6층 603호 일부","indutype":"보건위생 - 피부미용실","category":"beauty"},{"name":"이니스프리 의정부 민락점","tel":"031-851-9220","addr":"경기도 의정부시 민락동 809번지 폴리프라자3차 105호","indutype":"보건위생 - 화장품","category":"beauty"}]},{"lat":"37.746318397","long":"127.09576169","imageIndex":13,"items":[{"name":"데이지 네일","tel":"031-852-0833","addr":"경기도 의정부시 민락동 837-2번지 테라스프라자 1층 109호","indutype":"보건위생 - 피부미용실","category":"beauty"},{"name":"제나헤어살롱","tel":"031-853-3858","addr":"경기도 의정부시 민락동 837-2번지 테라스프라자 103호","indutype":"보건위생 - 미용원","category":"beauty"}]},{"lat":"37.745544102","long":"127.0950913","imageIndex":13,"items":[{"name":"드라포레","tel":"031-826-3747","addr":"경기도 의정부시 민락동 808-2번지 트윈타워 206호","indutype":"보건위생 - 미용원","category":"beauty"},{"name":"여기 지금 헤어 의정부점","tel":"031-853-1203","addr":"경기도 의정부시 민락동 808-2번지 1층 106호","indutype":"보건위생 - 미용원","category":"beauty"}]},{"lat":"37.740319935","long":"127.09331497","imageIndex":13,"items":[{"name":"떼라삐","tel":"031-852-0503","addr":"경기도 의정부시 민락동 700-3번지 한영빌딩 2층 4","indutype":"보건위생 - 화장품","category":"beauty"},{"name":"알로에마임민락지사","tel":"031-852-3000","addr":"경기도 의정부시 민락동 700-3번지 한영빌딩 3동 4호","indutype":"보건위생 - 화장품","category":"beauty"}]},{"lat":"37.740708716","long":"127.09151153","imageIndex":13,"items":[{"name":"라라네일","tel":"031-825-3107","addr":"경기도 의정부시 민락동 705-1번지 낙원프라자 1층 101호","indutype":"보건위생 - 미용재료","category":"beauty"},{"name":"여행시 헤어","tel":"031-852-0890","addr":"경기도 의정부시 민락동 705-1번지 낙원프라자 102호","indutype":"보건위생 - 미용원","category":"beauty"}]},{"lat":"37.744488379","long":"127.09712091","imageIndex":13,"items":[{"name":"라메카","tel":"070-8864-7077","addr":"경기도 의정부시 민락동 811-1번지 폴리프라자 704호","indutype":"보건위생 - 미용재료","category":"beauty"},{"name":"랩테라피","tel":"031-851-5522","addr":"경기도 의정부시 민락동 811-1번지 폴리프라자 6층 606호","indutype":"보건위생 - 피부미용실","category":"beauty"},{"name":"헤어살롱페뜨(FETE)","tel":"031-853-1180","addr":"경기도 의정부시 민락동 811-1번지 폴리프라자 2층 201호","indutype":"보건위생 - 미용원","category":"beauty"}]},{"lat":"37.741712093","long":"127.08698589","imageIndex":13,"items":[{"name":"라썸헤어뷰티컴퍼니 어룡역점","tel":"031-853-7154","addr":"경기도 의정부시 민락동 734-6번지 1층","indutype":"보건위생 - 미용원","category":"beauty"}]},{"lat":"37.744848515","long":"127.09742771","imageIndex":13,"items":[{"name":"레드썬","tel":"031-853-3596","addr":"경기도 의정부시 민락동 812-4번지 골드프라자3차 309호","indutype":"보건위생 - 미용재료","category":"beauty"},{"name":"레드썬TN","tel":"031-851-4744","addr":"경기도 의정부시 민락동 812-4번지 외1필지 3층 309호","indutype":"보건위생 - 피부미용실","category":"beauty"},{"name":"리안헤어","tel":"031-851-8828","addr":"경기도 의정부시 민락동 812-4번지 201호","indutype":"보건위생 - 미용원","category":"beauty"},{"name":"옥상달빛","tel":"031-928-4015","addr":"경기도 의정부시 민락동 812-4번지 116호","indutype":"보건위생 - 미용원","category":"beauty"},{"name":"웰 바디&풋","tel":"041-852-7747","addr":"경기도 의정부시 민락동 812-4번지 408호","indutype":"보건위생 - 안마시술소","category":"beauty"},{"name":"하나뷰티 약손케어","tel":"","addr":"경기도 의정부시 민락동 812-4번지 4층 405호","indutype":"보건위생 - 피부미용실","category":"beauty"},{"name":"현 헤어 살롱","tel":"031-852-7875","addr":"경기도 의정부시 민락동 812-4번지 골든프라자3차 2층 207호","indutype":"보건위생 - 미용원","category":"beauty"}]},{"lat":"37.743264206","long":"127.09570114","imageIndex":13,"items":[{"name":"렌느제이","tel":"","addr":"경기도 의정부시 민락동 800-3번지 301호","indutype":"보건위생 - 기타대인서비스","category":"beauty"}]},{"lat":"37.744796221","long":"127.09520384","imageIndex":13,"items":[{"name":"렌즈미(LENSME)안경콘텍트","tel":"031-871-1991","addr":"경기도 의정부시 민락동 805-3번지 해동II타워 112호","indutype":"보건위생 - 안경","category":"beauty"}]},{"lat":"37.74575985","long":"127.09570426","imageIndex":13,"items":[{"name":"롬스뷰티","tel":"","addr":"경기도 의정부시 민락동 813-3번지 메가타워 2층 202호","indutype":"보건위생 - 미용원","category":"beauty"},{"name":"미진양장점 피부&바디","tel":"031-000-0000","addr":"경기도 의정부시 민락동 813-3번지 메가타워 409호","indutype":"보건위생 - 피부미용실","category":"beauty"},{"name":"살롱드프롬","tel":"","addr":"경기도 의정부시 민락동 813-3번지 메가타워 408호","indutype":"보건위생 - 미용원","category":"beauty"},{"name":"스킨앤바디 매니저 드보라희(skin&body man","tel":"070-0000-0000","addr":"경기도 의정부시 민락동 813-3번지 메가타워 4층 411호","indutype":"보건위생 - 피부미용실","category":"beauty"},{"name":"온네일","tel":"031-853-6663","addr":"경기도 의정부시 민락동 813-3번지 메가타워 214호","indutype":"보건위생 - 피부미용실","category":"beauty"},{"name":"온니유(ONLY. U)","tel":"031-851-1982","addr":"경기도 의정부시 민락동 813-3번지 메가타워 2층 204호","indutype":"보건위생 - 피부미용실","category":"beauty"},{"name":"품격있는 에스테틱","tel":"031-851-0875","addr":"경기도 의정부시 민락동 813-3번지 메가타워 3층 307호","indutype":"보건위생 - 피부미용실","category":"beauty"}]},{"lat":"37.746876684","long":"127.09614816","imageIndex":13,"items":[{"name":"룸네일 (Reum-nail)","tel":"","addr":"경기도 의정부시 민락동 830-9번지 1층 101호","indutype":"보건위생 - 피부미용실","category":"beauty"}]},{"lat":"37.741151777","long":"127.08936778","imageIndex":13,"items":[{"name":"류(Ryu)헤어","tel":"","addr":"경기도 의정부시 민락동 737-1번지 1층","indutype":"보건위생 - 미용원","category":"beauty"}]},{"lat":"37.742739246","long":"127.08689628","imageIndex":13,"items":[{"name":"류장헤어","tel":"031-853-8078","addr":"경기도 의정부시 민락동 733-4번지 이프라자 105호","indutype":"보건위생 - 미용원","category":"beauty"}]},{"lat":"37.745904217","long":"127.09543213","imageIndex":13,"items":[{"name":"리본뷰티","tel":"","addr":"경기도 의정부시 민락동 813-2번지 로데오프라자 2층 203호","indutype":"보건위생 - 피부미용실","category":"beauty"},{"name":"리본뷰티네일","tel":"","addr":"경기도 의정부시 민락동 813-2번지 로데오프라자 2층 203호","indutype":"보건위생 - 피부미용실","category":"beauty"},{"name":"의정부코끼리가발","tel":"","addr":"경기도 의정부시 민락동 813-2번지 로데오프라자 106호 우측","indutype":"보건위생 - 미용재료","category":"beauty"},{"name":"하얀피부 예쁜몸매","tel":"031-851-7036","addr":"경기도 의정부시 민락동 813-2번지 로데오프라자 106호","indutype":"보건위생 - 피부미용실","category":"beauty"}]},{"lat":"37.745650146","long":"127.09770103","imageIndex":13,"items":[{"name":"리브가헤어","tel":"031-851-6879","addr":"경기도 의정부시 민락동 839-10번지 1층 103호","indutype":"보건위생 - 미용원","category":"beauty"}]},{"lat":"37.739570594","long":"127.0953108","imageIndex":13,"items":[{"name":"리오샵","tel":"031-853-2070","addr":"경기도 의정부시 민락동 696-2번지","indutype":"보건위생 - 화장품","category":"beauty"},{"name":"하양헤어","tel":"031-851-4990","addr":"경기도 의정부시 민락동 696-2번지","indutype":"보건위생 - 미용원","category":"beauty"}]},{"lat":"37.75162341","long":"127.1180084","imageIndex":13,"items":[{"name":"린뷰티&블라썸","tel":"031-1711-5452","addr":"경기도 의정부시 민락동 902-1번지 폴리프라자1 201호","indutype":"보건위생 - 화장품","category":"beauty"},{"name":"오늘.꾸밈","tel":"070-7420-0365","addr":"경기도 의정부시 민락동 902-1번지 폴리프라자1 3층 301호","indutype":"보건위생 - 피부미용실","category":"beauty"}]},{"lat":"37.74131581","long":"127.08679257","imageIndex":13,"items":[{"name":"마루헤어","tel":"031-853-6441","addr":"경기도 의정부시 민락동 732-12번지 마에스트로빌딩 1층 104호","indutype":"보건위생 - 미용원","category":"beauty"}]},{"lat":"37.737293418","long":"127.0924037","imageIndex":13,"items":[{"name":"마리뷰티","tel":"","addr":"경기도 의정부시 민락동 573-4번지 세종빌딩 2층 일부","indutype":"보건위생 - 피부미용실","category":"beauty"},{"name":"마리헤어","tel":"031-851-5513","addr":"경기도 의정부시 민락동 573-4번지 외2필지 세종빌딩 201호","indutype":"보건위생 - 미용원","category":"beauty"}]},{"lat":"37.746678186","long":"127.09651099","imageIndex":13,"items":[{"name":"마린헤어","tel":"031-852-5769","addr":"경기도 의정부시 민락동 830-7번지","indutype":"보건위생 - 미용원","category":"beauty"}]},{"lat":"37.739489854","long":"127.09486824","imageIndex":13,"items":[{"name":"마음헤어","tel":"031-1111-1111","addr":"경기도 의정부시 민락동 533-6번지 지하1층","indutype":"보건위생 - 미용원","category":"beauty"}]},{"lat":"37.743487216","long":"127.08664752","imageIndex":13,"items":[{"name":"마임용현지사","tel":"031-853-5356","addr":"경기도 의정부시 민락동 732-1번지 이프라자원 502호","indutype":"보건위생 - 화장품","category":"beauty"},{"name":"클로에헤어","tel":"031-851-7003","addr":"경기도 의정부시 민락동 732-1번지 이-프라자원 1층 102호","indutype":"보건위생 - 미용원","category":"beauty"},{"name":"히즈모","tel":"031-853-1221","addr":"경기도 의정부시 민락동 732-1번지 E프라자 107호","indutype":"보건위생 - 미용원","category":"beauty"}]},{"lat":"37.745128211","long":"127.09692884","imageIndex":13,"items":[{"name":"머리에 반하다","tel":"031-851-2751","addr":"경기도 의정부시 민락동 812-2번지 골드프라자-2 110호","indutype":"보건위생 - 미용원","category":"beauty"}]},{"lat":"37.740989087","long":"127.09007101","imageIndex":13,"items":[{"name":"모디모(MODIMO)헤어","tel":"031-111-1111","addr":"경기도 의정부시 민락동 738-4번지","indutype":"보건위생 - 미용원","category":"beauty"}]},{"lat":"37.744292832","long":"127.09372825","imageIndex":13,"items":[{"name":"모이살롱","tel":"031-853-0009","addr":"경기도 의정부시 민락동 793-4번지","indutype":"보건위생 - 미용원","category":"beauty"}]},{"lat":"37.738708681","long":"127.0913957","imageIndex":13,"items":[{"name":"문순헤어샵","tel":"070-8587-4584","addr":"경기도 의정부시 민락동 612-3번지 1층 2호","indutype":"보건위생 - 미용원","category":"beauty"}]},{"lat":"37.740959098","long":"127.09398512","imageIndex":13,"items":[{"name":"미가미장","tel":"031-852-7388","addr":"경기도 의정부시 민락동 693-1번지 2층","indutype":"보건위생 - 미용원","category":"beauty"},{"name":"믹락아리따움","tel":"031-851-7779","addr":"경기도 의정부시 민락동 693-1번지 거성프라자 104호","indutype":"보건위생 - 화장품","category":"beauty"},{"name":"보떼메이트","tel":"","addr":"경기도 의정부시 민락동 693-1번지 거성프라자빌딩 3층","indutype":"보건위생 - 피부미용실","category":"beauty"}]},{"lat":"37.738121917","long":"127.09290387","imageIndex":13,"items":[{"name":"미인헤어샵","tel":"031-851-3670","addr":"경기도 의정부시 민락동 572-3번지 1층","indutype":"보건위생 - 미용원","category":"beauty"}]},{"lat":"37.742828691","long":"127.08780404","imageIndex":13,"items":[{"name":"민 Shop","tel":"031-864-7946","addr":"경기도 의정부시 민락동 735-5번지 송산푸르지오 103동 505호","indutype":"보건위생 - 화장품","category":"beauty"}]},{"lat":"37.744847618","long":"127.09853961","imageIndex":13,"items":[{"name":"민락안경","tel":"031-851-1170","addr":"경기도 의정부시 민락동 844-2번지 정원빌딩 1층 107호","indutype":"보건위생 - 안경","category":"beauty"}]},{"lat":"37.744573897","long":"127.09140268","imageIndex":13,"items":[{"name":"민아이래쉬","tel":"031-000-0000","addr":"경기도 의정부시 민락동 780-3번지 101호","indutype":"보건위생 - 피부미용실","category":"beauty"}]},{"lat":"37.746990851","long":"127.09981315","imageIndex":13,"items":[{"name":"바바라네일","tel":"031-851-4060","addr":"경기도 의정부시 민락동 821번지 제일프라자 104호","indutype":"보건위생 - 피부미용실","category":"beauty"},{"name":"유네일","tel":"031-851-4060","addr":"경기도 의정부시 민락동 821번지 104호","indutype":"보건위생 - 피부미용실","category":"beauty"}]},{"lat":"37.743069631","long":"127.10229274","imageIndex":13,"items":[{"name":"박승철헤어스투디오(이마트 의정부점)","tel":"031-852-5505","addr":"경기도 의정부시 민락동 849번지 3층","indutype":"보건위생 - 미용원","category":"beauty"},{"name":"포쉬네일","tel":"070-4195-3979","addr":"경기도 의정부시 민락동 849번지 이마트 3층","indutype":"보건위생 - 피부미용실","category":"beauty"},{"name":"포인트 안경&콘택트","tel":"031-852-1002","addr":"경기도 의정부시 민락동 849번지 이마트 2층","indutype":"보건위생 - 안경","category":"beauty"}]},{"lat":"37.746679781","long":"127.09448002","imageIndex":13,"items":[{"name":"발렌","tel":"070-4187-8989","addr":"경기도 의정부시 민락동 815-1번지 CY타워 3층 302,303호","indutype":"보건위생 - 화장품","category":"beauty"},{"name":"티지오테르","tel":"031-851-0405","addr":"경기도 의정부시 민락동 815-1번지 2층","indutype":"보건위생 - 미용원","category":"beauty"}]},{"lat":"37.740545996","long":"127.09223744","imageIndex":13,"items":[{"name":"봄 헤어","tel":"031-000-0000","addr":"경기도 의정부시 민락동 705-4번지 대경빌딩 105호","indutype":"보건위생 - 미용원","category":"beauty"},{"name":"뷰티화장품","tel":"031-853-7757","addr":"경기도 의정부시 민락동 705-4번지 대경빌딩 102호","indutype":"보건위생 - 화장품","category":"beauty"}]},{"lat":"37.744121265","long":"127.09422726","imageIndex":13,"items":[{"name":"뷰림헤어","tel":"031-851-9657","addr":"경기도 의정부시 민락동 796-1번지 101호","indutype":"보건위생 - 미용원","category":"beauty"}]},{"lat":"37.745822126","long":"127.09670279","imageIndex":13,"items":[{"name":"브릴랑제이","tel":"","addr":"경기도 의정부시 민락동 835번지 골드프라자 203호","indutype":"보건위생 - 피부미용실","category":"beauty"},{"name":"씨앤씨(cnc)","tel":"031-852-2300","addr":"경기도 의정부시 민락동 835번지 골드프라자 403호","indutype":"보건위생 - 피부미용실","category":"beauty"},{"name":"이오스타 의정부지사","tel":"","addr":"경기도 의정부시 민락동 835번지 골드프라자 4층 402호","indutype":"보건위생 - 화장품","category":"beauty"},{"name":"인생머리","tel":"031-852-3222","addr":"경기도 의정부시 민락동 835번지 골드프라자 2층 202호","indutype":"보건위생 - 미용원","category":"beauty"}]},{"lat":"37.738042761","long":"127.09033983","imageIndex":13,"items":[{"name":"블루밍헤어","tel":"031-878-9607","addr":"경기도 의정부시 민락동 747-2번지 101호","indutype":"보건위생 - 미용원","category":"beauty"}]},{"lat":"37.737574365","long":"127.09020314","imageIndex":13,"items":[{"name":"사단법인한국불교의식문화교육진흥협회","tel":"031-536-2606","addr":"경기도 의정부시 민락동 748-6번지 한일베스트빌 B02호","indutype":"보건위생 - 기타대인서비스","category":"beauty"}]},{"lat":"37.743574296","long":"127.09078882","imageIndex":13,"items":[{"name":"산리쯔헤어","tel":"031-851-0346","addr":"경기도 의정부시 민락동 735-4번지 송현고등학교 103호","indutype":"보건위생 - 미용원","category":"beauty"}]},{"lat":"37.746567784","long":"127.0993474","imageIndex":13,"items":[{"name":"살롱 드 에비뉴","tel":"031-853-2677","addr":"경기도 의정부시 민락동 822-3번지 민스빌 1층,1층일부","indutype":"보건위생 - 미용원","category":"beauty"}]},{"lat":"37.746876089","long":"127.09689701","imageIndex":13,"items":[{"name":"살롱B","tel":"02-1111-1111","addr":"경기도 의정부시 민락동 827-5번지 1층상가 102호(상가출입구에서 왼쪽)","indutype":"보건위생 - 미용원","category":"beauty"}]},{"lat":"37.74493278","long":"127.09337731","imageIndex":13,"items":[{"name":"살롱드 가꿈","tel":"070-7576-1933","addr":"경기도 의정부시 민락동 790-1번지 2층 203호","indutype":"보건위생 - 미용원","category":"beauty"}]},{"lat":"37.74654044","long":"127.09973314","imageIndex":13,"items":[{"name":"살롱드설렘","tel":"070-8241-8262","addr":"경기도 의정부시 민락동 821-2번지 1층 101호","indutype":"보건위생 - 미용원","category":"beauty"}]},{"lat":"37.74582002","long":"127.09931239","imageIndex":13,"items":[{"name":"샵헤어 민락점","tel":"031-851-7171","addr":"경기도 의정부시 민락동 843-1번지 광희빌딩","indutype":"보건위생 - 미용원","category":"beauty"}]},{"lat":"37.742264012","long":"127.09587008","imageIndex":13,"items":[{"name":"센스머리방","tel":"031-851-9664","addr":"경기도 의정부시 민락동 692-1서광상사106","indutype":"보건위생 - 미용원","category":"beauty"}]},{"lat":"37.74562194","long":"127.09915329","imageIndex":13,"items":[{"name":"스타일디 (STYLE.D)","tel":"031-843-4220","addr":"경기도 의정부시 민락동 843-2번지 송민프라자 1층 105호","indutype":"보건위생 - 미용원","category":"beauty"},{"name":"아이맘심리상담연구소","tel":"031-852-5520","addr":"경기도 의정부시 민락동 843-2번지 송민프라자 4층 1호","indutype":"보건위생 - 기타대인서비스","category":"beauty"}]},{"lat":"37.746324257","long":"127.09967613","imageIndex":13,"items":[{"name":"씨파이브헤어살롱(C5헤어살롱)","tel":"031-853-5507","addr":"경기도 의정부시 민락동 821-3번지 예스프라자센텀 202호","indutype":"보건위생 - 미용원","category":"beauty"},{"name":"예스헤어샵","tel":"","addr":"경기도 의정부시 민락동 821-3번지 예스프라자센텀 1층 109호","indutype":"보건위생 - 미용원","category":"beauty"}]},{"lat":"37.750704405","long":"127.11804101","imageIndex":13,"items":[{"name":"아름다울 YOU","tel":"","addr":"경기도 의정부시 민락동 902-4번지 2층 201호","indutype":"보건위생 - 피부미용실","category":"beauty"},{"name":"아이앤아이(EYE&I) 안경 콘택트","tel":"031-853-5968","addr":"경기도 의정부시 민락동 902-4번지 보광프라자 1층 112호","indutype":"보건위생 - 안경","category":"beauty"},{"name":"헤어라떼","tel":"031-853-7387","addr":"경기도 의정부시 민락동 902-4번지 보광프라자 101호","indutype":"보건위생 - 미용원","category":"beauty"}]},{"lat":"37.739907486","long":"127.09068238","imageIndex":13,"items":[{"name":"아유타야","tel":"","addr":"경기도 의정부시 민락동 707-1번지","indutype":"보건위생 - 화장품","category":"beauty"}]},{"lat":"37.740347915","long":"127.09206702","imageIndex":13,"items":[{"name":"아이린헤어","tel":"031-853-6083","addr":"경기도 의정부시 민락동 704-6번지","indutype":"보건위생 - 미용원","category":"beauty"}]},{"lat":"37.744623721","long":"127.09687147","imageIndex":13,"items":[{"name":"아이케이헤어","tel":"031-852-0700","addr":"경기도 의정부시 민락동 811번지 거택프라자 201호","indutype":"보건위생 - 미용원","category":"beauty"},{"name":"아틀리에 225","tel":"031-852-8521","addr":"경기도 의정부시 민락동 811번지 거택프라자 111호","indutype":"보건위생 - 미용재료","category":"beauty"},{"name":"약손 테라피","tel":"031-853-3452","addr":"경기도 의정부시 민락동 811번지 거택프라자 3층 305호","indutype":"보건위생 - 안마시술소","category":"beauty"}]},{"lat":"37.736825256","long":"127.09196069","imageIndex":13,"items":[{"name":"아이패밀리의정부민락점","tel":"031-851-5785","addr":"경기도 의정부시 민락동 755-4번지 1층","indutype":"보건위생 - 안경","category":"beauty"}]},{"lat":"37.740763503","long":"127.0905359","imageIndex":13,"items":[{"name":"안경마스터민락점","tel":"031-852-3003","addr":"경기도 의정부시 민락동 738-9번지 1층","indutype":"보건위생 - 안경","category":"beauty"}]},{"lat":"37.739205195","long":"127.09006892","imageIndex":13,"items":[{"name":"안경생각","tel":"031-851-1580","addr":"경기도 의정부시 민락동 617-10번지 1층","indutype":"보건위생 - 안경","category":"beauty"}]},{"lat":"37.740935581","long":"127.08932215","imageIndex":13,"items":[{"name":"안누스샵(Annus#)","tel":"031-696-5047","addr":"경기도 의정부시 민락동 737-3번지 1층","indutype":"보건위생 - 미용원","category":"beauty"}]},{"lat":"37.745677775","long":"127.09695223","imageIndex":13,"items":[{"name":"엔2","tel":"031-581-0019","addr":"경기도 의정부시 민락동 835-1번지 골드프라자골드하우스 301호~304호","indutype":"보건위생 - 화장품","category":"beauty"}]},{"lat":"37.737293865","long":"127.09181377","imageIndex":13,"items":[{"name":"엘헤어2","tel":"031-851-1114","addr":"경기도 의정부시 민락동 752-5번지","indutype":"보건위생 - 미용원","category":"beauty"}]},{"lat":"37.737710036","long":"127.08948857","imageIndex":13,"items":[{"name":"엠메디칼","tel":"070-4452-4042","addr":"경기도 의정부시 민락동 746-3번지 화랑빌딩 3층 301호","indutype":"보건위생 - 의료용품","category":"beauty"}]},{"lat":"37.739291138","long":"127.09551466","imageIndex":13,"items":[{"name":"여우머리","tel":"031-851-1843","addr":"경기도 의정부시 민락동 696-5번지 1층","indutype":"보건위생 - 미용원","category":"beauty"}]},{"lat":"37.740403942","long":"127.08942364","imageIndex":13,"items":[{"name":"예쁜헤어샵","tel":"031-0000-0000","addr":"경기도 의정부시 민락동 740-10번지","indutype":"보건위생 - 미용원","category":"beauty"}]},{"lat":"37.738428665","long":"127.09234834","imageIndex":13,"items":[{"name":"오목로117헤어샵","tel":"031-852-3635","addr":"경기도 의정부시 민락동 550-4번지 민락e-편한세상 상가 2층 102호","indutype":"보건위생 - 미용원","category":"beauty"}]},{"lat":"37.745181495","long":"127.09789332","imageIndex":13,"items":[{"name":"왓포","tel":"031-851-9936","addr":"경기도 의정부시 민락동 838-2번지 201호","indutype":"보건위생 - 화장품","category":"beauty"}]},{"lat":"37.74048358","long":"127.09137512","imageIndex":13,"items":[{"name":"유리알 피부샵","tel":"031-852-5892","addr":"경기도 의정부시 민락동 704-1번지 1층","indutype":"보건위생 - 피부미용실","category":"beauty"}]},{"lat":"37.738932142","long":"127.09373304","imageIndex":13,"items":[{"name":"이쁜손톱","tel":"031-852-2340","addr":"경기도 의정부시 민락동 546-23번지 104호","indutype":"보건위생 - 화장품","category":"beauty"}]},{"lat":"37.743986201","long":"127.09412498","imageIndex":13,"items":[{"name":"인더네일","tel":"","addr":"경기도 의정부시 민락동 796-2번지 1층","indutype":"보건위생 - 피부미용실","category":"beauty"}]},{"lat":"37.744343625","long":"127.09786955","imageIndex":13,"items":[{"name":"제이미메디컬","tel":"031-996-2891","addr":"경기도 의정부시 민락동 804번지 804-1호","indutype":"보건위생 - 화장품","category":"beauty"}]},{"lat":"37.737790122","long":"127.09083871","imageIndex":13,"items":[{"name":"제이헤어","tel":"031-853-5209","addr":"경기도 의정부시 민락동 747-6번지 1층 102호","indutype":"보건위생 - 미용원","category":"beauty"}]},{"lat":"37.740736676","long":"127.09026358","imageIndex":13,"items":[{"name":"지오헤어","tel":"031-853-1966","addr":"경기도 의정부시 민락동 739-6번지 1층","indutype":"보건위생 - 미용원","category":"beauty"}]},{"lat":"37.746039582","long":"127.09514865","imageIndex":13,"items":[{"name":"지피지기심리상담연구소","tel":"031-851-3272","addr":"경기도 의정부시 민락동 813-1번지 파워프라자 603호","indutype":"보건위생 - 기타대인서비스","category":"beauty"}]},{"lat":"37.737654784","long":"127.09109948","imageIndex":13,"items":[{"name":"쿠헤어(COO Hair)","tel":"031-852-6358","addr":"경기도 의정부시 민락동 747-8번지 103호","indutype":"보건위생 - 미용원","category":"beauty"}]},{"lat":"37.741238245","long":"127.09417833","imageIndex":13,"items":[{"name":"태후사랑 민락점","tel":"031-852-8851","addr":"경기도 의정부시 민락동 692-3번지 102호","indutype":"보건위생 - 미용원","category":"beauty"}]},{"lat":"37.739597703","long":"127.09520873","imageIndex":13,"items":[{"name":"파라티(Para Ti)헤어","tel":"031-853-0586","addr":"경기도 의정부시 민락동 533-9번지 ,1-2층","indutype":"보건위생 - 미용원","category":"beauty"}]},{"lat":"37.751426632","long":"127.11653299","imageIndex":13,"items":[{"name":"펌프(pump)코스메틱","tel":"031-510-4373","addr":"경기도 의정부시 민락동 894번지 호반베르디움3차 1802동 2101호","indutype":"보건위생 - 화장품","category":"beauty"}]},{"lat":"37.737572594","long":"127.09256286","imageIndex":13,"items":[{"name":"하승련헤어","tel":"031-871-1799","addr":"경기도 의정부시 민락동 574-3번지 1층","indutype":"보건위생 - 미용원","category":"beauty"}]},{"lat":"37.740601575","long":"127.0902067","imageIndex":13,"items":[{"name":"해피트리","tel":"","addr":"경기도 의정부시 민락동 739-7번지 크라운빌 506호","indutype":"보건위생 - 화장품","category":"beauty"}]},{"lat":"37.742261618","long":"127.08706593","imageIndex":13,"items":[{"name":"행복한네일","tel":"031-000-0000","addr":"경기도 의정부시 민락동 734-2번지 메디칼빌딩 1층 일부 102호 일부","indutype":"보건위생 - 피부미용실","category":"beauty"}]},{"lat":"37.747210144","long":"127.09601242","imageIndex":13,"items":[{"name":"헤어탑원(HAIR TOP-1)","tel":"031-851-2313","addr":"경기도 의정부시 민락동 817-4번지 1층","indutype":"보건위생 - 미용원","category":"beauty"}]},{"lat":"37.736906282","long":"127.0920402","imageIndex":13,"items":[{"name":"화려한외출","tel":"031-852-3640","addr":"경기도 의정부시 민락동 755-3번지 1층","indutype":"보건위생 - 미용원","category":"beauty"}]},{"lat":"37.747156266","long":"127.09578543","imageIndex":13,"items":[{"name":"히릿네일","tel":"031-000-0000","addr":"경기도 의정부시 민락동 817-3번지 1층","indutype":"보건위생 - 피부미용실","category":"beauty"}]}]