[{"lat":"36.955192284","long":"126.85061143","imageIndex":0,"items":[{"name":"(주)씨엔에스티 지점","tel":"031-682-5802","addr":"경기도 평택시 포승읍 만호리 669번지","indutype":"자동차정비 유지 - 자동차부품","category":"car"},{"name":"(주)평택항 현대서비스","tel":"031-686-9752","addr":"경기도 평택시 포승읍 만호리 669번지","indutype":"자동차정비 유지 - 자동차정비","category":"car"}]},{"lat":"36.963997414","long":"126.85188523","imageIndex":0,"items":[{"name":"강원상사","tel":"","addr":"경기도 평택시 포승읍 만호리 297-4번지","indutype":"서비스업 - 자동차정비","category":"car"},{"name":"강원상사","tel":"031-681-0607","addr":"경기도 평택시 포승읍 만호리 297-4번지","indutype":"자동차정비 유지 - 자동차정비","category":"car"}]},{"lat":"36.960191642","long":"126.85649642","imageIndex":0,"items":[{"name":"경동타이어","tel":"031-681-7224","addr":"경기도 평택시 포승읍 만호리 314-4","indutype":"자동차정비 유지 - 자동차정비","category":"car"}]},{"lat":"36.953692693","long":"126.84767281","imageIndex":0,"items":[{"name":"공성윤활유","tel":"031-684-4371","addr":"경기도 평택시 포승읍 만호리 668번지","indutype":"자동차정비 유지 - 윤활유 전문 판매","category":"car"}]},{"lat":"36.958992215","long":"126.85569028","imageIndex":0,"items":[{"name":"나인에코카","tel":"031-681-8110","addr":"경기도 평택시 포승읍 만호리 400-11번지","indutype":"자동차정비 유지 - 자동차정비","category":"car"}]},{"lat":"36.962467665","long":"126.85352766","imageIndex":0,"items":[{"name":"대교자동차공업사","tel":"031-683-0304","addr":"경기도 평택시 포승읍 만호리 311-17번지","indutype":"자동차정비 유지 - 자동차정비","category":"car"}]},{"lat":"36.958047503","long":"126.85683737","imageIndex":0,"items":[{"name":"서해밧데리","tel":"031-686-8251","addr":"경기도 평택시 포승읍 만호리 394-15","indutype":"자동차정비 유지 - 자동차정비","category":"car"}]},{"lat":"36.962080175","long":"126.85350596","imageIndex":0,"items":[{"name":"스피드메이트포승점","tel":"031-686-5020","addr":"경기도 평택시 포승읍 만호리 311-25","indutype":"자동차정비 유지 - 자동차정비","category":"car"},{"name":"프로 SHOP","tel":"031-683-7122","addr":"경기도 평택시 포승읍 만호리 311-25번지","indutype":"자동차정비 유지 - 세차장","category":"car"}]},{"lat":"36.97504438","long":"126.84481057","imageIndex":0,"items":[{"name":"신화에너지","tel":"031-684-5187","addr":"경기도 평택시 포승읍 만호리 576-7","indutype":"자동차정비 유지 - 윤활유 전문 판매","category":"car"}]},{"lat":"36.961658959","long":"126.85533706","imageIndex":0,"items":[{"name":"신흥상사","tel":"031-683-6752","addr":"경기도 평택시 포승읍 만호리 313-11번지","indutype":"자동차정비 유지 - 자동차부품","category":"car"}]},{"lat":"36.956688545","long":"126.85819854","imageIndex":0,"items":[{"name":"안중특수산업","tel":"031-682-6011","addr":"경기도 평택시 포승읍 만호리 486-2번지","indutype":"자동차정비 유지 - 자동차시트·타이어","category":"car"}]},{"lat":"36.97713185","long":"126.84256006","imageIndex":0,"items":[{"name":"제이엔씨워시조아","tel":"031-8094-0969","addr":"경기도 평택시 포승읍 만호리 573-4번지","indutype":"자동차정비 유지 - 세차장","category":"car"}]},{"lat":"36.973856323","long":"126.845835","imageIndex":0,"items":[{"name":"주식회사 공성","tel":"031-683-4371","addr":"경기도 평택시 포승읍 만호리 578-6","indutype":"자동차정비 유지 - 윤활유 전문 판매","category":"car"}]},{"lat":"36.958218707","long":"126.85683704","imageIndex":0,"items":[{"name":"포승특장차타이어","tel":"031-681-9502","addr":"경기도 평택시 포승읍 만호리 394-2번지","indutype":"자동차정비 유지 - 자동차시트·타이어","category":"car"}]},{"lat":"36.977655061","long":"126.84299697","imageIndex":0,"items":[{"name":"포승행복주유소","tel":"031-681-5022","addr":"경기도 평택시 포승읍 만호리 573-1번지","indutype":"자동차정비 유지 - 자동차부품","category":"car"}]},{"lat":"36.975160514","long":"126.84405787","imageIndex":0,"items":[{"name":"한국타이어포승공단서비스","tel":"031-681-6070","addr":"경기도 평택시 포승읍 만호리 577-2번지","indutype":"자동차정비 유지 - 자동차시트·타이어","category":"car"}]},{"lat":"36.961268531","long":"126.85296857","imageIndex":0,"items":[{"name":"한라카클리닉","tel":"031-683-8813","addr":"경기도 평택시 포승읍 만호리 311-40번지","indutype":"서비스업 - 자동차정비","category":"car"}]},{"lat":"36.964744603","long":"126.85133353","imageIndex":0,"items":[{"name":"항만대형자동차공업사","tel":"031-684-0852","addr":"경기도 평택시 포승읍 만호리 297-7번지","indutype":"자동차정비 유지 - 자동차정비","category":"car"},{"name":"항만세차장","tel":"031-681-6197","addr":"경기도 평택시 포승읍 만호리 297-7,297-11","indutype":"자동차정비 유지 - 세차장","category":"car"}]},{"lat":"36.960498145","long":"126.85660812","imageIndex":0,"items":[{"name":"해오름","tel":"02-1111-1111","addr":"경기도 평택시 포승읍 만호리 314-3번지 1층","indutype":"자동차정비 유지 - 주차장","category":"car"}]}]