[{"lat":"38.01706092","long":"126.9136358","imageIndex":17,"items":[{"name":"GS25백학산단점","tel":"","addr":"경기도 연천군 백학면 통구리 1068-2번지","indutype":"유통업 영리 - 편 의 점","category":"other"}]},{"lat":"38.01866896","long":"126.9196582","imageIndex":17,"items":[{"name":"주식회사 보현","tel":"031-835-6063","addr":"경기도 연천군 백학면 통구리 1055번지","indutype":"건축자재 - 기타건축자재","category":"other"}]},{"lat":"38.00516931","long":"126.9142423","imageIndex":7,"items":[{"name":"레클레스영농조합법인","tel":"031-839-2995","addr":"경기도 연천군 백학면 통구리 670-1번지","indutype":"음료식품 - 농·축·수산품","category":"food"}]},{"lat":"38.0053956","long":"126.9287933","imageIndex":7,"items":[{"name":"아임몬드","tel":"","addr":"경기도 연천군 백학면 통구리 50번지","indutype":"음료식품 - 농·축·수산품","category":"food"}]},{"lat":"38.00386412","long":"126.9157696","imageIndex":7,"items":[{"name":"원당사슴목장건강원","tel":"031-833-5655","addr":"경기도 연천군 백학면 통구리 466-17번지","indutype":"건강식품 - 기타건강식품","category":"food"}]},{"lat":"38.00444904","long":"126.914858","imageIndex":4,"items":[{"name":"백학한식","tel":"031-835-4040","addr":"경기도 연천군 백학면 통구리 469-10","indutype":"일반휴게음식 - 일반한식","category":"restaurant"}]},{"lat":"38.00508862","long":"126.9147662","imageIndex":4,"items":[{"name":"별쑥","tel":"031-835-7744","addr":"경기도 연천군 백학면 통구리 670-6번지","indutype":"일반휴게음식 - 일반한식","category":"restaurant"}]},{"lat":"38.01628638","long":"126.913967","imageIndex":4,"items":[{"name":"파랑새한식뷔페","tel":"031-835-8876","addr":"경기도 연천군 백학면 통구리 586-7번지","indutype":"일반휴게음식 - 일반한식","category":"restaurant"}]},{"lat":"38.00492685","long":"126.9153015","imageIndex":0,"items":[{"name":"임진강모터스","tel":"031-835-4700","addr":"경기도 연천군 백학면 통구리 471번지 외1필지","indutype":"자동차정비 유지 - 자동차정비","category":"car"}]},{"lat":"38.01255735","long":"126.9149622","imageIndex":0,"items":[{"name":"통구리 공업사","tel":"031-835-9410","addr":"경기도 연천군 백학면 통구리 622-10번지","indutype":"자동차정비 유지 - 자동차정비","category":"car"}]}]