[{"lat":"38.03211576","long":"127.1026137","imageIndex":4,"items":[{"name":"궁평국수","tel":"031-832-0934","addr":"경기도 연천군 청산면 궁평리 590번지","indutype":"일반휴게음식 - 일반한식","category":"restaurant"}]},{"lat":"38.03117178","long":"127.1105854","imageIndex":4,"items":[{"name":"금잔디우렁이쌈밥집","tel":"031-835-8100","addr":"경기도 연천군 청산면 궁평리 154-6번지","indutype":"일반휴게음식 - 일반한식","category":"restaurant"}]},{"lat":"38.03214325","long":"127.1020556","imageIndex":4,"items":[{"name":"놀부","tel":"031-833-5019","addr":"경기도 연천군 청산면 궁평리 592-2번지 1","indutype":"일반휴게음식 - 일반한식","category":"restaurant"}]},{"lat":"38.03514202","long":"127.1035518","imageIndex":4,"items":[{"name":"라피유","tel":"031-5177-9979","addr":"경기도 연천군 청산면 궁평리 562-6번지","indutype":"일반휴게음식 - 서양음식","category":"restaurant"}]},{"lat":"38.02506524","long":"127.108777","imageIndex":4,"items":[{"name":"민경이네김밥 청산궁평점","tel":"031-833-6655","addr":"경기도 연천군 청산면 궁평리 231-4번지","indutype":"일반휴게음식 - 일반한식","category":"restaurant"}]},{"lat":"38.0299221","long":"127.1077247","imageIndex":4,"items":[{"name":"백인더 처치","tel":"031-833-1121","addr":"경기도 연천군 청산면 궁평리 489-18번지","indutype":"일반휴게음식 - 일반한식","category":"restaurant"}]},{"lat":"38.03217049","long":"127.1018051","imageIndex":4,"items":[{"name":"부산돼지국밥","tel":"031-833-1331","addr":"경기도 연천군 청산면 궁평리 592-5번지","indutype":"일반휴게음식 - 일반한식","category":"restaurant"}]},{"lat":"38.02478591","long":"127.1088335","imageIndex":4,"items":[{"name":"삼월애","tel":"031-832-3090","addr":"경기도 연천군 청산면 궁평리 231-17번지","indutype":"일반휴게음식 - 일반한식","category":"restaurant"}]},{"lat":"38.0325028","long":"127.1030243","imageIndex":4,"items":[{"name":"오두막가마솥손두부","tel":"031-472-9991","addr":"경기도 연천군 청산면 궁평리 587-1번지","indutype":"일반휴게음식 - 일반한식","category":"restaurant"}]},{"lat":"38.03047939","long":"127.1091379","imageIndex":4,"items":[{"name":"용궁","tel":"031-835-2451","addr":"경기도 연천군 청산면 궁평리 165-33번지 2층","indutype":"일반휴게음식 - 서양음식","category":"restaurant"}]},{"lat":"38.03086666","long":"127.1092751","imageIndex":4,"items":[{"name":"인제막국수","tel":"031-832-0605","addr":"경기도 연천군 청산면 궁평리 165-13번지","indutype":"일반휴게음식 - 일반한식","category":"restaurant"}]},{"lat":"38.03075862","long":"127.1091952","imageIndex":4,"items":[{"name":"청산치킨","tel":"031-835-1231","addr":"경기도 연천군 청산면 궁평리 165-19번지","indutype":"일반휴게음식 - 스넥","category":"restaurant"}]},{"lat":"38.02445222","long":"127.1092203","imageIndex":4,"items":[{"name":"카페리히트","tel":"031-832-7548","addr":"경기도 연천군 청산면 궁평리 232번지","indutype":"일반휴게음식 - 서양음식","category":"restaurant"}]},{"lat":"38.03203327","long":"127.1042538","imageIndex":4,"items":[{"name":"큰맘할매순대국","tel":"031-832-8866","addr":"경기도 연천군 청산면 궁평리 531번지","indutype":"일반휴게음식 - 일반한식","category":"restaurant"}]},{"lat":"38.03606378","long":"127.1105242","imageIndex":4,"items":[{"name":"플렛하우스","tel":"031-832-2171","addr":"경기도 연천군 청산면 궁평리 38-4번지","indutype":"일반휴게음식 - 서양음식","category":"restaurant"}]}]