[{"lat":"37.515233323","long":"126.78429511","imageIndex":17,"items":[{"name":"(사)늘푸른희망연대 부천지부","tel":"032-673-7550","addr":"경기도 부천시 도당동 25-12번지","indutype":"기타 - 비영리/비대상","category":"other"},{"name":"벧엘정밀","tel":"032-672-1997","addr":"경기도 부천시 도당동 25-12번지 1층","indutype":"기타 - 기계공구","category":"other"},{"name":"아리수테크","tel":"032-673-6779","addr":"경기도 부천시 도당동 25-12번지 1층","indutype":"기타 - 기계공구","category":"other"},{"name":"재선정밀","tel":"032-671-9315","addr":"경기도 부천시 도당동 25-12번지 1층 일부","indutype":"기타 - 기계공구","category":"other"},{"name":"진양상사","tel":"032-672-5939","addr":"경기도 부천시 도당동 25-12번지 1층","indutype":"신변잡화 - 기타잡화","category":"other"},{"name":"한강다이아몬드","tel":"032-684-1376","addr":"경기도 부천시 도당동 25-12번지","indutype":"기타 - 기타 전문점","category":"other"},{"name":"한국앵글랙시스템","tel":"032-678-8959","addr":"경기도 부천시 도당동 25-12번지 1층","indutype":"건축자재 - 기타건축자재","category":"other"}]},{"lat":"37.511339136","long":"126.77847025","imageIndex":17,"items":[{"name":"(주) 스폴","tel":"032-670-7893","addr":"경기도 부천시 도당동 187-7번지 부천대우테크노파크 C동 704호","indutype":"레져용품 - 스포츠·레져용품","category":"other"},{"name":"(주)베텍이엠/마이웨이전기자전거","tel":"032-975-5645","addr":"경기도 부천시 도당동 187-7번지 부천대우테크노파크 A동 지 06호","indutype":"레져용품 - 스포츠·레져용품","category":"other"},{"name":"(주)워터엔피플","tel":"032-670-7555","addr":"경기도 부천시 도당동 187-7번지 대우테크노파크 A동 1007호","indutype":"주방용구 - 정수기","category":"other"},{"name":"(주)인우하이텍","tel":"032-670-8406","addr":"경기도 부천시 도당동 187-7번지 부천대우테크노파크 A동 1208호","indutype":"서적문구 - 과학기자재","category":"other"},{"name":"(주)트랜스마이크로/원격지","tel":"02-864-0233","addr":"경기도 부천시 도당동 187-7번지 부천대우테크노파크 B동 808호","indutype":"기타 - 기타 전문점","category":"other"},{"name":"근영 하이텍","tel":"032-670-8903","addr":"경기도 부천시 도당동 187-7번지 부천대우테크노파크 C동 1103호","indutype":"전기제품 - 기타전기제품","category":"other"},{"name":"금강정밀","tel":"032-670-8090","addr":"경기도 부천시 도당동 187-7번지 부천대우테크노파크 지하 1층 09호","indutype":"기타 - 기계공구","category":"other"},{"name":"금강정밀/원격지","tel":"032-670-8090","addr":"경기도 부천시 도당동 187-7번지 부천대우테크노파크 지하 1층 09호","indutype":"기타 - 기타 전문점","category":"other"},{"name":"대우툴링","tel":"032-670-8909","addr":"경기도 부천시 도당동 187-7번지","indutype":"기타 - 기계공구","category":"other"},{"name":"대한무선계측제어(주)","tel":"032-670-7200","addr":"경기도 부천시 도당동 187-7번지 부천대우테크노파크 B동 1003호","indutype":"사무통신 - 통신기기","category":"other"},{"name":"동성음향","tel":"032-670-7017","addr":"경기도 부천시 도당동 187-7번지 부천대우테크노파크 A동 702호","indutype":"전기제품 - 가전제품","category":"other"},{"name":"뢴트겐라인","tel":"032-670-8572","addr":"경기도 부천시 도당동 187-7번지 부천테크노파크 D동 907호","indutype":"전기제품 - 기타전기제품","category":"other"},{"name":"무림오피스웨이부천점","tel":"032-670-8989","addr":"경기도 부천시 도당동 187-7번지","indutype":"서적문구 - 출판 및 인쇄물","category":"other"},{"name":"보원테크","tel":"032-670-7827","addr":"경기도 부천시 도당동 187-7번지 부천대우테크노파크 C동 1003호","indutype":"서적문구 - 과학기자재","category":"other"},{"name":"비전과학A/S쎈타(구YM사이언텍)/원격지","tel":"032-670-8499","addr":"경기도 부천시 도당동 187-7번지 부천대우테크노파크 D동 902호","indutype":"기타 - 기타 전문점","category":"other"},{"name":"비전바이오넥스","tel":"032-670-8499","addr":"경기도 부천시 도당동 187-7번지 부천대우테크노파크 D동 902호","indutype":"기타 - 기계공구","category":"other"},{"name":"상일조각","tel":"032-670-8770","addr":"경기도 부천시 도당동 187-7번지 부천대우테크노파크 B302호","indutype":"기타 - 기타 전문점","category":"other"},{"name":"성화정밀","tel":"032-670-8060","addr":"경기도 부천시 도당동 187-7번지 부천대우테크노파크 B동 405호","indutype":"기타 - 기계공구","category":"other"},{"name":"세미원","tel":"032-678-8538","addr":"경기도 부천시 도당동 187-7번지 부천대우테크노파크 B동 706호","indutype":"전기제품 - 기타전기제품","category":"other"},{"name":"세븐7데이즈","tel":"032-670-8285","addr":"경기도 부천시 도당동 187-7부천대우테크노파크C(103)동5층507호","indutype":"유통업 영리 - 기타유통업","category":"other"},{"name":"소룩스리테일(주)","tel":"032-670-8899","addr":"경기도 부천시 도당동 187-7번지","indutype":"용역 서비스 - 기타용역서비스","category":"other"},{"name":"수정하이텍","tel":"032-670-8147","addr":"경기도 부천시 도당동 187-7번지 부천대우테크노파크 D동 604호","indutype":"기타 - 기타 전문점","category":"other"},{"name":"스카이글로벌네트웍스(주)","tel":"032-236-1300","addr":"경기도 부천시 도당동 187-7번지 부천대우테크노파크 A동 711호","indutype":"사무통신 - 컴퓨터","category":"other"},{"name":"스튜디오 샤인","tel":"032-670-7969","addr":"경기도 부천시 도당동 187-7번지 부천대우테크노파크 1106호","indutype":"광학제품 - 사진관","category":"other"},{"name":"시드테크","tel":"032-682-0110","addr":"경기도 부천시 도당동 187-7번지 부천대우테크노파크 C동 1305호","indutype":"기타 - 기계공구","category":"other"},{"name":"신영메카닉스","tel":"032-670-7615","addr":"경기도 부천시 도당동 187-7번지 부천대우테크노파크 C동 1105호","indutype":"기타 - 기계공구","category":"other"},{"name":"씨에스 랩","tel":"032-670-7833","addr":"경기도 부천시 도당동 187-7 대우테크노파크 A-210","indutype":"용역 서비스 - 소프트웨어","category":"other"},{"name":"씨유대우테크노파크점","tel":"032-670-8901","addr":"경기도 부천시 도당동 187-7번지 부천대우테크노파크 A동 101호","indutype":"유통업 영리 - 편 의 점","category":"other"},{"name":"엔씨하이테크","tel":"070-4150-4471","addr":"경기도 부천시 도당동 187-7번지 부천대우테크노파크 B동 803호","indutype":"전기제품 - 기타전기제품","category":"other"},{"name":"예원미디어","tel":"032-349-9656","addr":"경기도 부천시 도당동 187-7번지 부천대우테크노파크 A동 508호","indutype":"전기제품 - 가전제품","category":"other"},{"name":"원애드광고기술","tel":"032-667-9898","addr":"경기도 부천시 도당동 187-7번지 부천대우테크노파크 A동 604호","indutype":"용역 서비스 - 종합용역","category":"other"},{"name":"월드비시스템","tel":"032-670-8033","addr":"경기도 부천시 도당동 187-7번지 대우테크노파크빌딩 1103호","indutype":"기타 - 기계공구","category":"other"},{"name":"월드사이언스","tel":"032-670-8279","addr":"경기도 부천시 도당동 187-7번지 부천대우테크노파크 D동 1103호","indutype":"서적문구 - 과학기자재","category":"other"},{"name":"유한솔루션","tel":"032-670-8852","addr":"경기도 부천시 도당동 187-7 부천대우테크노파크D동3층303호","indutype":"기타 - 기계공구","category":"other"},{"name":"은성산업","tel":"032-670-7341","addr":"경기도 부천시 도당동 187-7","indutype":"전기제품 - 기타전기제품","category":"other"},{"name":"이피에스하이테크","tel":"032-670-8303","addr":"경기도 부천시 도당동 187-7번지 대우테크노파크제D동제3층 302호","indutype":"기타 - 기계공구","category":"other"},{"name":"일성","tel":"032-670-8525","addr":"경기도 부천시 도당동 187-7번지 부천대우테크노파크 C동 103호","indutype":"기타 - 기계공구","category":"other"},{"name":"정일정밀","tel":"032-670-8575","addr":"경기도 부천시 도당동 187-7번지 부천대우테크노파크 C동 303호","indutype":"기타 - 기계공구","category":"other"},{"name":"제이에스테크","tel":"032-670-8065","addr":"경기도 부천시 도당동 187-7번지 대우테크노 D동 204호","indutype":"사무통신 - 컴퓨터","category":"other"},{"name":"제이에스테크/원격지","tel":"032-670-8065","addr":"경기도 부천시 도당동 187-7번지 부천대우테크노파크 D동 204호","indutype":"기타 - 기타 전문점","category":"other"},{"name":"조재필 세무회계사무소","tel":"032-673-3100","addr":"경기도 부천시 도당동 187-7번지 부천대우테크노파크 A동 109호","indutype":"용역 서비스 - 법률회계서비스(개인)","category":"other"},{"name":"주식회사 바이오앤미 (BIOnME)","tel":"070-5101-7940","addr":"경기도 부천시 도당동 187-7번지 부천대우테크노파크 B동 1107호","indutype":"용역 서비스 - 사무서비스","category":"other"},{"name":"주식회사 바이오켐코리아","tel":"070-8270-4046","addr":"경기도 부천시 도당동 187-7번지 부천대우테크노파크 D동 1212호","indutype":"신변잡화 - 기타잡화","category":"other"},{"name":"주식회사 심통","tel":"032-679-1248","addr":"경기도 부천시 도당동 187-7번지 부천대우테크노파크 D동 808호","indutype":"서적문구 - 기타서적문구","category":"other"},{"name":"주식회사오송라이프","tel":"032-670-7174","addr":"경기도 부천시 도당동 187-7번지 부천대우테크노파크 A동 703호","indutype":"기타의료기관 - 기타의료기관 및 기타","category":"other"},{"name":"주식회사인우하이텍/원격지","tel":"","addr":"경기도 부천시 도당동 187-7번지 부천데우테크노파크 A동 1208호","indutype":"기타 - 기타 전문점","category":"other"},{"name":"커프러스 협동조합","tel":"032-670-7338","addr":"경기도 부천시 도당동 187-7번지 부천대우테크노파크 C동 1004호","indutype":"광학제품 - 사진관","category":"other"},{"name":"케엠피(주)","tel":"032-655-7681","addr":"경기도 부천시 도당동 187-7번지 부천대우테크노파크 A동 1010호","indutype":"사무통신 - 통신기기","category":"other"},{"name":"케이아이","tel":"032-670-7658","addr":"경기도 부천시 도당동 187-7번지 부천대우테크노파크 A동 907호","indutype":"전기제품 - 기타전기제품","category":"other"},{"name":"케이엠엘","tel":"032-670-8797","addr":"경기도 부천시 도당동 187-7번지 부천대우테크노파크 C동 302호","indutype":"기타 - 기타 전문점","category":"other"},{"name":"코스모스환보","tel":"032-670-8268","addr":"경기도 부천시 도당동 187-7번지 부천대우테크노파크 A동 402호","indutype":"기타 - 기타 전문점","category":"other"},{"name":"크로바테크","tel":"032-670-8777","addr":"경기도 부천시 도당동 187-7번지 부천대우테크노파크 C동 606호","indutype":"레져용품 - 골프용품 전문점","category":"other"},{"name":"테크크로바","tel":"02-2685-7492","addr":"경기도 부천시 도당동 187-7번지 부천대우테크노파크 C동 606호","indutype":"레져용품 - 골프용품 전문점","category":"other"},{"name":"텔레만전자통신","tel":"032-678-8566","addr":"경기도 부천시 도당동 187-7번지 부천대우테크노파크 D동 612호","indutype":"사무통신 - 통신기기","category":"other"},{"name":"한국캐노피","tel":"02-929-6547","addr":"경기도 부천시 도당동 187-7번지 부천대우테크노파크 D동 501호","indutype":"용역 서비스 - 소프트웨어","category":"other"},{"name":"한도시스템(주)","tel":"02-525-7141","addr":"경기도 부천시 도당동 187-7번지 부천대우테크노파크 D동 901호","indutype":"전기제품 - 기타전기제품","category":"other"},{"name":"한솔인쇄기획","tel":"032-666-8387","addr":"경기도 부천시 도당동 187-7번지 부천대우테크노파크 B동 803호","indutype":"서적문구 - 출판 및 인쇄물","category":"other"},{"name":"협신비니루","tel":"032-670-8058","addr":"경기도 부천시 도당동 187-7번지 부천대우테크노파크 A동 114호","indutype":"신변잡화 - 기타잡화","category":"other"},{"name":"화니네트워크","tel":"032-670-7702","addr":"경기도 부천시 도당동 187-7번지 부천대우테크노파크 A동 1006호","indutype":"용역 서비스 - 기타용역서비스","category":"other"}]},{"lat":"37.515926326","long":"126.77907863","imageIndex":17,"items":[{"name":"(주)JS개발","tel":"032-677-5922","addr":"경기도 부천시 도당동 9-1번지 4층","indutype":"용역 서비스 - 종합용역","category":"other"}]},{"lat":"37.514340879","long":"126.77452505","imageIndex":17,"items":[{"name":"(주)경인정보통신","tel":"032-675-0070","addr":"경기도 부천시 도당동 214-3번지","indutype":"사무통신 - 통신기기","category":"other"}]},{"lat":"37.514678297","long":"126.78624222","imageIndex":17,"items":[{"name":"(주)다인전기","tel":"032-676-1771","addr":"경기도 부천시 도당동 74-4번지","indutype":"전기제품 - 기타전기제품","category":"other"}]},{"lat":"37.507202561","long":"126.78759838","imageIndex":17,"items":[{"name":"(주)대덕이엔지(DAE DUK ENG)","tel":"032-674-8081","addr":"경기도 부천시 도당동 185-5번지 나동 2층","indutype":"주방용구 - 주방용구","category":"other"},{"name":"(주)제이에스텍","tel":"","addr":"경기도 부천시 도당동 185-5번지","indutype":"전기제품 - 기타전기제품","category":"other"}]},{"lat":"37.513261963","long":"126.78527358","imageIndex":17,"items":[{"name":"(주)대한제어기술","tel":"02-894-0373","addr":"경기도 부천시 도당동 81-6번지","indutype":"전기제품 - 기타전기제품","category":"other"},{"name":"더블에스","tel":"032-679-5436","addr":"경기도 부천시 도당동 81-6번지 2층","indutype":"기타 - 기계공구","category":"other"}]},{"lat":"37.514928472","long":"126.78509908","imageIndex":17,"items":[{"name":"(주)부천종합닥트","tel":"032-678-6322","addr":"경기도 부천시 도당동 75-1번지 동일브레이징건물 1층 101호","indutype":"건축자재 - 보일러·펌프·샷시","category":"other"},{"name":"태두정밀","tel":"032-671-1308","addr":"경기도 부천시 도당동 75-1, 8(제19호)","indutype":"기타 - 기타 전문점","category":"other"},{"name":"한진비니루포장","tel":"032-675-2266","addr":"경기도 부천시 도당동 75-1","indutype":"신변잡화 - 기타잡화","category":"other"}]},{"lat":"37.506235257","long":"126.78582554","imageIndex":17,"items":[{"name":"(주)부천특수강","tel":"032-676-4843","addr":"경기도 부천시 도당동 264-7번지","indutype":"기타 - 기계공구","category":"other"},{"name":"(주)부천특수강","tel":"032-676-4843","addr":"경기도 부천시 도당동 264-7번지","indutype":"기타 - 기타 전문점","category":"other"}]},{"lat":"37.516174238","long":"126.78154373","imageIndex":17,"items":[{"name":"(주)블루기획컴퍼니","tel":"032-672-5949","addr":"경기도 부천시 도당동 15-2번지 2층","indutype":"용역 서비스 - 사무서비스","category":"other"},{"name":"블루기획","tel":"032-672-5949","addr":"경기도 부천시 도당동 15-2번지 201호","indutype":"용역 서비스 - 종합용역","category":"other"}]},{"lat":"37.515200815","long":"126.78135432","imageIndex":17,"items":[{"name":"(주)승일일렉트로닉스","tel":"","addr":"경기도 부천시 도당동 16-8번지","indutype":"전기제품 - 기타전기제품","category":"other"},{"name":"승일전자","tel":"032-682-2380","addr":"경기도 부천시 도당동 16-8번지","indutype":"전기제품 - 기타전기제품","category":"other"}]},{"lat":"37.512845505","long":"126.78418896","imageIndex":17,"items":[{"name":"(주)신원기전","tel":"032-672-6291","addr":"경기도 부천시 도당동 95-2번지 y-제니스 파크 505호","indutype":"기타 - 기타 전문점","category":"other"},{"name":"동남테크","tel":"032-678-8169","addr":"경기도 부천시 도당동 95-2번지 와이제니스파크 111호","indutype":"건축자재 - 인테리어전문","category":"other"},{"name":"부천뿌리체인기어상사","tel":"032-682-2755","addr":"경기도 부천시 도당동 95-2번지 Y-제니스파크 110호","indutype":"기타 - 기계공구","category":"other"},{"name":"원호실업","tel":"032-676-7768","addr":"경기도 부천시 도당동 95-2번지 와이제니스파크 2층 203호","indutype":"주방용구 - 정수기","category":"other"},{"name":"원호실업/원격지","tel":"032-676-7768","addr":"경기도 부천시 도당동 95-2번지 와이제니스파크 2층 203호","indutype":"기타 - 기타 전문점","category":"other"},{"name":"제이텍스크린","tel":"032-672-9983","addr":"경기도 부천시 도당동 95-2번지 y-제니스파크 606호","indutype":"건축자재 - 인테리어전문","category":"other"},{"name":"주식회사 다우나노텍","tel":"032-671-9998","addr":"경기도 부천시 도당동 95-2번지 와이제니스파크 2층 208호","indutype":"전기제품 - 기타전기제품","category":"other"},{"name":"주식회사다우나노텍/원격지","tel":"032-671-9998","addr":"경기도 부천시 도당동 95-2번지 Y제니스파크 401호","indutype":"기타 - 기타 전문점","category":"other"},{"name":"주식회사크레토이","tel":"070-7722-4760","addr":"경기도 부천시 도당동 95-2번지 303호 Y-제니스파크","indutype":"서적문구 - 문구용품","category":"other"},{"name":"태광정밀","tel":"032-683-5808","addr":"경기도 부천시 도당동 95-2번지 와이제니스파크 3층 302호","indutype":"기타 - 기계공구","category":"other"},{"name":"티에스텍","tel":"032-683-8411","addr":"경기도 부천시 도당동 95-2번지 와이제니스파크 702호","indutype":"기타 - 기계공구","category":"other"}]},{"lat":"37.507288807","long":"126.7854945","imageIndex":17,"items":[{"name":"(주)싸인리더","tel":"032-679-6661","addr":"경기도 부천시 도당동 264-4번지 2층","indutype":"용역 서비스 - 종합용역","category":"other"}]},{"lat":"37.514262056","long":"126.78527068","imageIndex":17,"items":[{"name":"(주)에코바이오코리아","tel":"032-715-5100","addr":"경기도 부천시 도당동 75-4번지 3층","indutype":"용역 서비스 - 사무서비스","category":"other"}]},{"lat":"37.513786686","long":"126.77682285","imageIndex":17,"items":[{"name":"(주)엠에스비","tel":"032-684-3201","addr":"경기도 부천시 도당동 222-24번지 2층","indutype":"주방용구 - 주방용구","category":"other"},{"name":"세븐일레븐부천도당공단점","tel":"031-1577-0711","addr":"경기도 부천시 도당동 222-24번지 CT밸리 1층","indutype":"유통업 영리 - 편 의 점","category":"other"}]},{"lat":"37.509069623","long":"126.78379281","imageIndex":17,"items":[{"name":"(주)유브이에스엠티(UV SMT)","tel":"032-614-2000","addr":"경기도 부천시 도당동 256-1번지","indutype":"기타 - 기계공구","category":"other"}]},{"lat":"37.51953696","long":"126.78751771","imageIndex":17,"items":[{"name":"(주)은성엔지니어링","tel":"032-678-9631","addr":"경기도 부천시 도당동 43-3번지 은성프라자","indutype":"전기제품 - 냉열기기","category":"other"},{"name":"은성프라자","tel":"032-673-2353","addr":"경기도 부천시 도당동 43-3번지","indutype":"용역 서비스 - 부동산 중개·임대","category":"other"},{"name":"은성효요양원","tel":"032-683-3030","addr":"경기도 부천시 도당동 43-3번지 은성프라자 2층","indutype":"기타의료기관 - 기타의료기관 및 기타","category":"other"},{"name":"은성효주간보호센터","tel":"032-683-3030","addr":"경기도 부천시 도당동 43-3번지 은성프라자 1층 일부","indutype":"기타의료기관 - 기타의료기관 및 기타","category":"other"}]},{"lat":"37.507368415","long":"126.78469127","imageIndex":17,"items":[{"name":"(주)이오니아생활건강","tel":"032-720-8023","addr":"경기도 부천시 도당동 263-30번지 1층","indutype":"주방용구 - 정수기","category":"other"}]},{"lat":"37.515148134","long":"126.78696476","imageIndex":17,"items":[{"name":"(주)익스크린","tel":"032-684-2347","addr":"경기도 부천시 도당동 72-2번지 2층","indutype":"신변잡화 - 기타잡화","category":"other"}]},{"lat":"37.518815553","long":"126.78718043","imageIndex":17,"items":[{"name":"(주)일광산업","tel":"031-966-3389","addr":"경기도 부천시 도당동 44-2번지","indutype":"신변잡화 - 가방","category":"other"},{"name":"이레상사","tel":"032-672-1512","addr":"경기도 부천시 도당동 44-2번지","indutype":"기타 - 기타 전문점","category":"other"}]},{"lat":"37.513896144","long":"126.77752379","imageIndex":17,"items":[{"name":"(주)조이플랜 티움/삼원FA(담배)","tel":"","addr":"경기도 부천시 도당동 222번지 동부하이텍 1층 본관","indutype":"기타 - 기타 전문점","category":"other"},{"name":"티움/삼원FA(담배)","tel":"","addr":"경기도 부천시 도당동 222번지 동부하이텍본관 1층","indutype":"기타 - 기타 전문점","category":"other"}]},{"lat":"37.511786635","long":"126.78165849","imageIndex":17,"items":[{"name":"(주)진에이드","tel":"02-2228-2541","addr":"경기도 부천시 도당동 162-16번지","indutype":"용역 서비스 - 사무서비스","category":"other"},{"name":"하이텍전자","tel":"032-676-6538","addr":"경기도 부천시 도당동 162-16번지","indutype":"전기제품 - 기타전기제품","category":"other"}]},{"lat":"37.508007678","long":"126.77963384","imageIndex":17,"items":[{"name":"(주)플러스냉동설비","tel":"032-926-2265","addr":"경기도 부천시 도당동 283-3번지","indutype":"전기제품 - 냉열기기","category":"other"}]},{"lat":"37.509818426","long":"126.78432221","imageIndex":17,"items":[{"name":"(주)한서엔지니어링","tel":"032-675-4964","addr":"경기도 부천시 도당동 253-3번지","indutype":"기타 - 기계공구","category":"other"},{"name":"대신종합전기","tel":"032-677-6521","addr":"경기도 부천시 도당동 253-3번지 공구상가 9동 104호","indutype":"전기제품 - 기타전기제품","category":"other"},{"name":"도경정밀","tel":"032-684-4640","addr":"경기도 부천시 도당동 253-3번지 1층 5호","indutype":"기타 - 기계공구","category":"other"},{"name":"명성볼트","tel":"032-675-2422","addr":"경기도 부천시 도당동 253-3번지","indutype":"기타 - 기계공구","category":"other"},{"name":"삼진종합포장","tel":"032-675-9919","addr":"경기도 부천시 도당동 253-3번지","indutype":"신변잡화 - 기타잡화","category":"other"},{"name":"아하교육구로영등포지점","tel":"032-676-6338","addr":"경기도 부천시 도당동 253-3번지 부천공구상가 10동 301호","indutype":"회원제형태 - 서적","category":"other"},{"name":"우성볼트상사","tel":"032-675-3017","addr":"경기도 부천시 도당동 253-3번지","indutype":"기타 - 기계공구","category":"other"},{"name":"중앙모터펌프","tel":"032-684-8183","addr":"경기도 부천시 도당동 253-3번지 부천공구상가 9동 101호","indutype":"건축자재 - 보일러·펌프·샷시","category":"other"},{"name":"케이엠상사","tel":"032-684-2330","addr":"경기도 부천시 도당동 253-3번지 공구상사 9-1","indutype":"기타 - 기계공구","category":"other"}]},{"lat":"37.519952689","long":"126.78821784","imageIndex":17,"items":[{"name":"(주)한성텔레콤","tel":"032-667-4600","addr":"경기도 부천시 도당동 58-5번지 진보빌딩 1층","indutype":"사무통신 - 통신기기","category":"other"}]},{"lat":"37.506541446","long":"126.78574548","imageIndex":17,"items":[{"name":"1등 오토바이","tel":"032-4324-4256","addr":"경기도 부천시 도당동 264-30번지 1층","indutype":"수리서비스 - 레져용품수리","category":"other"}]},{"lat":"37.518506483","long":"126.78568819","imageIndex":17,"items":[{"name":"21C예빈공조","tel":"032-675-4181","addr":"경기도 부천시 도당동 42-13번지 파라다이스","indutype":"수리서비스 - 기타수리서비스","category":"other"}]},{"lat":"37.511009126","long":"126.78507653","imageIndex":17,"items":[{"name":"3.14테크","tel":"032-677-3014","addr":"경기도 부천시 도당동 86-20번지 1층","indutype":"기타 - 기계공구","category":"other"},{"name":"프라임시스템","tel":"032-684-5354","addr":"경기도 부천시 도당동 86-20번지","indutype":"기타 - 기계공구","category":"other"}]},{"lat":"37.515675569","long":"126.77988247","imageIndex":17,"items":[{"name":"ACE초경","tel":"032-677-0949","addr":"경기도 부천시 도당동 11번지 1층 11호","indutype":"기타 - 기계공구","category":"other"},{"name":"다이넥스경인점","tel":"032-681-3151","addr":"경기도 부천시 도당동 11.41층18호","indutype":"기타 - 기타 전문점","category":"other"},{"name":"미니스톱도당공단점","tel":"031-1577-9621","addr":"경기도 부천시 도당동 11번지 12-13호","indutype":"유통업 영리 - 편 의 점","category":"other"},{"name":"미성프로세스","tel":"032-666-0503","addr":"경기도 부천시 도당동 11 (2층10, 11호)","indutype":"서적문구 - 출판 및 인쇄물","category":"other"},{"name":"부강금속","tel":"032-679-0195","addr":"경기도 부천시 도당동 11번지 19","indutype":"건축자재 - 기타건축자재","category":"other"},{"name":"인하KBM","tel":"032-678-3120","addr":"경기도 부천시 도당동 11번지 1층 07호","indutype":"기타 - 기계공구","category":"other"},{"name":"정진전열","tel":"032-675-7478","addr":"경기도 부천시 도당동 11번지 1층 18호","indutype":"전기제품 - 기타전기제품","category":"other"},{"name":"태경산업","tel":"032-673-7765","addr":"경기도 부천시 도당동 11번지 11-4 , 2층12호","indutype":"레져용품 - 스포츠·레져용품","category":"other"},{"name":"태은특수공구연마","tel":"032-678-1707","addr":"경기도 부천시 도당동 11번지 1층 21호","indutype":"기타 - 기계공구","category":"other"}]},{"lat":"37.508950751","long":"126.78285442","imageIndex":17,"items":[{"name":"CJMULTIMEDIA","tel":"032-677-0884","addr":"경기도 부천시 도당동 256-6번지","indutype":"기타 - 기타 전문점","category":"other"}]},{"lat":"37.510981313","long":"126.77982857","imageIndex":17,"items":[{"name":"CM툴스","tel":"032-684-8423","addr":"경기도 부천시 도당동 173-27번지 2층 남측","indutype":"기타 - 기계공구","category":"other"}]},{"lat":"37.507037744","long":"126.78129928","imageIndex":17,"items":[{"name":"DC백화점","tel":"032-675-4493","addr":"경기도 부천시 도당동 276-4번지","indutype":"신변잡화 - 기타잡화","category":"other"},{"name":"뜨레비","tel":"032-675-3916","addr":"경기도 부천시 도당동 276-4번지","indutype":"의류 - 정장","category":"other"},{"name":"빈티지멀티샵 2호점","tel":"","addr":"경기도 부천시 도당동 276-4번지 1층","indutype":"의류 - 정장","category":"other"},{"name":"한성전자","tel":"032-683-6270","addr":"경기도 부천시 도당동 276-4번지","indutype":"전기제품 - 기타전기제품","category":"other"}]},{"lat":"37.519397089","long":"126.79493859","imageIndex":17,"items":[{"name":"E&C(이앤씨)","tel":"032-678-9070","addr":"경기도 부천시 도당동 130-5번지","indutype":"용역 서비스 - 종합용역","category":"other"},{"name":"금실나라손뜨게방","tel":"032-679-6777","addr":"경기도 부천시 도당동 130-5번지 1층","indutype":"직물 - 침구·수예점","category":"other"}]},{"lat":"37.51884491","long":"126.78845856","imageIndex":17,"items":[{"name":"GS25도당성원점","tel":"","addr":"경기도 부천시 도당동 56-14번지 성원빌라","indutype":"유통업 영리 - 편 의 점","category":"other"},{"name":"로즈빌인테리어","tel":"032-681-5319","addr":"경기도 부천시 도당동 56-14번지 성원빌라 101호","indutype":"건축자재 - 인테리어전문","category":"other"}]},{"lat":"37.517315958","long":"126.78996735","imageIndex":17,"items":[{"name":"GS25도당장미점","tel":"02-2006-2485","addr":"경기도 부천시 도당동 67-28번지 1층","indutype":"유통업 영리 - 편 의 점","category":"other"}]},{"lat":"37.519036397","long":"126.79476991","imageIndex":17,"items":[{"name":"GS25도당타운점","tel":"","addr":"경기도 부천시 도당동 129번지 101호","indutype":"유통업 영리 - 편 의 점","category":"other"},{"name":"신지자동문","tel":"070-4127-0634","addr":"경기도 부천시 도당동 129번지 1층 103호","indutype":"건축자재 - 기타건축자재","category":"other"}]},{"lat":"37.515205474","long":"126.77904685","imageIndex":17,"items":[{"name":"GS25부천도당공단점","tel":"","addr":"경기도 부천시 도당동 8-6번지 1층","indutype":"유통업 영리 - 편 의 점","category":"other"},{"name":"세림정밀","tel":"032-673-6075","addr":"경기도 부천시 도당동 8-6번지 1층","indutype":"기타 - 기계공구","category":"other"}]},{"lat":"37.520289369","long":"126.7900494","imageIndex":17,"items":[{"name":"GS25부천도당점","tel":"","addr":"경기도 부천시 도당동 61-2번지","indutype":"유통업 영리 - 편 의 점","category":"other"},{"name":"세명정보통신","tel":"032-683-8011","addr":"경기도 부천시 도당동 61-2번지 영진빌딩 1층","indutype":"사무통신 - 통신기기","category":"other"}]},{"lat":"37.52062021","long":"126.79367957","imageIndex":17,"items":[{"name":"GS25부천도서관점","tel":"","addr":"경기도 부천시 도당동 116-6번지 1층","indutype":"유통업 영리 - 편 의 점","category":"other"},{"name":"깨끗한 세탁나라","tel":"032-678-0170","addr":"경기도 부천시 도당동 116-6번지","indutype":"수리서비스 - 세탁소","category":"other"}]},{"lat":"37.51650634","long":"126.78571661","imageIndex":17,"items":[{"name":"GS25부천북중점","tel":"","addr":"경기도 부천시 도당동 35-14번지 1층","indutype":"유통업 영리 - 편 의 점","category":"other"}]},{"lat":"37.505846959","long":"126.78535165","imageIndex":17,"items":[{"name":"GS25부천참사랑점","tel":"","addr":"경기도 부천시 도당동 265-33번지 1층","indutype":"유통업 영리 - 편 의 점","category":"other"}]},{"lat":"37.511007433","long":"126.78416039","imageIndex":17,"items":[{"name":"LED 미래조명","tel":"032-675-8953","addr":"경기도 부천시 도당동 99-3번지 동양빌딩 가동 102호","indutype":"건축자재 - 조명기구","category":"other"},{"name":"가온아크릴","tel":"02-1833-7468","addr":"경기도 부천시 도당동 99-3번지 가동 1층 101호","indutype":"건축자재 - 기타건축자재","category":"other"},{"name":"동양상사","tel":"032-675-9688","addr":"경기도 부천시 도당동 99-3번지 나동 1층 101호","indutype":"전기제품 - 기타전기제품","category":"other"},{"name":"부천마끼다","tel":"032-674-6535","addr":"경기도 부천시 도당동 99-3번지 동양빌딩 102호","indutype":"전기제품 - 기타전기제품","category":"other"},{"name":"삼신부천특약점","tel":"032-676-3388","addr":"경기도 부천시 도당동 99-3번지 동양빌딩 103호","indutype":"가구 - 철제가구","category":"other"},{"name":"오피스맥스","tel":"032-671-4212","addr":"경기도 부천시 도당동 99-3번지 102호","indutype":"서적문구 - 문구용품","category":"other"},{"name":"오피스맥스원","tel":"032-671-4212","addr":"경기도 부천시 도당동 99-3번지 동양빌딩 102호","indutype":"서적문구 - 문구용품","category":"other"},{"name":"형제전기(주) 부천지점","tel":"032-822-6661","addr":"경기도 부천시 도당동 99-3번지 가동 1층 102호","indutype":"전기제품 - 기타전기제품","category":"other"}]},{"lat":"37.515789331","long":"126.77810628","imageIndex":17,"items":[{"name":"LK호이스트","tel":"032-677-2290","addr":"경기도 부천시 도당동 7번지","indutype":"기타 - 기계공구","category":"other"},{"name":"LK호이스트크레인","tel":"032-677-2290","addr":"경기도 부천시 도당동 7번지","indutype":"기타 - 기계공구","category":"other"},{"name":"경인특수강","tel":"032-671-6077","addr":"경기도 부천시 도당동 7","indutype":"건축자재 - 기타건축자재","category":"other"},{"name":"광명상사","tel":"032-675-9454","addr":"경기도 부천시 도당동 7번지 태양 상가","indutype":"기타 - 기계공구","category":"other"},{"name":"기산전기","tel":"032-675-2286","addr":"경기도 부천시 도당동 7번지","indutype":"전기제품 - 기타전기제품","category":"other"},{"name":"명신베아링","tel":"032-678-8289","addr":"경기도 부천시 도당동 7번지","indutype":"기타 - 기계공구","category":"other"},{"name":"신우포장상사","tel":"032-679-8600","addr":"경기도 부천시 도당동 7번지","indutype":"신변잡화 - 기타잡화","category":"other"},{"name":"은아전열","tel":"032-676-9724","addr":"경기도 부천시 도당동 7번지","indutype":"전기제품 - 기타전기제품","category":"other"},{"name":"일동볼트","tel":"032-675-7640","addr":"경기도 부천시 도당동 7번지","indutype":"기타 - 기계공구","category":"other"},{"name":"중앙소방기구","tel":"032-678-5570","addr":"경기도 부천시 도당동 7번지","indutype":"기타 - 기타 전문점","category":"other"},{"name":"협신테크","tel":"032-674-0083","addr":"경기도 부천시 도당동 7번지 105호","indutype":"전기제품 - 냉열기기","category":"other"}]},{"lat":"37.508873102","long":"126.78470951","imageIndex":17,"items":[{"name":"M.P.L","tel":"032-671-1067","addr":"경기도 부천시 도당동 255-1 6동 201호","indutype":"건축자재 - 조명기구","category":"other"},{"name":"다모아테크","tel":"032-682-8886","addr":"경기도 부천시 도당동 255-1","indutype":"신변잡화 - 기타잡화","category":"other"},{"name":"비전화공약품상사","tel":"032-671-1289","addr":"경기도 부천시 도당동 255-1.5-103","indutype":"기타 - 기타 전문점","category":"other"},{"name":"삼진금속","tel":"032-672-0943","addr":"경기도 부천시 도당동 255-1부천공구상가5-1","indutype":"기타 - 기계공구","category":"other"},{"name":"제일써보테크","tel":"032-326-7641","addr":"경기도 부천시 도당동 255-1,5-303","indutype":"기타 - 기계공구","category":"other"},{"name":"중앙모타펌프","tel":"032-676-8183","addr":"경기도 부천시 도당동 255-1번지","indutype":"건축자재 - 보일러·펌프·샷시","category":"other"},{"name":"현미디어","tel":"032-683-3117","addr":"경기도 부천시 도당동 255-1,5-201","indutype":"전기제품 - 기타전기제품","category":"other"}]},{"lat":"37.50592932","long":"126.78118946","imageIndex":17,"items":[{"name":"MK정보","tel":"032-671-2216","addr":"경기도 부천시 도당동 278-7번지","indutype":"사무통신 - 통신기기","category":"other"},{"name":"짱시구제","tel":"","addr":"경기도 부천시 도당동 278-7번지 1층 일부호","indutype":"의류 - 정장","category":"other"},{"name":"홍보석","tel":"032-675-7373","addr":"경기도 부천시 도당동 278-7번지","indutype":"신변잡화 - 시계","category":"other"}]},{"lat":"37.507178727","long":"126.78443169","imageIndex":17,"items":[{"name":"PAOLO GOMES(파올로고매스)","tel":"032-673-8168","addr":"경기도 부천시 도당동 265-51번지 1층","indutype":"신변잡화 - 가방","category":"other"}]},{"lat":"37.507062263","long":"126.77996464","imageIndex":17,"items":[{"name":"Q복권방","tel":"032-677-8482","addr":"경기도 부천시 도당동 284-1번지","indutype":"기타 - 기타 전문점","category":"other"}]},{"lat":"37.514927135","long":"126.78437518","imageIndex":17,"items":[{"name":"SH케미칼","tel":"032-675-4135","addr":"경기도 부천시 도당동 88-14번지 1층","indutype":"유통업 영리 - 기타유통업","category":"other"},{"name":"성은화학","tel":"032-672-1122","addr":"경기도 부천시 도당동 88-14번지 1층","indutype":"기타 - 기타 전문점","category":"other"},{"name":"일심샌딩","tel":"032-677-7944","addr":"경기도 부천시 도당동 88-14번지","indutype":"건축자재 - 기타건축자재","category":"other"},{"name":"지오툴링","tel":"032-674-6166","addr":"경기도 부천시 도당동 88-14번지","indutype":"전기제품 - 기타전기제품","category":"other"},{"name":"한라상사","tel":"032-683-7701","addr":"경기도 부천시 도당동 88-14번지 1층 일부","indutype":"유통업 영리 - 기타유통업","category":"other"}]},{"lat":"37.505874411","long":"126.78073723","imageIndex":17,"items":[{"name":"T world/퍼스트모바일","tel":"","addr":"경기도 부천시 도당동 279-6번지 11호","indutype":"사무통신 - 통신기기","category":"other"},{"name":"엠케이모바일 (M&K Mobile)","tel":"032-202-2001","addr":"경기도 부천시 도당동 279-6번지 1층 11호","indutype":"사무통신 - 통신기기","category":"other"}]},{"lat":"37.510236263","long":"126.78130113","imageIndex":17,"items":[{"name":"TK산업","tel":"032-511-5886","addr":"경기도 부천시 도당동 268-6번지","indutype":"전기제품 - 기타전기제품","category":"other"}]},{"lat":"37.515979861","long":"126.78360295","imageIndex":17,"items":[{"name":"UBIS(유비스)","tel":"032-671-0412","addr":"경기도 부천시 도당동 23-2번지 1층","indutype":"주방용구 - 주방용구","category":"other"}]},{"lat":"37.509397455","long":"126.78082858","imageIndex":17,"items":[{"name":"j.i전시비전","tel":"070-7545-1148","addr":"경기도 부천시 도당동 272-10번지 4층","indutype":"신변잡화 - 기타잡화","category":"other"}]},{"lat":"37.520978736","long":"126.79262656","imageIndex":17,"items":[{"name":"가림디자인","tel":"02-1111-1111","addr":"경기도 부천시 도당동 115번지 선경아트빌 1-가동 402호","indutype":"직물 - 카페트,커튼,천막,지물","category":"other"}]},{"lat":"37.51189775","long":"126.78326426","imageIndex":17,"items":[{"name":"가와테크","tel":"032-671-2201","addr":"경기도 부천시 도당동 98-11번지 2층","indutype":"유통업 영리 - 기타유통업","category":"other"}]},{"lat":"37.508761438","long":"126.78279842","imageIndex":17,"items":[{"name":"가인그래픽스","tel":"032-676-6604","addr":"경기도 부천시 도당동 257-4번지 1층","indutype":"용역 서비스 - 종합용역","category":"other"}]},{"lat":"37.512317537","long":"126.78129498","imageIndex":17,"items":[{"name":"감성테크","tel":"032-671-7721","addr":"경기도 부천시 도당동 162-4번지","indutype":"기타 - 기계공구","category":"other"}]},{"lat":"37.507509006","long":"126.78276817","imageIndex":17,"items":[{"name":"강남철물설비","tel":"032-676-9510","addr":"경기도 부천시 도당동 263-10번지 1층","indutype":"건축자재 - 목재·석재·철물","category":"other"}]},{"lat":"37.507173401","long":"126.78157031","imageIndex":17,"items":[{"name":"강남커텐","tel":"032-676-6500","addr":"경기도 부천시 도당동 276-3번지","indutype":"직물 - 카페트,커튼,천막,지물","category":"other"}]},{"lat":"37.515282752","long":"126.77704456","imageIndex":17,"items":[{"name":"강남화공약품","tel":"032-674-9310","addr":"경기도 부천시 도당동 5번지","indutype":"서적문구 - 과학기자재","category":"other"},{"name":"강남화공약품상사","tel":"032-674-9310","addr":"경기도 부천시 도당동 5번지","indutype":"기타 - 기타 전문점","category":"other"},{"name":"대웅엔지니어링","tel":"032-678-5326","addr":"경기도 부천시 도당동 5번지","indutype":"기타 - 기계공구","category":"other"},{"name":"대한상사","tel":"032-675-7707","addr":"경기도 부천시 도당동 5번지","indutype":"유통업 영리 - 기타유통업","category":"other"},{"name":"백인회","tel":"032-677-8440","addr":"경기도 부천시 도당동 5번지 태양공구상가 3층","indutype":"기타 - 기타 전문점","category":"other"},{"name":"부천공구","tel":"032-675-1717","addr":"경기도 부천시 도당동 5번지 태양공구상가 1층","indutype":"기타 - 기계공구","category":"other"},{"name":"토성종합공구상사","tel":"032-674-5417","addr":"경기도 부천시 도당동 5번지","indutype":"기타 - 기계공구","category":"other"},{"name":"현대볼트","tel":"032-677-0561","addr":"경기도 부천시 도당동 5번지","indutype":"기타 - 기계공구","category":"other"}]},{"lat":"37.507373542","long":"126.78259892","imageIndex":17,"items":[{"name":"강남화원","tel":"032-675-2705","addr":"경기도 부천시 도당동 274-16번지","indutype":"문화.취미 - 화원","category":"other"}]},{"lat":"37.510144118","long":"126.78504512","imageIndex":17,"items":[{"name":"강민건설기계","tel":"032-676-0949","addr":"경기도 부천시 도당동 178-7번지 1층 2호","indutype":"기타 - 기계공구","category":"other"},{"name":"우진상사","tel":"032-672-9936","addr":"경기도 부천시 도당동 178-7번지 상가","indutype":"직물 - 기타직물","category":"other"}]},{"lat":"37.507153257","long":"126.78043939","imageIndex":17,"items":[{"name":"강아지나라","tel":"032-279-0303","addr":"경기도 부천시 도당동 279-1번지","indutype":"문화.취미 - 애완동물","category":"other"},{"name":"신발백화점","tel":"032-675-3953","addr":"경기도 부천시 도당동 279-1번지 1층","indutype":"신변잡화 - 신발","category":"other"},{"name":"아이정보통신","tel":"032-111-1234","addr":"경기도 부천시 도당동 279-1번지","indutype":"사무통신 - 통신기기","category":"other"}]},{"lat":"37.511423009","long":"126.77994036","imageIndex":17,"items":[{"name":"강우스텐","tel":"02-831-2136","addr":"경기도 부천시 도당동 173-12","indutype":"건축자재 - 기타건축자재","category":"other"}]},{"lat":"37.506314445","long":"126.77996687","imageIndex":17,"items":[{"name":"강화철물","tel":"032-675-2880","addr":"경기도 부천시 도당동 284-3번지","indutype":"건축자재 - 목재·석재·철물","category":"other"}]},{"lat":"37.507345075","long":"126.78182993","imageIndex":17,"items":[{"name":"갤러리하우스","tel":"","addr":"경기도 부천시 도당동 274-43번지","indutype":"의류 - 기타의류","category":"other"},{"name":"단미미용유통","tel":"032-666-3110","addr":"경기도 부천시 도당동 274-43번지","indutype":"회원제형태 - 기타4","category":"other"}]},{"lat":"37.511369165","long":"126.78488321","imageIndex":17,"items":[{"name":"거성천막판넬공사","tel":"032-672-7204","addr":"경기도 부천시 도당동 86-2번지","indutype":"직물 - 카페트,커튼,천막,지물","category":"other"},{"name":"신용전기","tel":"032-675-1191","addr":"경기도 부천시 도당동 86-2번지","indutype":"수리서비스 - 기타수리서비스","category":"other"},{"name":"제일특수","tel":"032-681-1474","addr":"경기도 부천시 도당동 86-2번지","indutype":"기타 - 기계공구","category":"other"}]},{"lat":"37.510566202","long":"126.78429741","imageIndex":17,"items":[{"name":"건용정밀","tel":"032-677-4016","addr":"경기도 부천시 도당동 99-7번지","indutype":"기타 - 기타 전문점","category":"other"},{"name":"대홍바퀴","tel":"032-679-8161","addr":"경기도 부천시 도당동 99-7번지 1층 5호","indutype":"기타 - 기계공구","category":"other"},{"name":"영창베아링","tel":"032-672-7774","addr":"경기도 부천시 도당동 99-7번지","indutype":"기타 - 기계공구","category":"other"},{"name":"일신종합공구","tel":"032-675-2385","addr":"경기도 부천시 도당동 99-7번지 1층 1호","indutype":"기타 - 기계공구","category":"other"},{"name":"태양공구","tel":"032-681-5313","addr":"경기도 부천시 도당동 99-7번지 1층","indutype":"기타 - 기계공구","category":"other"}]},{"lat":"37.514341139","long":"126.7841846","imageIndex":17,"items":[{"name":"건우볼트","tel":"032-682-8397","addr":"경기도 부천시 도당동 88-9번지 B동 1층 12호","indutype":"기타 - 기계공구","category":"other"},{"name":"대경상사","tel":"032-677-8835","addr":"경기도 부천시 도당동 88-9 B동 1층 10호","indutype":"의류 - 기타의류","category":"other"},{"name":"새재히타콘트롤","tel":"032-678-2269","addr":"경기도 부천시 도당동 88-9번지B동1층15호","indutype":"기타 - 기계공구","category":"other"},{"name":"세기케미칼","tel":"032-672-9777","addr":"경기도 부천시 도당동 88-9번지 1층 7호","indutype":"유통업 영리 - 기타유통업","category":"other"},{"name":"태근포장상사","tel":"032-677-6804","addr":"경기도 부천시 도당동 88-9번지 b동 1층 11","indutype":"신변잡화 - 기타잡화","category":"other"}]},{"lat":"37.510675407","long":"126.78488523","imageIndex":17,"items":[{"name":"경기도료","tel":"032-675-7573","addr":"경기도 부천시 도당동 86-12번지","indutype":"건축자재 - 페인트","category":"other"}]},{"lat":"37.507926713","long":"126.78451999","imageIndex":17,"items":[{"name":"경기리스","tel":"032-429-0130","addr":"경기도 부천시 도당동 260-45번지 1층","indutype":"신변잡화 - 기타잡화","category":"other"}]},{"lat":"37.509287576","long":"126.78471961","imageIndex":17,"items":[{"name":"경원종합공구","tel":"032-675-7917","addr":"경기도 부천시 도당동 255-6번지","indutype":"기타 - 기계공구","category":"other"},{"name":"경인종합공구","tel":"032-675-1010","addr":"경기도 부천시 도당동 255-6번지","indutype":"기타 - 기계공구","category":"other"},{"name":"경호기공사","tel":"032-675-5116","addr":"경기도 부천시 도당동 255-6번지 공구상가 다동 102호","indutype":"기타 - 기계공구","category":"other"},{"name":"금강상사","tel":"032-675-4588","addr":"경기도 부천시 도당동 255-6번지","indutype":"전기제품 - 기타전기제품","category":"other"},{"name":"신한일사","tel":"032-675-0400","addr":"경기도 부천시 도당동 255-6번지","indutype":"전기제품 - 가전제품","category":"other"},{"name":"항만상사","tel":"032-676-8802","addr":"경기도 부천시 도당동 255-6번지","indutype":"기타 - 기계공구","category":"other"},{"name":"호영상사","tel":"032-677-6612","addr":"경기도 부천시 도당동 255-6번지","indutype":"기타 - 기타 전문점","category":"other"}]},{"lat":"37.508369323","long":"126.78512944","imageIndex":17,"items":[{"name":"경원종합상사","tel":"032-683-0985","addr":"경기도 부천시 도당동 258-24번지 2호","indutype":"기타 - 기계공구","category":"other"},{"name":"동명종합기획","tel":"032-681-1751","addr":"경기도 부천시 도당동 258-24번지 3층 301호","indutype":"기타 - 기타 전문점","category":"other"}]},{"lat":"37.510866697","long":"126.78116354","imageIndex":17,"items":[{"name":"경인모타펌프","tel":"032-676-0874","addr":"경기도 부천시 도당동 163-15번지 부천테크노월드 101호","indutype":"수리서비스 - 기타수리서비스","category":"other"},{"name":"동성하이라이트","tel":"032-675-1503","addr":"경기도 부천시 도당동 163-15번지 부천테크노월드 604호","indutype":"건축자재 - 조명기구","category":"other"},{"name":"민성테크","tel":"032-684-9855","addr":"경기도 부천시 도당동 163-15번지 부천테크노월드 302호","indutype":"전기제품 - 기타전기제품","category":"other"},{"name":"위드미부천테크노월드점","tel":"032-0000-0000","addr":"경기도 부천시 도당동 163-15번지 부천테크노월드 106호","indutype":"유통업 영리 - 편 의 점","category":"other"},{"name":"유성ENG","tel":"031-682-9133","addr":"경기도 부천시 도당동 163-15번지 부천테크노월드 103호 104호","indutype":"기타 - 기계공구","category":"other"}]},{"lat":"37.518124144","long":"126.79349425","imageIndex":17,"items":[{"name":"경인설비","tel":"031-2674-6455","addr":"경기도 부천시 도당동 121-4번지 신안인스빌 101호","indutype":"용역 서비스 - 기타용역서비스","category":"other"},{"name":"애드포지션","tel":"070-7363-0105","addr":"경기도 부천시 도당동 121-4번지 신안인스빌 502호","indutype":"용역 서비스 - 종합용역","category":"other"}]},{"lat":"37.515895716","long":"126.78196307","imageIndex":17,"items":[{"name":"경인정밀","tel":"032-556-1790","addr":"경기도 부천시 도당동 18-1번지 1층","indutype":"기타 - 기타 전문점","category":"other"},{"name":"대동코끼리(GREAEL)","tel":"032-675-9366","addr":"경기도 부천시 도당동 18-1번지","indutype":"신변잡화 - 기타잡화","category":"other"}]},{"lat":"37.517783275","long":"126.78437816","imageIndex":17,"items":[{"name":"경인철물로또판매점","tel":"032-677-9984","addr":"경기도 부천시 도당동 28-7번지 중앙빌딩 1층","indutype":"건축자재 - 목재·석재·철물","category":"other"},{"name":"산소바람","tel":"032-682-0234","addr":"경기도 부천시 도당동 28-7번지 중앙빌딩 2층 201호","indutype":"전기제품 - 기타전기제품","category":"other"},{"name":"체형관리센터","tel":"02-1111-1111","addr":"경기도 부천시 도당동 28-7번지 중앙빌딩 지층","indutype":"신변잡화 - 기타잡화","category":"other"}]},{"lat":"37.519839712","long":"126.79051446","imageIndex":17,"items":[{"name":"고강철물건재","tel":"032-675-9933","addr":"경기도 부천시 도당동 62-2번지","indutype":"건축자재 - 목재·석재·철물","category":"other"},{"name":"모든인쇄","tel":"032-681-6778","addr":"경기도 부천시 도당동 62-2번지 2층","indutype":"서적문구 - 출판 및 인쇄물","category":"other"},{"name":"커니스제빙기","tel":"032-671-1616","addr":"경기도 부천시 도당동 62-2번지 1층","indutype":"주방용구 - 주방용구","category":"other"}]},{"lat":"37.513979823","long":"126.78368797","imageIndex":17,"items":[{"name":"고려기연","tel":"032-677-8436","addr":"경기도 부천시 도당동 88-21번지","indutype":"기타 - 기계공구","category":"other"},{"name":"고려기연/원격지","tel":"032-677-8436","addr":"경기도 부천시 도당동 88-21번지","indutype":"기타 - 기타 전문점","category":"other"}]},{"lat":"37.508672791","long":"126.78357908","imageIndex":17,"items":[{"name":"고려모터스","tel":"070-7303-6392","addr":"경기도 부천시 도당동 257-19번지","indutype":"기타 - 기계공구","category":"other"}]},{"lat":"37.513478199","long":"126.78527295","imageIndex":17,"items":[{"name":"고려정밀","tel":"032-681-9018","addr":"경기도 부천시 도당동 81-1번지","indutype":"전기제품 - 기타전기제품","category":"other"}]},{"lat":"37.519284826","long":"126.79259738","imageIndex":17,"items":[{"name":"곱지","tel":"032-675-2197","addr":"경기도 부천시 도당동 118-10","indutype":"의류 - 정장","category":"other"},{"name":"곱지","tel":"032-678-1897","addr":"경기도 부천시 도당동 118-10번지","indutype":"의류 - 정장","category":"other"}]},{"lat":"37.51751298","long":"126.78437895","imageIndex":17,"items":[{"name":"공장1번지 공인중개사 사무소","tel":"032-677-5200","addr":"경기도 부천시 도당동 27-3번지 1층 정면 우측","indutype":"용역 서비스 - 부동산 중개·임대","category":"other"},{"name":"한도기업","tel":"032-675-7937","addr":"경기도 부천시 도당동 27-3번지 1층","indutype":"건축자재 - 목재·석재·철물","category":"other"}]},{"lat":"37.517206541","long":"126.78432328","imageIndex":17,"items":[{"name":"광명전기","tel":"032-675-9553","addr":"경기도 부천시 도당동 27-5번지","indutype":"기타 - 기계공구","category":"other"}]},{"lat":"37.510035215","long":"126.77979746","imageIndex":17,"items":[{"name":"광영아크릴","tel":"032-555-1437","addr":"경기도 부천시 도당동 281-31번지 1층","indutype":"건축자재 - 기타건축자재","category":"other"},{"name":"창레이저용접","tel":"032-675-6453","addr":"경기도 부천시 도당동 281-31번지 1층 도로변 우측 약 20평","indutype":"건축자재 - 기타건축자재","category":"other"}]},{"lat":"37.519120584","long":"126.78646692","imageIndex":17,"items":[{"name":"광일전기","tel":"032-679-1634","addr":"경기도 부천시 도당동 43번지 중앙블리체","indutype":"전기제품 - 기타전기제품","category":"other"},{"name":"동현정공","tel":"032-683-4257","addr":"경기도 부천시 도당동 43번지 중앙블리체","indutype":"기타 - 기계공구","category":"other"},{"name":"사구공방","tel":"032-675-0049","addr":"경기도 부천시 도당동 43번지 중앙블리체","indutype":"레져용품 - 스포츠·레져용품","category":"other"}]},{"lat":"37.516115789","long":"126.7792138","imageIndex":17,"items":[{"name":"국제로프","tel":"032-681-4311","addr":"경기도 부천시 도당동 9번지 1동 211호 111호","indutype":"기타 - 기계공구","category":"other"},{"name":"김재숙세무회계사무소","tel":"032-683-2146","addr":"경기도 부천시 도당동 9번지","indutype":"용역 서비스 - 법률회계서비스(개인)","category":"other"},{"name":"대영상사","tel":"032-684-1598","addr":"경기도 부천시 도당동 9번지","indutype":"기타 - 기계공구","category":"other"},{"name":"삼성라디에터","tel":"032-679-3804","addr":"경기도 부천시 도당동 9번지","indutype":"건축자재 - 유리","category":"other"},{"name":"우진엔지니어링","tel":"032-675-0406","addr":"경기도 부천시 도당동 9번지","indutype":"기타 - 기계공구","category":"other"},{"name":"우진엔지니어링/원격지","tel":"032-675-0406","addr":"경기도 부천시 도당동 9번지","indutype":"기타 - 기타 전문점","category":"other"},{"name":"한신콤프렛서","tel":"032-675-4400","addr":"경기도 부천시 도당동 9번지","indutype":"기타 - 기계공구","category":"other"}]},{"lat":"37.508283558","long":"126.78260756","imageIndex":17,"items":[{"name":"그린냉동에어컨","tel":"02-2683-8282","addr":"경기도 부천시 도당동 273-11번지 1층","indutype":"전기제품 - 가전제품","category":"other"}]},{"lat":"37.516365846","long":"126.78771911","imageIndex":17,"items":[{"name":"그린산업","tel":"070-8625-7014","addr":"경기도 부천시 도당동 49-9번지 삼보그린빌 501호","indutype":"용역 서비스 - 기타용역서비스","category":"other"}]},{"lat":"37.516423709","long":"126.78487982","imageIndex":17,"items":[{"name":"그린세탁소","tel":"032-679-0656","addr":"경기도 부천시 도당동 32번지","indutype":"수리서비스 - 세탁소","category":"other"}]},{"lat":"37.513873001","long":"126.7748545","imageIndex":17,"items":[{"name":"그린하우징코리아(주)","tel":"032-671-5700","addr":"경기도 부천시 도당동 214-10번지 1층","indutype":"건축자재 - 기타건축자재","category":"other"},{"name":"페인트시티","tel":"032-677-7337","addr":"경기도 부천시 도당동 214-10번지","indutype":"건축자재 - 페인트","category":"other"}]},{"lat":"37.516261678","long":"126.78495947","imageIndex":17,"items":[{"name":"금강기획","tel":"032-683-2600","addr":"경기도 부천시 도당동 32-3번지 2층","indutype":"광학제품 - 기타광학제품","category":"other"},{"name":"다인기획","tel":"032-684-9702","addr":"경기도 부천시 도당동 32-3번지","indutype":"서적문구 - 출판 및 인쇄물","category":"other"}]},{"lat":"37.515367339","long":"126.78368392","imageIndex":17,"items":[{"name":"금강올텍","tel":"","addr":"경기도 부천시 도당동 25-1번지 2층","indutype":"기타 - 기계공구","category":"other"}]},{"lat":"37.511595858","long":"126.78082207","imageIndex":17,"items":[{"name":"금강전자","tel":"032-678-7413","addr":"경기도 부천시 도당동 164-6번지","indutype":"전기제품 - 기타전기제품","category":"other"}]},{"lat":"37.50748579","long":"126.77999731","imageIndex":17,"items":[{"name":"금보당","tel":"032-677-6969","addr":"경기도 부천시 도당동 283-18번지","indutype":"신변잡화 - 귀금속","category":"other"}]},{"lat":"37.506789914","long":"126.77887971","imageIndex":17,"items":[{"name":"금성공조산업","tel":"032-655-6655","addr":"경기도 부천시 도당동 262-1번지 정면 1층 좌측코너","indutype":"전기제품 - 냉열기기","category":"other"}]},{"lat":"37.509818949","long":"126.78460496","imageIndex":17,"items":[{"name":"금성납공구상사","tel":"032-675-0909","addr":"경기도 부천시 도당동 253-7번지 공구상가","indutype":"기타 - 기계공구","category":"other"},{"name":"대덕피앤피","tel":"032-673-8822","addr":"경기도 부천시 도당동 253-7번지 가동 8호","indutype":"건축자재 - 기타건축자재","category":"other"},{"name":"대영용접기","tel":"032-676-7242","addr":"경기도 부천시 도당동 253-7부천공구상가 가-5","indutype":"기타 - 기타 전문점","category":"other"},{"name":"대호상사","tel":"032-657-0231","addr":"경기도 부천시 도당동 253-7번지","indutype":"기타 - 기계공구","category":"other"},{"name":"삼부공구상사","tel":"032-676-7680","addr":"경기도 부천시 도당동 253-7번지 공구상가 106호","indutype":"기타 - 기계공구","category":"other"},{"name":"삼창전기","tel":"031-681-3006","addr":"경기도 부천시 도당동 253-7 가동5호 1.2층","indutype":"전기제품 - 기타전기제품","category":"other"}]},{"lat":"37.506756078","long":"126.78004472","imageIndex":17,"items":[{"name":"금성전기조명","tel":"032-683-5105","addr":"경기도 부천시 도당동 284-13번지","indutype":"전기제품 - 가전제품","category":"other"}]},{"lat":"37.508594423","long":"126.78504962","imageIndex":17,"items":[{"name":"금일공구","tel":"032-671-9449","addr":"경기도 부천시 도당동 255-2번지","indutype":"기타 - 기계공구","category":"other"},{"name":"엘케이호이스트쎈타","tel":"032-673-0493","addr":"경기도 부천시 도당동 255-2번지","indutype":"기타 - 기계공구","category":"other"}]},{"lat":"37.514870978","long":"126.78324424","imageIndex":17,"items":[{"name":"금토펌프","tel":"032-675-2414","addr":"경기도 부천시 도당동 89-1","indutype":"건축자재 - 보일러·펌프·샷시","category":"other"},{"name":"세종아크릴","tel":"032-683-0565","addr":"경기도 부천시 도당동 89-1번지 건물 2층","indutype":"주방용구 - 주방용구","category":"other"}]},{"lat":"37.517374217","long":"126.78243379","imageIndex":17,"items":[{"name":"금호금속","tel":"032-674-9362","addr":"경기도 부천시 도당동 20번지","indutype":"기타 - 기계공구","category":"other"},{"name":"현대금속","tel":"032-681-2416","addr":"경기도 부천시 도당동 20번지","indutype":"기타 - 기타 전문점","category":"other"}]},{"lat":"37.513005414","long":"126.78296694","imageIndex":17,"items":[{"name":"금화","tel":"032-672-5876","addr":"경기도 부천시 도당동 96-3번지 2층","indutype":"건축자재 - 목재·석재·철물","category":"other"}]},{"lat":"37.517013254","long":"126.78212945","imageIndex":17,"items":[{"name":"기륭씰산업/원격지","tel":"032-671-8601","addr":"경기도 부천시 도당동 14-5번지","indutype":"기타 - 기타 전문점","category":"other"}]},{"lat":"37.516427036","long":"126.78668961","imageIndex":17,"items":[{"name":"길종합개발","tel":"032-677-2220","addr":"경기도 부천시 도당동 35-9번지 신명리치빌","indutype":"용역 서비스 - 종합용역","category":"other"}]},{"lat":"37.514838667","long":"126.77568857","imageIndex":17,"items":[{"name":"김원태세무회계사무소","tel":"032-655-4600","addr":"경기도 부천시 도당동 4-14번지 SB타워 7층 705호","indutype":"용역 서비스 - 법률회계서비스(개인)","category":"other"},{"name":"신세계부동산공인중개사사무소","tel":"032-677-4567","addr":"경기도 부천시 도당동 4-14번지 SB타워 104호","indutype":"용역 서비스 - 부동산 중개·임대","category":"other"},{"name":"쓰리탕 씨스페이스 약대본점","tel":"","addr":"경기도 부천시 도당동 4-14번지 SB타워 1층 103호","indutype":"유통업 영리 - 편 의 점","category":"other"}]},{"lat":"37.50742538","long":"126.78141123","imageIndex":17,"items":[{"name":"까르띠에","tel":"032-671-5020","addr":"경기도 부천시 도당동 274-54번지","indutype":"의류 - 정장","category":"other"}]},{"lat":"37.506090995","long":"126.78576941","imageIndex":17,"items":[{"name":"나앤미(NA&ME)","tel":"032-000-0000","addr":"경기도 부천시 도당동 264-8번지","indutype":"의류 - 정장","category":"other"},{"name":"명신도료","tel":"032-676-7244","addr":"경기도 부천시 도당동 264-8번지","indutype":"건축자재 - 페인트","category":"other"},{"name":"씨유부천도당점","tel":"032-682-5846","addr":"경기도 부천시 도당동 264-8번지 1층","indutype":"유통업 영리 - 편 의 점","category":"other"}]},{"lat":"37.519260165","long":"126.79393223","imageIndex":17,"items":[{"name":"남영보일러","tel":"032-322-9987","addr":"경기도 부천시 도당동 130-4번지 덕인빌딩","indutype":"수리서비스 - 기타수리서비스","category":"other"},{"name":"유앤아이인테리어","tel":"032-682-0441","addr":"경기도 부천시 도당동 130-4번지 덕인빌딩 101호","indutype":"건축자재 - 인테리어전문","category":"other"},{"name":"제이스타일(J. style)","tel":"070-7614-3579","addr":"경기도 부천시 도당동 130-4번지 덕인빌딩 103호","indutype":"의류 - 정장","category":"other"}]},{"lat":"37.517504953","long":"126.78491061","imageIndex":17,"items":[{"name":"남일전기","tel":"032-672-4721","addr":"경기도 부천시 도당동 30번지","indutype":"전기제품 - 기타전기제품","category":"other"},{"name":"아랑플라워","tel":"032-672-9888","addr":"경기도 부천시 도당동 30번지","indutype":"문화.취미 - 화원","category":"other"},{"name":"영진상공","tel":"032-683-9001","addr":"경기도 부천시 도당동 30번지 1층","indutype":"건축자재 - 보일러·펌프·샷시","category":"other"},{"name":"진성레이져","tel":"032-676-6869","addr":"경기도 부천시 도당동 30번지","indutype":"기타 - 기계공구","category":"other"}]},{"lat":"37.510228334","long":"126.78187798","imageIndex":17,"items":[{"name":"누드마크","tel":"041-903-2354","addr":"경기도 부천시 도당동 268-15번지 현우빌딩 5층","indutype":"신변잡화 - 신발","category":"other"},{"name":"무림상사","tel":"032-682-6875","addr":"경기도 부천시 도당동 268-15번지 1층","indutype":"기타 - 기계공구","category":"other"}]},{"lat":"37.519123866","long":"126.78826546","imageIndex":17,"items":[{"name":"누리안인테리어","tel":"032-679-4277","addr":"경기도 부천시 도당동 57-5번지 청암맨션 101호","indutype":"건축자재 - 인테리어전문","category":"other"},{"name":"청암","tel":"032-681-0580","addr":"경기도 부천시 도당동 57-5번지 청암맨션 103호","indutype":"건축자재 - 목재·석재·철물","category":"other"}]},{"lat":"37.513699933","long":"126.77388229","imageIndex":17,"items":[{"name":"누리컴","tel":"032-7393-0142","addr":"경기도 부천시 도당동 218-3번지","indutype":"사무통신 - 컴퓨터","category":"other"}]},{"lat":"37.5071513","long":"126.78421688","imageIndex":17,"items":[{"name":"누수25시 하수구","tel":"","addr":"경기도 부천시 도당동 265-49번지 지하","indutype":"용역 서비스 - 기타용역서비스","category":"other"},{"name":"효성누수설비&i스토어","tel":"031-6848-8255","addr":"경기도 부천시 도당동 265-49번지","indutype":"전기제품 - 가전제품","category":"other"}]},{"lat":"37.518482003","long":"126.78707959","imageIndex":17,"items":[{"name":"뉴욕가자","tel":"","addr":"경기도 부천시 도당동 44-13번지 훼미리타운 A동 101호","indutype":"의류 - 정장","category":"other"}]},{"lat":"37.515290551","long":"126.78601422","imageIndex":17,"items":[{"name":"뉴테크","tel":"032-684-0743","addr":"경기도 부천시 도당동 73-1번지","indutype":"기타 - 기계공구","category":"other"}]},{"lat":"37.51992394","long":"126.79226754","imageIndex":17,"items":[{"name":"늘푸른화원","tel":"032-679-6870","addr":"경기도 부천시 도당동 108-1번지","indutype":"문화.취미 - 화원","category":"other"},{"name":"케이디 패션","tel":"032-671-3629","addr":"경기도 부천시 도당동 108-1번지 지하층","indutype":"의류 - 정장","category":"other"}]},{"lat":"37.509564389","long":"126.77857735","imageIndex":17,"items":[{"name":"다성스프링","tel":"032-676-8932","addr":"경기도 부천시 도당동 245-4번지","indutype":"기타 - 기계공구","category":"other"}]},{"lat":"37.515730097","long":"126.78496101","imageIndex":17,"items":[{"name":"대광건철","tel":"032-672-0240","addr":"경기도 부천시 도당동 32-6번지 가동 나동","indutype":"기타 - 기계공구","category":"other"}]},{"lat":"37.519922444","long":"126.79143048","imageIndex":17,"items":[{"name":"대림종합장식","tel":"032-674-5601","addr":"경기도 부천시 도당동 108번지 청오빌딩 1층 6호","indutype":"직물 - 카페트,커튼,천막,지물","category":"other"},{"name":"엘지허니문센타","tel":"032-681-7777","addr":"경기도 부천시 도당동 108번지 청경빌딩 1층 107호","indutype":"전기제품 - 가전제품","category":"other"}]},{"lat":"37.510287747","long":"126.77993243","imageIndex":17,"items":[{"name":"대명테크","tel":"032-675-5374","addr":"경기도 부천시 도당동 281-1번지","indutype":"용역 서비스 - 기타용역서비스","category":"other"}]},{"lat":"37.510733668","long":"126.77752199","imageIndex":17,"items":[{"name":"대상철강","tel":"032-671-1422","addr":"경기도 부천시 도당동 241-2번지 1층","indutype":"건축자재 - 기타건축자재","category":"other"},{"name":"박스나라","tel":"032-676-7013","addr":"경기도 부천시 도당동 241-2번지","indutype":"유통업 영리 - 기타유통업","category":"other"}]},{"lat":"37.518397177","long":"126.78504375","imageIndex":17,"items":[{"name":"대성공사","tel":"032-681-4767","addr":"경기도 부천시 도당동 29번지 계남랑데뷰","indutype":"건축자재 - 페인트","category":"other"},{"name":"부천시재활용센터","tel":"032-682-7282","addr":"경기도 부천시 도당동 29 고려종합상가지층","indutype":"가구 - 일반가구","category":"other"}]},{"lat":"37.507370387","long":"126.78091376","imageIndex":17,"items":[{"name":"대성상사","tel":"032-677-2349","addr":"경기도 부천시 도당동 275-15번지","indutype":"의류 - 내의판매","category":"other"}]},{"lat":"37.515234237","long":"126.77996296","imageIndex":17,"items":[{"name":"대성알곤레이져","tel":"032-673-5241","addr":"경기도 부천시 도당동 11-5번지","indutype":"용역 서비스 - 종합용역","category":"other"},{"name":"부천금성연마","tel":"032-682-6311","addr":"경기도 부천시 도당동 11-5번지 1층","indutype":"기타 - 기계공구","category":"other"},{"name":"예인케미칼","tel":"032-613-5240","addr":"경기도 부천시 도당동 11-5번지 1층 103호","indutype":"건축자재 - 페인트","category":"other"},{"name":"혜성B/D","tel":"032-664-9639","addr":"경기도 부천시 도당동 11-5번지","indutype":"건축자재 - 페인트","category":"other"}]},{"lat":"37.50908961","long":"126.78485591","imageIndex":17,"items":[{"name":"대성종합공구철물","tel":"032-684-0945","addr":"경기도 부천시 도당동 255-7번지 B01호","indutype":"기타 - 기계공구","category":"other"},{"name":"대아포장상사","tel":"032-676-1030","addr":"경기도 부천시 도당동 255-7번지","indutype":"신변잡화 - 기타잡화","category":"other"},{"name":"대흥상사","tel":"032-676-6562","addr":"경기도 부천시 도당동 255-7번지","indutype":"건축자재 - 건축용 요업제품","category":"other"},{"name":"주식회사덕은티엔에스","tel":"032-679-3447","addr":"경기도 부천시 도당동 255-7번지 라동 1층 3호","indutype":"전기제품 - 기타전기제품","category":"other"},{"name":"혁신종합공구","tel":"032-682-7080","addr":"경기도 부천시 도당동 255-7번지 라동 2호","indutype":"기타 - 기계공구","category":"other"}]},{"lat":"37.508621756","long":"126.78037848","imageIndex":17,"items":[{"name":"대성철물설비","tel":"032-675-4760","addr":"경기도 부천시 도당동 272-28번지 1층","indutype":"건축자재 - 목재·석재·철물","category":"other"},{"name":"이천전기","tel":"032-675-6161","addr":"경기도 부천시 도당동 272-28번지","indutype":"건축자재 - 목재·석재·철물","category":"other"}]},{"lat":"37.509676022","long":"126.78527268","imageIndex":17,"items":[{"name":"대성특수공구","tel":"032-674-0947","addr":"경기도 부천시 도당동 178-6번지","indutype":"기타 - 기계공구","category":"other"},{"name":"부천철망","tel":"032-676-6881","addr":"경기도 부천시 도당동 178-6번지","indutype":"기타 - 기계공구","category":"other"},{"name":"성진닥트","tel":"032-656-9875","addr":"경기도 부천시 도당동 178-6번지 라동 1층","indutype":"기타 - 기계공구","category":"other"},{"name":"오케이산업기계","tel":"031-681-5851","addr":"경기도 부천시 도당동 178-6번지 다동 1층","indutype":"기타 - 기계공구","category":"other"}]},{"lat":"37.507953084","long":"126.77935125","imageIndex":17,"items":[{"name":"대승엔지니어링","tel":"070-7337-4253","addr":"경기도 부천시 도당동 246-100번지","indutype":"건축자재 - 보일러·펌프·샷시","category":"other"}]},{"lat":"37.513782885","long":"126.78437851","imageIndex":17,"items":[{"name":"대신볼트","tel":"032-674-6495","addr":"경기도 부천시 도당동 88-13번지 1층 107호","indutype":"기타 - 기계공구","category":"other"},{"name":"대영상사","tel":"032-675-8531","addr":"경기도 부천시 도당동 88-13번지 104호","indutype":"건축자재 - 기타건축자재","category":"other"},{"name":"벧엘포장상사","tel":"032-675-4799","addr":"경기도 부천시 도당동 88-13번지 1층 109호","indutype":"신변잡화 - 기타잡화","category":"other"},{"name":"부천유니온","tel":"032-681-6656","addr":"경기도 부천시 도당동 88-13번지","indutype":"건축자재 - 기타건축자재","category":"other"},{"name":"선우전자","tel":"031-311-2597","addr":"경기도 부천시 도당동 88-13번지 2층","indutype":"전기제품 - 기타전기제품","category":"other"},{"name":"씨유원미부천로점","tel":"080-080-3663","addr":"경기도 부천시 도당동 88-13번지 1층","indutype":"유통업 영리 - 편 의 점","category":"other"},{"name":"일성종합상사","tel":"032-673-2571","addr":"경기도 부천시 도당동 88-13번지","indutype":"건축자재 - 보일러·펌프·샷시","category":"other"},{"name":"장원금속","tel":"032-682-6488","addr":"경기도 부천시 도당동 88-13번지 1층 108호","indutype":"기타 - 기계공구","category":"other"},{"name":"제이케이기획","tel":"032-683-2604","addr":"경기도 부천시 도당동 88-13번지","indutype":"사무통신 - 기타 사무용품","category":"other"}]},{"lat":"37.511370037","long":"126.78051736","imageIndex":17,"items":[{"name":"대영전기","tel":"032-681-3813","addr":"경기도 부천시 도당동 164-11번지","indutype":"기타 - 기계공구","category":"other"}]},{"lat":"37.513702499","long":"126.77993358","imageIndex":17,"items":[{"name":"대웅정밀","tel":"032-677-2139","addr":"경기도 부천시 도당동 170-13","indutype":"기타 - 기계공구","category":"other"}]},{"lat":"37.51125499","long":"126.78162612","imageIndex":17,"items":[{"name":"대원건드릴","tel":"032-671-0541","addr":"경기도 부천시 도당동 163-3번지","indutype":"기타 - 기계공구","category":"other"},{"name":"마리헤즈","tel":"032-679-6790","addr":"경기도 부천시 도당동 163-3번지 2층","indutype":"신변잡화 - 기타잡화","category":"other"}]},{"lat":"37.509539748","long":"126.78466233","imageIndex":17,"items":[{"name":"대원전기","tel":"032-675-3157","addr":"경기도 부천시 도당동 253-8번지 공구 나동 104호","indutype":"건축자재 - 조명기구","category":"other"},{"name":"대원전기","tel":"032-675-3157","addr":"경기도 부천시 도당동 253-8번지 공구상가 나동 104호","indutype":"전기제품 - 기타전기제품","category":"other"},{"name":"부원기획","tel":"032-672-8071","addr":"경기도 부천시 도당동 253-8번지 부천공가상가 나동 301호","indutype":"서적문구 - 출판 및 인쇄물","category":"other"},{"name":"재영전기","tel":"032-679-8418","addr":"경기도 부천시 도당동 253-8번지","indutype":"전기제품 - 기타전기제품","category":"other"},{"name":"한국벨트부천대리점","tel":"032-675-1404","addr":"경기도 부천시 도당동 253-8번지","indutype":"기타 - 기계공구","category":"other"},{"name":"형제뿌리","tel":"032-676-9526","addr":"경기도 부천시 도당동 253-8번지","indutype":"기타 - 기계공구","category":"other"}]},{"lat":"37.513342489","long":"126.78496796","imageIndex":17,"items":[{"name":"대원휀스철망","tel":"032-677-4015","addr":"경기도 부천시 도당동 81-2번지 1층 8호","indutype":"건축자재 - 목재·석재·철물","category":"other"},{"name":"무지개안료","tel":"032-677-1301","addr":"경기도 부천시 도당동 81-2번지 1층 2호","indutype":"건축자재 - 페인트","category":"other"},{"name":"복문상사","tel":"032-671-1800","addr":"경기도 부천시 도당동 81-2번지 1층 3호","indutype":"의류 - 기타의류","category":"other"},{"name":"성보종합상사","tel":"032-676-0738","addr":"경기도 부천시 도당동 81-2번지11,12,15호","indutype":"건축자재 - 기타건축자재","category":"other"},{"name":"유영솔루션","tel":"032-662-1476","addr":"경기도 부천시 도당동 81-2번지 2층","indutype":"기타 - 기계공구","category":"other"},{"name":"일성종합공사","tel":"032-673-2532","addr":"경기도 부천시 도당동 81-2번지 1층 10호","indutype":"건축자재 - 기타건축자재","category":"other"},{"name":"조광상사","tel":"032-674-9856","addr":"경기도 부천시 도당동 81-2번지1층4-6호","indutype":"기타 - 기타 전문점","category":"other"}]},{"lat":"37.510676853","long":"126.78082479","imageIndex":17,"items":[{"name":"대일브라스트","tel":"032-674-8084","addr":"경기도 부천시 도당동 164-19번지 인정빌딩 1층","indutype":"기타 - 기타 전문점","category":"other"}]},{"lat":"37.509315878","long":"126.78540945","imageIndex":17,"items":[{"name":"대진가구사","tel":"032-679-1571","addr":"경기도 부천시 도당동 180-4번지","indutype":"가구 - 기타가구","category":"other"},{"name":"휴림디자인","tel":"032-3329-1747","addr":"경기도 부천시 도당동 180-4번지","indutype":"건축자재 - 인테리어전문","category":"other"}]},{"lat":"37.507982525","long":"126.78062919","imageIndex":17,"items":[{"name":"대한불교법륜조계종 전각사","tel":"032-681-9778","addr":"경기도 부천시 도당동 275-32번지","indutype":"기타 - 비영리/대상","category":"other"}]},{"lat":"37.506403283","long":"126.77929933","imageIndex":17,"items":[{"name":"더코랄","tel":"070-8803-1633","addr":"경기도 부천시 도당동 262-17번지 1층","indutype":"문화.취미 - 수족관","category":"other"},{"name":"세모전자","tel":"070-4950-4988","addr":"경기도 부천시 도당동 262-17","indutype":"용역 서비스 - 종합용역","category":"other"}]},{"lat":"37.520231523","long":"126.79296801","imageIndex":17,"items":[{"name":"데쉬걸","tel":"032-678-4483","addr":"경기도 부천시 도당동 116-13번지","indutype":"의류 - 정장","category":"other"},{"name":"우진정보통신","tel":"032-682-8282","addr":"경기도 부천시 도당동 116-13번지","indutype":"사무통신 - 통신기기","category":"other"},{"name":"첨이첨이","tel":"032-676-5435","addr":"경기도 부천시 도당동 116-13번지 102호","indutype":"의류 - 정장","category":"other"}]},{"lat":"37.514926318","long":"126.78393405","imageIndex":17,"items":[{"name":"도검미술","tel":"032-678-0553","addr":"경기도 부천시 도당동 88-2번지 3층","indutype":"레져용품 - 총포류판매점","category":"other"}]},{"lat":"37.519259624","long":"126.79362681","imageIndex":17,"items":[{"name":"도당스포츠","tel":"070-7393-0448","addr":"경기도 부천시 도당동 118-4번지 1층","indutype":"레져용품 - 스포츠·레져용품","category":"other"}]},{"lat":"37.519840423","long":"126.79091037","imageIndex":17,"items":[{"name":"도당애견","tel":"032-684-0090","addr":"경기도 부천시 도당동 62-1번지","indutype":"문화.취미 - 애완동물","category":"other"},{"name":"성광위생(주)","tel":"032-677-4747","addr":"경기도 부천시 도당동 62-1번지 흥아빌딩 4층","indutype":"용역 서비스 - 기타용역서비스","category":"other"},{"name":"아이엠","tel":"032-247-7011","addr":"경기도 부천시 도당동 62-1번지 1층 흥아빌딩 일부","indutype":"의류 - 정장","category":"other"}]},{"lat":"37.51025972","long":"126.78421913","imageIndex":17,"items":[{"name":"동광조각","tel":"032-678-4637","addr":"경기도 부천시 도당동 253-1번지 1층 104호","indutype":"건축자재 - 목재·석재·철물","category":"other"},{"name":"삼진볼트 중앙영업소","tel":"032-681-0094","addr":"경기도 부천시 도당동 253-1번지 1층 113호","indutype":"기타 - 기계공구","category":"other"},{"name":"신명종합금속","tel":"032-682-1990","addr":"경기도 부천시 도당동 253-1번지 서림테크노파크2단지 108호","indutype":"기타 - 기계공구","category":"other"},{"name":"제이아이 디엔지","tel":"032-677-6562","addr":"경기도 부천시 도당동 253-1번지 서림테크노파크2차 103호","indutype":"기타 - 기계공구","category":"other"},{"name":"주식회사 컴바인","tel":"","addr":"경기도 부천시 도당동 253-1번지 206호","indutype":"사무통신 - 컴퓨터","category":"other"}]},{"lat":"37.508175604","long":"126.77791422","imageIndex":17,"items":[{"name":"동보자전거(코렉스)","tel":"032-676-6424","addr":"경기도 부천시 도당동 247-36번지","indutype":"레져용품 - 스포츠·레져용품","category":"other"},{"name":"봄가을교육","tel":"070-7393-8218","addr":"경기도 부천시 도당동 247-36번지 청담빌리 502호","indutype":"서적문구 - 일반서적","category":"other"}]},{"lat":"37.510819564","long":"126.78488481","imageIndex":17,"items":[{"name":"동부화재국일대리점","tel":"032-672-2633","addr":"경기도 부천시 도당동 86-3번지","indutype":"보험 - 손해보험","category":"other"}]},{"lat":"37.512702449","long":"126.77995918","imageIndex":17,"items":[{"name":"동신포장","tel":"032-675-4632","addr":"경기도 부천시 도당동 170-12번지","indutype":"유통업 영리 - 기타유통업","category":"other"},{"name":"우진정밀","tel":"032-684-7922","addr":"경기도 부천시 도당동 170-12번지","indutype":"기타 - 기계공구","category":"other"},{"name":"태영산업","tel":"032-678-4011","addr":"경기도 부천시 도당동 170-12번지","indutype":"용역 서비스 - 종합용역","category":"other"}]},{"lat":"37.518732601","long":"126.78616263","imageIndex":17,"items":[{"name":"동아세탁소","tel":"032-681-8283","addr":"경기도 부천시 도당동 42-5번지","indutype":"수리서비스 - 세탁소","category":"other"},{"name":"주식회사피치스포츠(PEACH SPORTS CO,.LTD)","tel":"032-673-4578","addr":"경기도 부천시 도당동 42-5번지 1층","indutype":"레져용품 - 스포츠·레져용품","category":"other"}]},{"lat":"37.512395013","long":"126.78419028","imageIndex":17,"items":[{"name":"동양실크","tel":"032-676-6050","addr":"경기도 부천시 도당동 97-1번지 지층","indutype":"용역 서비스 - 종합용역","category":"other"}]},{"lat":"37.508286813","long":"126.77954253","imageIndex":17,"items":[{"name":"동양정밀(A)","tel":"032-672-6372","addr":"경기도 부천시 도당동 283-2번지","indutype":"기타 - 기계공구","category":"other"}]},{"lat":"37.510009178","long":"126.78515861","imageIndex":17,"items":[{"name":"동우체인","tel":"032-672-4848","addr":"경기도 부천시 도당동 178-2번지","indutype":"기타 - 기계공구","category":"other"},{"name":"세무사함정태사무소","tel":"032-675-0034","addr":"경기도 부천시 도당동 178-2번지 영부빌딩 3층","indutype":"용역 서비스 - 법률회계서비스(개인)","category":"other"},{"name":"신라실크인쇄","tel":"032-675-0537","addr":"경기도 부천시 도당동 178-2번지","indutype":"용역 서비스 - 종합용역","category":"other"},{"name":"신라실크인쇄/원격지","tel":"032-675-0537","addr":"경기도 부천시 도당동 178-2번지","indutype":"기타 - 기타 전문점","category":"other"}]},{"lat":"37.510034872","long":"126.78443468","imageIndex":17,"items":[{"name":"동원모터","tel":"032-675-5600","addr":"경기도 부천시 도당동 253-2번지","indutype":"건축자재 - 보일러·펌프·샷시","category":"other"},{"name":"동원상사","tel":"032-677-5622","addr":"경기도 부천시 도당동 253-2번지","indutype":"건축자재 - 기타건축자재","category":"other"}]},{"lat":"37.515979376","long":"126.77854685","imageIndex":17,"items":[{"name":"동일상사","tel":"032-674-6665","addr":"경기도 부천시 도당동 7-1번지","indutype":"신변잡화 - 기타잡화","category":"other"},{"name":"삼성기계상사","tel":"032-672-7747","addr":"경기도 부천시 도당동 7-1번지","indutype":"기타 - 기계공구","category":"other"},{"name":"신일산업","tel":"032-672-6910","addr":"경기도 부천시 도당동 7-1번지","indutype":"기타 - 기타 전문점","category":"other"}]},{"lat":"37.514955976","long":"126.78051803","imageIndex":17,"items":[{"name":"동일정밀","tel":"032-671-5215","addr":"경기도 부천시 도당동 158-2번지 1층","indutype":"기타 - 기계공구","category":"other"},{"name":"에이스프로파일","tel":"032-681-4300","addr":"경기도 부천시 도당동 158-2번지","indutype":"기타 - 기계공구","category":"other"},{"name":"영동고무공업사/원격지","tel":"032-673-4209","addr":"경기도 부천시 도당동 158-2번지","indutype":"기타 - 기타 전문점","category":"other"}]},{"lat":"37.510567288","long":"126.78488554","imageIndex":17,"items":[{"name":"두리조각","tel":"032-673-5439","addr":"경기도 부천시 도당동 86-14 1층4호","indutype":"기타 - 기계공구","category":"other"},{"name":"잉크가이 경기1센티","tel":"032-651-4210","addr":"경기도 부천시 도당동 86-14번지","indutype":"사무통신 - 기타 사무용품","category":"other"},{"name":"흥진계전","tel":"032-675-8321","addr":"경기도 부천시 도당동 86-14번지","indutype":"기타 - 기계공구","category":"other"}]},{"lat":"37.520893375","long":"126.79023998","imageIndex":17,"items":[{"name":"두산엘피","tel":"032-679-7303","addr":"경기도 부천시 도당동 60번지","indutype":"기타 - 기타 전문점","category":"other"}]},{"lat":"37.5138709","long":"126.77376866","imageIndex":17,"items":[{"name":"두성","tel":"032-678-0997","addr":"경기도 부천시 도당동 218-11번지 1층","indutype":"건축자재 - 조명기구","category":"other"}]},{"lat":"37.519923455","long":"126.79199606","imageIndex":17,"items":[{"name":"들꽃처럼","tel":"032-677-5584","addr":"경기도 부천시 도당동 108-9번지 우측점포 1층","indutype":"문화.취미 - 화원","category":"other"},{"name":"세탁 도당점","tel":"032-675-5584","addr":"경기도 부천시 도당동 108-9번지 1층 1호","indutype":"수리서비스 - 세탁소","category":"other"},{"name":"싸다구 중고가전.가구","tel":"032-676-4949","addr":"경기도 부천시 도당동 108-9번지 1층","indutype":"전기제품 - 가전제품","category":"other"}]},{"lat":"37.509595672","long":"126.780828","imageIndex":17,"items":[{"name":"디엠테크","tel":"032-684-7270","addr":"경기도 부천시 도당동 272-8번지 대영빌딩 302호","indutype":"용역 서비스 - 사무서비스","category":"other"},{"name":"하나","tel":"032-7582-4699","addr":"경기도 부천시 도당동 272-8번지 대영빌딩 102호","indutype":"기타 - 기계공구","category":"other"}]},{"lat":"37.514172936","long":"126.78580255","imageIndex":17,"items":[{"name":"디자인 쌍문모형","tel":"032-678-5386","addr":"경기도 부천시 도당동 74-9번지 A동 3층 일부","indutype":"서적문구 - 완구점","category":"other"},{"name":"주식회사보니타코퍼레이션","tel":"032-1661-8908","addr":"경기도 부천시 도당동 74-9번지","indutype":"전기제품 - 기타전기제품","category":"other"}]},{"lat":"37.516373432","long":"126.78693861","imageIndex":17,"items":[{"name":"럭키냉난방공조","tel":"032-684-8504","addr":"경기도 부천시 도당동 49-28번지","indutype":"전기제품 - 냉열기기","category":"other"}]},{"lat":"37.508708647","long":"126.77868171","imageIndex":17,"items":[{"name":"레비드사이언스","tel":"032-683-5108","addr":"경기도 부천시 도당동 246-6번지","indutype":"기타 - 기타 전문점","category":"other"}]},{"lat":"37.507178999","long":"126.78457872","imageIndex":17,"items":[{"name":"레크포인트컴퍼니","tel":"070-7868-6688","addr":"경기도 부천시 도당동 265-52번지","indutype":"레져용품 - 스포츠·레져용품","category":"other"}]},{"lat":"37.520454733","long":"126.79182489","imageIndex":17,"items":[{"name":"루루공주","tel":"032-676-2102","addr":"경기도 부천시 도당동 109번지 삼보아파트 3","indutype":"신변잡화 - 액세서리","category":"other"},{"name":"창조당","tel":"032-674-3755","addr":"경기도 부천시 도당동 109번지 삼보상가 1","indutype":"신변잡화 - 시계","category":"other"}]},{"lat":"37.510200855","long":"126.7768789","imageIndex":17,"items":[{"name":"리빙프리","tel":"02-6744-4543","addr":"경기도 부천시 도당동 239-5번지 2층","indutype":"주방용구 - 주방용구","category":"other"}]},{"lat":"37.521365676","long":"126.79235399","imageIndex":17,"items":[{"name":"마르코포솔로","tel":"031-3725-6460","addr":"경기도 부천시 도당동 111-3번지 202호","indutype":"전기제품 - 기타전기제품","category":"other"}]},{"lat":"37.52023102","long":"126.79268522","imageIndex":17,"items":[{"name":"머무름 꽃 차","tel":"","addr":"경기도 부천시 도당동 116-12번지 1층","indutype":"문화.취미 - 화원","category":"other"},{"name":"아름다운공간자연인테리어","tel":"032-678-2074","addr":"경기도 부천시 도당동 116-12번지 1층","indutype":"직물 - 카페트,커튼,천막,지물","category":"other"}]},{"lat":"37.506676607","long":"126.7809045","imageIndex":17,"items":[{"name":"멍냥상점","tel":"032-677-5389","addr":"경기도 부천시 도당동 279-19번지","indutype":"문화.취미 - 애완동물","category":"other"},{"name":"뷰티랜드","tel":"032-683-2322","addr":"경기도 부천시 도당동 279-19번지","indutype":"의류 - 정장","category":"other"},{"name":"유림꽃화원","tel":"032-676-9163","addr":"경기도 부천시 도당동 279-19번지","indutype":"문화.취미 - 화원","category":"other"}]},{"lat":"37.519923092","long":"126.79179245","imageIndex":17,"items":[{"name":"메카정보","tel":"032-345-3308","addr":"경기도 부천시 도당동 108-7번지 1층 4호","indutype":"사무통신 - 통신기기","category":"other"}]},{"lat":"37.510092367","long":"126.78630071","imageIndex":17,"items":[{"name":"명품도검","tel":"032-676-9779","addr":"경기도 부천시 도당동 176-1번지","indutype":"문화.취미 - 문화취미기타","category":"other"},{"name":"원도검","tel":"032-676-9778","addr":"경기도 부천시 도당동 176-1번지 F동 3층 301호","indutype":"레져용품 - 총포류판매점","category":"other"},{"name":"제니스창","tel":"070-7309-0482","addr":"경기도 부천시 도당동 176-1번지 동성빌딩 A동 203호","indutype":"직물 - 카페트,커튼,천막,지물","category":"other"}]},{"lat":"37.518450458","long":"126.79460187","imageIndex":17,"items":[{"name":"모모베이비2호점","tel":"051-545-5000","addr":"경기도 부천시 도당동 127번지 근로복지공사","indutype":"의류 - 아동의류","category":"other"}]},{"lat":"37.517315683","long":"126.78487722","imageIndex":17,"items":[{"name":"모아낚시","tel":"032-676-2333","addr":"경기도 부천시 도당동 30-2번지","indutype":"레져용품 - 스포츠·레져용품","category":"other"}]},{"lat":"37.508013199","long":"126.78257442","imageIndex":17,"items":[{"name":"무지개나라","tel":"","addr":"경기도 부천시 도당동 273-54번지 1층","indutype":"신변잡화 - 액세서리","category":"other"}]},{"lat":"37.506451828","long":"126.78115398","imageIndex":17,"items":[{"name":"뭉치","tel":"032-683-4163","addr":"경기도 부천시 도당동 277-10번지 한신빌라","indutype":"의류 - 정장","category":"other"}]},{"lat":"37.517053673","long":"126.78941384","imageIndex":17,"items":[{"name":"미니아트팩토리","tel":"","addr":"경기도 부천시 도당동 52-18번지 동삼아트빌라 라동 201호","indutype":"문화.취미 - 문화취미기타","category":"other"}]},{"lat":"37.509090673","long":"126.78543272","imageIndex":17,"items":[{"name":"미도종합상사","tel":"032-681-1830","addr":"경기도 부천시 도당동 180-6번지 8호","indutype":"의류 - 기타의류","category":"other"},{"name":"아이삭컴퍼니","tel":"032-224-0087","addr":"경기도 부천시 도당동 180-6번지 신양빌딩 4층","indutype":"서적문구 - 출판 및 인쇄물","category":"other"},{"name":"우진초경","tel":"032-214-0989","addr":"경기도 부천시 도당동 180-6번지 1층 106호","indutype":"기타 - 기계공구","category":"other"},{"name":"전북산업","tel":"032-679-0901","addr":"경기도 부천시 도당동 180-6번지 1층 2호","indutype":"기타 - 기계공구","category":"other"}]},{"lat":"37.507761345","long":"126.78280136","imageIndex":17,"items":[{"name":"미래건축설비","tel":"032-653-6673","addr":"경기도 부천시 도당동 263-9번지 1층 1호","indutype":"건축자재 - 인테리어전문","category":"other"},{"name":"한국종합장식","tel":"032-677-2141","addr":"경기도 부천시 도당동 263-9번지 1층","indutype":"건축자재 - 인테리어전문","category":"other"},{"name":"해승폴리머(주)","tel":"032-671-7104","addr":"경기도 부천시 도당동 263-9번지 1층","indutype":"건축자재 - 페인트","category":"other"},{"name":"형제인테리어","tel":"032-676-4291","addr":"경기도 부천시 도당동 263-9번지 1","indutype":"직물 - 카페트,커튼,천막,지물","category":"other"}]},{"lat":"37.507009605","long":"126.78555186","imageIndex":17,"items":[{"name":"미래스크린","tel":"032-653-9005","addr":"경기도 부천시 도당동 264-17번지 3층","indutype":"서적문구 - 출판 및 인쇄물","category":"other"}]},{"lat":"37.509977832","long":"126.77804453","imageIndex":17,"items":[{"name":"미래정밀","tel":"032-674-2996","addr":"경기도 부천시 도당동 244-1번지","indutype":"기타 - 기계공구","category":"other"}]},{"lat":"37.50645871","long":"126.78002299","imageIndex":17,"items":[{"name":"미소유통","tel":"032-671-6421","addr":"경기도 부천시 도당동 284-15번지","indutype":"문화.취미 - 애완동물","category":"other"}]},{"lat":"37.507180022","long":"126.7851329","imageIndex":17,"items":[{"name":"미술양복점","tel":"032-654-7145","addr":"경기도 부천시 도당동 264-1번지","indutype":"의류 - 맞춤복점","category":"other"}]},{"lat":"37.507062936","long":"126.78515586","imageIndex":17,"items":[{"name":"미주전력","tel":"032-678-8927","addr":"경기도 부천시 도당동 264-2번지 1층","indutype":"전기제품 - 기타전기제품","category":"other"}]},{"lat":"37.508926939","long":"126.77976683","imageIndex":17,"items":[{"name":"미주하이테크","tel":"032-677-9535","addr":"경기도 부천시 도당동 281-18번지","indutype":"기타 - 기계공구","category":"other"},{"name":"신화기업","tel":"032-672-4537","addr":"경기도 부천시 도당동 281-18번지","indutype":"전기제품 - 기타전기제품","category":"other"}]},{"lat":"37.505874688","long":"126.78088426","imageIndex":17,"items":[{"name":"미투정보통신","tel":"","addr":"경기도 부천시 도당동 279-32번지 1층","indutype":"사무통신 - 통신기기","category":"other"}]},{"lat":"37.51761858","long":"126.78302127","imageIndex":17,"items":[{"name":"민성화공약품 상사","tel":"032-675-7744","addr":"경기도 부천시 도당동 20-4번지","indutype":"기타 - 기타 전문점","category":"other"}]},{"lat":"37.518979421","long":"126.78810751","imageIndex":17,"items":[{"name":"바이에스 (BY.S)","tel":"031-111-1111","addr":"경기도 부천시 도당동 44-19번지 롯데그랑빌 101호 일부","indutype":"의류 - 정장","category":"other"}]},{"lat":"37.505845164","long":"126.78437903","imageIndex":17,"items":[{"name":"방문공인중개사사무소","tel":"032-672-8833","addr":"경기도 부천시 도당동 265-6번지","indutype":"용역 서비스 - 부동산 중개·임대","category":"other"}]},{"lat":"37.515980847","long":"126.78413457","imageIndex":17,"items":[{"name":"백광기업","tel":"032-681-8418","addr":"경기도 부천시 도당동 26-9번지","indutype":"전기제품 - 기타전기제품","category":"other"}]},{"lat":"37.50848535","long":"126.77971159","imageIndex":17,"items":[{"name":"백광세탁소","tel":"032-676-3192","addr":"경기도 부천시 도당동 281-26번지","indutype":"수리서비스 - 세탁소","category":"other"}]},{"lat":"37.519757625","long":"126.78996041","imageIndex":17,"items":[{"name":"백만송이협동조합","tel":"032-676-0020","addr":"경기도 부천시 도당동 62-3번지","indutype":"문화.취미 - 민예·공예품","category":"other"}]},{"lat":"37.508482554","long":"126.78302544","imageIndex":17,"items":[{"name":"백양사세탁소","tel":"032-678-8575","addr":"경기도 부천시 도당동 257-54번지","indutype":"수리서비스 - 세탁소","category":"other"}]},{"lat":"37.519177019","long":"126.7877676","imageIndex":17,"items":[{"name":"백조세탁소","tel":"031-678-1794","addr":"경기도 부천시 도당동 44-6","indutype":"수리서비스 - 세탁소","category":"other"}]},{"lat":"37.50639733","long":"126.78576852","imageIndex":17,"items":[{"name":"베네디르","tel":"032-672-1465","addr":"경기도 부천시 도당동 264-39번지","indutype":"가구 - 일반가구","category":"other"}]},{"lat":"37.518943237","long":"126.78802844","imageIndex":17,"items":[{"name":"베란다유리 거울공사 칼라유리 샷시공사","tel":"032-681-8050","addr":"경기도 부천시 도당동 44-7번지 롯데그랑빌 가동 501호","indutype":"용역 서비스 - 기타용역서비스","category":"other"}]},{"lat":"37.518924835","long":"126.79282462","imageIndex":17,"items":[{"name":"베리타스","tel":"070-7322-7828","addr":"경기도 부천시 도당동 119번지 한남빌리지 103동 301호","indutype":"신변잡화 - 기타잡화","category":"other"}]},{"lat":"37.507370111","long":"126.78076673","imageIndex":17,"items":[{"name":"보물나라","tel":"","addr":"경기도 부천시 도당동 275-14번지 1층 일부","indutype":"신변잡화 - 기타잡화","category":"other"}]},{"lat":"37.520370888","long":"126.79535442","imageIndex":17,"items":[{"name":"복고매니아","tel":"","addr":"경기도 부천시 도당동 141번지 성진그린타운 104동 401호","indutype":"서적문구 - 완구점","category":"other"}]},{"lat":"37.507339585","long":"126.7837187","imageIndex":17,"items":[{"name":"복음지물","tel":"032-677-9494","addr":"경기도 부천시 도당동 263-46번지","indutype":"직물 - 카페트,커튼,천막,지물","category":"other"}]},{"lat":"37.512233024","long":"126.78429254","imageIndex":17,"items":[{"name":"본동파이프","tel":"","addr":"경기도 부천시 도당동 97-5번지","indutype":"건축자재 - 기타건축자재","category":"other"}]},{"lat":"37.514756672","long":"126.77994176","imageIndex":17,"items":[{"name":"볼트판매센터","tel":"032-563-3555","addr":"경기도 부천시 도당동 169-4번지 1층 일부","indutype":"기타 - 기계공구","category":"other"}]},{"lat":"37.51886723","long":"126.78587945","imageIndex":17,"items":[{"name":"부광정보통신","tel":"032-683-1133","addr":"경기도 부천시 도당동 42-3번지","indutype":"사무통신 - 통신기기","category":"other"}]},{"lat":"37.508485093","long":"126.77957587","imageIndex":17,"items":[{"name":"부성시스템","tel":"","addr":"경기도 부천시 도당동 281-24번지 1층","indutype":"용역 서비스 - 기타용역서비스","category":"other"}]},{"lat":"37.516867274","long":"126.7811571","imageIndex":17,"items":[{"name":"부원종합공사","tel":"032-672-5060","addr":"경기도 부천시 도당동 14번지","indutype":"용역 서비스 - 기타용역서비스","category":"other"}]},{"lat":"37.514477938","long":"126.78507776","imageIndex":17,"items":[{"name":"부천시장애인직업재활시설","tel":"032-672-2500","addr":"경기도 부천시 도당동 75-3번지","indutype":"건축자재 - 인테리어전문","category":"other"}]},{"lat":"37.516485293","long":"126.78407654","imageIndex":17,"items":[{"name":"부흥기계","tel":"032-678-7610","addr":"경기도 부천시 도당동 26-4번지","indutype":"기타 - 기계공구","category":"other"}]},{"lat":"37.517978801","long":"126.79282727","imageIndex":17,"items":[{"name":"블루기획","tel":"032-672-5949","addr":"경기도 부천시 도당동 121번지","indutype":"용역 서비스 - 사무서비스","category":"other"}]},{"lat":"37.513261728","long":"126.77558025","imageIndex":17,"items":[{"name":"비투앤","tel":"031-9241-6765","addr":"경기도 부천시 도당동 222-43번지 4층","indutype":"문화.취미 - 화방·표구점","category":"other"}]},{"lat":"37.506343243","long":"126.78090549","imageIndex":17,"items":[{"name":"빅터어패럴","tel":"032-683-7938","addr":"경기도 부천시 도당동 279-27번지","indutype":"의류 - 정장","category":"other"}]},{"lat":"37.513423796","long":"126.7755232","imageIndex":17,"items":[{"name":"뽀빠이월드","tel":"070-4088-5582","addr":"경기도 부천시 도당동 222-29번지 창성빌딩 1층 104호","indutype":"레져용품 - 스포츠·레져용품","category":"other"}]},{"lat":"37.518840864","long":"126.78624149","imageIndex":17,"items":[{"name":"뽀뽀애견","tel":"070-4042-9918","addr":"경기도 부천시 도당동 42-8번지 1층 일부","indutype":"문화.취미 - 애완동물","category":"other"},{"name":"토탈패션","tel":"032-676-7522","addr":"경기도 부천시 도당동 42-8번지 1층","indutype":"의류 - 정장","category":"other"}]},{"lat":"37.508757011","long":"126.78043463","imageIndex":17,"items":[{"name":"사인미디어","tel":"032-681-8369","addr":"경기도 부천시 도당동 272-19번지","indutype":"용역 서비스 - 종합용역","category":"other"},{"name":"세기종합냉열","tel":"032-673-3838","addr":"경기도 부천시 도당동 272-19번지","indutype":"기타 - 기타 전문점","category":"other"}]},{"lat":"37.520705571","long":"126.79102104","imageIndex":17,"items":[{"name":"삼보세탁소","tel":"032-676-2696","addr":"경기도 부천시 도당동 61-8번지","indutype":"수리서비스 - 세탁소","category":"other"}]},{"lat":"37.507728949","long":"126.77994004","imageIndex":17,"items":[{"name":"삼성유리","tel":"032-683-7723","addr":"경기도 부천시 도당동 283-7번지","indutype":"건축자재 - 유리","category":"other"}]},{"lat":"37.50828756","long":"126.77993838","imageIndex":17,"items":[{"name":"삼성종합건축","tel":"032-675-4954","addr":"경기도 부천시 도당동 283-12번지","indutype":"건축자재 - 인테리어전문","category":"other"}]},{"lat":"37.511234163","long":"126.78496278","imageIndex":17,"items":[{"name":"삼신광고기획","tel":"032-681-6575","addr":"경기도 부천시 도당동 86-16번지","indutype":"서적문구 - 출판 및 인쇄물","category":"other"},{"name":"삼신광고기획","tel":"032-681-6575","addr":"경기도 부천시 도당동 86-16번지","indutype":"용역 서비스 - 종합용역","category":"other"}]},{"lat":"37.52022687","long":"126.79543401","imageIndex":17,"items":[{"name":"삼오전기","tel":"032-505-2165","addr":"경기도 부천시 도당동 141-3번지 성진그린타운 102동 103호","indutype":"전기제품 - 기타전기제품","category":"other"}]},{"lat":"37.5091473","long":"126.78196034","imageIndex":17,"items":[{"name":"삼진칼라팩","tel":"032-677-2618","addr":"경기도 부천시 도당동 270-15번지","indutype":"서적문구 - 출판 및 인쇄물","category":"other"}]},{"lat":"37.508040607","long":"126.77799379","imageIndex":17,"items":[{"name":"삼천리자전거","tel":"070-7325-0371","addr":"경기도 부천시 도당동 247-50번지 101호","indutype":"레져용품 - 스포츠·레져용품","category":"other"}]},{"lat":"37.516428647","long":"126.78757188","imageIndex":17,"items":[{"name":"상상플러스","tel":"","addr":"경기도 부천시 도당동 49-2번지 마메든빌라 302호","indutype":"건축자재 - 인테리어전문","category":"other"}]},{"lat":"37.51450603","long":"126.78565454","imageIndex":17,"items":[{"name":"상월정밀","tel":"032-672-7261","addr":"경기도 부천시 도당동 74-16번지","indutype":"기타 - 기계공구","category":"other"}]},{"lat":"37.515430034","long":"126.77868422","imageIndex":17,"items":[{"name":"상진","tel":"032-653-5482","addr":"경기도 부천시 도당동 8-1번지 4층","indutype":"기타 - 기계공구","category":"other"}]},{"lat":"37.517232046","long":"126.78840662","imageIndex":17,"items":[{"name":"서연홈케어","tel":"032-1577-3606","addr":"경기도 부천시 도당동 53-20번지 청담빌리지 202호","indutype":"용역 서비스 - 종합용역","category":"other"}]},{"lat":"37.515371747","long":"126.78121808","imageIndex":17,"items":[{"name":"서전","tel":"032-423-6756","addr":"경기도 부천시 도당동 16-6번지","indutype":"신변잡화 - 기타잡화","category":"other"}]},{"lat":"37.520650332","long":"126.79543283","imageIndex":17,"items":[{"name":"선경주방","tel":"032-673-2051","addr":"경기도 부천시 도당동 140-1번지 성산그린맨션 다동 402호","indutype":"수리서비스 - 가정용품수리","category":"other"}]},{"lat":"37.507423553","long":"126.78043858","imageIndex":17,"items":[{"name":"선미장식","tel":"032-675-3377","addr":"경기도 부천시 도당동 275-9번지","indutype":"직물 - 카페트,커튼,천막,지물","category":"other"},{"name":"스마트통신","tel":"032-614-7111","addr":"경기도 부천시 도당동 275-9번지 104호","indutype":"사무통신 - 통신기기","category":"other"}]},{"lat":"37.50884632","long":"126.78001589","imageIndex":17,"items":[{"name":"선일종합포장","tel":"032-676-4129","addr":"경기도 부천시 도당동 281-29번지","indutype":"유통업 영리 - 기타유통업","category":"other"},{"name":"아이디어","tel":"032-681-6769","addr":"경기도 부천시 도당동 281-29번지","indutype":"서적문구 - 출판 및 인쇄물","category":"other"}]},{"lat":"37.507564868","long":"126.77893395","imageIndex":17,"items":[{"name":"설리네","tel":"","addr":"경기도 부천시 도당동 246-114번지 명품위너스빌 302호","indutype":"신변잡화 - 액세서리","category":"other"}]},{"lat":"37.512343696","long":"126.78083117","imageIndex":17,"items":[{"name":"성광수중펌프","tel":"032-684-6481","addr":"경기도 부천시 도당동 164-1번지","indutype":"건축자재 - 보일러·펌프·샷시","category":"other"}]},{"lat":"37.517257107","long":"126.79232028","imageIndex":17,"items":[{"name":"성광인테리어","tel":"032-876-9938","addr":"경기도 부천시 도당동 92-7번지 한주타운 1층","indutype":"건축자재 - 인테리어전문","category":"other"}]},{"lat":"37.515231194","long":"126.7783568","imageIndex":17,"items":[{"name":"성보수리","tel":"032-678-3492","addr":"경기도 부천시 도당동 8번지","indutype":"수리서비스 - 가정용품수리","category":"other"},{"name":"에이디오 원","tel":"070-7788-7873","addr":"경기도 부천시 도당동 8번지 2층","indutype":"건축자재 - 조명기구","category":"other"},{"name":"클린탑테크","tel":"032-1600-6764","addr":"경기도 부천시 도당동 8번지 1층","indutype":"기타 - 기계공구","category":"other"}]},{"lat":"37.520232687","long":"126.7936241","imageIndex":17,"items":[{"name":"성우스튜디오","tel":"032-679-7745","addr":"경기도 부천시 도당동 116-15번지","indutype":"광학제품 - 사진관","category":"other"},{"name":"태양정보통신도당점","tel":"032-678-2235","addr":"경기도 부천시 도당동 116-15번지","indutype":"사무통신 - 통신기기","category":"other"}]},{"lat":"37.510315201","long":"126.78498807","imageIndex":17,"items":[{"name":"성은요양원","tel":"032-715-7982","addr":"경기도 부천시 도당동 178-1번지 고려빌딩","indutype":"기타의료기관 - 기타의료기관 및 기타","category":"other"}]},{"lat":"37.519700043","long":"126.78801495","imageIndex":17,"items":[{"name":"성화정보","tel":"032-1661-0431","addr":"경기도 부천시 도당동 58-11번지 복지빌라","indutype":"사무통신 - 통신기기","category":"other"}]},{"lat":"37.519926953","long":"126.7939643","imageIndex":17,"items":[{"name":"세명정보통신 도당점","tel":"032-678-2500","addr":"경기도 부천시 도당동 131번지","indutype":"사무통신 - 통신기기","category":"other"},{"name":"주식회사 세명","tel":"032-719-8266","addr":"경기도 부천시 도당동 131번지 5층","indutype":"사무통신 - 통신기기","category":"other"}]},{"lat":"37.518948671","long":"126.78607151","imageIndex":17,"items":[{"name":"세븐일레븐부천도당중앙점","tel":"","addr":"경기도 부천시 도당동 42-4번지 1층 일부","indutype":"유통업 영리 - 편 의 점","category":"other"},{"name":"태진조명","tel":"032-677-8729","addr":"경기도 부천시 도당동 42-4번지 삼덕빌딩","indutype":"건축자재 - 조명기구","category":"other"}]},{"lat":"37.508316421","long":"126.78091096","imageIndex":17,"items":[{"name":"세븐일레븐부천도약로점","tel":"","addr":"경기도 부천시 도당동 275-11번지","indutype":"유통업 영리 - 편 의 점","category":"other"}]},{"lat":"37.521172466","long":"126.79518252","imageIndex":17,"items":[{"name":"세븐일레븐부천세영점","tel":"031-1577-0711","addr":"경기도 부천시 도당동 138-3번지 세영프라임 상가 1층","indutype":"유통업 영리 - 편 의 점","category":"other"}]},{"lat":"37.515730848","long":"126.78536821","imageIndex":17,"items":[{"name":"세븐일레븐부천원미도당점","tel":"","addr":"경기도 부천시 도당동 32-13번지 대영스카이 A동 101호","indutype":"유통업 영리 - 편 의 점","category":"other"}]},{"lat":"37.514782376","long":"126.7792404","imageIndex":17,"items":[{"name":"세아유통","tel":"032-674-4878","addr":"경기도 부천시 도당동 165-17번지 2층 전부","indutype":"의류 - 정장","category":"other"},{"name":"영원레이져","tel":"032-672-1179","addr":"경기도 부천시 도당동 165-17번지 1호 중","indutype":"기타 - 기계공구","category":"other"},{"name":"준테크","tel":"032-233-8075","addr":"경기도 부천시 도당동 165-17번지 3층","indutype":"건축자재 - 조명기구","category":"other"}]},{"lat":"37.508429342","long":"126.77868254","imageIndex":17,"items":[{"name":"세진공조","tel":"032-676-2738","addr":"경기도 부천시 도당동 246-68번지 신명위너스빌 101호","indutype":"전기제품 - 냉열기기","category":"other"}]},{"lat":"37.507005828","long":"126.77870942","imageIndex":17,"items":[{"name":"센추리테크","tel":"032-676-7112","addr":"경기도 부천시 도당동 247-24번지 선결레미앙주상복합아파트 105호","indutype":"전기제품 - 냉열기기","category":"other"}]},{"lat":"37.508679509","long":"126.7775734","imageIndex":17,"items":[{"name":"센코/원격지","tel":"031-677-1999","addr":"경기도 부천시 도당동 247-66번지 연합조명상가 2층","indutype":"기타 - 기타 전문점","category":"other"}]},{"lat":"37.507231504","long":"126.77893494","imageIndex":17,"items":[{"name":"소중한피부","tel":"032-678-8547","addr":"경기도 부천시 도당동 247-30번지","indutype":"회원제형태 - 기타4","category":"other"}]},{"lat":"37.520893459","long":"126.79535298","imageIndex":17,"items":[{"name":"송원24시불가마","tel":"032-682-8000","addr":"경기도 부천시 도당동 139번지","indutype":"회원제형태 - 기타4","category":"other"},{"name":"파워 D.C 마트","tel":"032-675-5397","addr":"경기도 부천시 도당동 139번지 송원빌딩 1층","indutype":"신변잡화 - 기타잡화","category":"other"},{"name":"하모니요양원2호","tel":"032-323-7276","addr":"경기도 부천시 도당동 139번지 송원빌딩 3층","indutype":"기타의료기관 - 기타의료기관 및 기타","category":"other"}]},{"lat":"37.515396733","long":"126.78496198","imageIndex":17,"items":[{"name":"송월타올초이스상사","tel":"032-677-7600","addr":"경기도 부천시 도당동 73-8번지","indutype":"신변잡화 - 기념품점","category":"other"},{"name":"주식회사 플랜룩스","tel":"032-668-0883","addr":"경기도 부천시 도당동 73-8번지 부양빌딩","indutype":"건축자재 - 조명기구","category":"other"}]},{"lat":"37.514703226","long":"126.78509973","imageIndex":17,"items":[{"name":"송학장갑","tel":"032-684-7723","addr":"경기도 부천시 도당동 75-9번지 1층 일부","indutype":"의류 - 기타의류","category":"other"}]},{"lat":"37.508481711","long":"126.78257304","imageIndex":17,"items":[{"name":"수디자인","tel":"","addr":"경기도 부천시 도당동 271-1번지 지하","indutype":"용역 서비스 - 사무서비스","category":"other"}]},{"lat":"37.510261704","long":"126.7852936","imageIndex":17,"items":[{"name":"수성시스템","tel":"032-684-7008","addr":"경기도 부천시 도당동 178-8번지","indutype":"전기제품 - 기타전기제품","category":"other"}]},{"lat":"37.513344511","long":"126.78121277","imageIndex":17,"items":[{"name":"슈와테크","tel":"032-672-4377","addr":"경기도 부천시 도당동 159-13","indutype":"전기제품 - 냉열기기","category":"other"}]},{"lat":"37.518928026","long":"126.78957817","imageIndex":17,"items":[{"name":"스쿨버스문구","tel":"032-681-0218","addr":"경기도 부천시 도당동 56-4번지 우성빌라","indutype":"서적문구 - 문구용품","category":"other"}]},{"lat":"37.519952977","long":"126.78837621","imageIndex":17,"items":[{"name":"스타일","tel":"070-8525-4252","addr":"경기도 부천시 도당동 58-6번지 1층","indutype":"의류 - 정장","category":"other"}]},{"lat":"37.509588872","long":"126.78687899","imageIndex":17,"items":[{"name":"승국전자","tel":"032-344-0715","addr":"경기도 부천시 도당동 179-15","indutype":"전기제품 - 기타전기제품","category":"other"},{"name":"아이씨엠스토리(ICM story)","tel":"","addr":"경기도 부천시 도당동 179-15번지 3층","indutype":"서적문구 - 완구점","category":"other"},{"name":"은하북스","tel":"02-1234-1234","addr":"경기도 부천시 도당동 179-15번지","indutype":"서적문구 - 일반서적","category":"other"}]},{"lat":"37.51136659","long":"126.78349203","imageIndex":17,"items":[{"name":"승현상사","tel":"032-000-0000","addr":"경기도 부천시 도당동 100-1번지 세광빌딩 1층","indutype":"신변잡화 - 기타잡화","category":"other"}]},{"lat":"37.512313615","long":"126.77921383","imageIndex":17,"items":[{"name":"시그널박스(signalbox)","tel":"032-328-6360","addr":"경기도 부천시 도당동 177-85번지 3층 베린다쪽 일부 외4필지","indutype":"용역 서비스 - 소프트웨어","category":"other"}]},{"lat":"37.506090967","long":"126.78090624","imageIndex":17,"items":[{"name":"시소베이비할인매장","tel":"032-683-1315","addr":"경기도 부천시 도당동 279-47번지","indutype":"의류 - 아동의류","category":"other"}]},{"lat":"37.514539948","long":"126.77496558","imageIndex":17,"items":[{"name":"시연기획","tel":"032-672-0771","addr":"경기도 부천시 도당동 213번지 3층 일부 1필지","indutype":"서적문구 - 출판 및 인쇄물","category":"other"},{"name":"쎌리기획","tel":"032-677-3695","addr":"경기도 부천시 도당동 213번지","indutype":"용역 서비스 - 종합용역","category":"other"}]},{"lat":"37.507344504","long":"126.78152457","imageIndex":17,"items":[{"name":"시온이불","tel":"032-683-3817","addr":"경기도 부천시 도당동 274-10번지","indutype":"직물 - 침구·수예점","category":"other"}]},{"lat":"37.515200454","long":"126.78116203","imageIndex":17,"items":[{"name":"신광스프링","tel":"032-678-8258","addr":"경기도 부천시 도당동 16-7번지","indutype":"기타 - 기계공구","category":"other"}]},{"lat":"37.515897426","long":"126.78287927","imageIndex":17,"items":[{"name":"신광엔지니어링/원격지","tel":"02-896-3374","addr":"경기도 부천시 도당동 23번지","indutype":"기타 - 기타 전문점","category":"other"}]},{"lat":"37.518478995","long":"126.78543942","imageIndex":17,"items":[{"name":"신도열쇠","tel":"032-674-0727","addr":"경기도 부천시 도당동 42번지 계남 샤이니","indutype":"건축자재 - 목재·석재·철물","category":"other"},{"name":"정보당","tel":"032-673-2783","addr":"경기도 부천시 도당동 42번지 계남 샤이니 가동 101호","indutype":"신변잡화 - 시계","category":"other"},{"name":"컴테크","tel":"032-673-2626","addr":"경기도 부천시 도당동 42번지 계남샤이니 가동 1층 102호","indutype":"사무통신 - 컴퓨터","category":"other"}]},{"lat":"37.505845979","long":"126.7848201","imageIndex":17,"items":[{"name":"신성건업","tel":"032-678-3399","addr":"경기도 부천시 도당동 265-16번지","indutype":"건축자재 - 인테리어전문","category":"other"}]},{"lat":"37.516260654","long":"126.78440522","imageIndex":17,"items":[{"name":"신영조각","tel":"032-684-8854","addr":"경기도 부천시 도당동 26-13번지","indutype":"기타 - 기계공구","category":"other"}]},{"lat":"37.507345435","long":"126.7820222","imageIndex":17,"items":[{"name":"신용상회","tel":"032-675-2815","addr":"경기도 부천시 도당동 274-44번지","indutype":"의류 - 내의판매","category":"other"}]},{"lat":"37.513478617","long":"126.78065814","imageIndex":17,"items":[{"name":"신진금속","tel":"032-678-0663","addr":"경기도 부천시 도당동 161-4번지","indutype":"기타 - 기계공구","category":"other"}]},{"lat":"37.510592708","long":"126.78401457","imageIndex":17,"items":[{"name":"신한상사","tel":"032-675-9474","addr":"경기도 부천시 도당동 99-8번지 2층 2호","indutype":"서적문구 - 출판 및 인쇄물","category":"other"}]},{"lat":"37.511367617","long":"126.78404624","imageIndex":17,"items":[{"name":"신화기획","tel":"032-681-3691","addr":"경기도 부천시 도당동 99-9번지301~302호일부","indutype":"서적문구 - 출판 및 인쇄물","category":"other"},{"name":"우리ENG","tel":"032-678-1884","addr":"경기도 부천시 도당동 99-9번지 2층 1호","indutype":"기타 - 기계공구","category":"other"}]},{"lat":"37.507013147","long":"126.78259998","imageIndex":17,"items":[{"name":"싱크퓨어 부천중동점","tel":"070-3652-8908","addr":"경기도 부천시 도당동 276-14번지 1층 일부","indutype":"주방용구 - 주방용구","category":"other"}]},{"lat":"37.515755957","long":"126.78432751","imageIndex":17,"items":[{"name":"쌍용화학","tel":"032-683-9180","addr":"경기도 부천시 도당동 25-9번지","indutype":"건축자재 - 페인트","category":"other"}]},{"lat":"37.511201035","long":"126.78654634","imageIndex":17,"items":[{"name":"쌍이원","tel":"032-675-5316","addr":"경기도 부천시 도당동 85-16번지 지층","indutype":"기타 - 기계공구","category":"other"}]},{"lat":"37.518590685","long":"126.79238441","imageIndex":17,"items":[{"name":"씨유도당누리점","tel":"032-676-4939","addr":"경기도 부천시 도당동 105-4번지 1층","indutype":"유통업 영리 - 편 의 점","category":"other"}]},{"lat":"37.511810794","long":"126.7849611","imageIndex":17,"items":[{"name":"씨유도당대로점","tel":"062-651-3831","addr":"경기도 부천시 도당동 83-4번지 1층","indutype":"유통업 영리 - 편 의 점","category":"other"}]},{"lat":"37.508478669","long":"126.78579642","imageIndex":17,"items":[{"name":"씨유부천도당공단점","tel":"032-662-3089","addr":"경기도 부천시 도당동 184-1번지 1층 일부","indutype":"유통업 영리 - 편 의 점","category":"other"},{"name":"엘앤피","tel":"032-673-5222","addr":"경기도 부천시 도당동 184-1번지 1층 일부","indutype":"건축자재 - 기타건축자재","category":"other"},{"name":"위드미 부천도당공단점","tel":"02-6916-1500","addr":"경기도 부천시 도당동 184-1번지 1층 일부","indutype":"유통업 영리 - 편 의 점","category":"other"}]},{"lat":"37.520226472","long":"126.79520777","imageIndex":17,"items":[{"name":"씨유부천북도서관점","tel":"032-682-2686","addr":"경기도 부천시 도당동 141-2번지 성진그린타운 103동 101호","indutype":"유통업 영리 - 편 의 점","category":"other"}]},{"lat":"37.508289137","long":"126.78077532","imageIndex":17,"items":[{"name":"아리랑","tel":"032-677-8490","addr":"경기도 부천시 도당동 275-1번지 1층","indutype":"신변잡화 - 기념품점","category":"other"}]},{"lat":"37.506289608","long":"126.78113184","imageIndex":17,"items":[{"name":"아이들세상","tel":"032-672-8103","addr":"경기도 부천시 도당동 278-4번지","indutype":"의류 - 아동의류","category":"other"}]},{"lat":"37.506735715","long":"126.78360737","imageIndex":17,"items":[{"name":"아이삭엔지니어링","tel":"031-255-3530","addr":"경기도 부천시 도당동 266-24번지","indutype":"기타 - 기계공구","category":"other"}]},{"lat":"37.510204781","long":"126.78374425","imageIndex":17,"items":[{"name":"아쿠아시스","tel":"02-1644-2879","addr":"경기도 부천시 도당동 254-1번지 부천공구상가 436동 303호","indutype":"주방용구 - 정수기","category":"other"}]},{"lat":"37.516313687","long":"126.78385082","imageIndex":17,"items":[{"name":"아트코아(주)","tel":"032-671-2824","addr":"경기도 부천시 도당동 26-12번지 1층","indutype":"주방용구 - 주방용구","category":"other"}]},{"lat":"37.519953531","long":"126.78868162","imageIndex":17,"items":[{"name":"알폰","tel":"032-679-6531","addr":"경기도 부천시 도당동 58-8번지 1층 101호","indutype":"수리서비스 - 레져용품수리","category":"other"}]},{"lat":"37.516261102","long":"126.77982417","imageIndex":17,"items":[{"name":"에스씨엘(SCL)","tel":"032-675-9510","addr":"경기도 부천시 도당동 10,10-1,10-2","indutype":"기타 - 기계공구","category":"other"},{"name":"하나스크린골프","tel":"032-719-7232","addr":"경기도 부천시 도당동 10번지 2층 일부","indutype":"레져용품 - 골프용품 전문점","category":"other"}]},{"lat":"37.51886835","long":"126.78649027","imageIndex":17,"items":[{"name":"에스알","tel":"070-7714-0064","addr":"경기도 부천시 도당동 43-8번지","indutype":"기타 - 기계공구","category":"other"}]},{"lat":"37.509034359","long":"126.78421139","imageIndex":17,"items":[{"name":"에스제이기획","tel":"032-684-9224","addr":"경기도 부천시 도당동 256-8번지 2층","indutype":"사무통신 - 기타 사무용품","category":"other"}]},{"lat":"37.510118965","long":"126.77646067","imageIndex":17,"items":[{"name":"에이스 (ACE)랩핑","tel":"032-679-1740","addr":"경기도 부천시 도당동 237-6번지 1층","indutype":"기타 - 기계공구","category":"other"}]},{"lat":"37.510705961","long":"126.78193313","imageIndex":17,"items":[{"name":"에이취디알 주식회사","tel":"033-1644-4124","addr":"경기도 부천시 도당동 163-12번지 3층 일부","indutype":"주방용구 - 정수기","category":"other"}]},{"lat":"37.52159549","long":"126.79493249","imageIndex":17,"items":[{"name":"엔젤프린터","tel":"032-683-9363","addr":"경기도 부천시 도당동 137-4번지 복지파크빌라 3동 201호","indutype":"회원제형태 - 기타3","category":"other"}]},{"lat":"37.514257066","long":"126.78257869","imageIndex":17,"items":[{"name":"엠테크","tel":"032-327-8973","addr":"경기도 부천시 도당동 157-1","indutype":"기타 - 기계공구","category":"other"}]},{"lat":"37.512533746","long":"126.78613531","imageIndex":17,"items":[{"name":"영광플라워","tel":"032-680-1057","addr":"경기도 부천시 도당동 82-3번지 페어차일드코리아반도체복합동3층실리콘프라자","indutype":"문화.취미 - 화원","category":"other"},{"name":"창성화원","tel":"032-680-1057","addr":"경기도 부천시 도당동 82-3번지","indutype":"문화.취미 - 화원","category":"other"},{"name":"페어차일드코리아반도체(주)새마을금고","tel":"032-680-1871","addr":"경기도 부천시 도당동 82-3번지","indutype":"유통업 비영리 - 구내매점(국가기관","category":"other"}]},{"lat":"37.506648705","long":"126.78044088","imageIndex":17,"items":[{"name":"영레저스포츠","tel":"032-675-1983","addr":"경기도 부천시 도당동 279-4번지","indutype":"레져용품 - 스포츠·레져용품","category":"other"}]},{"lat":"37.515647385","long":"126.77927175","imageIndex":17,"items":[{"name":"영민방전","tel":"032-678-3177","addr":"경기도 부천시 도당동 8-3번지","indutype":"기타 - 기계공구","category":"other"}]},{"lat":"37.507923101","long":"126.78257469","imageIndex":17,"items":[{"name":"영성전기","tel":"032-207-3565","addr":"경기도 부천시 도당동 273-55번지 1층","indutype":"전기제품 - 기타전기제품","category":"other"}]},{"lat":"37.51756541","long":"126.78840566","imageIndex":17,"items":[{"name":"영시스템에어컨","tel":"","addr":"경기도 부천시 도당동 53번지 삼성쉐르빌 1층","indutype":"용역 서비스 - 기타용역서비스","category":"other"}]},{"lat":"37.505845728","long":"126.78468439","imageIndex":17,"items":[{"name":"영진아트","tel":"032-671-4245","addr":"경기도 부천시 도당동 265-15번지 1층","indutype":"주방용구 - 주방용구","category":"other"}]},{"lat":"37.515700222","long":"126.77862686","imageIndex":17,"items":[{"name":"영진정밀","tel":"032-681-1707","addr":"경기도 부천시 도당동 7-2번지","indutype":"기타 - 기계공구","category":"other"}]},{"lat":"37.514145665","long":"126.78082583","imageIndex":17,"items":[{"name":"영진정밀","tel":"031-676-6367","addr":"경기도 부천시 도당동 158-11번지","indutype":"서적문구 - 과학기자재","category":"other"},{"name":"현대정밀","tel":"032-684-1747","addr":"경기도 부천시 도당동 158-11번지 1층","indutype":"기타 - 기계공구","category":"other"}]},{"lat":"37.506955913","long":"126.78090367","imageIndex":17,"items":[{"name":"영패션","tel":"032-674-5046","addr":"경기도 부천시 도당동 279-22번지 1층일부","indutype":"의류 - 정장","category":"other"}]},{"lat":"37.519261942","long":"126.79493896","imageIndex":17,"items":[{"name":"예스21이(YES21e)","tel":"032-672-6818","addr":"경기도 부천시 도당동 130-6번지","indutype":"회원제형태 - 서적","category":"other"}]},{"lat":"37.508040395","long":"126.78755074","imageIndex":17,"items":[{"name":"예스플러스","tel":"032-679-8622","addr":"경기도 부천시 도당동 183-13번지 1층","indutype":"유통업 영리 - 편 의 점","category":"other"}]},{"lat":"37.519844441","long":"126.7931614","imageIndex":17,"items":[{"name":"예유열쇠","tel":"032-683-1953","addr":"경기도 부천시 도당동 117번지","indutype":"기타 - 기계공구","category":"other"},{"name":"주식회사 디와이매직","tel":"032-323-7784","addr":"경기도 부천시 도당동 117번지 1층","indutype":"전기제품 - 가전제품","category":"other"}]},{"lat":"37.506811534","long":"126.7856316","imageIndex":17,"items":[{"name":"예인","tel":"032-677-8204","addr":"경기도 부천시 도당동 264-22번지","indutype":"건축자재 - 기타건축자재","category":"other"}]},{"lat":"37.511370603","long":"126.78566363","imageIndex":17,"items":[{"name":"예인화학","tel":"032-613-5240","addr":"경기도 부천시 도당동 85-3번지 가동 1층","indutype":"기타 - 기타 전문점","category":"other"}]},{"lat":"37.508287774","long":"126.78005148","imageIndex":17,"items":[{"name":"오피통신","tel":"070-7530-7179","addr":"경기도 부천시 도당동 283-22번지","indutype":"사무통신 - 통신기기","category":"other"}]},{"lat":"37.509451941","long":"126.7859067","imageIndex":17,"items":[{"name":"우주산업","tel":"032-682-3970","addr":"경기도 부천시 도당동 179-8 1층","indutype":"기타 - 기계공구","category":"other"}]},{"lat":"37.507177764","long":"126.78391144","imageIndex":17,"items":[{"name":"우진자전거","tel":"","addr":"경기도 부천시 도당동 266-39번지 1층","indutype":"레져용품 - 스포츠·레져용품","category":"other"}]},{"lat":"37.520984083","long":"126.79057908","imageIndex":17,"items":[{"name":"워터피아정수기","tel":"032-674-7274","addr":"경기도 부천시 도당동 60-10번지 다미안 103동 101호","indutype":"주방용구 - 정수기","category":"other"}]},{"lat":"37.521726311","long":"126.79248872","imageIndex":17,"items":[{"name":"원테크","tel":"02-1588-3366","addr":"경기도 부천시 도당동 113-19번지 그린베스트빌 301호","indutype":"회원제형태 - 기타4","category":"other"}]},{"lat":"37.513676224","long":"126.77560161","imageIndex":17,"items":[{"name":"원툴코리아","tel":"032-674-0986","addr":"경기도 부천시 도당동 222-39번지 은성테크 202호","indutype":"기타 - 기계공구","category":"other"}]},{"lat":"37.516810305","long":"126.78935798","imageIndex":17,"items":[{"name":"월드영상음향시스템","tel":"02-867-1108","addr":"경기도 부천시 도당동 52-19 동삼아트빌라 B-402","indutype":"전기제품 - 가전제품","category":"other"}]},{"lat":"37.521665472","long":"126.79374453","imageIndex":17,"items":[{"name":"유광스카이","tel":"","addr":"경기도 부천시 도당동 113-28번지 우정아트타운 가동 401호","indutype":"기타 - 기계공구","category":"other"}]},{"lat":"37.51728341","long":"126.791913","imageIndex":17,"items":[{"name":"유비기획","tel":"032-681-6447","addr":"경기도 부천시 도당동 92-2번지 고려빌라 3호","indutype":"용역 서비스 - 종합용역","category":"other"}]},{"lat":"37.515397416","long":"126.7804941","imageIndex":17,"items":[{"name":"유상테크(주)","tel":"032-679-0884","addr":"경기도 부천시 도당동 12-2번지","indutype":"서적문구 - 과학기자재","category":"other"},{"name":"유수씨스템(주)","tel":"032-678-9654","addr":"경기도 부천시 도당동 12-2번지","indutype":"전기제품 - 기타전기제품","category":"other"}]},{"lat":"37.509424205","long":"126.78552224","imageIndex":17,"items":[{"name":"유성아크릴","tel":"032-672-6702","addr":"경기도 부천시 도당동 180-1,3,4호","indutype":"건축자재 - 기타건축자재","category":"other"},{"name":"주식회사 케이에스전자","tel":"070-4416-4142","addr":"경기도 부천시 도당동 180-1번지 3층","indutype":"전기제품 - 기타전기제품","category":"other"},{"name":"지벤현대피복","tel":"032-675-1468","addr":"경기도 부천시 도당동 180-1번지 1층","indutype":"의류 - 기타의류","category":"other"}]},{"lat":"37.51675854","long":"126.7808294","imageIndex":17,"items":[{"name":"유진 알루미늄","tel":"032-676-6061","addr":"경기도 부천시 도당동 13-1번지 1층 일부","indutype":"건축자재 - 기타건축자재","category":"other"},{"name":"중앙산업","tel":"032-679-5816","addr":"경기도 부천시 도당동 13-1번지 상원화학내","indutype":"기타 - 기타 전문점","category":"other"},{"name":"창대공구","tel":"032-677-9896","addr":"경기도 부천시 도당동 13-1번지","indutype":"기타 - 기계공구","category":"other"},{"name":"홀인원슈퍼드릴","tel":"032-678-0903","addr":"경기도 부천시 도당동 13-1번지 1층 일부","indutype":"기타 - 기계공구","category":"other"},{"name":"효성앵글","tel":"032-613-5162","addr":"경기도 부천시 도당동 13-1번지","indutype":"기타 - 기계공구","category":"other"}]},{"lat":"37.516757887","long":"126.78531999","imageIndex":17,"items":[{"name":"유진아이텍","tel":"032-672-4793","addr":"경기도 부천시 도당동 30-7번지 현대하이츠빌","indutype":"기타 - 기계공구","category":"other"}]},{"lat":"37.514954889","long":"126.77994117","imageIndex":17,"items":[{"name":"윤재열처리","tel":"032-676-2090","addr":"경기도 부천시 도당동 169-1번지","indutype":"기타 - 기타 전문점","category":"other"}]},{"lat":"37.515207526","long":"126.78496253","imageIndex":17,"items":[{"name":"은하금속","tel":"032-671-1555","addr":"경기도 부천시 도당동 73-9 에이동1층","indutype":"기타 - 기계공구","category":"other"}]},{"lat":"37.511314082","long":"126.78432916","imageIndex":17,"items":[{"name":"이마트24 부천도당대로점","tel":"","addr":"경기도 부천시 도당동 99-1번지 고산테크노밸리 1층 105,106호","indutype":"유통업 영리 - 편 의 점","category":"other"},{"name":"인아테크","tel":"032-682-2521","addr":"경기도 부천시 도당동 99-1번지 고산테크노밸리 103호","indutype":"기타 - 기계공구","category":"other"},{"name":"인아테크/원격지","tel":"032-682-2521","addr":"경기도 부천시 도당동 99-1번지 고산테크노밸리 103호","indutype":"기타 - 기타 전문점","category":"other"},{"name":"춘의포장상사","tel":"032-664-2254","addr":"경기도 부천시 도당동 99-1번지 고산테크노벨리 101호","indutype":"유통업 영리 - 기타유통업","category":"other"}]},{"lat":"37.513091714","long":"126.77619154","imageIndex":17,"items":[{"name":"이마트24 부천동부밸리점","tel":"032-1111-1111","addr":"경기도 부천시 도당동 222-28번지 1층","indutype":"유통업 영리 - 편 의 점","category":"other"}]},{"lat":"37.512788335","long":"126.78251514","imageIndex":17,"items":[{"name":"이마트24도당공단점","tel":"","addr":"경기도 부천시 도당동 160-9번지 1층","indutype":"유통업 영리 - 편 의 점","category":"other"}]},{"lat":"37.51978975","long":"126.78779977","imageIndex":17,"items":[{"name":"인더라인","tel":"032-676-0268","addr":"경기도 부천시 도당동 58번지","indutype":"유통업 영리 - 편 의 점","category":"other"}]},{"lat":"37.508284695","long":"126.7832183","imageIndex":17,"items":[{"name":"일산정밀","tel":"032-679-6729","addr":"경기도 부천시 도당동 260-59번지","indutype":"기타 - 기계공구","category":"other"}]},{"lat":"37.514037574","long":"126.77609819","imageIndex":17,"items":[{"name":"자산환경","tel":"","addr":"경기도 부천시 도당동 222-41번지 구심이엔지 1층 102호","indutype":"용역 서비스 - 종합용역","category":"other"}]},{"lat":"37.508562445","long":"126.77760769","imageIndex":17,"items":[{"name":"자원기공","tel":"03-200-0000","addr":"경기도 부천시 도당동 247-11번지","indutype":"기타 - 기계공구","category":"other"}]},{"lat":"37.515816843","long":"126.78804871","imageIndex":17,"items":[{"name":"장수식품","tel":"031-671-8169","addr":"경기도 부천시 도당동 50-23번지 로즈파크빌 A동 401호","indutype":"회원제형태 - 기타4","category":"other"}]},{"lat":"37.508316825","long":"126.78112585","imageIndex":17,"items":[{"name":"제니패션","tel":"","addr":"경기도 부천시 도당동 273-4번지 1층","indutype":"의류 - 내의판매","category":"other"}]},{"lat":"37.512177644","long":"126.78358014","imageIndex":17,"items":[{"name":"제이 앤 제이(J&J)","tel":"032-683-0751","addr":"경기도 부천시 도당동 98-16번지 2층","indutype":"기타 - 기계공구","category":"other"}]},{"lat":"37.515678348","long":"126.7862167","imageIndex":17,"items":[{"name":"제이앤씨동은 (J&C동은)","tel":"02-6489-5089","addr":"경기도 부천시 도당동 33-7번지 B1층","indutype":"기타 - 기계공구","category":"other"}]},{"lat":"37.516453796","long":"126.78654249","imageIndex":17,"items":[{"name":"제이에이치","tel":"032-674-3757","addr":"경기도 부천시 도당동 35-8번지 동창빌라 202호","indutype":"회원제형태 - 기타4","category":"other"}]},{"lat":"37.507121687","long":"126.78282586","imageIndex":17,"items":[{"name":"제이엘샵","tel":"032-561-5943","addr":"경기도 부천시 도당동 266-9번지 1층 110호 109","indutype":"레져용품 - 스포츠·레져용품","category":"other"}]},{"lat":"37.508288456","long":"126.7804134","imageIndex":17,"items":[{"name":"제일기획","tel":"032-675-6310","addr":"경기도 부천시 도당동 275-3번지","indutype":"용역 서비스 - 종합용역","category":"other"}]},{"lat":"37.515589994","long":"126.7775187","imageIndex":17,"items":[{"name":"제일수출포장","tel":"032-672-8518","addr":"경기도 부천시 도당동 5-2번지","indutype":"신변잡화 - 기타잡화","category":"other"},{"name":"한일상사","tel":"032-672-3007","addr":"경기도 부천시 도당동 5-2번지 태양공구상가","indutype":"기타 - 기계공구","category":"other"},{"name":"현대조각","tel":"032-678-1852","addr":"경기도 부천시 도당동 5-2번지 2층","indutype":"용역 서비스 - 종합용역","category":"other"}]},{"lat":"37.516866017","long":"126.79027403","imageIndex":17,"items":[{"name":"제일에너텍","tel":"","addr":"경기도 부천시 도당동 69번지 우남아파트","indutype":"용역 서비스 - 기타용역서비스","category":"other"}]},{"lat":"37.518727289","long":"126.78818742","imageIndex":17,"items":[{"name":"제일유리창호","tel":"032-212-6204","addr":"경기도 부천시 도당동 45-1번지","indutype":"용역 서비스 - 기타용역서비스","category":"other"}]},{"lat":"37.519845925","long":"126.78896473","imageIndex":17,"items":[{"name":"조은사람들","tel":"","addr":"경기도 부천시 도당동 58-17번지 성산리치빌 103동 501호","indutype":"신변잡화 - 기타잡화","category":"other"}]},{"lat":"37.505840006","long":"126.78160818","imageIndex":17,"items":[{"name":"종금당","tel":"032-676-2006","addr":"경기도 부천시 도당동 278-59번지","indutype":"신변잡화 - 시계","category":"other"}]},{"lat":"37.514815514","long":"126.77771331","imageIndex":17,"items":[{"name":"종합철강","tel":"032-679-2211","addr":"경기도 부천시 도당동 195-8번지","indutype":"건축자재 - 기타건축자재","category":"other"}]},{"lat":"37.509454691","long":"126.78252494","imageIndex":17,"items":[{"name":"주식회사 더좋은캠핑","tel":"032-000-0000","addr":"경기도 부천시 도당동 269-2번지 2층","indutype":"레져용품 - 스포츠·레져용품","category":"other"}]},{"lat":"37.51306707","long":"126.78220893","imageIndex":17,"items":[{"name":"주식회사 링크코리아","tel":"031-457-2795","addr":"경기도 부천시 도당동 160-7번지 3층","indutype":"레져용품 - 스포츠·레져용품","category":"other"}]},{"lat":"37.515346351","long":"126.78696419","imageIndex":17,"items":[{"name":"주식회사 삼창휴먼라이트","tel":"032-677-0223","addr":"경기도 부천시 도당동 72-1번지","indutype":"전기제품 - 기타전기제품","category":"other"}]},{"lat":"37.508012602","long":"126.78713235","imageIndex":17,"items":[{"name":"주식회사 서전스틸","tel":"032-676-9078","addr":"경기도 부천시 도당동 183-16번지 1층","indutype":"기타 - 기계공구","category":"other"}]},{"lat":"37.514895201","long":"126.7817398","imageIndex":17,"items":[{"name":"주식회사 성보기업","tel":"032-679-8283","addr":"경기도 부천시 도당동 156-11번지","indutype":"수리서비스 - 세탁소","category":"other"}]},{"lat":"37.513458174","long":"126.78418717","imageIndex":17,"items":[{"name":"주식회사 성아특수강","tel":"032-684-2380","addr":"경기도 부천시 도당동 95-1번지","indutype":"기타 - 기계공구","category":"other"}]},{"lat":"37.515538987","long":"126.78393226","imageIndex":17,"items":[{"name":"주식회사 세민크리닝","tel":"032-679-8343","addr":"경기도 부천시 도당동 25-15번지 4층","indutype":"수리서비스 - 세탁소","category":"other"}]},{"lat":"37.514340217","long":"126.78368692","imageIndex":17,"items":[{"name":"주식회사 알루텍","tel":"032-684-7175","addr":"경기도 부천시 도당동 88-23번지 2층","indutype":"용역 서비스 - 기타용역서비스","category":"other"}]},{"lat":"37.508958093","long":"126.7819609","imageIndex":17,"items":[{"name":"주식회사 에코씨","tel":"032-677-8837","addr":"경기도 부천시 도당동 270-4번지 5층","indutype":"신변잡화 - 기타잡화","category":"other"}]},{"lat":"37.518561912","long":"126.7864346","imageIndex":17,"items":[{"name":"주식회사 유케이","tel":"032-677-6021","addr":"경기도 부천시 도당동 40-5번지 연세빌딩 204호","indutype":"용역 서비스 - 종합용역","category":"other"}]},{"lat":"37.51661718","long":"126.78232291","imageIndex":17,"items":[{"name":"주안산업","tel":"032-674-2040","addr":"경기도 부천시 도당동 19번지","indutype":"건축자재 - 기타건축자재","category":"other"}]},{"lat":"37.50695504","long":"126.78043997","imageIndex":17,"items":[{"name":"준스튜디오","tel":"032-679-9898","addr":"경기도 부천시 도당동 279-3 1층,지층","indutype":"광학제품 - 사진관","category":"other"}]},{"lat":"37.508061965","long":"126.78457615","imageIndex":17,"items":[{"name":"중고종합재활용알뜰매장","tel":"032-655-8949","addr":"경기도 부천시 도당동 260-43번지 1층","indutype":"전기제품 - 가전제품","category":"other"}]},{"lat":"37.519603069","long":"126.78919165","imageIndex":17,"items":[{"name":"중동출장타이어","tel":"032-675-2172","addr":"경기도 부천시 도당동 57-1번지 우남아파트","indutype":"회원제형태 - 기타4","category":"other"}]},{"lat":"37.507900137","long":"126.77993953","imageIndex":17,"items":[{"name":"지성정보통신","tel":"","addr":"경기도 부천시 도당동 283-6번지 A동 101호","indutype":"사무통신 - 통신기기","category":"other"}]},{"lat":"37.515506895","long":"126.78121768","imageIndex":17,"items":[{"name":"진산피앤씨주식회사","tel":"032-678-2635","addr":"경기도 부천시 도당동 16-3번지","indutype":"주방용구 - 주방용식기","category":"other"}]},{"lat":"37.506453036","long":"126.78179863","imageIndex":17,"items":[{"name":"진성냉난방","tel":"","addr":"경기도 부천시 도당동 277-41번지","indutype":"수리서비스 - 가정용품수리","category":"other"}]},{"lat":"37.507204521","long":"126.78376433","imageIndex":17,"items":[{"name":"진이네옷방","tel":"","addr":"경기도 부천시 도당동 266-34번지","indutype":"의류 - 정장","category":"other"}]},{"lat":"37.518926758","long":"126.78887686","imageIndex":17,"items":[{"name":"진주상사","tel":"070-2711-5712","addr":"경기도 부천시 도당동 56-12번지 아이티파크 A동 302호","indutype":"의류 - 내의판매","category":"other"}]},{"lat":"37.514844768","long":"126.78368544","imageIndex":17,"items":[{"name":"창영정밀","tel":"032-679-2889","addr":"경기도 부천시 도당동 88-3번지 1층","indutype":"기타 - 기계공구","category":"other"}]},{"lat":"37.513817499","long":"126.77410815","imageIndex":17,"items":[{"name":"창조문","tel":"","addr":"경기도 부천시 도당동 218-6번지 건영빌라 D동 101호","indutype":"건축자재 - 기타건축자재","category":"other"}]},{"lat":"37.521449216","long":"126.79373382","imageIndex":17,"items":[{"name":"천지 종합 설비","tel":"","addr":"경기도 부천시 도당동 114-5번지 동삼아트빌 가동 501호","indutype":"건축자재 - 인테리어전문","category":"other"}]},{"lat":"37.507174079","long":"126.78193223","imageIndex":17,"items":[{"name":"충남신발","tel":"032-676-5443","addr":"경기도 부천시 도당동 276-28번지","indutype":"신변잡화 - 신발","category":"other"}]},{"lat":"37.507006793","long":"126.77921836","imageIndex":17,"items":[{"name":"칼라솔루션","tel":"031-674-0684","addr":"경기도 부천시 도당동 261-16번지","indutype":"사무통신 - 사무용 OA기기","category":"other"}]},{"lat":"37.508625417","long":"126.78720976","imageIndex":17,"items":[{"name":"케이엠브러쉬(KMBRUSH)","tel":"","addr":"경기도 부천시 도당동 183-2번지 3층","indutype":"기타 - 기계공구","category":"other"}]},{"lat":"37.507537259","long":"126.77862866","imageIndex":17,"items":[{"name":"코멜리블링","tel":"","addr":"경기도 부천시 도당동 247-83번지 풍성하이빌4차 303호","indutype":"신변잡화 - 액세서리","category":"other"}]},{"lat":"37.516507191","long":"126.78618037","imageIndex":17,"items":[{"name":"크린에이드 (원미점)","tel":"032-682-1255","addr":"경기도 부천시 도당동 35-6번지 미래그린빌리지 1층 101호","indutype":"수리서비스 - 세탁소","category":"other"}]},{"lat":"37.521979733","long":"126.7931328","imageIndex":17,"items":[{"name":"탑하우스","tel":"","addr":"경기도 부천시 도당동 113-1번지 동화프리미아 202동 502호","indutype":"건축자재 - 인테리어전문","category":"other"}]},{"lat":"37.509148401","long":"126.78743445","imageIndex":17,"items":[{"name":"태경ENG","tel":"","addr":"경기도 부천시 도당동 175-2번지","indutype":"기타 - 기계공구","category":"other"}]},{"lat":"37.51861653","long":"126.78673985","imageIndex":17,"items":[{"name":"태양종합공사","tel":"","addr":"경기도 부천시 도당동 44-13번지 성산연립 1동 206호","indutype":"용역 서비스 - 기타용역서비스","category":"other"}]},{"lat":"37.513285287","long":"126.78327151","imageIndex":17,"items":[{"name":"태형글로벌주식회사","tel":"032-679-2930","addr":"경기도 부천시 도당동 96-2번지 C동 203호","indutype":"회원제형태 - 기타4","category":"other"}]},{"lat":"37.508647954","long":"126.77993731","imageIndex":17,"items":[{"name":"티씨테크","tel":"032-671-5775","addr":"경기도 부천시 도당동 281-21번지 1층 102호","indutype":"기타 - 기계공구","category":"other"}]},{"lat":"37.507373077","long":"126.7823501","imageIndex":17,"items":[{"name":"티파니","tel":"070-4200-3222","addr":"경기도 부천시 도당동 274-50번지 1층","indutype":"의류 - 정장","category":"other"}]},{"lat":"37.506484157","long":"126.77918599","imageIndex":17,"items":[{"name":"퍼피스프링 부천점","tel":"","addr":"경기도 부천시 도당동 262-42번지 ,1,2층","indutype":"문화.취미 - 애완동물","category":"other"}]},{"lat":"37.519810125","long":"126.79413431","imageIndex":17,"items":[{"name":"풀꽃향기","tel":"032-683-0114","addr":"경기도 부천시 도당동 131-1번지","indutype":"문화.취미 - 화원","category":"other"}]},{"lat":"37.508512956","long":"126.78001688","imageIndex":17,"items":[{"name":"플러스알파문구인쇄","tel":"032-679-9532","addr":"경기도 부천시 도당동 281-22번지 1층","indutype":"서적문구 - 문구용품","category":"other"}]},{"lat":"37.514068963","long":"126.77368888","imageIndex":17,"items":[{"name":"피톤치드","tel":"070-7362-3488","addr":"경기도 부천시 도당동 217-18번지 삼성쉐르빌 C동 301호","indutype":"서적문구 - 출판 및 인쇄물","category":"other"}]},{"lat":"37.513341246","long":"126.77476563","imageIndex":17,"items":[{"name":"피플앤피플","tel":"032-683-6832","addr":"경기도 부천시 도당동 221-3번지 부원빌딩 1층","indutype":"유통업 영리 - 편 의 점","category":"other"}]},{"lat":"37.516928511","long":"126.78501409","imageIndex":17,"items":[{"name":"하늘아트","tel":"032-677-5553","addr":"경기도 부천시 도당동 30-8번지 플러스타운 1층","indutype":"건축자재 - 인테리어전문","category":"other"}]},{"lat":"37.515199816","long":"126.7808227","imageIndex":17,"items":[{"name":"한국다이야몬드","tel":"02-849-3400","addr":"경기도 부천시 도당동 12-9번지","indutype":"기타 - 기계공구","category":"other"}]},{"lat":"37.519395313","long":"126.79393185","imageIndex":17,"items":[{"name":"한솔전자","tel":"","addr":"경기도 부천시 도당동 130-3번지 로얄하이츠 102동 301호","indutype":"용역 서비스 - 기타용역서비스","category":"other"}]},{"lat":"37.520371425","long":"126.79565984","imageIndex":17,"items":[{"name":"한양종합건축","tel":"032-672-4556","addr":"경기도 부천시 도당동 141-1번지 성진그린타운","indutype":"용역 서비스 - 기타용역서비스","category":"other"}]},{"lat":"37.5086743","long":"126.77957531","imageIndex":17,"items":[{"name":"한울테크","tel":"032-673-5209","addr":"경기도 부천시 도당동 281-19 1층","indutype":"건축자재 - 목재·석재·철물","category":"other"}]},{"lat":"37.519510072","long":"126.79259675","imageIndex":17,"items":[{"name":"행복다육","tel":"032-674-4574","addr":"경기도 부천시 도당동 118번지","indutype":"문화.취미 - 화원","category":"other"}]},{"lat":"37.507369062","long":"126.78504187","imageIndex":17,"items":[{"name":"행복모바일","tel":"031-1111-1111","addr":"경기도 부천시 도당동 258-27번지 1층 일부","indutype":"사무통신 - 통신기기","category":"other"}]},{"lat":"37.516258469","long":"126.78812662","imageIndex":17,"items":[{"name":"헤레이스","tel":"032-624-6970","addr":"경기도 부천시 도당동 49-5번지","indutype":"의류 - 정장","category":"other"}]},{"lat":"37.515896158","long":"126.78707572","imageIndex":17,"items":[{"name":"헬로우초이스","tel":"031-123-4567","addr":"경기도 부천시 도당동 50-13번지 지앤하우스 102동 401호","indutype":"전기제품 - 기타전기제품","category":"other"}]},{"lat":"37.509763807","long":"126.77921013","imageIndex":17,"items":[{"name":"현대골프오케이온","tel":"032-682-1311","addr":"경기도 부천시 도당동 246-1번지 3층 일부","indutype":"레져용품 - 골프용품 전문점","category":"other"}]},{"lat":"37.517368781","long":"126.78435675","imageIndex":17,"items":[{"name":"현대공사","tel":"032-677-3041","addr":"경기도 부천시 도당동 27-4번지 1층","indutype":"전기제품 - 기타전기제품","category":"other"}]},{"lat":"37.513755983","long":"126.77491141","imageIndex":17,"items":[{"name":"현대특수도료.도장","tel":"032-677-7337","addr":"경기도 부천시 도당동 214-11번지","indutype":"건축자재 - 페인트","category":"other"}]},{"lat":"37.508341625","long":"126.7847676","imageIndex":17,"items":[{"name":"형제정밀","tel":"032-679-3678","addr":"경기도 부천시 도당동 258-2번지 1층","indutype":"기타 - 기계공구","category":"other"}]},{"lat":"37.509902006","long":"126.78082709","imageIndex":17,"items":[{"name":"혜강금속","tel":"032-654-2225","addr":"경기도 부천시 도당동 272-4번지 1층","indutype":"건축자재 - 기타건축자재","category":"other"}]},{"lat":"37.509706661","long":"126.78724058","imageIndex":17,"items":[{"name":"혜성정밀조각","tel":"032-671-0706","addr":"경기도 부천시 도당동 175-4번지 1층","indutype":"기타 - 기타 전문점","category":"other"}]},{"lat":"37.507093983","long":"126.78246402","imageIndex":17,"items":[{"name":"혜인통상","tel":"032-341-6853","addr":"경기도 부천시 도당동 276-10번지","indutype":"수리서비스 - 가정용품수리","category":"other"}]},{"lat":"37.518344804","long":"126.78596014","imageIndex":17,"items":[{"name":"호남전자","tel":"032-674-1291","addr":"경기도 부천시 도당동 40-1번지","indutype":"수리서비스 - 기타수리서비스","category":"other"}]},{"lat":"37.519844098","long":"126.78795798","imageIndex":17,"items":[{"name":"홈스마일도당점","tel":"032-677-9276","addr":"경기도 부천시 도당동 58-3번지 1층","indutype":"직물 - 침구·수예점","category":"other"}]},{"lat":"37.514312755","long":"126.77395959","imageIndex":17,"items":[{"name":"홍진씨엔아이주식회사","tel":"032-329-2514","addr":"경기도 부천시 도당동 217-8번지 진영빌딩 2층","indutype":"사무통신 - 컴퓨터","category":"other"}]},{"lat":"37.515594908","long":"126.78493879","imageIndex":17,"items":[{"name":"화성종합배관","tel":"032-682-0797","addr":"경기도 부천시 도당동 32-7번지 1층","indutype":"기타 - 기계공구","category":"other"}]},{"lat":"37.506117273","long":"126.78052163","imageIndex":17,"items":[{"name":"황제라사","tel":"032-676-7774","addr":"경기도 부천시 도당동 279-5번지","indutype":"의류 - 맞춤복점","category":"other"}]},{"lat":"37.515925129","long":"126.78324115","imageIndex":17,"items":[{"name":"효성기업","tel":"032-672-4821","addr":"경기도 부천시 도당동 23-1번지","indutype":"직물 - 옷감·직물","category":"other"}]},{"lat":"37.517204337","long":"126.79304436","imageIndex":17,"items":[{"name":"휘게공방","tel":"070-8285-6892","addr":"경기도 부천시 도당동 123번지 1층 5호","indutype":"문화.취미 - 문화취미기타","category":"other"}]}]