[{"lat":"37.274946895","long":"127.63625446","imageIndex":16,"items":[{"name":"(주)마인드펀치심리상담센타","tel":"031-886-8711","addr":"경기도 여주시 교동 75번지","indutype":"학원 - 기타 교육기관","category":"study"}]},{"lat":"37.2799658530","long":"127.6361950337","imageIndex":16,"items":[{"name":"라온종합학원","tel":"031-886-5050","addr":"경기도 여주시 교동 100-3번지","indutype":"학원 - 기타 교육기관","category":"study"}]},{"lat":"37.279640779","long":"127.63632762","imageIndex":16,"items":[{"name":"맨투맨보습학원","tel":"031-885-0882","addr":"경기도 여주시 교동 100번지","indutype":"학원 - 보습학원","category":"study"},{"name":"베라카음악학원","tel":"031-885-6008","addr":"경기도 여주시 교동 100번지","indutype":"학원 - 예·체능계학원","category":"study"}]},{"lat":"37.279585514","long":"127.63655266","imageIndex":16,"items":[{"name":"멘사영어전문교습소","tel":"031-885-9040","addr":"경기도 여주시 교동 99-2번지 1동 5호","indutype":"학원 - 외국어학원","category":"study"},{"name":"삼성영어","tel":"031-885-0880","addr":"경기도 여주시 교동 99-2번지","indutype":"회원제형태 - 학원","category":"study"},{"name":"세종보습학원","tel":"031-885-0880","addr":"경기도 여주시 교동 99-2번지","indutype":"학원 - 보습학원","category":"study"},{"name":"해법중국어학원","tel":"070-5022-4846","addr":"경기도 여주시 교동 99-2번지 202호","indutype":"회원제형태 - 학원","category":"study"}]},{"lat":"37.279583498","long":"127.63524468","imageIndex":16,"items":[{"name":"명성수학학원","tel":"031-885-3412","addr":"경기도 여주시 교동 103-3번지","indutype":"학원 - 보습학원","category":"study"},{"name":"잉글리쉬무무학원","tel":"031-881-3313","addr":"경기도 여주시 교동 103-3번지","indutype":"회원제형태 - 학원","category":"study"}]},{"lat":"37.276441914","long":"127.63805973","imageIndex":16,"items":[{"name":"반포수학교습소","tel":"","addr":"경기도 여주시 교동 17-22번지 3층","indutype":"학원 - 보습학원","category":"study"}]},{"lat":"37.279218074","long":"127.63280612","imageIndex":16,"items":[{"name":"세종중학교","tel":"031-884-6175","addr":"경기도 여주시 교동 121-11번지 세종중학교","indutype":"학원 - 초중고교육기관","category":"study"}]},{"lat":"37.279500921","long":"127.63383455","imageIndex":16,"items":[{"name":"세종초등학교","tel":"031-880-2600","addr":"경기도 여주시 교동 121-7번지 세종초등학교","indutype":"학원 - 초중고교육기관","category":"study"},{"name":"세종초등학교병설유치원[아이행복]","tel":"031-880-2680","addr":"경기도 여주시 교동 121-7번지 세종초등학교","indutype":"학원 - 유치원","category":"study"}]},{"lat":"37.279946115","long":"127.63483052","imageIndex":16,"items":[{"name":"세종해법수학교습소","tel":"031-886-9555","addr":"경기도 여주시 교동 103-1번지","indutype":"회원제형태 - 학원","category":"study"},{"name":"프레이즈음악학원","tel":"031-885-3721","addr":"경기도 여주시 교동 103-1번지","indutype":"학원 - 예·체능계학원","category":"study"}]},{"lat":"37.276248657","long":"127.63713355","imageIndex":16,"items":[{"name":"에스에이치(SH)에이전시","tel":"031-883-4489","addr":"경기도 여주시 교동 84-6번지","indutype":"학원 - 예·체능계학원","category":"study"}]},{"lat":"37.269749145","long":"127.63267086","imageIndex":16,"items":[{"name":"엔에스이항공","tel":"031-881-6653","addr":"경기도 여주시 교동 454-4번지 여주대학교 104호 여암정보학술관","indutype":"학원 - 기능학원","category":"study"},{"name":"용마FC 유소년 축구교실","tel":"","addr":"경기도 여주시 교동 454-4번지 여주대학 207호","indutype":"학원 - 예·체능계학원","category":"study"}]},{"lat":"37.28063266","long":"127.63280663","imageIndex":16,"items":[{"name":"예일어린이집[아이행복]","tel":"031-882-6223","addr":"경기도 여주시 교동 127번지 여주예일세띠앙","indutype":"학원 - 유아원","category":"study"}]},{"lat":"37.277221993","long":"127.64211408","imageIndex":16,"items":[{"name":"재능유치원[아이행복]","tel":"031-882-1475","addr":"경기도 여주시 교동 21-3번지","indutype":"학원 - 유치원","category":"study"}]},{"lat":"37.2697491453","long":"127.6326708592","imageIndex":16,"items":[{"name":"주식회사소통교육연구소","tel":"031-882-5562","addr":"경기도 여주시 교동 454-4번지","indutype":"회원제형태 - 학원","category":"study"}]},{"lat":"37.296774852","long":"127.64027199","imageIndex":16,"items":[{"name":"지앤비어학원","tel":"031-881-0582","addr":"경기도 여주시 교동 103-1번지","indutype":"회원제형태 - 학원","category":"study"}]},{"lat":"37.274661599","long":"127.63568833","imageIndex":16,"items":[{"name":"하예진영어교습소","tel":"031-883-7005","addr":"경기도 여주시 교동 80번지","indutype":"학원 - 외국어학원","category":"study"}]},{"lat":"37.279354519","long":"127.63594185","imageIndex":16,"items":[{"name":"한우리독서토론논술학원","tel":"031-884-7556","addr":"경기도 여주시 교동 105-1번지","indutype":"학원 - 보습학원","category":"study"}]}]