[{"lat":"37.012154564","long":"127.07187174","imageIndex":17,"items":[{"name":"(주)가구싸닷컴","tel":"031-654-4004","addr":"경기도 평택시 지제동 567-2번지","indutype":"가구 - 일반가구","category":"other"},{"name":"평택가구공단","tel":"031-656-4922","addr":"경기도 평택시 지제동 567-2번지","indutype":"소매업 - 가구","category":"other"}]},{"lat":"37.016209594","long":"127.07148212","imageIndex":17,"items":[{"name":"(주)중앙컴정보통신","tel":"031-658-1221","addr":"경기도 평택시 지제동 562-1번지","indutype":"사무통신 - 통신기기","category":"other"},{"name":"쌤소나이트평택점","tel":"031-657-2456","addr":"경기도 평택시 지제동 562-1번지","indutype":"레져용품 - 스포츠·레져용품","category":"other"}]},{"lat":"37.015939261","long":"127.07150435","imageIndex":17,"items":[{"name":"ELLA DIAMOND","tel":"031-657-6507","addr":"경기도 평택시 지제동 562-3번지 1층","indutype":"신변잡화 - 귀금속","category":"other"},{"name":"세사리빙","tel":"031-653-8032","addr":"경기도 평택시 지제동 562-3번지","indutype":"직물 - 혼수전문점","category":"other"}]},{"lat":"37.019769065","long":"127.07103583","imageIndex":17,"items":[{"name":"간판114","tel":"031-655-7573","addr":"경기도 평택시 지제동 557-2번지","indutype":"제조업 - 광고물","category":"other"}]},{"lat":"37.016633147","long":"127.07139261","imageIndex":17,"items":[{"name":"건강침대할인매장","tel":"031-658-3658","addr":"경기도 평택시 지제동 562번지 2층","indutype":"가구 - 일반가구","category":"other"},{"name":"원골프","tel":"031-652-1256","addr":"경기도 평택시 지제동 562번지","indutype":"소매업 - 골프용품","category":"other"},{"name":"원골프","tel":"031-657-5005","addr":"경기도 평택시 지제동 562번지","indutype":"레져용품 - 골프용품 전문점","category":"other"}]},{"lat":"37.019299491","long":"127.07278841","imageIndex":17,"items":[{"name":"경기종합피아노","tel":"031-658-5445","addr":"경기도 평택시 지제동 613-1(1층)","indutype":"레져용품 - 피아노대리점","category":"other"},{"name":"평택유리","tel":"031-652-6006","addr":"경기도 평택시 지제동 613-1","indutype":"건축자재 - 유리","category":"other"}]},{"lat":"37.011600945","long":"127.06256781","imageIndex":17,"items":[{"name":"고매철물건재공구","tel":"031-655-9796","addr":"경기도 평택시 지제동 692-1번지","indutype":"건축자재 - 목재·석재·철물","category":"other"}]},{"lat":"37.020466769","long":"127.06390074","imageIndex":17,"items":[{"name":"그린 안전용품","tel":"031-657-0910","addr":"경기도 평택시 지제동 426-3번지","indutype":"소매업 - 안전용품","category":"other"},{"name":"그린안전용품","tel":"031-652-1256","addr":"경기도 평택시 지제동 426-3번지 101호","indutype":"기타 - 기계공구","category":"other"}]},{"lat":"37.014821886","long":"127.07159324","imageIndex":17,"items":[{"name":"글로리썬업 김옥수가구갤러리","tel":"031-691-4415","addr":"경기도 평택시 지제동 564-2번지","indutype":"가구 - 일반가구","category":"other"}]},{"lat":"37.018907057","long":"127.06556259","imageIndex":17,"items":[{"name":"다다익선","tel":"031-651-1234","addr":"경기도 평택시 지제동 526-3번지","indutype":"직물 - 침구·수예점","category":"other"}]},{"lat":"37.021431476","long":"127.06278901","imageIndex":17,"items":[{"name":"다우 종합상사","tel":"031-691-9279","addr":"경기도 평택시 지제동 391-5번지","indutype":"소매업 - 공구 및 철물","category":"other"}]},{"lat":"37.015713994","long":"127.07150415","imageIndex":17,"items":[{"name":"다우닝가구 평택점","tel":"031-651-5325","addr":"경기도 평택시 지제동 562-2번지","indutype":"소매업 - 가구","category":"other"}]},{"lat":"37.012406883","long":"127.07183826","imageIndex":17,"items":[{"name":"대성광고기획","tel":"031-654-6400","addr":"경기도 평택시 지제동 567-1번지","indutype":"용역 서비스 - 종합용역","category":"other"},{"name":"대성광고기획","tel":"031-655-7708","addr":"경기도 평택시 지제동 567-1번지","indutype":"서비스업 - 광고","category":"other"},{"name":"창(평택점)","tel":"031-655-3935","addr":"경기도 평택시 지제동 567-1번지 A동","indutype":"직물 - 카페트,커튼,천막,지물","category":"other"}]},{"lat":"37.018687076","long":"127.0722597","imageIndex":17,"items":[{"name":"대신정기화물택배 평택고덕영업소","tel":"031-618-0641","addr":"경기도 평택시 지제동 615번지","indutype":"용역 서비스 - 보관및 창고업","category":"other"},{"name":"박지현한복","tel":"031-655-0431","addr":"경기도 평택시 지제동 615 1층","indutype":"직물 - 침구·수예점","category":"other"},{"name":"황실","tel":"070-8966-9662","addr":"경기도 평택시 지제동 615번지 2층","indutype":"회원제형태 - 기타4","category":"other"}]},{"lat":"37.023625929","long":"127.0705111","imageIndex":17,"items":[{"name":"대양냉동","tel":"070-8183-8288","addr":"경기도 평택시 지제동 553-1번지","indutype":"용역 서비스 - 기타용역서비스","category":"other"}]},{"lat":"37.0193268","long":"127.07231647","imageIndex":17,"items":[{"name":"동일시스템가구","tel":"031-658-9487","addr":"경기도 평택시 지제동 613 D동","indutype":"가구 - 일반가구","category":"other"},{"name":"사운드 밸리","tel":"031-656-9600","addr":"경기도 평택시 지제동 613번지","indutype":"도소매업 - 카오디오","category":"other"},{"name":"주식회사월드조인","tel":"031-692-1842","addr":"경기도 평택시 지제동 613번지 4동 1층","indutype":"레져용품 - 골프용품 전문점","category":"other"}]},{"lat":"37.019793173","long":"127.05945026","imageIndex":17,"items":[{"name":"동주산업","tel":"031-656-2401","addr":"경기도 평택시 지제동 876-8번지","indutype":"서비스업 - 산업용바퀴","category":"other"}]},{"lat":"37.019322072","long":"127.06456282","imageIndex":17,"items":[{"name":"두선코리아","tel":"070-4755-4788","addr":"경기도 평택시 지제동 522-3번지 대건CNC(주) C동","indutype":"의류 - 정장","category":"other"}]},{"lat":"37.012713278","long":"127.07178236","imageIndex":17,"items":[{"name":"루바나 평택점","tel":"031-656-9962","addr":"경기도 평택시 지제동 567번지","indutype":"의류 - 정장","category":"other"},{"name":"조선옷방","tel":"031-656-0321","addr":"경기도 평택시 지제동 567번지 3층","indutype":"의류 - 맞춤복점","category":"other"},{"name":"태양상사","tel":"031-655-4399","addr":"경기도 평택시 지제동 567번지","indutype":"건축자재 - 기타건축자재","category":"other"},{"name":"허니문여행사","tel":"","addr":"경기도 평택시 지제동 567번지 4층","indutype":"여행 - 관광여행","category":"other"}]},{"lat":"37.023687347","long":"127.05605933","imageIndex":17,"items":[{"name":"민우세무법인 평택지사","tel":"031-656-0031","addr":"경기도 평택시 지제동 302-33번지 B동 3층","indutype":"용역 서비스 - 법률회계서비스(법인)","category":"other"}]},{"lat":"37.015407612","long":"127.07153758","imageIndex":17,"items":[{"name":"보스톤갤러리","tel":"031-654-8809","addr":"경기도 평택시 지제동 564번지","indutype":"소매업 - 가구","category":"other"},{"name":"보스톤갤러리(레이디평택점)","tel":"031-655-2581","addr":"경기도 평택시 지제동 564번지","indutype":"가구 - 일반가구","category":"other"}]},{"lat":"37.014213297","long":"127.06403058","imageIndex":17,"items":[{"name":"부원서림","tel":"031-657-1830","addr":"경기도 평택시 지제동 746-1번지 가","indutype":"서적문구 - 일반서적","category":"other"}]},{"lat":"37.0239031","long":"127.05717202","imageIndex":17,"items":[{"name":"삼성종합공구","tel":"031-657-8909","addr":"경기도 평택시 지제동 302-19번지","indutype":"기타 - 기계공구","category":"other"}]},{"lat":"37.013295272","long":"127.06192866","imageIndex":17,"items":[{"name":"세종냉열","tel":"031-667-1202","addr":"경기도 평택시 지제동 724-13번지 A","indutype":"전기제품 - 냉열기기","category":"other"}]},{"lat":"37.0178226","long":"127.07131502","imageIndex":17,"items":[{"name":"시몬스침대","tel":"031-657-8859","addr":"경기도 평택시 지제동 560번지","indutype":"가구 - 일반가구","category":"other"}]},{"lat":"37.022270515","long":"127.06067699","imageIndex":17,"items":[{"name":"신세계유리","tel":"031-618-6263","addr":"경기도 평택시 지제동 369-2번지","indutype":"건축자재 - 유리","category":"other"}]},{"lat":"37.020075447","long":"127.07100239","imageIndex":17,"items":[{"name":"심한복맞춤전문점","tel":"031-657-8400","addr":"경기도 평택시 지제동 557-1번지 2호","indutype":"의류 - 맞춤복점","category":"other"}]},{"lat":"37.021992701","long":"127.05747408","imageIndex":17,"items":[{"name":"씨유평택지제교차로점","tel":"031-618-2623","addr":"경기도 평택시 지제동 902-1번지 A동 104호","indutype":"유통업 영리 - 편 의 점","category":"other"}]},{"lat":"37.020656211","long":"127.06347388","imageIndex":17,"items":[{"name":"씨유평택지제로점","tel":"031-658-0421","addr":"경기도 평택시 지제동 840-3번지","indutype":"유통업 영리 - 편 의 점","category":"other"},{"name":"주식회사 세일종합공구","tel":"031-653-0901","addr":"경기도 평택시 지제동 840-3번지 1층","indutype":"기타 - 기계공구","category":"other"}]},{"lat":"37.021099839","long":"127.07575674","imageIndex":17,"items":[{"name":"양키캔들 이마트평택점","tel":"031-653-5572","addr":"경기도 평택시 지제동 50번지 이마트평택점 1층 매장","indutype":"신변잡화 - 기타잡화","category":"other"}]},{"lat":"37.021244723","long":"127.05767582","imageIndex":17,"items":[{"name":"에이치앤케이 주식회사","tel":"031-652-7993","addr":"경기도 평택시 지제동 891-1번지 2동 101-2호","indutype":"전기제품 - 기타전기제품","category":"other"},{"name":"위드미 평택고덕삼성점","tel":"02-6916-1500","addr":"경기도 평택시 지제동 891-1번지","indutype":"유통업 영리 - 편 의 점","category":"other"}]},{"lat":"37.022099838","long":"127.05958682","imageIndex":17,"items":[{"name":"에이치에스 이엔지(HS ENG)","tel":"031-691-5288","addr":"경기도 평택시 지제동 371-1번지 3동","indutype":"건축자재 - 기타건축자재","category":"other"}]},{"lat":"37.019966544","long":"127.07233953","imageIndex":17,"items":[{"name":"영신농원","tel":"031-655-9717","addr":"경기도 평택시 지제동 612-1번지","indutype":"문화.취미 - 화원","category":"other"},{"name":"영신화원","tel":"031-655-9717","addr":"경기도 평택시 지제동 612-1번지","indutype":"문화.취미 - 화원","category":"other"}]},{"lat":"37.021908578","long":"127.06369962","imageIndex":17,"items":[{"name":"예솔교육","tel":"031-691-7955","addr":"경기도 평택시 지제동 389-1번지 주건축물","indutype":"서적문구 - 일반서적","category":"other"}]},{"lat":"37.013466435","long":"127.06200745","imageIndex":17,"items":[{"name":"예스전산","tel":"031-611-7278","addr":"경기도 평택시 지제동 724-1번지","indutype":"사무통신 - 기타 사무용품","category":"other"}]},{"lat":"37.023958146","long":"127.05498068","imageIndex":17,"items":[{"name":"오렌지 편의점","tel":"031-8024-0523","addr":"경기도 평택시 지제동 302-6번지 101호","indutype":"유통업 영리 - 편 의 점","category":"other"}]},{"lat":"37.024156012","long":"127.05581242","imageIndex":17,"items":[{"name":"위드미평택고덕산단점","tel":"02-6916-1500","addr":"경기도 평택시 지제동 302-9번지","indutype":"유통업 영리 - 편 의 점","category":"other"}]},{"lat":"37.022597864","long":"127.05422683","imageIndex":17,"items":[{"name":"이마트위드미 평택고덕점","tel":"02-111-1111","addr":"경기도 평택시 지제동 905-11번지 1층 106호","indutype":"유통업 영리 - 편 의 점","category":"other"}]},{"lat":"37.023795771","long":"127.05539637","imageIndex":17,"items":[{"name":"주식회사 선일유통","tel":"031-651-1150","addr":"경기도 평택시 지제동 302-5번지 A동 103호","indutype":"기타 - 기계공구","category":"other"}]},{"lat":"37.021182258","long":"127.05633852","imageIndex":17,"items":[{"name":"주식회사 쎈툴코리아","tel":"02-1653-0949","addr":"경기도 평택시 지제동 900번지","indutype":"기타 - 기계공구","category":"other"}]},{"lat":"37.020574408","long":"127.06484477","imageIndex":17,"items":[{"name":"주식회사 준티엔에스","tel":"070-5099-1800","addr":"경기도 평택시 지제동 435-1번지","indutype":"기타 - 기계공구","category":"other"}]},{"lat":"37.02160614","long":"127.05548476","imageIndex":17,"items":[{"name":"주식회사레포필드","tel":"031-647-3111","addr":"경기도 평택시 지제동 906-2번지","indutype":"신변잡화 - 기타잡화","category":"other"}]},{"lat":"37.020520919","long":"127.06373223","imageIndex":17,"items":[{"name":"줄눈 이야기","tel":"031-663-0447","addr":"경기도 평택시 지제동 426-2번지","indutype":"건축자재 - 인테리어전문","category":"other"}]},{"lat":"37.019244652","long":"127.07409187","imageIndex":17,"items":[{"name":"지제동이브자리","tel":"031-618-9360","addr":"경기도 평택시 지제동 613-3번지","indutype":"직물 - 침구·수예점","category":"other"}]},{"lat":"37.020766823","long":"127.05839467","imageIndex":17,"items":[{"name":"지제원주민개발컨설팅","tel":"","addr":"경기도 평택시 지제동 893-2번지 2동 102호","indutype":"서비스업 - 개발컨설팅","category":"other"}]},{"lat":"37.017606331","long":"127.0713373","imageIndex":17,"items":[{"name":"천년돌침대","tel":"031-651-8363","addr":"경기도 평택시 지제동 560-2번지","indutype":"가구 - 일반가구","category":"other"}]},{"lat":"37.020187054","long":"127.06464218","imageIndex":17,"items":[{"name":"코윌그린텍","tel":"031-658-8321","addr":"경기도 평택시 지제동 521-3번지","indutype":"전기제품 - 기타전기제품","category":"other"},{"name":"풍산설비","tel":"031-656-6534","addr":"경기도 평택시 지제동 521-3","indutype":"용역 서비스 - 기타용역서비스","category":"other"}]},{"lat":"37.014105736","long":"127.06291809","imageIndex":17,"items":[{"name":"타일코리아","tel":"031-656-5135","addr":"경기도 평택시 지제동 733-2번지","indutype":"건축자재 - 건축용 요업제품","category":"other"}]},{"lat":"37.020682769","long":"127.06439536","imageIndex":17,"items":[{"name":"평택고덕신도시탑공인중개사사무소","tel":"031-654-5114","addr":"경기도 평택시 지제동 434-1번지 1층","indutype":"용역 서비스 - 부동산 중개·임대","category":"other"}]},{"lat":"37.018800334","long":"127.06284313","imageIndex":17,"items":[{"name":"평택엄청난공인중개사사무소","tel":"031-657-2911","addr":"경기도 평택시 지제동 843-4번지","indutype":"서비스업 - 부동산","category":"other"}]},{"lat":"37.014128162","long":"127.07142407","imageIndex":17,"items":[{"name":"평택이레타일","tel":"031-684-9930","addr":"경기도 평택시 지제동 565-6번지","indutype":"건축자재 - 건축용 요업제품","category":"other"}]},{"lat":"37.019574955","long":"127.06342807","imageIndex":17,"items":[{"name":"평택중기공업사","tel":"031-658-8915","addr":"경기도 평택시 지제동 841-1번지","indutype":"기타 - 기계공구","category":"other"}]},{"lat":"37.012350118","long":"127.05995037","imageIndex":17,"items":[{"name":"평택지엔아이","tel":"031-651-5622","addr":"경기도 평택시 지제동 711-3번지","indutype":"직물 - 카페트,커튼,천막,지물","category":"other"}]},{"lat":"37.021270403","long":"127.06053015","imageIndex":17,"items":[{"name":"한길","tel":"031-652-8519","addr":"경기도 평택시 지제동 403-5번지","indutype":"직물 - 침구·수예점","category":"other"}]},{"lat":"37.016461912","long":"127.07144864","imageIndex":17,"items":[{"name":"현대가구산업","tel":"031-653-4448","addr":"경기도 평택시 지제동 562-6번지","indutype":"가구 - 철제가구","category":"other"},{"name":"현대가구산업","tel":"031-658-6885","addr":"경기도 평택시 지제동 562-6번지","indutype":"도소매업 - 사무용가구","category":"other"}]},{"lat":"37.019210359","long":"127.07111399","imageIndex":17,"items":[{"name":"호담","tel":"031-653-8111","addr":"경기도 평택시 지제동 559번지","indutype":"소매업 - 호두과자","category":"other"}]}]