[{"lat":"37.257818423","long":"126.9957803","imageIndex":0,"items":[{"name":"(주)모비리안","tel":"070-4365-5850","addr":"경기도 수원시 권선구 평동 30-8번지","indutype":"자동차정비 유지 - 자동차정비","category":"car"},{"name":"니트로모터스","tel":"031-298-7500","addr":"경기도 수원시 권선구 평동 30-8번지","indutype":"자동차정비 유지 - 자동차정비","category":"car"},{"name":"평동광택사","tel":"031-291-7329","addr":"경기도 수원시 권선구 평동 30-8번지","indutype":"자동차정비 유지 - 카인테리어","category":"car"}]},{"lat":"37.258296088","long":"126.99817004","imageIndex":0,"items":[{"name":"(주)오엠지모터스중앙","tel":"043-1599-5877","addr":"경기도 수원시 권선구 평동 57-1번지 301,302,303호","indutype":"자동차판매 - 중고자동차판매","category":"car"},{"name":"(주)우리들모터스","tel":"031-278-2002","addr":"경기도 수원시 권선구 평동 57-1번지 수원중앙자동차매매단지 2층 215호","indutype":"자동차판매 - 중고자동차판매","category":"car"},{"name":"주식회사 차왕모터스","tel":"031-293-6677","addr":"경기도 수원시 권선구 평동 57-1번지 수원중앙자동차매매단지 112,113,114,115호","indutype":"자동차판매 - 중고자동차판매","category":"car"}]},{"lat":"37.260269159","long":"126.99475424","imageIndex":0,"items":[{"name":"B&B1급모터스","tel":"031-923-9990","addr":"경기도 수원시 권선구 평동 12-12번지","indutype":"자동차정비 유지 - 자동차정비","category":"car"}]},{"lat":"37.257214643","long":"126.99442767","imageIndex":0,"items":[{"name":"BG모터스","tel":"031-251-7777","addr":"경기도 수원시 권선구 평동 47-9번지","indutype":"자동차정비 유지 - 자동차정비","category":"car"}]},{"lat":"37.261017151","long":"126.99708767","imageIndex":0,"items":[{"name":"SUV종합정비센타","tel":"031-213-4567","addr":"경기도 수원시 권선구 평동 21-54번지","indutype":"자동차정비 유지 - 자동차정비","category":"car"}]},{"lat":"37.255295402","long":"126.99380792","imageIndex":0,"items":[{"name":"경향에너지","tel":"031-292-2640","addr":"경기도 수원시 권선구 평동 43-5번지","indutype":"자동차정비 유지 - 자동차부품","category":"car"}]},{"lat":"37.257962341","long":"126.9924549","imageIndex":0,"items":[{"name":"광택지존","tel":"","addr":"경기도 수원시 권선구 평동 2-132번지 외1필지","indutype":"자동차정비 유지 - 카인테리어","category":"car"}]},{"lat":"37.26217957","long":"126.99939857","imageIndex":0,"items":[{"name":"글라스 광택","tel":"","addr":"경기도 수원시 권선구 평동 159번지","indutype":"자동차정비 유지 - 카인테리어","category":"car"}]},{"lat":"37.256763971","long":"126.99245506","imageIndex":0,"items":[{"name":"금강광택","tel":"","addr":"경기도 수원시 권선구 평동 40-28번지","indutype":"자동차정비 유지 - 카인테리어","category":"car"}]},{"lat":"37.25704353","long":"126.99566765","imageIndex":0,"items":[{"name":"금강차유리","tel":"031-294-8008","addr":"경기도 수원시 권선구 평동 54-4번지","indutype":"자동차정비 유지 - 자동차부품","category":"car"},{"name":"탑 (TOP)자동차용품점","tel":"031-292-4959","addr":"경기도 수원시 권선구 평동 54-4번지 1층 102호","indutype":"자동차정비 유지 - 자동차부품","category":"car"},{"name":"평동자동차 유리","tel":"031-227-6355","addr":"경기도 수원시 권선구 평동 54-4번지 1층 좌측 1층","indutype":"자동차정비 유지 - 자동차부품","category":"car"}]},{"lat":"37.257457909","long":"126.99425856","imageIndex":0,"items":[{"name":"금성카센타","tel":"031-295-7746","addr":"경기도 수원시 권선구 평동 47-33번지","indutype":"자동차정비 유지 - 자동차정비","category":"car"}]},{"lat":"37.261963239","long":"126.99722287","imageIndex":0,"items":[{"name":"깔끔이광택","tel":"070-7533-6777","addr":"경기도 수원시 권선구 평동 20-12번지","indutype":"자동차정비 유지 - 카인테리어","category":"car"}]},{"lat":"37.258485","long":"126.99317627","imageIndex":0,"items":[{"name":"다와모터스","tel":"031-882-6915","addr":"경기도 수원시 권선구 평동 4-33번지 5호","indutype":"자동차정비 유지 - 자동차정비","category":"car"},{"name":"대윤카서비스","tel":"031-254-3353","addr":"경기도 수원시 권선구 평동 4-33번지","indutype":"자동차정비 유지 - 자동차정비","category":"car"},{"name":"유니니광택","tel":"","addr":"경기도 수원시 권선구 평동 4-33번지 103호","indutype":"자동차정비 유지 - 카인테리어","category":"car"},{"name":"평동커먼레일","tel":"034-295-1154","addr":"경기도 수원시 권선구 평동 4-33번지","indutype":"자동차정비 유지 - 자동차정비","category":"car"},{"name":"현진광택","tel":"","addr":"경기도 수원시 권선구 평동 4-33번지 1층","indutype":"자동차정비 유지 - 세차장","category":"car"}]},{"lat":"37.261296445","long":"126.99659163","imageIndex":0,"items":[{"name":"대성자동차유리","tel":"031-291-6231","addr":"경기도 수원시 권선구 평동 20-16번지","indutype":"자동차정비 유지 - 자동차부품","category":"car"}]},{"lat":"37.25845822","long":"126.99697514","imageIndex":0,"items":[{"name":"덴트잘하는집(Ace Dent Repair)","tel":"031-227-8284","addr":"경기도 수원시 권선구 평동 23-28번지 수원공구유통타운A동119,120호","indutype":"자동차정비 유지 - 자동차부품","category":"car"}]},{"lat":"37.258214693","long":"126.99319885","imageIndex":0,"items":[{"name":"덴트팩토리","tel":"070-8836-3926","addr":"경기도 수원시 권선구 평동 4-40번지","indutype":"자동차정비 유지 - 카인테리어","category":"car"}]},{"lat":"37.259845901","long":"126.99934232","imageIndex":0,"items":[{"name":"두리자동차정비공업사","tel":"031-292-8201","addr":"경기도 수원시 권선구 평동 138-5번지","indutype":"자동차정비 유지 - 자동차정비","category":"car"}]},{"lat":"37.259818686","long":"126.99539684","imageIndex":0,"items":[{"name":"라이프 자동차용품","tel":"031-298-8241","addr":"경기도 수원시 권선구 평동 21-22번지 1층 102호","indutype":"자동차정비 유지 - 자동차부품","category":"car"},{"name":"평동에이브이엔써비스","tel":"031-269-3166","addr":"경기도 수원시 권선구 평동 21-22번지","indutype":"자동차정비 유지 - 자동차부품","category":"car"}]},{"lat":"37.257349748","long":"126.99375131","imageIndex":0,"items":[{"name":"럭셔리광택","tel":"031-294-3359","addr":"경기도 수원시 권선구 평동 47-30번지","indutype":"자동차정비 유지 - 세차장","category":"car"}]},{"lat":"37.257818462","long":"126.9964792","imageIndex":0,"items":[{"name":"레전텍","tel":"031-297-4747","addr":"경기도 수원시 권선구 평동 56-14번지","indutype":"자동차정비 유지 - 자동차부품","category":"car"},{"name":"토탈CST","tel":"031-251-1472","addr":"경기도 수원시 권선구 평동 56-14번지","indutype":"자동차정비 유지 - 자동차부품","category":"car"}]},{"lat":"37.259818793","long":"126.99733576","imageIndex":0,"items":[{"name":"루키카","tel":"031-295-5845","addr":"경기도 수원시 권선구 평동 21-19번지","indutype":"자동차정비 유지 - 자동차부품","category":"car"},{"name":"만도네비게이션고객서비스센터","tel":"031-295-5845","addr":"경기도 수원시 권선구 평동 21-19번지 2호","indutype":"자동차정비 유지 - 자동차부품","category":"car"},{"name":"수원배터리","tel":"031-291-5004","addr":"경기도 수원시 권선구 평동 21-19번지","indutype":"자동차정비 유지 - 자동차부품","category":"car"},{"name":"평동중고타이어","tel":"031-291-1077","addr":"경기도 수원시 권선구 평동 21-19번지","indutype":"자동차정비 유지 - 자동차시트·타이어","category":"car"},{"name":"현대폰터스","tel":"031-295-5845","addr":"경기도 수원시 권선구 평동 21-19번지","indutype":"자동차정비 유지 - 자동차부품","category":"car"}]},{"lat":"37.260179069","long":"126.99494589","imageIndex":0,"items":[{"name":"리스자동차공업사","tel":"031-295-0097","addr":"경기도 수원시 권선구 평동 12-13번지","indutype":"자동차정비 유지 - 자동차정비","category":"car"}]},{"lat":"37.260485425","long":"126.99503604","imageIndex":0,"items":[{"name":"마이스터준모터스","tel":"031-295-8972","addr":"경기도 수원시 권선구 평동 13-87번지 1층","indutype":"자동차정비 유지 - 자동차정비","category":"car"}]},{"lat":"37.260206192","long":"126.99647899","imageIndex":0,"items":[{"name":"마이카","tel":"031-293-4491","addr":"경기도 수원시 권선구 평동 21-30번지","indutype":"자동차정비 유지 - 자동차정비","category":"car"},{"name":"마이카용품","tel":"031-293-4491","addr":"경기도 수원시 권선구 평동 21-30번지","indutype":"자동차정비 유지 - 자동차정비","category":"car"}]},{"lat":"37.255547704","long":"126.99397697","imageIndex":0,"items":[{"name":"명승카자동차공업사세차장","tel":"031-292-0951","addr":"경기도 수원시 권선구 평동 44-2","indutype":"자동차정비 유지 - 세차장","category":"car"},{"name":"오토카센타","tel":"031-296-7091","addr":"경기도 수원시 권선구 평동 44-2번지","indutype":"자동차정비 유지 - 자동차정비","category":"car"}]},{"lat":"37.257935723","long":"126.99955658","imageIndex":0,"items":[{"name":"명차모터스","tel":"031-278-2700","addr":"경기도 수원시 권선구 평동 62-1번지","indutype":"자동차판매 - 중고자동차판매","category":"car"},{"name":"신중앙카서비스","tel":"031-298-1229","addr":"경기도 수원시 권선구 평동 62-1번지","indutype":"자동차정비 유지 - 자동차정비","category":"car"},{"name":"오토세일","tel":"031-294-8080","addr":"경기도 수원시 권선구 평동 62-1번지 외1필지","indutype":"자동차판매 - 중고자동차판매","category":"car"},{"name":"위드카","tel":"031-298-5252","addr":"경기도 수원시 권선구 평동 62-1번지","indutype":"자동차판매 - 중고자동차판매","category":"car"}]},{"lat":"37.257485026","long":"126.99553234","imageIndex":0,"items":[{"name":"명품광택","tel":"031-292-7588","addr":"경기도 수원시 권선구 평동 49-1번지","indutype":"자동차정비 유지 - 카인테리어","category":"car"}]},{"lat":"37.25984567","long":"126.99469792","imageIndex":0,"items":[{"name":"모아카오디오","tel":"070-4843-7798","addr":"경기도 수원시 권선구 평동 10-12번지","indutype":"자동차정비 유지 - 자동차부품","category":"car"},{"name":"평동시트","tel":"031-227-1824","addr":"경기도 수원시 권선구 평동 10-12번지 103호","indutype":"자동차정비 유지 - 자동차부품","category":"car"}]},{"lat":"37.261404585","long":"126.99691854","imageIndex":0,"items":[{"name":"보스휠","tel":"","addr":"경기도 수원시 권선구 평동 20-18번지","indutype":"자동차정비 유지 - 자동차시트·타이어","category":"car"},{"name":"보스휠","tel":"031-3411-2551","addr":"경기도 수원시 권선구 평동 20-18번지","indutype":"자동차정비 유지 - 자동차부품","category":"car"}]},{"lat":"37.261765082","long":"126.99894767","imageIndex":0,"items":[{"name":"봉광택","tel":"031-000-0000","addr":"경기도 수원시 권선구 평동 161번지 1층","indutype":"자동차정비 유지 - 카인테리어","category":"car"}]},{"lat":"37.259214934","long":"126.99448381","imageIndex":0,"items":[{"name":"블루원테크","tel":"031-407-9007","addr":"경기도 수원시 권선구 평동 10-26번지","indutype":"자동차정비 유지 - 자동차부품","category":"car"},{"name":"아이케이(IK)중고타이어","tel":"","addr":"경기도 수원시 권선구 평동 10-26번지","indutype":"자동차정비 유지 - 자동차시트·타이어","category":"car"}]},{"lat":"37.25873742","long":"126.99494604","imageIndex":0,"items":[{"name":"빠방카","tel":"031-1644-2256","addr":"경기도 수원시 권선구 평동 31-1번지","indutype":"자동차정비 유지 - 자동차정비","category":"car"}]},{"lat":"37.256575031","long":"126.99631022","imageIndex":0,"items":[{"name":"삼흥모터스","tel":"031-295-4982","addr":"경기도 수원시 권선구 평동 56-24번지","indutype":"자동차정비 유지 - 자동차정비","category":"car"},{"name":"인스톨(INSTALL)","tel":"","addr":"경기도 수원시 권선구 평동 56-24번지 1층","indutype":"자동차정비 유지 - 자동차부품","category":"car"}]},{"lat":"37.262071399","long":"126.99805707","imageIndex":0,"items":[{"name":"상룡종합건설(주)","tel":"031-292-0044","addr":"경기도 수원시 권선구 평동 144-1번지","indutype":"자동차정비 유지 - 주차장","category":"car"}]},{"lat":"37.259512266","long":"126.99437105","imageIndex":0,"items":[{"name":"서현 타이어","tel":"","addr":"경기도 수원시 권선구 평동 10-38번지","indutype":"자동차정비 유지 - 자동차부품","category":"car"}]},{"lat":"37.257881578","long":"126.9973359","imageIndex":0,"items":[{"name":"수원자동차1급공업사","tel":"031-278-4446","addr":"경기도 수원시 권선구 평동 57-4번지","indutype":"자동차정비 유지 - 자동차정비","category":"car"}]},{"lat":"37.255601865","long":"126.9954198","imageIndex":0,"items":[{"name":"수원종합자동차","tel":"031-291-5588","addr":"경기도 수원시 권선구 평동 51번지","indutype":"자동차판매 - 중고자동차판매","category":"car"},{"name":"주식회사 신호모터스","tel":"031-296-2244","addr":"경기도 수원시 권선구 평동 51번지","indutype":"자동차판매 - 중고자동차판매","category":"car"}]},{"lat":"37.260350299","long":"126.9954757","imageIndex":0,"items":[{"name":"스타크린테크","tel":"031-298-0107","addr":"경기도 수원시 권선구 평동 32-1번지 1층","indutype":"자동차정비 유지 - 카인테리어","category":"car"}]},{"lat":"37.260764812","long":"126.99614076","imageIndex":0,"items":[{"name":"쌍용오토컴","tel":"031-297-4767","addr":"경기도 수원시 권선구 평동 20-4번지 1층","indutype":"자동차정비 유지 - 자동차부품","category":"car"},{"name":"중앙자동차유리상사","tel":"031-291-8862","addr":"경기도 수원시 권선구 평동 20-4번지","indutype":"자동차정비 유지 - 자동차부품","category":"car"}]},{"lat":"37.258214886","long":"126.99594935","imageIndex":0,"items":[{"name":"씨엘모터스(CL MOTors)","tel":"","addr":"경기도 수원시 권선구 평동 30-14번지 1층","indutype":"자동차정비 유지 - 자동차정비","category":"car"}]},{"lat":"37.26187322","long":"126.99942113","imageIndex":0,"items":[{"name":"알파카자동차용품","tel":"031-278-5787","addr":"경기도 수원시 권선구 평동 131-1번지","indutype":"자동차정비 유지 - 자동차부품","category":"car"}]},{"lat":"37.259935764","long":"126.99456264","imageIndex":0,"items":[{"name":"에스케이모터스","tel":"","addr":"경기도 수원시 권선구 평동 10-11번지","indutype":"자동차정비 유지 - 자동차정비","category":"car"}]},{"lat":"37.258548191","long":"126.99475443","imageIndex":0,"items":[{"name":"영스타광택","tel":"","addr":"경기도 수원시 권선구 평동 31-8번지 1층","indutype":"자동차정비 유지 - 세차장","category":"car"}]},{"lat":"37.26209841","long":"126.99759487","imageIndex":0,"items":[{"name":"오케이광택","tel":"02-111-1111","addr":"경기도 수원시 권선구 평동 20-31번지","indutype":"자동차정비 유지 - 세차장","category":"car"}]},{"lat":"37.258818759","long":"127.00067254","imageIndex":0,"items":[{"name":"우리자동차공업사","tel":"","addr":"경기도 수원시 권선구 평동 105-1번지","indutype":"자동차정비 유지 - 자동차정비","category":"car"}]},{"lat":"37.259296054","long":"126.99486707","imageIndex":0,"items":[{"name":"임팩트","tel":"031-8003-0995","addr":"경기도 수원시 권선구 평동 33-2번지 1층","indutype":"자동차정비 유지 - 카인테리어","category":"car"}]},{"lat":"37.258710494","long":"126.9966933","imageIndex":0,"items":[{"name":"자동차밧데리배터리할인매장","tel":"","addr":"경기도 수원시 권선구 평동 23-26번지 수원공구유통타운 D동 250호","indutype":"자동차정비 유지 - 자동차부품","category":"car"},{"name":"자동차배터리할인마트","tel":"031-227-2246","addr":"경기도 수원시 권선구 평동 23-26번지 수원공구유통타운 D동 150호","indutype":"자동차정비 유지 - 자동차부품","category":"car"}]},{"lat":"37.259097794","long":"126.99439364","imageIndex":0,"items":[{"name":"자동차약국","tel":"031-893-8909","addr":"경기도 수원시 권선구 평동 9-6번지","indutype":"자동차정비 유지 - 자동차정비","category":"car"}]},{"lat":"37.257268797","long":"126.99583672","imageIndex":0,"items":[{"name":"정성사","tel":"031-292-9669","addr":"경기도 수원시 권선구 평동 55-11번지","indutype":"자동차정비 유지 - 자동차부품","category":"car"}]},{"lat":"37.256736904","long":"126.99206053","imageIndex":0,"items":[{"name":"정원카","tel":"031-1599-4893","addr":"경기도 수원시 권선구 평동 39-8번지","indutype":"자동차정비 유지 - 자동차정비","category":"car"}]},{"lat":"37.25848519","long":"126.99587042","imageIndex":0,"items":[{"name":"제이모터스","tel":"031-292-9750","addr":"경기도 수원시 권선구 평동 30-5번지","indutype":"자동차정비 유지 - 자동차정비","category":"car"}]},{"lat":"37.257043237","long":"126.99186886","imageIndex":0,"items":[{"name":"제이에스광택","tel":"070-7012-4552","addr":"경기도 수원시 권선구 평동 38-1번지","indutype":"자동차정비 유지 - 카인테리어","category":"car"}]},{"lat":"37.258962768","long":"126.99642274","imageIndex":0,"items":[{"name":"제일상사","tel":"031-237-1234","addr":"경기도 수원시 권선구 평동 23-25번지 수원유통공구상가 b동 130호","indutype":"자동차정비 유지 - 자동차부품","category":"car"}]},{"lat":"37.25412414","long":"126.99489017","imageIndex":0,"items":[{"name":"제일상사","tel":"031-295-5010","addr":"경기도 수원시 권선구 평동 87번지","indutype":"자동차정비 유지 - 자동차정비","category":"car"}]},{"lat":"37.260044135","long":"126.99961285","imageIndex":0,"items":[{"name":"주식회사한창일급자동차정비","tel":"031-296-0450","addr":"경기도 수원시 권선구 평동 133-4번지","indutype":"자동차정비 유지 - 자동차정비","category":"car"}]},{"lat":"37.257151486","long":"126.99331171","imageIndex":0,"items":[{"name":"준광택","tel":"031-223-5214","addr":"경기도 수원시 권선구 평동 37-25번지","indutype":"자동차정비 유지 - 세차장","category":"car"}]},{"lat":"37.258178862","long":"126.99625372","imageIndex":0,"items":[{"name":"중앙오토밋션","tel":"031-292-9750","addr":"경기도 수원시 권선구 평동 28-1번지","indutype":"자동차정비 유지 - 자동차정비","category":"car"}]},{"lat":"37.258043723","long":"126.99653554","imageIndex":0,"items":[{"name":"차사랑광택 공장","tel":"03-200-0000","addr":"경기도 수원시 권선구 평동 28-6번지 1층","indutype":"자동차정비 유지 - 카인테리어","category":"car"},{"name":"타이어마켓","tel":"031-278-0067","addr":"경기도 수원시 권선구 평동 28-6번지","indutype":"자동차정비 유지 - 자동차시트·타이어","category":"car"}]},{"lat":"37.257881297","long":"126.9930298","imageIndex":0,"items":[{"name":"참좋은타이어","tel":"031-294-5703","addr":"경기도 수원시 권선구 평동 6-16번지","indutype":"자동차정비 유지 - 자동차시트·타이어","category":"car"}]},{"lat":"37.25462875","long":"126.99539735","imageIndex":0,"items":[{"name":"친친카종합서비스","tel":"031-297-1544","addr":"경기도 수원시 권선구 평동 79번지","indutype":"자동차정비 유지 - 자동차정비","category":"car"}]},{"lat":"37.258683455","long":"126.99653549","imageIndex":0,"items":[{"name":"카원 테크","tel":"043-272-0306","addr":"경기도 수원시 권선구 평동 23-26번지 수원공구유통밸리 B동 225호","indutype":"자동차정비 유지 - 자동차정비","category":"car"}]},{"lat":"37.257764157","long":"126.99295091","imageIndex":0,"items":[{"name":"카젠","tel":"","addr":"경기도 수원시 권선구 평동 6-6번지","indutype":"자동차정비 유지 - 자동차정비","category":"car"}]},{"lat":"37.259043739","long":"126.99448383","imageIndex":0,"items":[{"name":"카플러스","tel":"070-4384-1517","addr":"경기도 수원시 권선구 평동 9-5번지","indutype":"자동차정비 유지 - 카인테리어","category":"car"}]},{"lat":"37.258214844","long":"126.99526173","imageIndex":0,"items":[{"name":"클럽엠패밀리","tel":"02-1111-1111","addr":"경기도 수원시 권선구 평동 31-9번지 1층","indutype":"자동차정비 유지 - 카인테리어","category":"car"}]},{"lat":"37.2568543","long":"126.99545349","imageIndex":0,"items":[{"name":"태양 카용품점","tel":"031-000-0000","addr":"경기도 수원시 권선구 평동 54-3번지 정성빌딩 102호","indutype":"자동차정비 유지 - 자동차부품","category":"car"},{"name":"현대카용품","tel":"031-278-1540","addr":"경기도 수원시 권선구 평동 54-3번지 정성빌딩 102호","indutype":"자동차정비 유지 - 자동차부품","category":"car"}]},{"lat":"37.259989867","long":"126.99517137","imageIndex":0,"items":[{"name":"팔구상사","tel":"031-292-2089","addr":"경기도 수원시 권선구 평동 32-20번지","indutype":"자동차정비 유지 - 자동차부품","category":"car"}]},{"lat":"37.259845705","long":"126.9952052","imageIndex":0,"items":[{"name":"평동카센타","tel":"031-227-1824","addr":"경기도 수원시 권선구 평동 32-3번지","indutype":"자동차정비 유지 - 자동차정비","category":"car"}]},{"lat":"37.25768321","long":"126.99486724","imageIndex":0,"items":[{"name":"평화광택","tel":"031-223-5214","addr":"경기도 수원시 권선구 평동 47-26번지 외2필지","indutype":"자동차정비 유지 - 카인테리어","category":"car"}]},{"lat":"37.261711001","long":"126.99839529","imageIndex":0,"items":[{"name":"포스타광택","tel":"031-000-0000","addr":"경기도 수원시 권선구 평동 137-1번지 1층","indutype":"자동차정비 유지 - 카인테리어","category":"car"}]},{"lat":"37.257403747","long":"126.9929735","imageIndex":0,"items":[{"name":"피트샵","tel":"031-306-6020","addr":"경기도 수원시 권선구 평동 37-4번지","indutype":"자동차정비 유지 - 자동차부품","category":"car"}]},{"lat":"37.257683078","long":"126.99312001","imageIndex":0,"items":[{"name":"하이카광택손세차장","tel":"","addr":"경기도 수원시 권선구 평동 37-17번지","indutype":"자동차정비 유지 - 카인테리어","category":"car"}]},{"lat":"37.261269459","long":"126.99750475","imageIndex":0,"items":[{"name":"현대그린카","tel":"031-295-4022","addr":"경기도 수원시 권선구 평동 21-28번지 제2동","indutype":"자동차정비 유지 - 자동차정비","category":"car"}]},{"lat":"37.258881728","long":"126.99748237","imageIndex":0,"items":[{"name":"혜성자동차용품점","tel":"031-293-9882","addr":"경기도 수원시 권선구 평동 21-40번지 경림빌딩 1층 3호","indutype":"자동차정비 유지 - 자동차부품","category":"car"}]}]