[{"lat":"37.47629456","long":"126.862878","imageIndex":13,"items":[{"name":"(주)마유케어","tel":"02-764-3303","addr":"경기도 광명시 철산동 464-11번지 2층 202호","indutype":"보건위생 - 화장품","category":"beauty"}]},{"lat":"37.47731709","long":"126.8666521","imageIndex":13,"items":[{"name":"(주)사람과자연","tel":"02-2616-9280","addr":"경기도 광명시 철산동 254번지 미성오피스텔2차 603호","indutype":"보건위생 - 화장품","category":"beauty"},{"name":"아동청소년발달센터 봄","tel":"070-8201-1275","addr":"경기도 광명시 철산동 254번지 미성오피스텔2차 301호","indutype":"보건위생 - 기타대인서비스","category":"beauty"},{"name":"이안상담심리연구소","tel":"02-2060-7029","addr":"경기도 광명시 철산동 254번지 미성오피스텔2차 2층 202호","indutype":"보건위생 - 기타대인서비스","category":"beauty"},{"name":"주식회사 광명사주작명원","tel":"02-2619-8688","addr":"경기도 광명시 철산동 254번지 미성오피스텔2차 601호","indutype":"보건위생 - 기타대인서비스","category":"beauty"},{"name":"주식회사 한국몰입연구소","tel":"070-8251-0984","addr":"경기도 광명시 철산동 254번지 미성오피스텔2차 209호","indutype":"보건위생 - 기타대인서비스","category":"beauty"},{"name":"케이제이덴탈","tel":"","addr":"경기도 광명시 철산동 254번지 미성아이테크빌 3층 303호","indutype":"보건위생 - 의료용품","category":"beauty"}]},{"lat":"37.47482079","long":"126.8661819","imageIndex":13,"items":[{"name":"1001안경,콘텍트철산점","tel":"02-2688-1007","addr":"경기도 광명시 철산동 484-5번지 일청빌딩 1층 8호","indutype":"보건위생 - 안경","category":"beauty"},{"name":"누가의료기","tel":"02-2615-8857","addr":"경기도 광명시 철산동 484-5번지 일청빌딩 2층","indutype":"보건위생 - 의료용품","category":"beauty"},{"name":"닥터포헤어 철산점","tel":"02-2611-5870","addr":"경기도 광명시 철산동 484-5번지 일청빌딩 201호","indutype":"보건위생 - 피부미용실","category":"beauty"},{"name":"세레니끄","tel":"02-2618-2580","addr":"경기도 광명시 철산동 484-5번지 일청빌딩 5층 505호","indutype":"보건위생 - 화장품","category":"beauty"},{"name":"이철헤어커커 철산점","tel":"02-2682-2326","addr":"경기도 광명시 철산동 484-5번지 일청빌딩 2층","indutype":"보건위생 - 미용원","category":"beauty"},{"name":"톡톡톡언어심리발달센터","tel":"02-2682-8575","addr":"경기도 광명시 철산동 484-5번지 일청빌딩 203호","indutype":"보건위생 - 기타대인서비스","category":"beauty"}]},{"lat":"37.4751822","long":"126.867063","imageIndex":13,"items":[{"name":"2001아울렛에뛰드철산점","tel":"02-2067-7205","addr":"경기도 광명시 철산동 261번지","indutype":"보건위생 - 화장품","category":"beauty"},{"name":"박승철헤어스투디오","tel":"02-2067-7177","addr":"경기도 광명시 철산동 261번지 이천일아울렛 지하2층","indutype":"보건위생 - 미용원","category":"beauty"},{"name":"이니스프리철산점","tel":"","addr":"경기도 광명시 철산동 261번지 이천일아울렛광명철산점 208호","indutype":"보건위생 - 화장품","category":"beauty"},{"name":"클레프화장품","tel":"02-2067-7557","addr":"경기도 광명시 철산동 261번지 파보레 상가 1층 102호","indutype":"보건위생 - 화장품","category":"beauty"}]},{"lat":"37.47681627","long":"126.8621535","imageIndex":13,"items":[{"name":"M네일","tel":"","addr":"경기도 광명시 철산동 464-4번지 101호","indutype":"보건위생 - 피부미용실","category":"beauty"},{"name":"오헤어","tel":"02-2617-5869","addr":"경기도 광명시 철산동 464-4번지 102호","indutype":"보건위생 - 미용원","category":"beauty"}]},{"lat":"37.48051226","long":"126.8637633","imageIndex":13,"items":[{"name":"PAMA미용실","tel":"02-2625-2860","addr":"경기도 광명시 철산동 208-3번지","indutype":"보건위생 - 미용원","category":"beauty"},{"name":"미미살롱","tel":"02-2686-9825","addr":"경기도 광명시 철산동 208-3번지 1층","indutype":"보건위생 - 피부미용실","category":"beauty"}]},{"lat":"37.47334928","long":"126.8637088","imageIndex":13,"items":[{"name":"S HAIRSHOP","tel":"02-2612-0646","addr":"경기도 광명시 철산동 631번지 광명푸르지오 상가 105호","indutype":"보건위생 - 미용원","category":"beauty"},{"name":"머리못하는집(광명점)","tel":"02-2060-2933","addr":"경기도 광명시 철산동 631번지 광명푸라지오 상가 104호","indutype":"보건위생 - 미용원","category":"beauty"}]},{"lat":"37.47457544","long":"126.8643961","imageIndex":13,"items":[{"name":"거꾸로가는시간","tel":"","addr":"경기도 광명시 철산동 472-48번지 3층","indutype":"보건위생 - 피부미용실","category":"beauty"}]},{"lat":"37.47721353","long":"126.8628424","imageIndex":13,"items":[{"name":"건강생활대광명지점","tel":"02-2618-8340","addr":"경기도 광명시 철산동 220-2번지 금산빌딩 6층 602호","indutype":"보건위생 - 화장품","category":"beauty"},{"name":"구성심리상담센터광명점","tel":"02-6952-3677","addr":"경기도 광명시 철산동 220-2번지 금산빌딩 504호","indutype":"보건위생 - 기타대인서비스","category":"beauty"},{"name":"나로살기심리상담센터","tel":"031-1111-1111","addr":"경기도 광명시 철산동 220-2번지 금산빌딩 5층 501호","indutype":"보건위생 - 기타대인서비스","category":"beauty"}]},{"lat":"37.48448943","long":"126.8670122","imageIndex":13,"items":[{"name":"골드아이래쉬","tel":"","addr":"경기도 광명시 철산동 105-1번지 가동 1층 112호 (10단지주공상가)","indutype":"보건위생 - 피부미용실","category":"beauty"},{"name":"드림가","tel":"","addr":"경기도 광명시 철산동 105-1번지 가동 210호","indutype":"보건위생 - 기타대인서비스","category":"beauty"},{"name":"오정연헤어라인","tel":"02-2615-0172","addr":"경기도 광명시 철산동 105-1번지 상가 104호","indutype":"보건위생 - 미용원","category":"beauty"}]},{"lat":"37.47523868","long":"126.8691769","imageIndex":13,"items":[{"name":"골든네일","tel":"02-2066-9026","addr":"경기도 광명시 철산동 399번지 신명빌딩 304호","indutype":"보건위생 - 화장품","category":"beauty"},{"name":"나이스가이철산점","tel":"02-2611-2665","addr":"경기도 광명시 철산동 399번지 신명빌딩 103호","indutype":"보건위생 - 미용원","category":"beauty"},{"name":"렌즈미","tel":"02-2060-0712","addr":"경기도 광명시 철산동 399번지 신명빌딩 1층 106호","indutype":"보건위생 - 안경","category":"beauty"},{"name":"황제","tel":"02-2616-7079","addr":"경기도 광명시 철산동 399번지 신명빌딩 3층 303호","indutype":"보건위생 - 기타대인서비스","category":"beauty"}]},{"lat":"37.47442928","long":"126.8705124","imageIndex":13,"items":[{"name":"광명 바른손 안마원","tel":"02-2612-1255","addr":"경기도 광명시 철산동 441번지 505호","indutype":"보건위생 - 안마시술소","category":"beauty"},{"name":"나너마음센터","tel":"02-2683-1189","addr":"경기도 광명시 철산동 441번지 504호","indutype":"보건위생 - 기타대인서비스","category":"beauty"},{"name":"리즈샵","tel":"02-2688-2418","addr":"경기도 광명시 철산동 441번지 그랜드프라자 108호","indutype":"보건위생 - 미용원","category":"beauty"},{"name":"지미뷰티","tel":"02-2688-5838","addr":"경기도 광명시 철산동 441번지 6동제606호","indutype":"보건위생 - 피부미용실","category":"beauty"}]},{"lat":"37.47468324","long":"126.8641246","imageIndex":13,"items":[{"name":"광명종합화장품","tel":"02-2611-5077","addr":"경기도 광명시 철산동 472-56번지","indutype":"보건위생 - 화장품","category":"beauty"}]},{"lat":"37.47090048","long":"126.8653412","imageIndex":13,"items":[{"name":"구피샵 철산점","tel":"02-2613-3684","addr":"경기도 광명시 철산동 625-2번지 광명힐타운 B07호","indutype":"보건위생 - 미용원","category":"beauty"},{"name":"타임플러스 (철산도덕파크점)","tel":"02-2611-4057","addr":"경기도 광명시 철산동 625-2번지 102-1호","indutype":"보건위생 - 이용원","category":"beauty"}]},{"lat":"37.4721117","long":"126.868719","imageIndex":13,"items":[{"name":"국빈 체형관리.발관리","tel":"02-877-3888","addr":"경기도 광명시 철산동 637번지 종합상가동 217호","indutype":"보건위생 - 안마시술소","category":"beauty"},{"name":"까망머리","tel":"02-6221-9569","addr":"경기도 광명시 철산동 637번지 철산푸르지오하늘채 종합상가 143호","indutype":"보건위생 - 미용원","category":"beauty"},{"name":"라헬헤어","tel":"02-1111-1111","addr":"경기도 광명시 철산동 637번지 철산푸르지오하늘채 종합상가동 지1층 B136호","indutype":"보건위생 - 미용원","category":"beauty"},{"name":"루비아네일","tel":"02-2060-1486","addr":"경기도 광명시 철산동 637번지 종합상가동 지하1층 142호","indutype":"보건위생 - 피부미용실","category":"beauty"},{"name":"루비아스킨","tel":"02-6085-9571","addr":"경기도 광명시 철산동 637번지 철산푸르지오하늘채종합상가B142호","indutype":"보건위생 - 화장품","category":"beauty"},{"name":"문헤어","tel":"02-2687-2575","addr":"경기도 광명시 철산동 637번지 철산푸르지오하늘채","indutype":"보건위생 - 미용원","category":"beauty"},{"name":"빈스헤어","tel":"02-2060-0333","addr":"경기도 광명시 철산동 637번지 철산푸르지오하늘채 종합상가 B동 124호","indutype":"보건위생 - 미용원","category":"beauty"},{"name":"쉬즈헤어","tel":"02-2060-1005","addr":"경기도 광명시 철산동 637번지 종합상가동 지층 105호","indutype":"보건위생 - 미용원","category":"beauty"},{"name":"신비한약손","tel":"02-3666-7574","addr":"경기도 광명시 철산동 637 푸르지오종합상가지하1층118호","indutype":"보건위생 - 화장품","category":"beauty"},{"name":"씬헤어","tel":"02-2684-0333","addr":"경기도 광명시 철산동 637 푸르지오하늘채근린상가106","indutype":"보건위생 - 미용원","category":"beauty"},{"name":"아르드뽀 에스테틱","tel":"","addr":"경기도 광명시 철산동 637번지 종합상가동 지층 143호","indutype":"보건위생 - 화장품","category":"beauty"},{"name":"에벤에셀 헤어뮤즈","tel":"02-894-3322","addr":"경기도 광명시 철산동 637번지 철산 종합상가 113동 105호","indutype":"보건위생 - 미용원","category":"beauty"},{"name":"이오뷰티랜드","tel":"02-701-1125","addr":"경기도 광명시 철산동 637 푸르지오하늘채종합상가 107","indutype":"보건위생 - 미용재료","category":"beauty"},{"name":"코코네일","tel":"031-000-0000","addr":"경기도 광명시 철산동 637번지 종합 상가동 B132호","indutype":"보건위생 - 피부미용실","category":"beauty"}]},{"lat":"37.47463215","long":"126.8747288","imageIndex":13,"items":[{"name":"굿마크","tel":"","addr":"경기도 광명시 철산동 449번지 철산12단지주공아파트","indutype":"보건위생 - 화장품","category":"beauty"}]},{"lat":"37.47568051","long":"126.8694814","imageIndex":13,"items":[{"name":"궁 중국전통바디샵","tel":"02-2687-0110","addr":"경기도 광명시 철산동 396번지 남원빌딩 502호","indutype":"보건위생 - 안마시술소","category":"beauty"}]},{"lat":"37.47626789","long":"126.8631833","imageIndex":13,"items":[{"name":"권모발","tel":"02-2612-1171","addr":"경기도 광명시 철산동 466-1번지 3층","indutype":"보건위생 - 미용재료","category":"beauty"},{"name":"송주연헤어샵","tel":"02-2685-0283","addr":"경기도 광명시 철산동 466-1번지 2층","indutype":"보건위생 - 미용원","category":"beauty"}]},{"lat":"37.47643574","long":"126.8680669","imageIndex":13,"items":[{"name":"글라스스토리철산점","tel":"02-2060-0347","addr":"경기도 광명시 철산동 245-8번지 나미빌딩 102호","indutype":"보건위생 - 안경","category":"beauty"}]},{"lat":"37.47395976","long":"126.8696201","imageIndex":13,"items":[{"name":"금강","tel":"02-2689-9777","addr":"경기도 광명시 철산동 426.104","indutype":"보건위생 - 안경","category":"beauty"},{"name":"금강안경원","tel":"02-2689-9777","addr":"경기도 광명시 철산동 426번지 서림빌딩 103호","indutype":"보건위생 - 안경","category":"beauty"},{"name":"뷰티&네일","tel":"02-2066-2945","addr":"경기도 광명시 철산동 426번지 서림빌딩 111호","indutype":"보건위생 - 화장품","category":"beauty"}]},{"lat":"37.47807017","long":"126.8634287","imageIndex":13,"items":[{"name":"금손 스킨앤바디","tel":"02-2611-2264","addr":"경기도 광명시 철산동 463-15번지 2층","indutype":"보건위생 - 피부미용실","category":"beauty"}]},{"lat":"37.47290867","long":"126.8644557","imageIndex":13,"items":[{"name":"김경희헤어라인","tel":"02-2685-3325","addr":"경기도 광명시 철산동 628번지 브라운스통1차 상가 107호","indutype":"보건위생 - 미용원","category":"beauty"},{"name":"브라운헤어","tel":"02-2066-6151","addr":"경기도 광명시 철산동 628번지 제101동 제지1층 102호","indutype":"보건위생 - 미용원","category":"beauty"}]},{"lat":"37.47451649","long":"126.8679573","imageIndex":13,"items":[{"name":"김보성헤어테크닉스","tel":"02-2625-9671","addr":"경기도 광명시 철산동 416번지 다산빌딩 303호","indutype":"보건위생 - 미용원","category":"beauty"},{"name":"몰디브태닝","tel":"02-4677-6448","addr":"경기도 광명시 철산동 416번지 204호","indutype":"보건위생 - 피부미용실","category":"beauty"},{"name":"지에이치(GH)자연건강","tel":"02-2615-9585","addr":"경기도 광명시 철산동 416번지 다산캣츠빌딩 5층 501호","indutype":"보건위생 - 의료용품","category":"beauty"}]},{"lat":"37.48990329","long":"126.8660413","imageIndex":13,"items":[{"name":"김윤희미용실","tel":"02-2688-8866","addr":"경기도 광명시 철산동 56-8번지","indutype":"보건위생 - 미용원","category":"beauty"}]},{"lat":"37.47396381","long":"126.8652903","imageIndex":13,"items":[{"name":"김지은미용실","tel":"02-2681-0294","addr":"경기도 광명시 철산동 493-7번지","indutype":"보건위생 - 미용원","category":"beauty"}]},{"lat":"37.47467993","long":"126.8690649","imageIndex":13,"items":[{"name":"나인","tel":"080-8881-6236","addr":"경기도 광명시 철산동 429번지 승화빌딩 502호","indutype":"보건위생 - 미용재료","category":"beauty"}]},{"lat":"37.47082056","long":"126.8663474","imageIndex":13,"items":[{"name":"난 헤어","tel":"02-2611-1707","addr":"경기도 광명시 철산동 617번지","indutype":"보건위생 - 미용원","category":"beauty"},{"name":"더네일바이은","tel":"02-2060-0722","addr":"경기도 광명시 철산동 617번지 도덕파크타운 206호","indutype":"보건위생 - 피부미용실","category":"beauty"},{"name":"더샤인헤어","tel":"","addr":"경기도 광명시 철산동 617번지 가 상가동 303-1호","indutype":"보건위생 - 미용원","category":"beauty"},{"name":"수 머리 이용업","tel":"02-2066-7233","addr":"경기도 광명시 철산동 617번지 도덕파크타운 305호","indutype":"보건위생 - 이용원","category":"beauty"},{"name":"수민헤어컬러","tel":"02-6116-8988","addr":"경기도 광명시 철산동 617번지 도덕파크타운 상가 105호","indutype":"보건위생 - 미용원","category":"beauty"},{"name":"스킨후 화장품","tel":"031-2688-5981","addr":"경기도 광명시 철산동 617번지 도덕파크타운 가상가동 102호","indutype":"보건위생 - 화장품","category":"beauty"},{"name":"아이공감 교육 심리 발달연구소","tel":"070-8886-1117","addr":"경기도 광명시 철산동 617번지 도덕파크타운 상가 가동 308호","indutype":"보건위생 - 기타대인서비스","category":"beauty"}]},{"lat":"37.47740047","long":"126.868653","imageIndex":13,"items":[{"name":"네이루네일샵","tel":"","addr":"경기도 광명시 철산동 245-1번지 1층 6호","indutype":"보건위생 - 피부미용실","category":"beauty"},{"name":"머리끄덩이","tel":"02-2060-7465","addr":"경기도 광명시 철산동 245-1번지 205호","indutype":"보건위생 - 미용원","category":"beauty"}]},{"lat":"37.47599179","long":"126.865931","imageIndex":13,"items":[{"name":"네일디바앤가온힐조","tel":"02-2612-3575","addr":"경기도 광명시 철산동 259번지 스타힐스빌딩 3층","indutype":"보건위생 - 피부미용실","category":"beauty"},{"name":"스타아로마","tel":"02-2060-2916","addr":"경기도 광명시 철산동 259번지 3층","indutype":"보건위생 - 화장품","category":"beauty"},{"name":"아름들 심리상담센터","tel":"02-2060-4300","addr":"경기도 광명시 철산동 259번지 스타힐스빌딩 3층","indutype":"보건위생 - 기타대인서비스","category":"beauty"},{"name":"안경박사LENSNINE","tel":"02-807-1003","addr":"경기도 광명시 철산동 259번지 스타힐스빌딩 1층","indutype":"보건위생 - 안경","category":"beauty"}]},{"lat":"37.47623976","long":"126.8700457","imageIndex":13,"items":[{"name":"네일블러썸","tel":"02-2611-1230","addr":"경기도 광명시 철산동 385번지 양정타워 1층 106호","indutype":"보건위생 - 피부미용실","category":"beauty"},{"name":"웰킨광명철산점","tel":"02-2688-5859","addr":"경기도 광명시 철산동 385번지","indutype":"보건위생 - 화장품","category":"beauty"},{"name":"으뜸50안경콘텍트철산점","tel":"031-3485-0333","addr":"경기도 광명시 철산동 385번지 양정타워 401호","indutype":"보건위생 - 안경","category":"beauty"},{"name":"첨단인지브레인 철산점","tel":"02-3666-0230","addr":"경기도 광명시 철산동 385번지 알렉스타워 10층 1003호","indutype":"보건위생 - 기타대인서비스","category":"beauty"}]},{"lat":"37.47151319","long":"126.865374","imageIndex":13,"items":[{"name":"뉴실로암안경","tel":"02-2613-4816","addr":"경기도 광명시 철산동 509-265번지 삼우빌딩 101호","indutype":"보건위생 - 안경","category":"beauty"}]},{"lat":"37.4771863","long":"126.8704849","imageIndex":13,"items":[{"name":"뉴에스더미용실","tel":"02-2684-6321","addr":"경기도 광명시 철산동 241-2번지 주공13단지 바상가 1층 115호","indutype":"보건위생 - 미용원","category":"beauty"},{"name":"밝고 꽃처럼","tel":"","addr":"경기도 광명시 철산동 241-2번지 주공상가 바동 117호","indutype":"보건위생 - 피부미용실","category":"beauty"},{"name":"수정종합보수","tel":"02-688-0928","addr":"경기도 광명시 철산동 241-2번지 13단지 바상가 102호","indutype":"보건위생 - 기타대인서비스","category":"beauty"}]},{"lat":"37.47415308","long":"126.8653465","imageIndex":13,"items":[{"name":"단발머리헤어","tel":"02-2614-0309","addr":"경기도 광명시 철산동 493-3번지 삼익빌라 지하층","indutype":"보건위생 - 미용원","category":"beauty"}]},{"lat":"37.47617791","long":"126.8632853","imageIndex":13,"items":[{"name":"대성사","tel":"02-2066-4515","addr":"경기도 광명시 철산동 466-2번지 102호","indutype":"보건위생 - 미용재료","category":"beauty"}]},{"lat":"37.47332233","long":"126.8716561","imageIndex":13,"items":[{"name":"대학의료기광명","tel":"02-2060-5203","addr":"경기도 광명시 철산동 389번지 광명성애병원별관 B동 4층","indutype":"보건위생 - 의료용품","category":"beauty"}]},{"lat":"37.4740692","long":"126.8707956","imageIndex":13,"items":[{"name":"댄디헤어","tel":"02-6012-3338","addr":"경기도 광명시 철산동 448번지 정인코아빌딩 1층 113호","indutype":"보건위생 - 미용원","category":"beauty"},{"name":"런던네일","tel":"02-2618-6058","addr":"경기도 광명시 철산동 448번지 정인코아빌딩 210,211,212,213호","indutype":"보건위생 - 피부미용실","category":"beauty"},{"name":"신흥이용원","tel":"02-2687-5694","addr":"경기도 광명시 철산동 448번지","indutype":"보건위생 - 이용원","category":"beauty"},{"name":"실면도","tel":"02-2066-5909","addr":"경기도 광명시 철산동 448번지 정인코아빌딩 2층","indutype":"보건위생 - 기타대인서비스","category":"beauty"}]},{"lat":"37.4761517","long":"126.8639862","imageIndex":13,"items":[{"name":"더룸헤어","tel":"02-2615-2108","addr":"경기도 광명시 철산동 472-169번지 보보스텔 106호","indutype":"보건위생 - 미용원","category":"beauty"},{"name":"브로우핏","tel":"","addr":"경기도 광명시 철산동 472-169번지 보보스텔 B13호","indutype":"보건위생 - 피부미용실","category":"beauty"},{"name":"예뻐지는공간 러블리","tel":"02-6489-0486","addr":"경기도 광명시 철산동 472-169번지 보보스텔 806호","indutype":"보건위생 - 미용재료","category":"beauty"},{"name":"최원프리모가발","tel":"02-2060-8008","addr":"경기도 광명시 철산동 472-169번지 보보스텔 지하층 9호","indutype":"보건위생 - 미용재료","category":"beauty"}]},{"lat":"37.47187805","long":"126.8692621","imageIndex":13,"items":[{"name":"더원헤어","tel":"02-2683-0440","addr":"경기도 광명시 철산동 637번지 철산푸르지오하늘채 108동 108호","indutype":"보건위생 - 미용원","category":"beauty"}]},{"lat":"37.48528964","long":"126.8655635","imageIndex":13,"items":[{"name":"더헤어","tel":"02-2066-6144","addr":"경기도 광명시 철산동 139-4번지 1층","indutype":"보건위생 - 미용원","category":"beauty"},{"name":"이유진헤어뱅크","tel":"031-2614-2282","addr":"경기도 광명시 철산동 139-4번지","indutype":"보건위생 - 미용원","category":"beauty"}]},{"lat":"37.47479548","long":"126.8676742","imageIndex":13,"items":[{"name":"더헤어 광명철산점","tel":"02-2616-4080","addr":"경기도 광명시 철산동 411번지 금봉빌딩 3층 301호","indutype":"보건위생 - 미용원","category":"beauty"},{"name":"참뷰티","tel":"02-2616-7110","addr":"경기도 광명시 철산동 411번지 금봉빌딩 2층 202호","indutype":"보건위생 - 화장품","category":"beauty"}]},{"lat":"37.47401826","long":"126.8656294","imageIndex":13,"items":[{"name":"도도디자인","tel":"02-6448-0806","addr":"경기도 광명시 철산동 493-10번지 1층 101호","indutype":"보건위생 - 화장품","category":"beauty"}]},{"lat":"37.47126993","long":"126.8653744","imageIndex":13,"items":[{"name":"도희헤어","tel":"02-2066-7622","addr":"경기도 광명시 철산동 509-267번지 서빈빌딩 104호","indutype":"보건위생 - 미용원","category":"beauty"}]},{"lat":"37.47212923","long":"126.8764513","imageIndex":13,"items":[{"name":"두쏠뷰티","tel":"031-000-0000","addr":"경기도 광명시 철산동 367번지 세이브존 4층","indutype":"보건위생 - 미용원","category":"beauty"}]},{"lat":"37.47437415","long":"126.8695628","imageIndex":13,"items":[{"name":"두양","tel":"02-2681-3407","addr":"경기도 광명시 철산동 434번지 서울종합빌딩 지하층","indutype":"보건위생 - 기타대인서비스","category":"beauty"}]},{"lat":"37.47637217","long":"126.8676261","imageIndex":13,"items":[{"name":"라파광명탕","tel":"02-2616-3969","addr":"경기도 광명시 철산동 245-9번지 웅진빌딩 지하1층","indutype":"보건위생 - 사우나","category":"beauty"}]},{"lat":"37.48276695","long":"126.8656473","imageIndex":13,"items":[{"name":"루아헤어&스토어","tel":"02-2611-0712","addr":"경기도 광명시 철산동 157-1번지 1층","indutype":"보건위생 - 미용원","category":"beauty"}]},{"lat":"37.47495824","long":"126.8681826","imageIndex":13,"items":[{"name":"리안헤어(철산역점)","tel":"02-2619-6471","addr":"경기도 광명시 철산동 409번지 세영빌딩 202호","indutype":"보건위생 - 미용원","category":"beauty"}]},{"lat":"37.48248651","long":"126.8646755","imageIndex":13,"items":[{"name":"리얼디톡스","tel":"070-4277-5611","addr":"경기도 광명시 철산동 176번지 대흥아이빌 1동 303호","indutype":"보건위생 - 화장품","category":"beauty"}]},{"lat":"37.48762906","long":"126.8628682","imageIndex":13,"items":[{"name":"마리앤헤어","tel":"02-2066-5003","addr":"경기도 광명시 철산동 56-135번지 1층","indutype":"보건위생 - 미용원","category":"beauty"}]},{"lat":"37.47570626","long":"126.8683508","imageIndex":13,"items":[{"name":"마음수련철산역센터","tel":"02-2615-9952","addr":"경기도 광명시 철산동 272번지 야우리빌딩 6층 601호","indutype":"보건위생 - 기타대인서비스","category":"beauty"},{"name":"이화아동발달연구소","tel":"02-2060-7752","addr":"경기도 광명시 철산동 272번지 야우리빌딩 604호","indutype":"보건위생 - 기타대인서비스","category":"beauty"}]},{"lat":"37.47654431","long":"126.8684624","imageIndex":13,"items":[{"name":"마젠타네일스튜디오","tel":"070-4747-2326","addr":"경기도 광명시 철산동 245-6번지 대광빌딩 2층","indutype":"보건위생 - 피부미용실","category":"beauty"},{"name":"보그헤어","tel":"02-2684-2326","addr":"경기도 광명시 철산동 245-6번지 대광빌딩 2층","indutype":"보건위생 - 미용원","category":"beauty"},{"name":"수뷰티센터","tel":"02-2685-3171","addr":"경기도 광명시 철산동 245-6번지 대광빌딩 3층","indutype":"보건위생 - 피부미용실","category":"beauty"}]},{"lat":"37.47401439","long":"126.8701287","imageIndex":13,"items":[{"name":"맑은소리보청기","tel":"02-3676-1535","addr":"경기도 광명시 철산동 446번지 청덕빌딩 202호","indutype":"보건위생 - 의료용품","category":"beauty"}]},{"lat":"37.47757417","long":"126.8630452","imageIndex":13,"items":[{"name":"맘스리베모유육아상담실","tel":"02-2066-0780","addr":"경기도 광명시 철산동 219-1번지 홍신에이스텔 807호","indutype":"보건위생 - 기타대인서비스","category":"beauty"}]},{"lat":"37.48256724","long":"126.8643701","imageIndex":13,"items":[{"name":"메이드바이네일","tel":"02-1111-1111","addr":"경기도 광명시 철산동 180번지 1층","indutype":"보건위생 - 피부미용실","category":"beauty"},{"name":"예손네일","tel":"","addr":"경기도 광명시 철산동 180번지 1층","indutype":"보건위생 - 피부미용실","category":"beauty"}]},{"lat":"37.47676107","long":"126.8689255","imageIndex":13,"items":[{"name":"명동탕","tel":"02-2613-9020","addr":"경기도 광명시 철산동 245-4번지 지하1층","indutype":"보건위생 - 사우나","category":"beauty"},{"name":"칼라박스","tel":"02-2066-5800","addr":"경기도 광명시 철산동 245-4번지","indutype":"보건위생 - 화장품","category":"beauty"}]},{"lat":"37.47578907","long":"126.8698769","imageIndex":13,"items":[{"name":"모델","tel":"070-8285-0181","addr":"경기도 광명시 철산동 395번지 기린빌딩 3층 304호","indutype":"보건위생 - 화장품","category":"beauty"},{"name":"미스터힐링 광명철산점","tel":"02-2618-0077","addr":"경기도 광명시 철산동 395번지 기린빌딩 2층 201호","indutype":"보건위생 - 기타대인서비스","category":"beauty"},{"name":"썬엔터치","tel":"02-2615-2134","addr":"경기도 광명시 철산동 395번지 3층 썬엔터치","indutype":"보건위생 - 화장품","category":"beauty"},{"name":"타이월드","tel":"02-3666-7333","addr":"경기도 광명시 철산동 395 기린빌딩3층 301,302호","indutype":"보건위생 - 화장품","category":"beauty"},{"name":"타이하우스 철산점","tel":"070-4170-1338","addr":"경기도 광명시 철산동 395번지 기린빌딩 403호","indutype":"보건위생 - 안마시술소","category":"beauty"}]},{"lat":"37.47690418","long":"126.8603219","imageIndex":13,"items":[{"name":"모두덴","tel":"070-8762-4848","addr":"경기도 광명시 철산동 467-58번지 LG베스트빌 지층 02호","indutype":"보건위생 - 의료용품","category":"beauty"}]},{"lat":"37.48967755","long":"126.8656233","imageIndex":13,"items":[{"name":"모퉁이헤어","tel":"02-2066-5261","addr":"경기도 광명시 철산동 56-11번지","indutype":"보건위생 - 미용원","category":"beauty"}]},{"lat":"37.47393239","long":"126.8693149","imageIndex":13,"items":[{"name":"미다듬헤어","tel":"02-2617-7766","addr":"경기도 광명시 철산동 425번지 가림빌딩 301호","indutype":"보건위생 - 미용원","category":"beauty"}]},{"lat":"37.47515173","long":"126.8641011","imageIndex":13,"items":[{"name":"미스앤미스터","tel":"02-2060-7703","addr":"경기도 광명시 철산동 472-206번지","indutype":"보건위생 - 화장품","category":"beauty"}]},{"lat":"37.47456882","long":"126.8664536","imageIndex":13,"items":[{"name":"미인명가","tel":"02-2688-6008","addr":"경기도 광명시 철산동 480번지 302호","indutype":"보건위생 - 화장품","category":"beauty"}]},{"lat":"37.47443492","long":"126.8675392","imageIndex":13,"items":[{"name":"미인본가","tel":"02-6331-1999","addr":"경기도 광명시 철산동 415번지 철화빌딩 4층 1호","indutype":"보건위생 - 피부미용실","category":"beauty"},{"name":"플랜에이치","tel":"02-2686-1210","addr":"경기도 광명시 철산동 415번지 철화빌딩 3층","indutype":"보건위생 - 미용원","category":"beauty"}]},{"lat":"37.48609875","long":"126.8640357","imageIndex":13,"items":[{"name":"미진헤어케어","tel":"02-2613-3301","addr":"경기도 광명시 철산동 69-24번지","indutype":"보건위생 - 미용원","category":"beauty"}]},{"lat":"37.48140543","long":"126.8647679","imageIndex":13,"items":[{"name":"미헤어아트샵","tel":"02-2612-6654","addr":"경기도 광명시 철산동 161-4번지 1층","indutype":"보건위생 - 미용원","category":"beauty"}]},{"lat":"37.47521272","long":"126.8701266","imageIndex":13,"items":[{"name":"바디샵","tel":"","addr":"경기도 광명시 철산동 439번지 광동빌딩 3층 301호","indutype":"보건위생 - 화장품","category":"beauty"}]},{"lat":"37.47801548","long":"126.8628974","imageIndex":13,"items":[{"name":"반짝이나","tel":"","addr":"경기도 광명시 철산동 463-8번지 1층 내 1호 일부호","indutype":"보건위생 - 피부미용실","category":"beauty"}]},{"lat":"37.47546203","long":"126.8675147","imageIndex":13,"items":[{"name":"벨톤보청기,의료기","tel":"02-2685-3100","addr":"경기도 광명시 철산동 264번지 로데오빌딩 303호","indutype":"보건위생 - 의료용품","category":"beauty"},{"name":"청담아로마","tel":"02-2611-8827","addr":"경기도 광명시 철산동 264번지 로데오빌딩 5층 1호","indutype":"보건위생 - 화장품","category":"beauty"},{"name":"토브헤어","tel":"02-2688-0211","addr":"경기도 광명시 철산동 264번지 로데오빌딩 3층 2호","indutype":"보건위생 - 미용원","category":"beauty"},{"name":"티엘팜","tel":"02-2685-3005","addr":"경기도 광명시 철산동 264번지 로데오빌딩 3층 3호","indutype":"보건위생 - 의료용품","category":"beauty"}]},{"lat":"37.4745408","long":"126.8655945","imageIndex":13,"items":[{"name":"뷰티호텔","tel":"","addr":"경기도 광명시 철산동 488-17번지 2층","indutype":"보건위생 - 화장품","category":"beauty"}]},{"lat":"37.47975074","long":"126.8674843","imageIndex":13,"items":[{"name":"빛나옵틱","tel":"","addr":"경기도 광명시 철산동 233번지","indutype":"보건위생 - 안경","category":"beauty"}]},{"lat":"37.47559914","long":"126.8692328","imageIndex":13,"items":[{"name":"살롱드라로","tel":"02-2611-6623","addr":"경기도 광명시 철산동 397번지 명산빌딩 3층","indutype":"보건위생 - 미용원","category":"beauty"}]},{"lat":"37.49167975","long":"126.8673497","imageIndex":13,"items":[{"name":"삼성엠이씨","tel":"02-2615-2210","addr":"경기도 광명시 철산동 627번지 롯데낙천대아파트 상가 202호","indutype":"보건위생 - 의료용품","category":"beauty"}]},{"lat":"37.47179141","long":"126.8644352","imageIndex":13,"items":[{"name":"샘터미용실","tel":"02-2619-6406","addr":"경기도 광명시 철산동 630번지 브라운스톤광명 상가동 103호","indutype":"보건위생 - 미용원","category":"beauty"}]},{"lat":"37.47704029","long":"126.8688459","imageIndex":13,"items":[{"name":"샤보이","tel":"02-2611-8045","addr":"경기도 광명시 철산동 245-3번지 은성빌딩 1층","indutype":"보건위생 - 미용원","category":"beauty"},{"name":"헤라뷰티","tel":"02-2611-6787","addr":"경기도 광명시 철산동 245-3번지 은성빌딩 3층","indutype":"보건위생 - 피부미용실","category":"beauty"}]},{"lat":"37.48662117","long":"126.863899","imageIndex":13,"items":[{"name":"서울미용실","tel":"02-2613-8285","addr":"경기도 광명시 철산동 56-120번지 103호","indutype":"보건위생 - 미용원","category":"beauty"}]},{"lat":"37.48712709","long":"126.8650627","imageIndex":13,"items":[{"name":"세린내추럴휴","tel":"02-2060-8886","addr":"경기도 광명시 철산동 56-52번지","indutype":"보건위생 - 화장품","category":"beauty"}]},{"lat":"37.47478946","long":"126.8703195","imageIndex":13,"items":[{"name":"세종상사","tel":"02-2060-6008","addr":"경기도 광명시 철산동 440번지 중앙시장 1층 39,40호","indutype":"보건위생 - 화장품","category":"beauty"},{"name":"손끝꽃","tel":"","addr":"경기도 광명시 철산동 440번지 철산종합상가 1층 13호","indutype":"보건위생 - 피부미용실","category":"beauty"},{"name":"안경백화점","tel":"02-2611-8880","addr":"경기도 광명시 철산동 440번지 철산시장빌딩 1층 15호","indutype":"보건위생 - 안경","category":"beauty"},{"name":"주식회사 비티엔 (BTN Co.,Ltd)","tel":"","addr":"경기도 광명시 철산동 440번지 중앙시장 302호","indutype":"보건위생 - 화장품","category":"beauty"}]},{"lat":"37.47476137","long":"126.86937","imageIndex":13,"items":[{"name":"셀라(Cella)","tel":"02-2613-7889","addr":"경기도 광명시 철산동 432번지 대연빌딩 4층","indutype":"보건위생 - 화장품","category":"beauty"}]},{"lat":"37.47551902","long":"126.8700921","imageIndex":13,"items":[{"name":"손찬미용실","tel":"02-2615-5851","addr":"경기도 광명시 철산동 437번지 프라자빌딩 109호","indutype":"보건위생 - 미용원","category":"beauty"},{"name":"손찬미용실","tel":"02-2615-5851","addr":"경기도 광명시 철산동 437번지 프라자빌딩 1동 109호","indutype":"보건위생 - 미용원","category":"beauty"},{"name":"연 네일","tel":"02-2615-5851","addr":"경기도 광명시 철산동 437번지 프라자빌딩 109호","indutype":"보건위생 - 피부미용실","category":"beauty"},{"name":"탠탠","tel":"02-2066-8386","addr":"경기도 광명시 철산동 437번지 프라자빌딩 301호","indutype":"보건위생 - 화장품","category":"beauty"}]},{"lat":"37.47498814","long":"126.8629031","imageIndex":13,"items":[{"name":"수영헤어샵","tel":"02-2066-7886","addr":"경기도 광명시 철산동 467-235번지 2층","indutype":"보건위생 - 미용원","category":"beauty"}]},{"lat":"37.47490829","long":"126.8639546","imageIndex":13,"items":[{"name":"수헤어","tel":"070-4170-0290","addr":"경기도 광명시 철산동 472-105번지 1층","indutype":"보건위생 - 미용원","category":"beauty"}]},{"lat":"37.47387779","long":"126.8688402","imageIndex":13,"items":[{"name":"슬로그","tel":"02-6487-7444","addr":"경기도 광명시 철산동 424번지 한국빌딩 6층 602호","indutype":"보건위생 - 미용원","category":"beauty"},{"name":"왓포","tel":"02-2686-7962","addr":"경기도 광명시 철산동 424번지 한국빌딩 2층","indutype":"보건위생 - 안마시술소","category":"beauty"}]},{"lat":"37.4893435","long":"126.865036","imageIndex":13,"items":[{"name":"아로마포미 철산점","tel":"02-2685-2532","addr":"경기도 광명시 철산동 56-15번지 아로마포미 1층","indutype":"보건위생 - 화장품","category":"beauty"}]},{"lat":"37.47590517","long":"126.868961","imageIndex":13,"items":[{"name":"아이에비뉴철산점","tel":"02-2611-3883","addr":"경기도 광명시 철산동 382번지 다인빌딩 102호","indutype":"보건위생 - 안경","category":"beauty"}]},{"lat":"37.47515274","long":"126.8649603","imageIndex":13,"items":[{"name":"아트오케이","tel":"02-2066-5202","addr":"경기도 광명시 철산동 472-36번지 103호","indutype":"보건위생 - 미용재료","category":"beauty"}]},{"lat":"37.476016","long":"126.8635117","imageIndex":13,"items":[{"name":"어울림상담코칭센터","tel":"02-2612-7982","addr":"경기도 광명시 철산동 466-4번지 3층","indutype":"보건위생 - 기타대인서비스","category":"beauty"}]},{"lat":"37.47432509","long":"126.8740623","imageIndex":13,"items":[{"name":"에덴미용실","tel":"02-2685-8447","addr":"경기도 광명시 철산동 449-4번지 주공12단지 일반상가 10호 스타일헤어","indutype":"보건위생 - 미용원","category":"beauty"}]},{"lat":"37.47740322","long":"126.871095","imageIndex":13,"items":[{"name":"에듀플렉스철산","tel":"02-2687-7909","addr":"경기도 광명시 철산동 241-1번지 광명시사회체육센터 4층","indutype":"보건위생 - 기타대인서비스","category":"beauty"},{"name":"이기자헤어","tel":"","addr":"경기도 광명시 철산동 241-1번지 1층","indutype":"보건위생 - 미용원","category":"beauty"},{"name":"태평양","tel":"02-2687-5405","addr":"경기도 광명시 철산동 241-1번지 광명시사회체육센터 4층","indutype":"보건위생 - 화장품","category":"beauty"}]},{"lat":"37.49180631","long":"126.8677113","imageIndex":13,"items":[{"name":"엠케이코스메틱","tel":"02-2682-6564","addr":"경기도 광명시 철산동 627번지 롯데낙천대아파트","indutype":"보건위생 - 화장품","category":"beauty"}]},{"lat":"37.4717395","long":"126.8743154","imageIndex":13,"items":[{"name":"여유로움헤어","tel":"02-2686-1004","addr":"경기도 광명시 철산동 634번지 철산래미안자이 상가 2층 203호","indutype":"보건위생 - 미용원","category":"beauty"},{"name":"이엠헤어","tel":"02-2681-0006","addr":"경기도 광명시 철산동 634번지 철산래미안자이 상가 104호","indutype":"보건위생 - 미용원","category":"beauty"}]},{"lat":"37.47432456","long":"126.8655949","imageIndex":13,"items":[{"name":"연미용실","tel":"02-2686-0874","addr":"경기도 광명시 철산동 488-31 3","indutype":"보건위생 - 미용원","category":"beauty"}]},{"lat":"37.47526695","long":"126.8702848","imageIndex":13,"items":[{"name":"영광이용원","tel":"02-2682-7655","addr":"경기도 광명시 철산동 438번지 서창빌딩 301호","indutype":"보건위생 - 이용원","category":"beauty"}]},{"lat":"37.47512882","long":"126.867651","imageIndex":13,"items":[{"name":"오렌즈안경원","tel":"070-8876-1079","addr":"경기도 광명시 철산동 265번지 진보빌딩 103호","indutype":"보건위생 - 안경","category":"beauty"}]},{"lat":"37.48867752","long":"126.8656817","imageIndex":13,"items":[{"name":"올리브미용실","tel":"02-2689-0701","addr":"경기도 광명시 철산동 629번지 두산위브 상가 101호","indutype":"보건위생 - 미용원","category":"beauty"}]},{"lat":"37.48015206","long":"126.8639336","imageIndex":13,"items":[{"name":"유니크헤어샵","tel":"070-4105-4119","addr":"경기도 광명시 철산동 210-3번지 102호","indutype":"보건위생 - 미용원","category":"beauty"}]},{"lat":"37.47513012","long":"126.8687928","imageIndex":13,"items":[{"name":"이가자헤어비스","tel":"02-2618-9494","addr":"경기도 광명시 철산동 401번지 락희빌딩 4층","indutype":"보건위생 - 미용원","category":"beauty"}]},{"lat":"37.49368087","long":"126.868149","imageIndex":13,"items":[{"name":"이금숙미용실","tel":"02-2060-6814","addr":"경기도 광명시 철산동 626-1번지 철산리버빌 202호","indutype":"보건위생 - 미용원","category":"beauty"}]},{"lat":"37.47423479","long":"126.8658777","imageIndex":13,"items":[{"name":"이레미용실","tel":"","addr":"경기도 광명시 철산동 495-2번지 1층 2호","indutype":"보건위생 - 미용원","category":"beauty"}]},{"lat":"37.48209973","long":"126.8652302","imageIndex":13,"items":[{"name":"이수경뷰티프라자","tel":"02-2618-2918","addr":"경기도 광명시 철산동 160-3번지 201호","indutype":"보건위생 - 화장품","category":"beauty"}]},{"lat":"37.48051877","long":"126.869405","imageIndex":13,"items":[{"name":"이오헤어","tel":"02-2683-1199","addr":"경기도 광명시 철산동 240번지 마상가 202호","indutype":"보건위생 - 미용원","category":"beauty"},{"name":"춘희헤어","tel":"02-2060-6272","addr":"경기도 광명시 철산동 240번지 마상가 129호","indutype":"보건위생 - 미용원","category":"beauty"}]},{"lat":"37.48101763","long":"126.8644521","imageIndex":13,"items":[{"name":"임혜경헤어터치","tel":"02-2611-3517","addr":"경기도 광명시 철산동 162-2번지 1층","indutype":"보건위생 - 미용원","category":"beauty"},{"name":"주식회사 제이케이메디팜","tel":"02-2611-1455","addr":"경기도 광명시 철산동 162-2번지","indutype":"보건위생 - 안경","category":"beauty"}]},{"lat":"37.47465075","long":"126.867177","imageIndex":13,"items":[{"name":"자수정불사우나","tel":"02-2617-3337","addr":"경기도 광명시 철산동 413번지 한복빌딩 지하1층 2.3호","indutype":"보건위생 - 사우나","category":"beauty"},{"name":"청담더타이 철산","tel":"02-2684-0010","addr":"경기도 광명시 철산동 413번지 한복빌딩 5층 501호","indutype":"보건위생 - 화장품","category":"beauty"}]},{"lat":"37.47556687","long":"126.8646769","imageIndex":13,"items":[{"name":"전인건강클리닉","tel":"02-1111-1111","addr":"경기도 광명시 철산동 472-52번지 2층","indutype":"보건위생 - 피부미용실","category":"beauty"}]},{"lat":"37.4863226","long":"126.862848","imageIndex":13,"items":[{"name":"제이진헤어","tel":"02-2611-4777","addr":"경기도 광명시 철산동 72-10번지 1층","indutype":"보건위생 - 미용원","category":"beauty"}]},{"lat":"37.48531693","long":"126.8657896","imageIndex":13,"items":[{"name":"좋은예감미용실","tel":"02-2618-7498","addr":"경기도 광명시 철산동 141-1번지","indutype":"보건위생 - 미용원","category":"beauty"}]},{"lat":"37.47701236","long":"126.8603782","imageIndex":13,"items":[{"name":"진가세소리","tel":"02-2689-7643","addr":"경기도 광명시 철산동 467-59번지 LG베스트빌 1층 B01호","indutype":"보건위생 - 미용원","category":"beauty"}]},{"lat":"37.47578982","long":"126.862732","imageIndex":13,"items":[{"name":"진주미용실","tel":"02-2066-0448","addr":"경기도 광명시 철산동 467-182번지","indutype":"보건위생 - 미용원","category":"beauty"}]},{"lat":"37.47587956","long":"126.8624266","imageIndex":13,"items":[{"name":"진헤어포인트","tel":"02-2686-8965","addr":"경기도 광명시 철산동 467-286번지","indutype":"보건위생 - 미용원","category":"beauty"}]},{"lat":"37.48640464","long":"126.8636507","imageIndex":13,"items":[{"name":"차인옥 미용실","tel":"02-2615-3428","addr":"경기도 광명시 철산동 70-4번지 102호","indutype":"보건위생 - 미용원","category":"beauty"}]},{"lat":"37.47545814","long":"126.8641571","imageIndex":13,"items":[{"name":"착한남자","tel":"031-111-1111","addr":"경기도 광명시 철산동 473-3번지 1층","indutype":"보건위생 - 미용원","category":"beauty"}]},{"lat":"37.47465237","long":"126.8686014","imageIndex":13,"items":[{"name":"철산","tel":"02-2612-8460","addr":"경기도 광명시 철산동 421.401","indutype":"보건위생 - 안마시술소","category":"beauty"}]},{"lat":"37.48593115","long":"126.8671227","imageIndex":13,"items":[{"name":"카라헤어","tel":"02-2687-1272","addr":"경기도 광명시 철산동 100-2번지","indutype":"보건위생 - 미용원","category":"beauty"}]},{"lat":"37.47193203","long":"126.8774012","imageIndex":13,"items":[{"name":"코리아리무진","tel":"","addr":"경기도 광명시 철산동 367번지 철산한신아파트","indutype":"보건위생 - 기타대인서비스","category":"beauty"}]},{"lat":"37.477045","long":"126.8730628","imageIndex":13,"items":[{"name":"클레오","tel":"02-2613-1006","addr":"경기도 광명시 철산동 449-2번지 주공사 상가 135호","indutype":"보건위생 - 피부미용실","category":"beauty"}]},{"lat":"37.48895977","long":"126.8682366","imageIndex":13,"items":[{"name":"클릭피부관리실","tel":"031-2614-1877","addr":"경기도 광명시 철산동 58번지 우성 상가 2층","indutype":"보건위생 - 피부미용실","category":"beauty"}]},{"lat":"37.47504367","long":"126.8641465","imageIndex":13,"items":[{"name":"태후사랑","tel":"02-2066-9235","addr":"경기도 광명시 철산동 472-11번지 1층 102호","indutype":"보건위생 - 화장품","category":"beauty"}]},{"lat":"37.4747412","long":"126.8674821","imageIndex":13,"items":[{"name":"토리헤어철산점","tel":"02-2611-9111","addr":"경기도 광명시 철산동 412번지 재상빌딩 2층","indutype":"보건위생 - 미용원","category":"beauty"}]},{"lat":"37.4859907","long":"126.8640924","imageIndex":13,"items":[{"name":"티파니헤어샵","tel":"02-6406-9711","addr":"경기도 광명시 철산동 69-25번지","indutype":"보건위생 - 미용원","category":"beauty"}]},{"lat":"37.48795385","long":"126.8632294","imageIndex":13,"items":[{"name":"헤어라떼","tel":"02-2613-3091","addr":"경기도 광명시 철산동 56-193번지 1층","indutype":"보건위생 - 미용원","category":"beauty"}]},{"lat":"37.48059387","long":"126.8642041","imageIndex":13,"items":[{"name":"헤어로비","tel":"070-8973-4822","addr":"경기도 광명시 철산동 162-5번지","indutype":"보건위생 - 미용원","category":"beauty"}]},{"lat":"37.48704111","long":"126.8686471","imageIndex":13,"items":[{"name":"헤어미가엘","tel":"02-2616-3394","addr":"경기도 광명시 철산동 85-1번지 1층","indutype":"보건위생 - 미용원","category":"beauty"}]},{"lat":"37.48843233","long":"126.8640426","imageIndex":13,"items":[{"name":"헤어클럽","tel":"02-2689-7708","addr":"경기도 광명시 철산동 56-238번지","indutype":"보건위생 - 미용원","category":"beauty"}]},{"lat":"37.4751514","long":"126.8638185","imageIndex":13,"items":[{"name":"헤어하우스","tel":"02-2615-7133","addr":"경기도 광명시 철산동 467-2번지","indutype":"보건위생 - 미용원","category":"beauty"}]},{"lat":"37.48673959","long":"126.8650068","imageIndex":13,"items":[{"name":"헤어헌터","tel":"070-3720-4022","addr":"경기도 광명시 철산동 56-75번지 2동 1층","indutype":"보건위생 - 미용원","category":"beauty"}]},{"lat":"37.48109745","long":"126.8633779","imageIndex":13,"items":[{"name":"현아헤어샵","tel":"070-8877-0469","addr":"경기도 광명시 철산동 164번지 1층","indutype":"보건위생 - 미용원","category":"beauty"}]},{"lat":"37.48690191","long":"126.8651196","imageIndex":13,"items":[{"name":"현주헤어","tel":"02-2615-4556","addr":"경기도 광명시 철산동 56-235번지 1층","indutype":"보건위생 - 미용원","category":"beauty"}]},{"lat":"37.47473478","long":"126.8697657","imageIndex":13,"items":[{"name":"화장품전문점다미인","tel":"02-2617-7233","addr":"경기도 광명시 철산동 435번지 1층 5호","indutype":"보건위생 - 화장품","category":"beauty"}]},{"lat":"37.47063187","long":"126.8667999","imageIndex":13,"items":[{"name":"휴맘스힐링","tel":"02-6104-3430","addr":"경기도 광명시 철산동 625번지 도덕파크타운 203동 2007호","indutype":"보건위생 - 기타대인서비스","category":"beauty"}]},{"lat":"37.47440675","long":"126.8665444","imageIndex":13,"items":[{"name":"휴먼뷰티아카데미","tel":"031-905-0704","addr":"경기도 광명시 철산동 495-12번지 광덕빌딩 6층 601호","indutype":"보건위생 - 피부미용실","category":"beauty"}]}]