[{"lat":"37.643561569","long":"127.37542899","imageIndex":17,"items":[{"name":"GS25양평수입리점","tel":"","addr":"경기도 양평군 서종면 수입리 667-18번지","indutype":"유통업 영리 - 편 의 점","category":"other"}]},{"lat":"37.633092751","long":"127.36954236","imageIndex":17,"items":[{"name":"광명사","tel":"031-966-7155","addr":"경기도 양평군 서종면 수입리 822-54번지 (광명사)","indutype":"용역 서비스 - 가례서비스업","category":"other"}]},{"lat":"37.637364594","long":"127.38337404","imageIndex":17,"items":[{"name":"까사누아","tel":"031-771-7920","addr":"경기도 양평군 서종면 수입리 510-23번지","indutype":"문화.취미 - 화랑","category":"other"}]},{"lat":"37.65822512","long":"127.43478351","imageIndex":17,"items":[{"name":"대한불교조계종서종사","tel":"031-774-3468","addr":"경기도 양평군 서종면 수입리 11-2번지 대한불교조계종서종사","indutype":"신변잡화 - 기념품점","category":"other"}]},{"lat":"37.637697282","long":"127.39459201","imageIndex":17,"items":[{"name":"루디힐 (Ludihill)","tel":"031-274-5155","addr":"경기도 양평군 서종면 수입리 339-9번지","indutype":"문화.취미 - 애완동물","category":"other"}]},{"lat":"37.638222975","long":"127.36834396","imageIndex":17,"items":[{"name":"보테가 풀 빌라","tel":"031-774-8681","addr":"경기도 양평군 서종면 수입리 649-43번지","indutype":"용역 서비스 - 부동산 중개·임대","category":"other"}]},{"lat":"37.645892177","long":"127.3791798","imageIndex":17,"items":[{"name":"선리페어","tel":"031-774-4682","addr":"경기도 양평군 서종면 수입리 726-5번지","indutype":"용역 서비스 - 기타용역서비스","category":"other"}]},{"lat":"37.639284027","long":"127.36901762","imageIndex":17,"items":[{"name":"씨유양평서종점","tel":"031-772-4987","addr":"경기도 양평군 서종면 수입리 642-8번지 1층","indutype":"유통업 영리 - 편 의 점","category":"other"}]},{"lat":"37.646171832","long":"127.39020614","imageIndex":17,"items":[{"name":"우쯔미 코리아","tel":"02-1111-1111","addr":"경기도 양평군 서종면 수입리 411번지","indutype":"문화.취미 - 애완동물","category":"other"}]},{"lat":"37.639147442","long":"127.36948147","imageIndex":17,"items":[{"name":"우필공방","tel":"031-775-2622","addr":"경기도 양평군 서종면 수입리 649-14번지","indutype":"문화.취미 - 문화취미기타","category":"other"}]},{"lat":"37.638061018","long":"127.39629336","imageIndex":17,"items":[{"name":"제이독스","tel":"","addr":"경기도 양평군 서종면 수입리 340-2번지","indutype":"문화.취미 - 애완동물","category":"other"}]},{"lat":"37.645280527","long":"127.38168081","imageIndex":17,"items":[{"name":"주식회사 다온투어세담지점","tel":"","addr":"경기도 양평군 서종면 수입리 445-1번지","indutype":"신변잡화 - 기타잡화","category":"other"}]},{"lat":"37.645781394","long":"127.40984038","imageIndex":17,"items":[{"name":"주식회사 에이치엔","tel":"031-771-1955","addr":"경기도 양평군 서종면 수입리 219번지","indutype":"문화.취미 - 민예·공예품","category":"other"}]},{"lat":"37.645452968","long":"127.38962454","imageIndex":17,"items":[{"name":"테라아트","tel":"031-774-2300","addr":"경기도 양평군 서종면 수입리 409번지","indutype":"문화.취미 - 화랑","category":"other"}]},{"lat":"37.646255727","long":"127.41076077","imageIndex":17,"items":[{"name":"풀의골목 work&shop","tel":"031-773-9919","addr":"경기도 양평군 서종면 수입리 215-9번지","indutype":"직물 - 침구·수예점","category":"other"}]}]