[{"lat":"37.019739063","long":"127.10100549","imageIndex":13,"items":[{"name":"(H)뷰티 인셀덤","tel":"","addr":"경기도 평택시 동삭동 852번지 평택센트럴자이3단지 302동 803호","indutype":"보건위생 - 화장품","category":"beauty"},{"name":"헤어짱짱","tel":"","addr":"경기도 평택시 동삭동 852번지 평택센트럴자이3단지 339동 08호","indutype":"보건위생 - 미용원","category":"beauty"}]},{"lat":"37.016377509","long":"127.10169785","imageIndex":13,"items":[{"name":"11.8헤어","tel":"031-656-5204","addr":"경기도 평택시 동삭동 845번지 평택센트럴자이2단지 110호","indutype":"보건위생 - 미용원","category":"beauty"}]},{"lat":"37.01216118","long":"127.10089462","imageIndex":13,"items":[{"name":"CUTS","tel":"031-652-4648","addr":"경기도 평택시 동삭동 680-1번지","indutype":"서비스업 - 이미용","category":"beauty"},{"name":"C컷헤어","tel":"031-692-3338","addr":"경기도 평택시 동삭동 680-1번지 101호","indutype":"보건위생 - 미용원","category":"beauty"}]},{"lat":"37.018966146","long":"127.09855481","imageIndex":13,"items":[{"name":"경헤어스타일","tel":"031-655-5115","addr":"경기도 평택시 동삭동 340-6번지 현대아파트 상가 1층 105호","indutype":"서비스업 - 이미용","category":"beauty"}]},{"lat":"37.009353804","long":"127.09598102","imageIndex":13,"items":[{"name":"글라스메이커","tel":"031-692-0206","addr":"경기도 평택시 동삭동 692-11번지 104호","indutype":"보건위생 - 안경","category":"beauty"}]},{"lat":"37.020881517","long":"127.10327691","imageIndex":13,"items":[{"name":"김미성아동발달센터","tel":"031-8029-9135","addr":"경기도 평택시 동삭동 818-4번지 평택센트럴자이5단지 506동 101호","indutype":"보건위생 - 기타대인서비스","category":"beauty"},{"name":"꾸아퍼스트","tel":"031-618-7959","addr":"경기도 평택시 동삭동 818-4번지 센트럴자이5단지 상가동 107호","indutype":"보건위생 - 미용원","category":"beauty"},{"name":"아이러브유","tel":"031-000-0000","addr":"경기도 평택시 동삭동 818-4번지 평택센트럴자이5단지 근생 3동 29호","indutype":"보건위생 - 화장품","category":"beauty"},{"name":"어썸네일","tel":"","addr":"경기도 평택시 동삭동 818-4번지 평택센트럴자이5단지 516동 134호","indutype":"보건위생 - 피부미용실","category":"beauty"},{"name":"헤어살롱블랑","tel":"031-655-6005","addr":"경기도 평택시 동삭동 818-4번지 센트럴자이5단지 516동 126호","indutype":"보건위생 - 미용원","category":"beauty"}]},{"lat":"37.017074107","long":"127.09830522","imageIndex":13,"items":[{"name":"더미토탈뷰티샵","tel":"031-657-5559","addr":"경기도 평택시 동삭동 835번지 평택센트럴자이1단지 108호","indutype":"보건위생 - 피부미용실","category":"beauty"},{"name":"아현네일","tel":"031-657-5559","addr":"경기도 평택시 동삭동 835번지 평택센트럴자이1단지 상가동 108호","indutype":"보건위생 - 피부미용실","category":"beauty"},{"name":"자이뷰티","tel":"031-651-1196","addr":"경기도 평택시 동삭동 835번지 평택센트럴자이1단지 117호","indutype":"보건위생 - 미용원","category":"beauty"},{"name":"자이뷰티","tel":"031-657-6543","addr":"경기도 평택시 동삭동 835번지 평택센트럴자이1단지 117호","indutype":"서비스업 - 미용","category":"beauty"}]},{"lat":"37.009851287","long":"127.09353223","imageIndex":13,"items":[{"name":"렛츠","tel":"061-363-2462","addr":"경기도 평택시 동삭동 661-7번지 원림프라자 3층 302호","indutype":"보건위생 - 피부미용실","category":"beauty"}]},{"lat":"37.009576753","long":"127.09889135","imageIndex":13,"items":[{"name":"미샤포톤","tel":"031-618-2388","addr":"경기도 평택시 동삭동 711-14번지 402호","indutype":"보건위생 - 화장품","category":"beauty"},{"name":"아이공간 아동발달센터","tel":"031-654-9979","addr":"경기도 평택시 동삭동 711-14번지 3층","indutype":"보건위생 - 기타대인서비스","category":"beauty"}]},{"lat":"37.007434513","long":"127.09600115","imageIndex":13,"items":[{"name":"바디케어운동센터","tel":"","addr":"경기도 평택시 동삭동 704-1번지 2층","indutype":"보건위생 - 화장품","category":"beauty"}]},{"lat":"37.009406866","long":"127.09725072","imageIndex":13,"items":[{"name":"베누스헤어샬롱","tel":"031-656-5944","addr":"경기도 평택시 동삭동 705-6번지 2층","indutype":"보건위생 - 미용원","category":"beauty"},{"name":"쉼터체형관리","tel":"031-654-6088","addr":"경기도 평택시 동삭동 705-6번지 6층","indutype":"보건위생 - 피부미용실","category":"beauty"}]},{"lat":"37.009877897","long":"127.09408281","imageIndex":13,"items":[{"name":"슈퍼","tel":"031-654-6621","addr":"경기도 평택시 동삭동 662-2번지 5층","indutype":"보건위생 - 화장품","category":"beauty"}]},{"lat":"37.009878001","long":"127.09394798","imageIndex":13,"items":[{"name":"시크릿헤어","tel":"031-656-6464","addr":"경기도 평택시 동삭동 662-1번지 서재빌딩 101호","indutype":"보건위생 - 미용원","category":"beauty"}]},{"lat":"37.008794754","long":"127.0964747","imageIndex":13,"items":[{"name":"썸케어","tel":"031-656-0338","addr":"경기도 평택시 동삭동 706-2번지 3층","indutype":"보건위생 - 화장품","category":"beauty"}]},{"lat":"37.011855142","long":"127.10050097","imageIndex":13,"items":[{"name":"아토헤어","tel":"031-657-8454","addr":"경기도 평택시 동삭동 679-6번지 102호","indutype":"보건위생 - 미용원","category":"beauty"},{"name":"아토헤어","tel":"031-656-0389","addr":"경기도 평택시 동삭동 679-6번지 102호","indutype":"서비스업 - 미용","category":"beauty"}]},{"lat":"37.012774433","long":"127.10025495","imageIndex":13,"items":[{"name":"앨반스킨케어","tel":"031-651-8691","addr":"경기도 평택시 동삭동 675-4번지 108호","indutype":"보건위생 - 피부미용실","category":"beauty"},{"name":"콩헤어","tel":"031-691-5333","addr":"경기도 평택시 동삭동 675-4번지 102호","indutype":"보건위생 - 미용원","category":"beauty"}]},{"lat":"37.012575215","long":"127.10144573","imageIndex":13,"items":[{"name":"야호","tel":"031-654-5003","addr":"경기도 평택시 동삭동 680-6번지 태경프라자 2층","indutype":"보건위생 - 화장품","category":"beauty"}]},{"lat":"37.009297103","long":"127.09928424","imageIndex":13,"items":[{"name":"에프엑스헤어샵 법원점","tel":"031-652-8422","addr":"경기도 평택시 동삭동 711-16번지 파인빌딩 201호","indutype":"서비스업 - 이미용","category":"beauty"},{"name":"에프엑스헤어샵법원점","tel":"031-652-8434","addr":"경기도 평택시 동삭동 711-16번지 2층 201호","indutype":"보건위생 - 미용원","category":"beauty"},{"name":"휴","tel":"031-618-0411","addr":"경기도 평택시 동삭동 711-16번지 파인빌딩","indutype":"보건위생 - 화장품","category":"beauty"}]},{"lat":"37.019437273","long":"127.09530785","imageIndex":13,"items":[{"name":"이안헤어","tel":"031-655-3373","addr":"경기도 평택시 동삭동 650번지 평택이안 상가 103호","indutype":"보건위생 - 미용원","category":"beauty"}]},{"lat":"37.011963131","long":"127.10066965","imageIndex":13,"items":[{"name":"이인숙에스테틱","tel":"031-656-3009","addr":"경기도 평택시 동삭동 679-7번지 2층","indutype":"보건위생 - 피부미용실","category":"beauty"}]},{"lat":"37.00991097","long":"127.09786931","imageIndex":13,"items":[{"name":"임국희헤어드레서","tel":"","addr":"경기도 평택시 동삭동 667-3번지 201호","indutype":"서비스업 - 미용","category":"beauty"}]},{"lat":"37.010270301","long":"127.09922929","imageIndex":13,"items":[{"name":"창 테라피스킨케어","tel":"031-657-1919","addr":"경기도 평택시 동삭동 711-9번지 301호","indutype":"보건위생 - 화장품","category":"beauty"}]},{"lat":"37.009405396","long":"127.09908214","imageIndex":13,"items":[{"name":"캔디","tel":"031-651-6077","addr":"경기도 평택시 동삭동 711-15번지 101호","indutype":"서비스업 - 미용","category":"beauty"},{"name":"캔디","tel":"031-255-8211","addr":"경기도 평택시 동삭동 711-15번지 재우빌딩 101호","indutype":"보건위생 - 피부미용실","category":"beauty"}]},{"lat":"37.007992777","long":"127.09650743","imageIndex":13,"items":[{"name":"타이킹","tel":"031-618-0606","addr":"경기도 평택시 동삭동 708-3번지 3층","indutype":"보건위생 - 화장품","category":"beauty"}]},{"lat":"37.007740876","long":"127.09600152","imageIndex":13,"items":[{"name":"타이토헤어","tel":"031-691-9363","addr":"경기도 평택시 동삭동 697-10번지","indutype":"보건위생 - 미용원","category":"beauty"}]},{"lat":"37.009355019","long":"127.09441926","imageIndex":13,"items":[{"name":"파타야테라피","tel":"","addr":"경기도 평택시 동삭동 692-3번지 4층","indutype":"보건위생 - 미용재료","category":"beauty"}]},{"lat":"37.010351306","long":"127.09934175","imageIndex":13,"items":[{"name":"필아로마","tel":"","addr":"경기도 평택시 동삭동 711-8번지 윤상빌딩 4층","indutype":"보건위생 - 화장품","category":"beauty"}]},{"lat":"37.012242184","long":"127.10100709","imageIndex":13,"items":[{"name":"하니","tel":"031-653-6650","addr":"경기도 평택시 동삭동 680-2번지 201호","indutype":"보건위생 - 화장품","category":"beauty"}]},{"lat":"37.010909363","long":"127.10008403","imageIndex":13,"items":[{"name":"헤어에이스","tel":"","addr":"경기도 평택시 동삭동 711-1번지","indutype":"서비스업 - 이미용","category":"beauty"},{"name":"헤어에이스","tel":"031-618-9085","addr":"경기도 평택시 동삭동 711-1번지 102호","indutype":"보건위생 - 미용원","category":"beauty"}]},{"lat":"37.00876811","long":"127.09598031","imageIndex":13,"items":[{"name":"황제웰빙","tel":"031-666-0051","addr":"경기도 평택시 동삭동 697-3번지 현대프라자 301호","indutype":"보건위생 - 화장품","category":"beauty"}]}]