[{"lat":"37.050565604","long":"126.97454149","imageIndex":4,"items":[{"name":"8부능선능이백숙&누룽지백숙","tel":"031-684-8662","addr":"경기도 평택시 청북읍 어연리 889-6번지 101호","indutype":"일반휴게음식 - 일반한식","category":"restaurant"},{"name":"돈치킨호프","tel":"031-683-9249","addr":"경기도 평택시 청북읍 어연리 889-6 한일프라자 103-1호","indutype":"일반휴게음식 - 주점","category":"restaurant"},{"name":"맥주따개","tel":"","addr":"경기도 평택시 청북읍 어연리 889-6번지 2층 205호","indutype":"일반휴게음식 - 주점","category":"restaurant"},{"name":"반값소(청북어연점)","tel":"031-683-7243","addr":"경기도 평택시 청북읍 어연리 889-6번지 102,103호","indutype":"일반휴게음식 - 일반한식","category":"restaurant"},{"name":"전주한식부페","tel":"031-682-1032","addr":"경기도 평택시 청북읍 어연리 889-6번지 1층 107-1호","indutype":"일반휴게음식 - 일반한식","category":"restaurant"},{"name":"중국집본가","tel":"031-686-7771","addr":"경기도 평택시 청북읍 어연리 889-6번지","indutype":"일반휴게음식 - 중국식","category":"restaurant"},{"name":"카페인(CAFE IN)","tel":"","addr":"경기도 평택시 청북읍 어연리 889-6번지 107호","indutype":"일반휴게음식 - 서양음식","category":"restaurant"}]},{"lat":"37.05037659","long":"126.97542965","imageIndex":4,"items":[{"name":"공단뼈다귀해장국","tel":"031-686-6996","addr":"경기도 평택시 청북읍 어연리 889-3","indutype":"일반휴게음식 - 일반한식","category":"restaurant"},{"name":"공단뼈다귀해장국","tel":"031-681-5679","addr":"경기도 평택시 청북읍 어연리 889-3번지","indutype":"음식점 - 한식","category":"restaurant"},{"name":"대박육개장얼큰샤브칼국수","tel":"031-683-0068","addr":"경기도 평택시 청북읍 어연리 889-3번지","indutype":"일반휴게음식 - 일반한식","category":"restaurant"},{"name":"대박육개장열큰샤브샤브칼국수","tel":"031-1111-1111","addr":"경기도 평택시 청북읍 어연리 889-3번지 7호","indutype":"일반휴게음식 - 일반한식","category":"restaurant"},{"name":"백암토종순대국","tel":"031-686-5679","addr":"경기도 평택시 청북읍 어연리 889-3번지 105호","indutype":"일반휴게음식 - 일반한식","category":"restaurant"},{"name":"백암토종순대국","tel":"031-683-1737","addr":"경기도 평택시 청북읍 어연리 889-3번지","indutype":"음식점 - 한식","category":"restaurant"}]},{"lat":"37.051322821","long":"126.9759352","imageIndex":4,"items":[{"name":"공단식당","tel":"031-682-6016","addr":"경기도 평택시 청북읍 어연리 895-4번지","indutype":"음식점 - 한식","category":"restaurant"},{"name":"공단식당","tel":"031-683-3351","addr":"경기도 평택시 청북읍 어연리 895-4","indutype":"일반휴게음식 - 일반한식","category":"restaurant"},{"name":"다모아치킨","tel":"031-683-3772","addr":"경기도 평택시 청북읍 어연리 895-4","indutype":"일반휴게음식 - 주점","category":"restaurant"},{"name":"다모아치킨","tel":"031-683-6080","addr":"경기도 평택시 청북읍 어연리 895-4번지","indutype":"음식점 - 치킨","category":"restaurant"},{"name":"송탄집","tel":"031-683-4688","addr":"경기도 평택시 청북읍 어연리 895-4번지","indutype":"일반휴게음식 - 일반한식","category":"restaurant"},{"name":"예가네","tel":"031-683-6080","addr":"경기도 평택시 청북읍 어연리 895-4번지 1층","indutype":"일반휴게음식 - 일반한식","category":"restaurant"},{"name":"예가네","tel":"031-683-9748","addr":"경기도 평택시 청북읍 어연리 895-4번지","indutype":"음식점 - 한식","category":"restaurant"},{"name":"자매식당","tel":"031-683-3351","addr":"경기도 평택시 청북읍 어연리 895-4번지","indutype":"일반휴게음식 - 일반한식","category":"restaurant"}]},{"lat":"37.051178579","long":"126.97562048","imageIndex":4,"items":[{"name":"국민식당","tel":"031-684-9253","addr":"경기도 평택시 청북읍 어연리 895-1번지 1층","indutype":"일반휴게음식 - 일반한식","category":"restaurant"},{"name":"황철수피자청북점","tel":"02-1111-1111","addr":"경기도 평택시 청북읍 어연리 895-1번지","indutype":"일반휴게음식 - 서양음식","category":"restaurant"}]},{"lat":"37.050899117","long":"126.97504724","imageIndex":4,"items":[{"name":"김정옥한식집에태백칼라곱장","tel":"031-683-9296","addr":"경기도 평택시 청북읍 어연리 889-4,14블록1호나","indutype":"일반휴게음식 - 일반한식","category":"restaurant"},{"name":"일번지수산","tel":"031-683-1933","addr":"경기도 평택시 청북읍 어연리 889-4(1층)","indutype":"일반휴게음식 - 일반한식","category":"restaurant"},{"name":"카페마치","tel":"032-686-6534","addr":"경기도 평택시 청북읍 어연리 889-4번지 나동","indutype":"일반휴게음식 - 서양음식","category":"restaurant"},{"name":"푸짐한집","tel":"031-681-1220","addr":"경기도 평택시 청북읍 어연리 889-4번지","indutype":"일반휴게음식 - 일반한식","category":"restaurant"}]},{"lat":"37.051016414","long":"126.97573295","imageIndex":4,"items":[{"name":"맛있는돼지랑","tel":"031-686-7052","addr":"경기도 평택시 청북읍 어연리 895-2번지 1층","indutype":"일반휴게음식 - 일반한식","category":"restaurant"},{"name":"맛있는돼지랑","tel":"031-681-0086","addr":"경기도 평택시 청북읍 어연리 895-2번지 1층","indutype":"음식점 - 한식","category":"restaurant"},{"name":"앤","tel":"031-683-3772","addr":"경기도 평택시 청북읍 어연리 895-2번지","indutype":"음식점 - 한식","category":"restaurant"},{"name":"앤","tel":"031-682-0991","addr":"경기도 평택시 청북읍 어연리 895-2번지","indutype":"일반휴게음식 - 서양음식","category":"restaurant"},{"name":"장칼국수","tel":"031-683-0715","addr":"경기도 평택시 청북읍 어연리 895-2번지","indutype":"일반휴게음식 - 일반한식","category":"restaurant"}]},{"lat":"37.046987641","long":"126.97157513","imageIndex":4,"items":[{"name":"별법동태탕","tel":"031-682-9542","addr":"경기도 평택시 청북읍 어연리 768-1","indutype":"일반휴게음식 - 일반한식","category":"restaurant"}]},{"lat":"37.050376281","long":"126.97412561","imageIndex":4,"items":[{"name":"신통치킨","tel":"031-686-5353","addr":"경기도 평택시 청북읍 어연리 889-5번지 104호","indutype":"일반휴게음식 - 스넥","category":"restaurant"},{"name":"신통치킨","tel":"070-7758-5089","addr":"경기도 평택시 청북읍 어연리 889-5번지 104호","indutype":"음식점 - 치킨","category":"restaurant"},{"name":"장미부페식당","tel":"031-405-4404","addr":"경기도 평택시 청북읍 어연리 889-5번지 102,103호","indutype":"일반휴게음식 - 일반한식","category":"restaurant"},{"name":"장미부페식당","tel":"031-405-4404","addr":"경기도 평택시 청북읍 어연리 889-5번지 102,103호","indutype":"일반휴게음식 - 일반한식","category":"restaurant"}]},{"lat":"37.049791774","long":"126.97951059","imageIndex":4,"items":[{"name":"예당어죽","tel":"031-681-2281","addr":"경기도 평택시 청북읍 어연리 88-3번지","indutype":"일반휴게음식 - 일반한식","category":"restaurant"}]},{"lat":"37.05017789","long":"126.97348491","imageIndex":4,"items":[{"name":"예뜨락한식부페","tel":"031-684-4431","addr":"경기도 평택시 청북읍 어연리 889-2번지 1층","indutype":"일반휴게음식 - 일반한식","category":"restaurant"}]},{"lat":"37.050323073","long":"126.97790286","imageIndex":4,"items":[{"name":"중화요리궁","tel":"031-683-5999","addr":"경기도 평택시 청북읍 어연리 191-1번지 1층","indutype":"일반휴게음식 - 중국식","category":"restaurant"}]},{"lat":"37.051458036","long":"126.97618247","imageIndex":4,"items":[{"name":"중화요리홍콩","tel":"031-683-9925","addr":"경기도 평택시 청북읍 어연리 895-8번지","indutype":"일반휴게음식 - 중국식","category":"restaurant"}]},{"lat":"37.048988557","long":"126.97376641","imageIndex":4,"items":[{"name":"찌개나라","tel":"031-681-8488","addr":"경기도 평택시 청북읍 어연리 738-2번지 1층","indutype":"일반휴게음식 - 일반한식","category":"restaurant"}]},{"lat":"37.048402908","long":"126.97393525","imageIndex":4,"items":[{"name":"청북한식당","tel":"031-683-5975","addr":"경기도 평택시 청북읍 어연리 739번지","indutype":"일반휴게음식 - 일반한식","category":"restaurant"}]},{"lat":"37.047240003","long":"126.97182233","imageIndex":4,"items":[{"name":"카페빈","tel":"031-000-0000","addr":"경기도 평택시 청북읍 어연리 769번지 1층","indutype":"일반휴게음식 - 서양음식","category":"restaurant"}]},{"lat":"37.047681781","long":"126.97282263","imageIndex":4,"items":[{"name":"투데이분식","tel":"031-683-9776","addr":"경기도 평택시 청북읍 어연리 732-30번지 B동 4호","indutype":"일반휴게음식 - 스넥","category":"restaurant"}]},{"lat":"37.050790936","long":"126.97482245","imageIndex":4,"items":[{"name":"푸짐한집","tel":"031-681-1220","addr":"경기도 평택시 청북읍 어연리 889-12번지 나동","indutype":"일반휴게음식 - 일반한식","category":"restaurant"}]}]