[{"lat":"37.286723305","long":"126.57448841","imageIndex":17,"items":[{"name":"(유)대부해운","tel":"032-886-7813","addr":"경기도 안산시 단원구 대부북동 1841-9번지","indutype":"여행 - 여객선","category":"other"}]},{"lat":"37.250427042","long":"126.57612544","imageIndex":17,"items":[{"name":"(주) 엠제이테크올로지","tel":"070-8282-7930","addr":"경기도 안산시 단원구 대부북동 753-1번지","indutype":"의류 - 기타의류","category":"other"},{"name":"다다종합인테리어","tel":"032-888-6623","addr":"경기도 안산시 단원구 대부북동 753-1번지","indutype":"건축자재 - 인테리어전문","category":"other"},{"name":"보은유리","tel":"032-882-2464","addr":"경기도 안산시 단원구 대부북동 753-1번지 3호","indutype":"건축자재 - 유리","category":"other"}]},{"lat":"37.267476137","long":"126.56916348","imageIndex":17,"items":[{"name":"(주)아메리카노","tel":"032-882-5533","addr":"경기도 안산시 단원구 대부북동 1827","indutype":"용역 서비스 - 기타용역서비스","category":"other"},{"name":"대부종합공구상사","tel":"032-881-0209","addr":"경기도 안산시 단원구 대부북동 1827번지","indutype":"기타 - 기계공구","category":"other"}]},{"lat":"37.2830365621","long":"126.5691080263","imageIndex":17,"items":[{"name":"CU대부명소점","tel":"032-882-1332","addr":"경기도 안산시 단원구 대부북동 1850번지","indutype":"도매 및 소매업 - 편의점","category":"other"}]},{"lat":"37.287037348","long":"126.57412578","imageIndex":17,"items":[{"name":"GS25대부바다점","tel":"","addr":"경기도 안산시 단원구 대부북동 1848-100번지 1층 전체","indutype":"유통업 영리 - 편 의 점","category":"other"}]},{"lat":"37.241347616","long":"126.58451641","imageIndex":17,"items":[{"name":"GS25대부상동점","tel":"","addr":"경기도 안산시 단원구 대부북동 511번지 101호, 102호","indutype":"유통업 영리 - 편 의 점","category":"other"}]},{"lat":"37.274260892","long":"126.56918093","imageIndex":17,"items":[{"name":"GS25대부중앙점","tel":"","addr":"경기도 안산시 단원구 대부북동 1856-61번지 1층 101호","indutype":"유통업 영리 - 편 의 점","category":"other"}]},{"lat":"37.285895826","long":"126.57240693","imageIndex":17,"items":[{"name":"GS25대부해변점","tel":"","addr":"경기도 안산시 단원구 대부북동 1848-116번지 1층 101호","indutype":"유통업 영리 - 편 의 점","category":"other"}]},{"lat":"37.2710100478","long":"126.5721534641","imageIndex":17,"items":[{"name":"NEW판다생활용품쇼핑몰","tel":"032-890-4147","addr":"경기도 안산시 단원구 대부북동 1161-17번지","indutype":"도매 및 소매업 - 생필품","category":"other"},{"name":"대부도 농산","tel":"1666-7941","addr":"경기도 안산시 단원구 대부북동 1161-17번지","indutype":"제조업 - 제조,화훼 재배,잡화","category":"other"}]},{"lat":"37.2738983837","long":"126.5686079949","imageIndex":17,"items":[{"name":"㈜우이당","tel":"031-403-2131","addr":"경기도 안산시 단원구 대부북동 1857-60번지","indutype":"도매 및 소매업 - 소금","category":"other"}]},{"lat":"37.265206476","long":"126.56941324","imageIndex":17,"items":[{"name":"강남종합설비","tel":"032-883-0918","addr":"경기도 안산시 단원구 대부북동 1710-13번지 1층 3호","indutype":"용역 서비스 - 기타용역서비스","category":"other"}]},{"lat":"37.271836466","long":"126.57146101","imageIndex":17,"items":[{"name":"강원건재철물","tel":"032-885-2050","addr":"경기도 안산시 단원구 대부북동 1161-76,1층","indutype":"기타 - 기계공구","category":"other"}]},{"lat":"37.240875464","long":"126.58349346","imageIndex":17,"items":[{"name":"거농영농자재","tel":"032-885-0402","addr":"경기도 안산시 단원구 대부북동 435-1번지","indutype":"농업 - 기타농업관련","category":"other"}]},{"lat":"37.2434791391","long":"126.5834114086","imageIndex":17,"items":[{"name":"거북건강원","tel":"032-882-8182","addr":"경기도 안산시 단원구 대부북동 450-3번지","indutype":"도매 및 소매업 - 건강원","category":"other"},{"name":"선한손장식","tel":"032-886-9087","addr":"경기도 안산시 단원구 대부북동 450-3번지","indutype":"도매 및 소매업 - 지업사","category":"other"}]},{"lat":"37.276982826","long":"126.56941337","imageIndex":17,"items":[{"name":"건흥전기조명","tel":"031-403-1900","addr":"경기도 안산시 단원구 대부북동 1856-247번지 1층","indutype":"전기제품 - 기타전기제품","category":"other"}]},{"lat":"37.281781859","long":"126.55399414","imageIndex":17,"items":[{"name":"걸리버","tel":"032-885-4333","addr":"경기도 안산시 단원구 대부북동 1870-87번지","indutype":"신변잡화 - 기타잡화","category":"other"}]},{"lat":"37.269454447","long":"126.57055012","imageIndex":17,"items":[{"name":"경기종합건재철물","tel":"032-889-1977","addr":"경기도 안산시 단원구 대부북동 1837-13번지","indutype":"건축자재 - 기타건축자재","category":"other"}]},{"lat":"37.259704064","long":"126.57018877","imageIndex":17,"items":[{"name":"경동종합설비","tel":"032-886-0056","addr":"경기도 안산시 단원구 대부북동 1365-1번지 1층","indutype":"수리서비스 - 기타수리서비스","category":"other"},{"name":"대부경동ENG","tel":"032-885-7789","addr":"경기도 안산시 단원구 대부북동 1365-1번지","indutype":"수리서비스 - 기타수리서비스","category":"other"},{"name":"대부도로또편의점","tel":"032-889-4421","addr":"경기도 안산시 단원구 대부북동 1365-1번지 1층","indutype":"유통업 영리 - 편 의 점","category":"other"}]},{"lat":"37.267230924","long":"126.56863501","imageIndex":17,"items":[{"name":"고려단열","tel":"031-886-0416","addr":"경기도 안산시 단원구 대부북동 1826-22번지 101호","indutype":"용역 서비스 - 기타용역서비스","category":"other"},{"name":"대부종합목재","tel":"032-886-2448","addr":"경기도 안산시 단원구 대부북동 1826-22번지","indutype":"건축자재 - 기타건축자재","category":"other"}]},{"lat":"37.2419796353","long":"126.5848848259","imageIndex":17,"items":[{"name":"고운미용실","tel":"032-880-9800","addr":"경기도 안산시 단원구 대부북동 505번지","indutype":"협회 및 단체, 수리 및 기타 개인서","category":"other"}]},{"lat":"37.2605673764","long":"126.5847708600","imageIndex":17,"items":[{"name":"구봉양식장","tel":"032-885-4788","addr":"경기도 안산시 단원구 대부북동 11번지","indutype":"도매 및 소매업 - 수산물","category":"other"}]},{"lat":"37.243562663","long":"126.58409843","imageIndex":17,"items":[{"name":"군자농협대부지점","tel":"032-886-0182","addr":"경기도 안산시 단원구 대부북동 469-1번지","indutype":"농업 - 농기계","category":"other"},{"name":"군자농협대부지점","tel":"032-886-3100","addr":"경기도 안산시 단원구 대부북동 469-1번지","indutype":"농업 - 비료,사료,종자","category":"other"}]},{"lat":"37.2425139727","long":"126.5856595146","imageIndex":17,"items":[{"name":"굿모닝의원","tel":"032-881-7555","addr":"경기도 안산시 단원구 대부북동 485-5번지","indutype":"보건업 및 사회복지서비스업 - 일반의","category":"other"},{"name":"대부이조은치과의원","tel":"032-886-9536","addr":"경기도 안산시 단원구 대부북동 485-5번지","indutype":"보건업 및 사회복지서비스업 - 치과의","category":"other"},{"name":"럭키할인마트정육코너","tel":"","addr":"경기도 안산시 단원구 대부북동 485-5번지","indutype":"도매 및 소매업 - 식육","category":"other"}]},{"lat":"37.2570347389","long":"126.5820512162","imageIndex":17,"items":[{"name":"그린영농조합법인","tel":"032-886-9873","addr":"경기도 안산시 단원구 대부북동 1011-3번지","indutype":"농업, 임업 및 어업 - 포도가공,축","category":"other"},{"name":"대부도와인영농조합법인","tel":"032-886-7799","addr":"경기도 안산시 단원구 대부북동 1011-3번지","indutype":"농업, 임업 및 어업 - 주류,과수,","category":"other"}]},{"lat":"37.2444589609","long":"126.5777144139","imageIndex":17,"items":[{"name":"그린퓨처스","tel":"","addr":"경기도 안산시 단원구 대부북동 694-19","indutype":"농업, 임업 및 어업 - 육묘(채소,","category":"other"}]},{"lat":"37.276729166","long":"126.54979593","imageIndex":17,"items":[{"name":"기분좋은휴게실","tel":"031-885-7733","addr":"경기도 안산시 단원구 대부북동 1871-12 1-108","indutype":"신변잡화 - 기타잡화","category":"other"},{"name":"옹기 빚는 여인","tel":"032-880-9679","addr":"경기도 안산시 단원구 대부북동 1871-12번지 구봉어촌 1동 3층 308호","indutype":"문화.취미 - 민예·공예품","category":"other"}]},{"lat":"37.274891635","long":"126.56918859","imageIndex":17,"items":[{"name":"길광고기획","tel":"032-882-2720","addr":"경기도 안산시 단원구 대부북동 1856-166번지","indutype":"용역 서비스 - 종합용역","category":"other"}]},{"lat":"37.240535177","long":"126.57401741","imageIndex":17,"items":[{"name":"나도 당신도 편의점","tel":"070-4922-1261","addr":"경기도 안산시 단원구 대부북동 640번지","indutype":"유통업 영리 - 편 의 점","category":"other"}]},{"lat":"37.243875583","long":"126.58340921","imageIndex":17,"items":[{"name":"나들이정보","tel":"031-1566-3531","addr":"경기도 안산시 단원구 대부북동 305-5번지","indutype":"용역 서비스 - 종합용역","category":"other"}]},{"lat":"37.277280157","long":"126.56941167","imageIndex":17,"items":[{"name":"나무향기공방카페","tel":"","addr":"경기도 안산시 단원구 대부북동 1855-30번지 1층","indutype":"문화.취미 - 문화취미기타","category":"other"}]},{"lat":"37.242513973","long":"126.58565951","imageIndex":17,"items":[{"name":"다이소 (대부점)","tel":"032-881-6016","addr":"경기도 안산시 단원구 대부북동 485-5번지 2층 101호","indutype":"신변잡화 - 기타잡화","category":"other"}]},{"lat":"37.280730661","long":"126.56930167","imageIndex":17,"items":[{"name":"대부낚시물류창고","tel":"032-882-5000","addr":"경기도 안산시 단원구 대부북동 1854-1번지","indutype":"레져용품 - 스포츠·레져용품","category":"other"}]},{"lat":"37.252899478","long":"126.57463491","imageIndex":17,"items":[{"name":"대부농자재","tel":"032-882-5533","addr":"경기도 안산시 단원구 대부북동 802번지","indutype":"농업 - 농기계","category":"other"}]},{"lat":"37.2877831378","long":"126.5760498932","imageIndex":17,"items":[{"name":"대부도 전동바이크& 바다향기 휴게소","tel":"","addr":"경기도 안산시 단원구 대부북동 1848-182번지","indutype":"협회 및 단체, 수리 및 기타 개인서","category":"other"},{"name":"알로하피크닉","tel":"","addr":"경기도 안산시 단원구 대부북동 1848-182번지","indutype":"도매 및 소매업 - 스포츠 및 레크레","category":"other"}]},{"lat":"37.287783138","long":"126.57604989","imageIndex":17,"items":[{"name":"대부도 전동바이크&바다향기 휴게소","tel":"032-884-3233","addr":"경기도 안산시 단원구 대부북동 1848-182번지","indutype":"레져용품 - 스포츠·레져용품","category":"other"},{"name":"알로하피크닉","tel":"031-000-0000","addr":"경기도 안산시 단원구 대부북동 1848-182번지 2층","indutype":"레져용품 - 스포츠·레져용품","category":"other"}]},{"lat":"37.281448196","long":"126.56840676","imageIndex":17,"items":[{"name":"대부도관광레저 협동조합","tel":"070-4401-2544","addr":"경기도 안산시 단원구 대부북동 산20-6번지 101호","indutype":"레져용품 - 스포츠·레져용품","category":"other"}]},{"lat":"37.282784447","long":"126.56915458","imageIndex":17,"items":[{"name":"대부도낚시물류창고","tel":"032-887-2788","addr":"경기도 안산시 단원구 대부북동 1850-3번지","indutype":"레져용품 - 스포츠·레져용품","category":"other"}]},{"lat":"37.2814481958","long":"126.5684067581","imageIndex":17,"items":[{"name":"대부도레저타운","tel":"032-886-9100","addr":"경기도 안산시 단원구 대부북동 산20-6번지","indutype":"예술, 스포츠 및 여가관련 서비스업","category":"other"}]},{"lat":"37.2882549483","long":"126.5769606613","imageIndex":17,"items":[{"name":"대부도보물섬 특산품점","tel":"032-890-4289","addr":"경기도 안산시 단원구 대부북동 1847-13번지","indutype":"도매 및 소매업 - 특산품,잡화","category":"other"}]},{"lat":"37.260897175","long":"126.57121904","imageIndex":17,"items":[{"name":"대부도정보화마을영농조합법인","tel":"032-886-5200","addr":"경기도 안산시 단원구 대부북동 1302-1번지","indutype":"농업 - 기타농업관련","category":"other"}]},{"lat":"37.24289747","long":"126.58454165","imageIndex":17,"items":[{"name":"대부상회","tel":"032-886-0418","addr":"경기도 안산시 단원구 대부북동 471-5번지","indutype":"신변잡화 - 신발","category":"other"}]},{"lat":"37.290392295","long":"126.58254214","imageIndex":17,"items":[{"name":"대부섬낚시","tel":"032-884-0336","addr":"경기도 안산시 단원구 대부북동 1848-366번지","indutype":"레져용품 - 스포츠·레져용품","category":"other"}]},{"lat":"37.2422601012","long":"126.5852101099","imageIndex":17,"items":[{"name":"대부세탁소","tel":"032-882-9237","addr":"경기도 안산시 단원구 대부북동 492-3번지","indutype":"협회 및 단체, 수리 및 기타 개인서","category":"other"}]},{"lat":"37.243006905","long":"126.58491296","imageIndex":17,"items":[{"name":"대부세탁소","tel":"032-882-9237","addr":"경기도 안산시 단원구 대부북동 473-1번지","indutype":"수리서비스 - 세탁소","category":"other"}]},{"lat":"37.250700266","long":"126.57693544","imageIndex":17,"items":[{"name":"대부실버케어","tel":"031-882-1107","addr":"경기도 안산시 단원구 대부북동 749-1번지","indutype":"기타의료기관 - 기타의료기관 및 기타","category":"other"}]},{"lat":"37.2426205047","long":"126.5852081212","imageIndex":17,"items":[{"name":"대부약국","tel":"032-886-2087","addr":"경기도 안산시 단원구 대부북동 493-1번지","indutype":"도매 및 소매업 - 의약품","category":"other"}]},{"lat":"37.288423336","long":"126.5761816","imageIndex":17,"items":[{"name":"대부영흥낚시1번지","tel":"032-889-5489","addr":"경기도 안산시 단원구 대부북동 1848-50번지,52,54,57","indutype":"레져용품 - 스포츠·레져용품","category":"other"},{"name":"위드미대부도점","tel":"031-985-3179","addr":"경기도 안산시 단원구 대부북동 1848-50, 52,54,57","indutype":"유통업 영리 - 편 의 점","category":"other"},{"name":"주식회사 양지","tel":"031-111-1111","addr":"경기도 안산시 단원구 대부북동 1848-50번지 1층","indutype":"레져용품 - 스포츠·레져용품","category":"other"}]},{"lat":"37.243067706","long":"126.58427023","imageIndex":17,"items":[{"name":"대부이불","tel":"032-886-1372","addr":"경기도 안산시 단원구 대부북동 471-1번지","indutype":"직물 - 침구·수예점","category":"other"}]},{"lat":"37.2688094149","long":"126.5690994578","imageIndex":17,"items":[{"name":"대부점 현대자동차","tel":"032-882-0043","addr":"경기도 안산시 단원구 대부북동 1826-155번지","indutype":"협회 및 단체, 수리 및 기타 개인서","category":"other"}]},{"lat":"37.242260101","long":"126.58521011","imageIndex":17,"items":[{"name":"대부종묘농약사","tel":"032-883-8170","addr":"경기도 안산시 단원구 대부북동 492-3번지","indutype":"농업 - 비료,사료,종자","category":"other"}]},{"lat":"37.2417907815","long":"126.5849872990","imageIndex":17,"items":[{"name":"대부종묘농약사","tel":"032-883-8170","addr":"경기도 안산시 단원구 대부북동 507번지","indutype":"도매 및 소매업 - 종약,농약,비료","category":"other"},{"name":"들꽃향기","tel":"","addr":"경기도 안산시 단원구 대부북동 507번지","indutype":"도매 및 소매업 - 화훼","category":"other"}]},{"lat":"37.2674761372","long":"126.5691634750","imageIndex":17,"items":[{"name":"대부종합공구상사","tel":"032-881-0209","addr":"경기도 안산시 단원구 대부북동 1827번지","indutype":"부동산업 및 임대업 - 점포, 공구","category":"other"}]},{"lat":"37.2672309241","long":"126.5686350121","imageIndex":17,"items":[{"name":"대부종합목재","tel":"032-886-2448","addr":"경기도 안산시 단원구 대부북동 1826-22번지","indutype":"도매 및 소매업 - 목재","category":"other"}]},{"lat":"37.245231187","long":"126.58201542","imageIndex":17,"items":[{"name":"대부페인트","tel":"032-6403-2954","addr":"경기도 안산시 단원구 대부북동 263-2번지 1층","indutype":"건축자재 - 페인트","category":"other"}]},{"lat":"37.241708616","long":"126.58468346","imageIndex":17,"items":[{"name":"대성","tel":"","addr":"경기도 안산시 단원구 대부북동 508-8번지","indutype":"레져용품 - 스포츠·레져용품","category":"other"}]},{"lat":"37.261143156","long":"126.56949289","imageIndex":17,"items":[{"name":"대성목재","tel":"032-883-1313","addr":"경기도 안산시 단원구 대부북동 1394-1번지 101호","indutype":"건축자재 - 목재·석재·철물","category":"other"},{"name":"대주전기조명","tel":"032-886-0477","addr":"경기도 안산시 단원구 대부북동 1394-1번지 1호","indutype":"건축자재 - 조명기구","category":"other"}]},{"lat":"37.261394323","long":"126.56918708","imageIndex":17,"items":[{"name":"대영레미콘판매(주)","tel":"032-886-2855","addr":"경기도 안산시 단원구 대부북동 1401-1번지","indutype":"건축자재 - 기타건축자재","category":"other"},{"name":"케이냉동","tel":"031-319-0069","addr":"경기도 안산시 단원구 대부북동 1401-1번지","indutype":"주방용구 - 주방용구","category":"other"}]},{"lat":"37.241594993","long":"126.58312883","imageIndex":17,"items":[{"name":"대영상사","tel":"032-346-3542","addr":"경기도 안산시 단원구 대부북동 332번지","indutype":"건축자재 - 기타건축자재","category":"other"}]},{"lat":"37.259062179","long":"126.58463264","imageIndex":17,"items":[{"name":"대진골재","tel":"","addr":"경기도 안산시 단원구 대부북동 23-6번지 (1,2,3호3칸)","indutype":"건축자재 - 기타건축자재","category":"other"}]},{"lat":"37.2437337908","long":"126.5790145737","imageIndex":17,"items":[{"name":"대흥버섯","tel":"","addr":"경기도 안산시 단원구 대부북동 199-4","indutype":"도매 및 소매업 - 농산물","category":"other"}]},{"lat":"37.280280543","long":"126.54780139","imageIndex":17,"items":[{"name":"더나인","tel":"032-7200-1113","addr":"경기도 안산시 단원구 대부북동 1870-37번지","indutype":"신변잡화 - 액세서리","category":"other"}]},{"lat":"37.242511442","long":"126.57485147","imageIndex":17,"items":[{"name":"동양낚시","tel":"032-882-1828","addr":"경기도 안산시 단원구 대부북동 642번지 105호","indutype":"레져용품 - 스포츠·레져용품","category":"other"}]},{"lat":"37.241790782","long":"126.5849873","imageIndex":17,"items":[{"name":"들꽃향기","tel":"031-000-0000","addr":"경기도 안산시 단원구 대부북동 507번지","indutype":"문화.취미 - 화원","category":"other"},{"name":"시화건재","tel":"032-886-8236","addr":"경기도 안산시 단원구 대부북동 507번지","indutype":"기타 - 기계공구","category":"other"}]},{"lat":"37.276757534","long":"126.56940339","imageIndex":17,"items":[{"name":"라이브음향","tel":"032-880-9887","addr":"경기도 안산시 단원구 대부북동 1856-8번지","indutype":"전기제품 - 가전제품","category":"other"},{"name":"한신종합 (건축) 설비","tel":"032-885-3044","addr":"경기도 안산시 단원구 대부북동 1856-8번지 지층","indutype":"용역 서비스 - 기타용역서비스","category":"other"}]},{"lat":"37.247231715","long":"126.57704513","imageIndex":17,"items":[{"name":"레온 (LEON)","tel":"032-3648-7968","addr":"경기도 안산시 단원구 대부북동 697-3번지 1층 5호","indutype":"의류 - 정장","category":"other"}]},{"lat":"37.288446753","long":"126.57768131","imageIndex":17,"items":[{"name":"로그보트(Log Boat)","tel":"032-888-6652","addr":"경기도 안산시 단원구 대부북동 1847-20번지 1층","indutype":"레져용품 - 스포츠·레져용품","category":"other"}]},{"lat":"37.2402367211","long":"126.5863257146","imageIndex":17,"items":[{"name":"명품농원","tel":"","addr":"경기도 안산시 단원구 대부북동 550","indutype":"도매 및 소매업 - 포도,딸기,농산물","category":"other"}]},{"lat":"37.260424249","long":"126.57001555","imageIndex":17,"items":[{"name":"미레기획","tel":"032-886-0781","addr":"경기도 안산시 단원구 대부북동 1392-16번지","indutype":"용역 서비스 - 종합용역","category":"other"}]},{"lat":"37.242180202","long":"126.58554865","imageIndex":17,"items":[{"name":"번개오토바이","tel":"032-884-6340","addr":"경기도 안산시 단원구 대부북동 491-3번지","indutype":"수리서비스 - 레져용품수리","category":"other"},{"name":"우진창호","tel":"031-886-3698","addr":"경기도 안산시 단원구 대부북동 491-3번지","indutype":"건축자재 - 보일러·펌프·샷시","category":"other"}]},{"lat":"37.241923385","long":"126.58426528","imageIndex":17,"items":[{"name":"부일농자재","tel":"032-889-1223","addr":"경기도 안산시 단원구 대부북동 504-2번지","indutype":"농업 - 농기계","category":"other"},{"name":"정진컴퓨터","tel":"032-885-0000","addr":"경기도 안산시 단원구 대부북동 504-2번지","indutype":"사무통신 - 컴퓨터","category":"other"}]},{"lat":"37.272982177","long":"126.57184909","imageIndex":17,"items":[{"name":"북동건축","tel":"031-000-0000","addr":"경기도 안산시 단원구 대부북동 1160-12번지","indutype":"건축자재 - 기타건축자재","category":"other"}]},{"lat":"37.241929365","long":"126.58340873","imageIndex":17,"items":[{"name":"삼화페인트 아트","tel":"031-880-9912","addr":"경기도 안산시 단원구 대부북동 441-5번지 103,104호","indutype":"건축자재 - 페인트","category":"other"}]},{"lat":"37.243122364","long":"126.58443898","imageIndex":17,"items":[{"name":"서위수산","tel":"032-886-9822","addr":"경기도 안산시 단원구 대부북동 470-7번지","indutype":"회원제형태 - 기타1","category":"other"}]},{"lat":"37.243479139","long":"126.58341141","imageIndex":17,"items":[{"name":"선한손장식","tel":"032-886-9087","addr":"경기도 안산시 단원구 대부북동 450-3번지","indutype":"직물 - 카페트,커튼,천막,지물","category":"other"},{"name":"인천강화옹진축산업협동조합/대부지점","tel":"032-886-8240","addr":"경기도 안산시 단원구 대부북동 450-3번지","indutype":"유통업 비영리 - 농,축협 직영매장","category":"other"}]},{"lat":"37.252424837","long":"126.57543788","imageIndex":17,"items":[{"name":"섬데이 캔들","tel":"032-888-9960","addr":"경기도 안산시 단원구 대부북동 831번지 1층","indutype":"신변잡화 - 기타잡화","category":"other"}]},{"lat":"37.245289407","long":"126.58318724","imageIndex":17,"items":[{"name":"성보건축디자인","tel":"031-000-0000","addr":"경기도 안산시 단원구 대부북동 298번지","indutype":"건축자재 - 인테리어전문","category":"other"}]},{"lat":"37.264198631","long":"126.56976849","imageIndex":17,"items":[{"name":"성진종합판넬&건축","tel":"032-889-0806","addr":"경기도 안산시 단원구 대부북동 1805-1번지, 1806-27","indutype":"건축자재 - 기타건축자재","category":"other"}]},{"lat":"37.2428974703","long":"126.5845416515","imageIndex":17,"items":[{"name":"세명안경협동조합남대문안경","tel":"032-888-3200","addr":"경기도 안산시 단원구 대부북동 471-5번지","indutype":"도매 및 소매업 - 안경","category":"other"}]},{"lat":"37.2583701550","long":"126.5851324519","imageIndex":17,"items":[{"name":"세븐일레븐","tel":"032-883-0171","addr":"경기도 안산시 단원구 대부북동 23-1번지","indutype":"도매 및 소매업 - 편의점,담배","category":"other"}]},{"lat":"37.266231803","long":"126.56891132","imageIndex":17,"items":[{"name":"세븐일레븐대부도2호점","tel":"","addr":"경기도 안산시 단원구 대부북동 1826-27번지","indutype":"유통업 영리 - 편 의 점","category":"other"}]},{"lat":"37.258370155","long":"126.58513245","imageIndex":17,"items":[{"name":"세븐일레븐대부도북동점","tel":"","addr":"경기도 안산시 단원구 대부북동 23-1번지","indutype":"유통업 영리 - 편 의 점","category":"other"}]},{"lat":"37.274146238","long":"126.56985808","imageIndex":17,"items":[{"name":"세븐일레븐대부도점","tel":"031-1577-0711","addr":"경기도 안산시 단원구 대부북동 1857-15번지 1층","indutype":"유통업 영리 - 편 의 점","category":"other"}]},{"lat":"37.28620401","long":"126.57291263","imageIndex":17,"items":[{"name":"세븐일레븐대부도해솔점","tel":"031-1577-0711","addr":"경기도 안산시 단원구 대부북동 1848-112번지 , 1,2층","indutype":"유통업 영리 - 편 의 점","category":"other"}]},{"lat":"37.276453572","long":"126.55313504","imageIndex":17,"items":[{"name":"세븐일레븐안산구봉길점","tel":"","addr":"경기도 안산시 단원구 대부북동 1871-13번지","indutype":"유통업 영리 - 편 의 점","category":"other"}]},{"lat":"37.269425595","long":"126.57252326","imageIndex":17,"items":[{"name":"솟대그리고","tel":"031-888-3988","addr":"경기도 안산시 단원구 대부북동 1837-73번지","indutype":"문화.취미 - 화원","category":"other"}]},{"lat":"37.242842135","long":"126.58418131","imageIndex":17,"items":[{"name":"시선집중","tel":"02-1111-1111","addr":"경기도 안산시 단원구 대부북동 472-5번지","indutype":"의류 - 정장","category":"other"}]},{"lat":"37.2413979691","long":"126.5834680217","imageIndex":17,"items":[{"name":"시화건재","tel":"032-886-8236","addr":"경기도 안산시 단원구 대부북동 437-1번지","indutype":"도매 및 소매업 - 철물","category":"other"}]},{"lat":"37.258004465","long":"126.57358022","imageIndex":17,"items":[{"name":"신대부종합인테리어","tel":"070-8825-2698","addr":"경기도 안산시 단원구 대부북동 922번지","indutype":"건축자재 - 인테리어전문","category":"other"}]},{"lat":"37.252177957","long":"126.57693839","imageIndex":17,"items":[{"name":"신양아트","tel":"031-317-5771","addr":"경기도 안산시 단원구 대부북동 869-2번지","indutype":"신변잡화 - 기타잡화","category":"other"}]},{"lat":"37.283036562","long":"126.56910803","imageIndex":17,"items":[{"name":"씨유대부명소점","tel":"031-882-1332","addr":"경기도 안산시 단원구 대부북동 1850번지","indutype":"유통업 영리 - 편 의 점","category":"other"}]},{"lat":"37.285671888","long":"126.57276906","imageIndex":17,"items":[{"name":"씨유대부평안점","tel":"031-431-8533","addr":"경기도 안산시 단원구 대부북동 1845번지 104, 105호","indutype":"유통업 영리 - 편 의 점","category":"other"}]},{"lat":"37.269316041","long":"126.56966026","imageIndex":17,"items":[{"name":"씨유안산대부점","tel":"031-239-6693","addr":"경기도 안산시 단원구 대부북동 1837-18번지 101호","indutype":"유통업 영리 - 편 의 점","category":"other"}]},{"lat":"37.2432026582","long":"126.5842131278","imageIndex":17,"items":[{"name":"아씨미용실","tel":"032-883-2278","addr":"경기도 안산시 단원구 대부북동 470-12번지","indutype":"협회 및 단체, 수리 및 기타 개인서","category":"other"}]},{"lat":"37.243202658","long":"126.58421313","imageIndex":17,"items":[{"name":"아이텔","tel":"032-884-0107","addr":"경기도 안산시 단원구 대부북동 470-12번지 1층","indutype":"사무통신 - 통신기기","category":"other"}]},{"lat":"37.242173435","long":"126.58363278","imageIndex":17,"items":[{"name":"애견마트","tel":"032-3137-1088","addr":"경기도 안산시 단원구 대부북동 441-1번지","indutype":"문화.취미 - 애완동물","category":"other"}]},{"lat":"37.240732215","long":"126.57368946","imageIndex":17,"items":[{"name":"엠에스건설장비 주식회사","tel":"032-880-0438","addr":"경기도 안산시 단원구 대부북동 640-2번지 1층","indutype":"기타 - 기계공구","category":"other"}]},{"lat":"37.2427352091","long":"126.5845200079","imageIndex":17,"items":[{"name":"엣지","tel":"032-887-2561","addr":"경기도 안산시 단원구 대부북동 472-4번지","indutype":"도매 및 소매업 - 남녀옷","category":"other"}]},{"lat":"37.242735209","long":"126.58452001","imageIndex":17,"items":[{"name":"엣지","tel":"032-887-2561","addr":"경기도 안산시 단원구 대부북동 472-4번지","indutype":"의류 - 정장","category":"other"}]},{"lat":"37.239983539","long":"126.57846082","imageIndex":17,"items":[{"name":"열린이벤트기획","tel":"031-414-5669","addr":"경기도 안산시 단원구 대부북동 632-27번지","indutype":"용역 서비스 - 종합용역","category":"other"}]},{"lat":"37.266979222","long":"126.56879429","imageIndex":17,"items":[{"name":"영진종합철물건재","tel":"032-883-0989","addr":"경기도 안산시 단원구 대부북동 1826-23번지","indutype":"건축자재 - 목재·석재·철물","category":"other"}]},{"lat":"37.261059712","long":"126.56885081","imageIndex":17,"items":[{"name":"예석원","tel":"032-882-1858","addr":"경기도 안산시 단원구 대부북동 1403-3번지","indutype":"주방용구 - 주방용식기","category":"other"}]},{"lat":"37.245896572","long":"126.5791039","imageIndex":17,"items":[{"name":"옥련철물","tel":"032-886-7733","addr":"경기도 안산시 단원구 대부북동 187-1번지","indutype":"건축자재 - 목재·석재·철물","category":"other"}]},{"lat":"37.2431198930","long":"126.5837402361","imageIndex":17,"items":[{"name":"용인대석사 대부태권도","tel":"032-886-9696","addr":"경기도 안산시 단원구 대부북동 449-10번지","indutype":"예술, 스포츠 및 여가관련 서비스업","category":"other"}]},{"lat":"37.2477040433","long":"126.5781019359","imageIndex":17,"items":[{"name":"우명리테일-대부고등학교점","tel":"","addr":"경기도 안산시 단원구 대부북동 697-6번지","indutype":"도매 및 소매업 - 매점","category":"other"}]},{"lat":"37.262204441","long":"126.56896824","imageIndex":17,"items":[{"name":"우진샷시","tel":"032-888-0607","addr":"경기도 안산시 단원구 대부북동 1746번지","indutype":"용역 서비스 - 기타용역서비스","category":"other"}]},{"lat":"37.280668788","long":"126.56962903","imageIndex":17,"items":[{"name":"위드미안산대부점","tel":"02-6916-1500","addr":"경기도 안산시 단원구 대부북동 1854-112번지 101호","indutype":"유통업 영리 - 편 의 점","category":"other"}]},{"lat":"37.2604762343","long":"126.5597119130","imageIndex":17,"items":[{"name":"은재각","tel":"","addr":"경기도 안산시 단원구 대부북동 1678-6번지","indutype":"도매 및 소매업 - 전자상거래업","category":"other"}]},{"lat":"37.254511708","long":"126.57446798","imageIndex":17,"items":[{"name":"은혜","tel":"","addr":"경기도 안산시 단원구 대부북동 809-7번지","indutype":"의류 - 내의판매","category":"other"}]},{"lat":"37.241759743","long":"126.58640749","imageIndex":17,"items":[{"name":"이글스크린골프","tel":"032-886-0413","addr":"경기도 안산시 단원구 대부북동 526번지 2층","indutype":"회원제형태 - 레져업소","category":"other"},{"name":"정진스크린골프","tel":"031-886-0413","addr":"경기도 안산시 단원구 대부북동 526번지 2층","indutype":"회원제형태 - 레져업소","category":"other"},{"name":"코리아레포츠","tel":"031-1544-3438","addr":"경기도 안산시 단원구 대부북동 526번지 중앙의원 3층 305호","indutype":"레져용품 - 스포츠·레져용품","category":"other"}]},{"lat":"37.281117678","long":"126.56918669","imageIndex":17,"items":[{"name":"자월24시","tel":"032-881-5220","addr":"경기도 안산시 단원구 대부북동 1854-119","indutype":"레져용품 - 스포츠·레져용품","category":"other"}]},{"lat":"37.263449478","long":"126.56941203","imageIndex":17,"items":[{"name":"쟁이골건축","tel":"032-886-8304","addr":"경기도 안산시 단원구 대부북동 1799-1번지","indutype":"건축자재 - 인테리어전문","category":"other"}]},{"lat":"37.258506856","long":"126.58557133","imageIndex":17,"items":[{"name":"정연마린테크","tel":"031-882-1580","addr":"경기도 안산시 단원구 대부북동 23번지","indutype":"수리서비스 - 레져용품수리","category":"other"}]},{"lat":"37.274371283","long":"126.56980042","imageIndex":17,"items":[{"name":"정왕타일","tel":"032-885-6875","addr":"경기도 안산시 단원구 대부북동 1857-14번지","indutype":"건축자재 - 건축용 요업제품","category":"other"}]},{"lat":"37.2703096837","long":"126.5728226357","imageIndex":17,"items":[{"name":"제이엔제이","tel":"032-888-1226","addr":"경기도 안산시 단원구 대부북동 1161-20번지","indutype":"협회 및 단체, 수리 및 기타 개인서","category":"other"}]},{"lat":"37.240846437","long":"126.58293012","imageIndex":17,"items":[{"name":"제일농자재","tel":"032-886-0482","addr":"경기도 안산시 단원구 대부북동 431번지","indutype":"농업 - 기타농업관련","category":"other"}]},{"lat":"37.287254895","long":"126.5744854","imageIndex":17,"items":[{"name":"조이상사","tel":"032-883-2221","addr":"경기도 안산시 단원구 대부북동 1848-96 외비동,1848-97외3필지(전층)","indutype":"레져용품 - 스포츠·레져용품","category":"other"}]},{"lat":"37.2802805428","long":"126.5478013904","imageIndex":17,"items":[{"name":"종현농어촌체험 휴양마을","tel":"032-889-7009","addr":"경기도 안산시 단원구 대부북동 1870-37번지","indutype":"도매 및 소매업 - 잡화","category":"other"}]},{"lat":"37.258702851","long":"126.58493898","imageIndex":17,"items":[{"name":"주식회사대부렉카","tel":"032-885-4982","addr":"경기도 안산시 단원구 대부북동 23-2번지","indutype":"여행 - 렌터카","category":"other"}]},{"lat":"37.2612013348","long":"126.5608575016","imageIndex":17,"items":[{"name":"주흘","tel":"032-682-2141","addr":"경기도 안산시 단원구 대부북동 1665-1번지","indutype":"도매 및 소매업 - 반도체부품,매점,","category":"other"}]},{"lat":"37.242985739","long":"126.58402273","imageIndex":17,"items":[{"name":"중앙사","tel":"032-886-0090","addr":"경기도 안산시 단원구 대부북동 471-3번지","indutype":"서적문구 - 문구용품","category":"other"}]},{"lat":"37.2429857386","long":"126.5840227341","imageIndex":17,"items":[{"name":"중앙사","tel":"032-886-0090","addr":"경기도 안산시 단원구 대부북동 471-3번지","indutype":"도매 및 소매업 - 문구 점포(자기땅","category":"other"}]},{"lat":"37.2413476159","long":"126.5845164072","imageIndex":17,"items":[{"name":"지에스25 대부상동점","tel":"","addr":"경기도 안산시 단원구 대부북동 511번지","indutype":"도매 및 소매업 - 편의점","category":"other"}]},{"lat":"37.242790623","long":"126.58490289","imageIndex":17,"items":[{"name":"진흥농약","tel":"032-886-2738","addr":"경기도 안산시 단원구 대부북동 473-8번지","indutype":"농업 - 비료,사료,종자","category":"other"}]},{"lat":"37.2427906227","long":"126.5849028877","imageIndex":17,"items":[{"name":"진흥농약","tel":"032-886-2738","addr":"경기도 안산시 단원구 대부북동 473-8번지","indutype":"도매 및 소매업 - 농약 종묘 비료","category":"other"},{"name":"진흥농약","tel":"031-886-2738","addr":"경기도 안산시 단원구 대부북동 473-8번지","indutype":"도매 및 소매업 - 농약,종묘농자재","category":"other"}]},{"lat":"37.242932037","long":"126.58412446","imageIndex":17,"items":[{"name":"카라","tel":"032-888-3614","addr":"경기도 안산시 단원구 대부북동 471-6번지 1층","indutype":"신변잡화 - 기타잡화","category":"other"}]},{"lat":"37.2429320368","long":"126.5841244631","imageIndex":17,"items":[{"name":"카라","tel":"031-888-3614","addr":"경기도 안산시 단원구 대부북동 471-6번지","indutype":"도매 및 소매업 - 잡화","category":"other"}]},{"lat":"37.273504986","long":"126.56698669","imageIndex":17,"items":[{"name":"코코","tel":"","addr":"경기도 안산시 단원구 대부북동 1857-29번지","indutype":"의류 - 정장","category":"other"}]},{"lat":"37.261230489","long":"126.5687371","imageIndex":17,"items":[{"name":"태성엔지니어링","tel":"032-882-1170","addr":"경기도 안산시 단원구 대부북동 1402-1번지","indutype":"건축자재 - 보일러·펌프·샷시","category":"other"}]},{"lat":"37.260595266","long":"126.57243823","imageIndex":17,"items":[{"name":"토도리 도자세상","tel":"032-885-2322","addr":"경기도 안산시 단원구 대부북동 1308번지","indutype":"문화.취미 - 민예·공예품","category":"other"}]},{"lat":"37.271447309","long":"126.57098971","imageIndex":17,"items":[{"name":"토탈피싱","tel":"032-882-1259","addr":"경기도 안산시 단원구 대부북동 1161-1번지 2호","indutype":"레져용품 - 스포츠·레져용품","category":"other"}]},{"lat":"37.271010048","long":"126.57215346","imageIndex":17,"items":[{"name":"판다팜","tel":"032-890-4147","addr":"경기도 안산시 단원구 대부북동 1161-17번지 A동 일부","indutype":"신변잡화 - 기타잡화","category":"other"}]},{"lat":"37.243125146","long":"126.57763174","imageIndex":17,"items":[{"name":"패시브한옥","tel":"032-886-8494","addr":"경기도 안산시 단원구 대부북동 395-7번지","indutype":"용역 서비스 - 기타용역서비스","category":"other"}]},{"lat":"37.2424017165","long":"126.5844880408","imageIndex":17,"items":[{"name":"포도나무약국","tel":"032-884-3428","addr":"경기도 안산시 단원구 대부북동 501-6번지","indutype":"도매 및 소매업 - 양 약","category":"other"}]},{"lat":"37.243839942","long":"126.58352211","imageIndex":17,"items":[{"name":"한일사","tel":"032-886-5170","addr":"경기도 안산시 단원구 대부북동 305-3","indutype":"수리서비스 - 기타수리서비스","category":"other"}]},{"lat":"37.2679209393","long":"126.5750233608","imageIndex":17,"items":[{"name":"해신마린","tel":"032-889-5953","addr":"경기도 안산시 단원구 대부북동 1225-4번지","indutype":"제조업 - 보트수리제작","category":"other"}]},{"lat":"37.267920939","long":"126.57502336","imageIndex":17,"items":[{"name":"해신마린","tel":"032-889-5953","addr":"경기도 안산시 단원구 대부북동 1225-4번지","indutype":"레져용품 - 스포츠·레져용품","category":"other"}]},{"lat":"37.242097124","long":"126.58498561","imageIndex":17,"items":[{"name":"행복농기계","tel":"032-884-7956","addr":"경기도 안산시 단원구 대부북동 506번지","indutype":"농업 - 농기계","category":"other"}]},{"lat":"37.2834512290","long":"126.5691620275","imageIndex":17,"items":[{"name":"허브앤조이 대부도점","tel":"032-887-3977","addr":"경기도 안산시 단원구 대부북동 1851-1번지","indutype":"도매 및 소매업 - 허브용품","category":"other"}]},{"lat":"37.283451229","long":"126.56916203","imageIndex":17,"items":[{"name":"허브앤조이대부도점","tel":"032-887-3977","addr":"경기도 안산시 단원구 대부북동 1851-1번지","indutype":"신변잡화 - 기타잡화","category":"other"}]},{"lat":"37.243317915","long":"126.58368279","imageIndex":17,"items":[{"name":"형제사","tel":"032-886-1378","addr":"경기도 안산시 단원구 대부북동 449-2","indutype":"건축자재 - 조명기구","category":"other"}]},{"lat":"37.2616440415","long":"126.5684867209","imageIndex":17,"items":[{"name":"홍카페","tel":"","addr":"경기도 안산시 단원구 대부북동 1404-1번지","indutype":"도매 및 소매업 - 매점","category":"other"}]},{"lat":"37.274810545","long":"126.56918905","imageIndex":17,"items":[{"name":"황금철물","tel":"032-886-6222","addr":"경기도 안산시 단원구 대부북동 1856-172번지","indutype":"건축자재 - 목재·석재·철물","category":"other"}]},{"lat":"37.271621252","long":"126.5717441","imageIndex":17,"items":[{"name":"황금토목측량설계공사","tel":"032-886-1817","addr":"경기도 안산시 단원구 대부북동 1161-79번지 2층","indutype":"용역 서비스 - 사무서비스","category":"other"}]},{"lat":"37.270564614","long":"126.57107367","imageIndex":17,"items":[{"name":"히트피싱낚시마트","tel":"032-881-0772","addr":"경기도 안산시 단원구 대부북동 1837-1번지 2동","indutype":"레져용품 - 스포츠·레져용품","category":"other"}]},{"lat":"37.281891133","long":"126.55429794","imageIndex":17,"items":[{"name":"힐하우스","tel":"032-882-1485","addr":"경기도 안산시 단원구 대부북동 1870-154번지","indutype":"주방용구 - 주방용식기","category":"other"}]}]