[{"lat":"37.162341687","long":"127.57515026","imageIndex":4,"items":[{"name":"0심이치킨(상승대점)","tel":"031-641-9001","addr":"경기도 이천시 장호원읍 이황리 350-3번지","indutype":"일반휴게음식 - 스넥","category":"restaurant"},{"name":"HOLY MOLY Donuts & Coffee 홀리몰리","tel":"031-641-2351","addr":"경기도 이천시 장호원읍 이황리 350-3번지 1층","indutype":"일반휴게음식 - 서양음식","category":"restaurant"},{"name":"만리장성","tel":"031-642-8255","addr":"경기도 이천시 장호원읍 이황리 350-3번지","indutype":"일반휴게음식 - 중국식","category":"restaurant"}]},{"lat":"37.152009534","long":"127.5783143","imageIndex":4,"items":[{"name":"강남불고기","tel":"031-641-7191","addr":"경기도 이천시 장호원읍 이황리 430번지 1층","indutype":"일반휴게음식 - 일반한식","category":"restaurant"},{"name":"이황부페","tel":"031-641-7191","addr":"경기도 이천시 장호원읍 이황리 430번지","indutype":"일반휴게음식 - 일반한식","category":"restaurant"}]},{"lat":"37.162090494","long":"127.57492321","imageIndex":4,"items":[{"name":"꼬꼬맘치킨","tel":"031-641-2001","addr":"경기도 이천시 장호원읍 이황리 349-1번지","indutype":"일반휴게음식 - 일반한식","category":"restaurant"},{"name":"처가집식당","tel":"031-641-6671","addr":"경기도 이천시 장호원읍 이황리 349-1번지","indutype":"일반휴게음식 - 일반한식","category":"restaurant"}]},{"lat":"37.161621539","long":"127.57500974","imageIndex":4,"items":[{"name":"꽃담은소갈비","tel":"031-641-8994","addr":"경기도 이천시 장호원읍 이황리 408-3번지","indutype":"일반휴게음식 - 일반한식","category":"restaurant"},{"name":"카페(CAFE) 1986","tel":"031-642-3945","addr":"경기도 이천시 장호원읍 이황리 408-3번지","indutype":"일반휴게음식 - 서양음식","category":"restaurant"}]},{"lat":"37.148203614","long":"127.58089687","imageIndex":4,"items":[{"name":"내집식당","tel":"031-641-0257","addr":"경기도 이천시 장호원읍 이황리 468-14번지","indutype":"일반휴게음식 - 일반한식","category":"restaurant"}]},{"lat":"37.167817425","long":"127.57567568","imageIndex":4,"items":[{"name":"덕이네순대국","tel":"031-642-6620","addr":"경기도 이천시 장호원읍 이황리 335-9번지","indutype":"일반휴게음식 - 일반한식","category":"restaurant"}]},{"lat":"37.162790288","long":"127.57367882","imageIndex":4,"items":[{"name":"라이프F&B","tel":"031-641-0746","addr":"경기도 이천시 장호원읍 이황리 696번지 2층","indutype":"일반휴게음식 - 서양음식","category":"restaurant"},{"name":"쌀통닭","tel":"031-641-9279","addr":"경기도 이천시 장호원읍 이황리 696","indutype":"일반휴게음식 - 스넥","category":"restaurant"},{"name":"은가비식당","tel":"","addr":"경기도 이천시 장호원읍 이황리 696번지","indutype":"일반휴게음식 - 일반한식","category":"restaurant"},{"name":"이화원","tel":"031-641-0746","addr":"경기도 이천시 장호원읍 이황리 696번지 1층","indutype":"일반휴게음식 - 중국식","category":"restaurant"}]},{"lat":"37.142456218","long":"127.59344771","imageIndex":4,"items":[{"name":"양평해장국(장호원)","tel":"031-641-5550","addr":"경기도 이천시 장호원읍 이황리 117-7번지","indutype":"일반휴게음식 - 일반한식","category":"restaurant"}]},{"lat":"37.142210705","long":"127.593896","imageIndex":4,"items":[{"name":"자연뜰","tel":"031-641-2283","addr":"경기도 이천시 장호원읍 이황리 117-5번지","indutype":"일반휴게음식 - 일반한식","category":"restaurant"}]},{"lat":"37.168176075","long":"127.57975415","imageIndex":4,"items":[{"name":"종가집 남도가든","tel":"031-643-6374","addr":"경기도 이천시 장호원읍 이황리 318번지 A동 1층","indutype":"일반휴게음식 - 일반한식","category":"restaurant"}]},{"lat":"37.146094569","long":"127.58470777","imageIndex":4,"items":[{"name":"카페다원","tel":"031-111-1111","addr":"경기도 이천시 장호원읍 이황리 531-1번지 1층","indutype":"일반휴게음식 - 서양음식","category":"restaurant"}]},{"lat":"37.167202459","long":"127.57614392","imageIndex":4,"items":[{"name":"트럭한식부페","tel":"031-643-3338","addr":"경기도 이천시 장호원읍 이황리 333-1번지 1층","indutype":"일반휴게음식 - 일반한식","category":"restaurant"}]},{"lat":"37.165563826","long":"127.58878623","imageIndex":4,"items":[{"name":"팜스토리카페","tel":"031-111-1111","addr":"경기도 이천시 장호원읍 이황리 254-17번지 2동 1층","indutype":"일반휴게음식 - 서양음식","category":"restaurant"}]},{"lat":"37.164285236","long":"127.57570532","imageIndex":4,"items":[{"name":"현대식당","tel":"031-641-7343","addr":"경기도 이천시 장호원읍 이황리 358-5번지","indutype":"일반휴게음식 - 일반한식","category":"restaurant"}]}]