[{"lat":"37.237304119","long":"127.31203618","imageIndex":7,"items":[{"name":"(주)베스트푸드","tel":"02-2252-6866","addr":"경기도 용인시 처인구 양지면 제일리449-1","indutype":"음료식품 - 기타음료식품","category":"food"}]},{"lat":"37.236104809","long":"127.29828283","imageIndex":7,"items":[{"name":"(주)참옻나라","tel":"031-338-2733","addr":"경기도 용인시 처인구 양지면 양지리100","indutype":"음료식품 - 기타음료식품","category":"food"}]},{"lat":"37.233382216","long":"127.28408476","imageIndex":7,"items":[{"name":"경희공방","tel":"031-321-1212","addr":"경기도 용인시 처인구 양지면 양지리 578-5번지 401호","indutype":"음료식품 - 기타음료식품","category":"food"}]},{"lat":"37.23418709","long":"127.2828369","imageIndex":7,"items":[{"name":"고당도","tel":"031-336-3898","addr":"경기도 용인시 처인구 양지면 양지리 568-1번지 101호","indutype":"음료식품 - 농·축·수산품","category":"food"}]},{"lat":"37.219470034","long":"127.31648135","imageIndex":7,"items":[{"name":"광산휴게소","tel":"031-336-4208","addr":"경기도 용인시 처인구 양지면 평창리667-1","indutype":"음료식품 - 기타음료식품","category":"food"}]},{"lat":"37.230634381","long":"127.28772553","imageIndex":7,"items":[{"name":"그린푸드 시스템","tel":"031-1670-9203","addr":"경기도 용인시 처인구 양지면 남곡리 124-7번지 보현판넬 가동","indutype":"음료식품 - 정육점","category":"food"},{"name":"용인처인상하목장DS대리점","tel":"031-000-0000","addr":"경기도 용인시 처인구 양지면 남곡리 124-7번지 보현판넬","indutype":"음료식품 - 기타음료식품","category":"food"}]},{"lat":"37.256692649","long":"127.27992173","imageIndex":7,"items":[{"name":"금호샵","tel":"031-334-5271","addr":"경기도 용인시 처인구 양지면 대대리 668-2번지","indutype":"음료식품 - 기타음료식품","category":"food"}]},{"lat":"37.23052362","long":"127.32064008","imageIndex":7,"items":[{"name":"기름이야기","tel":"031-322-1940","addr":"경기도 용인시 처인구 양지면 평창리 477-1번지","indutype":"음료식품 - 기타음료식품","category":"food"}]},{"lat":"37.227580511","long":"127.2514312","imageIndex":7,"items":[{"name":"김량축산센타","tel":"031-335-4391","addr":"경기도 용인시 처인구 양지면 송문리 504-15번지","indutype":"음료식품 - 정육점","category":"food"}]},{"lat":"37.215000612","long":"127.31317316","imageIndex":7,"items":[{"name":"남경씨푸드","tel":"031-000-0000","addr":"경기도 용인시 처인구 양지면 평창리 661-11번지 용인청소년수련원","indutype":"음료식품 - 기타음료식품","category":"food"}]},{"lat":"37.220500065","long":"127.2791471","imageIndex":7,"items":[{"name":"농업회사법인 주식회사 웰리스푸드","tel":"031-1588-2218","addr":"경기도 용인시 처인구 양지면 남곡리 606번지","indutype":"음료식품 - 기타음료식품","category":"food"}]},{"lat":"37.233382992","long":"127.2985652","imageIndex":7,"items":[{"name":"농업회사법인주식회사술샘","tel":"070-4218-5225","addr":"경기도 용인시 처인구 양지면 양지리 114-14번지","indutype":"음료식품 - 기타음료식품","category":"food"}]},{"lat":"37.259495829","long":"127.24670003","imageIndex":7,"items":[{"name":"농업회사법인한농원 주식회사","tel":"031-111-1111","addr":"경기도 용인시 처인구 양지면 주북리 648번지 1층 일부","indutype":"음료식품 - 농·축·수산품","category":"food"}]},{"lat":"37.235133164","long":"127.2828404","imageIndex":7,"items":[{"name":"델리퀸 양지점","tel":"031-338-7737","addr":"경기도 용인시 처인구 양지면 양지리 619-7번지 금빛마을","indutype":"음료식품 - 정육점","category":"food"},{"name":"종로떡백화점","tel":"031-338-1110","addr":"경기도 용인시 처인구 양지면 양지리 619-7번지 금빛 상가 102호","indutype":"음료식품 - 제과점","category":"food"}]},{"lat":"37.233751057","long":"127.32333561","imageIndex":7,"items":[{"name":"도야기농원","tel":"031-1111-1111","addr":"경기도 용인시 처인구 양지면 평창리 173번지","indutype":"음료식품 - 농·축·수산품","category":"food"}]},{"lat":"37.22754973","long":"127.31403585","imageIndex":7,"items":[{"name":"딜라의 정원","tel":"","addr":"경기도 용인시 처인구 양지면 평창리 359-5번지","indutype":"음료식품 - 제과점","category":"food"}]},{"lat":"37.234777865","long":"127.28448436","imageIndex":7,"items":[{"name":"뚜레쥬르 용인양지(2)","tel":"031-335-3949","addr":"경기도 용인시 처인구 양지면 양지리 590-1번지 밝은미소치과 가동 1층","indutype":"음료식품 - 제과점","category":"food"}]},{"lat":"37.2285509","long":"127.31364558","imageIndex":7,"items":[{"name":"메이드네트웍스 주식회사","tel":"031-323-4958","addr":"경기도 용인시 처인구 양지면 평창리 313-111번지 지하","indutype":"음료식품 - 기타음료식품","category":"food"}]},{"lat":"37.248942458","long":"127.2434312","imageIndex":7,"items":[{"name":"명가","tel":"031-322-2157","addr":"경기도 용인시 처인구 양지면 주북리 933-1번지 1층","indutype":"음료식품 - 농·축·수산품","category":"food"}]},{"lat":"37.22186245","long":"127.27836337","imageIndex":7,"items":[{"name":"명가어찬","tel":"031-321-9757","addr":"경기도 용인시 처인구 양지면 남곡리611-2","indutype":"음료식품 - 농·축·수산품","category":"food"}]},{"lat":"37.248109805","long":"127.25389934","imageIndex":7,"items":[{"name":"명품수산","tel":"031-761-0580","addr":"경기도 용인시 처인구 양지면 주북리 367-1","indutype":"음료식품 - 농·축·수산품","category":"food"}]},{"lat":"37.231057147","long":"127.28425643","imageIndex":7,"items":[{"name":"미락","tel":"031-338-1101","addr":"경기도 용인시 처인구 양지면 남곡리 149번지 센텀빌 A동 102호","indutype":"음료식품 - 기타음료식품","category":"food"}]},{"lat":"37.232747636","long":"127.2857051","imageIndex":7,"items":[{"name":"배스킨라빈스 용인양지점","tel":"031-338-5334","addr":"경기도 용인시 처인구 양지면 남곡리 130-3번지 1층","indutype":"음료식품 - 제과점","category":"food"},{"name":"한결축산","tel":"031-335-1006","addr":"경기도 용인시 처인구 양지면 남곡리 130-3번지","indutype":"음료식품 - 정육점","category":"food"}]},{"lat":"37.254881409","long":"127.23836639","imageIndex":7,"items":[{"name":"백년수산","tel":"031-332-0092","addr":"경기도 용인시 처인구 양지면 주북리 1110-9번지 휴먼시아 1층 108호","indutype":"음료식품 - 농·축·수산품","category":"food"}]},{"lat":"37.268128666","long":"127.29042588","imageIndex":7,"items":[{"name":"베리가든","tel":"031-332-3822","addr":"경기도 용인시 처인구 양지면 정수리 241-1번지","indutype":"음료식품 - 농·축·수산품","category":"food"}]},{"lat":"37.235722571","long":"127.2850626","imageIndex":7,"items":[{"name":"보비드림","tel":"031-338-7756","addr":"경기도 용인시 처인구 양지면 양지리 465-2번지 1층","indutype":"음료식품 - 기타음료식품","category":"food"}]},{"lat":"37.240054568","long":"127.31799787","imageIndex":7,"items":[{"name":"블루밍팜","tel":"031-321-7163","addr":"경기도 용인시 처인구 양지면 제일리 134-5번지","indutype":"음료식품 - 농·축·수산품","category":"food"}]},{"lat":"37.224356677","long":"127.31189318","imageIndex":7,"items":[{"name":"샐러드림","tel":"031-335-7827","addr":"경기도 용인시 처인구 양지면 평창리 325번지","indutype":"음료식품 - 기타음료식품","category":"food"}]},{"lat":"37.224801153","long":"127.27778815","imageIndex":7,"items":[{"name":"서울우유양자대리점","tel":"031-321-6565","addr":"경기도 용인시 처인구 양지면 남곡리 341-16번지 E동 1층 102호","indutype":"음료식품 - 기타음료식품","category":"food"}]},{"lat":"37.249213069","long":"127.23423477","imageIndex":7,"items":[{"name":"성주리 된장","tel":"031-334-0187","addr":"경기도 용인시 처인구 양지면 주북리 1117 9/6","indutype":"음료식품 - 기타음료식품","category":"food"}]},{"lat":"37.241772254","long":"127.25545613","imageIndex":7,"items":[{"name":"송다영농조합법인","tel":"031-338-4677","addr":"경기도 용인시 처인구 양지면 주북리 470-1","indutype":"음료식품 - 기타음료식품","category":"food"}]},{"lat":"37.225661018","long":"127.26001088","imageIndex":7,"items":[{"name":"송문한우도매센터","tel":"031-323-1259","addr":"경기도 용인시 처인구 양지면 송문리 139-1번지","indutype":"음료식품 - 정육점","category":"food"}]},{"lat":"37.246573848","long":"127.26005936","imageIndex":7,"items":[{"name":"수 F&B","tel":"","addr":"경기도 용인시 처인구 양지면 주북리 273-1번지","indutype":"음료식품 - 정육점","category":"food"},{"name":"진일유통","tel":"031-322-8301","addr":"경기도 용인시 처인구 양지면 주북리 273-1","indutype":"음료식품 - 기타음료식품","category":"food"}]},{"lat":"37.224801896","long":"127.25729248","imageIndex":7,"items":[{"name":"심마니협회경매장","tel":"031-337-3389","addr":"경기도 용인시 처인구 양지면 송문리 151번지","indutype":"건강식품 - 인삼제품","category":"food"}]},{"lat":"37.233915004","long":"127.27975948","imageIndex":7,"items":[{"name":"아삭아삭청과","tel":"031-321-3897","addr":"경기도 용인시 처인구 양지면 양지리 637-4번지 1층","indutype":"음료식품 - 농·축·수산품","category":"food"}]},{"lat":"37.212606944","long":"127.27917465","imageIndex":7,"items":[{"name":"아침유통","tel":"","addr":"경기도 용인시 처인구 양지면 남곡리 721-5번지","indutype":"음료식품 - 기타음료식품","category":"food"}]},{"lat":"37.233971842","long":"127.28620551","imageIndex":7,"items":[{"name":"양지건강원","tel":"031-338-6466","addr":"경기도 용인시 처인구 양지면 양지리 477-3","indutype":"음료식품 - 기타음료식품","category":"food"}]},{"lat":"37.23730401","long":"127.26337489","imageIndex":7,"items":[{"name":"양지골프연습장장매점","tel":"031-378-0447","addr":"경기도 용인시 처인구 양지면 주북리 160-2번지","indutype":"음료식품 - 기타음료식품","category":"food"}]},{"lat":"37.231052502","long":"127.28994699","imageIndex":7,"items":[{"name":"양지농원","tel":"031-338-3315","addr":"경기도 용인시 처인구 양지면 양지리493-34","indutype":"음료식품 - 농·축·수산품","category":"food"}]},{"lat":"37.222024332","long":"127.31822706","imageIndex":7,"items":[{"name":"양지단비사슴나라","tel":"031-334-4241","addr":"경기도 용인시 처인구 양지면 평창리671-1","indutype":"음료식품 - 농·축·수산품","category":"food"}]},{"lat":"37.239079195","long":"127.26737046","imageIndex":7,"items":[{"name":"양지바른 보호작업장","tel":"031-338-8844","addr":"경기도 용인시 처인구 양지면 주북리 141-4번지","indutype":"음료식품 - 기타음료식품","category":"food"},{"name":"양지바른보호작업장","tel":"031-338-8844","addr":"경기도 용인시 처인구 양지면 주북리 141-4번지","indutype":"음료식품 - 기타음료식품","category":"food"}]},{"lat":"37.230268178","long":"127.28638321","imageIndex":7,"items":[{"name":"양지상회","tel":"031-321-2937","addr":"경기도 용인시 처인구 양지면 남곡리 141-6번지 대한빌라 5동 201호","indutype":"음료식품 - 농·축·수산품","category":"food"}]},{"lat":"37.23549349","long":"127.29772826","imageIndex":7,"items":[{"name":"양지유황천남탕매점","tel":"031-321-8888","addr":"경기도 용인시 처인구 양지면 양지리 99번지","indutype":"음료식품 - 기타음료식품","category":"food"},{"name":"양지유황천매점","tel":"031-321-8888","addr":"경기도 용인시 처인구 양지면 양지리 99번지","indutype":"음료식품 - 기타음료식품","category":"food"}]},{"lat":"37.231217847","long":"127.28864047","imageIndex":7,"items":[{"name":"양지청과","tel":"031-333-3333","addr":"경기도 용인시 처인구 양지면 양지리 492-17번지","indutype":"음료식품 - 농·축·수산품","category":"food"}]},{"lat":"37.253408554","long":"127.24045837","imageIndex":7,"items":[{"name":"억셉트(ACCEPT)커피 팩토리","tel":"031-334-0411","addr":"경기도 용인시 처인구 양지면 주북리 780-2번지","indutype":"음료식품 - 기타음료식품","category":"food"}]},{"lat":"37.231825787","long":"127.27925603","imageIndex":7,"items":[{"name":"에프엠미트","tel":"032-321-7193","addr":"경기도 용인시 처인구 양지면 남곡리 199번지","indutype":"음료식품 - 정육점","category":"food"}]},{"lat":"37.247102634","long":"127.26948361","imageIndex":7,"items":[{"name":"영동건강 주식회사","tel":"031-329-2032","addr":"경기도 용인시 처인구 양지면 주북리 51번지","indutype":"건강식품 - 기타건강식품","category":"food"}]},{"lat":"37.236051107","long":"127.301731","imageIndex":7,"items":[{"name":"예사랑","tel":"032-542-6685","addr":"경기도 용인시 처인구 양지면 제일리 608-2번지","indutype":"음료식품 - 기타음료식품","category":"food"}]},{"lat":"37.234081177","long":"127.28569882","imageIndex":7,"items":[{"name":"예찬축산장터","tel":"031-321-5988","addr":"경기도 용인시 처인구 양지면 양지리 468-3","indutype":"음료식품 - 정육점","category":"food"}]},{"lat":"37.249329307","long":"127.25242685","imageIndex":7,"items":[{"name":"오투파낙스","tel":"031-262-5666","addr":"경기도 용인시 처인구 양지면 주북리 364-24번지","indutype":"건강식품 - 인삼제품","category":"food"}]},{"lat":"37.247518583","long":"127.27281","imageIndex":7,"items":[{"name":"용인종로학원","tel":"031-333-2233","addr":"경기도 용인시 처인구 양지면 주북리 59-1번지","indutype":"음료식품 - 기타음료식품","category":"food"}]},{"lat":"37.228499141","long":"127.29867008","imageIndex":7,"items":[{"name":"우영식품","tel":"031-334-9333","addr":"경기도 용인시 처인구 양지면 제일리 662-6번지","indutype":"음료식품 - 제과점","category":"food"}]},{"lat":"37.205806835","long":"127.27801213","imageIndex":7,"items":[{"name":"은이골 농원","tel":"","addr":"경기도 용인시 처인구 양지면 남곡리 759번지","indutype":"음료식품 - 기타음료식품","category":"food"}]},{"lat":"37.235830156","long":"127.28528839","imageIndex":7,"items":[{"name":"이천떡집","tel":"031-338-1101","addr":"경기도 용인시 처인구 양지면 양지리 463번지 대성2차빌라","indutype":"음료식품 - 제과점","category":"food"}]},{"lat":"37.233884858","long":"127.2810891","imageIndex":7,"items":[{"name":"장충왕족발","tel":"031-338-1601","addr":"경기도 용인시 처인구 양지면 양지리 563-2번지 외3필지","indutype":"음료식품 - 기타음료식품","category":"food"}]},{"lat":"37.265602705","long":"127.2953654","imageIndex":7,"items":[{"name":"정수와인","tel":"031-339-6562","addr":"경기도 용인시 처인구 양지면 정수리123-1","indutype":"음료식품 - 주류 판매점","category":"food"}]},{"lat":"37.234108396","long":"127.28562004","imageIndex":7,"items":[{"name":"조령한우축산","tel":"031-328-7661","addr":"경기도 용인시 처인구 양지면 양지리 468-5번지 1층","indutype":"음료식품 - 정육점","category":"food"}]},{"lat":"37.214248097","long":"127.29000724","imageIndex":7,"items":[{"name":"조이푸드","tel":"","addr":"경기도 용인시 처인구 양지면 남곡리 34-1번지 양지파인리조트스키장내","indutype":"음료식품 - 기타음료식품","category":"food"}]},{"lat":"37.234550953","long":"127.28137328","imageIndex":7,"items":[{"name":"종합건강원","tel":"031-334-3515","addr":"경기도 용인시 처인구 양지면 양지리 633-6번지 나동 101호","indutype":"건강식품 - 기타건강식품","category":"food"}]},{"lat":"37.22452707","long":"127.25092541","imageIndex":7,"items":[{"name":"주식회사 가이아팜스","tel":"031-333-8056","addr":"경기도 용인시 처인구 양지면 송문리 452-1","indutype":"건강식품 - 기타건강식품","category":"food"}]},{"lat":"37.257970624","long":"127.33320013","imageIndex":7,"items":[{"name":"주식회사 대산컴퍼니","tel":"031-111-1111","addr":"경기도 용인시 처인구 양지면 식금리 64-8번지","indutype":"음료식품 - 기타음료식품","category":"food"}]},{"lat":"37.232666324","long":"127.31792204","imageIndex":7,"items":[{"name":"주식회사 드림앤하비","tel":"031-000-0000","addr":"경기도 용인시 처인구 양지면 평창리 233-3번지","indutype":"음료식품 - 기타음료식품","category":"food"}]},{"lat":"37.253354063","long":"127.24067236","imageIndex":7,"items":[{"name":"주식회사 빈스테이블","tel":"031-714-8938","addr":"경기도 용인시 처인구 양지면 주북리 780-1번지","indutype":"음료식품 - 기타음료식품","category":"food"}]},{"lat":"37.247328524","long":"127.26920263","imageIndex":7,"items":[{"name":"주식회사 신일씨푸드","tel":"031-333-9240","addr":"경기도 용인시 처인구 양지면 주북리 67-4번지","indutype":"음료식품 - 농·축·수산품","category":"food"}]},{"lat":"37.223549329","long":"127.26151353","imageIndex":7,"items":[{"name":"주식회사 에스아이씨에이","tel":"031-475-5308","addr":"경기도 용인시 처인구 양지면 송문리 126번지","indutype":"음료식품 - 기타음료식품","category":"food"}]},{"lat":"37.233691164","long":"127.27526239","imageIndex":7,"items":[{"name":"주식회사핸즈굿","tel":"070-7123-2510","addr":"경기도 용인시 처인구 양지면 양지리 663-2번지","indutype":"음료식품 - 제과점","category":"food"}]},{"lat":"37.25494334","long":"127.32661533","imageIndex":7,"items":[{"name":"창호식품","tel":"031-335-8126","addr":"경기도 용인시 처인구 양지면 추계리25","indutype":"음료식품 - 기타음료식품","category":"food"}]},{"lat":"37.225714913","long":"127.25165043","imageIndex":7,"items":[{"name":"천안우리호두과자","tel":"031-335-0041","addr":"경기도 용인시 처인구 양지면 송문리 427번지","indutype":"음료식품 - 기타음료식품","category":"food"}]},{"lat":"37.23394164","long":"127.27992862","imageIndex":7,"items":[{"name":"충무수산직판장","tel":"031-338-5456","addr":"경기도 용인시 처인구 양지면 양지리 637-6번지","indutype":"음료식품 - 농·축·수산품","category":"food"}]},{"lat":"37.239444595","long":"127.31355506","imageIndex":7,"items":[{"name":"티제이알","tel":"","addr":"경기도 용인시 처인구 양지면 제일리 453-10번지 2층 210호","indutype":"음료식품 - 기타음료식품","category":"food"}]},{"lat":"37.234689368","long":"127.28380789","imageIndex":7,"items":[{"name":"파리바게트(용인양지점)","tel":"031-337-3984","addr":"경기도 용인시 처인구 양지면 양지리 592-4번지 외3필지","indutype":"음료식품 - 제과점","category":"food"}]},{"lat":"37.218613687","long":"127.31319922","imageIndex":7,"items":[{"name":"펜션매점","tel":"02-6340-5385","addr":"경기도 용인시 처인구 양지면 평창리 680번지","indutype":"음료식품 - 기타음료식품","category":"food"}]},{"lat":"37.266073841","long":"127.28311272","imageIndex":7,"items":[{"name":"푸드가","tel":"031-322-7889","addr":"경기도 용인시 처인구 양지면 대대리 843번지 가동","indutype":"음료식품 - 기타음료식품","category":"food"}]},{"lat":"37.230720134","long":"127.2895288","imageIndex":7,"items":[{"name":"한결수산","tel":"031-338-4211","addr":"경기도 용인시 처인구 양지면 양지리 493-23번지","indutype":"음료식품 - 농·축·수산품","category":"food"}]},{"lat":"37.228106412","long":"127.2705886","imageIndex":7,"items":[{"name":"한국전통발효식품협동조합","tel":"031-321-7800","addr":"경기도 용인시 처인구 양지면 양지리 790-3번지","indutype":"음료식품 - 기타음료식품","category":"food"}]},{"lat":"37.234386582","long":"127.28609437","imageIndex":7,"items":[{"name":"한일정육점","tel":"031-338-3737","addr":"경기도 용인시 처인구 양지면 양지리448","indutype":"음료식품 - 정육점","category":"food"}]},{"lat":"37.21694619","long":"127.3202226","imageIndex":7,"items":[{"name":"햇빛농원","tel":"","addr":"경기도 용인시 처인구 양지면 평창리 640-11번지","indutype":"음료식품 - 농·축·수산품","category":"food"}]},{"lat":"37.233522677","long":"127.28564039","imageIndex":7,"items":[{"name":"형제축산","tel":"031-334-3717","addr":"경기도 용인시 처인구 양지면 양지리 473-2번지 1층","indutype":"음료식품 - 정육점","category":"food"}]},{"lat":"37.230025664","long":"127.28980788","imageIndex":7,"items":[{"name":"효담정육점","tel":"031-333-0082","addr":"경기도 용인시 처인구 양지면 양지리 138-16번지","indutype":"음료식품 - 정육점","category":"food"}]}]