[{"lat":"37.518369201","long":"126.8160488","imageIndex":7,"items":[{"name":"금강산할인마트","tel":"032-673-2843","addr":"경기도 부천시 작동 33-9번지","indutype":"유통업 영리 - 슈퍼마켓","category":"mart"}]},{"lat":"37.511121257","long":"126.81354463","imageIndex":7,"items":[{"name":"민아슈퍼","tel":"032-673-5777","addr":"경기도 부천시 작동 360-1번지","indutype":"유통업 영리 - 슈퍼마켓","category":"mart"}]},{"lat":"37.506952657","long":"126.80982292","imageIndex":7,"items":[{"name":"봄날마트","tel":"032-676-2672","addr":"경기도 부천시 작동 428-5번지 102호","indutype":"유통업 영리 - 슈퍼마켓","category":"mart"}]},{"lat":"37.515782712","long":"126.80459704","imageIndex":7,"items":[{"name":"영광슈퍼","tel":"032-681-4345","addr":"경기도 부천시 작동 64-8번지","indutype":"유통업 영리 - 슈퍼마켓","category":"mart"}]},{"lat":"37.518202893","long":"126.81915989","imageIndex":7,"items":[{"name":"원마트","tel":"032-683-7204","addr":"경기도 부천시 작동 35-7번지","indutype":"유통업 영리 - 슈퍼마켓","category":"mart"}]},{"lat":"37.510314757","long":"126.81068516","imageIndex":7,"items":[{"name":"전원마트","tel":"032-673-9475","addr":"경기도 부천시 작동 341-10번지 1층","indutype":"유통업 영리 - 슈퍼마켓","category":"mart"}]},{"lat":"37.518508788","long":"126.81887635","imageIndex":7,"items":[{"name":"코사할인마트 작동점","tel":"02-1111-1111","addr":"경기도 부천시 작동 30-10번지 1층 지층","indutype":"유통업 영리 - 슈퍼마켓","category":"mart"}]},{"lat":"37.515038426","long":"126.80671417","imageIndex":7,"items":[{"name":"한아름슈퍼","tel":"032-674-5628","addr":"경기도 부천시 작동 70-18","indutype":"유통업 영리 - 슈퍼마켓","category":"mart"}]},{"lat":"37.518561239","long":"126.81784686","imageIndex":7,"items":[{"name":"한아름슈퍼","tel":"032-673-0240","addr":"경기도 부천시 작동 31-9번지","indutype":"유통업 영리 - 슈퍼마켓","category":"mart"}]},{"lat":"37.515019692","long":"126.8062844","imageIndex":7,"items":[{"name":"형제슈퍼","tel":"032-683-0104","addr":"경기도 부천시 작동 70-29번지 한맥프라임빌 3동 102호","indutype":"유통업 영리 - 슈퍼마켓","category":"mart"}]}]