[{"lat":"37.680821168","long":"126.91333736","imageIndex":17,"items":[{"name":"(사)민족토속문화유산 샤먼스테이 명신굿당","tel":"031-0-0000","addr":"경기도 고양시 덕양구 선유동 367-4번지","indutype":"","category":"other"}]},{"lat":"37.678962995","long":"126.91050562","imageIndex":17,"items":[{"name":"LP스포츠","tel":"031-0-0000","addr":"경기도 고양시 덕양구 선유동 359-4번지","indutype":"","category":"other"}]},{"lat":"37.67896128","long":"126.90834046","imageIndex":17,"items":[{"name":"고양식용꽃협동조합","tel":"031-962-9790","addr":"경기도 고양시 덕양구 선유동 354-1번지","indutype":"","category":"other"}]},{"lat":"37.680547619","long":"126.90914332","imageIndex":17,"items":[{"name":"금란농원","tel":"","addr":"경기도 고양시 덕양구 선유동 331-11번지","indutype":"","category":"other"},{"name":"금란농원","tel":"","addr":"경기도 고양시 덕양구 선유동","indutype":"문화.취미 - 화원","category":"other"}]},{"lat":"37.698768555","long":"126.91358791","imageIndex":17,"items":[{"name":"꿈팜","tel":"","addr":"경기도 고양시 덕양구 선유동 166번지","indutype":"","category":"other"},{"name":"청림원","tel":"031-963-7219","addr":"경기도 고양시 덕양구 선유동 166번지","indutype":"","category":"other"}]},{"lat":"37.676936944","long":"126.91194775","imageIndex":17,"items":[{"name":"들길따라서","tel":"031-969-0166","addr":"경기도 고양시 덕양구 선유동 375번지","indutype":"","category":"other"},{"name":"모래내식물원","tel":"031-969-8373","addr":"경기도 고양시 덕양구 선유동 375번지","indutype":"","category":"other"},{"name":"모래내식물원","tel":"031-969-8373","addr":"경기도 고양시 덕양구 선유동 375번지","indutype":"문화.취미 - 화원","category":"other"},{"name":"모아플러스","tel":"031-969-5835","addr":"경기도 고양시 덕양구 선유동 375번지","indutype":"문화.취미 - 화원","category":"other"},{"name":"산마루농원","tel":"031-000-0000","addr":"경기도 고양시 덕양구 선유동 375번지","indutype":"문화.취미 - 화원","category":"other"},{"name":"형제분재조경","tel":"031-963-4594","addr":"경기도 고양시 덕양구 선유동 375번지","indutype":"","category":"other"},{"name":"홍농원","tel":"031-969-8515","addr":"경기도 고양시 덕양구 선유동 375번지","indutype":"문화.취미 - 화원","category":"other"},{"name":"홍농원","tel":"031-969-8515","addr":"경기도 고양시 덕양구 선유동 375번지","indutype":"","category":"other"}]},{"lat":"37.687712246","long":"126.91163983","imageIndex":17,"items":[{"name":"마가목농원","tel":"031-901-2332","addr":"경기도 고양시 덕양구 선유동 265-5번지","indutype":"","category":"other"}]},{"lat":"37.691235891","long":"126.91278063","imageIndex":17,"items":[{"name":"무공해농원","tel":"031-964-3590","addr":"경기도 고양시 덕양구 선유동 254-2번지","indutype":"","category":"other"}]},{"lat":"37.67765427","long":"126.90758263","imageIndex":17,"items":[{"name":"미산농원","tel":"031-826-9982","addr":"경기도 고양시 덕양구 선유동 397-2번지","indutype":"","category":"other"},{"name":"미산농원","tel":"031-826-9982","addr":"경기도 고양시 덕양구 선유동","indutype":"문화.취미 - 화원","category":"other"}]},{"lat":"37.676711211","long":"126.91131324","imageIndex":17,"items":[{"name":"발산꽃집","tel":"031-964-0178","addr":"경기도 고양시 덕양구 선유동 374-2번지","indutype":"문화.취미 - 화원","category":"other"},{"name":"발산꽃집","tel":"031-964-0178","addr":"경기도 고양시 덕양구 선유동 374-2번지","indutype":"","category":"other"},{"name":"형제대부꽃화분","tel":"031-963-0664","addr":"경기도 고양시 덕양구 선유동 374-2번지","indutype":"","category":"other"}]},{"lat":"37.686602697","long":"126.90989528","imageIndex":17,"items":[{"name":"백두산","tel":"031-963-7783","addr":"경기도 고양시 덕양구 선유동 271번지","indutype":"","category":"other"}]},{"lat":"37.691820408","long":"126.91134001","imageIndex":17,"items":[{"name":"산울안민속농원","tel":"031-963-7635","addr":"경기도 고양시 덕양구 선유동 244-3번지","indutype":"","category":"other"}]},{"lat":"37.691576866","long":"126.9109775","imageIndex":17,"items":[{"name":"산울안민속농원","tel":"031-962-7635","addr":"경기도 고양시 덕양구 선유동 244-6","indutype":"","category":"other"},{"name":"산울안민속농원","tel":"031-962-7635","addr":"경기도 고양시 덕양구 선유동","indutype":"문화.취미 - 화원","category":"other"}]},{"lat":"37.696514553","long":"126.91150432","imageIndex":17,"items":[{"name":"선우벌꿀작목반","tel":"","addr":"경기도 고양시 덕양구 선유동 146-1번지","indutype":"","category":"other"},{"name":"이노테크(INO-Tec)","tel":"031-966-0248","addr":"경기도 고양시 덕양구 선유동 146-1번지","indutype":"서적문구 - 문구용품","category":"other"},{"name":"이노테크(INO-Tec)","tel":"031-966-0248","addr":"경기도 고양시 덕양구 선유동 146-1번지","indutype":"","category":"other"},{"name":"허니영농조합법인","tel":"031-976-9818","addr":"경기도 고양시 덕양구 선유동 146-1번지","indutype":"","category":"other"}]},{"lat":"37.675104649","long":"126.90772191","imageIndex":17,"items":[{"name":"수풀농원","tel":"031-964-2409","addr":"경기도 고양시 덕양구 선유동 415-7번지","indutype":"회원제형태 - 기타4","category":"other"},{"name":"수풀농원","tel":"031-964-2409","addr":"경기도 고양시 덕양구 선유동 415-7번지","indutype":"","category":"other"}]},{"lat":"37.679851766","long":"126.90652557","imageIndex":17,"items":[{"name":"슈기플라워","tel":"031-965-8835","addr":"경기도 고양시 덕양구 선유동 336-1번지","indutype":"","category":"other"}]},{"lat":"37.679050499","long":"126.9072521","imageIndex":17,"items":[{"name":"스마일농원","tel":"031-962-6621","addr":"경기도 고양시 덕양구 선유동 351-1번지","indutype":"","category":"other"}]},{"lat":"37.681185517","long":"126.90692061","imageIndex":17,"items":[{"name":"씨드seed","tel":"070-4148-8597","addr":"경기도 고양시 덕양구 선유동 322-5","indutype":"","category":"other"}]},{"lat":"37.686349301","long":"126.90847847","imageIndex":17,"items":[{"name":"씨알의 소리","tel":"02-2659-8700","addr":"경기도 고양시 덕양구 선유동 294번지","indutype":"","category":"other"}]},{"lat":"37.68927018","long":"126.91069691","imageIndex":17,"items":[{"name":"안젤라산채원","tel":"031-969-0686","addr":"경기도 고양시 덕양구 선유동 257-1번지","indutype":"","category":"other"},{"name":"은혜동산산채원","tel":"","addr":"경기도 고양시 덕양구 선유동 257-1번지","indutype":"문화.취미 - 화원","category":"other"},{"name":"은혜동산산채원","tel":"","addr":"경기도 고양시 덕양구 선유동 257-1번지","indutype":"","category":"other"}]},{"lat":"37.693875329","long":"126.91227855","imageIndex":17,"items":[{"name":"원당아스콘","tel":"031-964-5951","addr":"경기도 고양시 덕양구 선유동 134번지","indutype":"","category":"other"}]},{"lat":"37.688632445","long":"126.91322593","imageIndex":17,"items":[{"name":"유진농원(아로니농장)","tel":"","addr":"경기도 고양시 덕양구 선유동 산57-4","indutype":"","category":"other"}]},{"lat":"37.677988274","long":"126.90838704","imageIndex":17,"items":[{"name":"은지블루농원","tel":"","addr":"경기도 고양시 덕양구 선유동 395번지","indutype":"","category":"other"}]},{"lat":"37.676546394","long":"126.90796945","imageIndex":17,"items":[{"name":"태광농원","tel":"031-111-1111","addr":"경기도 고양시 덕양구 선유동","indutype":"문화.취미 - 화원","category":"other"},{"name":"태광농원","tel":"031-111-1111","addr":"경기도 고양시 덕양구 선유동 406번지","indutype":"","category":"other"}]},{"lat":"37.688349594","long":"126.90866867","imageIndex":17,"items":[{"name":"트리안그린","tel":"031-964-7844","addr":"경기도 고양시 덕양구 선유동 291-3번지","indutype":"문화.취미 - 민예·공예품","category":"other"},{"name":"트리안그린","tel":"031-964-7844","addr":"경기도 고양시 덕양구 선유동 291-3번지","indutype":"","category":"other"}]},{"lat":"37.67968987","long":"126.90686586","imageIndex":17,"items":[{"name":"한국농자재","tel":"031-969-7708","addr":"경기도 고양시 덕양구 선유동 336-2번지","indutype":"","category":"other"}]},{"lat":"37.680320591","long":"126.90692172","imageIndex":17,"items":[{"name":"한성","tel":"","addr":"경기도 고양시 덕양구 선유동 326번지","indutype":"신변잡화 - 기타잡화","category":"other"},{"name":"한성","tel":"","addr":"경기도 고양시 덕양구 선유동 326번지","indutype":"","category":"other"}]},{"lat":"37.679380447","long":"126.90313672","imageIndex":17,"items":[{"name":"한솔사","tel":"","addr":"경기도 고양시 덕양구 선유동 470-8번지","indutype":"","category":"other"}]},{"lat":"37.695322625","long":"126.90813828","imageIndex":17,"items":[{"name":"한아름","tel":"02-2123-4538","addr":"경기도 고양시 덕양구 선유동 214-4번지","indutype":"","category":"other"},{"name":"한아름","tel":"02-2123-4538","addr":"경기도 고양시 덕양구 선유동 214-4번지","indutype":"용역 서비스 - 사무서비스","category":"other"}]},{"lat":"37.682212162","long":"126.9063638","imageIndex":17,"items":[{"name":"한울타리버섯농장","tel":"031-962-6177","addr":"경기도 고양시 덕양구 선유동 310-2번지","indutype":"","category":"other"}]},{"lat":"37.674520579","long":"126.90967232","imageIndex":17,"items":[{"name":"해원","tel":"031-969-4011","addr":"경기도 고양시 덕양구 선유동 414-9","indutype":"","category":"other"},{"name":"해원","tel":"031-969-4011","addr":"경기도 고양시 덕양구 선유동","indutype":"문화.취미 - 애완동물","category":"other"}]},{"lat":"37.680209007","long":"126.90275019","imageIndex":17,"items":[{"name":"햇빛농원","tel":"","addr":"경기도 고양시 덕양구 선유동 473-1번지","indutype":"문화.취미 - 화원","category":"other"},{"name":"햇빛농원","tel":"","addr":"경기도 고양시 덕양구 선유동 473-1번지","indutype":"","category":"other"}]},{"lat":"37.680625776","long":"126.90552698","imageIndex":17,"items":[{"name":"화림농원","tel":"02-389-6245","addr":"경기도 고양시 덕양구 선유동 314번지","indutype":"","category":"other"},{"name":"화림농원","tel":"02-389-6245","addr":"경기도 고양시 덕양구 선유동 314번지","indutype":"문화.취미 - 화원","category":"other"}]}]