[{"lat":"37.660113357","long":"127.24322157","imageIndex":13,"items":[{"name":"1253헤어","tel":"070-7543-1226","addr":"경기도 남양주시 호평동 716-2번지 102호","indutype":"보건위생 - 미용원","category":"beauty"}]},{"lat":"37.654030028","long":"127.24847139","imageIndex":13,"items":[{"name":"JJ속눈썹엔네일","tel":"031-594-7797","addr":"경기도 남양주시 호평동 660-2번지 씨에이치리베로쓰리 1층 108호","indutype":"보건위생 - 피부미용실","category":"beauty"},{"name":"구피샵호평점","tel":"031-511-5502","addr":"경기도 남양주시 호평동 660-2번지 CH리베로3 1층 102호","indutype":"보건위생 - 미용원","category":"beauty"},{"name":"젤리헤어","tel":"","addr":"경기도 남양주시 호평동 660-2번지 106호(호평동CH리베로3)","indutype":"보건위생 - 미용원","category":"beauty"}]},{"lat":"37.6618651","long":"127.24573188","imageIndex":13,"items":[{"name":"J코스메틱","tel":"","addr":"경기도 남양주시 호평동 613번지 호평마을대주파크빌 1207동 103호","indutype":"보건위생 - 화장품","category":"beauty"}]},{"lat":"37.655664012","long":"127.24691291","imageIndex":13,"items":[{"name":"Nail's Candle(네일스캔들)","tel":"070-4112-5062","addr":"경기도 남양주시 호평동 649-3번지 민빌딩 1층 101호","indutype":"보건위생 - 피부미용실","category":"beauty"}]},{"lat":"37.660611735","long":"127.23732997","imageIndex":13,"items":[{"name":"Nion Beauty(나이언뷰티)","tel":"070-7518-8515","addr":"경기도 남양주시 호평동 569-25번지 훼밀리타운 18동 B01호","indutype":"보건위생 - 화장품","category":"beauty"}]},{"lat":"37.670451853","long":"127.2498063","imageIndex":13,"items":[{"name":"momo(모모)","tel":"","addr":"경기도 남양주시 호평동 724번지 호평파라곤 109동 1003호","indutype":"보건위생 - 화장품","category":"beauty"}]},{"lat":"37.670336127","long":"127.24913718","imageIndex":13,"items":[{"name":"가윤헤어","tel":"031-591-0531","addr":"경기도 남양주시 호평동 724번지 호평파라곤 202동 4호","indutype":"보건위생 - 미용원","category":"beauty"},{"name":"젤예쁜","tel":"","addr":"경기도 남양주시 호평동 724번지 호평파라곤 1층 3호","indutype":"보건위생 - 화장품","category":"beauty"}]},{"lat":"37.65596839","long":"127.24785449","imageIndex":13,"items":[{"name":"가이앤가이","tel":"031-594-7411","addr":"경기도 남양주시 호평동 666-1번지 상가 101호","indutype":"보건위생 - 미용원","category":"beauty"}]},{"lat":"37.654417595","long":"127.24403046","imageIndex":13,"items":[{"name":"가희헤어","tel":"031-511-2536","addr":"경기도 남양주시 호평동 640-2번지 CH리베로빌딩 120호","indutype":"보건위생 - 미용원","category":"beauty"},{"name":"리베로안경원","tel":"031-559-8266","addr":"경기도 남양주시 호평동 640-2번지 CH리베로상가 3층303-1","indutype":"보건위생 - 안경","category":"beauty"},{"name":"에뛰드하우스 호평점","tel":"031-595-5448","addr":"경기도 남양주시 호평동 640-2번지 CH리베로 102호","indutype":"보건위생 - 화장품","category":"beauty"},{"name":"연세마이에스테틱","tel":"031-559-8552","addr":"경기도 남양주시 호평동 640-2번지 CH리베로원 4층 401호","indutype":"보건위생 - 화장품","category":"beauty"},{"name":"오렌즈안경원남양주점","tel":"031-591-1020","addr":"경기도 남양주시 호평동 640-2번지 CH리베로1 106호","indutype":"보건위생 - 안경","category":"beauty"},{"name":"토니모리","tel":"031-511-6477","addr":"경기도 남양주시 호평동 640-2번지 CH리베로빌딩 101호","indutype":"보건위생 - 화장품","category":"beauty"},{"name":"히어링컴퍼니(Hearing Company)","tel":"031-511-6661","addr":"경기도 남양주시 호평동 640-2번지 CH리베로빌딩 603호","indutype":"보건위생 - 의료용품","category":"beauty"}]},{"lat":"37.658665196","long":"127.24644675","imageIndex":13,"items":[{"name":"강남미용실","tel":"031-592-0523","addr":"경기도 남양주시 호평동 175-17번지 1층","indutype":"보건위생 - 미용원","category":"beauty"}]},{"lat":"37.65730416","long":"127.24672562","imageIndex":13,"items":[{"name":"거꾸로가는시간","tel":"","addr":"경기도 남양주시 호평동 184-5번지 2층","indutype":"보건위생 - 피부미용실","category":"beauty"},{"name":"에프리(EPRIS)네일","tel":"031-548-7473","addr":"경기도 남양주시 호평동 184-5번지 101호","indutype":"보건위생 - 피부미용실","category":"beauty"}]},{"lat":"37.654029231","long":"127.24449382","imageIndex":13,"items":[{"name":"고언니네일","tel":"031-559-0502","addr":"경기도 남양주시 호평동 641-1번지 샤르망메디칼프라자 203호","indutype":"보건위생 - 피부미용실","category":"beauty"},{"name":"늘헤어","tel":"031-595-0509","addr":"경기도 남양주시 호평동 641-1번지 샤르망메디칼프라자 110호","indutype":"보건위생 - 미용원","category":"beauty"},{"name":"리본 테라피","tel":"031-000-0000","addr":"경기도 남양주시 호평동 641-1번지 샤르망메디칼프라자 203호","indutype":"보건위생 - 피부미용실","category":"beauty"},{"name":"마이슈가왁싱","tel":"","addr":"경기도 남양주시 호평동 641-1번지 샤르망메디칼프라자 5층 507호","indutype":"보건위생 - 피부미용실","category":"beauty"},{"name":"바닐라뷰티","tel":"031-559-0502","addr":"경기도 남양주시 호평동 641-1번지 샤르망메디칼프라자 2층 203호일부","indutype":"보건위생 - 피부미용실","category":"beauty"},{"name":"본타이","tel":"","addr":"경기도 남양주시 호평동 641-1번지 5층 508호, 509호","indutype":"보건위생 - 화장품","category":"beauty"},{"name":"심리상담센터 에이레네","tel":"031-511-2020","addr":"경기도 남양주시 호평동 641-1번지 샤르망메디칼프라자 608호","indutype":"보건위생 - 기타대인서비스","category":"beauty"},{"name":"아리따움 평내 호평역점","tel":"031-592-8760","addr":"경기도 남양주시 호평동 641-1번지 샤르망메디칼프라자108호~118호 108호","indutype":"보건위생 - 화장품","category":"beauty"}]},{"lat":"37.66019823","long":"127.24577178","imageIndex":13,"items":[{"name":"골드네일","tel":"070-8973-3009","addr":"경기도 남양주시 호평동 615번지 108호","indutype":"보건위생 - 화장품","category":"beauty"}]},{"lat":"37.656196493","long":"127.24647269","imageIndex":13,"items":[{"name":"굿힐링","tel":"031-593-6988","addr":"경기도 남양주시 호평동 166번지 대용빌딩 401호","indutype":"보건위생 - 화장품","category":"beauty"}]},{"lat":"37.654004679","long":"127.24328121","imageIndex":13,"items":[{"name":"그랑프리안경콘택트","tel":"031-559-9801","addr":"경기도 남양주시 호평동 638-1번지 늘봄타워 104호","indutype":"보건위생 - 안경","category":"beauty"},{"name":"백토힐링하우스","tel":"031-559-0627","addr":"경기도 남양주시 호평동 638-1번지 늘봄타워 601호","indutype":"보건위생 - 사우나","category":"beauty"},{"name":"클럽밸런스5 호평점","tel":"031-593-2879","addr":"경기도 남양주시 호평동 638-1번지 늘봄타워 404호","indutype":"보건위생 - 의료용품","category":"beauty"}]},{"lat":"37.65502426","long":"127.24694481","imageIndex":13,"items":[{"name":"그레이스네일","tel":"031-511-4145","addr":"경기도 남양주시 호평동 649-8번지 1층","indutype":"보건위생 - 피부미용실","category":"beauty"}]},{"lat":"37.656613877","long":"127.24061516","imageIndex":13,"items":[{"name":"그린헤어","tel":"031-591-3630","addr":"경기도 남양주시 호평동 619 우미이노스빌 상가-103","indutype":"보건위생 - 미용원","category":"beauty"}]},{"lat":"37.655164373","long":"127.2445315","imageIndex":13,"items":[{"name":"금단비 시피유","tel":"031-592-3033","addr":"경기도 남양주시 호평동 642-1번지 홍조프라자 406호","indutype":"보건위생 - 화장품","category":"beauty"},{"name":"뉴튼보청기남양주지사","tel":"031-595-3305","addr":"경기도 남양주시 호평동 642-1번지 홍조프라자 709호","indutype":"보건위생 - 의료용품","category":"beauty"},{"name":"동그라미아동심리상담센터","tel":"031-559-9323","addr":"경기도 남양주시 호평동 642-1번지 홍조프라자 1001호","indutype":"보건위생 - 기타대인서비스","category":"beauty"},{"name":"서정희 피부미소","tel":"031-595-7712","addr":"경기도 남양주시 호평동 642-1번지 홍조프라자 207호","indutype":"보건위생 - 피부미용실","category":"beauty"},{"name":"아이통곡 모유육아상담실","tel":"031-592-6072","addr":"경기도 남양주시 호평동 642-1번지 홍조프라자 502호","indutype":"보건위생 - 기타대인서비스","category":"beauty"},{"name":"지우헤어","tel":"031-591-7001","addr":"경기도 남양주시 호평동 642-1번지 홍조프라자 111호","indutype":"보건위생 - 미용원","category":"beauty"}]},{"lat":"37.659356989","long":"127.24738964","imageIndex":13,"items":[{"name":"김윤경헤어갤러리","tel":"031-511-1291","addr":"경기도 남양주시 호평동 617-4번지 로제카운티 103호","indutype":"보건위생 - 미용원","category":"beauty"},{"name":"김윤경헤어갤러리","tel":"031-511-1291","addr":"경기도 남양주시 호평동 617-4번지 로제카운티 103호","indutype":"보건위생 - 미용원","category":"beauty"},{"name":"삐까번쩍","tel":"031-511-9302","addr":"경기도 남양주시 호평동 617-4번지 로제카운티 5층 505호","indutype":"보건위생 - 화장품","category":"beauty"}]},{"lat":"37.656194615","long":"127.24299363","imageIndex":13,"items":[{"name":"까미헤어","tel":"031-591-0207","addr":"경기도 남양주시 호평동 622번지 호평두산위브파크 105호","indutype":"보건위생 - 미용원","category":"beauty"},{"name":"블루클럽","tel":"031-511-8278","addr":"경기도 남양주시 호평동 622번지 상가동 1층 117-1호","indutype":"보건위생 - 이용원","category":"beauty"},{"name":"에스네일","tel":"031-595-0662","addr":"경기도 남양주시 호평동 622번지 호평두산위브파크 104호","indutype":"보건위생 - 피부미용실","category":"beauty"},{"name":"조시아헤어","tel":"031-591-0359","addr":"경기도 남양주시 호평동 622번지 호평두산위브파크 상가 108-1호","indutype":"보건위생 - 미용원","category":"beauty"},{"name":"헤어바오바오","tel":"","addr":"경기도 남양주시 호평동 622번지 호평두산위브파크 1층 122호","indutype":"보건위생 - 미용원","category":"beauty"},{"name":"헤어박스","tel":"031-510-6956","addr":"경기도 남양주시 호평동 622번지 호평두산위브파크 1층 124호","indutype":"보건위생 - 미용원","category":"beauty"}]},{"lat":"37.655003243","long":"127.24402103","imageIndex":13,"items":[{"name":"꼼꼼뷰티","tel":"031-592-9962","addr":"경기도 남양주시 호평동 640번지 메인시네마타워 122호","indutype":"보건위생 - 피부미용실","category":"beauty"},{"name":"남정우산후조리원","tel":"031-559-9900","addr":"경기도 남양주시 호평동 640번지 메인시네마타워 603호","indutype":"보건위생 - 기타대인서비스","category":"beauty"},{"name":"다나뷰티","tel":"031-511-2223","addr":"경기도 남양주시 호평동 640번지 메인시네마타워 4층 407호","indutype":"보건위생 - 화장품","category":"beauty"},{"name":"도도래쉬","tel":"031-511-3638","addr":"경기도 남양주시 호평동 640번지 메인시네마타워 2층204호일부호","indutype":"보건위생 - 피부미용실","category":"beauty"},{"name":"리소헤어","tel":"031-559-0525","addr":"경기도 남양주시 호평동 640번지 메인시네마타워 304호","indutype":"보건위생 - 미용원","category":"beauty"},{"name":"박준뷰티랩호평점","tel":"031-594-3723","addr":"경기도 남양주시 호평동 640번지 호평메인씨네마타워 205호","indutype":"보건위생 - 미용원","category":"beauty"},{"name":"봉수아 헤어샵","tel":"031-595-9020","addr":"경기도 남양주시 호평동 640번지 호평메인씨네마타워 136호","indutype":"보건위생 - 미용원","category":"beauty"},{"name":"뷰티풀아이엔네일","tel":"031-594-2254","addr":"경기도 남양주시 호평동 640번지 메인시네마 132호","indutype":"보건위생 - 피부미용실","category":"beauty"},{"name":"스타키보청기 남양주센터","tel":"031-511-6667","addr":"경기도 남양주시 호평동 640번지 호평메인씨네마타워 206호","indutype":"보건위생 - 의료용품","category":"beauty"},{"name":"시네마안경","tel":"031-593-1223","addr":"경기도 남양주시 호평동 640번지 메인시네 마동 121호","indutype":"보건위생 - 안경","category":"beauty"},{"name":"아이디헤어 호평점","tel":"031-511-7345","addr":"경기도 남양주시 호평동 640번지 메인시네마타워 203호","indutype":"보건위생 - 미용원","category":"beauty"},{"name":"으뜸50안경호평점","tel":"031-559-5050","addr":"경기도 남양주시 호평동 640번지 메인시네마타워 203호","indutype":"보건위생 - 안경","category":"beauty"},{"name":"이니스프리 호평점","tel":"031-511-3411","addr":"경기도 남양주시 호평동 640번지 호평메인씨네마타워 1층 17호","indutype":"보건위생 - 화장품","category":"beauty"},{"name":"황실샵","tel":"031-511-9911","addr":"경기도 남양주시 호평동 640번지 호평메인씨네마타워 704호","indutype":"보건위생 - 미용원","category":"beauty"}]},{"lat":"37.663447325","long":"127.24741439","imageIndex":13,"items":[{"name":"끌림헤어","tel":"031-111-1111","addr":"경기도 남양주시 호평동 231-1번지 2층","indutype":"보건위생 - 미용원","category":"beauty"},{"name":"눈설피부","tel":"031-591-1367","addr":"경기도 남양주시 호평동 231-1번지 2층","indutype":"보건위생 - 피부미용실","category":"beauty"},{"name":"더 숲","tel":"","addr":"경기도 남양주시 호평동 231-1번지 302-2호","indutype":"보건위생 - 미용원","category":"beauty"},{"name":"안경매니져 호평점","tel":"062-464-8665","addr":"경기도 남양주시 호평동 231-1번지 2층 202-1호","indutype":"보건위생 - 안경","category":"beauty"}]},{"lat":"37.661558744","long":"127.25008284","imageIndex":13,"items":[{"name":"나미가헤어","tel":"031-592-5537","addr":"경기도 남양주시 호평동 273-11번지 해오름파크빌 102동 101호","indutype":"보건위생 - 미용원","category":"beauty"},{"name":"오땡큐호평동점","tel":"070-4649-1101","addr":"경기도 남양주시 호평동 273-11번지 해오름파크빌 102동 104호","indutype":"보건위생 - 미용원","category":"beauty"}]},{"lat":"37.655809413","long":"127.25489137","imageIndex":13,"items":[{"name":"낭만살롱","tel":"031-511-2649","addr":"경기도 남양주시 호평동 674-6번지 지층","indutype":"보건위생 - 미용원","category":"beauty"}]},{"lat":"37.654000645","long":"127.24525298","imageIndex":13,"items":[{"name":"네일리","tel":"","addr":"경기도 남양주시 호평동 652-7번지 1층","indutype":"보건위생 - 피부미용실","category":"beauty"},{"name":"르네셀앤네일","tel":"031-592-2841","addr":"경기도 남양주시 호평동 652-7번지 1층 103호","indutype":"보건위생 - 피부미용실","category":"beauty"},{"name":"쁘띠쁘띠","tel":"031-595-1709","addr":"경기도 남양주시 호평동 652-7번지 1층 102호","indutype":"보건위생 - 피부미용실","category":"beauty"}]},{"lat":"37.655059383","long":"127.24738688","imageIndex":13,"items":[{"name":"네일바이린","tel":"031-592-0817","addr":"경기도 남양주시 호평동 651-4번지 104호","indutype":"보건위생 - 피부미용실","category":"beauty"}]},{"lat":"37.655751406","long":"127.24821642","imageIndex":13,"items":[{"name":"네일스퀘어","tel":"031-594-4142","addr":"경기도 남양주시 호평동 666-5번지 103호","indutype":"보건위생 - 피부미용실","category":"beauty"}]},{"lat":"37.657747827","long":"127.2456618","imageIndex":13,"items":[{"name":"다정뷰티살롱","tel":"031-594-1136","addr":"경기도 남양주시 호평동 213-1번지 5층","indutype":"보건위생 - 피부미용실","category":"beauty"},{"name":"솜씨헤어","tel":"031-594-6997","addr":"경기도 남양주시 호평동 213-1번지 우성빌딩 1층","indutype":"보건위생 - 미용원","category":"beauty"}]},{"lat":"37.660414525","long":"127.25007905","imageIndex":13,"items":[{"name":"댄디보이","tel":"031-592-7715","addr":"경기도 남양주시 호평동 616번지 호평마을중흥S-CLASS105호","indutype":"보건위생 - 미용원","category":"beauty"}]},{"lat":"37.659636005","long":"127.24752655","imageIndex":13,"items":[{"name":"더끌림피부관리실","tel":"031-559-0676","addr":"경기도 남양주시 호평동 617-3번지 테마프라자 706호","indutype":"보건위생 - 피부미용실","category":"beauty"},{"name":"아인뷰티","tel":"","addr":"경기도 남양주시 호평동 617-3번지 테마프라자 2층 202호","indutype":"보건위생 - 피부미용실","category":"beauty"},{"name":"탐헤어","tel":"031-559-0355","addr":"경기도 남양주시 호평동 617-3번지 테마프라자 1층 111호","indutype":"보건위생 - 미용원","category":"beauty"},{"name":"헤어201","tel":"031-559-4433","addr":"경기도 남양주시 호평동 617-3번지 테마프라자 113호","indutype":"보건위생 - 미용원","category":"beauty"}]},{"lat":"37.659420286","long":"127.24289069","imageIndex":13,"items":[{"name":"더데이헤어","tel":"031-593-5118","addr":"경기도 남양주시 호평동 716-10번지 103호","indutype":"보건위생 - 미용원","category":"beauty"}]},{"lat":"37.656053087","long":"127.24610958","imageIndex":13,"items":[{"name":"더예쁜네일","tel":"070-8151-3238","addr":"경기도 남양주시 호평동 168-27번지 2층 일부","indutype":"보건위생 - 피부미용실","category":"beauty"}]},{"lat":"37.655058396","long":"127.24786284","imageIndex":13,"items":[{"name":"데일리(DAILY)","tel":"031-528-6263","addr":"경기도 남양주시 호평동 650-9번지 102호","indutype":"보건위생 - 피부미용실","category":"beauty"}]},{"lat":"37.655277591","long":"127.24202743","imageIndex":13,"items":[{"name":"델라왁싱","tel":"","addr":"경기도 남양주시 호평동 629-10번지 1층 일부","indutype":"보건위생 - 피부미용실","category":"beauty"}]},{"lat":"37.654030135","long":"127.24405187","imageIndex":13,"items":[{"name":"듀딤","tel":"031-511-2520","addr":"경기도 남양주시 호평동 641번지 에이스프라자 506동 508호","indutype":"보건위생 - 피부미용실","category":"beauty"},{"name":"스타일리스트 클럽 더 헤어","tel":"031-593-4080","addr":"경기도 남양주시 호평동 641번지 에이스프라자 3층 1호 ,10,11호","indutype":"보건위생 - 미용원","category":"beauty"},{"name":"시그니아 독일보청기 남양주점","tel":"031-591-1050","addr":"경기도 남양주시 호평동 641번지 에이스프라자 3층 302호","indutype":"보건위생 - 의료용품","category":"beauty"},{"name":"약손명가에스테틱 (남양주호평점)","tel":"031-594-4033","addr":"경기도 남양주시 호평동 641번지 에이스프라자 303호","indutype":"보건위생 - 피부미용실","category":"beauty"},{"name":"어반옴므","tel":"031-591-5006","addr":"경기도 남양주시 호평동 641번지 에이스프라자 5층 503,504호","indutype":"보건위생 - 미용원","category":"beauty"},{"name":"일진아리미노","tel":"070-4402-1302","addr":"경기도 남양주시 호평동 641번지 하르방프라자 105호","indutype":"보건위생 - 미용재료","category":"beauty"},{"name":"주식회사 더헤어","tel":"031-593-4080","addr":"경기도 남양주시 호평동 641번지 에이스프라자 3층 1,10,11호","indutype":"보건위생 - 미용원","category":"beauty"},{"name":"포스헤어모드","tel":"031-593-7750","addr":"경기도 남양주시 호평동 641번지 에이스프라자 110호","indutype":"보건위생 - 미용원","category":"beauty"},{"name":"호평언어심리상담센터","tel":"031-511-9928","addr":"경기도 남양주시 호평동 53-6 에이스프라자6층4,5호","indutype":"보건위생 - 기타대인서비스","category":"beauty"}]},{"lat":"37.655722816","long":"127.25324788","imageIndex":13,"items":[{"name":"드라마헤어","tel":"031-592-0302","addr":"경기도 남양주시 호평동 671 효성백년가약 상가-112","indutype":"보건위생 - 미용원","category":"beauty"}]},{"lat":"37.659887992","long":"127.24766338","imageIndex":13,"items":[{"name":"디오메디케어","tel":"031-516-3399","addr":"경기도 남양주시 호평동 617-2번지 메이플카운티 2층 219호","indutype":"보건위생 - 의료용품","category":"beauty"}]},{"lat":"37.655579905","long":"127.24400023","imageIndex":13,"items":[{"name":"라미헤어","tel":"031-591-2377","addr":"경기도 남양주시 호평동 639번지 평프라자 302호","indutype":"보건위생 - 미용원","category":"beauty"},{"name":"렌즈미 호평점","tel":"031-593-9339","addr":"경기도 남양주시 호평동 639번지 호평프라자 105호","indutype":"보건위생 - 안경","category":"beauty"}]},{"lat":"37.661812673","long":"127.24493838","imageIndex":13,"items":[{"name":"라엘르뷰티","tel":"","addr":"경기도 남양주시 호평동 613번지 호평마을대주파크빌 1208동 603호","indutype":"보건위생 - 화장품","category":"beauty"}]},{"lat":"37.655532023","long":"127.24538261","imageIndex":13,"items":[{"name":"라움헤어","tel":"031-591-0073","addr":"경기도 남양주시 호평동 645-18번지 1층","indutype":"보건위생 - 미용원","category":"beauty"}]},{"lat":"37.654942256","long":"127.24300093","imageIndex":13,"items":[{"name":"루미가넷","tel":"031-511-0446","addr":"경기도 남양주시 호평동 637번지 3층","indutype":"보건위생 - 피부미용실","category":"beauty"},{"name":"이가자헤어비스","tel":"031-592-2859","addr":"경기도 남양주시 호평동 637번지 1층 E MART","indutype":"보건위생 - 미용원","category":"beauty"}]},{"lat":"37.656181487","long":"127.25363473","imageIndex":13,"items":[{"name":"마리꼬","tel":"070-7555-7876","addr":"경기도 남양주시 호평동 671번지 효성마을효성백년가약 2211동 1103호","indutype":"보건위생 - 화장품","category":"beauty"}]},{"lat":"37.65960875","long":"127.24325395","imageIndex":13,"items":[{"name":"멋진남자","tel":"031-591-5110","addr":"경기도 남양주시 호평동 716-6번지","indutype":"보건위생 - 미용원","category":"beauty"},{"name":"블링블링","tel":"031-592-3982","addr":"경기도 남양주시 호평동 716-6번지 1층 103호","indutype":"보건위생 - 화장품","category":"beauty"}]},{"lat":"37.653996592","long":"127.2428279","imageIndex":13,"items":[{"name":"모유나무","tel":"070-4922-1261","addr":"경기도 남양주시 호평동 638번지 성보빌딩 1002호","indutype":"보건위생 - 피부미용실","category":"beauty"},{"name":"토리헤어","tel":"031-511-6765","addr":"경기도 남양주시 호평동 638번지 성보빌딩 202호","indutype":"보건위생 - 미용원","category":"beauty"}]},{"lat":"37.655168413","long":"127.24694528","imageIndex":13,"items":[{"name":"미래코스메틱","tel":"031-591-5072","addr":"경기도 남양주시 호평동 649-7번지 101호","indutype":"보건위생 - 화장품","category":"beauty"}]},{"lat":"37.656780799","long":"127.23824719","imageIndex":13,"items":[{"name":"바비","tel":"031-559-0789","addr":"경기도 남양주시 호평동 551-16번지 삼우아파트타운빌라 104동 302호","indutype":"보건위생 - 화장품","category":"beauty"}]},{"lat":"37.655166981","long":"127.24763655","imageIndex":13,"items":[{"name":"벨라뷰티샵","tel":"031-559-7971","addr":"경기도 남양주시 호평동 650-11번지 1층","indutype":"보건위생 - 피부미용실","category":"beauty"}]},{"lat":"37.657253254","long":"127.24519556","imageIndex":13,"items":[{"name":"블루밍네일","tel":"","addr":"경기도 남양주시 호평동 212-4번지 105호","indutype":"보건위생 - 피부미용실","category":"beauty"},{"name":"이안에벨르","tel":"031-565-4878","addr":"경기도 남양주시 호평동 212-4번지 1층","indutype":"보건위생 - 미용원","category":"beauty"}]},{"lat":"37.655496706","long":"127.2450312","imageIndex":13,"items":[{"name":"살롱살롱헤어","tel":"031-595-1213","addr":"경기도 남양주시 호평동 644-10번지 1층","indutype":"보건위생 - 미용원","category":"beauty"}]},{"lat":"37.655278314","long":"127.25041332","imageIndex":13,"items":[{"name":"서순민헤어비스","tel":"031-594-0382","addr":"경기도 남양주시 호평동 668금강@분산상가-106","indutype":"보건위생 - 미용원","category":"beauty"}]},{"lat":"37.657142374","long":"127.25086148","imageIndex":13,"items":[{"name":"쉬즈헤어","tel":"031-592-7060","addr":"경기도 남양주시 호평동 676번지 호평마을동원로얄듀크 상가동 101호","indutype":"보건위생 - 미용원","category":"beauty"},{"name":"와이헤어","tel":"031-591-0606","addr":"경기도 남양주시 호평동 676번지 동원로얄듀크 상가동 108호","indutype":"보건위생 - 미용원","category":"beauty"}]},{"lat":"37.661587341","long":"127.24055168","imageIndex":13,"items":[{"name":"시크헤어","tel":"031-511-2441","addr":"경기도 남양주시 호평동 726번지 엘에이치호평1단지 상가동 103호","indutype":"보건위생 - 미용원","category":"beauty"}]},{"lat":"37.655667609","long":"127.24516774","imageIndex":13,"items":[{"name":"신데렐라","tel":"031-595-3478","addr":"경기도 남양주시 호평동 644-2번지 국민은행 2층 202호","indutype":"보건위생 - 화장품","category":"beauty"}]},{"lat":"37.663058242","long":"127.24821779","imageIndex":13,"items":[{"name":"써니(남성컷트전문점)","tel":"031-511-3881","addr":"경기도 남양주시 호평동 405-15번지 1층 일부","indutype":"보건위생 - 미용원","category":"beauty"}]},{"lat":"37.656053951","long":"127.24569029","imageIndex":13,"items":[{"name":"씨엘헤어","tel":"031-1111-1111","addr":"경기도 남양주시 호평동 168-9번지 1층","indutype":"보건위생 - 미용원","category":"beauty"}]},{"lat":"37.655667888","long":"127.24503175","imageIndex":13,"items":[{"name":"아로마","tel":"031-591-4401","addr":"경기도 남양주시 호평동 644-1번지 홍조프라자 2층 201,202호","indutype":"보건위생 - 화장품","category":"beauty"}]},{"lat":"37.659420009","long":"127.24302668","imageIndex":13,"items":[{"name":"아이린","tel":"031-595-2030","addr":"경기도 남양주시 호평동 716-9번지 103호","indutype":"보건위생 - 미용원","category":"beauty"}]},{"lat":"37.657551827","long":"127.24458457","imageIndex":13,"items":[{"name":"아이템아이(EYE TEM EYE)","tel":"031-528-6263","addr":"경기도 남양주시 호평동 728번지 케이씨씨스위첸 상가동 101호","indutype":"보건위생 - 안경","category":"beauty"},{"name":"지민헤어","tel":"031-111-1111","addr":"경기도 남양주시 호평동 728번지 평내호평역KCC스위첸 상가동 지1층 103호","indutype":"보건위생 - 미용원","category":"beauty"}]},{"lat":"37.661387895","long":"127.24558299","imageIndex":13,"items":[{"name":"아이홀릭","tel":"070-4307-2102","addr":"경기도 남양주시 호평동 613번지 호평마을대주파크빌 207호","indutype":"보건위생 - 미용재료","category":"beauty"},{"name":"오렌지헤어","tel":"031-591-3286","addr":"경기도 남양주시 호평동 613번지 호평마을대주파크빌 상가동 105호","indutype":"보건위생 - 미용원","category":"beauty"}]},{"lat":"37.667139447","long":"127.24829923","imageIndex":13,"items":[{"name":"아일리아헤어","tel":"031-559-7946","addr":"경기도 남양주시 호평동 386-4번지 동양프라자 104호","indutype":"보건위생 - 미용원","category":"beauty"}]},{"lat":"37.660358518","long":"127.23780516","imageIndex":13,"items":[{"name":"에렌시아 호평점","tel":"033-264-6083","addr":"경기도 남양주시 호평동 569-28번지 훼밀리타운 20동 102호","indutype":"보건위생 - 화장품","category":"beauty"}]},{"lat":"37.654836281","long":"127.24194669","imageIndex":13,"items":[{"name":"에스테틱한스","tel":"","addr":"경기도 남양주시 호평동 630-2번지 1층","indutype":"보건위생 - 피부미용실","category":"beauty"}]},{"lat":"37.658451906","long":"127.24058702","imageIndex":13,"items":[{"name":"에이미헤어","tel":"070-8150-6624","addr":"경기도 남양주시 호평동 712 휴먼시아제상가동제1층103호","indutype":"보건위생 - 미용원","category":"beauty"},{"name":"유진헤어","tel":"031-595-0992","addr":"경기도 남양주시 호평동 712번지 주공Humansia 103호","indutype":"보건위생 - 미용원","category":"beauty"},{"name":"젠헤어","tel":"031-559-0509","addr":"경기도 남양주시 호평동 712 휴먼시아상가 102","indutype":"보건위생 - 미용원","category":"beauty"},{"name":"팬지스킨케어","tel":"031-592-1238","addr":"경기도 남양주시 호평동 712번지 주공Humansia 상가동 105호","indutype":"보건위생 - 화장품","category":"beauty"}]},{"lat":"37.654443557","long":"127.24455183","imageIndex":13,"items":[{"name":"엑스체인지","tel":"031-559-9141","addr":"경기도 남양주시 호평동 642-3번지 ZENEW빌딩 201호","indutype":"보건위생 - 미용원","category":"beauty"}]},{"lat":"37.659996232","long":"127.2432212","imageIndex":13,"items":[{"name":"오늘네일샵","tel":"031-528-6263","addr":"경기도 남양주시 호평동 716-3번지 103호","indutype":"보건위생 - 피부미용실","category":"beauty"},{"name":"이서희헤어","tel":"031-559-9652","addr":"경기도 남양주시 호평동 716-3번지 1층 102호","indutype":"보건위생 - 미용원","category":"beauty"}]},{"lat":"37.664804191","long":"127.24914157","imageIndex":13,"items":[{"name":"우리대리","tel":"031-1544-9210","addr":"경기도 남양주시 호평동 397-2번지","indutype":"보건위생 - 기타대인서비스","category":"beauty"}]},{"lat":"37.655720922","long":"127.24553055","imageIndex":13,"items":[{"name":"윙크안경","tel":"031-595-2067","addr":"경기도 남양주시 호평동 645-2번지 황금목장 102호","indutype":"보건위생 - 안경","category":"beauty"}]},{"lat":"37.65389011","long":"127.24202298","imageIndex":13,"items":[{"name":"유니베라 평내호평대리점","tel":"031-591-9997","addr":"경기도 남양주시 호평동 632-11번지 4층","indutype":"보건위생 - 화장품","category":"beauty"},{"name":"효손","tel":"031-592-5688","addr":"경기도 남양주시 호평동 632-11번지 3층","indutype":"보건위생 - 화장품","category":"beauty"}]},{"lat":"37.657247282","long":"127.25660745","imageIndex":13,"items":[{"name":"으뜸미용실","tel":"031-511-4882","addr":"경기도 남양주시 호평동 680번지 상가동 1층 104호 호평마을중흥에스-클래스로하스","indutype":"보건위생 - 미용원","category":"beauty"},{"name":"취향 (Chuihyang Aestehetic)","tel":"031-559-1513","addr":"경기도 남양주시 호평동 680번지 호평마을중흥에스-클래스로하스 상가동 1층 106호","indutype":"보건위생 - 피부미용실","category":"beauty"}]},{"lat":"37.659472677","long":"127.25660368","imageIndex":13,"items":[{"name":"이마트남양주점안경","tel":"031-594-8668","addr":"경기도 남양주시 호평동 51","indutype":"보건위생 - 안경","category":"beauty"}]},{"lat":"37.654639766","long":"127.24110748","imageIndex":13,"items":[{"name":"이지힐링자연치유센타","tel":"031-595-5148","addr":"경기도 남양주시 호평동 628-8번지 1층 101호","indutype":"보건위생 - 화장품","category":"beauty"}]},{"lat":"37.653857824","long":"127.24016442","imageIndex":13,"items":[{"name":"이토스치과기공소","tel":"031-511-2812","addr":"경기도 남양주시 호평동 633-9번지 5층","indutype":"보건위생 - 의료용품","category":"beauty"}]},{"lat":"37.656998067","long":"127.2466113","imageIndex":13,"items":[{"name":"정헤어샵","tel":"031-559-6378","addr":"경기도 남양주시 호평동 168-18번지","indutype":"보건위생 - 미용원","category":"beauty"}]},{"lat":"37.657165992","long":"127.239359","imageIndex":13,"items":[{"name":"제이뷰티(J뷰티)","tel":"031-559-1256","addr":"경기도 남양주시 호평동 551-30번지 B04호","indutype":"보건위생 - 화장품","category":"beauty"}]},{"lat":"37.661640472","long":"127.24977711","imageIndex":13,"items":[{"name":"제이스87","tel":"031-593-6656","addr":"경기도 남양주시 호평동 273-9번지 101동 103호","indutype":"보건위생 - 미용원","category":"beauty"}]},{"lat":"37.659615166","long":"127.24452326","imageIndex":13,"items":[{"name":"제이클헤어","tel":"070-4203-1894","addr":"경기도 남양주시 호평동 615-6번지 B층 02호","indutype":"보건위생 - 미용원","category":"beauty"}]},{"lat":"37.655329953","long":"127.24725178","imageIndex":13,"items":[{"name":"조이샵","tel":"031-595-2608","addr":"경기도 남양주시 호평동 651-2번지","indutype":"보건위생 - 화장품","category":"beauty"}]},{"lat":"37.657529868","long":"127.24649971","imageIndex":13,"items":[{"name":"진헤어","tel":"031-592-3502","addr":"경기도 남양주시 호평동 181-23번지 예원빌딩 1층","indutype":"보건위생 - 미용원","category":"beauty"}]},{"lat":"37.658808904","long":"127.24666255","imageIndex":13,"items":[{"name":"테라스","tel":"031-559-3896","addr":"경기도 남양주시 호평동 175-15번지 4층 402호","indutype":"보건위생 - 화장품","category":"beauty"}]},{"lat":"37.653889651","long":"127.24224962","imageIndex":13,"items":[{"name":"파타야","tel":"031-595-5759","addr":"경기도 남양주시 호평동 632-10번지 4층","indutype":"보건위생 - 화장품","category":"beauty"}]},{"lat":"37.654468306","long":"127.24566246","imageIndex":13,"items":[{"name":"프린세스","tel":"","addr":"경기도 남양주시 호평동 654-4번지 상가동 1층 101호","indutype":"보건위생 - 피부미용실","category":"beauty"}]},{"lat":"37.655833057","long":"127.24794471","imageIndex":13,"items":[{"name":"피부야사랑해","tel":"031-594-0067","addr":"경기도 남양주시 호평동 666-8번지","indutype":"보건위생 - 피부미용실","category":"beauty"}]},{"lat":"37.656079836","long":"127.24624566","imageIndex":13,"items":[{"name":"피부에바르다","tel":"031-511-7758","addr":"경기도 남양주시 호평동 167번지 2층","indutype":"보건위생 - 피부미용실","category":"beauty"}]},{"lat":"37.654183513","long":"127.23949686","imageIndex":13,"items":[{"name":"하늘팜","tel":"031-848-1820","addr":"경기도 남양주시 호평동 624번지 호평마을주공20단지 2002동 702호","indutype":"보건위생 - 의료용품","category":"beauty"}]},{"lat":"37.654501655","long":"127.24696577","imageIndex":13,"items":[{"name":"향기사랑","tel":"031-1111-1111","addr":"경기도 남양주시 호평동 657-4번지 1층","indutype":"보건위생 - 피부미용실","category":"beauty"}]},{"lat":"37.656781274","long":"127.24688257","imageIndex":13,"items":[{"name":"헤어 에비뉴엘(HAIR AVENUEL)","tel":"","addr":"경기도 남양주시 호평동 188-5번지 1층 일부","indutype":"보건위생 - 미용원","category":"beauty"}]},{"lat":"37.655724824","long":"127.24800101","imageIndex":13,"items":[{"name":"헤어나인(HAIR NINE)","tel":"031-595-0709","addr":"경기도 남양주시 호평동 666-7번지 칸스빌 1층","indutype":"보건위생 - 미용원","category":"beauty"}]},{"lat":"37.660166937","long":"127.24783429","imageIndex":13,"items":[{"name":"헤어리더","tel":"031-511-4975","addr":"경기도 남양주시 호평동 617-1번지 금강프라자 1층 108호","indutype":"보건위생 - 미용원","category":"beauty"}]},{"lat":"37.655746807","long":"127.24608592","imageIndex":13,"items":[{"name":"헤어모모","tel":"031-595-6404","addr":"경기도 남양주시 호평동 645-6번지 경록빌딩 1층 103호","indutype":"보건위생 - 미용원","category":"beauty"}]},{"lat":"37.656004004","long":"127.24805859","imageIndex":13,"items":[{"name":"헤어살롱써니","tel":"031-559-9166","addr":"경기도 남양주시 호평동 666-2번지 1층","indutype":"보건위생 - 미용원","category":"beauty"}]},{"lat":"37.661975815","long":"127.24882623","imageIndex":13,"items":[{"name":"헤어앤네일","tel":"031-592-3428","addr":"경기도 남양주시 호평동 269-1번지 2층","indutype":"보건위생 - 미용원","category":"beauty"}]},{"lat":"37.660249078","long":"127.24293869","imageIndex":13,"items":[{"name":"헤어웰","tel":"070-7517-9374","addr":"경기도 남양주시 호평동 715-2번지 1층","indutype":"보건위생 - 미용원","category":"beauty"}]},{"lat":"37.656030704","long":"127.24821733","imageIndex":13,"items":[{"name":"헤어주","tel":"031-593-5246","addr":"경기도 남양주시 호평동 666-3번지 1층","indutype":"보건위생 - 미용원","category":"beauty"}]},{"lat":"37.656474526","long":"127.24708555","imageIndex":13,"items":[{"name":"헤이제이미","tel":"031-559-0926","addr":"경기도 남양주시 호평동 188-6번지 (호평동1층,105호)","indutype":"보건위생 - 미용원","category":"beauty"}]},{"lat":"37.660495647","long":"127.24130752","imageIndex":13,"items":[{"name":"현대미용실","tel":"031-111-1111","addr":"경기도 남양주시 호평동 612번지 호평동현대아이파크 104호","indutype":"보건위생 - 미용원","category":"beauty"}]},{"lat":"37.663220579","long":"127.24813899","imageIndex":13,"items":[{"name":"홍콩 마사지","tel":"","addr":"경기도 남양주시 호평동 405-16번지 천마빌딩 302호","indutype":"보건위생 - 피부미용실","category":"beauty"}]},{"lat":"37.666969865","long":"127.24752795","imageIndex":13,"items":[{"name":"후니헤어","tel":"031-591-2575","addr":"경기도 남양주시 호평동 373-2번지 1층","indutype":"보건위생 - 미용원","category":"beauty"}]},{"lat":"37.654808029","long":"127.2469441","imageIndex":13,"items":[{"name":"힛헤어","tel":"031-111-1111","addr":"경기도 남양주시 호평동 657-2번지 1층 102호","indutype":"보건위생 - 미용원","category":"beauty"}]}]