[{"lat":"37.264683684","long":"127.01664694","imageIndex":7,"items":[{"name":"가락수산","tel":"031-111-1111","addr":"경기도 수원시 팔달구 매교동 175-4번지","indutype":"음료식품 - 농·축·수산품","category":"food"}]},{"lat":"37.269927717","long":"127.0162533","imageIndex":7,"items":[{"name":"남창떡방앗간","tel":"031-233-9017","addr":"경기도 수원시 팔달구 매교동 56-6","indutype":"음료식품 - 제과점","category":"food"},{"name":"청일식품","tel":"031-296-7661","addr":"경기도 수원시 팔달구 매교동 56-6번지","indutype":"음료식품 - 정육점","category":"food"}]},{"lat":"37.267296992","long":"127.013502","imageIndex":7,"items":[{"name":"대가푸드시스템","tel":"031-236-3313","addr":"경기도 수원시 팔달구 매교동 111-41번지","indutype":"음료식품 - 기타음료식품","category":"food"}]},{"lat":"37.267296749","long":"127.01593716","imageIndex":7,"items":[{"name":"삼일유통","tel":"","addr":"경기도 수원시 팔달구 매교동 158-6번지 문화맨션 B동 605호","indutype":"음료식품 - 기타음료식품","category":"food"}]},{"lat":"37.270792641","long":"127.0168059","imageIndex":7,"items":[{"name":"새동신건강원","tel":"031-256-8544","addr":"경기도 수원시 팔달구 매교동 51-2번지 1층","indutype":"건강식품 - 기타건강식품","category":"food"}]},{"lat":"37.264404556","long":"127.01488823","imageIndex":7,"items":[{"name":"성원방앗간","tel":"032-232-9625","addr":"경기도 수원시 팔달구 매교동 167-53번지","indutype":"음료식품 - 기타음료식품","category":"food"}]},{"lat":"37.267206446","long":"127.0176395","imageIndex":7,"items":[{"name":"수원고등학교매점","tel":"031-300-3230","addr":"경기도 수원시 팔달구 매교동 191번지","indutype":"음료식품 - 기타음료식품","category":"food"},{"name":"수원중학교매점","tel":"031-232-8217","addr":"경기도 수원시 팔달구 매교동 191번지 수원중학교","indutype":"음료식품 - 기타음료식품","category":"food"}]},{"lat":"37.271657653","long":"127.01659184","imageIndex":7,"items":[{"name":"수원로또판매점","tel":"031-223-5214","addr":"경기도 수원시 팔달구 매교동 8-4번지","indutype":"음료식품 - 기타음료식품","category":"food"}]},{"lat":"37.264485663","long":"127.01475296","imageIndex":7,"items":[{"name":"스파클서수원대리점","tel":"031-898-6260","addr":"경기도 수원시 팔달구 매교동 167-52번지 1층","indutype":"음료식품 - 기타음료식품","category":"food"}]},{"lat":"37.268846594","long":"127.01522716","imageIndex":7,"items":[{"name":"승화유통","tel":"031-258-7485","addr":"경기도 수원시 팔달구 매교동 130-1번지 1층 1호","indutype":"음료식품 - 농·축·수산품","category":"food"}]},{"lat":"37.269792616","long":"127.01577975","imageIndex":7,"items":[{"name":"영양건강원 (2호점)","tel":"031-256-6688","addr":"경기도 수원시 팔달구 매교동 30-6번지 1층","indutype":"건강식품 - 기타건강식품","category":"food"}]},{"lat":"37.268297126","long":"127.01359233","imageIndex":7,"items":[{"name":"유황축산","tel":"031-282-1140","addr":"경기도 수원시 팔달구 매교동 92-27","indutype":"음료식품 - 정육점","category":"food"}]},{"lat":"37.270630584","long":"127.01566715","imageIndex":7,"items":[{"name":"제이에이치푸드(JHFOOD)","tel":"031-236-8692","addr":"경기도 수원시 팔달구 매교동 28-71번지 1층","indutype":"음료식품 - 기타음료식품","category":"food"}]},{"lat":"37.26871153","long":"127.01433648","imageIndex":7,"items":[{"name":"제일떡방앗간","tel":"031-233-0097","addr":"경기도 수원시 팔달구 매교동 84-8번지","indutype":"음료식품 - 제과점","category":"food"}]},{"lat":"37.267350816","long":"127.01589208","imageIndex":7,"items":[{"name":"죽염나라","tel":"031-226-3460","addr":"경기도 수원시 팔달구 매교동 158-6번지 문화맨션 1층 7호8호","indutype":"건강식품 - 기타건강식품","category":"food"}]},{"lat":"37.26954029","long":"127.01611794","imageIndex":7,"items":[{"name":"형제정육점","tel":"031-232-7437","addr":"경기도 수원시 팔달구 매교동 136-7번지","indutype":"음료식품 - 정육점","category":"food"}]},{"lat":"37.26768417","long":"127.01612889","imageIndex":7,"items":[{"name":"호남청과","tel":"031-257-8485","addr":"경기도 수원시 팔달구 매교동 158-6번지 문화맨션 A동 1007호","indutype":"음료식품 - 농·축·수산품","category":"food"}]}]