[{"lat":"38.13305212","long":"127.0797226","imageIndex":4,"items":[{"name":"개미치킨","tel":"031-834-3272","addr":"경기도 연천군 연천읍 상리 126-20번지","indutype":"일반휴게음식 - 일반한식","category":"restaurant"},{"name":"개미치킨","tel":"031-834-3272","addr":"경기도 연천군 연천읍 상리 126-20번지","indutype":"일반휴게음식 - 스넥","category":"restaurant"}]},{"lat":"38.13241314","long":"127.0787183","imageIndex":4,"items":[{"name":"명진 부대찌개","tel":"031-834-3733","addr":"경기도 연천군 연천읍 상리 103-2번지","indutype":"일반휴게음식 - 일반한식","category":"restaurant"}]},{"lat":"38.13224202","long":"127.0786382","imageIndex":4,"items":[{"name":"백제토속한정식","tel":"031-834-8891","addr":"경기도 연천군 연천읍 상리 103-5번지","indutype":"일반휴게음식 - 일반한식","category":"restaurant"}]},{"lat":"38.1331065","long":"127.0792208","imageIndex":4,"items":[{"name":"복주네탕탕탕","tel":"031-834-5004","addr":"경기도 연천군 연천읍 상리 126-34번지","indutype":"일반휴게음식 - 일반한식","category":"restaurant"}]},{"lat":"38.1329084","long":"127.0790838","imageIndex":4,"items":[{"name":"신망리순대국","tel":"031-834-0522","addr":"경기도 연천군 연천읍 상리 125-3번지","indutype":"일반휴게음식 - 일반한식","category":"restaurant"}]},{"lat":"38.1328541","long":"127.0794487","imageIndex":4,"items":[{"name":"인천식당","tel":"031-834-0468","addr":"경기도 연천군 연천읍 상리 126-33번지","indutype":"일반휴게음식 - 일반한식","category":"restaurant"}]},{"lat":"38.13352074","long":"127.079495","imageIndex":4,"items":[{"name":"평창옻닭","tel":"031-834-0660","addr":"경기도 연천군 연천읍 상리 127-13번지","indutype":"일반휴게음식 - 일반한식","category":"restaurant"}]},{"lat":"38.13596961","long":"127.0818586","imageIndex":4,"items":[{"name":"황구보향탕","tel":"031-834-2368","addr":"경기도 연천군 연천읍 상리 48-21번지","indutype":"일반휴게음식 - 일반한식","category":"restaurant"}]},{"lat":"38.13657524","long":"127.0787796","imageIndex":17,"items":[{"name":"남강표구","tel":"031-835-1922","addr":"경기도 연천군 연천읍 상리 169-2번지","indutype":"문화.취미 - 화방·표구점","category":"other"}]},{"lat":"38.13335912","long":"127.0786622","imageIndex":17,"items":[{"name":"명성화원","tel":"031-834-0537","addr":"경기도 연천군 연천읍 상리 142-7번지","indutype":"문화.취미 - 화원","category":"other"}]},{"lat":"38.13630218","long":"127.0829768","imageIndex":17,"items":[{"name":"미강건축설비","tel":"031-834-7282","addr":"경기도 연천군 연천읍 상리 48-44번지","indutype":"용역 서비스 - 기타용역서비스","category":"other"}]},{"lat":"38.13044106","long":"127.0773362","imageIndex":17,"items":[{"name":"상리 한종농기계","tel":"031-834-7401","addr":"경기도 연천군 연천읍 상리 108-4번지","indutype":"수리서비스 - 기타수리서비스","category":"other"}]},{"lat":"38.13305288","long":"127.0785592","imageIndex":13,"items":[{"name":"댕기머리","tel":"031-834-6743","addr":"경기도 연천군 연천읍 상리 143-6번지 명진사","indutype":"보건위생 - 미용원","category":"beauty"}]},{"lat":"38.13362952","long":"127.0784458","imageIndex":7,"items":[{"name":"덕흥상회","tel":"031-834-2051","addr":"경기도 연천군 연천읍 상리 140-21번지","indutype":"음료식품 - 기타음료식품","category":"food"}]},{"lat":"38.13410757","long":"127.0775566","imageIndex":7,"items":[{"name":"롯데칠성전곡대리점","tel":"031-834-0369","addr":"경기도 연천군 연천읍 상리 139-22(신망로17)","indutype":"음료식품 - 기타음료식품","category":"food"}]},{"lat":"38.13849243","long":"127.0664966","imageIndex":7,"items":[{"name":"청묵농장","tel":"031-1111-1111","addr":"경기도 연천군 연천읍 상리 485번지","indutype":"음료식품 - 농·축·수산품","category":"food"}]},{"lat":"38.13362941","long":"127.0786169","imageIndex":7,"items":[{"name":"태백건강원","tel":"031-834-9906","addr":"경기도 연천군 연천읍 상리 141-13번지","indutype":"건강식품 - 기타건강식품","category":"food"}]},{"lat":"38.1361586","long":"127.082144","imageIndex":7,"items":[{"name":"우리마트","tel":"031-834-7288","addr":"경기도 연천군 연천읍 상리 48-20번지","indutype":"유통업 영리 - 슈퍼마켓","category":"mart"}]}]