[{"lat":"37.502371409","long":"126.77229969","imageIndex":13,"items":[{"name":"#나인노래연습장","tel":"032-321-8581","addr":"경기도 부천시 중동 1142번지 황금프라자 301호","indutype":"레저업소 - 노 래 방","category":"leisure"},{"name":"달빛노래연습장","tel":"","addr":"경기도 부천시 중동 1142번지 황금프라자 지층 101,102호","indutype":"레저업소 - 노 래 방","category":"leisure"},{"name":"오페라 당구클럽","tel":"070-7372-6575","addr":"경기도 부천시 중동 1142번지 황금프라자 201호","indutype":"레저업소 - 당 구 장","category":"leisure"},{"name":"황금노래방","tel":"032-324-4772","addr":"경기도 부천시 중동 1142번지","indutype":"레저업소 - 노 래 방","category":"leisure"}]},{"lat":"37.504339059","long":"126.7694889","imageIndex":13,"items":[{"name":"(GP) 주짓수 멀티짐","tel":"032-324-0703","addr":"경기도 부천시 중동 1056번지 제일프라자 303호","indutype":"레저업소 - 헬스클럽","category":"leisure"},{"name":"이네이쳐PC방(중동점)","tel":"","addr":"경기도 부천시 중동 1056번지 제일프라자 204호","indutype":"레저업소 - 기타레져업소","category":"leisure"}]},{"lat":"37.503151075","long":"126.77015984","imageIndex":13,"items":[{"name":"(JADE PILATES)제이드 필라테스","tel":"031-000-0000","addr":"경기도 부천시 중동 1149-2번지 금광베네스타 1210호","indutype":"레저업소 - 헬스클럽","category":"leisure"},{"name":"(주)위더스스포츠","tel":"02-841-1532","addr":"경기도 부천시 중동 1149-2번지 금광베네스타 1513호","indutype":"레저업소 - 헬스클럽","category":"leisure"},{"name":"문필라테스","tel":"070-0000-0000","addr":"경기도 부천시 중동 1149-2번지 금광베네스타 1901호","indutype":"레저업소 - 헬스클럽","category":"leisure"},{"name":"브리즈 필라테스","tel":"032-000-0000","addr":"경기도 부천시 중동 1149-2번지 금광베네스타 일부 1610호","indutype":"레저업소 - 헬스클럽","category":"leisure"},{"name":"윰스튜디오(YUM STUDIO)","tel":"","addr":"경기도 부천시 중동 1149-2번지 금광베네스타 1108호","indutype":"레저업소 - 헬스클럽","category":"leisure"}]},{"lat":"37.501117624","long":"126.77157977","imageIndex":13,"items":[{"name":"(주)바디채널(Bodychannel Co.,Ltd)","tel":"032-325-4348","addr":"경기도 부천시 중동 1145-2번지 네이버시티빌딩 8층","indutype":"레저업소 - 헬스클럽","category":"leisure"},{"name":"인기스타점프 줄넘기교실","tel":"070-2699-0807","addr":"경기도 부천시 중동 1145-2번지 네이버시티빌딩 4층 404호","indutype":"레저업소 - 기타레져업소","category":"leisure"}]},{"lat":"37.504569861","long":"126.76774652","imageIndex":13,"items":[{"name":"(주)스포애니부천시청","tel":"032-325-3374","addr":"경기도 부천시 중동 1035번지 성원빌딩 502호 501호","indutype":"레저업소 - 헬스클럽","category":"leisure"},{"name":"골프존파크중동","tel":"032-361-7777","addr":"경기도 부천시 중동 1035번지 성원빌딩 601,602호","indutype":"레저업소 - 골프연습장","category":"leisure"}]},{"lat":"37.50181985","long":"126.7759429","imageIndex":13,"items":[{"name":"20LINE (라인)","tel":"031-214-2096","addr":"경기도 부천시 중동 1140-2번지 트리플타워A A동 3층 305호","indutype":"레저업소 - 헬스클럽","category":"leisure"}]},{"lat":"37.501456884","long":"126.77460953","imageIndex":13,"items":[{"name":"AXL멀티짐 / (주)써밋","tel":"032-322-3337","addr":"경기도 부천시 중동 1138번지 호정프라자 801호","indutype":"레저업소 - 헬스클럽","category":"leisure"},{"name":"K.0 GYM(케이오짐)","tel":"032-220-9033","addr":"경기도 부천시 중동 1138번지 호정프라자 3층 302호","indutype":"레저업소 - 헬스클럽","category":"leisure"},{"name":"SBS당구장","tel":"032-348-7510","addr":"경기도 부천시 중동 1138번지 호정프라자 5층 505호","indutype":"레저업소 - 당 구 장","category":"leisure"},{"name":"마나보다 신중동점","tel":"02-2031-1547","addr":"경기도 부천시 중동 1138번지 호정프라자 601호","indutype":"레저업소 - 기타레져업소","category":"leisure"},{"name":"커브스 신중동클럽","tel":"032-327-1330","addr":"경기도 부천시 중동 1138번지 호정프라자 6층 603호 106","indutype":"레저업소 - 헬스클럽","category":"leisure"},{"name":"콘티넨탈노래방","tel":"032-217-9545","addr":"경기도 부천시 중동 1138번지 호정프라자 303호","indutype":"레저업소 - 노 래 방","category":"leisure"}]},{"lat":"37.49956758","long":"126.77605149","imageIndex":13,"items":[{"name":"DVD영화관","tel":"032-327-4981","addr":"경기도 부천시 중동 1133-5번지 서진빌딩 204호","indutype":"레저업소 - 기타레져업소","category":"leisure"},{"name":"오즈노래연습장","tel":"032-0000-0000","addr":"경기도 부천시 중동 1133-5번지 서진빌딩 3층","indutype":"레저업소 - 노 래 방","category":"leisure"},{"name":"짱노래연습장","tel":"032-325-4030","addr":"경기도 부천시 중동 1133-5번지 서진빌딩 지하1층 102호","indutype":"레저업소 - 노 래 방","category":"leisure"}]},{"lat":"37.500011877","long":"126.77752029","imageIndex":13,"items":[{"name":"JFIT PILATES(제이핏 필라테스)","tel":"032-620-3844","addr":"경기도 부천시 중동 1109번지 위브더스테이트 상가 3동 211호","indutype":"레저업소 - 헬스클럽","category":"leisure"}]},{"lat":"37.505235199","long":"126.76257596","imageIndex":13,"items":[{"name":"J스크린골프존","tel":"032-323-1872","addr":"경기도 부천시 중동 1031-2번지 골든벨타워 4층 401호","indutype":"레저업소 - 스크린골프","category":"leisure"},{"name":"제이(J)스크린골프존","tel":"","addr":"경기도 부천시 중동 1031-2번지 골든벨타워 4층 401호","indutype":"레저업소 - 스크린골프","category":"leisure"}]},{"lat":"37.503565146","long":"126.76099801","imageIndex":13,"items":[{"name":"K 노래연습장","tel":"","addr":"경기도 부천시 중동 1166-6번지 지하1층 비101호","indutype":"레저업소 - 노 래 방","category":"leisure"},{"name":"삼익아처리","tel":"032-324-4022","addr":"경기도 부천시 중동 1166-6번지 3층","indutype":"레저업소 - 기타레져업소","category":"leisure"}]},{"lat":"37.502397732","long":"126.77193771","imageIndex":13,"items":[{"name":"K2당구장","tel":"032-322-0311","addr":"경기도 부천시 중동 1147-5번지 201,202호","indutype":"레저업소 - 당 구 장","category":"leisure"}]},{"lat":"37.50012517","long":"126.77551829","imageIndex":13,"items":[{"name":"O.K당구클럽","tel":"032-611-4530","addr":"경기도 부천시 중동 1133-13번지 금강5차프라자 301호","indutype":"레저업소 - 당 구 장","category":"leisure"},{"name":"악쓰는 하마 노래연습장","tel":"032-329-9232","addr":"경기도 부천시 중동 1133-13번지 금강5차프라자 203호","indutype":"레저업소 - 노 래 방","category":"leisure"},{"name":"에쿠스노래연습장","tel":"032-321-9954","addr":"경기도 부천시 중동 1133-13번지 금강5차프라자 지하 101호","indutype":"레저업소 - 노 래 방","category":"leisure"}]},{"lat":"37.496956993","long":"126.77724676","imageIndex":13,"items":[{"name":"OK스크린골프존","tel":"032-329-7708","addr":"경기도 부천시 중동 1126-2번지 아이타운 2층 201호","indutype":"레저업소 - 스크린골프","category":"leisure"},{"name":"청년피티","tel":"032-328-1212","addr":"경기도 부천시 중동 1126-2번지 아이타운 502호","indutype":"레저업소 - 헬스클럽","category":"leisure"}]},{"lat":"37.503400949","long":"126.76443656","imageIndex":13,"items":[{"name":"SP복싱무브먼트","tel":"032-328-0887","addr":"경기도 부천시 중동 1158-6번지 씨티원프라자 302호","indutype":"레저업소 - 헬스클럽","category":"leisure"},{"name":"중동골프연습장","tel":"032-321-6696","addr":"경기도 부천시 중동 1158-6번지","indutype":"레저업소 - 골프연습장","category":"leisure"}]},{"lat":"37.503369746","long":"126.76237837","imageIndex":13,"items":[{"name":"S노래연습장","tel":"032-321-8850","addr":"경기도 부천시 중동 1163-9번지 지층 B02호","indutype":"레저업소 - 노 래 방","category":"leisure"}]},{"lat":"37.489847322","long":"126.76757784","imageIndex":13,"items":[{"name":"U필라테스","tel":"","addr":"경기도 부천시 중동 1289번지 팰리스카운티 아이파크 상가동 207호","indutype":"레저업소 - 헬스클럽","category":"leisure"}]},{"lat":"37.503178394","long":"126.76132723","imageIndex":13,"items":[{"name":"Y.B 당구클럽","tel":"032-684-3825","addr":"경기도 부천시 중동 1162번지 뉴월드프라자 601호~602호","indutype":"레저업소 - 당 구 장","category":"leisure"},{"name":"블루DVD영화관","tel":"032-329-1131","addr":"경기도 부천시 중동 1162번지 뉴월드프라자 제 5층 501호","indutype":"레저업소 - 기타레져업소","category":"leisure"}]},{"lat":"37.492675384","long":"126.76704881","imageIndex":13,"items":[{"name":"YuJu필라테스","tel":"032-613-0706","addr":"경기도 부천시 중동 773번지 2층","indutype":"레저업소 - 헬스클럽","category":"leisure"}]},{"lat":"37.499512869","long":"126.7757124","imageIndex":13,"items":[{"name":"가족노래연습장","tel":"032-323-3610","addr":"경기도 부천시 중동 1133-9번지 우진3차프라자 지하 102호","indutype":"레저업소 - 노 래 방","category":"leisure"},{"name":"아리아노래연습장","tel":"032-329-8285","addr":"경기도 부천시 중동 1133-9번지 우진3차프라자 303호","indutype":"레저업소 - 노 래 방","category":"leisure"}]},{"lat":"37.499314717","long":"126.77574692","imageIndex":13,"items":[{"name":"개구리노래연습장","tel":"032-328-8891","addr":"경기도 부천시 중동 1133-8번지 우신프라자 301호 302 2차빌딩","indutype":"레저업소 - 노 래 방","category":"leisure"}]},{"lat":"37.502757192","long":"126.76243689","imageIndex":13,"items":[{"name":"갤러리PC방","tel":"070-8867-4380","addr":"경기도 부천시 중동 1162-5번지 중동프라자 지층 3-9호","indutype":"레저업소 - 기타레져업소","category":"leisure"},{"name":"주식회사 터짐컴퍼니","tel":"","addr":"경기도 부천시 중동 1162-5번지 중동프라자 701호","indutype":"레저업소 - 헬스클럽","category":"leisure"},{"name":"짬짬이코인노래24시연습장(중동)","tel":"070-6427-6864","addr":"경기도 부천시 중동 1162-5번지 중동프라자 지하1층","indutype":"레저업소 - 노 래 방","category":"leisure"},{"name":"필라테스 제이엔 (JN)","tel":"032-323-8792","addr":"경기도 부천시 중동 1162-5번지 중동프라자","indutype":"레저업소 - 헬스클럽","category":"leisure"}]},{"lat":"37.500701539","long":"126.77538084","imageIndex":13,"items":[{"name":"격투갤러리","tel":"032-327-1987","addr":"경기도 부천시 중동 1136-1번지 동아빌딩 3층","indutype":"레저업소 - 헬스클럽","category":"leisure"}]},{"lat":"37.503507397","long":"126.76361065","imageIndex":13,"items":[{"name":"고고노래연습장","tel":"031-328-0066","addr":"경기도 부천시 중동 1158-2번지 현대프라자빌딩 제지1층 B01호","indutype":"레저업소 - 노 래 방","category":"leisure"}]},{"lat":"37.503649167","long":"126.76243402","imageIndex":13,"items":[{"name":"고고당구장","tel":"","addr":"경기도 부천시 중동 1163-5번지 조유빌딩 3층","indutype":"레저업소 - 당 구 장","category":"leisure"},{"name":"현대노래연습장","tel":"032-326-3294","addr":"경기도 부천시 중동 1163-5번지 조유빌딩 지층","indutype":"레저업소 - 노 래 방","category":"leisure"}]},{"lat":"37.496899613","long":"126.76187894","imageIndex":13,"items":[{"name":"고래고래 노래연습장","tel":"070-8829-6215","addr":"경기도 부천시 중동 678번지 남양빌딩 지층","indutype":"레저업소 - 노 래 방","category":"leisure"}]},{"lat":"37.493431557","long":"126.76671851","imageIndex":13,"items":[{"name":"고짐(GO GYM)","tel":"032-662-6637","addr":"경기도 부천시 중동 752-3번지 6층","indutype":"레저업소 - 헬스클럽","category":"leisure"},{"name":"마징가당구클럽","tel":"032-611-6617","addr":"경기도 부천시 중동 752-3번지 4층","indutype":"레저업소 - 당 구 장","category":"leisure"},{"name":"에쿠스노래방","tel":"032-655-1520","addr":"경기도 부천시 중동 752-3번지 지층","indutype":"레저업소 - 노 래 방","category":"leisure"},{"name":"프랜드PC방","tel":"032-000-0000","addr":"경기도 부천시 중동 752-3번지 5층","indutype":"레저업소 - 기타레져업소","category":"leisure"}]},{"lat":"37.494287946","long":"126.76694197","imageIndex":13,"items":[{"name":"골드노래연습장","tel":"","addr":"경기도 부천시 중동 720번지 지층","indutype":"레저업소 - 노 래 방","category":"leisure"}]},{"lat":"37.501178059","long":"126.77485918","imageIndex":13,"items":[{"name":"골프튠 아카데미","tel":"032-328-1872","addr":"경기도 부천시 중동 1138-1번지 조이럭타운 304호","indutype":"레저업소 - 골프연습장","category":"leisure"},{"name":"럭셔리당구장","tel":"032-321-8037","addr":"경기도 부천시 중동 1138-1번지 조이럭타운 204호","indutype":"레저업소 - 당 구 장","category":"leisure"},{"name":"사이버리아 인터넷 노래연습장","tel":"032-312-1218","addr":"경기도 부천시 중동 1138-1번지 조이럭타운 5층 508호","indutype":"레저업소 - 노 래 방","category":"leisure"},{"name":"상록수노래연습장","tel":"032-323-3849","addr":"경기도 부천시 중동 1138-1번지 조이럭타운 201호","indutype":"레저업소 - 노 래 방","category":"leisure"},{"name":"스타일pc방","tel":"031-123-4567","addr":"경기도 부천시 중동 1138-1번지 조이럭타운 3층 301,302,307호","indutype":"레저업소 - 기타레져업소","category":"leisure"},{"name":"팬텀이스케이프","tel":"070-5044-7345","addr":"경기도 부천시 중동 1138-1번지 조이럭타운 5층 503호","indutype":"레저업소 - 기타레져업소","category":"leisure"}]},{"lat":"37.497927937","long":"126.77613561","imageIndex":13,"items":[{"name":"광장노래연습장","tel":"","addr":"경기도 부천시 중동 1130-7번지 부천시약사회 B01호","indutype":"레저업소 - 노 래 방","category":"leisure"}]},{"lat":"37.495069246","long":"126.76566171","imageIndex":13,"items":[{"name":"국가대표 수상레저","tel":"031-111-1111","addr":"경기도 부천시 중동 710-3번지","indutype":"레저업소 - 기타레져업소","category":"leisure"}]},{"lat":"37.501593733","long":"126.77549122","imageIndex":13,"items":[{"name":"그라비티 테니스 스튜디오","tel":"032-323-2550","addr":"경기도 부천시 중동 1137번지 정석프라자 지하1층","indutype":"레저업소 - 테니스장","category":"leisure"}]},{"lat":"37.497289234","long":"126.77665773","imageIndex":13,"items":[{"name":"그린 피씨(GREEN PC)방 중동점","tel":"032-000-0000","addr":"경기도 부천시 중동 1127-1번지 고산프라자 2층","indutype":"레저업소 - 기타레져업소","category":"leisure"},{"name":"웰빙 노래연습장","tel":"032-328-7563","addr":"경기도 부천시 중동 1127-1번지 고산프라자 302호","indutype":"레저업소 - 노 래 방","category":"leisure"}]},{"lat":"37.502926002","long":"126.76127149","imageIndex":13,"items":[{"name":"김진호복싱","tel":"032-323-5858","addr":"경기도 부천시 중동 1162-9번지 새롬프라자 303호","indutype":"레저업소 - 헬스클럽","category":"leisure"},{"name":"바빌론PC방","tel":"070-4962-4381","addr":"경기도 부천시 중동 1162-9번지 새롬프라자 4층 401호","indutype":"레저업소 - 기타레져업소","category":"leisure"},{"name":"예뻐짐","tel":"032-3289-3939","addr":"경기도 부천시 중동 1162-9번지 새롬프라자 502-1호","indutype":"레저업소 - 헬스클럽","category":"leisure"},{"name":"예스골프","tel":"032-322-0075","addr":"경기도 부천시 중동 1162-9번지 새롬프라자 701호","indutype":"레저업소 - 골프연습장","category":"leisure"}]},{"lat":"37.498926706","long":"126.77544276","imageIndex":13,"items":[{"name":"김희정요가","tel":"032-322-8222","addr":"경기도 부천시 중동 1129번지 이스트타워원 8층 803호","indutype":"레저업소 - 헬스클럽","category":"leisure"}]},{"lat":"37.503231597","long":"126.76090861","imageIndex":13,"items":[{"name":"나인노래연습장","tel":"032-326-6988","addr":"경기도 부천시 중동 1167-2번지 5층","indutype":"레저업소 - 노 래 방","category":"leisure"},{"name":"젠요가중동현대점","tel":"","addr":"경기도 부천시 중동 1167-2번지 5층 502호","indutype":"레저업소 - 헬스클럽","category":"leisure"}]},{"lat":"37.496062272","long":"126.76216434","imageIndex":13,"items":[{"name":"나인피시(PC)","tel":"070-3541-6963","addr":"경기도 부천시 중동 682번지 서천빌딩 2층 201호","indutype":"레저업소 - 기타레져업소","category":"leisure"},{"name":"시즌아이PC방 부천중동점","tel":"02-222-2222","addr":"경기도 부천시 중동 682번지 서천빌딩 3층 301호","indutype":"레저업소 - 기타레져업소","category":"leisure"}]},{"lat":"37.490455763","long":"126.76546146","imageIndex":13,"items":[{"name":"놀토피씨방","tel":"032-000-0000","addr":"경기도 부천시 중동 1288번지 팰리스카운티 푸르지오 상가동 505호","indutype":"레저업소 - 기타레져업소","category":"leisure"},{"name":"아름다운요가","tel":"","addr":"경기도 부천시 중동 1288번지 팰리스카운티 대림 상가동 201호","indutype":"레저업소 - 헬스클럽","category":"leisure"},{"name":"윌핏","tel":"032-611-3611","addr":"경기도 부천시 중동 1288번지 팰리스카운티 310~311호","indutype":"레저업소 - 헬스클럽","category":"leisure"}]},{"lat":"37.501900395","long":"126.77102321","imageIndex":13,"items":[{"name":"달당구장","tel":"032-518-0000","addr":"경기도 부천시 중동 1146번지 202호 201호,202호","indutype":"레저업소 - 당 구 장","category":"leisure"}]},{"lat":"37.502340299","long":"126.7702189","imageIndex":13,"items":[{"name":"달라스노래연습장","tel":"","addr":"경기도 부천시 중동 1150-9번지 삼성프라자 301호","indutype":"레저업소 - 노 래 방","category":"leisure"}]},{"lat":"37.498702351","long":"126.7759071","imageIndex":13,"items":[{"name":"당구야놀자","tel":"070-6315-2046","addr":"경기도 부천시 중동 1130-2번지 신영프라자 301,302호","indutype":"레저업소 - 당 구 장","category":"leisure"},{"name":"주몽노래연습장","tel":"032-323-6973","addr":"경기도 부천시 중동 1130-2번지 신명프라자 B02호","indutype":"레저업소 - 노 래 방","category":"leisure"}]},{"lat":"37.502091993","long":"126.772244","imageIndex":13,"items":[{"name":"더블유(W)노래연습장","tel":"032-325-6337","addr":"경기도 부천시 중동 1142-20번지 G동 1층","indutype":"레저업소 - 노 래 방","category":"leisure"},{"name":"디비 피시 카페(DB PC CAFE)","tel":"070-6556-0042","addr":"경기도 부천시 중동 1142-20번지 2층","indutype":"레저업소 - 기타레져업소","category":"leisure"}]},{"lat":"37.503791248","long":"126.76141573","imageIndex":13,"items":[{"name":"더샵당구장","tel":"032-321-5425","addr":"경기도 부천시 중동 1163번지","indutype":"레저업소 - 당 구 장","category":"leisure"},{"name":"명품악쓰는하마노래연습장","tel":"032-325-9919","addr":"경기도 부천시 중동 1163번지 월드컵빌1제3층 301호","indutype":"레저업소 - 노 래 방","category":"leisure"}]},{"lat":"37.505040192","long":"126.76415992","imageIndex":13,"items":[{"name":"동화속골프방","tel":"032-329-0729","addr":"경기도 부천시 중동 1033-2번지 금영프라자2차 202호","indutype":"레저업소 - 골프연습장","category":"leisure"},{"name":"샤론","tel":"032-228-7575","addr":"경기도 부천시 중동 1033-2번지 금영프라자 601호","indutype":"레저업소 - 기타레져업소","category":"leisure"}]},{"lat":"37.498653282","long":"126.77851953","imageIndex":13,"items":[{"name":"두잇퍼스널트레이닝","tel":"032-620-5596","addr":"경기도 부천시 중동 1111번지 위브더스테이트 602동 2층 12호","indutype":"레저업소 - 헬스클럽","category":"leisure"}]},{"lat":"37.503895001","long":"126.77276999","imageIndex":13,"items":[{"name":"디야나 요가원 (DIYANA YOGA)","tel":"032-322-3022","addr":"경기도 부천시 중동 1058-1번지 신명타운 305호","indutype":"레저업소 - 헬스클럽","category":"leisure"}]},{"lat":"37.495539436","long":"126.76649702","imageIndex":13,"items":[{"name":"땡벌노래연습장","tel":"032-655-6628","addr":"경기도 부천시 중동 713-3번지 지층","indutype":"레저업소 - 노 래 방","category":"leisure"}]},{"lat":"37.487121232","long":"126.76955378","imageIndex":13,"items":[{"name":"라이브노래연습장","tel":"032-612-7889","addr":"경기도 부천시 중동 797-19번지 지층","indutype":"레저업소 - 노 래 방","category":"leisure"}]},{"lat":"37.503396338","long":"126.76216341","imageIndex":13,"items":[{"name":"락휴노래연습장","tel":"032-321-8774","addr":"경기도 부천시 중동 1163-10번지 월드컵빌-3 3층 301,302호","indutype":"레저업소 - 노 래 방","category":"leisure"}]},{"lat":"37.495903699","long":"126.76394023","imageIndex":13,"items":[{"name":"럭셔리노래연습장","tel":"032-611-0325","addr":"경기도 부천시 중동 705-3번지","indutype":"레저업소 - 노 래 방","category":"leisure"}]},{"lat":"37.498650005","long":"126.77680063","imageIndex":13,"items":[{"name":"레전드스크린야구","tel":"032-721-7771","addr":"경기도 부천시 중동 1131-2번지 미림프라자오피스텔 401동 406호","indutype":"레저업소 - 기타레져업소","category":"leisure"}]},{"lat":"37.502618346","long":"126.77418756","imageIndex":13,"items":[{"name":"리본필라테스부천신중동점평생교육원","tel":"032-323-9491","addr":"경기도 부천시 중동 1141-5번지 다운타운 4층 3호","indutype":"레저업소 - 헬스클럽","category":"leisure"},{"name":"행짐(행GYM)","tel":"032-321-6991","addr":"경기도 부천시 중동 1141-5번지 다운타운 4층 407호","indutype":"레저업소 - 헬스클럽","category":"leisure"}]},{"lat":"37.500205409","long":"126.775077","imageIndex":13,"items":[{"name":"리얼야구존 부천중동점","tel":"032-328-0779","addr":"경기도 부천시 중동 1134번지 새롬프라자6차 7층 701호","indutype":"레저업소 - 기타레져업소","category":"leisure"},{"name":"턴테이블랩 (Turntable Lab Seoul)","tel":"","addr":"경기도 부천시 중동 1134번지 새롬프라자6차 403호","indutype":"레저업소 - 기타레져업소","category":"leisure"}]},{"lat":"37.498288809","long":"126.77638331","imageIndex":13,"items":[{"name":"마돈나노래연습장","tel":"032-000-0000","addr":"경기도 부천시 중동 1130-13번지 골든프라자 105호","indutype":"레저업소 - 노 래 방","category":"leisure"},{"name":"에이스 노래연습장","tel":"032-325-0585","addr":"경기도 부천시 중동 1130-13번지 골든프라자 지층 101호","indutype":"레저업소 - 노 래 방","category":"leisure"}]},{"lat":"37.501869871","long":"126.77385057","imageIndex":13,"items":[{"name":"마이큐당구장","tel":"","addr":"경기도 부천시 중동 1142-12번지 지하","indutype":"레저업소 - 당 구 장","category":"leisure"},{"name":"아크로바틱 (Floor-X)","tel":"","addr":"경기도 부천시 중동 1142-12번지 지층 B201호","indutype":"레저업소 - 헬스클럽","category":"leisure"}]},{"lat":"37.498062976","long":"126.77607866","imageIndex":13,"items":[{"name":"메카노래연습장","tel":"032-321-1255","addr":"경기도 부천시 중동 1130-6번지 해중프라자 301호","indutype":"레저업소 - 노 래 방","category":"leisure"}]},{"lat":"37.502513287","long":"126.77113441","imageIndex":13,"items":[{"name":"명품 필라테스","tel":"032-261-1999","addr":"경기도 부천시 중동 1147-1번지 세진빌딩 301호","indutype":"레저업소 - 헬스클럽","category":"leisure"}]},{"lat":"37.508232777","long":"126.76124308","imageIndex":13,"items":[{"name":"반석수영장","tel":"032-324-7771","addr":"경기도 부천시 중동 1030-1번지 반석유치원","indutype":"레저업소 - 수 영 장","category":"leisure"}]},{"lat":"37.50203875","long":"126.7726626","imageIndex":13,"items":[{"name":"버팔로복싱짐","tel":"032-329-1212","addr":"경기도 부천시 중동 1142-18번지 301,302호","indutype":"레저업소 - 헬스클럽","category":"leisure"}]},{"lat":"37.502175943","long":"126.77371393","imageIndex":13,"items":[{"name":"베네치아PC","tel":"070-2843-3764","addr":"경기도 부천시 중동 1142-7번지 엘지프라자 3층 301,302호","indutype":"레저업소 - 기타레져업소","category":"leisure"}]},{"lat":"37.495982817","long":"126.76296747","imageIndex":13,"items":[{"name":"벨기에당구클럽","tel":"032-668-7779","addr":"경기도 부천시 중동 682-5번지 태산빌딩 지하1층","indutype":"레저업소 - 당 구 장","category":"leisure"}]},{"lat":"37.498622022","long":"126.77630314","imageIndex":13,"items":[{"name":"별을 쏘다","tel":"031-1899-3272","addr":"경기도 부천시 중동 1130-15번지 2층 201,202호","indutype":"레저업소 - 기타레져업소","category":"leisure"},{"name":"시계탑당구클럽","tel":"","addr":"경기도 부천시 중동 1130-15번지 삼화빌딩 3층 301호","indutype":"레저업소 - 당 구 장","category":"leisure"}]},{"lat":"37.501399205","long":"126.77274373","imageIndex":13,"items":[{"name":"보보스노래연습장","tel":"032-325-9709","addr":"경기도 부천시 중동 1143-6번지2층202,.203호","indutype":"레저업소 - 노 래 방","category":"leisure"},{"name":"보보스노래연습장","tel":"032-325-9709","addr":"경기도 부천시 중동 1143-6번지 신풍프라자 202호","indutype":"레저업소 - 노 래 방","category":"leisure"}]},{"lat":"37.495956865","long":"126.76349904","imageIndex":13,"items":[{"name":"복사골노래방","tel":"032-663-8737","addr":"경기도 부천시 중동 705번지","indutype":"레저업소 - 노 래 방","category":"leisure"}]},{"lat":"37.502979205","long":"126.76085288","imageIndex":13,"items":[{"name":"봄 필라테스","tel":"","addr":"경기도 부천시 중동 1167-3번지 파크리움 206호,207호","indutype":"레저업소 - 헬스클럽","category":"leisure"}]},{"lat":"37.502561959","long":"126.7639077","imageIndex":13,"items":[{"name":"부광탁구클럽","tel":"032-323-3737","addr":"경기도 부천시 중동 1159-5번지 부광프라자 B01호","indutype":"레저업소 - 기타레져업소","category":"leisure"}]},{"lat":"37.492375103","long":"126.77010282","imageIndex":13,"items":[{"name":"부천노래연습장","tel":"032-653-9891","addr":"경기도 부천시 중동 774-24번지","indutype":"레저업소 - 노 래 방","category":"leisure"},{"name":"부천당구장","tel":"031-000-0000","addr":"경기도 부천시 중동 774-24번지 아세아오트프라자 3층","indutype":"레저업소 - 당 구 장","category":"leisure"}]},{"lat":"37.502760463","long":"126.77313537","imageIndex":13,"items":[{"name":"부천생생도시농업네트워크","tel":"032-321-2611","addr":"경기도 부천시 중동 1141-2번지 프리머스부천타워 119호","indutype":"레저업소 - 기타레져업소","category":"leisure"},{"name":"아이펀펀","tel":"032-323-3682","addr":"경기도 부천시 중동 1141-2번지 프리머스부천타워 402호","indutype":"레저업소 - 기타레져업소","category":"leisure"},{"name":"주식회사더센터오브필라테스 부천점","tel":"032-323-9496","addr":"경기도 부천시 중동 1141-2번지 프리머스부천타워 7층 724호","indutype":"레저업소 - 헬스클럽","category":"leisure"}]},{"lat":"37.496369274","long":"126.77616294","imageIndex":13,"items":[{"name":"부천스핀아레나롤러장","tel":"032-719-7770","addr":"경기도 부천시 중동 1123번지 금호프라자 7층 701호","indutype":"레저업소 - 기타레져업소","category":"leisure"},{"name":"텐텐볼링","tel":"032-205-0077","addr":"경기도 부천시 중동 1123번지 금호프라자 201호","indutype":"레저업소 - 볼 링 장","category":"leisure"}]},{"lat":"37.498757105","long":"126.77626881","imageIndex":13,"items":[{"name":"부킹노래연습장","tel":"032-327-4824","addr":"경기도 부천시 중동 1130-16번지 우신프라자 205호","indutype":"레저업소 - 노 래 방","category":"leisure"},{"name":"소나무노래연습장","tel":"032-327-7211","addr":"경기도 부천시 중동 1130-16번지205호~208호","indutype":"레저업소 - 노 래 방","category":"leisure"},{"name":"쓰리팝PC카페","tel":"070-7323-6299","addr":"경기도 부천시 중동 1130-16번지 우신프라자 301호","indutype":"레저업소 - 기타레져업소","category":"leisure"}]},{"lat":"37.497424338","long":"126.7766347","imageIndex":13,"items":[{"name":"붐(BooM)피씨방","tel":"","addr":"경기도 부천시 중동 1127번지","indutype":"레저업소 - 기타레져업소","category":"leisure"}]},{"lat":"37.502840186","long":"126.77243396","imageIndex":13,"items":[{"name":"브이아이피 (VIP)스크린골프","tel":"032-662-7272","addr":"경기도 부천시 중동 1141번지 204,205호","indutype":"레저업소 - 스크린골프","category":"leisure"}]},{"lat":"37.497729828","long":"126.77619275","imageIndex":13,"items":[{"name":"비비(BB)PC카페","tel":"070-8981-3082","addr":"경기도 부천시 중동 1130-8번지 금강프라자 201호 202호","indutype":"레저업소 - 기타레져업소","category":"leisure"},{"name":"타겟존 부천점","tel":"032-323-4979","addr":"경기도 부천시 중동 1130-8번지 금강프라자 3층 301,302호","indutype":"레저업소 - 기타레져업소","category":"leisure"}]},{"lat":"37.496730254","long":"126.77646717","imageIndex":13,"items":[{"name":"비타민노래연습장","tel":"02-1111-1111","addr":"경기도 부천시 중동 1127-6번지 지하1층","indutype":"레저업소 - 노 래 방","category":"leisure"},{"name":"캐슬당구장","tel":"032-672-5541","addr":"경기도 부천시 중동 1127-6번지 2층","indutype":"레저업소 - 당 구 장","category":"leisure"},{"name":"타이거볼더 클라이밍짐","tel":"032-665-5015","addr":"경기도 부천시 중동 1127-6번지","indutype":"레저업소 - 기타레져업소","category":"leisure"}]},{"lat":"37.501758518","long":"126.77218848","imageIndex":13,"items":[{"name":"빅박스당구장","tel":"032-212-8787","addr":"경기도 부천시 중동 1143번지 신일아르디세 2층 206호","indutype":"레저업소 - 당 구 장","category":"leisure"},{"name":"샹떼PC방","tel":"070-8442-3515","addr":"경기도 부천시 중동 1143번지 신일아르디세 205호","indutype":"레저업소 - 기타레져업소","category":"leisure"}]},{"lat":"37.503263604","long":"126.76335131","imageIndex":13,"items":[{"name":"빅볼","tel":"032-1111-1111","addr":"경기도 부천시 중동 1158-13번지 우곡프라자 201호","indutype":"레저업소 - 당 구 장","category":"leisure"}]},{"lat":"37.503897769","long":"126.76063504","imageIndex":13,"items":[{"name":"빙고노래연습장","tel":"032-327-7823","addr":"경기도 부천시 중동 1166-2번지 럭스타운 지하1층 2호","indutype":"레저업소 - 노 래 방","category":"leisure"}]},{"lat":"37.502207218","long":"126.77127106","imageIndex":13,"items":[{"name":"빠짐빠짐","tel":"032-326-9050","addr":"경기도 부천시 중동 1147-10번지 3층","indutype":"레저업소 - 헬스클럽","category":"leisure"}]},{"lat":"37.50128608","long":"126.77018825","imageIndex":13,"items":[{"name":"사이버파크PC방","tel":"032-681-0637","addr":"경기도 부천시 중동 1152-3번지 메트로팰리스1차 203,203호,204호","indutype":"레저업소 - 기타레져업소","category":"leisure"}]},{"lat":"37.499819008","long":"126.77560969","imageIndex":13,"items":[{"name":"상상노래연습장","tel":"032-322-9517","addr":"경기도 부천시 중동 1133-11번지 우신프라자4차빌딩 B102호","indutype":"레저업소 - 노 래 방","category":"leisure"}]},{"lat":"37.503844567","long":"126.76105366","imageIndex":13,"items":[{"name":"샵 노래연습장","tel":"032-324-9614","addr":"경기도 부천시 중동 1166-4번지 영플러스3차 지층 101호","indutype":"레저업소 - 노 래 방","category":"leisure"}]},{"lat":"37.500369023","long":"126.77582289","imageIndex":13,"items":[{"name":"샵코인노래연습장","tel":"032-342-4701","addr":"경기도 부천시 중동 1133번지 2층 202호","indutype":"레저업소 - 노 래 방","category":"leisure"}]},{"lat":"37.492872607","long":"126.76655065","imageIndex":13,"items":[{"name":"샹떼PC방 중동점","tel":"070-5020-5323","addr":"경기도 부천시 중동 770-5번지 창신빌딩 2층","indutype":"레저업소 - 기타레져업소","category":"leisure"},{"name":"오케이노래연습장","tel":"032-675-5545","addr":"경기도 부천시 중동 770-5번지","indutype":"레저업소 - 노 래 방","category":"leisure"}]},{"lat":"37.497820556","long":"126.77652042","imageIndex":13,"items":[{"name":"세븐스타 코인노래연습장","tel":"","addr":"경기도 부천시 중동 1130-10번지 부천프라자 2층 201,202호","indutype":"레저업소 - 노 래 방","category":"leisure"},{"name":"핫필라테스","tel":"032-0000-0000","addr":"경기도 부천시 중동 1130-10번지 부천프라자 3층","indutype":"레저업소 - 헬스클럽","category":"leisure"}]},{"lat":"37.495423528","long":"126.76710802","imageIndex":13,"items":[{"name":"셀프동전노래연습장","tel":"","addr":"경기도 부천시 중동 713-9번지 지층","indutype":"레저업소 - 노 래 방","category":"leisure"},{"name":"지노(JINO)복싱다이어트","tel":"032-611-3232","addr":"경기도 부천시 중동 713-9번지 현대빌딩 5층","indutype":"레저업소 - 헬스클럽","category":"leisure"}]},{"lat":"37.501260521","long":"126.77557139","imageIndex":13,"items":[{"name":"수당구장","tel":"070-7378-1381","addr":"경기도 부천시 중동 1137-2번지 301,302호","indutype":"레저업소 - 당 구 장","category":"leisure"}]},{"lat":"37.500872618","long":"126.77532377","imageIndex":13,"items":[{"name":"쉼표","tel":"032-328-6777","addr":"경기도 부천시 중동 1136번지 3층","indutype":"레저업소 - 기타레져업소","category":"leisure"}]},{"lat":"37.499620095","long":"126.77524841","imageIndex":13,"items":[{"name":"스마일골프","tel":"032-324-2232","addr":"경기도 부천시 중동 1134-2번지 골드존8층 801호","indutype":"레저업소 - 골프연습장","category":"leisure"},{"name":"캐롬스쿨","tel":"032-329-1107","addr":"경기도 부천시 중동 1134-2번지 골드존타워 502호","indutype":"레저업소 - 당 구 장","category":"leisure"}]},{"lat":"37.496291123","long":"126.76393899","imageIndex":13,"items":[{"name":"스카이노래연습장","tel":"032-611-0090","addr":"경기도 부천시 중동 675-13번지 지층","indutype":"레저업소 - 노 래 방","category":"leisure"}]},{"lat":"37.497118155","long":"126.77671478","imageIndex":13,"items":[{"name":"스타노래연습장","tel":"032-328-7320","addr":"경기도 부천시 중동 1127-2번지 은성프라자3차 202호","indutype":"레저업소 - 노 래 방","category":"leisure"}]},{"lat":"37.504977809","long":"126.76449941","imageIndex":13,"items":[{"name":"스파르타짐","tel":"032-323-9682","addr":"경기도 부천시 중동 1033-3번지 굿모닝프라자 506호","indutype":"레저업소 - 헬스클럽","category":"leisure"},{"name":"첼로노래연습장","tel":"","addr":"경기도 부천시 중동 1033-3번지 굿모닝프라자 213,214호","indutype":"레저업소 - 노 래 방","category":"leisure"},{"name":"플래임피트니스","tel":"032-322-6621","addr":"경기도 부천시 중동 1033-3번지 굿모닝프라자 613호 ,614,615,616호","indutype":"레저업소 - 헬스클럽","category":"leisure"}]},{"lat":"37.502402544","long":"126.76980027","imageIndex":13,"items":[{"name":"스퍼스짐","tel":"032-225-1245","addr":"경기도 부천시 중동 1150-11번지 201,202호","indutype":"레저업소 - 헬스클럽","category":"leisure"}]},{"lat":"37.487349217","long":"126.77094381","imageIndex":13,"items":[{"name":"시민노래연습장","tel":"032-111-1111","addr":"경기도 부천시 중동 795번지 지하1층","indutype":"레저업소 - 노 래 방","category":"leisure"}]},{"lat":"37.502233871","long":"126.77107872","imageIndex":13,"items":[{"name":"시스템당구클럽","tel":"070-4103-8090","addr":"경기도 부천시 중동 1147-11번지 뉴월드프라자 201,202호","indutype":"레저업소 - 당 구 장","category":"leisure"}]},{"lat":"37.500035832","long":"126.77591437","imageIndex":13,"items":[{"name":"신중동 스트라이크존","tel":"032-324-0909","addr":"경기도 부천시 중동 1133-2번지 B14호-27호","indutype":"레저업소 - 기타레져업소","category":"leisure"},{"name":"야시노래연습장","tel":"032-325-8419","addr":"경기도 부천시 중동 1133-2번지 유진빌딩 B08호","indutype":"레저업소 - 노 래 방","category":"leisure"}]},{"lat":"37.496010525","long":"126.77702345","imageIndex":13,"items":[{"name":"심쿵실내낚시터","tel":"050-5477-4561","addr":"경기도 부천시 중동 1124-11번지 대명빌딩 지하1층","indutype":"레저업소 - 기타레져업소","category":"leisure"}]},{"lat":"37.502761776","long":"126.76921108","imageIndex":13,"items":[{"name":"씨티당구장","tel":"032-321-3939","addr":"경기도 부천시 중동 1150번지","indutype":"레저업소 - 당 구 장","category":"leisure"}]},{"lat":"37.494873813","long":"126.76705321","imageIndex":13,"items":[{"name":"아싸노래연습장","tel":"032-612-5482","addr":"경기도 부천시 중동 716-4번지","indutype":"레저업소 - 노 래 방","category":"leisure"}]},{"lat":"37.502593176","long":"126.77052346","imageIndex":13,"items":[{"name":"아이센스pc","tel":"","addr":"경기도 부천시 중동 1150-6번지 우영프라자","indutype":"레저업소 - 기타레져업소","category":"leisure"}]},{"lat":"37.505066559","long":"126.76383186","imageIndex":13,"items":[{"name":"아이알 필라테스","tel":"032-325-8624","addr":"경기도 부천시 중동 1033-1번지 금영프라자 2층 202호","indutype":"레저업소 - 헬스클럽","category":"leisure"}]},{"lat":"37.502708611","long":"126.76966361","imageIndex":13,"items":[{"name":"아지트 당구장","tel":"032-326-7786","addr":"경기도 부천시 중동 1150-2번지 백곰빌딩 3층","indutype":"레저업소 - 당 구 장","category":"leisure"},{"name":"케니지노래연습장","tel":"032-328-2001","addr":"경기도 부천시 중동 1150-2번지 백곰빌딩 202호","indutype":"레저업소 - 노 래 방","category":"leisure"}]},{"lat":"37.503231003","long":"126.76957151","imageIndex":13,"items":[{"name":"아쿠아마린키즈스윔 부천점","tel":"032-322-5444","addr":"경기도 부천시 중동 1149번지 부천중동리슈빌엔클래스 지하1층 101호","indutype":"레저업소 - 수 영 장","category":"leisure"},{"name":"엘라폴라잉아카데미","tel":"","addr":"경기도 부천시 중동 1149번지 부천중동리슈빌엔클래스 214호","indutype":"레저업소 - 헬스클럽","category":"leisure"}]},{"lat":"37.502482359","long":"126.7691554","imageIndex":13,"items":[{"name":"알투지 크로스핏(R2G CrossFit)","tel":"032-323-6864","addr":"경기도 부천시 중동 1150-14번지 삼성프라자 B01호","indutype":"레저업소 - 헬스클럽","category":"leisure"},{"name":"피디피노래연습장","tel":"032-329-2335","addr":"경기도 부천시 중동 1150-14번지 삼성프라자 301호","indutype":"레저업소 - 노 래 방","category":"leisure"}]},{"lat":"37.501207483","long":"126.77610308","imageIndex":13,"items":[{"name":"애 라인 핏 (ae LINE FIT)","tel":"","addr":"경기도 부천시 중동 1140-4번지 트리플타워c 3층 307호","indutype":"레저업소 - 헬스클럽","category":"leisure"}]},{"lat":"37.5014549","long":"126.76898897","imageIndex":13,"items":[{"name":"애플스크린골프","tel":"032-000-0000","addr":"경기도 부천시 중동 1152번지 상록센트럴타워 305호","indutype":"레저업소 - 스크린골프","category":"leisure"}]},{"lat":"37.503644983","long":"126.76038705","imageIndex":13,"items":[{"name":"앤노래연습장","tel":"","addr":"경기도 부천시 중동 1166-9번지 만흥프라자 3층","indutype":"레저업소 - 노 래 방","category":"leisure"}]},{"lat":"37.496397729","long":"126.76319231","imageIndex":13,"items":[{"name":"앵콜노래연습장","tel":"","addr":"경기도 부천시 중동 677-8번지 지층","indutype":"레저업소 - 노 래 방","category":"leisure"}]},{"lat":"37.500762513","long":"126.774295","imageIndex":13,"items":[{"name":"에스골프아카데미","tel":"02-2060-0707","addr":"경기도 부천시 중동 1135번지 대야하이빌2 1206호","indutype":"레저업소 - 골프연습장","category":"leisure"},{"name":"은진노래연습장","tel":"032-327-1337","addr":"경기도 부천시 중동 1135번지 하이빌 2동 202호","indutype":"레저업소 - 노 래 방","category":"leisure"}]},{"lat":"37.503174743","long":"126.7639623","imageIndex":13,"items":[{"name":"에스비에스(SBS)노래연습장","tel":"032-657-2022","addr":"경기도 부천시 중동 1158-10번지 강남프라자 지층 102호","indutype":"레저업소 - 노 래 방","category":"leisure"},{"name":"큐당구클럽","tel":"032-321-2924","addr":"경기도 부천시 중동 1158-10번지 강남프라자 2층","indutype":"레저업소 - 당 구 장","category":"leisure"}]},{"lat":"37.503425101","long":"126.77671838","imageIndex":13,"items":[{"name":"에스지(SG)골프 도우스크린","tel":"032-327-3210","addr":"경기도 부천시 중동 1062-4번지 로얄프라자 7층 702호","indutype":"레저업소 - 스크린골프","category":"leisure"}]},{"lat":"37.500709","long":"126.77457788","imageIndex":13,"items":[{"name":"에이스PC방","tel":"032-313-2226","addr":"경기도 부천시 중동 1135-1번지 제일프라자 301호~303호 301호","indutype":"레저업소 - 기타레져업소","category":"leisure"}]},{"lat":"37.502144969","long":"126.77168969","imageIndex":13,"items":[{"name":"에이플러스노래연습장","tel":"070-7377-4848","addr":"경기도 부천시 중동 1147-8번지 광성빌딩 지층 1호","indutype":"레저업소 - 노 래 방","category":"leisure"},{"name":"킹노래연습장","tel":"032-326-1065","addr":"경기도 부천시 중동 1147-8번지 광성프라자 301호","indutype":"레저업소 - 노 래 방","category":"leisure"}]},{"lat":"37.495760546","long":"126.76443824","imageIndex":13,"items":[{"name":"엔플러스PC방","tel":"070-6311-9245","addr":"경기도 부천시 중동 707-2번지 삼우빌딩 지층","indutype":"레저업소 - 기타레져업소","category":"leisure"}]},{"lat":"37.50512","long":"126.76352633","imageIndex":13,"items":[{"name":"엠에스24짐","tel":"032-327-7860","addr":"경기도 부천시 중동 1033번지 우신빌딩 B동 101호","indutype":"레저업소 - 헬스클럽","category":"leisure"}]},{"lat":"37.509844704","long":"126.76083072","imageIndex":13,"items":[{"name":"연평유선","tel":"032-884-7300","addr":"경기도 부천시 중동 1027번지 한라마을주공3차아파트","indutype":"레저업소 - 기타레져업소","category":"leisure"}]},{"lat":"37.503148125","long":"126.76416595","imageIndex":13,"items":[{"name":"오케이노래연습장","tel":"032-321-3337","addr":"경기도 부천시 중동 1158-9번지 케이원빌딩 지하층 101호","indutype":"레저업소 - 노 래 방","category":"leisure"}]},{"lat":"37.502680385","long":"126.77365584","imageIndex":13,"items":[{"name":"온데아르 필라테스(ONDEAR PILATES)","tel":"","addr":"경기도 부천시 중동 1141-3번지 신중동역 헤리움 메트로 414호 413호, 414호","indutype":"레저업소 - 헬스클럽","category":"leisure"}]},{"lat":"37.493872911","long":"126.78058055","imageIndex":13,"items":[{"name":"온정 프라이빗 필라테스","tel":"","addr":"경기도 부천시 중동 1118-1번지 301동 1-209호","indutype":"레저업소 - 헬스클럽","category":"leisure"}]},{"lat":"37.495868048","long":"126.76413258","imageIndex":13,"items":[{"name":"와노래연습장","tel":"","addr":"경기도 부천시 중동 707번지 지하","indutype":"레저업소 - 노 래 방","category":"leisure"}]},{"lat":"37.502342463","long":"126.76230251","imageIndex":13,"items":[{"name":"요가액트","tel":"032-329-0366","addr":"경기도 부천시 중동 1161-3번지 일신빌딩 2층 204호 ,205호","indutype":"레저업소 - 헬스클럽","category":"leisure"},{"name":"요가포유","tel":"032-328-3010","addr":"경기도 부천시 중동 1161-3번지 일신빌딩 6층 601호","indutype":"레저업소 - 헬스클럽","category":"leisure"},{"name":"일신G.C(일신글로벌컴퍼니)","tel":"032-328-1118","addr":"경기도 부천시 중동 1161-3번지 일신빌딩 지하층 101호","indutype":"레저업소 - 골프연습장","category":"leisure"}]},{"lat":"37.50237596","long":"126.77002654","imageIndex":13,"items":[{"name":"용가리노래연습장","tel":"032-321-7155","addr":"경기도 부천시 중동 1150-10번지 알파프라자 302호","indutype":"레저업소 - 노 래 방","category":"leisure"}]},{"lat":"37.505901053","long":"126.77579483","imageIndex":13,"items":[{"name":"원바디짐","tel":"032-322-7995","addr":"경기도 부천시 중동 1061-2번지 함천빌딩 5층","indutype":"레저업소 - 헬스클럽","category":"leisure"}]},{"lat":"37.495014967","long":"126.77941244","imageIndex":13,"items":[{"name":"원시스","tel":"","addr":"경기도 부천시 중동 1116번지 리첸시아중동 지하1층 B101, B102호","indutype":"레저업소 - 헬스클럽","category":"leisure"},{"name":"컨트롤스튜디오(Control studio)","tel":"032-682-0110","addr":"경기도 부천시 중동 1116번지 중동리첸시아 237호238호","indutype":"레저업소 - 헬스클럽","category":"leisure"}]},{"lat":"37.508925877","long":"126.77449631","imageIndex":13,"items":[{"name":"웰헬스","tel":"032-673-6060","addr":"경기도 부천시 중동 3-77번지 나성빌딩 2층","indutype":"레저업소 - 헬스클럽","category":"leisure"}]},{"lat":"37.493674869","long":"126.76674036","imageIndex":13,"items":[{"name":"이게PC방이다","tel":"","addr":"경기도 부천시 중동 750번지 태양프라자 2층","indutype":"레저업소 - 기타레져업소","category":"leisure"},{"name":"제일당구장","tel":"032-657-3533","addr":"경기도 부천시 중동 750번지 태양프라자 5층 전체","indutype":"레저업소 - 당 구 장","category":"leisure"},{"name":"준노래연습장","tel":"032-657-3533","addr":"경기도 부천시 중동 750번지 태양프라자 3층","indutype":"레저업소 - 노 래 방","category":"leisure"}]},{"lat":"37.495009456","long":"126.7765176","imageIndex":13,"items":[{"name":"이존스크린골프","tel":"032-321-0753","addr":"경기도 부천시 중동 1122번지 701호","indutype":"레저업소 - 스크린골프","category":"leisure"}]},{"lat":"37.50328503","long":"126.76060309","imageIndex":13,"items":[{"name":"이케이짐","tel":"032-322-3795","addr":"경기도 부천시 중동 1167-1번지 701, 703호","indutype":"레저업소 - 헬스클럽","category":"leisure"}]},{"lat":"37.501206148","long":"126.77077656","imageIndex":13,"items":[{"name":"잼잼홀릭","tel":"031-684-8174","addr":"경기도 부천시 중동 1145번지 매트로펠리스II 2층 203호","indutype":"레저업소 - 기타레져업소","category":"leisure"}]},{"lat":"37.50173684","long":"126.77032256","imageIndex":13,"items":[{"name":"저스틴짐(Justin gym)","tel":"032-327-6655","addr":"경기도 부천시 중동 1151-4번지 이스트타워-투 202호","indutype":"레저업소 - 헬스클럽","category":"leisure"},{"name":"한게임당구장","tel":"","addr":"경기도 부천시 중동 1151-4번지 이스트타워투 302호","indutype":"레저업소 - 당 구 장","category":"leisure"},{"name":"헤라노래연습장","tel":"032-321-5444","addr":"경기도 부천시 중동 1151-4번지 이스트타워 투 3층 301호","indutype":"레저업소 - 노 래 방","category":"leisure"}]},{"lat":"37.497260773","long":"126.77591146","imageIndex":13,"items":[{"name":"점핑다이어트 휘트니스","tel":"","addr":"경기도 부천시 중동 1128번지 그린프라자 601-1호","indutype":"레저업소 - 헬스클럽","category":"leisure"},{"name":"필라테스YuJu번지피지오","tel":"032-321-0706","addr":"경기도 부천시 중동 1128번지 그린프라자 601호","indutype":"레저업소 - 헬스클럽","category":"leisure"}]},{"lat":"37.504507512","long":"126.76810862","imageIndex":13,"items":[{"name":"점핑파크","tel":"032-324-1990","addr":"경기도 부천시 중동 1035-1번지 크리스탈 5층","indutype":"레저업소 - 기타레져업소","category":"leisure"}]},{"lat":"37.500869031","long":"126.77346912","imageIndex":13,"items":[{"name":"점핑피트니스","tel":"070-8253-9515","addr":"경기도 부천시 중동 1144-4번지 탑프라자 502호","indutype":"레저업소 - 헬스클럽","category":"leisure"}]},{"lat":"37.50120583","long":"126.7752436","imageIndex":13,"items":[{"name":"정당구클럽","tel":"070-7562-3620","addr":"경기도 부천시 중동 1137-4번지 양지프라자 201호","indutype":"레저업소 - 당 구 장","category":"leisure"}]},{"lat":"37.498450921","long":"126.77634889","imageIndex":13,"items":[{"name":"제이제이노래연습장","tel":"032-321-1719","addr":"경기도 부천시 중동 1130-14번지 지하1층 101호","indutype":"레저업소 - 노 래 방","category":"leisure"}]},{"lat":"37.494486209","long":"126.76696396","imageIndex":13,"items":[{"name":"제이제이트라이브","tel":"032-326-4417","addr":"경기도 부천시 중동 719-7번지 예진빌딩 5층","indutype":"레저업소 - 헬스클럽","category":"leisure"}]},{"lat":"37.487064042","long":"126.77255026","imageIndex":13,"items":[{"name":"젠노래연습장","tel":"032-662-4585","addr":"경기도 부천시 중동 793번지 수일빌딩 2층","indutype":"레저업소 - 노 래 방","category":"leisure"}]},{"lat":"37.505928911","long":"126.76255112","imageIndex":13,"items":[{"name":"중4동주민자치위원회","tel":"032-625-5697","addr":"경기도 부천시 중동 1032번지 중4동주민센터","indutype":"레저업소 - 헬스클럽","category":"leisure"}]},{"lat":"37.502786833","long":"126.77279601","imageIndex":13,"items":[{"name":"중동 포에버핏","tel":"032-255-1778","addr":"경기도 부천시 중동 1141-1번지 무광오피스빌딩 303호","indutype":"레저업소 - 헬스클럽","category":"leisure"}]},{"lat":"37.498539478","long":"126.77554572","imageIndex":13,"items":[{"name":"중동드림스크린골프","tel":"032-324-8060","addr":"경기도 부천시 중동 1129-1번지 센타프라자 304동 309호","indutype":"레저업소 - 스크린골프","category":"leisure"}]},{"lat":"37.503227978","long":"126.76355499","imageIndex":13,"items":[{"name":"중동탁구교실","tel":"032-111-1111","addr":"경기도 부천시 중동 1158-12번지 백산빌딩 3층","indutype":"레저업소 - 기타레져업소","category":"leisure"}]},{"lat":"37.50384191","long":"126.77326777","imageIndex":13,"items":[{"name":"지인스크린골프존","tel":"032-325-9538","addr":"경기도 부천시 중동 1058-2번지 중동프라자 501,511호","indutype":"레저업소 - 스크린골프","category":"leisure"}]},{"lat":"37.503618348","long":"126.76057939","imageIndex":13,"items":[{"name":"쵸커스","tel":"","addr":"경기도 부천시 중동 1166-8번지 301-302호","indutype":"레저업소 - 당 구 장","category":"leisure"},{"name":"히트코인노래연습장","tel":"032-212-0838","addr":"경기도 부천시 중동 1166-8번지 202호","indutype":"레저업소 - 노 래 방","category":"leisure"}]},{"lat":"37.495735089","long":"126.76521858","imageIndex":13,"items":[{"name":"캣츠노래연습장","tel":"032-663-1822","addr":"경기도 부천시 중동 712번지 지층","indutype":"레저업소 - 노 래 방","category":"leisure"}]},{"lat":"37.500927373","long":"126.77568549","imageIndex":13,"items":[{"name":"케니지노래연습장","tel":"032-323-6577","addr":"경기도 부천시 중동 1136-4번지","indutype":"레저업소 - 노 래 방","category":"leisure"}]},{"lat":"37.503422976","long":"126.76197107","imageIndex":13,"items":[{"name":"케롬클럽당구장","tel":"070-7337-3949","addr":"경기도 부천시 중동 1163-11 현대프라자제지층 01,02호","indutype":"레저업소 - 당 구 장","category":"leisure"},{"name":"큐 노래연습장","tel":"032-326-2655","addr":"경기도 부천시 중동 1163-11번지 현대프라자 301호","indutype":"레저업소 - 노 래 방","category":"leisure"}]},{"lat":"37.492761584","long":"126.76510362","imageIndex":13,"items":[{"name":"코러스 노래연습장","tel":"032-653-5615","addr":"경기도 부천시 중동 769-2번지","indutype":"레저업소 - 노 래 방","category":"leisure"}]},{"lat":"37.500958667","long":"126.77791326","imageIndex":13,"items":[{"name":"퀸즈","tel":"032-611-8400","addr":"경기도 부천시 중동 1107번지 위브더스테이트제상가 2동 210호","indutype":"레저업소 - 헬스클럽","category":"leisure"}]},{"lat":"37.495763817","long":"126.7616112","imageIndex":13,"items":[{"name":"크렉스포츠클럽","tel":"032-663-7679","addr":"경기도 부천시 중동 681번지 경동빌딩 5층","indutype":"레저업소 - 기타레져업소","category":"leisure"}]},{"lat":"37.49650955","long":"126.76502389","imageIndex":13,"items":[{"name":"킹노래연습장","tel":"032-611-9700","addr":"경기도 부천시 중동 628-6번지 지층","indutype":"레저업소 - 노 래 방","category":"leisure"}]},{"lat":"37.503511827","long":"126.76136008","imageIndex":13,"items":[{"name":"탑노래연습장","tel":"032-326-3580","addr":"경기도 부천시 중동 1163-14번지 B101층","indutype":"레저업소 - 노 래 방","category":"leisure"}]},{"lat":"37.503480803","long":"126.76382561","imageIndex":13,"items":[{"name":"태양노래연습장","tel":"032-326-9803","addr":"경기도 부천시 중동 1158-3번지 301호,302호","indutype":"레저업소 - 노 래 방","category":"leisure"}]},{"lat":"37.49484645","long":"126.7714408","imageIndex":13,"items":[{"name":"특공무술 페어짐","tel":"032-614-9282","addr":"경기도 부천시 중동 1208-3번지 삼성빌딩 6층","indutype":"레저업소 - 헬스클럽","category":"leisure"}]},{"lat":"37.511152032","long":"126.76571261","imageIndex":13,"items":[{"name":"티파니노래연습장","tel":"032-665-3660","addr":"경기도 부천시 중동 1045-5번지 지하1층","indutype":"레저업소 - 노 래 방","category":"leisure"}]},{"lat":"37.487953896","long":"126.76690536","imageIndex":13,"items":[{"name":"팡팡노래연습장","tel":"","addr":"경기도 부천시 중동 805번지 동원상가 지층 2호","indutype":"레저업소 - 노 래 방","category":"leisure"}]},{"lat":"37.51095377","long":"126.76569062","imageIndex":13,"items":[{"name":"팰리스노래연습장","tel":"032-321-0263","addr":"경기도 부천시 중동 1042-6번지 지하1층","indutype":"레저업소 - 노 래 방","category":"leisure"}]},{"lat":"37.502424385","long":"126.77174538","imageIndex":13,"items":[{"name":"펀 필라테스(FUN PILATES)","tel":"032-612-2341","addr":"경기도 부천시 중동 1147-4번지 2층","indutype":"레저업소 - 헬스클럽","category":"leisure"}]},{"lat":"37.50295665","long":"126.76304694","imageIndex":13,"items":[{"name":"프랜드PC방","tel":"032-000-0000","addr":"경기도 부천시 중동 1159번지 이원빌딩 B01호","indutype":"레저업소 - 기타레져업소","category":"leisure"}]},{"lat":"37.496956085","long":"126.77677181","imageIndex":13,"items":[{"name":"프로24당구클럽","tel":"032-323-3949","addr":"경기도 부천시 중동 1127-3번지 2층 202호 201","indutype":"레저업소 - 당 구 장","category":"leisure"}]},{"lat":"37.497927133","long":"126.7757172","imageIndex":13,"items":[{"name":"프로당구장","tel":"032-321-0258","addr":"경기도 부천시 중동 1129-3번지 (501~503호)","indutype":"레저업소 - 당 구 장","category":"leisure"}]},{"lat":"37.5034586","long":"126.76176739","imageIndex":13,"items":[{"name":"피닉스다트프라자 중동점","tel":"031-000-0000","addr":"경기도 부천시 중동 1163-12번지 지1호 일부, 지2호 일부","indutype":"레저업소 - 기타레져업소","category":"leisure"}]},{"lat":"37.502202599","long":"126.77352159","imageIndex":13,"items":[{"name":"필당구장","tel":"032-123-1234","addr":"경기도 부천시 중동 1142-6번지 202호 201호,202호","indutype":"레저업소 - 당 구 장","category":"leisure"}]},{"lat":"37.501674705","long":"126.77079773","imageIndex":13,"items":[{"name":"해원골프연습장","tel":"032-327-5543","addr":"경기도 부천시 중동 1146-7번지 신풍프라자 601호","indutype":"레저업소 - 골프연습장","category":"leisure"}]},{"lat":"37.497207516","long":"126.77633003","imageIndex":13,"items":[{"name":"헐리우드 당구장","tel":"032-325-4939","addr":"경기도 부천시 중동 1127-11번지 2층","indutype":"레저업소 - 당 구 장","category":"leisure"}]},{"lat":"37.498567311","long":"126.77596405","imageIndex":13,"items":[{"name":"헤라 노래연습장","tel":"032-321-9811","addr":"경기도 부천시 중동 1130-3번지 신영프라자 B01호","indutype":"레저업소 - 노 래 방","category":"leisure"}]},{"lat":"37.503485237","long":"126.76157504","imageIndex":13,"items":[{"name":"헤라 노래연습장","tel":"032-321-3110","addr":"경기도 부천시 중동 1163-13번지","indutype":"레저업소 - 노 래 방","category":"leisure"}]},{"lat":"37.504703001","long":"126.76673956","imageIndex":13,"items":[{"name":"헬로방방중상동점","tel":"032-321-8502","addr":"경기도 부천시 중동 1034-4번지 드림빌딩 305동 310호","indutype":"레저업소 - 기타레져업소","category":"leisure"}]},{"lat":"37.496981575","long":"126.77596885","imageIndex":13,"items":[{"name":"홀인원골프연습장","tel":"032-329-5858","addr":"경기도 부천시 중동 1128-1번지 우성프라자 701호","indutype":"레저업소 - 골프연습장","category":"leisure"}]},{"lat":"37.503290198","long":"126.76313635","imageIndex":13,"items":[{"name":"힐링노래연습장","tel":"032-321-9494","addr":"경기도 부천시 중동 1158-14번지 강림프라자 지층 B-102호,B-103호","indutype":"레저업소 - 노 래 방","category":"leisure"}]},{"lat":"37.495424481","long":"126.76310496","imageIndex":13,"items":[{"name":"힐링노래연습장","tel":"032-123-1234","addr":"경기도 부천시 중동 684-11번지 지층","indutype":"레저업소 - 노 래 방","category":"leisure"}]}]