[{"lat":"37.085506426","long":"127.0618609","imageIndex":0,"items":[{"name":"네비게이션AS센터","tel":"031-667-7119","addr":"경기도 평택시 독곡동 360-15번지","indutype":"자동차정비 유지 - 자동차부품","category":"car"},{"name":"송탄 밧데리 할인매장 구가네","tel":"","addr":"경기도 평택시 독곡동 360-15번지 1층 101호","indutype":"자동차정비 유지 - 자동차부품","category":"car"}]},{"lat":"37.084452229","long":"127.06178136","imageIndex":0,"items":[{"name":"넥센타이어(주)타이어테크 평택독곡점","tel":"031-664-5985","addr":"경기도 평택시 독곡동 360번지","indutype":"자동차정비 유지 - 자동차시트·타이어","category":"car"}]},{"lat":"37.089402703","long":"127.07169424","imageIndex":0,"items":[{"name":"두원상사","tel":"031-611-6321","addr":"경기도 평택시 독곡동 159번지","indutype":"자동차정비 유지 - 자동차부품","category":"car"},{"name":"영일디젤차량전문점","tel":"031-665-0141","addr":"경기도 평택시 독곡동 159번지","indutype":"자동차정비 유지 - 자동차정비","category":"car"}]},{"lat":"37.090153268","long":"127.06689218","imageIndex":0,"items":[{"name":"신성모터스","tel":"031-666-2388","addr":"경기도 평택시 독곡동 238-8번지","indutype":"자동차정비 유지 - 자동차정비","category":"car"}]},{"lat":"37.086264726","long":"127.0589485","imageIndex":0,"items":[{"name":"쌍용자동차 호룡서비스프라자","tel":"031-664-5581","addr":"경기도 평택시 독곡동 398-5번지","indutype":"자동차정비 유지 - 자동차정비","category":"car"}]},{"lat":"37.084895253","long":"127.05866632","imageIndex":0,"items":[{"name":"제일텐트칼라","tel":"031-8094-0312","addr":"경기도 평택시 독곡동 406-37번지","indutype":"자동차정비 유지 - 자동차정비","category":"car"}]},{"lat":"37.083958165","long":"127.05864314","imageIndex":0,"items":[{"name":"차사랑세차장","tel":"031-663-5048","addr":"경기도 평택시 독곡동 406-73번지","indutype":"자동차정비 유지 - 세차장","category":"car"}]},{"lat":"37.087262927","long":"127.06297573","imageIndex":0,"items":[{"name":"한길상사","tel":"031-668-5185","addr":"경기도 평택시 독곡동 384-6번지","indutype":"자동차정비 유지 - 윤활유 전문 판매","category":"car"}]}]