[{"lat":"37.01140506","long":"127.09994983","imageIndex":4,"items":[{"name":"#NAME?","tel":"","addr":"경기도 평택시 동삭동 679-1번지","indutype":"음식점 - 한식","category":"restaurant"},{"name":"먹어섬","tel":"031-657-3937","addr":"경기도 평택시 동삭동 679-1번지","indutype":"음식점 - 한식","category":"restaurant"},{"name":"플러스(+)더드림정육식당","tel":"031-652-9232","addr":"경기도 평택시 동삭동 679-1번지","indutype":"일반휴게음식 - 일반한식","category":"restaurant"}]},{"lat":"37.006884791","long":"127.09609036","imageIndex":4,"items":[{"name":"1인자 숯불구이","tel":"031-655-9664","addr":"경기도 평택시 동삭동 704-5번지","indutype":"일반휴게음식 - 일반한식","category":"restaurant"},{"name":"돼지창고","tel":"031-651-0555","addr":"경기도 평택시 동삭동 704-5번지 1층","indutype":"일반휴게음식 - 일반한식","category":"restaurant"}]},{"lat":"37.019072228","long":"127.10106082","imageIndex":4,"items":[{"name":"60계치킨(평택동삭점)","tel":"031-658-6060","addr":"경기도 평택시 동삭동 산104-3번지 평택센트럴자이4단지 1동 0003호 (4블럭)","indutype":"일반휴게음식 - 스넥","category":"restaurant"},{"name":"국수나무 센트럴자이점","tel":"031-618-5111","addr":"경기도 평택시 동삭동 산104-3번지 평택센트럴자이4단지 상가동 111호","indutype":"일반휴게음식 - 일반한식","category":"restaurant"},{"name":"누나홀닭","tel":"031-657-9979","addr":"경기도 평택시 동삭동 산104-3번지 평택센트럴자이4단지 416동 124-125호","indutype":"일반휴게음식 - 스넥","category":"restaurant"},{"name":"누나홀닭동삭자이점","tel":"","addr":"경기도 평택시 동삭동 산104-3번지 센트럴자이4단지 416동 124,125호","indutype":"음식점 - 일반","category":"restaurant"},{"name":"도담치킨 동삭점","tel":"031-618-0607","addr":"경기도 평택시 동삭동 산104-3번지 센트럴자이4단지 416동 106호","indutype":"일반휴게음식 - 스넥","category":"restaurant"},{"name":"도담치킨 동삭점","tel":"","addr":"경기도 평택시 동삭동 산104-3번지 센트럴자이4단지 상가 6호","indutype":"음식점 - 치킨","category":"restaurant"},{"name":"메가엠지씨커피 평택동삭점","tel":"","addr":"경기도 평택시 동삭동 산104-3번지 평택센트럴자이4단지 416동 121호","indutype":"일반휴게음식 - 서양음식","category":"restaurant"},{"name":"비스트로감성 (Bistro감성)","tel":"","addr":"경기도 평택시 동삭동 산104-3번지 평택센트럴자이4단지 416동 1층 122호","indutype":"일반휴게음식 - 서양음식","category":"restaurant"},{"name":"쉬어가다 COFFEE","tel":"","addr":"경기도 평택시 동삭동 산104-3번지 평택센트럴자이4단지 416동 108호","indutype":"일반휴게음식 - 서양음식","category":"restaurant"},{"name":"옛날통닭","tel":"031-656-7915","addr":"경기도 평택시 동삭동 산104-3번지 평택센트럴자이4단지 416동 119호","indutype":"일반휴게음식 - 스넥","category":"restaurant"},{"name":"이순영달인왕족발","tel":"031-618-0092","addr":"경기도 평택시 동삭동 산104-3번지 평택센트럴자이4단지 1층 107호","indutype":"일반휴게음식 - 일반한식","category":"restaurant"},{"name":"파리바게뜨 평택동삭자이점","tel":"031-655-1451","addr":"경기도 평택시 동삭동 산104-3번지 센트럴자이4단지 416동 126-128호","indutype":"음식점 - 제과점","category":"restaurant"},{"name":"한남동그집 동삭자이점","tel":"","addr":"경기도 평택시 동삭동 산104-3번지 평택센트럴자이4단지 416동 123호","indutype":"일반휴게음식 - 일반한식","category":"restaurant"},{"name":"홍짜장 평택센트럴자이점","tel":"031-618-0022","addr":"경기도 평택시 동삭동 산104-3번지 평택센트럴자이4단지 416동 112호","indutype":"일반휴게음식 - 중국식","category":"restaurant"}]},{"lat":"37.012413209","long":"127.1012208","imageIndex":4,"items":[{"name":"BBQ치킨동삭점","tel":"031-655-5933","addr":"경기도 평택시 동삭동 680-4번지 101호","indutype":"일반휴게음식 - 스넥","category":"restaurant"},{"name":"비비큐치킨평택동삭점","tel":"050-4359-7567","addr":"경기도 평택시 동삭동 680-4번지 법연빌딩 1층","indutype":"음식점 - 치킨","category":"restaurant"},{"name":"평택왕주먹고기","tel":"031-655-6554","addr":"경기도 평택시 동삭동 680-4번지 102호","indutype":"일반휴게음식 - 일반한식","category":"restaurant"}]},{"lat":"37.008911626","long":"127.09681192","imageIndex":4,"items":[{"name":"가온국수","tel":"031-657-3466","addr":"경기도 평택시 동삭동 707-1번지 103호","indutype":"일반휴게음식 - 일반한식","category":"restaurant"},{"name":"다오래우렁쌈밥2호점","tel":"031-658-2970","addr":"경기도 평택시 동삭동 707-1번지","indutype":"일반휴게음식 - 일반한식","category":"restaurant"},{"name":"천하대만족","tel":"031-657-7288","addr":"경기도 평택시 동삭동 707-1번지","indutype":"음식점 - 한식","category":"restaurant"},{"name":"천하대만족","tel":"031-657-1513","addr":"경기도 평택시 동삭동 707-1번지","indutype":"일반휴게음식 - 일반한식","category":"restaurant"},{"name":"호우양꼬치","tel":"031-651-9288","addr":"경기도 평택시 동삭동 707-1번지 1층","indutype":"일반휴게음식 - 중국식","category":"restaurant"}]},{"lat":"37.009852029","long":"127.09255472","imageIndex":4,"items":[{"name":"가장맛있는족발 법원점","tel":"031-654-6647","addr":"경기도 평택시 동삭동 661-2번지 102호","indutype":"일반휴게음식 - 일반한식","category":"restaurant"}]},{"lat":"37.007434513","long":"127.09600115","imageIndex":4,"items":[{"name":"가장특별한 뒷고기","tel":"031-658-5252","addr":"경기도 평택시 동삭동 704-1번지 101호","indutype":"일반휴게음식 - 일반한식","category":"restaurant"},{"name":"설비어참,연,회","tel":"031-655-8821","addr":"경기도 평택시 동삭동 704-1번지 3층","indutype":"일반휴게음식 - 주점","category":"restaurant"}]},{"lat":"37.009850258","long":"127.09486928","imageIndex":4,"items":[{"name":"감성커피평택법원점","tel":"","addr":"경기도 평택시 동삭동 662-5번지","indutype":"일반휴게음식 - 서양음식","category":"restaurant"}]},{"lat":"37.007885047","long":"127.0960017","imageIndex":4,"items":[{"name":"고기주는 냉면 소갈비살","tel":"031-656-3344","addr":"경기도 평택시 동삭동 697-9번지 세진빌딩","indutype":"일반휴게음식 - 일반한식","category":"restaurant"},{"name":"석구네마포주먹고기","tel":"031-658-9459","addr":"경기도 평택시 동삭동 697-9번지 세진빌딩 1층","indutype":"일반휴게음식 - 일반한식","category":"restaurant"},{"name":"수통골추어탕","tel":"031-618-6399","addr":"경기도 평택시 동삭동 697-9번지 세진빌딩 2층","indutype":"일반휴게음식 - 일반한식","category":"restaurant"}]},{"lat":"37.020881517","long":"127.10327691","imageIndex":4,"items":[{"name":"고봉민김밥(센트럴자이점)","tel":"031-658-9642","addr":"경기도 평택시 동삭동 818-4번지 평택센트럴자이5단지 516동 101호","indutype":"음식점 - 분식","category":"restaurant"},{"name":"고봉민김밥인평택센트럴자이점","tel":"031-653-0733","addr":"경기도 평택시 동삭동 818-4번지 평택센트럴자이5단지 516동 101호","indutype":"일반휴게음식 - 스넥","category":"restaurant"},{"name":"둘마니치킨&튀족본점","tel":"031-652-8898","addr":"경기도 평택시 동삭동 818-4번지 평택센트럴자이5단지 516동 108호","indutype":"일반휴게음식 - 스넥","category":"restaurant"},{"name":"맘스터치 동삭점","tel":"031-655-4205","addr":"경기도 평택시 동삭동 818-4번지 평택센트럴자이5단지 516동 115호 114,115호","indutype":"일반휴게음식 - 서양음식","category":"restaurant"},{"name":"버무리떡볶이평택센트럴자이점","tel":"070-7423-6603","addr":"경기도 평택시 동삭동 818-4번지 평택센트럴자이5단지 상가동 1층 35호","indutype":"일반휴게음식 - 스넥","category":"restaurant"},{"name":"수타5900","tel":"031-658-9981","addr":"경기도 평택시 동삭동 818-4번지 평택센트럴자이5단지 516동 127호","indutype":"일반휴게음식 - 서양음식","category":"restaurant"},{"name":"수타5900","tel":"031-654-2299","addr":"경기도 평택시 동삭동 818-4번지 평택센트럴자이5단지 516동 127호","indutype":"음식점 - 일반","category":"restaurant"},{"name":"일출옥","tel":"","addr":"경기도 평택시 동삭동 818-4번지 평택센트럴자이5단지 516동 113호","indutype":"일반휴게음식 - 일반한식","category":"restaurant"},{"name":"커피에반하다 평택동삭점","tel":"","addr":"경기도 평택시 동삭동 818-4번지 평택센트럴자이5단지 516동 12호","indutype":"일반휴게음식 - 서양음식","category":"restaurant"},{"name":"피스오브케이크","tel":"","addr":"경기도 평택시 동삭동 818-4번지 평택센트럴자이5단지 516동 117호","indutype":"일반휴게음식 - 서양음식","category":"restaurant"}]},{"lat":"37.008074288","long":"127.09597946","imageIndex":4,"items":[{"name":"광주집순대국","tel":"031-655-7767","addr":"경기도 평택시 동삭동 697-8번지 1층","indutype":"일반휴게음식 - 일반한식","category":"restaurant"},{"name":"육회집","tel":"031-657-7772","addr":"경기도 평택시 동삭동 697-8번지","indutype":"일반휴게음식 - 일반한식","category":"restaurant"},{"name":"정가네두껀갈비","tel":"031-657-8303","addr":"경기도 평택시 동삭동 697-8번지 2층","indutype":"일반휴게음식 - 일반한식","category":"restaurant"}]},{"lat":"37.01216118","long":"127.10089462","imageIndex":4,"items":[{"name":"그림이네포차","tel":"031-654-9617","addr":"경기도 평택시 동삭동 680-1번지 102호","indutype":"음식점 - 포차","category":"restaurant"},{"name":"그림이네포차","tel":"031-652-9229","addr":"경기도 평택시 동삭동 680-1번지 1층 102호","indutype":"일반휴게음식 - 주점","category":"restaurant"},{"name":"민속촌순대국","tel":"031-651-3874","addr":"경기도 평택시 동삭동 680-1번지 1층","indutype":"일반휴게음식 - 일반한식","category":"restaurant"}]},{"lat":"37.009406866","long":"127.09725072","imageIndex":4,"items":[{"name":"김밥나라법원점","tel":"031-651-8221","addr":"경기도 평택시 동삭동 705-6번지 1층","indutype":"일반휴게음식 - 일반한식","category":"restaurant"}]},{"lat":"37.009020409","long":"127.09598061","imageIndex":4,"items":[{"name":"김밥킹 법조타운점","tel":"031-618-3317","addr":"경기도 평택시 동삭동 697-1번지 1층","indutype":"일반휴게음식 - 일반한식","category":"restaurant"},{"name":"모나코 (MONACO)","tel":"031-0000-0000","addr":"경기도 평택시 동삭동 697-1번지 2층","indutype":"일반휴게음식 - 서양음식","category":"restaurant"},{"name":"치킨퐁(법원점)","tel":"031-664-4876","addr":"경기도 평택시 동삭동 697-1 101호 (비전2로 6)","indutype":"일반휴게음식 - 스넥","category":"restaurant"}]},{"lat":"37.017074107","long":"127.09830522","imageIndex":4,"items":[{"name":"꼬지사께","tel":"031-658-0423","addr":"경기도 평택시 동삭동 835번지 평택센트럴자이1단지 지층 110호","indutype":"일반휴게음식 - 일식·회집","category":"restaurant"},{"name":"투다리","tel":"031-654-9957","addr":"경기도 평택시 동삭동 835번지 평택센트럴자이1단지","indutype":"음식점 - 호프","category":"restaurant"},{"name":"투다리 자이점","tel":"031-658-0113","addr":"경기도 평택시 동삭동 835번지 평택센트럴자이1단지 상가동 114호","indutype":"일반휴게음식 - 주점","category":"restaurant"},{"name":"후딱후딱","tel":"031-658-9745","addr":"경기도 평택시 동삭동 835번지 평택센트럴자이1단지 117동 119호","indutype":"음식점 - 치킨","category":"restaurant"},{"name":"후딱후딱","tel":"031-654-9957","addr":"경기도 평택시 동삭동 835번지 평택센트럴자이1단지 117동 119호","indutype":"일반휴게음식 - 일반한식","category":"restaurant"}]},{"lat":"37.019739063","long":"127.10100549","imageIndex":4,"items":[{"name":"내가원조닭","tel":"031-654-9982","addr":"경기도 평택시 동삭동 852번지 평택센트럴자이3단지 3동 0031호","indutype":"일반휴게음식 - 스넥","category":"restaurant"},{"name":"만랩커피 평택센트럴자이점","tel":"031-654-0900","addr":"경기도 평택시 동삭동 852번지 센트럴자이상가 340동 20호","indutype":"일반휴게음식 - 서양음식","category":"restaurant"},{"name":"미승짬뽕","tel":"031-654-7701","addr":"경기도 평택시 동삭동 852번지 평택센트럴자이3단지 341동 30호","indutype":"일반휴게음식 - 중국식","category":"restaurant"},{"name":"본죽앤비빔밥카페(센트럴자이점)","tel":"031-652-2111","addr":"경기도 평택시 동삭동 852번지 평택센트럴자이3단지 339동 01호","indutype":"일반휴게음식 - 일반한식","category":"restaurant"},{"name":"이맛시얌","tel":"031-651-9889","addr":"경기도 평택시 동삭동 852번지 평택센트럴자이3단지 341-25","indutype":"일반휴게음식 - 스넥","category":"restaurant"},{"name":"일등분식","tel":"031-655-8152","addr":"경기도 평택시 동삭동 852번지 평택센트럴자이3단지 342동 1층 48호","indutype":"일반휴게음식 - 스넥","category":"restaurant"},{"name":"자이삼겹살냉면","tel":"031-664-8589","addr":"경기도 평택시 동삭동 852번지 평택센트럴자이3단지 341동 28호","indutype":"일반휴게음식 - 일반한식","category":"restaurant"},{"name":"치순이통닭 센트럴자이점","tel":"070-7614-3579","addr":"경기도 평택시 동삭동 852번지 평택센트럴자이3단지 1층 34,35호","indutype":"일반휴게음식 - 일반한식","category":"restaurant"},{"name":"풍성호 평택동삭점","tel":"031-503-8018","addr":"경기도 평택시 동삭동 852번지 평택센트럴자이3단지 340동 16호","indutype":"일반휴게음식 - 서양음식","category":"restaurant"}]},{"lat":"37.005464883","long":"127.09114517","imageIndex":4,"items":[{"name":"대관령황태골","tel":"031-651-9779","addr":"경기도 평택시 동삭동 182-3번지","indutype":"일반휴게음식 - 일반한식","category":"restaurant"}]},{"lat":"37.009407044","long":"127.09702601","imageIndex":4,"items":[{"name":"더센","tel":"031-658-7553","addr":"경기도 평택시 동삭동 705-5번지 503호","indutype":"일반휴게음식 - 주점","category":"restaurant"},{"name":"더센맛집","tel":"","addr":"경기도 평택시 동삭동 705-5번지 503호","indutype":"일반휴게음식 - 주점","category":"restaurant"},{"name":"명불허전원조골뱅이(평택점)","tel":"031-658-2050","addr":"경기도 평택시 동삭동 705-5번지 101호","indutype":"일반휴게음식 - 일반한식","category":"restaurant"}]},{"lat":"37.008992988","long":"127.09647495","imageIndex":4,"items":[{"name":"도리향","tel":"031-618-1140","addr":"경기도 평택시 동삭동 706-1번지 2층","indutype":"일반휴게음식 - 일반한식","category":"restaurant"},{"name":"명품돌판생삼겹살","tel":"031-654-7754","addr":"경기도 평택시 동삭동 706-1번지 109호","indutype":"일반휴게음식 - 일반한식","category":"restaurant"},{"name":"병천순대평택점","tel":"031-692-2554","addr":"경기도 평택시 동삭동 706-1번지 1층","indutype":"일반휴게음식 - 일반한식","category":"restaurant"},{"name":"병천순대평택점","tel":"031-653-5141","addr":"경기도 평택시 동삭동 706-1번지","indutype":"음식점 - 한식","category":"restaurant"},{"name":"사쿠사쿠(법원점)","tel":"031-611-8862","addr":"경기도 평택시 동삭동 706-1번지 상가 106호","indutype":"일반휴게음식 - 스넥","category":"restaurant"},{"name":"사쿠사쿠(법원점)","tel":"","addr":"경기도 평택시 동삭동 706-1번지","indutype":"음식점 - 한식","category":"restaurant"},{"name":"일도참치","tel":"031-653-5141","addr":"경기도 평택시 동삭동 706-1번지 상가동 101호","indutype":"일반휴게음식 - 일반한식","category":"restaurant"},{"name":"일도참치","tel":"031-654-4789","addr":"경기도 평택시 동삭동 706-1번지 상가동 101호","indutype":"음식점 - 일식","category":"restaurant"}]},{"lat":"37.009406705","long":"127.09745296","imageIndex":4,"items":[{"name":"도미노피자평택소사벌점","tel":"031-655-3082","addr":"경기도 평택시 동삭동 705-7번지 101호","indutype":"일반휴게음식 - 서양음식","category":"restaurant"}]},{"lat":"37.008326587","long":"127.09597977","imageIndex":4,"items":[{"name":"돈코다리백숙","tel":"031-651-9900","addr":"경기도 평택시 동삭동 697-6번지 201호","indutype":"일반휴게음식 - 일반한식","category":"restaurant"},{"name":"요리토리","tel":"031-654-0670","addr":"경기도 평택시 동삭동 697-6번지 3층","indutype":"일반휴게음식 - 일식·회집","category":"restaurant"}]},{"lat":"37.009878001","long":"127.09394798","imageIndex":4,"items":[{"name":"돈키호테","tel":"031-651-1088","addr":"경기도 평택시 동삭동 662-1번지 서재빌딩 104호","indutype":"일반휴게음식 - 일반한식","category":"restaurant"},{"name":"명륜진사갈비평택법원점","tel":"031-654-0393","addr":"경기도 평택시 동삭동 662-1번지 서재빌딩 2층","indutype":"일반휴게음식 - 일반한식","category":"restaurant"}]},{"lat":"37.007830585","long":"127.09650723","imageIndex":4,"items":[{"name":"돼지갈비육미촌 평택본점","tel":"031-618-9618","addr":"경기도 평택시 동삭동 708-5번지 1층","indutype":"일반휴게음식 - 일반한식","category":"restaurant"},{"name":"돼지갈비육미촌 평택본점2호","tel":"031-651-9289","addr":"경기도 평택시 동삭동 708-5번지 2층","indutype":"일반휴게음식 - 일반한식","category":"restaurant"},{"name":"돼지갈비육미촌평택본점","tel":"031-651-9289","addr":"경기도 평택시 동삭동 708-5번지 2층","indutype":"일반휴게음식 - 일반한식","category":"restaurant"}]},{"lat":"37.010909363","long":"127.10008403","imageIndex":4,"items":[{"name":"떡퍼맨","tel":"070-8181-6638","addr":"경기도 평택시 동삭동 711-1번지","indutype":"일반휴게음식 - 일반한식","category":"restaurant"},{"name":"백의민족","tel":"031-651-5858","addr":"경기도 평택시 동삭동 711-1번지 101호","indutype":"일반휴게음식 - 일반한식","category":"restaurant"},{"name":"백의민족","tel":"031-658-9282","addr":"경기도 평택시 동삭동 711-1번지 101호","indutype":"음식점 - 한식","category":"restaurant"},{"name":"워아이니","tel":"031-691-8223","addr":"경기도 평택시 동삭동 711-1번지 2층","indutype":"일반휴게음식 - 중국식","category":"restaurant"}]},{"lat":"37.011684124","long":"127.10027603","imageIndex":4,"items":[{"name":"라운지671","tel":"031-651-0671","addr":"경기도 평택시 동삭동 679-4번지 예원빌딩 2층","indutype":"일반휴게음식 - 서양음식","category":"restaurant"},{"name":"빠통","tel":"031-618-9985","addr":"경기도 평택시 동삭동 679-4번지 1층","indutype":"일반휴게음식 - 스넥","category":"restaurant"},{"name":"빠통","tel":"031-651-5482","addr":"경기도 평택시 동삭동 679-4번지 1층","indutype":"음식점 - 치킨","category":"restaurant"}]},{"lat":"37.008524433","long":"127.09647437","imageIndex":4,"items":[{"name":"루체308","tel":"031-692-1045","addr":"경기도 평택시 동삭동 706-4번지","indutype":"음식점 - 한식","category":"restaurant"},{"name":"루체308","tel":"031-652-7133","addr":"경기도 평택시 동삭동 706-4번지 1층","indutype":"일반휴게음식 - 서양음식","category":"restaurant"},{"name":"수","tel":"031-655-7488","addr":"경기도 평택시 동삭동 706-4번지 3층","indutype":"일반휴게음식 - 주점","category":"restaurant"},{"name":"이모네곱창","tel":"031-658-8788","addr":"경기도 평택시 동삭동 706-4번지","indutype":"일반휴게음식 - 일반한식","category":"restaurant"},{"name":"파티오펍","tel":"031-658-3771","addr":"경기도 평택시 동삭동 706-4번지 2층","indutype":"일반휴게음식 - 주점","category":"restaurant"}]},{"lat":"37.00660531","long":"127.09628102","imageIndex":4,"items":[{"name":"르미엘","tel":"031-618-0889","addr":"경기도 평택시 동삭동 704-7번지","indutype":"음식점 - 레스토랑","category":"restaurant"},{"name":"르미엘","tel":"031-657-7288","addr":"경기도 평택시 동삭동 704-7번지 1층3,4호","indutype":"일반휴게음식 - 서양음식","category":"restaurant"},{"name":"보드레족발평택점","tel":"031-656-6570","addr":"경기도 평택시 동삭동 704-7번지","indutype":"일반휴게음식 - 일반한식","category":"restaurant"},{"name":"송탄연탄불생고기","tel":"070-8842-6773","addr":"경기도 평택시 동삭동 704-7번지","indutype":"일반휴게음식 - 일반한식","category":"restaurant"}]},{"lat":"37.00876811","long":"127.09598031","imageIndex":4,"items":[{"name":"마루횟집","tel":"031-654-8008","addr":"경기도 평택시 동삭동 697-3번지 301호","indutype":"일반휴게음식 - 일식·회집","category":"restaurant"},{"name":"명동찌개마을 동삭점","tel":"031-691-4792","addr":"경기도 평택시 동삭동 697-3번지","indutype":"일반휴게음식 - 일반한식","category":"restaurant"},{"name":"옛날손짜장청빈","tel":"031-657-0082","addr":"경기도 평택시 동삭동 697-3번지 2층","indutype":"일반휴게음식 - 중국식","category":"restaurant"}]},{"lat":"37.008794754","long":"127.0964747","imageIndex":4,"items":[{"name":"맛나양꼬치","tel":"031-656-7712","addr":"경기도 평택시 동삭동 706-2번지 2층","indutype":"일반휴게음식 - 일반한식","category":"restaurant"},{"name":"삼식당","tel":"031-654-3559","addr":"경기도 평택시 동삭동 706-2번지 4층","indutype":"일반휴게음식 - 일반한식","category":"restaurant"},{"name":"신안왕소금구이","tel":"","addr":"경기도 평택시 동삭동 706-2번지 1층","indutype":"음식점 - 한식","category":"restaurant"},{"name":"신안왕소금구이","tel":"031-653-4792","addr":"경기도 평택시 동삭동 706-2번지 1층","indutype":"일반휴게음식 - 일반한식","category":"restaurant"}]},{"lat":"37.009851287","long":"127.09353223","imageIndex":4,"items":[{"name":"먹보네","tel":"031-654-3580","addr":"경기도 평택시 동삭동 661-7번지 201,202호","indutype":"일반휴게음식 - 일반한식","category":"restaurant"},{"name":"먹보네","tel":"031-658-7516","addr":"경기도 평택시 동삭동 661-7번지 2층","indutype":"음식점 - 한식","category":"restaurant"},{"name":"유채돈까스","tel":"031-657-6543","addr":"경기도 평택시 동삭동 661-7번지 102호","indutype":"일반휴게음식 - 서양음식","category":"restaurant"},{"name":"유채돈까스","tel":"031-654-3580","addr":"경기도 평택시 동삭동 661-7번지 102호","indutype":"음식점 - 양식","category":"restaurant"},{"name":"카페드라페","tel":"031-651-3236","addr":"경기도 평택시 동삭동 661-7번지 107호","indutype":"일반휴게음식 - 서양음식","category":"restaurant"},{"name":"행복한밥상","tel":"031-651-4848","addr":"경기도 평택시 동삭동 661-7번지 402,403호","indutype":"일반휴게음식 - 일반한식","category":"restaurant"}]},{"lat":"37.009243874","long":"127.09825049","imageIndex":4,"items":[{"name":"명가코다리와아구찜","tel":"031-657-5525","addr":"경기도 평택시 동삭동 705-9번지 101호","indutype":"일반휴게음식 - 일반한식","category":"restaurant"},{"name":"명가코다리와아구찜","tel":"","addr":"경기도 평택시 동삭동 705-9번지 서재프라자 101호","indutype":"음식점 - 한식","category":"restaurant"},{"name":"본죽동삭동점","tel":"031-655-6266","addr":"경기도 평택시 동삭동 705-9번지 서재프라자 1층 103호","indutype":"일반휴게음식 - 일반한식","category":"restaurant"}]},{"lat":"37.007740876","long":"127.09600152","imageIndex":4,"items":[{"name":"모녀식당","tel":"031-653-7006","addr":"경기도 평택시 동삭동 697-10번지","indutype":"일반휴게음식 - 일반한식","category":"restaurant"},{"name":"스시명","tel":"031-657-9370","addr":"경기도 평택시 동삭동 697-10번지 1층 102호","indutype":"일반휴게음식 - 일식·회집","category":"restaurant"},{"name":"진닭한마리칼국수","tel":"031-692-3300","addr":"경기도 평택시 동삭동 697-10번지 덕진빌딩 2층","indutype":"음식점 - 한식","category":"restaurant"},{"name":"진닭한마리칼국수&신촌감자탕해물뼈찜","tel":"031-656-7634","addr":"경기도 평택시 동삭동 697-10번지 2층","indutype":"일반휴게음식 - 일반한식","category":"restaurant"},{"name":"호야김밥","tel":"031-618-2655","addr":"경기도 평택시 동삭동 697-10번지 103호","indutype":"일반휴게음식 - 일반한식","category":"restaurant"}]},{"lat":"37.00935576","long":"127.09345299","imageIndex":4,"items":[{"name":"모박사부대찌개평택점","tel":"031-653-5288","addr":"경기도 평택시 동삭동 681-8번지","indutype":"일반휴게음식 - 일반한식","category":"restaurant"},{"name":"모박사부대찌개평택점","tel":"031-655-2397","addr":"경기도 평택시 동삭동 681-8번지","indutype":"음식점 - 한식","category":"restaurant"}]},{"lat":"37.009380226","long":"127.09675632","imageIndex":4,"items":[{"name":"미남커피평택법원점","tel":"031-653-6668","addr":"경기도 평택시 동삭동 705-3번지 1층","indutype":"일반휴게음식 - 서양음식","category":"restaurant"}]},{"lat":"37.00991097","long":"127.09786931","imageIndex":4,"items":[{"name":"바다의왕자평택점","tel":"031-691-0022","addr":"경기도 평택시 동삭동 667-3번지 1층","indutype":"일반휴게음식 - 일반한식","category":"restaurant"}]},{"lat":"37.009354567","long":"127.09500351","imageIndex":4,"items":[{"name":"바비스","tel":"031-691-9986","addr":"경기도 평택시 동삭동 692-7번지 1층 103호","indutype":"일반휴게음식 - 서양음식","category":"restaurant"},{"name":"이모네","tel":"031-000-0000","addr":"경기도 평택시 동삭동 692-7번지 202호","indutype":"일반휴게음식 - 일반한식","category":"restaurant"}]},{"lat":"37.010351306","long":"127.09934175","imageIndex":4,"items":[{"name":"박군치킨(법원점)","tel":"031-656-8977","addr":"경기도 평택시 동삭동 711-8번지 1층 102호","indutype":"일반휴게음식 - 스넥","category":"restaurant"},{"name":"박군치킨법원점","tel":"031-655-4539","addr":"경기도 평택시 동삭동 711-8번지 1층","indutype":"음식점 - 치킨","category":"restaurant"}]},{"lat":"37.009352354","long":"127.09781244","imageIndex":4,"items":[{"name":"법원앞소풍","tel":"031-655-0506","addr":"경기도 평택시 동삭동 705-8번지 법률회관 지하1층","indutype":"일반휴게음식 - 일반한식","category":"restaurant"}]},{"lat":"37.010108319","long":"127.09897066","imageIndex":4,"items":[{"name":"별난양꼬치","tel":"031-651-6198","addr":"경기도 평택시 동삭동 711-11번지 동재빌딩","indutype":"일반휴게음식 - 일반한식","category":"restaurant"}]},{"lat":"37.00863295","long":"127.09598014","imageIndex":4,"items":[{"name":"별밤","tel":"","addr":"경기도 평택시 동삭동 697-4번지 1층","indutype":"일반휴게음식 - 서양음식","category":"restaurant"},{"name":"유림한식","tel":"031-657-5058","addr":"경기도 평택시 동삭동 697-4번지 2층","indutype":"일반휴게음식 - 일반한식","category":"restaurant"},{"name":"큰집막창&생고기","tel":"031-691-8295","addr":"경기도 평택시 동삭동 697-4번지 102호","indutype":"일반휴게음식 - 일반한식","category":"restaurant"}]},{"lat":"37.007019978","long":"127.09605682","imageIndex":4,"items":[{"name":"본가왕뼈감자탕 평택법원점","tel":"","addr":"경기도 평택시 동삭동 704-4번지","indutype":"음식점 - 한식","category":"restaurant"}]},{"lat":"37.008659593","long":"127.09647454","imageIndex":4,"items":[{"name":"불난버섯집 (평택법원점)","tel":"031-663-4598","addr":"경기도 평택시 동삭동 706-3번지 1층","indutype":"일반휴게음식 - 일반한식","category":"restaurant"},{"name":"한가네숯불닭갈비 (동삭점)","tel":"031-654-4792","addr":"경기도 평택시 동삭동 706-3번지 1층","indutype":"일반휴게음식 - 일반한식","category":"restaurant"},{"name":"현참치","tel":"","addr":"경기도 평택시 동삭동 706-3번지 2층","indutype":"일반휴게음식 - 일반한식","category":"restaurant"}]},{"lat":"37.009135566","long":"127.09847507","imageIndex":4,"items":[{"name":"블레스롤평택법원점","tel":"031-655-2587","addr":"경기도 평택시 동삭동 705-10번지 1층","indutype":"일반휴게음식 - 서양음식","category":"restaurant"}]},{"lat":"37.012242184","long":"127.10100709","imageIndex":4,"items":[{"name":"산삼창서재점","tel":"031-611-3992","addr":"경기도 평택시 동삭동 680-2번지 1층","indutype":"일반휴게음식 - 일반한식","category":"restaurant"}]},{"lat":"37.011963131","long":"127.10066965","imageIndex":4,"items":[{"name":"살롱드로얄","tel":"031-658-1082","addr":"경기도 평택시 동삭동 679-7번지 청송프라자 104호","indutype":"음식점 - 커피","category":"restaurant"},{"name":"서재김밥","tel":"031-656-6375","addr":"경기도 평택시 동삭동 679-7번지 102호","indutype":"일반휴게음식 - 스넥","category":"restaurant"},{"name":"서재김밥","tel":"031-655-9725","addr":"경기도 평택시 동삭동 679-7번지 1층 서재김밥","indutype":"음식점 - 분식","category":"restaurant"},{"name":"카페 프라하","tel":"","addr":"경기도 평택시 동삭동 679-7번지 104호","indutype":"일반휴게음식 - 서양음식","category":"restaurant"}]},{"lat":"37.009576753","long":"127.09889135","imageIndex":4,"items":[{"name":"수라상","tel":"031-653-0777","addr":"경기도 평택시 동삭동 711-14번지 101호","indutype":"일반휴게음식 - 일반한식","category":"restaurant"},{"name":"수라상","tel":"031-657-4274","addr":"경기도 평택시 동삭동 711-14번지","indutype":"음식점 - 한식","category":"restaurant"},{"name":"옥상맥주","tel":"070-8875-3350","addr":"경기도 평택시 동삭동 711-14번지 5층","indutype":"일반휴게음식 - 일반한식","category":"restaurant"},{"name":"할리스커피","tel":"031-651-2750","addr":"경기도 평택시 동삭동 711-14번지 1층,2층","indutype":"일반휴게음식 - 서양음식","category":"restaurant"}]},{"lat":"37.008326199","long":"127.09647413","imageIndex":4,"items":[{"name":"시골한식당","tel":"031-653-8108","addr":"경기도 평택시 동삭동 708-1번지","indutype":"일반휴게음식 - 일반한식","category":"restaurant"},{"name":"카페보니또","tel":"031-618-2070","addr":"경기도 평택시 동삭동 708-1번지","indutype":"음식점 - 커피","category":"restaurant"},{"name":"카페보니또법원점","tel":"031-691-9058","addr":"경기도 평택시 동삭동 708-1번지 103호","indutype":"일반휴게음식 - 서양음식","category":"restaurant"}]},{"lat":"37.00980211","long":"127.09877927","imageIndex":4,"items":[{"name":"시루향기","tel":"031-657-9491","addr":"경기도 평택시 동삭동 711-13번지 한주빌딩 1층","indutype":"일반휴게음식 - 일반한식","category":"restaurant"}]},{"lat":"37.009354156","long":"127.09553159","imageIndex":4,"items":[{"name":"신해장국","tel":"031-655-3442","addr":"경기도 평택시 동삭동 692-9번지 성진빌딩 1층 104호","indutype":"일반휴게음식 - 일반한식","category":"restaurant"}]},{"lat":"37.009381407","long":"127.09525073","imageIndex":4,"items":[{"name":"아사히일식","tel":"031-658-9979","addr":"경기도 평택시 동삭동 194-28","indutype":"일반휴게음식 - 일식·회집","category":"restaurant"}]},{"lat":"37.007686414","long":"127.09650705","imageIndex":4,"items":[{"name":"얌얌치킨송탄점","tel":"031-000-0000","addr":"경기도 평택시 동삭동 708-6번지 2층","indutype":"일반휴게음식 - 스넥","category":"restaurant"},{"name":"주당천하","tel":"031-652-1364","addr":"경기도 평택시 동삭동 708-6번지 201호","indutype":"일반휴게음식 - 서양음식","category":"restaurant"},{"name":"콩스타일","tel":"031-654-1015","addr":"경기도 평택시 동삭동 708-6번지 1층","indutype":"일반휴게음식 - 서양음식","category":"restaurant"},{"name":"황금두꺼비곱창","tel":"031-691-7786","addr":"경기도 평택시 동삭동 708-6번지 1층","indutype":"일반휴게음식 - 일반한식","category":"restaurant"}]},{"lat":"37.009354348","long":"127.09528441","imageIndex":4,"items":[{"name":"양철식당(평택법원점)","tel":"031-000-0000","addr":"경기도 평택시 동삭동 692-8번지 손문빌딩 103호 104호","indutype":"일반휴게음식 - 일반한식","category":"restaurant"},{"name":"양철식당(평택법원점)","tel":"031-653-8686","addr":"경기도 평택시 동삭동 692-8번지 103,104호","indutype":"음식점 - 한식","category":"restaurant"}]},{"lat":"37.008488779","long":"127.09597996","imageIndex":4,"items":[{"name":"어부수산","tel":"031-651-8688","addr":"경기도 평택시 동삭동 697-5번지 1층","indutype":"일반휴게음식 - 일반한식","category":"restaurant"}]},{"lat":"37.018653965","long":"127.08197974","imageIndex":4,"items":[{"name":"영신골염소마을","tel":"031-657-5953","addr":"경기도 평택시 동삭동 537-1번지 1층","indutype":"일반휴게음식 - 일반한식","category":"restaurant"}]},{"lat":"37.008912281","long":"127.09598048","imageIndex":4,"items":[{"name":"예촌","tel":"031-656-0313","addr":"경기도 평택시 동삭동 697-2번지","indutype":"일반휴게음식 - 일반한식","category":"restaurant"}]},{"lat":"37.009964257","long":"127.09883565","imageIndex":4,"items":[{"name":"와촌식당평택점","tel":"031-653-8893","addr":"경기도 평택시 동삭동 711-12번지 101호","indutype":"일반휴게음식 - 일반한식","category":"restaurant"},{"name":"육품참숯화로구이평택점","tel":"070-7543-5288","addr":"경기도 평택시 동삭동 711-12번지 1층 102호","indutype":"일반휴게음식 - 일반한식","category":"restaurant"}]},{"lat":"37.007191225","long":"127.09600085","imageIndex":4,"items":[{"name":"왕숯불닭갈비","tel":"031-618-9996","addr":"경기도 평택시 동삭동 704-3번지 1층 101,102호","indutype":"일반휴게음식 - 일반한식","category":"restaurant"}]},{"lat":"37.006740559","long":"127.09616883","imageIndex":4,"items":[{"name":"우리곰탕","tel":"031-654-6696","addr":"경기도 평택시 동삭동 704-6번지","indutype":"일반휴게음식 - 일반한식","category":"restaurant"},{"name":"우리곰탕","tel":"","addr":"경기도 평택시 동삭동 704-6번지 1층","indutype":"음식점 - 한식","category":"restaurant"}]},{"lat":"37.006239516","long":"127.09152807","imageIndex":4,"items":[{"name":"원조설악추어탕","tel":"031-658-1732","addr":"경기도 평택시 동삭동 188-6번지","indutype":"음식점 - 한식","category":"restaurant"},{"name":"원조설악추어탕평택점","tel":"031-653-6788","addr":"경기도 평택시 동삭동 188-6번지 1층","indutype":"일반휴게음식 - 일반한식","category":"restaurant"}]},{"lat":"37.009877897","long":"127.09408281","imageIndex":4,"items":[{"name":"육감만족 평택법원점","tel":"031-655-9212","addr":"경기도 평택시 동삭동 662-2번지 1층","indutype":"일반휴게음식 - 일반한식","category":"restaurant"}]},{"lat":"37.011855142","long":"127.10050097","imageIndex":4,"items":[{"name":"윤가네","tel":"031-655-8592","addr":"경기도 평택시 동삭동 679-6번지","indutype":"음식점 - 한식","category":"restaurant"},{"name":"윤가네포차","tel":"","addr":"경기도 평택시 동삭동 679-6번지 103호","indutype":"일반휴게음식 - 일반한식","category":"restaurant"}]},{"lat":"37.009354006","long":"127.0957226","imageIndex":4,"items":[{"name":"이디야평택법원점(EDIYA)","tel":"031-655-1043","addr":"경기도 평택시 동삭동 692-10번지","indutype":"일반휴게음식 - 서양음식","category":"restaurant"}]},{"lat":"37.009355166","long":"127.09422825","imageIndex":4,"items":[{"name":"장터파전","tel":"031-653-0430","addr":"경기도 평택시 동삭동 692-2번지","indutype":"일반휴게음식 - 일반한식","category":"restaurant"}]},{"lat":"37.011210878","long":"127.09485969","imageIndex":4,"items":[{"name":"정소반쭈꾸미","tel":"031-656-6110","addr":"경기도 평택시 동삭동 655-11번지 1층","indutype":"일반휴게음식 - 일반한식","category":"restaurant"}]},{"lat":"37.016377509","long":"127.10169785","imageIndex":4,"items":[{"name":"제니커피","tel":"","addr":"경기도 평택시 동삭동 845번지 평택센트럴자이2단지 218동 108호","indutype":"일반휴게음식 - 서양음식","category":"restaurant"}]},{"lat":"37.007992777","long":"127.09650743","imageIndex":4,"items":[{"name":"족발꾼평택법원점","tel":"031-654-9582","addr":"경기도 평택시 동삭동 708-3번지 1층","indutype":"일반휴게음식 - 일반한식","category":"restaurant"},{"name":"진황태","tel":"031-658-1483","addr":"경기도 평택시 동삭동 708-3번지 2층 201호","indutype":"일반휴게음식 - 일반한식","category":"restaurant"},{"name":"택이네조개전골평택법원점","tel":"031-656-7280","addr":"경기도 평택시 동삭동 708-3번지 101호","indutype":"일반휴게음식 - 일반한식","category":"restaurant"},{"name":"하동만두샤브&석갈비","tel":"","addr":"경기도 평택시 동삭동 708-3번지","indutype":"일반휴게음식 - 일반한식","category":"restaurant"}]},{"lat":"37.012774433","long":"127.10025495","imageIndex":4,"items":[{"name":"주인맘대로포차","tel":"031-655-1193","addr":"경기도 평택시 동삭동 675-4번지","indutype":"일반휴게음식 - 일반한식","category":"restaurant"}]},{"lat":"37.012575215","long":"127.10144573","imageIndex":4,"items":[{"name":"청춘식당 평택본점","tel":"031-651-1196","addr":"경기도 평택시 동삭동 680-6번지","indutype":"음식점 - 한식","category":"restaurant"},{"name":"청춘식당 평택본점","tel":"031-658-9282","addr":"경기도 평택시 동삭동 680-6번지","indutype":"일반휴게음식 - 일반한식","category":"restaurant"}]},{"lat":"37.005329906","long":"127.09089785","imageIndex":4,"items":[{"name":"총각수산","tel":"031-618-7498","addr":"경기도 평택시 동삭동 182-5번지","indutype":"일반휴게음식 - 일반한식","category":"restaurant"}]},{"lat":"37.011576106","long":"127.10014106","imageIndex":4,"items":[{"name":"최고의식탁","tel":"031-000-0000","addr":"경기도 평택시 동삭동 679-3번지 2층 201호","indutype":"일반휴게음식 - 일반한식","category":"restaurant"},{"name":"피자마루","tel":"031-656-6375","addr":"경기도 평택시 동삭동 679-3번지","indutype":"음식점 - 피자","category":"restaurant"},{"name":"피자마루&김밥마루(동삭지구점)","tel":"02-842-2642","addr":"경기도 평택시 동삭동 679-3번지 1층","indutype":"일반휴게음식 - 일반한식","category":"restaurant"}]},{"lat":"37.011273253","long":"127.09575864","imageIndex":4,"items":[{"name":"토프레소","tel":"031-654-8537","addr":"경기도 평택시 동삭동 655-8번지 106호","indutype":"일반휴게음식 - 서양음식","category":"restaurant"},{"name":"토프레소동삭점","tel":"031-652-0592","addr":"경기도 평택시 동삭동 655-8번지","indutype":"음식점 - 카페","category":"restaurant"},{"name":"향만","tel":"031-657-5525","addr":"경기도 평택시 동삭동 655-8번지","indutype":"음식점 - 중식","category":"restaurant"}]},{"lat":"37.010774359","long":"127.09989285","imageIndex":4,"items":[{"name":"투다리","tel":"031-651-5858","addr":"경기도 평택시 동삭동 711-3번지","indutype":"음식점 - 호프","category":"restaurant"},{"name":"투다리서재점","tel":"031-657-3937","addr":"경기도 평택시 동삭동 711-3번지","indutype":"일반휴게음식 - 주점","category":"restaurant"}]},{"lat":"37.009297103","long":"127.09928424","imageIndex":4,"items":[{"name":"투썸 평택법원점","tel":"031-618-2220","addr":"경기도 평택시 동삭동 711-16번지 1층","indutype":"일반휴게음식 - 서양음식","category":"restaurant"},{"name":"플라이감자댁(FLY감자댁)","tel":"031-000-0000","addr":"경기도 평택시 동삭동 711-16번지 3층","indutype":"일반휴게음식 - 서양음식","category":"restaurant"}]},{"lat":"37.009353433","long":"127.09645292","imageIndex":4,"items":[{"name":"파리바게뜨 평택법조타운점","tel":"031-651-8235","addr":"경기도 평택시 동삭동 705-1번지","indutype":"음식점 - 제과점","category":"restaurant"}]},{"lat":"37.009354758","long":"127.09475633","imageIndex":4,"items":[{"name":"하우수제샌드위치","tel":"","addr":"경기도 평택시 동삭동 692-5번지 서현빌딩 101호","indutype":"일반휴게음식 - 서양음식","category":"restaurant"},{"name":"하우수제샌드위치","tel":"031-692-0206","addr":"경기도 평택시 동삭동 692-5번지 101호","indutype":"음식점 - 휴게음식","category":"restaurant"}]},{"lat":"37.009850458","long":"127.09461086","imageIndex":4,"items":[{"name":"한솥도시락 평택법원점","tel":"031-653-0045","addr":"경기도 평택시 동삭동 662-4번지 102호","indutype":"일반휴게음식 - 일반한식","category":"restaurant"}]},{"lat":"37.011774157","long":"127.10036603","imageIndex":4,"items":[{"name":"한우옛날불고기","tel":"031-656-5778","addr":"경기도 평택시 동삭동 679-5번지 1층","indutype":"일반휴게음식 - 일반한식","category":"restaurant"}]},{"lat":"37.010711376","long":"127.09978041","imageIndex":4,"items":[{"name":"해동찬민물장어","tel":"031-652-0592","addr":"경기도 평택시 동삭동 711-4번지","indutype":"일반휴게음식 - 일반한식","category":"restaurant"},{"name":"해동찬민물장어","tel":"031-657-3081","addr":"경기도 평택시 동삭동 711-4번지","indutype":"음식점 - 한식","category":"restaurant"}]}]