[{"lat":"37.007880548","long":"127.27079188","imageIndex":13,"items":[{"name":"25시","tel":"031-675-3137","addr":"경기도 안성시 대천동 52번지","indutype":"레저업소 - 노 래 방","category":"leisure"}]},{"lat":"37.007825469","long":"127.2712411","imageIndex":13,"items":[{"name":"노래나라","tel":"031-676-1020","addr":"경기도 안성시 대천동 35-2번지","indutype":"레저업소 - 노 래 방","category":"leisure"},{"name":"베트남노래연습장","tel":"","addr":"경기도 안성시 대천동 35-2번지 1층","indutype":"레저업소 - 노 래 방","category":"leisure"}]},{"lat":"37.008803948","long":"127.26887383","imageIndex":13,"items":[{"name":"다온노래연습장","tel":"031-675-3282","addr":"경기도 안성시 대천동 115번지","indutype":"레저업소 - 노 래 방","category":"leisure"}]},{"lat":"37.008604707","long":"127.26932256","imageIndex":13,"items":[{"name":"딴따라노래연습장","tel":"031-677-0506","addr":"경기도 안성시 대천동 95-2번지","indutype":"레저업소 - 노 래 방","category":"leisure"},{"name":"아리랑노래연습장","tel":"031-677-0506","addr":"경기도 안성시 대천동 95-2번지","indutype":"레저업소 - 노 래 방","category":"leisure"}]},{"lat":"37.007384534","long":"127.27098114","imageIndex":13,"items":[{"name":"빌탑 당구클럽","tel":"031-672-7644","addr":"경기도 안성시 대천동 55번지 지하1층","indutype":"레저업소 - 당 구 장","category":"leisure"},{"name":"채플린노래연습장","tel":"031-677-8090","addr":"경기도 안성시 대천동 55번지 4층","indutype":"레저업소 - 노 래 방","category":"leisure"}]},{"lat":"37.008299959","long":"127.26860243","imageIndex":13,"items":[{"name":"스마일당구장","tel":"","addr":"경기도 안성시 대천동 145번지 3층","indutype":"레저업소 - 당 구 장","category":"leisure"}]},{"lat":"37.00894367","long":"127.27085179","imageIndex":13,"items":[{"name":"스마트pc방","tel":"","addr":"경기도 안성시 대천동 6번지","indutype":"레저업소 - 기타레져업소","category":"leisure"}]},{"lat":"37.007637642","long":"127.2706225","imageIndex":13,"items":[{"name":"씨엘 노래연습장","tel":"031-673-4904","addr":"경기도 안성시 대천동 57-3번지","indutype":"레저업소 - 노 래 방","category":"leisure"}]},{"lat":"37.00777437","long":"127.26992638","imageIndex":13,"items":[{"name":"악쓰는 하마 노래연습장","tel":"031-676-6896","addr":"경기도 안성시 대천동 80-1번지","indutype":"레저업소 - 노 래 방","category":"leisure"}]},{"lat":"37.007964956","long":"127.26932033","imageIndex":13,"items":[{"name":"엑스트로노래방","tel":"031-672-2342","addr":"경기도 안성시 대천동 128번지 3층","indutype":"레저업소 - 노 래 방","category":"leisure"}]},{"lat":"37.008495899","long":"127.26962554","imageIndex":13,"items":[{"name":"제닉스 아레나 PC","tel":"","addr":"경기도 안성시 대천동 94번지 2층","indutype":"레저업소 - 기타레져업소","category":"leisure"},{"name":"종로당구장","tel":"031-677-3399","addr":"경기도 안성시 대천동 94번지","indutype":"레저업소 - 당 구 장","category":"leisure"}]},{"lat":"37.008107812","long":"127.26990507","imageIndex":13,"items":[{"name":"제우스 당구클럽","tel":"","addr":"경기도 안성시 대천동 76번지 3층","indutype":"레저업소 - 당 구 장","category":"leisure"}]},{"lat":"37.007911951","long":"127.26884826","imageIndex":13,"items":[{"name":"준노래연습장","tel":"031-111-1111","addr":"경기도 안성시 대천동 151번지","indutype":"레저업소 - 노 래 방","category":"leisure"},{"name":"킹콩노래연습장","tel":"031-671-9536","addr":"경기도 안성시 대천동 151번지","indutype":"레저업소 - 노 래 방","category":"leisure"}]},{"lat":"37.008971893","long":"127.27032381","imageIndex":13,"items":[{"name":"크램PC카페","tel":"","addr":"경기도 안성시 대천동 65-1번지 101호","indutype":"레저업소 - 기타레져업소","category":"leisure"}]},{"lat":"37.008720987","long":"127.26970498","imageIndex":13,"items":[{"name":"킴스 필라테스 스튜디오","tel":"031-677-3384","addr":"경기도 안성시 대천동 92-1번지 1층","indutype":"레저업소 - 헬스클럽","category":"leisure"}]},{"lat":"37.008632546","long":"127.26896312","imageIndex":13,"items":[{"name":"터보노래방","tel":"031-672-1116","addr":"경기도 안성시 대천동 118번지","indutype":"레저업소 - 노 래 방","category":"leisure"}]},{"lat":"37.008686937","long":"127.26881725","imageIndex":13,"items":[{"name":"팡팡","tel":"031-673-9998","addr":"경기도 안성시 대천동 120번지 지하1층","indutype":"레저업소 - 노 래 방","category":"leisure"}]},{"lat":"37.007665484","long":"127.27026306","imageIndex":13,"items":[{"name":"프로방스노래연습장","tel":"031-8052-8633","addr":"경기도 안성시 대천동 61번지","indutype":"레저업소 - 노 래 방","category":"leisure"}]},{"lat":"37.008134338","long":"127.27012988","imageIndex":13,"items":[{"name":"피라미드 당구장","tel":"","addr":"경기도 안성시 대천동 77번지 2층","indutype":"레저업소 - 당 구 장","category":"leisure"}]}]