[{"lat":"37.088227119","long":"126.81980923","imageIndex":13,"items":[{"name":"JA바디홀릭","tel":"","addr":"경기도 화성시 우정읍 조암리 148-2번지 1층","indutype":"레저업소 - 헬스클럽","category":"leisure"}]},{"lat":"37.086619328","long":"126.82314223","imageIndex":13,"items":[{"name":"ONE 골프아카데미","tel":"031-000-0000","addr":"경기도 화성시 우정읍 조암리 801번지 2층","indutype":"레저업소 - 골프연습장","category":"leisure"}]},{"lat":"37.082366804","long":"126.81758528","imageIndex":13,"items":[{"name":"명품노래연습장","tel":"031-351-9430","addr":"경기도 화성시 우정읍 조암리 349-17번지","indutype":"레저업소 - 노 래 방","category":"leisure"}]},{"lat":"37.083838422","long":"126.81944865","imageIndex":13,"items":[{"name":"바젤PC방","tel":"031-773-3572","addr":"경기도 화성시 우정읍 조암리 270-30번지","indutype":"레저업소 - 기타레져업소","category":"leisure"}]},{"lat":"37.082755991","long":"126.81869774","imageIndex":13,"items":[{"name":"불티","tel":"031-351-3377","addr":"경기도 화성시 우정읍 조암리 290-12번지","indutype":"레저업소 - 노 래 방","category":"leisure"}]},{"lat":"37.083394092","long":"126.81763901","imageIndex":13,"items":[{"name":"블링블링 노래연습장","tel":"","addr":"경기도 화성시 우정읍 조암리 352-3번지 지하1층","indutype":"레저업소 - 노 래 방","category":"leisure"}]},{"lat":"37.083613281","long":"126.81952792","imageIndex":13,"items":[{"name":"상해전통마사지/롯데","tel":"070-4321-7892","addr":"경기도 화성시 우정읍 조암리 271-9번지 2층","indutype":"레저업소 - 헬스클럽","category":"leisure"}]},{"lat":"37.084335787","long":"126.82060586","imageIndex":13,"items":[{"name":"서영노래연습장","tel":"070-8947-4490","addr":"경기도 화성시 우정읍 조암리 243-7번지 2층","indutype":"레저업소 - 노 래 방","category":"leisure"},{"name":"우정스트레칭요가","tel":"031-351-0121","addr":"경기도 화성시 우정읍 조암리 243-7번지","indutype":"레저업소 - 헬스클럽","category":"leisure"}]},{"lat":"37.082619749","long":"126.81800079","imageIndex":13,"items":[{"name":"석수노래연습장","tel":"031-358-8991","addr":"경기도 화성시 우정읍 조암리 350-45번지","indutype":"레저업소 - 노 래 방","category":"leisure"}]},{"lat":"37.082953786","long":"126.8184161","imageIndex":13,"items":[{"name":"스타노래연습장","tel":"031-351-1772","addr":"경기도 화성시 우정읍 조암리 350-3번지","indutype":"레저업소 - 노 래 방","category":"leisure"}]},{"lat":"37.08517137","long":"126.81905179","imageIndex":13,"items":[{"name":"스타코인","tel":"","addr":"경기도 화성시 우정읍 조암리 216-6번지","indutype":"레저업소 - 기타레져업소","category":"leisure"}]},{"lat":"37.083675152","long":"126.81875175","imageIndex":13,"items":[{"name":"신세계 노래연습장","tel":"031-358-5421","addr":"경기도 화성시 우정읍 조암리 270-14번지","indutype":"레저업소 - 노 래 방","category":"leisure"}]},{"lat":"37.083840294","long":"126.82066328","imageIndex":13,"items":[{"name":"아이비스PC화성조암점","tel":"","addr":"경기도 화성시 우정읍 조암리 260-18번지 조암프라자 301호","indutype":"레저업소 - 기타레져업소","category":"leisure"},{"name":"캐롬당구장","tel":"","addr":"경기도 화성시 우정읍 조암리 260-18번지 조암프라자 5층 501호","indutype":"레저업소 - 당 구 장","category":"leisure"}]},{"lat":"37.083647386","long":"126.81827946","imageIndex":13,"items":[{"name":"애플노래연습장","tel":"031-351-6060","addr":"경기도 화성시 우정읍 조암리 267-7번지","indutype":"레저업소 - 노 래 방","category":"leisure"}]},{"lat":"37.082809792","long":"126.81852891","imageIndex":13,"items":[{"name":"에스비에스(SBS)당구장","tel":"031-358-4939","addr":"경기도 화성시 우정읍 조암리 291-2번지 3층","indutype":"레저업소 - 당 구 장","category":"leisure"}]},{"lat":"37.082392568","long":"126.81677547","imageIndex":13,"items":[{"name":"일품당구장","tel":"031-351-6503","addr":"경기도 화성시 우정읍 조암리 340-10번지 3층","indutype":"레저업소 - 당 구 장","category":"leisure"}]},{"lat":"37.088120309","long":"126.82066428","imageIndex":13,"items":[{"name":"점핑스타","tel":"031-351-1847","addr":"경기도 화성시 우정읍 조암리 149-3번지 2층","indutype":"레저업소 - 기타레져업소","category":"leisure"}]},{"lat":"37.088757225","long":"126.81882943","imageIndex":13,"items":[{"name":"조암스크린골프연습장","tel":"031-358-0742","addr":"경기도 화성시 우정읍 조암리 147-7번지 2층","indutype":"레저업소 - 스크린골프","category":"leisure"}]},{"lat":"37.083286527","long":"126.81799917","imageIndex":13,"items":[{"name":"찬스 노래연습장","tel":"031-358-4611","addr":"경기도 화성시 우정읍 조암리 267-12번지","indutype":"레저업소 - 노 래 방","category":"leisure"}]},{"lat":"37.088173784","long":"126.82028175","imageIndex":13,"items":[{"name":"천기킥복싱(CK GYM)","tel":"031-351-4399","addr":"경기도 화성시 우정읍 조암리 149-5번지 2층","indutype":"레저업소 - 헬스클럽","category":"leisure"}]},{"lat":"37.083034531","long":"126.81819097","imageIndex":13,"items":[{"name":"체리PC방","tel":"070-9745-7545","addr":"경기도 화성시 우정읍 조암리 350-21번지","indutype":"레저업소 - 기타레져업소","category":"leisure"}]},{"lat":"37.0820929","long":"126.81530293","imageIndex":13,"items":[{"name":"코끼리노래연습장","tel":"031-351-3094","addr":"경기도 화성시 우정읍 조암리 335번지 지하층","indutype":"레저업소 - 노 래 방","category":"leisure"},{"name":"홀인원실내골프","tel":"031-358-0757","addr":"경기도 화성시 우정읍 조암리 335번지 3층","indutype":"레저업소 - 스크린골프","category":"leisure"}]},{"lat":"37.084227799","long":"126.82069609","imageIndex":13,"items":[{"name":"킹당구장","tel":"031-351-5222","addr":"경기도 화성시 우정읍 조암리 243-10번지 2층","indutype":"레저업소 - 당 구 장","category":"leisure"}]}]