[{"lat":"37.783926493","long":"127.04412344","imageIndex":17,"items":[{"name":"(주)생토 양주대리점","tel":"031-847-1136","addr":"경기도 양주시 남방동 7-8번지","indutype":"가구 - 일반가구","category":"other"}]},{"lat":"37.776232838","long":"127.04279113","imageIndex":17,"items":[{"name":"(주)유경엔지니어링","tel":"031-879-6545","addr":"경기도 양주시 남방동 342-11번지 104호","indutype":"용역 서비스 - 사무서비스","category":"other"}]},{"lat":"37.783790783","long":"127.04571263","imageIndex":17,"items":[{"name":"(주)종합건축사사무소삼예앤영림이엔지","tel":"031-840-2363","addr":"경기도 양주시 남방동 2-7번지","indutype":"용역 서비스 - 기타용역서비스","category":"other"},{"name":"대한측량설계공사","tel":"031-844-2552","addr":"경기도 양주시 남방동 2-7번지","indutype":"용역 서비스 - 사무서비스","category":"other"},{"name":"동광건축사무소","tel":"031-843-1124","addr":"경기도 양주시 남방동 2-7번지","indutype":"건축자재 - 기타건축자재","category":"other"},{"name":"영림건축사사무소","tel":"031-840-2362","addr":"경기도 양주시 남방동 2-7번지","indutype":"용역 서비스 - 사무서비스","category":"other"}]},{"lat":"37.776647367","long":"127.04251894","imageIndex":17,"items":[{"name":"(주)태원아이앤씨","tel":"031-827-3443","addr":"경기도 양주시 남방동 338번지 1층","indutype":"용역 서비스 - 기타용역서비스","category":"other"}]},{"lat":"37.784394946","long":"127.04423722","imageIndex":17,"items":[{"name":"PNC 카피센타","tel":"031-821-7201","addr":"경기도 양주시 남방동 9-25번지","indutype":"서적문구 - 문구용품","category":"other"}]},{"lat":"37.783872348","long":"127.04437315","imageIndex":17,"items":[{"name":"관건축사사무소","tel":"031-843-2828","addr":"경기도 양주시 남방동 7-10번지","indutype":"용역 서비스 - 사무서비스","category":"other"},{"name":"현출력","tel":"031-844-8112","addr":"경기도 양주시 남방동 7-10번지","indutype":"서적문구 - 출판 및 인쇄물","category":"other"}]},{"lat":"37.7740107","long":"127.0317914","imageIndex":17,"items":[{"name":"광명합판","tel":"031-842-9514","addr":"경기도 양주시 남방동 141번지","indutype":"건축자재 - 목재·석재·철물","category":"other"}]},{"lat":"37.78395358","long":"127.04395318","imageIndex":17,"items":[{"name":"국토측량설계공사","tel":"031-842-2159","addr":"경기도 양주시 남방동 7-2번지","indutype":"기타 - 기타 전문점","category":"other"}]},{"lat":"37.767340973","long":"127.04120879","imageIndex":17,"items":[{"name":"그린툴","tel":"031-836-6831","addr":"경기도 양주시 남방동 210-5번지","indutype":"기타 - 기계공구","category":"other"},{"name":"주식회사 서원이엔씨","tel":"02-2233-0404","addr":"경기도 양주시 남방동 210-5번지 106호","indutype":"사무통신 - 통신기기","category":"other"}]},{"lat":"37.779315886","long":"127.03707178","imageIndex":17,"items":[{"name":"동양종합건업","tel":"031-840-8732","addr":"경기도 양주시 남방동 304,304-1","indutype":"건축자재 - 기타건축자재","category":"other"}]},{"lat":"37.771289486","long":"127.03315234","imageIndex":17,"items":[{"name":"동인석재","tel":"","addr":"경기도 양주시 남방동 534-4번지 1층","indutype":"용역 서비스 - 기타용역서비스","category":"other"}]},{"lat":"37.774069863","long":"127.04478764","imageIndex":17,"items":[{"name":"메가북스","tel":"031-8083-9981","addr":"경기도 양주시 남방동 94-1번지 양주역사 내","indutype":"서적문구 - 일반서적","category":"other"},{"name":"장서유통","tel":"031-847-9660","addr":"경기도 양주시 남방동 94-1번지","indutype":"의류 - 정장","category":"other"}]},{"lat":"37.766150617","long":"127.04445405","imageIndex":17,"items":[{"name":"목석원","tel":"031-841-5646","addr":"경기도 양주시 남방동 89","indutype":"문화.취미 - 화원","category":"other"},{"name":"양주꽃화분","tel":"031-840-4997","addr":"경기도 양주시 남방동 89 연동하우스","indutype":"문화.취미 - 화원","category":"other"},{"name":"한솔다육집","tel":"","addr":"경기도 양주시 남방동 89번지","indutype":"문화.취미 - 화원","category":"other"}]},{"lat":"37.78439514","long":"127.04368097","imageIndex":17,"items":[{"name":"미래건축사사무소","tel":"031-842-6001","addr":"경기도 양주시 남방동 9-28번지","indutype":"용역 서비스 - 사무서비스","category":"other"},{"name":"미래측량설계공사","tel":"031-844-8001","addr":"경기도 양주시 남방동 9-28번지 1층","indutype":"용역 서비스 - 사무서비스","category":"other"},{"name":"새마을운동양주시지회","tel":"031-842-3965","addr":"경기도 양주시 남방동 9-28번지","indutype":"기타 - 비영리/비대상","category":"other"}]},{"lat":"37.766070115","long":"127.04276297","imageIndex":17,"items":[{"name":"발자크미디어","tel":"031-847-2089","addr":"경기도 양주시 남방동 200-20번지","indutype":"의류 - 정장","category":"other"}]},{"lat":"37.784007712","long":"127.04373752","imageIndex":17,"items":[{"name":"배노현세무회계사무소","tel":"031-878-2100","addr":"경기도 양주시 남방동 8-8번지 1층","indutype":"용역 서비스 - 법률회계서비스(개인)","category":"other"},{"name":"세무법인 나우","tel":"031-878-2100","addr":"경기도 양주시 남방동 8-8번지 1층","indutype":"용역 서비스 - 법률회계서비스(법인)","category":"other"},{"name":"양주시자동차번호판제작소","tel":"031-842-5534","addr":"경기도 양주시 남방동 8-8번지 1층","indutype":"기타 - 기타 전문점","category":"other"}]},{"lat":"37.783899328","long":"127.04450939","imageIndex":17,"items":[{"name":"법무사 성원경사무소","tel":"031-842-0080","addr":"경기도 양주시 남방동 2-16번지","indutype":"용역 서비스 - 법률회계서비스(개인)","category":"other"}]},{"lat":"37.783790894","long":"127.04540613","imageIndex":17,"items":[{"name":"법무사박춘기사무소","tel":"031-844-4777","addr":"경기도 양주시 남방동 2-20번지 205호","indutype":"용역 서비스 - 법률회계서비스(개인)","category":"other"}]},{"lat":"37.769541252","long":"127.03462709","imageIndex":17,"items":[{"name":"벧엘새지붕","tel":"031-829-2904","addr":"경기도 양주시 남방동 537-1번지","indutype":"용역 서비스 - 기타용역서비스","category":"other"}]},{"lat":"37.77644959","long":"127.04121349","imageIndex":17,"items":[{"name":"부영액자","tel":"031-877-4322","addr":"경기도 양주시 남방동 333-7번지","indutype":"건축자재 - 목재·석재·철물","category":"other"}]},{"lat":"37.768982656","long":"127.03464955","imageIndex":17,"items":[{"name":"비티(BT)스틸","tel":"031-841-5867","addr":"경기도 양주시 남방동 221-3번지 221-15,221-16,221-39","indutype":"건축자재 - 기타건축자재","category":"other"}]},{"lat":"37.783592587","long":"127.04567846","imageIndex":17,"items":[{"name":"서인측량설계사무소","tel":"031-840-9001","addr":"경기도 양주시 남방동 2-24번지","indutype":"용역 서비스 - 사무서비스","category":"other"}]},{"lat":"37.767874062","long":"127.03618125","imageIndex":17,"items":[{"name":"성신요양원","tel":"031-843-3388","addr":"경기도 양주시 남방동 217번지","indutype":"기타의료기관 - 기타의료기관 및 기타","category":"other"}]},{"lat":"37.773839553","long":"127.03165513","imageIndex":17,"items":[{"name":"성풍기계","tel":"031-840-7199","addr":"경기도 양주시 남방동 142번지","indutype":"기타 - 기계공구","category":"other"}]},{"lat":"37.78439518","long":"127.04356745","imageIndex":17,"items":[{"name":"세무사김종욱사무소","tel":"031-856-3700","addr":"경기도 양주시 남방동 9-29번지 2층","indutype":"용역 서비스 - 법률회계서비스(개인)","category":"other"},{"name":"우현건축사사무소","tel":"031-894-5112","addr":"경기도 양주시 남방동 9-29번지 1층","indutype":"용역 서비스 - 사무서비스","category":"other"},{"name":"정성법무사 김정화","tel":"031-847-4555","addr":"경기도 양주시 남방동 9-29번지","indutype":"용역 서비스 - 법률회계서비스(개인)","category":"other"}]},{"lat":"37.784448944","long":"127.04440753","imageIndex":17,"items":[{"name":"세븐일레븐.양주시청점","tel":"031-843-1812","addr":"경기도 양주시 남방동 9-24번지","indutype":"유통업 영리 - 편 의 점","category":"other"}]},{"lat":"37.783872219","long":"127.04473642","imageIndex":17,"items":[{"name":"시우","tel":"031-848-8297","addr":"경기도 양주시 남방동 2-14번지","indutype":"용역 서비스 - 법률회계서비스(개인)","category":"other"},{"name":"행정사 김태성 사무소","tel":"031-821-8222","addr":"경기도 양주시 남방동 2-14번지","indutype":"용역 서비스 - 법률회계서비스(개인)","category":"other"}]},{"lat":"37.773151232","long":"127.04382235","imageIndex":17,"items":[{"name":"양주1동 주민자치위원회","tel":"031-8082-4134","addr":"경기도 양주시 남방동 119-4번지","indutype":"문화.취미 - 문화취미기타","category":"other"}]},{"lat":"37.784926131","long":"127.04529326","imageIndex":17,"items":[{"name":"양주시보건소","tel":"031-8082-7116","addr":"경기도 양주시 남방동 1-1번지","indutype":"용역 서비스 - 사무서비스","category":"other"},{"name":"양주시청","tel":"031-8082-4242","addr":"경기도 양주시 남방동 1-1번지","indutype":"용역 서비스 - 기타용역서비스","category":"other"},{"name":"양주시청/세무과","tel":"031-8082-4242","addr":"경기도 양주시 남방동 1-1번지 양주시청 세무과","indutype":"용역 서비스 - 조세서비스","category":"other"},{"name":"양주시청직장운영위원회","tel":"031-8082-4091","addr":"경기도 양주시 남방동 1-1번지","indutype":"유통업 비영리 - 구내매점(국가기관","category":"other"}]},{"lat":"37.772844782","long":"127.04418539","imageIndex":17,"items":[{"name":"양주주내우체국","tel":"031-840-0004","addr":"경기도 양주시 남방동 121-6번지","indutype":"용역 서비스 - 공공요금대행서비스/소","category":"other"}]},{"lat":"37.776539766","long":"127.04096382","imageIndex":17,"items":[{"name":"엔타브","tel":"031-821-9835","addr":"경기도 양주시 남방동 333-22번지","indutype":"레져용품 - 악기점","category":"other"}]},{"lat":"37.771064154","long":"127.03351544","imageIndex":17,"items":[{"name":"엠제이(MJ)텔레콤","tel":"","addr":"경기도 양주시 남방동 534-8번지","indutype":"사무통신 - 통신기기","category":"other"}]},{"lat":"37.784566206","long":"127.04401028","imageIndex":17,"items":[{"name":"연우물자조달","tel":"070-8950-1170","addr":"경기도 양주시 남방동 9-11번지 1층","indutype":"의류 - 기타의류","category":"other"},{"name":"향기종합상사","tel":"031-1111-1111","addr":"경기도 양주시 남방동 9-11번지 2층","indutype":"문화.취미 - 화원","category":"other"}]},{"lat":"37.772677381","long":"127.03142767","imageIndex":17,"items":[{"name":"옐로우스타(YELLOW STAR)","tel":"031-821-3951","addr":"경기도 양주시 남방동 160번지","indutype":"서적문구 - 완구점","category":"other"}]},{"lat":"37.779784103","long":"127.03801415","imageIndex":17,"items":[{"name":"우리교재","tel":"031-863-7753","addr":"경기도 양주시 남방동 404-2번지","indutype":"회원제형태 - 서적","category":"other"}]},{"lat":"37.784368045","long":"127.04387394","imageIndex":17,"items":[{"name":"의정부미니중기","tel":"031-855-2103","addr":"경기도 양주시 남방동 9-27번지","indutype":"기타 - 기계공구","category":"other"}]},{"lat":"37.783845102","long":"127.04498614","imageIndex":17,"items":[{"name":"인쇄백화점","tel":"031-856-1043","addr":"경기도 양주시 남방동 2-21번지","indutype":"서적문구 - 출판 및 인쇄물","category":"other"}]},{"lat":"37.770288769","long":"127.03562619","imageIndex":17,"items":[{"name":"일공공스튜디오","tel":"031-821-1244","addr":"경기도 양주시 남방동 236-7번지","indutype":"광학제품 - 사진관","category":"other"}]},{"lat":"37.771736307","long":"127.04504738","imageIndex":17,"items":[{"name":"전국꽃(란) 배달서비스","tel":"031-877-2706","addr":"경기도 양주시 남방동 82번지","indutype":"문화.취미 - 화원","category":"other"}]},{"lat":"37.778174405","long":"127.02582237","imageIndex":17,"items":[{"name":"정한실업","tel":"031-848-9003","addr":"경기도 양주시 남방동 462번지 201호","indutype":"의류 - 정장","category":"other"}]},{"lat":"37.768676323","long":"127.03468347","imageIndex":17,"items":[{"name":"주식회사 예빛엘이디","tel":"031-843-0320","addr":"경기도 양주시 남방동 221-21번지","indutype":"건축자재 - 인테리어전문","category":"other"}]},{"lat":"37.783899416","long":"127.04425965","imageIndex":17,"items":[{"name":"주식회사대한소방","tel":"031-875-9199","addr":"경기도 양주시 남방동 2-18번지","indutype":"용역 서비스 - 기타용역서비스","category":"other"}]},{"lat":"37.772844929","long":"127.04376543","imageIndex":17,"items":[{"name":"천보석재","tel":"031-542-4144","addr":"경기도 양주시 남방동 128-1번지","indutype":"건축자재 - 목재·석재·철물","category":"other"}]},{"lat":"37.773704526","long":"127.03117836","imageIndex":17,"items":[{"name":"춘천연옥매직바이오","tel":"031-878-7979","addr":"경기도 양주시 남방동 517-2","indutype":"회원제형태 - 기타4","category":"other"}]},{"lat":"37.768313104","long":"127.04387643","imageIndex":17,"items":[{"name":"태강스텐","tel":"031-840-6111","addr":"경기도 양주시 남방동 207-3번지","indutype":"건축자재 - 목재·석재·철물","category":"other"}]},{"lat":"37.783782153","long":"127.0446569","imageIndex":17,"items":[{"name":"터건축사사무소","tel":"031-848-1108","addr":"경기도 양주시 남방동 2-15번지","indutype":"용역 서비스 - 사무서비스","category":"other"}]},{"lat":"37.776069643","long":"127.04570818","imageIndex":17,"items":[{"name":"푸름원","tel":"031-541-8889","addr":"경기도 양주시 남방동 74","indutype":"농업 - 비료,사료,종자","category":"other"}]},{"lat":"37.776538108","long":"127.0457879","imageIndex":17,"items":[{"name":"한솔농원","tel":"031-821-0055","addr":"경기도 양주시 남방동 74-17","indutype":"문화.취미 - 화원","category":"other"}]},{"lat":"37.772345117","long":"127.02651293","imageIndex":17,"items":[{"name":"효한마음요양원 주야간보호센터","tel":"031-875-0075","addr":"경기도 양주시 남방동 575-3번지","indutype":"기타의료기관 - 기타의료기관 및 기타","category":"other"}]}]