[{"lat":"37.4511118","long":"127.2647247","imageIndex":13,"items":[{"name":"(주) 다미코즈","tel":"031-764-2901","addr":"경기도 광주시 남한산성면 상번천리 428번지","indutype":"보건위생 - 미용재료","category":"beauty"}]},{"lat":"37.44049784","long":"127.264812","imageIndex":17,"items":[{"name":"광원","tel":"031-797-0316","addr":"경기도 광주시 남한산성면 상번천리 594번지","indutype":"문화.취미 - 화원","category":"other"}]},{"lat":"37.4511118","long":"127.2647247","imageIndex":17,"items":[{"name":"삼일농자재산업(주)","tel":"031-529-0310","addr":"경기도 광주시 남한산성면 상번천리 428","indutype":"농업 - 비료,사료,종자","category":"other"}]},{"lat":"37.4398609","long":"127.2635555","imageIndex":17,"items":[{"name":"수재조경","tel":"031-756-5704","addr":"경기도 광주시 남한산성면 상번천리 625","indutype":"문화.취미 - 화원","category":"other"}]},{"lat":"37.44699681","long":"127.2635577","imageIndex":17,"items":[{"name":"조은집화원","tel":"031-763-3754","addr":"경기도 광주시 남한산성면 상번천리 706-2번지","indutype":"문화.취미 - 화원","category":"other"}]},{"lat":"37.44669548","long":"127.2653648","imageIndex":17,"items":[{"name":"케이앤지","tel":"031-797-0867","addr":"경기도 광주시 남한산성면 상번천리 511번지","indutype":"레져용품 - 스포츠·레져용품","category":"other"}]},{"lat":"37.44760747","long":"127.2644752","imageIndex":17,"items":[{"name":"탑디자인","tel":"031-765-1562","addr":"경기도 광주시 남한산성면 상번천리 504-2번지","indutype":"건축자재 - 인테리어전문","category":"other"}]},{"lat":"37.44719625","long":"127.2630046","imageIndex":4,"items":[{"name":"마실","tel":"031-762-0952","addr":"경기도 광주시 남한산성면 상번천리 714-24번지 1층","indutype":"일반휴게음식 - 일반한식","category":"restaurant"}]},{"lat":"37.44463319","long":"127.2649168","imageIndex":4,"items":[{"name":"번천집","tel":"031-761-3767","addr":"경기도 광주시 남한산성면 상번천리 549-2번지","indutype":"일반휴게음식 - 일반한식","category":"restaurant"}]},{"lat":"37.44949513","long":"127.2664708","imageIndex":4,"items":[{"name":"소나무집","tel":"031-761-4018","addr":"경기도 광주시 남한산성면 상번천리 495-2번지 1층","indutype":"일반휴게음식 - 일반한식","category":"restaurant"}]},{"lat":"37.45455703","long":"127.2790563","imageIndex":4,"items":[{"name":"안골종가집","tel":"031-764-3601","addr":"경기도 광주시 남한산성면 상번천리 66-2번지","indutype":"일반휴게음식 - 일반한식","category":"restaurant"}]},{"lat":"37.44641648","long":"127.2652282","imageIndex":4,"items":[{"name":"중부정육식당","tel":"031-797-3292","addr":"경기도 광주시 남한산성면 상번천리 510-2번지 1층","indutype":"일반휴게음식 - 일반한식","category":"restaurant"}]},{"lat":"37.44741918","long":"127.2640564","imageIndex":7,"items":[{"name":"번천떡방앗간","tel":"031-761-2561","addr":"경기도 광주시 남한산성면 상번천리 717-1번지","indutype":"음료식품 - 제과점","category":"food"}]},{"lat":"37.44657861","long":"127.2652513","imageIndex":7,"items":[{"name":"번천상회","tel":"","addr":"경기도 광주시 남한산성면 상번천리 510-1번지","indutype":"음료식품 - 기타음료식품","category":"food"}]},{"lat":"37.44699786","long":"127.2630831","imageIndex":7,"items":[{"name":"오혜숙 생활단식 늘푸른 송원지사","tel":"070-6424-0216","addr":"경기도 광주시 남한산성면 상번천리 707-1번지","indutype":"건강식품 - 기타건강식품","category":"food"}]},{"lat":"37.44866504","long":"127.2588057","imageIndex":7,"items":[{"name":"정암양봉원","tel":"031-767-1503","addr":"경기도 광주시 남한산성면 상번천리 711-2번지 1층","indutype":"건강식품 - 기타건강식품","category":"food"}]}]