[{"lat":"37.287469457","long":"127.46526811","imageIndex":0,"items":[{"name":"디테일뷰","tel":"031-694-4099","addr":"경기도 이천시 갈산동 219-10번지 2동 102호","indutype":"자동차정비 유지 - 세차장","category":"car"}]},{"lat":"37.283963521","long":"127.45854854","imageIndex":0,"items":[{"name":"매직터치이천점","tel":"031-638-7282","addr":"경기도 이천시 갈산동 651-1번지","indutype":"자동차정비 유지 - 카인테리어","category":"car"}]},{"lat":"37.287325299","long":"127.4675677","imageIndex":0,"items":[{"name":"성신카센타","tel":"031-633-7424","addr":"경기도 이천시 갈산동 219-32번지","indutype":"자동차정비 유지 - 자동차정비","category":"car"}]},{"lat":"37.284161784","long":"127.45853846","imageIndex":0,"items":[{"name":"스타사운드카오디오","tel":"031-638-5254","addr":"경기도 이천시 갈산동 651-2번지","indutype":"자동차정비 유지 - 카인테리어","category":"car"}]},{"lat":"37.288107666","long":"127.46565544","imageIndex":0,"items":[{"name":"에스원코리아세차장","tel":"031-637-5432","addr":"경기도 이천시 갈산동 219-28번지 에스원코리아세차장","indutype":"자동차정비 유지 - 세차장","category":"car"},{"name":"크로바세차장","tel":"031-6351-3101","addr":"경기도 이천시 갈산동 219-28번지","indutype":"자동차정비 유지 - 세차장","category":"car"}]},{"lat":"37.287573343","long":"127.46635133","imageIndex":0,"items":[{"name":"이천타이어판매","tel":"031-635-8997","addr":"경기도 이천시 갈산동 219-22번지","indutype":"자동차정비 유지 - 자동차시트·타이어","category":"car"},{"name":"타이어타운증포점","tel":"031-634-2773","addr":"경기도 이천시 갈산동 219-22번지","indutype":"자동차정비 유지 - 자동차시트·타이어","category":"car"}]},{"lat":"37.28104584","long":"127.46740506","imageIndex":0,"items":[{"name":"형제밧데리","tel":"031-635-4867","addr":"경기도 이천시 갈산동 131-5번지","indutype":"자동차정비 유지 - 자동차부품","category":"car"}]}]