[{"lat":"37.000970847","long":"127.19574403","imageIndex":17,"items":[{"name":"(사)워치타워성서책자협회","tel":"031-690-0033","addr":"경기도 안성시 공도읍 양기리 377번지","indutype":"서적문구 - 출판 및 인쇄물","category":"other"}]},{"lat":"36.994799087","long":"127.18394445","imageIndex":17,"items":[{"name":"(주)포트론","tel":"031-651-2870","addr":"경기도 안성시 공도읍 양기리 521-18번지","indutype":"기타 - 기타 전문점","category":"other"}]},{"lat":"37.006410119","long":"127.19769023","imageIndex":17,"items":[{"name":"GS25공도그랑블점","tel":"","addr":"경기도 안성시 공도읍 양기리 306-33번지 서해그랑블 상가동 106,107호","indutype":"유통업 영리 - 편 의 점","category":"other"}]},{"lat":"37.007327411","long":"127.19324335","imageIndex":17,"items":[{"name":"가전가구1번지","tel":"031-652-7133","addr":"경기도 안성시 공도읍 양기리 332-5","indutype":"전기제품 - 가전제품","category":"other"},{"name":"그린하우스","tel":"031-654-1320","addr":"경기도 안성시 공도읍 양기리 332-5 6","indutype":"용역 서비스 - 종합용역","category":"other"},{"name":"씨유안성양기점","tel":"031-671-4565","addr":"경기도 안성시 공도읍 양기리 332-5번지 1,2호","indutype":"유통업 영리 - 편 의 점","category":"other"}]},{"lat":"37.009077698","long":"127.20813495","imageIndex":17,"items":[{"name":"경기물산주식회사/삼원FA(일반)","tel":"031-618-2989","addr":"경기도 안성시 공도읍 양기리 33-1번지","indutype":"기타 - 기타 전문점","category":"other"}]},{"lat":"37.006880492","long":"127.19657913","imageIndex":17,"items":[{"name":"공도유통","tel":"031-691-8030","addr":"경기도 안성시 공도읍 양기리 615번지 안성공도서해그랑블 108동 1502호","indutype":"의류 - 정장","category":"other"},{"name":"크린토피아","tel":"031-627-6255","addr":"경기도 안성시 공도읍 양기리 615번지 안성공도서해그랑블 1층 110호","indutype":"수리서비스 - 세탁소","category":"other"},{"name":"크린토피아 안성 서해그랑블점","tel":"031-657-6255","addr":"경기도 안성시 공도읍 양기리 615번지 안성공도서해그랑블 1층 110호","indutype":"수리서비스 - 세탁소","category":"other"}]},{"lat":"37.005720162","long":"127.2008006","imageIndex":17,"items":[{"name":"늘푸른인테리어","tel":"031-654-3120","addr":"경기도 안성시 공도읍 양기리 567-1번지 송정그린빌 상가 1층 102호","indutype":"건축자재 - 인테리어전문","category":"other"}]},{"lat":"37.005941713","long":"127.1920265","imageIndex":17,"items":[{"name":"다인시스템","tel":"070-4116-1222","addr":"경기도 안성시 공도읍 양기리 451-19번지 103호","indutype":"수리서비스 - 사무·통신기기수리","category":"other"}]},{"lat":"37.007665789","long":"127.19573847","imageIndex":17,"items":[{"name":"리마켓 평택안성점","tel":"070-7576-3057","addr":"경기도 안성시 공도읍 양기리 324-1번지 1동","indutype":"신변잡화 - 기타잡화","category":"other"}]},{"lat":"37.009381898","long":"127.20413586","imageIndex":17,"items":[{"name":"맥스드림","tel":"031-672-7644","addr":"경기도 안성시 공도읍 양기리 287번지 B동 108호","indutype":"레져용품 - 스포츠·레져용품","category":"other"},{"name":"삼화하이텍","tel":"062-528-6981","addr":"경기도 안성시 공도읍 양기리 287번지 A동1층103,104호","indutype":"기타 - 기타 전문점","category":"other"},{"name":"오케이(OK)청소용품나라","tel":"031-691-4555","addr":"경기도 안성시 공도읍 양기리 287번지","indutype":"신변잡화 - 기타잡화","category":"other"},{"name":"중고세상","tel":"031-655-2427","addr":"경기도 안성시 공도읍 양기리 287번지 B동 101호","indutype":"전기제품 - 가전제품","category":"other"}]},{"lat":"37.005661899","long":"127.19232916","imageIndex":17,"items":[{"name":"세븐일레븐안성태양점","tel":"","addr":"경기도 안성시 공도읍 양기리 332-52번지","indutype":"유통업 영리 - 편 의 점","category":"other"}]},{"lat":"37.003054425","long":"127.1887725","imageIndex":17,"items":[{"name":"신흥공조","tel":"031-618-9308","addr":"경기도 안성시 공도읍 양기리 450-24번지","indutype":"용역 서비스 - 기타용역서비스","category":"other"}]},{"lat":"37.008721321","long":"127.20043761","imageIndex":17,"items":[{"name":"안성 아이야스튜디오","tel":"031-654-3966","addr":"경기도 안성시 공도읍 양기리 298-8번지","indutype":"광학제품 - 사진관","category":"other"}]},{"lat":"37.00380388","long":"127.19899806","imageIndex":17,"items":[{"name":"안성생수","tel":"031-618-8818","addr":"경기도 안성시 공도읍 양기리 352-6번지","indutype":"유통업 영리 - 기타유통업","category":"other"}]},{"lat":"37.005024359","long":"127.19093443","imageIndex":17,"items":[{"name":"애드스테인리스(주)","tel":"031-650-7904","addr":"경기도 안성시 공도읍 양기리 428-12번지","indutype":"건축자재 - 기타건축자재","category":"other"}]},{"lat":"37.006081138","long":"127.1893304","imageIndex":17,"items":[{"name":"우아미가구","tel":"031-681-8620","addr":"경기도 안성시 공도읍 양기리 438번지 1층","indutype":"가구 - 일반가구","category":"other"}]},{"lat":"37.007049232","long":"127.1925236","imageIndex":17,"items":[{"name":"좋은주방만들기","tel":"031-691-1382","addr":"경기도 안성시 공도읍 양기리 332-26","indutype":"주방용구 - 주방용구","category":"other"}]},{"lat":"37.000214483","long":"127.18977668","imageIndex":17,"items":[{"name":"형제건업","tel":"070-4228-1652","addr":"경기도 안성시 공도읍 양기리 412번지","indutype":"주방용구 - 주방용구","category":"other"}]},{"lat":"36.999658832","long":"127.18785426","imageIndex":16,"items":[{"name":"(주)평택안성자동차운전전문학원","tel":"031-655-6525","addr":"경기도 안성시 공도읍 양기리 440-6번지","indutype":"학원 - 기능학원","category":"study"},{"name":"갤럭시자동차운전전문학원 (주)","tel":"031-655-6525","addr":"경기도 안성시 공도읍 양기리 440-6","indutype":"학원 - 기능학원","category":"study"}]},{"lat":"37.007244708","long":"127.1942431","imageIndex":16,"items":[{"name":"문기초등학교","tel":"031-618-0559","addr":"경기도 안성시 공도읍 양기리 332-25번지 문기초등학교","indutype":"학원 - 초중고교육기관","category":"study"},{"name":"문기초등학교병설유치원[아이행복]","tel":"031-618-0559","addr":"경기도 안성시 공도읍 양기리 332-25번지","indutype":"학원 - 유치원","category":"study"}]},{"lat":"37.006410119","long":"127.19769023","imageIndex":16,"items":[{"name":"뮤직스토리음악학원","tel":"031-653-7757","addr":"경기도 안성시 공도읍 양기리 306-33번지 서해그랑블 상가 207,208호","indutype":"학원 - 예·체능계학원","category":"study"}]},{"lat":"37.008657647","long":"127.20079698","imageIndex":16,"items":[{"name":"사단법인 행복한가정연구소","tel":"031-611-7991","addr":"경기도 안성시 공도읍 양기리 298-3번지","indutype":"학원 - 기타 교육기관","category":"study"}]},{"lat":"36.994441863","long":"127.18183171","imageIndex":16,"items":[{"name":"삼성어린이집[아이행복]","tel":"031-652-1242","addr":"경기도 안성시 공도읍 양기리 521-32번지","indutype":"학원 - 유아원","category":"study"},{"name":"삼성팬그램영어교습소","tel":"","addr":"경기도 안성시 공도읍 양기리 521-32번지 1층","indutype":"학원 - 외국어학원","category":"study"}]},{"lat":"36.994910502","long":"127.18177664","imageIndex":16,"items":[{"name":"삼성유치원[아이행복]","tel":"031-653-9936","addr":"경기도 안성시 공도읍 양기리 521-25번지","indutype":"학원 - 유치원","category":"study"}]},{"lat":"37.005720162","long":"127.2008006","imageIndex":16,"items":[{"name":"아트온 미술교습소","tel":"031-618-0348","addr":"경기도 안성시 공도읍 양기리 567-1번지 송정아파트 상가 1동 109호","indutype":"학원 - 예·체능계학원","category":"study"}]},{"lat":"37.007327411","long":"127.19324335","imageIndex":16,"items":[{"name":"청림음악학원","tel":"031-654-7472","addr":"경기도 안성시 공도읍 양기리 332-5번지 태영빌딩 3층 2호","indutype":"학원 - 예·체능계학원","category":"study"},{"name":"청림학원","tel":"031-657-5582","addr":"경기도 안성시 공도읍 양기리 332-5번지 2층","indutype":"학원 - 보습학원","category":"study"}]},{"lat":"37.007490718","long":"127.2087711","imageIndex":16,"items":[{"name":"키움어린이집[아이행복]","tel":"031-278-3682","addr":"경기도 안성시 공도읍 양기리 46번지","indutype":"학원 - 유아원","category":"study"}]},{"lat":"37.007244008","long":"127.20552341","imageIndex":7,"items":[{"name":"경기자라농장","tel":"031-673-8975","addr":"경기도 안성시 공도읍 양기리 17-6번지","indutype":"음료식품 - 농·축·수산품","category":"food"}]},{"lat":"37.008359249","long":"127.20673981","imageIndex":7,"items":[{"name":"근원농원","tel":"031-656-2730","addr":"경기도 안성시 공도읍 양기리 27-1","indutype":"음료식품 - 농·축·수산품","category":"food"}]},{"lat":"37.006410119","long":"127.19769023","imageIndex":7,"items":[{"name":"두손유통","tel":"031-656-0236","addr":"경기도 안성시 공도읍 양기리 306-33번지","indutype":"음료식품 - 정육점","category":"food"}]},{"lat":"37.009381898","long":"127.20413586","imageIndex":7,"items":[{"name":"롯데부동산중개","tel":"031-651-5989","addr":"경기도 안성시 공도읍 양기리 287번지 A동 101호","indutype":"음료식품 - 농·축·수산품","category":"food"},{"name":"링크2","tel":"031-651-5989","addr":"경기도 안성시 공도읍 양기리 287번지","indutype":"음료식품 - 농·축·수산품","category":"food"}]},{"lat":"37.001466574","long":"127.1900269","imageIndex":7,"items":[{"name":"봉현농원","tel":"031-618-2792","addr":"경기도 안성시 공도읍 양기리 418번지","indutype":"음료식품 - 농·축·수산품","category":"food"}]},{"lat":"37.007106481","long":"127.20690499","imageIndex":7,"items":[{"name":"승주네복숭아","tel":"031-111-1111","addr":"경기도 안성시 공도읍 양기리 41번지 1층","indutype":"음료식품 - 농·축·수산품","category":"food"}]},{"lat":"37.008830358","long":"127.20524673","imageIndex":7,"items":[{"name":"안성마르페떡농원","tel":"031-618-0898","addr":"경기도 안성시 공도읍 양기리 24-2번지","indutype":"음료식품 - 제과점","category":"food"}]},{"lat":"37.007327411","long":"127.19324335","imageIndex":7,"items":[{"name":"한길 떡 방앗간","tel":"031-651-0536","addr":"경기도 안성시 공도읍 양기리 332-5번지 108호","indutype":"음료식품 - 제과점","category":"food"}]},{"lat":"37.009522198","long":"127.20640584","imageIndex":7,"items":[{"name":"향기포도농원","tel":"031-618-6271","addr":"경기도 안성시 공도읍 양기리 26","indutype":"음료식품 - 농·축·수산품","category":"food"}]},{"lat":"37.005024359","long":"127.19093443","imageIndex":4,"items":[{"name":"구내식당","tel":"031-626-4496","addr":"경기도 안성시 공도읍 양기리 428-12번지","indutype":"일반휴게음식 - 위탁급식업","category":"restaurant"}]},{"lat":"37.009381898","long":"127.20413586","imageIndex":4,"items":[{"name":"대림설렁탕","tel":"","addr":"경기도 안성시 공도읍 양기리 287번지 B동 1층","indutype":"일반휴게음식 - 일반한식","category":"restaurant"},{"name":"미림","tel":"070-1111-1111","addr":"경기도 안성시 공도읍 양기리 287번지 B동 1층 106호","indutype":"일반휴게음식 - 일반한식","category":"restaurant"}]},{"lat":"37.005661899","long":"127.19232916","imageIndex":4,"items":[{"name":"맛나밥집","tel":"031-618-7634","addr":"경기도 안성시 공도읍 양기리 332-52번지 1층 102호","indutype":"일반휴게음식 - 일반한식","category":"restaurant"},{"name":"태양백반","tel":"031-618-7634","addr":"경기도 안성시 공도읍 양기리 332-52번지 1동 1층","indutype":"일반휴게음식 - 일반한식","category":"restaurant"}]},{"lat":"37.007192954","long":"127.19280484","imageIndex":4,"items":[{"name":"밥집","tel":"031-652-7784","addr":"경기도 안성시 공도읍 양기리 332-14번지 2층","indutype":"일반휴게음식 - 일반한식","category":"restaurant"}]},{"lat":"37.008993127","long":"127.21013466","imageIndex":4,"items":[{"name":"수지밥상","tel":"031-655-0878","addr":"경기도 안성시 공도읍 양기리 157-5번지","indutype":"일반휴게음식 - 일반한식","category":"restaurant"}]},{"lat":"37.003553974","long":"127.20296331","imageIndex":4,"items":[{"name":"아르떼나인 (Arte9)","tel":"","addr":"경기도 안성시 공도읍 양기리 251-3번지 1층","indutype":"일반휴게음식 - 서양음식","category":"restaurant"}]},{"lat":"37.009248069","long":"127.20334901","imageIndex":4,"items":[{"name":"안성맛집 코다리네","tel":"031-618-2922","addr":"경기도 안성시 공도읍 양기리 292-5","indutype":"일반휴게음식 - 일반한식","category":"restaurant"}]},{"lat":"37.007327411","long":"127.19324335","imageIndex":4,"items":[{"name":"안성짬뽕","tel":"031-658-0807","addr":"경기도 안성시 공도읍 양기리 332-5번지 가동 1층","indutype":"일반휴게음식 - 중국식","category":"restaurant"}]},{"lat":"37.00904774","long":"127.20982021","imageIndex":4,"items":[{"name":"안성토종순대","tel":"031-655-0095","addr":"경기도 안성시 공도읍 양기리 157-2번지","indutype":"일반휴게음식 - 일반한식","category":"restaurant"}]},{"lat":"37.007075564","long":"127.19296184","imageIndex":4,"items":[{"name":"천상애장어가","tel":"","addr":"경기도 안성시 공도읍 양기리 332-15번지","indutype":"일반휴게음식 - 일반한식","category":"restaurant"}]},{"lat":"37.005941713","long":"127.1920265","imageIndex":4,"items":[{"name":"카페추남","tel":"031-655-7890","addr":"경기도 안성시 공도읍 양기리 451-19번지 101호","indutype":"일반휴게음식 - 서양음식","category":"restaurant"}]},{"lat":"36.994441863","long":"127.18183171","imageIndex":13,"items":[{"name":"노리파크공도점","tel":"070-2552-7446","addr":"경기도 안성시 공도읍 양기리 521-32 (정봉길 109) 2층","indutype":"레저업소 - 기타레져업소","category":"leisure"},{"name":"삼성어린이수영장","tel":"031-655-7321","addr":"경기도 안성시 공도읍 양기리 521-32번지","indutype":"레저업소 - 수 영 장","category":"leisure"}]},{"lat":"37.007327411","long":"127.19324335","imageIndex":13,"items":[{"name":"도전해동검도","tel":"031-691-1316","addr":"경기도 안성시 공도읍 양기리 332-5번지","indutype":"레저업소 - 기타레져업소","category":"leisure"}]},{"lat":"37.007962629","long":"127.19605381","imageIndex":0,"items":[{"name":"대한모터스","tel":"031-618-0061","addr":"경기도 안성시 공도읍 양기리 323-3","indutype":"자동차정비 유지 - 가타자동차서비스","category":"car"}]},{"lat":"37.007327411","long":"127.19324335","imageIndex":0,"items":[{"name":"배터리총판","tel":"031-378-0447","addr":"경기도 안성시 공도읍 양기리 332-5번지 105호","indutype":"자동차정비 유지 - 자동차부품","category":"car"}]},{"lat":"37.008777068","long":"127.21002172","imageIndex":0,"items":[{"name":"연진카센타","tel":"031-658-0514","addr":"경기도 안성시 공도읍 양기리 537-32번지","indutype":"자동차정비 유지 - 자동차정비","category":"car"}]},{"lat":"37.009381898","long":"127.20413586","imageIndex":0,"items":[{"name":"제임스카오디오","tel":"031-692-3767","addr":"경기도 안성시 공도읍 양기리 287","indutype":"자동차정비 유지 - 카인테리어","category":"car"}]},{"lat":"37.005720162","long":"127.2008006","imageIndex":13,"items":[{"name":"유경헤어콜렉션","tel":"031-653-4495","addr":"경기도 안성시 공도읍 양기리 567-1번지 연번지 203호","indutype":"보건위생 - 미용원","category":"beauty"}]},{"lat":"37.006410119","long":"127.19769023","imageIndex":13,"items":[{"name":"파라팜","tel":"031-653-3380","addr":"경기도 안성시 공도읍 양기리 306-33번지 205호","indutype":"보건위생 - 미용원","category":"beauty"}]},{"lat":"37.009381898","long":"127.20413586","imageIndex":13,"items":[{"name":"한국대리운전","tel":"031-677-6799","addr":"경기도 안성시 공도읍 양기리 287번지","indutype":"보건위생 - 기타대인서비스","category":"beauty"}]}]