[{"lat":"37.004243268","long":"127.22088483","imageIndex":0,"items":[{"name":"거산자동차정비공업사","tel":"031-675-6613","addr":"경기도 안성시 대덕면 내리 355-2번지","indutype":"자동차정비 유지 - 자동차정비","category":"car"}]},{"lat":"37.00901945","long":"127.21562896","imageIndex":0,"items":[{"name":"베스트 타이어","tel":"031-618-3009","addr":"경기도 안성시 대덕면 내리 489번지","indutype":"자동차정비 유지 - 자동차시트·타이어","category":"car"},{"name":"베스트타이어","tel":"031-618-3009","addr":"경기도 안성시 대덕면 내리 489번지","indutype":"자동차정비 유지 - 자동차시트·타이어","category":"car"}]},{"lat":"37.009162874","long":"127.21604507","imageIndex":0,"items":[{"name":"보람전자","tel":"031-976-3001","addr":"경기도 안성시 대덕면 내리 488번지","indutype":"자동차정비 유지 - 자동차부품","category":"car"}]},{"lat":"36.999747449","long":"127.22546681","imageIndex":0,"items":[{"name":"에스전자(내비)","tel":"031-676-0415","addr":"경기도 안성시 대덕면 내리 136번지 103호","indutype":"자동차정비 유지 - 자동차부품","category":"car"}]},{"lat":"37.002494229","long":"127.23099104","imageIndex":0,"items":[{"name":"주식회사그린에너지시스템즈","tel":"031-672-4753","addr":"경기도 안성시 대덕면 내리 10-1번지 중앙대학교 휴먼테크노창업보육센터1관7호","indutype":"자동차정비 유지 - 윤활유 전문 판매","category":"car"}]},{"lat":"37.002942922","long":"127.22240904","imageIndex":0,"items":[{"name":"현바이크","tel":"031-616-9830","addr":"경기도 안성시 대덕면 내리 324-11번지","indutype":"자동차판매 - 이륜차판매","category":"car"}]},{"lat":"37.000991688","long":"127.22019024","imageIndex":0,"items":[{"name":"호그린 안성대리점","tel":"031-672-7644","addr":"경기도 안성시 대덕면 내리 291-1번지 1층","indutype":"자동차정비 유지 - 자동차부품","category":"car"}]}]