[{"lat":"37.236292461","long":"126.86385277","imageIndex":17,"items":[{"name":"(주)마루금","tel":"031-357-7157","addr":"경기도 화성시 비봉면 삼화리 544-1번지","indutype":"문화.취미 - 화원","category":"other"},{"name":"바이오테크","tel":"","addr":"경기도 화성시 비봉면 삼화리 544-1번지 2층 2호","indutype":"문화.취미 - 화원","category":"other"}]},{"lat":"37.244075585","long":"126.85493482","imageIndex":17,"items":[{"name":"153중고성구사","tel":"031-357-8153","addr":"경기도 화성시 비봉면 삼화리 692","indutype":"신변잡화 - 기타잡화","category":"other"}]},{"lat":"37.236960621","long":"126.86504609","imageIndex":17,"items":[{"name":"금성HS","tel":"031-355-9675","addr":"경기도 화성시 비봉면 삼화리 543-11,541-16","indutype":"용역 서비스 - 기타용역서비스","category":"other"}]},{"lat":"37.241042016","long":"126.85012847","imageIndex":17,"items":[{"name":"농업회사법인 주식회사 한들이엔지","tel":"070-8849-0772","addr":"경기도 화성시 비봉면 삼화리 1709","indutype":"농업 - 농기계","category":"other"},{"name":"야목농장","tel":"031-245-3475","addr":"경기도 화성시 비봉면 삼화리 1709번지 1층","indutype":"문화.취미 - 화원","category":"other"}]},{"lat":"37.236292236","long":"126.86366119","imageIndex":17,"items":[{"name":"박가유통","tel":"070-8202-0503","addr":"경기도 화성시 비봉면 삼화리 544-8번지","indutype":"의류 - 내의판매","category":"other"}]},{"lat":"37.236408707","long":"126.86309751","imageIndex":17,"items":[{"name":"시원에어컨","tel":"","addr":"경기도 화성시 비봉면 삼화리 544-3번지 102호","indutype":"전기제품 - 냉열기기","category":"other"}]},{"lat":"37.251654263","long":"126.85574283","imageIndex":17,"items":[{"name":"전원애견카페","tel":"031-357-3126","addr":"경기도 화성시 비봉면 삼화리 1048번지","indutype":"문화.취미 - 애완동물","category":"other"}]},{"lat":"37.240044367","long":"126.85932667","imageIndex":17,"items":[{"name":"주식회사 부안전기","tel":"031-355-8834","addr":"경기도 화성시 비봉면 삼화리 621-11번지","indutype":"용역 서비스 - 종합용역","category":"other"}]},{"lat":"37.246344268","long":"126.85340883","imageIndex":17,"items":[{"name":"주식회사 빅포유","tel":"050-5898-8080","addr":"경기도 화성시 비봉면 삼화리 711-4번지","indutype":"기타 - 기계공구","category":"other"}]},{"lat":"37.237289275","long":"126.86877568","imageIndex":17,"items":[{"name":"한울(Edu&E) 네트워크","tel":"","addr":"경기도 화성시 비봉면 삼화리 537-5번지 중앙그린빌라 C동 402호","indutype":"용역 서비스 - 사무서비스","category":"other"}]},{"lat":"37.245322094","long":"126.85026635","imageIndex":17,"items":[{"name":"향기농원","tel":"031-357-7511","addr":"경기도 화성시 비봉면 삼화리 757","indutype":"문화.취미 - 화원","category":"other"}]},{"lat":"37.252683053","long":"126.85704835","imageIndex":17,"items":[{"name":"호현인테리어","tel":"031-409-7194","addr":"경기도 화성시 비봉면 삼화리 1037-8번지","indutype":"건축자재 - 인테리어전문","category":"other"}]}]