[{"lat":"37.326711711","long":"127.55106488","imageIndex":17,"items":[{"name":"(주)원진산업","tel":"031-884-3261","addr":"경기도 여주시 흥천면 효지리 171-9번지","indutype":"전기제품 - 기타전기제품","category":"other"}]},{"lat":"37.33284945","long":"127.54084143","imageIndex":17,"items":[{"name":"GS25여주흥천점","tel":"","addr":"경기도 여주시 흥천면 효지리 377-9번지","indutype":"유통업 영리 - 편 의 점","category":"other"}]},{"lat":"37.333401867","long":"127.54022477","imageIndex":17,"items":[{"name":"대성","tel":"031-884-7911","addr":"경기도 여주시 흥천면 효지리 375-6번지","indutype":"농업 - 기타농업관련","category":"other"}]},{"lat":"37.333237897","long":"127.54061853","imageIndex":17,"items":[{"name":"대한상사","tel":"","addr":"경기도 여주시 흥천면 효지리 375-1번지 2층","indutype":"기타 - 기계공구","category":"other"}]},{"lat":"37.333040706","long":"127.54039145","imageIndex":17,"items":[{"name":"명성사진관","tel":"031-884-8810","addr":"경기도 여주시 흥천면 효지리 390-3번지","indutype":"광학제품 - 사진관","category":"other"}]},{"lat":"37.332268407","long":"127.54378228","imageIndex":17,"items":[{"name":"원종합농기계","tel":"031-881-5130","addr":"경기도 여주시 흥천면 효지리 234번지","indutype":"수리서비스 - 기타수리서비스","category":"other"}]},{"lat":"37.3267117108","long":"127.5510648834","imageIndex":17,"items":[{"name":"원진오동산업","tel":"031-884-3261","addr":"경기도 여주시 흥천면 효지리 171-9번지","indutype":"가구 - 일반가구","category":"other"}]},{"lat":"37.332434398","long":"127.54294849","imageIndex":17,"items":[{"name":"좋은디자인 건설","tel":"031-635-2000","addr":"경기도 여주시 흥천면 효지리 376-10번지","indutype":"용역 서비스 - 기타용역서비스","category":"other"}]},{"lat":"37.330931685","long":"127.55617301","imageIndex":17,"items":[{"name":"하나패키지","tel":"031-883-8848","addr":"경기도 여주시 흥천면 효지리 58-16번지","indutype":"건축자재 - 유리","category":"other"}]},{"lat":"37.333237333","long":"127.53875673","imageIndex":17,"items":[{"name":"형제철문건재","tel":"031-883-0327","addr":"경기도 여주시 흥천면 효지리 400-6번지","indutype":"건축자재 - 목재·석재·철물","category":"other"}]},{"lat":"37.333044636","long":"127.54150856","imageIndex":17,"items":[{"name":"흥천면사무소","tel":"031-887-3882","addr":"경기도 여주시 흥천면 효지리 376-6번지","indutype":"용역 서비스 - 사무서비스","category":"other"}]},{"lat":"37.3332378965","long":"127.5406185322","imageIndex":17,"items":[{"name":"흥천철물","tel":"031-883-0350","addr":"경기도 여주시 흥천면 효지리 375-1번지","indutype":"건축자재 - 목재·석재·철물","category":"other"}]}]