[{"lat":"36.988186444","long":"126.87888549","imageIndex":4,"items":[{"name":"TIEMPO PET CAFE","tel":"","addr":"경기도 평택시 포승읍 석정리 1195-6번지 1층","indutype":"일반휴게음식 - 서양음식","category":"restaurant"}]},{"lat":"36.982800474","long":"126.88124167","imageIndex":4,"items":[{"name":"가나횟집","tel":"031-682-3301","addr":"경기도 평택시 포승읍 석정리 1257-1번지 1층","indutype":"일반휴게음식 - 일식·회집","category":"restaurant"},{"name":"짜장나라","tel":"031-684-7821","addr":"경기도 평택시 포승읍 석정리 1257-1번지 1층","indutype":"일반휴게음식 - 중국식","category":"restaurant"},{"name":"해피홈","tel":"031-686-8292","addr":"경기도 평택시 포승읍 석정리 1257-1번지","indutype":"일반휴게음식 - 일반한식","category":"restaurant"}]},{"lat":"36.984655348","long":"126.87994703","imageIndex":4,"items":[{"name":"교동분식","tel":"031-685-4843","addr":"경기도 평택시 포승읍 석정리 1232-13번지 해군2함대사령부 1283 만포관 1층","indutype":"일반휴게음식 - 스넥","category":"restaurant"}]},{"lat":"36.990294117","long":"126.89660757","imageIndex":4,"items":[{"name":"더 테라스278","tel":"031-692-5009","addr":"경기도 평택시 포승읍 석정리 278-1번지 석정아파트","indutype":"일반휴게음식 - 일반한식","category":"restaurant"},{"name":"더테라스278","tel":"031-684-3340","addr":"경기도 평택시 포승읍 석정리 278-1번지 석정아파트","indutype":"음식점 - 한식","category":"restaurant"}]},{"lat":"36.986521878","long":"126.89035641","imageIndex":4,"items":[{"name":"삼정","tel":"031-683-8293","addr":"경기도 평택시 포승읍 석정리 1116-14번지","indutype":"일반휴게음식 - 일반한식","category":"restaurant"}]},{"lat":"37.004818839","long":"126.8960256","imageIndex":4,"items":[{"name":"석정이랑 돼지랑","tel":"031-684-7533","addr":"경기도 평택시 포승읍 석정리 554-6번지","indutype":"음식점 - 한식","category":"restaurant"}]},{"lat":"36.985077526","long":"126.88760666","imageIndex":4,"items":[{"name":"송암설악추어탕","tel":"031-683-4727","addr":"경기도 평택시 포승읍 석정리 1119-7번지","indutype":"일반휴게음식 - 일반한식","category":"restaurant"}]},{"lat":"36.982909039","long":"126.88166831","imageIndex":4,"items":[{"name":"이대박김밥촌","tel":"031-682-1733","addr":"경기도 평택시 포승읍 석정리 1257-6번지 103호","indutype":"일반휴게음식 - 일반한식","category":"restaurant"}]},{"lat":"36.987545924","long":"126.89669002","imageIndex":4,"items":[{"name":"전주식당","tel":"031-681-3363","addr":"경기도 평택시 포승읍 석정리 256-2번지","indutype":"음식점 - 한식","category":"restaurant"},{"name":"핑계","tel":"","addr":"경기도 평택시 포승읍 석정리 256-2번지","indutype":"음식점 - 분식","category":"restaurant"},{"name":"핑계식당","tel":"031-682-2019","addr":"경기도 평택시 포승읍 석정리 256-2번지","indutype":"일반휴게음식 - 일반한식","category":"restaurant"}]},{"lat":"36.986630294","long":"126.89065952","imageIndex":4,"items":[{"name":"제일장수촌","tel":"031-682-1880","addr":"경기도 평택시 포승읍 석정리 1116-9번지","indutype":"일반휴게음식 - 일반한식","category":"restaurant"}]},{"lat":"36.983522692","long":"126.88257712","imageIndex":4,"items":[{"name":"죽마고우","tel":"031-684-4700","addr":"경기도 평택시 포승읍 석정리 1256-1번지","indutype":"일반휴게음식 - 일반한식","category":"restaurant"}]},{"lat":"36.996351185","long":"126.89872233","imageIndex":4,"items":[{"name":"청솔가든","tel":"031-683-5295","addr":"경기도 평택시 포승읍 석정리 305-10번지","indutype":"일반휴게음식 - 일반한식","category":"restaurant"}]},{"lat":"36.988077756","long":"126.89691393","imageIndex":4,"items":[{"name":"핑계식당","tel":"031-682-8878","addr":"경기도 평택시 포승읍 석정리 256-3번지 석정빌라","indutype":"음식점 - 일반","category":"restaurant"}]},{"lat":"36.982683139","long":"126.88105092","imageIndex":4,"items":[{"name":"훌랄라바베큐","tel":"031-686-9853","addr":"경기도 평택시 포승읍 석정리 1257-9번지","indutype":"음식점 - 한식","category":"restaurant"},{"name":"훌랄라참숯바베큐","tel":"031-682-8253","addr":"경기도 평택시 포승읍 석정리 1257-9번지","indutype":"일반휴게음식 - 일반한식","category":"restaurant"},{"name":"훌랄라참숯바베큐","tel":"031-682-8253","addr":"경기도 평택시 포승읍 석정리 1257-9번지","indutype":"일반휴게음식 - 일반한식","category":"restaurant"}]}]