[{"lat":"37.261610622","long":"127.47429746","imageIndex":4,"items":[{"name":"59쌀피자 신하리 하이닉스점","tel":"031-633-5948","addr":"경기도 이천시 부발읍 신하리 393-11번지","indutype":"일반휴게음식 - 서양음식","category":"restaurant"},{"name":"BHC이천하이닉스점","tel":"031-631-9262","addr":"경기도 이천시 부발읍 신하리 393-11번지 1층","indutype":"일반휴게음식 - 스넥","category":"restaurant"}]},{"lat":"37.261299128","long":"127.47332605","imageIndex":4,"items":[{"name":"갈매기 뒷고기","tel":"031-631-2192","addr":"경기도 이천시 부발읍 신하리 432-15번지","indutype":"일반휴게음식 - 일반한식","category":"restaurant"},{"name":"처갓집양념통닭","tel":"031-636-8726","addr":"경기도 이천시 부발읍 신하리 432-15번지","indutype":"일반휴게음식 - 주점","category":"restaurant"}]},{"lat":"37.263273229","long":"127.48209761","imageIndex":4,"items":[{"name":"강릉짬뽕손두부(동화가든)","tel":"031-633-1553","addr":"경기도 이천시 부발읍 신하리 272-3번지","indutype":"일반휴게음식 - 일반한식","category":"restaurant"}]},{"lat":"37.263749982","long":"127.48229227","imageIndex":4,"items":[{"name":"강씨네족발","tel":"031-636-4677","addr":"경기도 이천시 부발읍 신하리 281-1번지","indutype":"일반휴게음식 - 일반한식","category":"restaurant"}]},{"lat":"37.263857326","long":"127.4824846","imageIndex":4,"items":[{"name":"강정구의피자생각","tel":"031-631-8595","addr":"경기도 이천시 부발읍 신하리 282번지","indutype":"일반휴게음식 - 일반한식","category":"restaurant"}]},{"lat":"37.258663295","long":"127.47904737","imageIndex":4,"items":[{"name":"경아두마리치킨","tel":"031-632-9946","addr":"경기도 이천시 부발읍 신하리 487-7번지","indutype":"일반휴게음식 - 스넥","category":"restaurant"}]},{"lat":"37.260471679","long":"127.47521473","imageIndex":4,"items":[{"name":"계동치킨(신하점)","tel":"031-637-5597","addr":"경기도 이천시 부발읍 신하리 394-27번지","indutype":"일반휴게음식 - 스넥","category":"restaurant"},{"name":"랑이네","tel":"031-632-7954","addr":"경기도 이천시 부발읍 신하리 394-27번지 동국빌딩 101호","indutype":"일반휴게음식 - 주점","category":"restaurant"}]},{"lat":"37.259915729","long":"127.47904398","imageIndex":4,"items":[{"name":"김밥천국","tel":"031-638-0997","addr":"경기도 이천시 부발읍 신하리 371-7번지 효양프라자 1층","indutype":"일반휴게음식 - 일반한식","category":"restaurant"},{"name":"봉구스밥버거(신하점)","tel":"031-634-7942","addr":"경기도 이천시 부발읍 신하리 371-7번지 효양프라자","indutype":"일반휴게음식 - 일반한식","category":"restaurant"}]},{"lat":"37.260218184","long":"127.47551751","imageIndex":4,"items":[{"name":"꽃돼지정육시당","tel":"031-637-6692","addr":"경기도 이천시 부발읍 신하리 394-35번지","indutype":"일반휴게음식 - 일반한식","category":"restaurant"}]},{"lat":"37.259578911","long":"127.47989858","imageIndex":4,"items":[{"name":"꾸꾸루꾸바베큐","tel":"031-635-9992","addr":"경기도 이천시 부발읍 신하리 367번지 현대빌딩 103호","indutype":"일반휴게음식 - 일반한식","category":"restaurant"},{"name":"도도분식","tel":"031-632-9945","addr":"경기도 이천시 부발읍 신하리 367번지 현대빌딩 105호 108호","indutype":"일반휴게음식 - 스넥","category":"restaurant"},{"name":"먹방","tel":"031-634-5350","addr":"경기도 이천시 부발읍 신하리 367번지 현대빌딩","indutype":"일반휴게음식 - 일반한식","category":"restaurant"},{"name":"명품양꼬치","tel":"031-635-2000","addr":"경기도 이천시 부발읍 신하리 367번지 현대빌딩","indutype":"일반휴게음식 - 일반한식","category":"restaurant"},{"name":"송이족발","tel":"031-633-4892","addr":"경기도 이천시 부발읍 신하리 367번지 현대빌딩 111호","indutype":"일반휴게음식 - 일반한식","category":"restaurant"},{"name":"좋은날","tel":"031-631-5010","addr":"경기도 이천시 부발읍 신하리 367번지","indutype":"일반휴게음식 - 일반한식","category":"restaurant"},{"name":"지정환임실치즈피자","tel":"031-637-1588","addr":"경기도 이천시 부발읍 신하리 367번지 현대빌딩 113호","indutype":"일반휴게음식 - 서양음식","category":"restaurant"}]},{"lat":"37.260244449","long":"127.47570931","imageIndex":4,"items":[{"name":"나드리참맛식당","tel":"031-635-8083","addr":"경기도 이천시 부발읍 신하리 394-34번지","indutype":"일반휴게음식 - 일반한식","category":"restaurant"},{"name":"신하왕족발","tel":"031-636-6868","addr":"경기도 이천시 부발읍 신하리 394-34","indutype":"일반휴게음식 - 일반한식","category":"restaurant"}]},{"lat":"37.262715979","long":"127.47275993","imageIndex":4,"items":[{"name":"다복식당","tel":"031-632-5850","addr":"경기도 이천시 부발읍 신하리 435-3번지","indutype":"일반휴게음식 - 일반한식","category":"restaurant"}]},{"lat":"37.259526939","long":"127.47937971","imageIndex":4,"items":[{"name":"달꽃","tel":"031-631-2332","addr":"경기도 이천시 부발읍 신하리 488-4번지 3층","indutype":"일반휴게음식 - 일반한식","category":"restaurant"}]},{"lat":"37.259522806","long":"127.4804055","imageIndex":4,"items":[{"name":"닭발천하","tel":"031-631-7188","addr":"경기도 이천시 부발읍 신하리 368-5번지","indutype":"일반휴게음식 - 일반한식","category":"restaurant"},{"name":"천안문","tel":"031-631-5040","addr":"경기도 이천시 부발읍 신하리 368-5번지","indutype":"일반휴게음식 - 중국식","category":"restaurant"}]},{"lat":"37.261334406","long":"127.47351791","imageIndex":4,"items":[{"name":"돈까스와친구들","tel":"","addr":"경기도 이천시 부발읍 신하리 432-23번지","indutype":"일반휴게음식 - 일반한식","category":"restaurant"}]},{"lat":"37.260300489","long":"127.47521366","imageIndex":4,"items":[{"name":"동해바다","tel":"031-632-8825","addr":"경기도 이천시 부발읍 신하리 394-23번지","indutype":"일반휴게음식 - 일반한식","category":"restaurant"}]},{"lat":"37.260053348","long":"127.47618157","imageIndex":4,"items":[{"name":"또와분식","tel":"031-633-4830","addr":"경기도 이천시 부발읍 신하리 394-39번지 2동 104호","indutype":"일반휴게음식 - 스넥","category":"restaurant"},{"name":"베네치아","tel":"070-4680-2447","addr":"경기도 이천시 부발읍 신하리 394-39번지","indutype":"일반휴게음식 - 서양음식","category":"restaurant"}]},{"lat":"37.259415596","long":"127.48017937","imageIndex":4,"items":[{"name":"마미쿡 신하리 1호점","tel":"031-632-4162","addr":"경기도 이천시 부발읍 신하리 367-1번지 1층","indutype":"일반휴게음식 - 서양음식","category":"restaurant"},{"name":"용달통닭","tel":"031-633-0925","addr":"경기도 이천시 부발읍 신하리 367-1번지 1층 101호","indutype":"일반휴게음식 - 스넥","category":"restaurant"}]},{"lat":"37.260580833","long":"127.47495614","imageIndex":4,"items":[{"name":"매콤닭발","tel":"031-635-7006","addr":"경기도 이천시 부발읍 신하리 394-24번지","indutype":"일반휴게음식 - 일반한식","category":"restaurant"}]},{"lat":"37.262801622","long":"127.48062911","imageIndex":4,"items":[{"name":"메밀촌","tel":"031-632-3767","addr":"경기도 이천시 부발읍 신하리 359-11번지 1층","indutype":"일반휴게음식 - 일반한식","category":"restaurant"},{"name":"커피마마 (이천사랑우리집)","tel":"031-634-2008","addr":"경기도 이천시 부발읍 신하리 359-11번지 2동","indutype":"일반휴게음식 - 서양음식","category":"restaurant"}]},{"lat":"37.259355113","long":"127.4772932","imageIndex":4,"items":[{"name":"멕시카나이천하이닉스점","tel":"031-637-3113","addr":"경기도 이천시 부발읍 신하리 481-1번지 삼익아파트","indutype":"일반휴게음식 - 일반한식","category":"restaurant"},{"name":"삼익즉석구이","tel":"031-633-5918","addr":"경기도 이천시 부발읍 신하리 481-1번지 삼익 상가 104호","indutype":"일반휴게음식 - 일반한식","category":"restaurant"}]},{"lat":"37.26188294","long":"127.47379187","imageIndex":4,"items":[{"name":"물총칼국수","tel":"031-638-6710","addr":"경기도 이천시 부발읍 신하리 432-51번지","indutype":"일반휴게음식 - 일반한식","category":"restaurant"},{"name":"양반촌","tel":"031-633-6721","addr":"경기도 이천시 부발읍 신하리 432-51번지","indutype":"일반휴게음식 - 일반한식","category":"restaurant"},{"name":"팔팔칼국수해물찜","tel":"031-638-5202","addr":"경기도 이천시 부발읍 신하리 432-51번지 1층","indutype":"일반휴게음식 - 일반한식","category":"restaurant"}]},{"lat":"37.259803797","long":"127.47999018","imageIndex":4,"items":[{"name":"민털보생고기","tel":"031-633-9292","addr":"경기도 이천시 부발읍 신하리 369-3번지","indutype":"일반휴게음식 - 일반한식","category":"restaurant"}]},{"lat":"37.259057333","long":"127.48187927","imageIndex":4,"items":[{"name":"박여사 배달전문점","tel":"031-638-3873","addr":"경기도 이천시 부발읍 신하리 531번지","indutype":"일반휴게음식 - 일반한식","category":"restaurant"}]},{"lat":"37.261856802","long":"127.48031877","imageIndex":4,"items":[{"name":"봉식당","tel":"031-635-1301","addr":"경기도 이천시 부발읍 신하리 359-28번지","indutype":"일반휴게음식 - 일반한식","category":"restaurant"}]},{"lat":"37.264162432","long":"127.48279092","imageIndex":4,"items":[{"name":"섬진강유황오리(이천점)","tel":"031-638-1073","addr":"경기도 이천시 부발읍 신하리 283번지","indutype":"일반휴게음식 - 일반한식","category":"restaurant"},{"name":"효양촌 돌판오리","tel":"031-634-5239","addr":"경기도 이천시 부발읍 신하리 283","indutype":"일반휴게음식 - 일반한식","category":"restaurant"}]},{"lat":"37.260140107","long":"127.47476175","imageIndex":4,"items":[{"name":"숯불뒷고기전문","tel":"031-635-6358","addr":"경기도 이천시 부발읍 신하리 396-9번지","indutype":"일반휴게음식 - 일반한식","category":"restaurant"}]},{"lat":"37.259745827","long":"127.48095927","imageIndex":4,"items":[{"name":"쌈닭","tel":"031-631-4929","addr":"경기도 이천시 부발읍 신하리 365번지 상가동 102호, 103호","indutype":"일반휴게음식 - 일반한식","category":"restaurant"}]},{"lat":"37.261695167","long":"127.48018248","imageIndex":4,"items":[{"name":"약속반점","tel":"031-633-2133","addr":"경기도 이천시 부발읍 신하리 359-25번지 신하화이트 101호","indutype":"일반휴게음식 - 중국식","category":"restaurant"}]},{"lat":"37.260218938","long":"127.47982371","imageIndex":4,"items":[{"name":"양가네숯불갈비","tel":"031-631-2454","addr":"경기도 이천시 부발읍 신하리 369-18번지","indutype":"일반휴게음식 - 일반한식","category":"restaurant"}]},{"lat":"37.26318796","long":"127.48090211","imageIndex":4,"items":[{"name":"엄마손식당","tel":"031-694-8519","addr":"경기도 이천시 부발읍 신하리 269번지","indutype":"일반휴게음식 - 일반한식","category":"restaurant"}]},{"lat":"37.262525293","long":"127.47313076","imageIndex":4,"items":[{"name":"웅이네오돌뼈","tel":"031-635-1018","addr":"경기도 이천시 부발읍 신하리 433-1번지 1층","indutype":"일반휴게음식 - 일반한식","category":"restaurant"},{"name":"유정기사식당","tel":"031-636-4396","addr":"경기도 이천시 부발읍 신하리 433-1번지","indutype":"일반휴게음식 - 일반한식","category":"restaurant"}]},{"lat":"37.2625005","long":"127.47256695","imageIndex":4,"items":[{"name":"유정왕갈비","tel":"031-633-4445","addr":"경기도 이천시 부발읍 신하리 436-37번지","indutype":"일반휴게음식 - 일반한식","category":"restaurant"}]},{"lat":"37.259941761","long":"127.47929214","imageIndex":4,"items":[{"name":"이모네분식","tel":"031-638-5713","addr":"경기도 이천시 부발읍 신하리 371-2번지","indutype":"일반휴게음식 - 일반한식","category":"restaurant"}]},{"lat":"37.26432635","long":"127.4733787","imageIndex":4,"items":[{"name":"이천공원","tel":"031-636-9222","addr":"경기도 이천시 부발읍 신하리 27-1번지","indutype":"일반휴게음식 - 갈비전문점","category":"restaurant"}]},{"lat":"37.26313922","long":"127.48181493","imageIndex":4,"items":[{"name":"이천원칼국수","tel":"031-636-4385","addr":"경기도 이천시 부발읍 신하리 272번지 1층","indutype":"일반휴게음식 - 일반한식","category":"restaurant"}]},{"lat":"37.261770958","long":"127.46792922","imageIndex":4,"items":[{"name":"임금님해장국","tel":"031-634-4447","addr":"경기도 이천시 부발읍 신하리 445-3번지","indutype":"일반휴게음식 - 일반한식","category":"restaurant"}]},{"lat":"37.260862343","long":"127.47440553","imageIndex":4,"items":[{"name":"진짜배기명태촌","tel":"031-631-3255","addr":"경기도 이천시 부발읍 신하리 399-1번지 롯데프라자 2층 202호","indutype":"일반휴게음식 - 일반한식","category":"restaurant"},{"name":"채선당 (하이닉스점)","tel":"031-636-0022","addr":"경기도 이천시 부발읍 신하리 399-1번지 롯데프라자 105호","indutype":"일반휴게음식 - 일반한식","category":"restaurant"},{"name":"판야커피(FANYA COFFEE)(신하점)","tel":"","addr":"경기도 이천시 부발읍 신하리 399-1번지 롯데프라자4차","indutype":"일반휴게음식 - 서양음식","category":"restaurant"}]},{"lat":"37.259608936","long":"127.47915478","imageIndex":4,"items":[{"name":"참치라이더","tel":"031-635-7111","addr":"경기도 이천시 부발읍 신하리 488번지 101호","indutype":"일반휴게음식 - 일식·회집","category":"restaurant"}]},{"lat":"37.26027033","long":"127.47373674","imageIndex":4,"items":[{"name":"초원식당","tel":"031-636-2100","addr":"경기도 이천시 부발읍 신하리 397-4번지","indutype":"일반휴게음식 - 일반한식","category":"restaurant"}]},{"lat":"37.259690796","long":"127.47896366","imageIndex":4,"items":[{"name":"카페테라스","tel":"031-637-2913","addr":"경기도 이천시 부발읍 신하리 489-1번지 1층","indutype":"일반휴게음식 - 서양음식","category":"restaurant"}]},{"lat":"37.26063769","long":"127.47651214","imageIndex":4,"items":[{"name":"커피베이 이천신하리점","tel":"031-631-1120","addr":"경기도 이천시 부발읍 신하리 383-25번지","indutype":"일반휴게음식 - 서양음식","category":"restaurant"}]},{"lat":"37.25994099","long":"127.47948378","imageIndex":4,"items":[{"name":"코끼리분식","tel":"031-632-4188","addr":"경기도 이천시 부발읍 신하리 370-2번지 107호","indutype":"일반휴게음식 - 스넥","category":"restaurant"}]},{"lat":"37.262218505","long":"127.47324158","imageIndex":4,"items":[{"name":"토담포장마차","tel":"031-633-9230","addr":"경기도 이천시 부발읍 신하리 432-1","indutype":"일반휴게음식 - 주점","category":"restaurant"}]},{"lat":"37.260077682","long":"127.47910136","imageIndex":4,"items":[{"name":"토마토도시락 이천신하점","tel":"031-634-1148","addr":"경기도 이천시 부발읍 신하리 371-6번지 2층","indutype":"일반휴게음식 - 일반한식","category":"restaurant"}]},{"lat":"37.263357237","long":"127.48137665","imageIndex":4,"items":[{"name":"홍성한우","tel":"031-638-6333","addr":"경기도 이천시 부발읍 신하리 268-4번지","indutype":"일반휴게음식 - 일반한식","category":"restaurant"}]}]