[{"lat":"37.037104296","long":"127.26165543","imageIndex":4,"items":[{"name":"구명옥칼국수사태찜","tel":"031-674-9549","addr":"경기도 안성시 사곡동 272-4번지 1층","indutype":"일반휴게음식 - 일반한식","category":"restaurant"}]},{"lat":"37.045573839","long":"127.26185278","imageIndex":4,"items":[{"name":"김가네장수촌","tel":"031-675-2644","addr":"경기도 안성시 사곡동 226-14번지","indutype":"일반휴게음식 - 일반한식","category":"restaurant"}]},{"lat":"37.036634791","long":"127.26209218","imageIndex":4,"items":[{"name":"도토리네 칼국수","tel":"031-672-1621","addr":"경기도 안성시 사곡동 54-3번지 가동 1층","indutype":"일반휴게음식 - 일반한식","category":"restaurant"}]},{"lat":"37.032490207","long":"127.26195447","imageIndex":4,"items":[{"name":"미스터브리즈커피","tel":"031-675-4489","addr":"경기도 안성시 사곡동 307-6번지 1층 우측호","indutype":"일반휴게음식 - 일반한식","category":"restaurant"},{"name":"짬뽕지존안성점","tel":"031-677-4950","addr":"경기도 안성시 사곡동 307-6번지","indutype":"일반휴게음식 - 중국식","category":"restaurant"}]},{"lat":"37.035434962","long":"127.26273999","imageIndex":4,"items":[{"name":"빛고을가든","tel":"031-673-4455","addr":"경기도 안성시 사곡동 49-3번지","indutype":"일반휴게음식 - 일반한식","category":"restaurant"}]},{"lat":"37.036103721","long":"127.26593432","imageIndex":4,"items":[{"name":"아우라이","tel":"031-674-0789","addr":"경기도 안성시 사곡동 38번지 1층","indutype":"일반휴게음식 - 서양음식","category":"restaurant"}]},{"lat":"37.031967766","long":"127.26187402","imageIndex":4,"items":[{"name":"이정선일품육개장순대국","tel":"031-671-8022","addr":"경기도 안성시 사곡동 309-3번지","indutype":"일반휴게음식 - 일반한식","category":"restaurant"},{"name":"정담은","tel":"031-671-8022","addr":"경기도 안성시 사곡동 309-3번지","indutype":"일반휴게음식 - 일반한식","category":"restaurant"}]},{"lat":"37.035524699","long":"127.26698884","imageIndex":4,"items":[{"name":"청림원","tel":"031-674-8943","addr":"경기도 안성시 사곡동 30-2번지","indutype":"일반휴게음식 - 일반한식","category":"restaurant"}]},{"lat":"37.031552961","long":"127.26201872","imageIndex":4,"items":[{"name":"촛불구이 삼겹살 갈비살","tel":"031-677-4155","addr":"경기도 안성시 사곡동 309-2번지","indutype":"일반휴게음식 - 일반한식","category":"restaurant"}]},{"lat":"37.035573566","long":"127.26526936","imageIndex":4,"items":[{"name":"태평관","tel":"031-676-3007","addr":"경기도 안성시 사곡동 39 1,2층","indutype":"일반휴게음식 - 일반한식","category":"restaurant"}]}]