[{"lat":"37.529787247","long":"126.78590438","imageIndex":4,"items":[{"name":"365포차","tel":"032-671-5010","addr":"경기도 부천시 오정동 725번지 오정프라자 1층 114호","indutype":"일반휴게음식 - 스넥","category":"restaurant"},{"name":"개성삼계탕","tel":"032-674-3359","addr":"경기도 부천시 오정동 725번지 오정프라자 205호","indutype":"일반휴게음식 - 일반한식","category":"restaurant"},{"name":"김밥천국 오정점","tel":"032-671-0310","addr":"경기도 부천시 오정동 725번지 오정프라자 107호","indutype":"일반휴게음식 - 스넥","category":"restaurant"},{"name":"롯데리아부천오정점","tel":"032-682-3535","addr":"경기도 부천시 오정동 725번지 오정프라자 110동 111호","indutype":"일반휴게음식 - 서양음식","category":"restaurant"},{"name":"메가엠지씨커피(부천오정점)","tel":"","addr":"경기도 부천시 오정동 725번지 오정프라자 115호","indutype":"일반휴게음식 - 서양음식","category":"restaurant"},{"name":"명태본가","tel":"032-679-7726","addr":"경기도 부천시 오정동 725번지 오정프라자 207호","indutype":"일반휴게음식 - 일반한식","category":"restaurant"},{"name":"배돼랑생고기","tel":"070-7351-1605","addr":"경기도 부천시 오정동 725번지 오정프라자 203호","indutype":"일반휴게음식 - 일반한식","category":"restaurant"},{"name":"우주중화퓨전","tel":"032-675-4848","addr":"경기도 부천시 오정동 725번지 오정프라자 118호","indutype":"일반휴게음식 - 중국식","category":"restaurant"},{"name":"전주추어탕","tel":"032-682-9882","addr":"경기도 부천시 오정동 725번지 오정프라자 202호","indutype":"일반휴게음식 - 일반한식","category":"restaurant"},{"name":"치킨매니아 오정점","tel":"032-675-9255","addr":"경기도 부천시 오정동 725번지 오정프라자 206호","indutype":"일반휴게음식 - 스넥","category":"restaurant"},{"name":"킹콩슬라임카페","tel":"070-7337-2262","addr":"경기도 부천시 오정동 725번지 오정프라자 304호","indutype":"일반휴게음식 - 서양음식","category":"restaurant"},{"name":"홍익궁중전통육개장 부천오정점","tel":"032-677-0335","addr":"경기도 부천시 오정동 725번지 오정프라자 제116,117호","indutype":"일반휴게음식 - 일반한식","category":"restaurant"}]},{"lat":"37.526757737","long":"126.784714","imageIndex":4,"items":[{"name":"가람칼국수 보쌈","tel":"032-681-7698","addr":"경기도 부천시 오정동 579-5번지 1층","indutype":"일반휴게음식 - 일반한식","category":"restaurant"}]},{"lat":"37.52906136","long":"126.78804467","imageIndex":4,"items":[{"name":"감악골","tel":"032-679-6298","addr":"경기도 부천시 오정동 546-1번지 우리빌","indutype":"일반휴게음식 - 일반한식","category":"restaurant"},{"name":"대세노가리","tel":"032-675-7033","addr":"경기도 부천시 오정동 546-1번지 우리빌 101호","indutype":"일반휴게음식 - 주점","category":"restaurant"}]},{"lat":"37.526558852","long":"126.78435257","imageIndex":4,"items":[{"name":"강구물회막회","tel":"032-672-8484","addr":"경기도 부천시 오정동 579-3번지","indutype":"일반휴게음식 - 일반한식","category":"restaurant"},{"name":"돝통집","tel":"032-673-6768","addr":"경기도 부천시 오정동 579-3번지 1층","indutype":"일반휴게음식 - 일반한식","category":"restaurant"},{"name":"주먹고기랑날으는껍데기","tel":"032-678-0600","addr":"경기도 부천시 오정동 579-3번지","indutype":"일반휴게음식 - 일반한식","category":"restaurant"},{"name":"참맛골","tel":"032-676-9560","addr":"경기도 부천시 오정동 579-3번지 1층일부","indutype":"일반휴게음식 - 일반한식","category":"restaurant"},{"name":"청화반점","tel":"032-674-4784","addr":"경기도 부천시 오정동 579-3번지 1층 일부","indutype":"일반휴게음식 - 중국식","category":"restaurant"}]},{"lat":"37.527394141","long":"126.78293602","imageIndex":4,"items":[{"name":"강순자옛맛김치찌개 오정점","tel":"032-678-3420","addr":"경기도 부천시 오정동 207-8번지 태영빌딩 1층","indutype":"일반휴게음식 - 일반한식","category":"restaurant"},{"name":"돈각시소서방생고기","tel":"032-673-5089","addr":"경기도 부천시 오정동 207-8번지 태영빌딩 1층","indutype":"일반휴게음식 - 일반한식","category":"restaurant"},{"name":"정정아식당","tel":"032-676-1576","addr":"경기도 부천시 오정동 207-8번지 태영빌딩 2층 일부","indutype":"일반휴게음식 - 일반한식","category":"restaurant"},{"name":"추억의 그때그집","tel":"032-674-6300","addr":"경기도 부천시 오정동 207-8번지 태영빌딩 1층","indutype":"일반휴게음식 - 일반한식","category":"restaurant"}]},{"lat":"37.526841741","long":"126.78629755","imageIndex":4,"items":[{"name":"국생돈","tel":"032-671-8898","addr":"경기도 부천시 오정동 572번지","indutype":"일반휴게음식 - 일반한식","category":"restaurant"},{"name":"대교식당","tel":"032-672-2970","addr":"경기도 부천시 오정동 572번지 오정종합시장지층2호","indutype":"일반휴게음식 - 일반한식","category":"restaurant"},{"name":"미가식당","tel":"032-671-9730","addr":"경기도 부천시 오정동 572번지 오정종합시장 지층 51호","indutype":"일반휴게음식 - 일반한식","category":"restaurant"},{"name":"은혜분식","tel":"032-671-6167","addr":"경기도 부천시 오정동 572번지","indutype":"일반휴게음식 - 일반한식","category":"restaurant"},{"name":"조선바지락손칼국수","tel":"032-421-3838","addr":"경기도 부천시 오정동 572번지 오정종합시장 지하1층 3,4호","indutype":"일반휴게음식 - 일반한식","category":"restaurant"},{"name":"진미식당","tel":"032-673-0715","addr":"경기도 부천시 오정동 572번지 오정종합시장 6호","indutype":"일반휴게음식 - 일반한식","category":"restaurant"}]},{"lat":"37.526871781","long":"126.78305068","imageIndex":4,"items":[{"name":"김치찌개전문","tel":"032-671-1995","addr":"경기도 부천시 오정동 593-1번지 1층 일부호","indutype":"일반휴게음식 - 일반한식","category":"restaurant"},{"name":"한얼커피숍","tel":"032-679-2320","addr":"경기도 부천시 오정동 593-1번지 지층","indutype":"일반휴게음식 - 서양음식","category":"restaurant"}]},{"lat":"37.527008211","long":"126.78374036","imageIndex":4,"items":[{"name":"나그네마을","tel":"032-682-7879","addr":"경기도 부천시 오정동 578-3번지","indutype":"일반휴게음식 - 일반한식","category":"restaurant"},{"name":"송가네빈대떡","tel":"032-612-0505","addr":"경기도 부천시 오정동 578-3번지","indutype":"일반휴게음식 - 일반한식","category":"restaurant"},{"name":"투다리오정점","tel":"032-683-3455","addr":"경기도 부천시 오정동 578-3번지","indutype":"일반휴게음식 - 일반한식","category":"restaurant"}]},{"lat":"37.528733762","long":"126.78626945","imageIndex":4,"items":[{"name":"너와나의분식","tel":"032-000-0000","addr":"경기도 부천시 오정동 556-29번지 1층 일부호","indutype":"일반휴게음식 - 스넥","category":"restaurant"}]},{"lat":"37.529031439","long":"126.78646091","imageIndex":4,"items":[{"name":"네네치킨","tel":"032-672-9494","addr":"경기도 부천시 오정동 544-8번지 더퍼스트빌","indutype":"일반휴게음식 - 서양음식","category":"restaurant"}]},{"lat":"37.529062121","long":"126.78846326","imageIndex":4,"items":[{"name":"놀부숯불갈비","tel":"032-678-5634","addr":"경기도 부천시 오정동 546-7번지","indutype":"일반휴게음식 - 일반한식","category":"restaurant"}]},{"lat":"37.522921745","long":"126.79595822","imageIndex":4,"items":[{"name":"누야","tel":"032-677-6328","addr":"경기도 부천시 오정동 140-80번지 신남빌딩 102호","indutype":"일반휴게음식 - 서양음식","category":"restaurant"}]},{"lat":"37.527976341","long":"126.79598951","imageIndex":4,"items":[{"name":"느림&여유카페","tel":"032-670-1100","addr":"경기도 부천시 오정동 129번지","indutype":"일반휴게음식 - 서양음식","category":"restaurant"},{"name":"부천시오정노인복지관 꿈볶는카페","tel":"070-5089-2464","addr":"경기도 부천시 오정동 129번지 5층","indutype":"일반휴게음식 - 서양음식","category":"restaurant"}]},{"lat":"37.528864562","long":"126.78882584","imageIndex":4,"items":[{"name":"다정한카페","tel":"02-000-0000","addr":"경기도 부천시 오정동 547번지 1층","indutype":"일반휴게음식 - 서양음식","category":"restaurant"},{"name":"중국성","tel":"032-683-6076","addr":"경기도 부천시 오정동 547번지","indutype":"일반휴게음식 - 중국식","category":"restaurant"}]},{"lat":"37.52690045","long":"126.783933","imageIndex":4,"items":[{"name":"대박난볼태기찜.탕","tel":"032-682-4989","addr":"경기도 부천시 오정동 578-4번지 한오빌딩 1층","indutype":"일반휴게음식 - 일반한식","category":"restaurant"},{"name":"맵go마싯go","tel":"","addr":"경기도 부천시 오정동 578-4번지 한오빌딩 1층 일부","indutype":"일반휴게음식 - 일반한식","category":"restaurant"},{"name":"유진꾸꾸루꾸치킨바베큐","tel":"032-681-9969","addr":"경기도 부천시 오정동 578-4번지 한오빌딩 101호","indutype":"일반휴게음식 - 서양음식","category":"restaurant"},{"name":"족발에 빠지다","tel":"032-684-8883","addr":"경기도 부천시 오정동 578-4번지 한오빌딩 102호","indutype":"일반휴게음식 - 일반한식","category":"restaurant"}]},{"lat":"37.528562472","long":"126.78621338","imageIndex":4,"items":[{"name":"대박치킨호프","tel":"032-662-6886","addr":"경기도 부천시 오정동 556-26번지","indutype":"일반휴게음식 - 주점","category":"restaurant"}]},{"lat":"37.528289777","long":"126.79490259","imageIndex":4,"items":[{"name":"대한민국부대찌개","tel":"032-682-3366","addr":"경기도 부천시 오정동 160-1번지","indutype":"일반휴게음식 - 일반한식","category":"restaurant"}]},{"lat":"37.526317028","long":"126.78513385","imageIndex":4,"items":[{"name":"동네식당","tel":"032-677-1215","addr":"경기도 부천시 오정동 581-4번지 한양아파트","indutype":"일반휴게음식 - 일반한식","category":"restaurant"}]},{"lat":"37.527395697","long":"126.78377317","imageIndex":4,"items":[{"name":"동백반점","tel":"032-673-0105","addr":"경기도 부천시 오정동 577-3번지 1층","indutype":"일반휴게음식 - 중국식","category":"restaurant"}]},{"lat":"37.528254453","long":"126.78529792","imageIndex":4,"items":[{"name":"돼지삼형제","tel":"032-683-1648","addr":"경기도 부천시 오정동 556-10번지 1층 일부호","indutype":"일반휴게음식 - 일반한식","category":"restaurant"}]},{"lat":"37.524343751","long":"126.78507171","imageIndex":4,"items":[{"name":"드럼통","tel":"032-679-3491","addr":"경기도 부천시 오정동 585-3번지 정보주상빌라트 109호","indutype":"일반휴게음식 - 일반한식","category":"restaurant"},{"name":"박대감생고기매운갈비전문점","tel":"032-684-2543","addr":"경기도 부천시 오정동 585-3번지 정보주상빌라트","indutype":"일반휴게음식 - 일반한식","category":"restaurant"},{"name":"소소한밤","tel":"","addr":"경기도 부천시 오정동 585-3번지 정보주상빌라트 1층 110호","indutype":"일반휴게음식 - 주점","category":"restaurant"},{"name":"할배황소돌곱창","tel":"032-111-1111","addr":"경기도 부천시 오정동 585-3번지 정보주상빌라트 108호","indutype":"일반휴게음식 - 일반한식","category":"restaurant"}]},{"lat":"37.527201885","long":"126.78616075","imageIndex":4,"items":[{"name":"또봉이통닭오정점","tel":"032-672-9599","addr":"경기도 부천시 오정동 573-20번지 1층","indutype":"일반휴게음식 - 일반한식","category":"restaurant"}]},{"lat":"37.526614561","long":"126.78524611","imageIndex":4,"items":[{"name":"뚱스밥버거(오정점)","tel":"032-671-9936","addr":"경기도 부천시 오정동 580번지 오거리타운 1층 104호","indutype":"일반휴게음식 - 일반한식","category":"restaurant"},{"name":"맛고을감자탕","tel":"032-678-5736","addr":"경기도 부천시 오정동 580번지 A동","indutype":"일반휴게음식 - 일반한식","category":"restaurant"},{"name":"티히(TeeHee)","tel":"032-671-9805","addr":"경기도 부천시 오정동 580번지 105호","indutype":"일반휴게음식 - 서양음식","category":"restaurant"},{"name":"풍미감자탕부대찌게","tel":"032-671-1178","addr":"경기도 부천시 오정동 580번지","indutype":"일반휴게음식 - 일반한식","category":"restaurant"}]},{"lat":"37.527034358","long":"126.78326514","imageIndex":4,"items":[{"name":"마당","tel":"032-676-8198","addr":"경기도 부천시 오정동 593번지 1층 5호","indutype":"일반휴게음식 - 주점","category":"restaurant"},{"name":"에스티엔커피오정점(Stn Coffee)","tel":"032-676-0606","addr":"경기도 부천시 오정동 593번지 1층 102호","indutype":"일반휴게음식 - 서양음식","category":"restaurant"}]},{"lat":"37.523921518","long":"126.78574037","imageIndex":4,"items":[{"name":"만원요리포차","tel":"032-682-7733","addr":"경기도 부천시 오정동 611-4번지","indutype":"일반휴게음식 - 일반한식","category":"restaurant"}]},{"lat":"37.5272331","long":"126.78354738","imageIndex":4,"items":[{"name":"맛짜우","tel":"070-7333-5100","addr":"경기도 부천시 오정동 577-2번지 1층","indutype":"일반휴게음식 - 중국식","category":"restaurant"},{"name":"술잔비어","tel":"032-672-3389","addr":"경기도 부천시 오정동 577-2번지 2층","indutype":"일반휴게음식 - 주점","category":"restaurant"},{"name":"영인양평해장국","tel":"032-673-9495","addr":"경기도 부천시 오정동 577-2번지 2층","indutype":"일반휴게음식 - 일반한식","category":"restaurant"},{"name":"전통춘천숯불닭갈비","tel":"032-678-7529","addr":"경기도 부천시 오정동 577-2번지","indutype":"일반휴게음식 - 일반한식","category":"restaurant"}]},{"lat":"37.527118026","long":"126.78465638","imageIndex":4,"items":[{"name":"메인호프","tel":"032-684-5525","addr":"경기도 부천시 오정동 579-9번지 1층","indutype":"일반휴게음식 - 칵테일바","category":"restaurant"},{"name":"장군집","tel":"032-675-9589","addr":"경기도 부천시 오정동 579-9번지","indutype":"일반휴게음식 - 일반한식","category":"restaurant"}]},{"lat":"37.525588752","long":"126.78596179","imageIndex":4,"items":[{"name":"메주언니가 꿈꾸는 밥상","tel":"032-672-9290","addr":"경기도 부천시 오정동 570-6번지 1층 일부","indutype":"일반휴게음식 - 일반한식","category":"restaurant"}]},{"lat":"37.528842143","long":"126.78155156","imageIndex":4,"items":[{"name":"명가밥상","tel":"032-673-2987","addr":"경기도 부천시 오정동 394-20번지","indutype":"일반휴게음식 - 일반한식","category":"restaurant"}]},{"lat":"37.528478558","long":"126.77985568","imageIndex":4,"items":[{"name":"명성중식당","tel":"032-679-0533","addr":"경기도 부천시 오정동 773-4번지 명성프라자 1층 105-107호","indutype":"일반휴게음식 - 중국식","category":"restaurant"},{"name":"요거프레소 오정산업단지점","tel":"","addr":"경기도 부천시 오정동 773-4번지 명성프라자 1층 104호","indutype":"일반휴게음식 - 서양음식","category":"restaurant"}]},{"lat":"37.532894844","long":"126.78546546","imageIndex":4,"items":[{"name":"명성푸드","tel":"032-679-0533","addr":"경기도 부천시 오정동 746-11번지 2층","indutype":"일반휴게음식 - 위탁급식업","category":"restaurant"}]},{"lat":"37.525451208","long":"126.78466124","imageIndex":4,"items":[{"name":"바우보양탕","tel":"032-672-0749","addr":"경기도 부천시 오정동 582-13번지 현대맨션 103호","indutype":"일반휴게음식 - 일반한식","category":"restaurant"}]},{"lat":"37.528587921","long":"126.78535351","imageIndex":4,"items":[{"name":"배불리 찌게랑 감자탕","tel":"032-676-7508","addr":"경기도 부천시 오정동 555-1번지","indutype":"일반휴게음식 - 일반한식","category":"restaurant"}]},{"lat":"37.529506819","long":"126.78529428","imageIndex":4,"items":[{"name":"백년갈비","tel":"032-672-2002","addr":"경기도 부천시 오정동 216-1번지 썬프라자 202호","indutype":"일반휴게음식 - 일반한식","category":"restaurant"},{"name":"이디야커피오정점","tel":"032-671-1034","addr":"경기도 부천시 오정동 216-1번지 썬프라자 104호","indutype":"일반휴게음식 - 서양음식","category":"restaurant"},{"name":"평택족발음식나라","tel":"032-674-0779","addr":"경기도 부천시 오정동 216-1번지 썬프라자 106호","indutype":"일반휴게음식 - 일반한식","category":"restaurant"}]},{"lat":"37.52582059","long":"126.78464885","imageIndex":4,"items":[{"name":"베트남쌀국수퍼","tel":"","addr":"경기도 부천시 오정동 582번지 복지그린빌 1동 1층 101호","indutype":"일반휴게음식 - 서양음식","category":"restaurant"}]},{"lat":"37.529039432","long":"126.78590655","imageIndex":4,"items":[{"name":"본죽오정점","tel":"032-682-6282","addr":"경기도 부천시 오정동 555낙원빌딩1층2","indutype":"일반휴게음식 - 일반한식","category":"restaurant"}]},{"lat":"37.526894886","long":"126.78579963","imageIndex":4,"items":[{"name":"본초불닭발","tel":"032-675-9595","addr":"경기도 부천시 오정동 573-12번지 1층","indutype":"일반휴게음식 - 일반한식","category":"restaurant"},{"name":"홍어정","tel":"032-675-8005","addr":"경기도 부천시 오정동 573-12번지 1층 일부호","indutype":"일반휴게음식 - 일반한식","category":"restaurant"}]},{"lat":"37.524814218","long":"126.78613372","imageIndex":4,"items":[{"name":"부가커피","tel":"032-673-6263","addr":"경기도 부천시 오정동 567번지 조강홈타운 101동 102호","indutype":"일반휴게음식 - 서양음식","category":"restaurant"}]},{"lat":"37.522812555","long":"126.79534766","imageIndex":4,"items":[{"name":"북경반점","tel":"032-671-1377","addr":"경기도 부천시 오정동 140-15번지 토담빌라 1층 101호","indutype":"일반휴게음식 - 중국식","category":"restaurant"}]},{"lat":"37.525092962","long":"126.78582748","imageIndex":4,"items":[{"name":"분식하우스","tel":"","addr":"경기도 부천시 오정동 584-10번지","indutype":"일반휴게음식 - 일반한식","category":"restaurant"}]},{"lat":"37.526060792","long":"126.78299649","imageIndex":4,"items":[{"name":"비에이치씨(BHC)치킨","tel":"032-682-9933","addr":"경기도 부천시 오정동 590번지 오정의아침 102동 101호","indutype":"일반휴게음식 - 스넥","category":"restaurant"}]},{"lat":"37.528588056","long":"126.79037653","imageIndex":4,"items":[{"name":"살롱 드 마망","tel":"032-111-1111","addr":"경기도 부천시 오정동 114-54번지 덕산빌딩 101호","indutype":"일반휴게음식 - 일반한식","category":"restaurant"}]},{"lat":"37.522703362","long":"126.7947371","imageIndex":4,"items":[{"name":"생고기자연석구이","tel":"032-684-1330","addr":"경기도 부천시 오정동 618-1번지","indutype":"일반휴게음식 - 일반한식","category":"restaurant"}]},{"lat":"37.528643809","long":"126.7863489","imageIndex":4,"items":[{"name":"생생해물손칼국수","tel":"032-679-6779","addr":"경기도 부천시 오정동 556-30번지","indutype":"일반휴게음식 - 일반한식","category":"restaurant"}]},{"lat":"37.528788277","long":"126.78651818","imageIndex":4,"items":[{"name":"세림가정식백반","tel":"032-673-7490","addr":"경기도 부천시 오정동 544-23번지 1층","indutype":"일반휴게음식 - 스넥","category":"restaurant"}]},{"lat":"37.526872602","long":"126.78349188","imageIndex":4,"items":[{"name":"소문난곱창","tel":"032-673-4490","addr":"경기도 부천시 오정동 592번지","indutype":"일반휴게음식 - 일반한식","category":"restaurant"},{"name":"열린라이브포차","tel":"032-681-5065","addr":"경기도 부천시 오정동 592번지 지하1층","indutype":"일반휴게음식 - 주점","category":"restaurant"},{"name":"장수식당","tel":"032-674-3030","addr":"경기도 부천시 오정동 592번지 1층","indutype":"일반휴게음식 - 일반한식","category":"restaurant"},{"name":"허니비어","tel":"070-7432-7410","addr":"경기도 부천시 오정동 592번지 1층","indutype":"일반휴게음식 - 주점","category":"restaurant"}]},{"lat":"37.52789645","long":"126.78659995","imageIndex":4,"items":[{"name":"소소달","tel":"032-677-7384","addr":"경기도 부천시 오정동 558-3번지 1층","indutype":"일반휴게음식 - 서양음식","category":"restaurant"}]},{"lat":"37.528509884","long":"126.78701676","imageIndex":4,"items":[{"name":"수진이네손칼국수","tel":"032-673-9885","addr":"경기도 부천시 오정동 554-25번지","indutype":"일반휴게음식 - 일반한식","category":"restaurant"}]},{"lat":"37.529591228","long":"126.78710415","imageIndex":4,"items":[{"name":"스위트피스","tel":"031-0000-0000","addr":"경기도 부천시 오정동 192-7번지 은경빌딩 1층 102호","indutype":"일반휴게음식 - 서양음식","category":"restaurant"},{"name":"청춘감성 쌀 핫도그(부천오정점)","tel":"032-675-9992","addr":"경기도 부천시 오정동 192-7번지 은경빌딩 1층 104호","indutype":"일반휴게음식 - 서양음식","category":"restaurant"}]},{"lat":"37.526476424","long":"126.79870872","imageIndex":4,"items":[{"name":"시골보양탕","tel":"032-684-7736","addr":"경기도 부천시 오정동 137-34번지 가동","indutype":"일반휴게음식 - 일반한식","category":"restaurant"}]},{"lat":"37.528311006","long":"126.78665532","imageIndex":4,"items":[{"name":"신서산생고기김치삼겹살전문점","tel":"032-678-5235","addr":"경기도 부천시 오정동 557-6번지","indutype":"일반휴게음식 - 일반한식","category":"restaurant"},{"name":"양평동장군집","tel":"032-677-4525","addr":"경기도 부천시 오정동 557-6번지 1층","indutype":"일반휴게음식 - 일반한식","category":"restaurant"}]},{"lat":"37.528841631","long":"126.78613338","imageIndex":4,"items":[{"name":"신의주 찹쌀순대","tel":"032-675-9409","addr":"경기도 부천시 오정동 556번지 1층","indutype":"일반휴게음식 - 일반한식","category":"restaurant"},{"name":"칠갑산정육식당","tel":"032-683-4532","addr":"경기도 부천시 오정동 556번지 2층","indutype":"일반휴게음식 - 일반한식","category":"restaurant"},{"name":"코리안바베큐","tel":"032-671-8892","addr":"경기도 부천시 오정동 556번지 1층 일부","indutype":"일반휴게음식 - 주점","category":"restaurant"}]},{"lat":"37.526786144","long":"126.78546056","imageIndex":4,"items":[{"name":"실내포장마차","tel":"032-677-1578","addr":"경기도 부천시 오정동 573-6,14번지","indutype":"일반휴게음식 - 일반한식","category":"restaurant"}]},{"lat":"37.524838832","long":"126.7848214","imageIndex":4,"items":[{"name":"아귀사랑","tel":"032-231-5959","addr":"경기도 부천시 오정동 584-8번지 1층","indutype":"일반휴게음식 - 일반한식","category":"restaurant"}]},{"lat":"37.529897417","long":"126.78702408","imageIndex":4,"items":[{"name":"아딸오정점","tel":"032-627-5039","addr":"경기도 부천시 오정동 177-9번지 세종프라자 104호","indutype":"일반휴게음식 - 스넥","category":"restaurant"},{"name":"치킨사냥 부천오정점","tel":"032-678-8292","addr":"경기도 부천시 오정동 177-9번지 세종프라자 1층 102호","indutype":"일반휴게음식 - 스넥","category":"restaurant"},{"name":"피자마루","tel":"032-675-1088","addr":"경기도 부천시 오정동 177-9번지 세종프라자 105호","indutype":"일반휴게음식 - 서양음식","category":"restaurant"}]},{"lat":"37.524282015","long":"126.78579589","imageIndex":4,"items":[{"name":"야무치","tel":"032-0000-0000","addr":"경기도 부천시 오정동 585-19번지 한진타운 1층 108호","indutype":"일반휴게음식 - 스넥","category":"restaurant"}]},{"lat":"37.525309655","long":"126.78607573","imageIndex":4,"items":[{"name":"어울마당","tel":"032-672-5333","addr":"경기도 부천시 오정동 569-12번지 1층 일부","indutype":"일반휴게음식 - 일반한식","category":"restaurant"}]},{"lat":"37.528455577","long":"126.78688116","imageIndex":4,"items":[{"name":"옛날족발","tel":"032-0000-0000","addr":"경기도 부천시 오정동 554-24번지","indutype":"일반휴게음식 - 일반한식","category":"restaurant"}]},{"lat":"37.528787261","long":"126.78596384","imageIndex":4,"items":[{"name":"옛촌막걸리","tel":"032-677-0550","addr":"경기도 부천시 오정동 556-1번지 1층 2호","indutype":"일반휴게음식 - 일반한식","category":"restaurant"}]},{"lat":"37.524505113","long":"126.78463006","imageIndex":4,"items":[{"name":"오뚜기식당","tel":"","addr":"경기도 부천시 오정동 586-7번지","indutype":"일반휴게음식 - 일반한식","category":"restaurant"}]},{"lat":"37.531399955","long":"126.78102358","imageIndex":4,"items":[{"name":"오렌지푸드","tel":"032-672-0188","addr":"경기도 부천시 오정동 763-1번지","indutype":"일반휴게음식 - 일반한식","category":"restaurant"}]},{"lat":"37.529229157","long":"126.78618883","imageIndex":4,"items":[{"name":"오스시","tel":"032-678-7597","addr":"경기도 부천시 오정동 543-1번지 신오빌딩2 103호","indutype":"일반휴게음식 - 일식·회집","category":"restaurant"}]},{"lat":"37.524094489","long":"126.78671274","imageIndex":4,"items":[{"name":"오정동부대찌개","tel":"032-682-3797","addr":"경기도 부천시 오정동 566-17번지","indutype":"일반휴게음식 - 일반한식","category":"restaurant"}]},{"lat":"37.525255035","long":"126.78577044","imageIndex":4,"items":[{"name":"오정막회","tel":"","addr":"경기도 부천시 오정동 583-11번지 1층 102호","indutype":"일반휴게음식 - 일식·회집","category":"restaurant"}]},{"lat":"37.525393643","long":"126.7827722","imageIndex":4,"items":[{"name":"오정셀프식당","tel":"032-684-8079","addr":"경기도 부천시 오정동 606번지 주건축물제1동2층","indutype":"일반휴게음식 - 일반한식","category":"restaurant"}]},{"lat":"37.528869221","long":"126.78643876","imageIndex":4,"items":[{"name":"오정아구찜","tel":"032-671-0414","addr":"경기도 부천시 오정동 544-22번지","indutype":"일반휴게음식 - 일반한식","category":"restaurant"}]},{"lat":"37.527592462","long":"126.782992","imageIndex":4,"items":[{"name":"오쭈삼","tel":"032-677-9427","addr":"경기도 부천시 오정동 206-9번지 A동 1층","indutype":"일반휴게음식 - 일반한식","category":"restaurant"}]},{"lat":"37.533481252","long":"126.78588237","imageIndex":4,"items":[{"name":"오후","tel":"032-673-3388","addr":"경기도 부천시 오정동 743번지 3층","indutype":"일반휴게음식 - 일반한식","category":"restaurant"}]},{"lat":"37.528590517","long":"126.78676764","imageIndex":4,"items":[{"name":"왕자관","tel":"032-684-0406","addr":"경기도 부천시 오정동 554-13번지","indutype":"일반휴게음식 - 중국식","category":"restaurant"}]},{"lat":"37.52859361","long":"126.7884646","imageIndex":4,"items":[{"name":"요루","tel":"032-677-7127","addr":"경기도 부천시 오정동 547-3번지","indutype":"일반휴게음식 - 주점","category":"restaurant"}]},{"lat":"37.52914286","long":"126.7882707","imageIndex":4,"items":[{"name":"우드앤도그","tel":"070-7768-4788","addr":"경기도 부천시 오정동 546번지 2층","indutype":"일반휴게음식 - 서양음식","category":"restaurant"}]},{"lat":"37.524372736","long":"126.786135","imageIndex":4,"items":[{"name":"우리돈","tel":"032-679-8922","addr":"경기도 부천시 오정동 566번지 1층","indutype":"일반휴게음식 - 일반한식","category":"restaurant"}]},{"lat":"37.52809115","long":"126.78468749","imageIndex":4,"items":[{"name":"우리수산","tel":"032-678-8843","addr":"경기도 부천시 오정동 576-1번지","indutype":"일반휴게음식 - 일반한식","category":"restaurant"}]},{"lat":"37.529894614","long":"126.7806547","imageIndex":4,"items":[{"name":"웨스트빌","tel":"032-673-9441","addr":"경기도 부천시 오정동 415-4번지 효행복마을아파트 지하1층","indutype":"일반휴게음식 - 일반한식","category":"restaurant"}]},{"lat":"37.524649405","long":"126.77987839","imageIndex":4,"items":[{"name":"웰빙미락한식뷔페","tel":"032-681-4338","addr":"경기도 부천시 오정동 598-5번지","indutype":"일반휴게음식 - 일반한식","category":"restaurant"}]},{"lat":"37.527982781","long":"126.78455205","imageIndex":4,"items":[{"name":"웰빙우렁이쌈밥","tel":"032-679-6443","addr":"경기도 부천시 오정동 576-2번지","indutype":"일반휴게음식 - 일반한식","category":"restaurant"}]},{"lat":"37.526288871","long":"126.78452305","imageIndex":4,"items":[{"name":"인디스","tel":"032-671-1556","addr":"경기도 부천시 오정동 581번지 1층","indutype":"일반휴게음식 - 주점","category":"restaurant"}]},{"lat":"37.528591179","long":"126.78712966","imageIndex":4,"items":[{"name":"장수골","tel":"032-683-0308","addr":"경기도 부천시 오정동 554-26번지 1층","indutype":"일반휴게음식 - 일반한식","category":"restaurant"}]},{"lat":"37.5292864","long":"126.78793089","imageIndex":4,"items":[{"name":"장수설렁탕","tel":"032-679-5217","addr":"경기도 부천시 오정동 545-3번지","indutype":"일반휴게음식 - 일반한식","category":"restaurant"}]},{"lat":"37.52756724","long":"126.78396499","imageIndex":4,"items":[{"name":"장작구이","tel":"070-7318-5276","addr":"경기도 부천시 오정동 577-1번지 1층","indutype":"일반휴게음식 - 스넥","category":"restaurant"}]},{"lat":"37.526093198","long":"126.78590377","imageIndex":4,"items":[{"name":"전설의핫도그","tel":"032-682-9113","addr":"경기도 부천시 오정동 571-20번지","indutype":"일반휴게음식 - 스넥","category":"restaurant"}]},{"lat":"37.527225537","long":"126.784328","imageIndex":4,"items":[{"name":"조은돈까스","tel":"070-4107-7777","addr":"경기도 부천시 오정동 578-5번지 킹덤하우스 가동 103호","indutype":"일반휴게음식 - 일반한식","category":"restaurant"}]},{"lat":"37.524229071","long":"126.78154257","imageIndex":4,"items":[{"name":"주연테크구내식당","tel":"032-672-6334","addr":"경기도 부천시 오정동 601-4번지","indutype":"일반휴게음식 - 일반한식","category":"restaurant"}]},{"lat":"37.523921767","long":"126.78587612","imageIndex":4,"items":[{"name":"진소","tel":"02-676-2122","addr":"경기도 부천시 오정동 611-5번지 1층 중 상가1칸","indutype":"일반휴게음식 - 일반한식","category":"restaurant"}]},{"lat":"37.530702832","long":"126.78896766","imageIndex":4,"items":[{"name":"진양 정육식당","tel":"032-681-2381","addr":"경기도 부천시 오정동 111-14번지 1층","indutype":"일반휴게음식 - 일반한식","category":"restaurant"}]},{"lat":"37.526817171","long":"126.79776883","imageIndex":4,"items":[{"name":"진천토종순대","tel":"032-676-1415","addr":"경기도 부천시 오정동 138-1번지 진천토종순대","indutype":"일반휴게음식 - 일반한식","category":"restaurant"}]},{"lat":"37.52711884","long":"126.78509758","imageIndex":4,"items":[{"name":"짱구왕참숯불갈비","tel":"032-673-1521","addr":"경기도 부천시 오정동 574-4번지","indutype":"일반휴게음식 - 일반한식","category":"restaurant"},{"name":"행운해물포차","tel":"","addr":"경기도 부천시 오정동 574-4번지 A동 1층일부호","indutype":"일반휴게음식 - 일반한식","category":"restaurant"}]},{"lat":"37.525894483","long":"126.78563284","imageIndex":4,"items":[{"name":"짱치킨옛날통닭","tel":"032-672-2425","addr":"경기도 부천시 오정동 582-30번지 1층 일부호","indutype":"일반휴게음식 - 일반한식","category":"restaurant"},{"name":"한양식당","tel":"070-7326-3317","addr":"경기도 부천시 오정동 582-30번지","indutype":"일반휴게음식 - 일반한식","category":"restaurant"}]},{"lat":"37.527066645","long":"126.79616172","imageIndex":4,"items":[{"name":"착한돼지 원종점","tel":"032-675-6341","addr":"경기도 부천시 오정동 159-12번지 2층오정동","indutype":"일반휴게음식 - 일반한식","category":"restaurant"},{"name":"토브카페","tel":"032-675-3386","addr":"경기도 부천시 오정동 159-12번지 1층 대한예수교장로회 예심교회 전체","indutype":"일반휴게음식 - 서양음식","category":"restaurant"}]},{"lat":"37.525233497","long":"126.79896098","imageIndex":4,"items":[{"name":"치킨사냥","tel":"032-221-8292","addr":"경기도 부천시 오정동 139-6번지 성산리치빌 1층 101호","indutype":"일반휴게음식 - 스넥","category":"restaurant"}]},{"lat":"37.529482034","long":"126.78651618","imageIndex":4,"items":[{"name":"카페에이몽/(주)테라비테","tel":"032-672-0618","addr":"경기도 부천시 오정동 543번지 신오빌딩 502,503호","indutype":"일반휴게음식 - 서양음식","category":"restaurant"}]},{"lat":"37.525090355","long":"126.78441341","imageIndex":4,"items":[{"name":"카페엘림","tel":"070-4577-5555","addr":"경기도 부천시 오정동 588-3번지 1층","indutype":"일반휴게음식 - 서양음식","category":"restaurant"}]},{"lat":"37.528033374","long":"126.78268525","imageIndex":4,"items":[{"name":"코끼리식당","tel":"032-682-5533","addr":"경기도 부천시 오정동 211-3번지 1층","indutype":"일반휴게음식 - 일반한식","category":"restaurant"}]},{"lat":"37.52981202","long":"126.79466079","imageIndex":4,"items":[{"name":"토닥토닥 오정공원점","tel":"070-1111-1111","addr":"경기도 부천시 오정동 1-3번지","indutype":"일반휴게음식 - 서양음식","category":"restaurant"}]},{"lat":"37.527898228","long":"126.78757286","imageIndex":4,"items":[{"name":"페리카나","tel":"032-679-1684","addr":"경기도 부천시 오정동 552-2번지 1층","indutype":"일반휴게음식 - 서양음식","category":"restaurant"}]},{"lat":"37.52792186","long":"126.78571746","imageIndex":4,"items":[{"name":"편안한식당","tel":"032-674-2500","addr":"경기도 부천시 오정동 557-4번지","indutype":"일반휴게음식 - 일반한식","category":"restaurant"}]},{"lat":"37.524423209","long":"126.78418911","imageIndex":4,"items":[{"name":"평화식당","tel":"032-683-6251","addr":"경기도 부천시 오정동 586-12번지","indutype":"일반휴게음식 - 일반한식","category":"restaurant"}]},{"lat":"37.530949464","long":"126.78102492","imageIndex":4,"items":[{"name":"하나로에프에스 (FS)","tel":"032-682-0311","addr":"경기도 부천시 오정동 763-3번지 2층","indutype":"일반휴게음식 - 일반한식","category":"restaurant"}]},{"lat":"37.524369966","long":"126.78463045","imageIndex":4,"items":[{"name":"한돈참숯꼬기(부천점)","tel":"","addr":"경기도 부천시 오정동 586-8번지 1층","indutype":"일반휴게음식 - 일반한식","category":"restaurant"}]},{"lat":"37.52789456","long":"126.77598837","imageIndex":4,"items":[{"name":"한샘한식부페","tel":"032-677-2588","addr":"경기도 부천시 오정동 810-2번지 1층 102호","indutype":"일반휴게음식 - 일반한식","category":"restaurant"}]},{"lat":"37.526559626","long":"126.78477114","imageIndex":4,"items":[{"name":"한우리순대국","tel":"032-682-7227","addr":"경기도 부천시 오정동 580-3번지 1층","indutype":"일반휴게음식 - 일반한식","category":"restaurant"}]},{"lat":"37.53117471","long":"126.78102425","imageIndex":4,"items":[{"name":"해나루","tel":"032-675-1785","addr":"경기도 부천시 오정동 763-2번지 1층 일부호","indutype":"일반휴게음식 - 일반한식","category":"restaurant"}]},{"lat":"37.527173274","long":"126.78530106","imageIndex":4,"items":[{"name":"해만두전골보쌈","tel":"032-674-8876","addr":"경기도 부천시 오정동 574-5번지 1층","indutype":"일반휴게음식 - 일반한식","category":"restaurant"}]}]