[{"lat":"37.279676972","long":"127.01500341","imageIndex":17,"items":[{"name":"DIY교육센터","tel":"","addr":"경기도 수원시 팔달구 남창동 89번지 101호","indutype":"문화.취미 - 문화취미기타","category":"other"},{"name":"장금이공방","tel":"031-255-3175","addr":"경기도 수원시 팔달구 남창동 89번지","indutype":"문화.취미 - 문화취미기타","category":"other"},{"name":"행궁공방","tel":"031-253-3115","addr":"경기도 수원시 팔달구 남창동 89번지","indutype":"문화.취미 - 민예·공예품","category":"other"},{"name":"화성사랑","tel":"031-236-3091","addr":"경기도 수원시 팔달구 남창동 89번지","indutype":"문화.취미 - 민예·공예품","category":"other"}]},{"lat":"37.280370777","long":"127.01486821","imageIndex":17,"items":[{"name":"GRART","tel":"031-891-0599","addr":"경기도 수원시 팔달구 남창동 27-3번지 101호","indutype":"용역 서비스 - 사무서비스","category":"other"}]},{"lat":"37.277568651","long":"127.01416869","imageIndex":17,"items":[{"name":"ㄱ스튜디오","tel":"070-7420-0821","addr":"경기도 수원시 팔달구 남창동 136-24번지 ,1,2층","indutype":"광학제품 - 사진관","category":"other"}]},{"lat":"37.278622771","long":"127.01500324","imageIndex":17,"items":[{"name":"갤러리풍경","tel":"","addr":"경기도 수원시 팔달구 남창동 120-1번지 1층","indutype":"문화.취미 - 화랑","category":"other"},{"name":"더 이샘","tel":"031-256-4030","addr":"경기도 수원시 팔달구 남창동 120-1번지","indutype":"의류 - 정장","category":"other"}]},{"lat":"37.280406843","long":"127.01462015","imageIndex":17,"items":[{"name":"경애공방","tel":"031-258-3870","addr":"경기도 수원시 팔달구 남창동 72-1번지 남왕동","indutype":"신변잡화 - 액세서리","category":"other"}]},{"lat":"37.278379426","long":"127.01564591","imageIndex":17,"items":[{"name":"궁","tel":"031-252-3474","addr":"경기도 수원시 팔달구 남창동 115-1번지 1층","indutype":"의류 - 정장","category":"other"},{"name":"니트로아이","tel":"031-244-4848","addr":"경기도 수원시 팔달구 남창동 115-1번지","indutype":"용역 서비스 - 소프트웨어","category":"other"}]},{"lat":"37.279956261","long":"127.01528535","imageIndex":17,"items":[{"name":"귀부인","tel":"031-251-1796","addr":"경기도 수원시 팔달구 남창동 23번지 대민빌딩","indutype":"의류 - 맞춤복점","category":"other"}]},{"lat":"37.279821145","long":"127.0149245","imageIndex":17,"items":[{"name":"나녕공예방(나녕칠보공예연구소)","tel":"031-252-6027","addr":"경기도 수원시 팔달구 남창동 90-1번지 1층","indutype":"문화.취미 - 문화취미기타","category":"other"},{"name":"향기도예","tel":"031-252-0571","addr":"경기도 수원시 팔달구 남창동 90-1번지 1층일부","indutype":"문화.취미 - 민예·공예품","category":"other"}]},{"lat":"37.280235626","long":"127.01483436","imageIndex":17,"items":[{"name":"나무자전거포","tel":"031-203-7140","addr":"경기도 수원시 팔달구 남창동 26-1번지","indutype":"레져용품 - 스포츠·레져용품","category":"other"}]},{"lat":"37.279154368","long":"127.01508226","imageIndex":17,"items":[{"name":"남창세탁소","tel":"031-242-7579","addr":"경기도 수원시 팔달구 남창동 100-1번지 1층","indutype":"수리서비스 - 세탁소","category":"other"},{"name":"상상날개","tel":"070-7553-6718","addr":"경기도 수원시 팔달구 남창동 100-1번지","indutype":"신변잡화 - 기타잡화","category":"other"},{"name":"수수한","tel":"","addr":"경기도 수원시 팔달구 남창동 100-1번지","indutype":"신변잡화 - 기타잡화","category":"other"},{"name":"일월공방","tel":"","addr":"경기도 수원시 팔달구 남창동 100-1번지","indutype":"문화.취미 - 문화취미기타","category":"other"},{"name":"호두야자","tel":"031-241-0728","addr":"경기도 수원시 팔달구 남창동 100-1번지","indutype":"유통업 영리 - 기타유통업","category":"other"}]},{"lat":"37.279595878","long":"127.01502595","imageIndex":17,"items":[{"name":"너나들이","tel":"031-253-2262","addr":"경기도 수원시 팔달구 남창동 89번지 1호","indutype":"의류 - 맞춤복점","category":"other"}]},{"lat":"37.279154394","long":"127.01483419","imageIndex":17,"items":[{"name":"단공예","tel":"031-251-3579","addr":"경기도 수원시 팔달구 남창동 98-3번지","indutype":"의류 - 정장","category":"other"},{"name":"달님공방","tel":"031-241-4205","addr":"경기도 수원시 팔달구 남창동 98-3번지 1층","indutype":"문화.취미 - 문화취미기타","category":"other"},{"name":"빈의상실","tel":"031-243-9525","addr":"경기도 수원시 팔달구 남창동 98-3번지 1층","indutype":"의류 - 정장","category":"other"}]},{"lat":"37.279902279","long":"127.01450731","imageIndex":17,"items":[{"name":"도고네","tel":"031-999-6532","addr":"경기도 수원시 팔달구 남창동 92번지 B01호","indutype":"문화.취미 - 애완동물","category":"other"}]},{"lat":"37.278514633","long":"127.01513853","imageIndex":17,"items":[{"name":"레트로 드레스","tel":"031-242-4375","addr":"경기도 수원시 팔달구 남창동 118-2번지","indutype":"의류 - 정장","category":"other"},{"name":"언니의 봄날","tel":"","addr":"경기도 수원시 팔달구 남창동 118-2번지","indutype":"의류 - 정장","category":"other"}]},{"lat":"37.279821175","long":"127.01462006","imageIndex":17,"items":[{"name":"만방코리아","tel":"","addr":"경기도 수원시 팔달구 남창동 92-1번지 성림맨션 1층","indutype":"신변잡화 - 기타잡화","category":"other"}]},{"lat":"37.280794259","long":"127.01486828","imageIndex":17,"items":[{"name":"미성출판사","tel":"031-255-0812","addr":"경기도 수원시 팔달구 남창동 29-1번지 1층","indutype":"서적문구 - 출판 및 인쇄물","category":"other"},{"name":"편의점사랑행궁점","tel":"031-251-5676","addr":"경기도 수원시 팔달구 남창동 29-1번지","indutype":"유통업 영리 - 편 의 점","category":"other"}]},{"lat":"37.278875038","long":"127.01519497","imageIndex":17,"items":[{"name":"베스티오(VESTIO)","tel":"031-245-6304","addr":"경기도 수원시 팔달구 남창동 109-2번지 101호","indutype":"의류 - 정장","category":"other"}]},{"lat":"37.280821262","long":"127.0151389","imageIndex":17,"items":[{"name":"수원화성기념품샵","tel":"031-252-5652","addr":"경기도 수원시 팔달구 남창동 14번지 수원화성사랑채 1층","indutype":"신변잡화 - 기념품점","category":"other"},{"name":"재단법인 수원문화재단","tel":"031-290-3562","addr":"경기도 수원시 팔달구 남창동 14번지 수원화성사랑채","indutype":"문화.취미 - 티켓","category":"other"}]},{"lat":"37.280677126","long":"127.01486826","imageIndex":17,"items":[{"name":"스위트아트(Sweet Art)","tel":"031-291-7807","addr":"경기도 수원시 팔달구 남창동 28-1번지","indutype":"문화.취미 - 민예·공예품","category":"other"}]},{"lat":"37.28159613","long":"127.01528562","imageIndex":17,"items":[{"name":"원앙결혼정보","tel":"031-247-3140","addr":"경기도 수원시 팔달구 남창동 2-1","indutype":"회원제형태 - 기타4","category":"other"}]},{"lat":"37.278739869","long":"127.01534153","imageIndex":17,"items":[{"name":"이마트24 수원행궁점","tel":"031-252-3207","addr":"경기도 수원시 팔달구 남창동 110번지","indutype":"유통업 영리 - 편 의 점","category":"other"},{"name":"이마트24 수원행궁점","tel":"","addr":"경기도 수원시 팔달구 남창동 110번지 1층","indutype":"유통업 영리 - 편 의 점","category":"other"}]},{"lat":"37.278289333","long":"127.01555569","imageIndex":17,"items":[{"name":"임아트갤러리","tel":"031-241-4580","addr":"경기도 수원시 팔달구 남창동 131-2번지","indutype":"문화.취미 - 화랑","category":"other"}]},{"lat":"37.278100105","long":"127.01566841","imageIndex":17,"items":[{"name":"지영의상실","tel":"031-44-9046","addr":"경기도 수원시 팔달구 남창동 133-1번지","indutype":"의류 - 맞춤복점","category":"other"}]},{"lat":"37.279343581","long":"127.01511611","imageIndex":17,"items":[{"name":"판엔펀 (FaN&FuN)","tel":"02-1111-1111","addr":"경기도 수원시 팔달구 남창동 85-1번지 101호","indutype":"문화.취미 - 화랑","category":"other"}]},{"lat":"37.279316584","long":"127.01477784","imageIndex":17,"items":[{"name":"플라워마스","tel":"","addr":"경기도 수원시 팔달구 남창동 99-6번지 2층","indutype":"문화.취미 - 화원","category":"other"}]},{"lat":"37.280073593","long":"127.0132219","imageIndex":17,"items":[{"name":"행궁재갤러리","tel":"031-244-2739","addr":"경기도 수원시 팔달구 남창동 55-8번지","indutype":"문화.취미 - 화랑","category":"other"}]},{"lat":"37.28007354","long":"127.01380824","imageIndex":17,"items":[{"name":"현플라워","tel":"031-714-8782","addr":"경기도 수원시 팔달구 남창동 54-1번지","indutype":"문화.취미 - 화원","category":"other"}]}]