[{"lat":"38.158797116","long":"127.25093054","imageIndex":16,"items":[{"name":"관인고등학교","tel":"031-538-8205","addr":"경기도 포천시 관인면 탄동리 607-3번지 관인고등학교","indutype":"학원 - 초중고교육기관","category":"study"},{"name":"관인고등학교_수업료","tel":"031-538-8205","addr":"경기도 포천시 관인면 탄동리 607-3번지 관인고등학교","indutype":"학원 - 초중고교육기관","category":"study"},{"name":"관인중학교","tel":"031-538-8205","addr":"경기도 포천시 관인면 탄동리 607-3번지 관인고등학교","indutype":"학원 - 초중고교육기관","category":"study"},{"name":"관인중학교_수업료","tel":"031-538-8205","addr":"경기도 포천시 관인면 탄동리 607-3번지 관인고등학교","indutype":"학원 - 초중고교육기관","category":"study"}]},{"lat":"38.158856648","long":"127.25259657","imageIndex":16,"items":[{"name":"관인어린이집[아이행복]","tel":"031-532-1122","addr":"경기도 포천시 관인면 탄동리 1000번지","indutype":"학원 - 유아원","category":"study"}]},{"lat":"38.156582098","long":"127.25037538","imageIndex":16,"items":[{"name":"관인초등학교","tel":"031-533-1222","addr":"경기도 포천시 관인면 탄동리 664-1번지 관인초등학교","indutype":"학원 - 초중고교육기관","category":"study"},{"name":"관인초등학교_수업료","tel":"031-533-1222","addr":"경기도 포천시 관인면 탄동리 664-1번지 관인초등학교","indutype":"학원 - 초중고교육기관","category":"study"},{"name":"관인초등학교병설유치원[아이행복]","tel":"031-533-1282","addr":"경기도 포천시 관인면 탄동리 664-1번지 관인초등학교","indutype":"학원 - 유치원","category":"study"}]},{"lat":"38.156828836","long":"127.25297757","imageIndex":16,"items":[{"name":"한국치매예방협회포천철원본부(솔내음심리","tel":"031-533-6887","addr":"경기도 포천시 관인면 탄동리 533-2번지 2층","indutype":"학원 - 기타 교육기관","category":"study"}]},{"lat":"38.156775123","long":"127.25281766","imageIndex":16,"items":[{"name":"흰돌피아노학원","tel":"031-533-0183","addr":"경기도 포천시 관인면 탄동리 533-14","indutype":"학원 - 예·체능계학원","category":"study"}]}]