[{"lat":"37.266180667","long":"127.10563086","imageIndex":16,"items":[{"name":"(주)미래플랜","tel":"031-693-6089","addr":"경기도 용인시 기흥구 상갈동 474번지 중앙프라자 201호","indutype":"학원 - 독서실","category":"study"},{"name":"삼성리빙텔","tel":"031-693-6089","addr":"경기도 용인시 기흥구 상갈동 474번지 한솔학원 201호","indutype":"학원 - 독서실","category":"study"}]},{"lat":"37.268434012","long":"127.11472082","imageIndex":16,"items":[{"name":"(주)용인신갈자동차운전전문학원","tel":"031-281-6363","addr":"경기도 용인시 기흥구 상갈동 144-13번지","indutype":"학원 - 기능학원","category":"study"}]},{"lat":"37.266098482","long":"127.10688213","imageIndex":16,"items":[{"name":"가온혁신학원","tel":"031-548-0577","addr":"경기도 용인시 기흥구 상갈동 473-1번지 그린빌프라자 5층 501호","indutype":"학원 - 보습학원","category":"study"},{"name":"가온혁신학원","tel":"","addr":"경기도 용인시 기흥구 상갈동 473-1번지 그린빌프라자 5층 501호","indutype":"학원 - 보습학원","category":"study"},{"name":"아인스수학위싱웰영어학원","tel":"031-285-0098","addr":"경기도 용인시 기흥구 상갈동 473-1번지 그린빌프라자 402호","indutype":"학원 - 보습학원","category":"study"}]},{"lat":"37.266430777","long":"127.10811143","imageIndex":16,"items":[{"name":"국가대표계몽태권도장","tel":"031-281-7090","addr":"경기도 용인시 기흥구 상갈동 472-2번지 한솔프라자 207,208호","indutype":"학원 - 예·체능계학원","category":"study"},{"name":"프린스턴영수학원(주)","tel":"031-287-9095","addr":"경기도 용인시 기흥구 상갈동 472-2번지 한솔프라자 F동 204호","indutype":"학원 - 보습학원","category":"study"}]},{"lat":"37.261658247","long":"127.10476796","imageIndex":16,"items":[{"name":"더강한영수학원","tel":"031-283-4222","addr":"경기도 용인시 기흥구 상갈동 482-1번지 주공프라자 303호","indutype":"학원 - 보습학원","category":"study"},{"name":"지앤비영어이젠수학학원","tel":"031-287-4561","addr":"경기도 용인시 기흥구 상갈동 482-1번지 주공프라자 402호","indutype":"학원 - 보습학원","category":"study"}]},{"lat":"37.263239644","long":"127.10977544","imageIndex":16,"items":[{"name":"리듬세계음악학원","tel":"031-286-1817","addr":"경기도 용인시 기흥구 상갈동 463-1번지 주공4단지상가 202 ,203,204","indutype":"학원 - 예·체능계학원","category":"study"},{"name":"씨매스수학교습소","tel":"031-282-2255","addr":"경기도 용인시 기흥구 상갈동 463-1번지 금화마을주공그린빌 상가동 205호","indutype":"학원 - 보습학원","category":"study"}]},{"lat":"37.263240848","long":"127.10843392","imageIndex":16,"items":[{"name":"블럭짱","tel":"031-283-8055","addr":"경기도 용인시 기흥구 상갈동 481-1번지 상갈프라자 2층 201호","indutype":"학원 - 기타 교육기관","category":"study"},{"name":"상갈경희태권도체육관","tel":"031-274-3131","addr":"경기도 용인시 기흥구 상갈동 481-1번지 상갈프라자 403호","indutype":"학원 - 예·체능계학원","category":"study"},{"name":"와이비엠잉글루상갈어학원","tel":"031-274-9400","addr":"경기도 용인시 기흥구 상갈동 481-1번지 상갈프라자 303호,3304호","indutype":"학원 - 외국어학원","category":"study"},{"name":"주니어랩영어정다운학원","tel":"031-283-8009","addr":"경기도 용인시 기흥구 상갈동 481-1번지 상갈프라자 401호","indutype":"회원제형태 - 학원","category":"study"},{"name":"클라비어슐레피아노교습소","tel":"","addr":"경기도 용인시 기흥구 상갈동 481-1번지 상갈프라자 4층 402호","indutype":"학원 - 예·체능계학원","category":"study"}]},{"lat":"37.266126115","long":"127.10619447","imageIndex":16,"items":[{"name":"상갈독서실","tel":"031-284-4742","addr":"경기도 용인시 기흥구 상갈동 474-2번지 그린프라자2 301,302호","indutype":"학원 - 독서실","category":"study"}]},{"lat":"37.265879615","long":"127.10982426","imageIndex":16,"items":[{"name":"상갈이화음악학원","tel":"031-285-8567","addr":"경기도 용인시 기흥구 상갈동 459-3번지 상갈주공프라자 302호","indutype":"학원 - 예·체능계학원","category":"study"}]},{"lat":"37.264411346","long":"127.10937125","imageIndex":16,"items":[{"name":"아이엠논술","tel":"031-287-8253","addr":"경기도 용인시 기흥구 상갈동 461번지 금화마을대우현대1단지아파트","indutype":"학원 - 기타 교육기관","category":"study"}]},{"lat":"37.26653513","long":"127.1122716","imageIndex":16,"items":[{"name":"조화로운숲 철학논술","tel":"031-274-5070","addr":"경기도 용인시 기흥구 상갈동 454번지 금화마을주공5단지아파트","indutype":"회원제형태 - 학원","category":"study"}]},{"lat":"37.269126102","long":"127.10669463","imageIndex":16,"items":[{"name":"주식회사산들인베스트","tel":"031-1577-8277","addr":"경기도 용인시 기흥구 상갈동 120,201","indutype":"회원제형태 - 학원","category":"study"}]},{"lat":"37.262431001","long":"127.10721528","imageIndex":16,"items":[{"name":"피아노 개인과외교습","tel":"","addr":"경기도 용인시 기흥구 상갈동 481번지 금화마을주공3단지아파트","indutype":"학원 - 기타 교육기관","category":"study"}]},{"lat":"37.266153421","long":"127.10587884","imageIndex":16,"items":[{"name":"헬스클럽미스미스터","tel":"031-285-2882","addr":"경기도 용인시 기흥구 상갈동 474-1번지 그린프라자 3층","indutype":"회원제형태 - 학원","category":"study"}]}]