[{"lat":"37.3008981502","long":"126.8579929657","imageIndex":7,"items":[{"name":"B2C할인마트","tel":"070-8246-0864","addr":"경기도 안산시 상록구 사동 1248번지","indutype":"도매 및 소매업 - 마트","category":"mart"}]},{"lat":"37.30089815","long":"126.85799297","imageIndex":7,"items":[{"name":"B2C할인마트(사동점)","tel":"070-8246-0864","addr":"경기도 안산시 상록구 사동 1248번지 1층 101호","indutype":"유통업 영리 - 슈퍼마켓","category":"mart"}]},{"lat":"37.2997627533","long":"126.8579049137","imageIndex":7,"items":[{"name":"CU 안산사동센터","tel":"031-418-3470","addr":"경기도 안산시 상록구 사동 1250번지","indutype":"도매 및 소매업 - 슈퍼,담배","category":"mart"}]},{"lat":"37.283319079","long":"126.85074219","imageIndex":7,"items":[{"name":"가락할인마트","tel":"031-409-1033","addr":"경기도 안산시 상록구 사동 1413-8번지 1층","indutype":"유통업 영리 - 슈퍼마켓","category":"mart"}]},{"lat":"37.2833190788","long":"126.8507421901","imageIndex":7,"items":[{"name":"가락할인마트","tel":"031-409-1033","addr":"경기도 안산시 상록구 사동 1413-8번지","indutype":"도매 및 소매업 - 슈퍼,식육,담배","category":"mart"}]},{"lat":"37.280647016","long":"126.84687994","imageIndex":7,"items":[{"name":"고향슈퍼","tel":"031-406-4818","addr":"경기도 안산시 상록구 사동 1495-7번지","indutype":"유통업 영리 - 슈퍼마켓","category":"mart"}]},{"lat":"37.3040114548","long":"126.8408310603","imageIndex":7,"items":[{"name":"굿마트","tel":"031-502-0066","addr":"경기도 안산시 상록구 사동 1553번지 숲속마을아파트","indutype":"도매 및 소매업 - 슈퍼","category":"mart"}]},{"lat":"37.295172941","long":"126.85499271","imageIndex":7,"items":[{"name":"농수산물직판장","tel":"031-406-7000","addr":"경기도 안산시 상록구 사동 1331번지 상가 1층","indutype":"유통업 영리 - 슈퍼마켓","category":"mart"}]},{"lat":"37.28370921","long":"126.85285008","imageIndex":7,"items":[{"name":"농심가한샘공판장","tel":"031-409-1357","addr":"경기도 안산시 상록구 사동 1407-13,101~104호","indutype":"유통업 영리 - 슈퍼마켓","category":"mart"}]},{"lat":"37.2837092102","long":"126.8528500816","imageIndex":7,"items":[{"name":"농심가한샘공판장","tel":"031-409-1357","addr":"경기도 안산시 상록구 사동 1407-13번지","indutype":"도매 및 소매업 - 슈퍼","category":"mart"}]},{"lat":"37.297699304","long":"126.85781865","imageIndex":7,"items":[{"name":"다사랑마트","tel":"031-415-8819","addr":"경기도 안산시 상록구 사동 1267번지","indutype":"유통업 영리 - 슈퍼마켓","category":"mart"},{"name":"다사랑마트","tel":"031-418-3797","addr":"경기도 안산시 상록구 사동 1267번지 1층 101호","indutype":"유통업 영리 - 슈퍼마켓","category":"mart"}]},{"lat":"37.302868417","long":"126.84851465","imageIndex":7,"items":[{"name":"대박할인마트","tel":"031-417-2980","addr":"경기도 안산시 상록구 사동 1186-16번지 1층 101호","indutype":"유통업 영리 - 슈퍼마켓","category":"mart"}]},{"lat":"37.3028684173","long":"126.8485146521","imageIndex":7,"items":[{"name":"대박할인마트","tel":"031-417-2980","addr":"경기도 안산시 상록구 사동 1186-16번지","indutype":"도매 및 소매업 - 슈퍼마켓","category":"mart"}]},{"lat":"37.286178538","long":"126.84629341","imageIndex":7,"items":[{"name":"대성할인마트","tel":"031-438-6009","addr":"경기도 안산시 상록구 사동 1385번지 1층","indutype":"유통업 영리 - 슈퍼마켓","category":"mart"}]},{"lat":"37.2861785379","long":"126.8462934079","imageIndex":7,"items":[{"name":"대성할인마트","tel":"031-438-6009","addr":"경기도 안산시 상록구 사동 1385번지","indutype":"도매 및 소매업 - 슈퍼마켓","category":"mart"}]},{"lat":"37.2933950215","long":"126.8206102028","imageIndex":7,"items":[{"name":"대우할인마트","tel":"031-438-7755","addr":"경기도 안산시 상록구 사동 1511번지 안산고잔9차푸르지오","indutype":"도매 및 소매업 - 슈퍼,담배","category":"mart"}]},{"lat":"37.295589339","long":"126.82377406","imageIndex":7,"items":[{"name":"대우홈마트","tel":"031-502-1915","addr":"경기도 안산시 상록구 사동 1512푸르지오6차분산상가105","indutype":"유통업 영리 - 슈퍼마켓","category":"mart"},{"name":"푸르지오마트","tel":"031-501-2366","addr":"경기도 안산시 상록구 사동 1512번지 121,122호","indutype":"유통업 영리 - 슈퍼마켓","category":"mart"}]},{"lat":"37.295950089","long":"126.81813412","imageIndex":7,"items":[{"name":"대우홈마트","tel":"031-502-4945","addr":"경기도 안산시 상록구 사동 1510번지 안산고잔7차푸르지오 115,116호","indutype":"유통업 영리 - 슈퍼마켓","category":"mart"}]},{"lat":"37.2955893386","long":"126.8237740591","imageIndex":7,"items":[{"name":"대우홈마트","tel":"031-502-1915","addr":"경기도 안산시 상록구 사동 1512번지 안산고잔6차푸르지오","indutype":"도매 및 소매업 - 슈퍼마켓","category":"mart"},{"name":"푸르지오마트","tel":"031-501-2366","addr":"경기도 안산시 상록구 사동 1512번지","indutype":"도매 및 소매업 - 슈퍼","category":"mart"},{"name":"푸르지오마트","tel":"031-501-2366","addr":"경기도 안산시 상록구 사동 1512번지","indutype":"도매 및 소매업 - 슈퍼","category":"mart"}]},{"lat":"37.2959500892","long":"126.8181341192","imageIndex":7,"items":[{"name":"대우홈마트","tel":"031-502-1915","addr":"경기도 안산시 상록구 사동 1510번지","indutype":"도매 및 소매업 - 슈퍼마켓","category":"mart"}]},{"lat":"37.30053293","long":"126.84040993","imageIndex":7,"items":[{"name":"럭키할인마트","tel":"031-417-9133","addr":"경기도 안산시 상록구 사동 1169번지 전체 1층","indutype":"유통업 영리 - 슈퍼마켓","category":"mart"}]},{"lat":"37.299283407","long":"126.85643961","imageIndex":7,"items":[{"name":"럭키할인마트","tel":"031-418-4980","addr":"경기도 안산시 상록구 사동 1241-7번지","indutype":"유통업 영리 - 슈퍼마켓","category":"mart"}]},{"lat":"37.3005329303","long":"126.8404099272","imageIndex":7,"items":[{"name":"럭키할인마트","tel":"031-417-9133","addr":"경기도 안산시 상록구 사동 1169번지","indutype":"도매 및 소매업 - 슈퍼마켓","category":"mart"}]},{"lat":"37.2992834070","long":"126.8564396063","imageIndex":7,"items":[{"name":"럭키할인마트","tel":"031-418-4980","addr":"경기도 안산시 상록구 사동 1241-7번지","indutype":"도매 및 소매업 - 슈퍼마켓,담배","category":"mart"}]},{"lat":"37.299231358","long":"126.85807511","imageIndex":7,"items":[{"name":"롯데마켓999 안산감골로가맹점","tel":"","addr":"경기도 안산시 상록구 사동 1250-5번지 1층","indutype":"유통업 영리 - 슈퍼마켓","category":"mart"}]},{"lat":"37.301675656","long":"126.83926829","imageIndex":7,"items":[{"name":"롯데마켓999안산한양가맹점","tel":"031-408-8253","addr":"경기도 안산시 상록구 사동 1567-4번지 1층","indutype":"유통업 영리 - 슈퍼마켓","category":"mart"}]},{"lat":"37.302121905","long":"126.84954258","imageIndex":7,"items":[{"name":"메가푸드","tel":"","addr":"경기도 안산시 상록구 사동 1187-5번지 1층 102호","indutype":"유통업 영리 - 슈퍼마켓","category":"mart"}]},{"lat":"37.302538453","long":"126.85115465","imageIndex":7,"items":[{"name":"모닝마트","tel":"031-417-4940","addr":"경기도 안산시 상록구 사동 1199-8번지 102호","indutype":"유통업 영리 - 슈퍼마켓","category":"mart"}]},{"lat":"37.3025384528","long":"126.8511546493","imageIndex":7,"items":[{"name":"모닝마트","tel":"031-417-4940","addr":"경기도 안산시 상록구 사동 1199-8번지","indutype":"도매 및 소매업 - 슈퍼마켓","category":"mart"}]},{"lat":"37.295456487","long":"126.85121399","imageIndex":7,"items":[{"name":"바로코사","tel":"031-409-1413","addr":"경기도 안산시 상록구 사동 1310-1번지","indutype":"유통업 영리 - 슈퍼마켓","category":"mart"}]},{"lat":"37.2954564865","long":"126.8512139865","imageIndex":7,"items":[{"name":"바로코사","tel":"031-409-1413","addr":"경기도 안산시 상록구 사동 1310-1번지","indutype":"도매 및 소매업 - 슈퍼,담배","category":"mart"}]},{"lat":"37.29186913","long":"126.85021748","imageIndex":7,"items":[{"name":"빅할인마트","tel":"031-418-3360","addr":"경기도 안산시 상록구 사동 1345선경중심상가지하층3","indutype":"유통업 영리 - 슈퍼마켓","category":"mart"}]},{"lat":"37.2871504","long":"126.84535541","imageIndex":7,"items":[{"name":"사동알뜰공판장","tel":"031-407-8902","addr":"경기도 안산시 상록구 사동 1378-7번지","indutype":"유통업 영리 - 슈퍼마켓","category":"mart"}]},{"lat":"37.295592807","long":"126.85212724","imageIndex":7,"items":[{"name":"사동진로마트","tel":"031-419-0606","addr":"경기도 안산시 상록구 사동 1318번지","indutype":"유통업 영리 - 슈퍼마켓","category":"mart"},{"name":"사동진로마트주식회사","tel":"031-419-0606","addr":"경기도 안산시 상록구 사동 1318번지","indutype":"유통업 영리 - 슈퍼마켓","category":"mart"},{"name":"진로마트","tel":"031-419-0606","addr":"경기도 안산시 상록구 사동 1318번지","indutype":"유통업 영리 - 슈퍼마켓","category":"mart"}]},{"lat":"37.305671483","long":"126.84240665","imageIndex":7,"items":[{"name":"상록마트","tel":"031-502-3123","addr":"경기도 안산시 상록구 사동 1514번지 상록마을 상가동 103호","indutype":"유통업 영리 - 슈퍼마켓","category":"mart"}]},{"lat":"37.301259249","long":"126.85134896","imageIndex":7,"items":[{"name":"새농심가원마트","tel":"031-416-8890","addr":"경기도 안산시 상록구 사동 1205번지 1층","indutype":"유통업 영리 - 슈퍼마켓","category":"mart"}]},{"lat":"37.304064823","long":"126.84702333","imageIndex":7,"items":[{"name":"성안슈퍼","tel":"031-408-4894","addr":"경기도 안산시 상록구 사동 1540-1번지","indutype":"유통업 영리 - 슈퍼마켓","category":"mart"}]},{"lat":"37.303592485","long":"126.84415936","imageIndex":7,"items":[{"name":"성안편의점","tel":"031-501-0806","addr":"경기도 안산시 상록구 사동 1551-1번지 한영빌딩 1층 104호","indutype":"유통업 영리 - 슈퍼마켓","category":"mart"}]},{"lat":"37.3039258318","long":"126.8441360975","imageIndex":7,"items":[{"name":"성안편의점","tel":"031-501-0806","addr":"경기도 안산시 상록구 사동 1550-1번지","indutype":"도매 및 소매업 - 슈퍼담배","category":"mart"}]},{"lat":"37.302341511","long":"126.85215889","imageIndex":7,"items":[{"name":"세븐마트","tel":"031-407-0605","addr":"경기도 안산시 상록구 사동 1202-5번지 1층 101호 상가","indutype":"유통업 영리 - 슈퍼마켓","category":"mart"}]},{"lat":"37.3004541472","long":"126.8559636249","imageIndex":7,"items":[{"name":"쇼핑촌할인마트","tel":"031-411-4266","addr":"경기도 안산시 상록구 사동 1254-7번지","indutype":"도매 및 소매업 - 슈퍼마켓","category":"mart"}]},{"lat":"37.300454147","long":"126.85596362","imageIndex":7,"items":[{"name":"쇼핑촌할인마트","tel":"031-411-4266","addr":"경기도 안산시 상록구 사동 1254-7번지","indutype":"유통업 영리 - 슈퍼마켓","category":"mart"}]},{"lat":"37.2888738073","long":"126.8542156362","imageIndex":7,"items":[{"name":"신우마트","tel":"","addr":"경기도 안산시 상록구 사동 1344-1번지 신우아파트","indutype":"도매 및 소매업 - 슈퍼","category":"mart"}]},{"lat":"37.300535686","long":"126.85632439","imageIndex":7,"items":[{"name":"아르밧 (ARBAT)","tel":"","addr":"경기도 안산시 상록구 사동 1240-13번지 상가 102호","indutype":"유통업 영리 - 슈퍼마켓","category":"mart"}]},{"lat":"37.293672882","long":"126.85154462","imageIndex":7,"items":[{"name":"안산시슈퍼마켓협동조합","tel":"031-408-1442","addr":"경기도 안산시 상록구 사동 1319-22번지 보금자리","indutype":"유통업 영리 - 슈퍼마켓","category":"mart"}]},{"lat":"37.2880690677","long":"126.8450715747","imageIndex":7,"items":[{"name":"영마트","tel":"031-502-4582","addr":"경기도 안산시 상록구 사동 1371-3번지","indutype":"도매 및 소매업 - 슈퍼","category":"mart"}]},{"lat":"37.2834580744","long":"126.8467726495","imageIndex":7,"items":[{"name":"예스마트","tel":"031-408-8326","addr":"경기도 안산시 상록구 사동 1428-7번지","indutype":"도매 및 소매업 - 슈퍼","category":"mart"}]},{"lat":"37.283458074","long":"126.84677265","imageIndex":7,"items":[{"name":"예스마트","tel":"031-408-8326","addr":"경기도 안산시 상록구 사동 1428-7번지 1층","indutype":"유통업 영리 - 슈퍼마켓","category":"mart"}]},{"lat":"37.2945685220","long":"126.8544074340","imageIndex":7,"items":[{"name":"오곡슈퍼","tel":"","addr":"경기도 안산시 상록구 사동 1333-14번지","indutype":"도매 및 소매업 - 슈퍼마켓,담배","category":"mart"}]},{"lat":"37.296175547","long":"126.84984788","imageIndex":7,"items":[{"name":"왕발이장터","tel":"031-406-8767","addr":"경기도 안산시 상록구 사동 1307-13번지","indutype":"유통업 영리 - 슈퍼마켓","category":"mart"}]},{"lat":"37.2961755470","long":"126.8498478798","imageIndex":7,"items":[{"name":"왕발이장터","tel":"031-406-8767","addr":"경기도 안산시 상록구 사동 1307-13번지","indutype":"도매 및 소매업 - 슈퍼마켓","category":"mart"}]},{"lat":"37.29397805","long":"126.84377355","imageIndex":7,"items":[{"name":"왕발이장터","tel":"031-409-0019","addr":"경기도 안산시 상록구 사동 1349-11번지","indutype":"유통업 영리 - 슈퍼마켓","category":"mart"}]},{"lat":"37.29734522","long":"126.84857105","imageIndex":7,"items":[{"name":"월마트","tel":"031-408-0995","addr":"경기도 안산시 상록구 사동 1285-1번지 1층","indutype":"유통업 영리 - 슈퍼마켓","category":"mart"}]},{"lat":"37.2973452198","long":"126.8485710531","imageIndex":7,"items":[{"name":"월마트","tel":"031-408-0995","addr":"경기도 안산시 상록구 사동 1285-1번지","indutype":"도매 및 소매업 - 슈퍼마켓","category":"mart"}]},{"lat":"37.30583855","long":"126.84604962","imageIndex":7,"items":[{"name":"웰빙마트","tel":"031-417-5167","addr":"경기도 안산시 상록구 사동 1523-11번지 1층","indutype":"유통업 영리 - 슈퍼마켓","category":"mart"}]},{"lat":"37.3058385501","long":"126.8460496172","imageIndex":7,"items":[{"name":"웰빙마트","tel":"031-417-5167","addr":"경기도 안산시 상록구 사동 1523-11번지","indutype":"도매 및 소매업 - 슈퍼마켓","category":"mart"}]},{"lat":"37.3009507","long":"126.85676346","imageIndex":7,"items":[{"name":"장수홈마트","tel":"031-437-8835","addr":"경기도 안산시 상록구 사동 1244번지 101,102호","indutype":"유통업 영리 - 슈퍼마켓","category":"mart"}]},{"lat":"37.3009507000","long":"126.8567634625","imageIndex":7,"items":[{"name":"장수홈마트","tel":"031-4467-8835","addr":"경기도 안산시 상록구 사동 1244번지","indutype":"도매 및 소매업 - 슈퍼","category":"mart"}]},{"lat":"37.279788726","long":"126.85204601","imageIndex":7,"items":[{"name":"장원마트","tel":"031-407-8930","addr":"경기도 안산시 상록구 사동 1472-7번지","indutype":"유통업 영리 - 슈퍼마켓","category":"mart"}]},{"lat":"37.280734873","long":"126.8521005","imageIndex":7,"items":[{"name":"제일할인마트","tel":"031-415-5570","addr":"경기도 안산시 상록구 사동 1470-8번지 1층","indutype":"유통업 영리 - 슈퍼마켓","category":"mart"}]},{"lat":"37.296900727","long":"126.84629374","imageIndex":7,"items":[{"name":"중앙하이퍼마트","tel":"031-409-0948","addr":"경기도 안산시 상록구 사동 1286번지","indutype":"유통업 영리 - 슈퍼마켓","category":"mart"}]},{"lat":"37.2969007274","long":"126.8462937414","imageIndex":7,"items":[{"name":"중앙하이퍼마트","tel":"031-409-0948","addr":"경기도 안산시 상록구 사동 1286번지","indutype":"도매 및 소매업 - 슈퍼","category":"mart"}]},{"lat":"37.294506775","long":"126.85546768","imageIndex":7,"items":[{"name":"진로할인마트","tel":"031-407-2828","addr":"경기도 안산시 상록구 사동 1332-7번지","indutype":"유통업 영리 - 슈퍼마켓","category":"mart"}]},{"lat":"37.2945067755","long":"126.8554676835","imageIndex":7,"items":[{"name":"진로할인마트","tel":"031-407-2828","addr":"경기도 안산시 상록구 사동 1332-7번지","indutype":"도매 및 소매업 - 슈퍼마켓,담배소매","category":"mart"}]},{"lat":"37.2837299812","long":"126.8479899336","imageIndex":7,"items":[{"name":"초당마트㈜","tel":"031-418-4989","addr":"경기도 안산시 상록구 사동 1423-5번지","indutype":"도매 및 소매업 - 슈퍼마켓","category":"mart"}]},{"lat":"37.283729981","long":"126.84798993","imageIndex":7,"items":[{"name":"초당마트주식회사","tel":"031-418-4989","addr":"경기도 안산시 상록구 사동 1423-5번지","indutype":"유통업 영리 - 슈퍼마켓","category":"mart"}]},{"lat":"37.2912888304","long":"126.8544364341","imageIndex":7,"items":[{"name":"충남할인마트","tel":"031-418-6390","addr":"경기도 안산시 상록구 사동 1343번지","indutype":"도매 및 소매업 - 담배,슈퍼,청과","category":"mart"}]},{"lat":"37.3007558507","long":"126.8387176142","imageIndex":7,"items":[{"name":"케이슈퍼마켓","tel":"031-502-8253","addr":"경기도 안산시 상록구 사동 1570-3번지","indutype":"도매 및 소매업 - 슈퍼마켓","category":"mart"}]},{"lat":"37.301284029","long":"126.84960067","imageIndex":7,"items":[{"name":"탑할인마트","tel":"031-406-3112","addr":"경기도 안산시 상록구 사동 1195번지 1층","indutype":"유통업 영리 - 슈퍼마켓","category":"mart"}]},{"lat":"37.3022888951","long":"126.8396617280","imageIndex":7,"items":[{"name":"테레모크","tel":"031-409-0744","addr":"경기도 안산시 상록구 사동 1574-7번지","indutype":"도매 및 소매업 - 슈퍼마켓","category":"mart"}]},{"lat":"37.302288895","long":"126.83966173","imageIndex":7,"items":[{"name":"테레모크","tel":"031-409-0744","addr":"경기도 안산시 상록구 사동 1574-7번지","indutype":"유통업 영리 - 슈퍼마켓","category":"mart"}]},{"lat":"37.292703879","long":"126.84102448","imageIndex":7,"items":[{"name":"토탈솔루션","tel":"031-8040-6036","addr":"경기도 안산시 상록구 사동 1271-18A동130호133호","indutype":"유통업 영리 - 슈퍼마켓","category":"mart"}]},{"lat":"37.283284352","long":"126.8517684","imageIndex":7,"items":[{"name":"하나로마트","tel":"031-416-1508","addr":"경기도 안산시 상록구 사동 1406-5번지","indutype":"유통업 영리 - 슈퍼마켓","category":"mart"}]},{"lat":"37.306784857","long":"126.85318776","imageIndex":7,"items":[{"name":"하나로마트","tel":"031-502-0088","addr":"경기도 안산시 상록구 사동 1534번지 고향마을1단지 상가 103호","indutype":"유통업 영리 - 슈퍼마켓","category":"mart"}]},{"lat":"37.279428316","long":"126.85204673","imageIndex":7,"items":[{"name":"한국유통","tel":"031-502-9559","addr":"경기도 안산시 상록구 사동 1473-7번지 1층","indutype":"유통업 영리 - 슈퍼마켓","category":"mart"}]},{"lat":"37.2794283163","long":"126.8520467279","imageIndex":7,"items":[{"name":"한국유통","tel":"031-502-9559","addr":"경기도 안산시 상록구 사동 1473-7번지","indutype":"도매 및 소매업 - 슈퍼마켓,담배","category":"mart"}]},{"lat":"37.2797057133","long":"126.8505464997","imageIndex":7,"items":[{"name":"한샘마트","tel":"031-416-4805","addr":"경기도 안산시 상록구 사동 1480-6번지 한샘빌리지","indutype":"도매 및 소매업 - 슈퍼마켓","category":"mart"}]},{"lat":"37.279705713","long":"126.8505465","imageIndex":7,"items":[{"name":"한샘마트","tel":"031-416-4805","addr":"경기도 안산시 상록구 사동 1480-6번지 연번지 102호","indutype":"유통업 영리 - 슈퍼마켓","category":"mart"}]},{"lat":"37.29631661","long":"126.84746789","imageIndex":7,"items":[{"name":"한솔마트","tel":"031-416-7888","addr":"경기도 안산시 상록구 사동 1286-10번지","indutype":"유통업 영리 - 슈퍼마켓","category":"mart"}]},{"lat":"37.2963166097","long":"126.8474678879","imageIndex":7,"items":[{"name":"한솔마트","tel":"031-416-7888","addr":"경기도 안산시 상록구 사동 1286-10번지","indutype":"도매 및 소매업 - 슈퍼마켓","category":"mart"}]},{"lat":"37.299762753","long":"126.85790491","imageIndex":7,"items":[{"name":"한아름공판장","tel":"031-418-3470","addr":"경기도 안산시 상록구 사동 1250번지","indutype":"유통업 영리 - 슈퍼마켓","category":"mart"}]},{"lat":"37.302123042","long":"126.83702278","imageIndex":7,"items":[{"name":"한양슈퍼","tel":"031-415-3820","addr":"경기도 안산시 상록구 사동 1560-7번지","indutype":"유통업 영리 - 슈퍼마켓","category":"mart"}]},{"lat":"37.28142602","long":"126.84321363","imageIndex":7,"items":[{"name":"해안편의점","tel":"031-417-9321","addr":"경기도 안산시 상록구 사동 1497번지 해안프라자 301호","indutype":"유통업 영리 - 슈퍼마켓","category":"mart"},{"name":"해안편의점","tel":"031-417-9321","addr":"경기도 안산시 상록구 사동 1497번지 해안프라자 301호","indutype":"유통업 영리 - 슈퍼마켓","category":"mart"}]},{"lat":"37.29128883","long":"126.85443643","imageIndex":7,"items":[{"name":"현대마트","tel":"031-418-1568","addr":"경기도 안산시 상록구 사동 1343현대2차분산상가101호~102호","indutype":"유통업 영리 - 슈퍼마켓","category":"mart"}]},{"lat":"37.297179431","long":"126.84583075","imageIndex":7,"items":[{"name":"현대슈퍼","tel":"031-407-7651","addr":"경기도 안산시 상록구 사동 1281-6번지","indutype":"유통업 영리 - 슈퍼마켓","category":"mart"}]},{"lat":"37.2971794312","long":"126.8458307510","imageIndex":7,"items":[{"name":"현대슈퍼","tel":"031-407-7651","addr":"경기도 안산시 상록구 사동 1281-6번지","indutype":"도매 및 소매업 - 슈퍼","category":"mart"}]},{"lat":"37.2833455725","long":"126.8503249139","imageIndex":7,"items":[{"name":"홈마트","tel":"031-501-1412","addr":"경기도 안산시 상록구 사동 1413-5번지","indutype":"도매 및 소매업 - 슈퍼마켓,육류,담","category":"mart"}]},{"lat":"37.283345747","long":"126.85046023","imageIndex":7,"items":[{"name":"홈마트","tel":"031-502-1412","addr":"경기도 안산시 상록구 사동 1413-6번지","indutype":"유통업 영리 - 슈퍼마켓","category":"mart"}]},{"lat":"37.302842794","long":"126.84959751","imageIndex":7,"items":[{"name":"홈마트","tel":"031-501-2766","addr":"경기도 안산시 상록구 사동 1186-9번지","indutype":"유통업 영리 - 슈퍼마켓","category":"mart"}]},{"lat":"37.301201167","long":"126.84149127","imageIndex":7,"items":[{"name":"홈할인마트","tel":"031-407-1253","addr":"경기도 안산시 상록구 사동 1171-9번지 제1층 상가","indutype":"유통업 영리 - 슈퍼마켓","category":"mart"}]},{"lat":"37.3012011666","long":"126.8414912695","imageIndex":7,"items":[{"name":"홈할인마트","tel":"031-407-1253","addr":"경기도 안산시 상록구 사동 1171-9번지","indutype":"도매 및 소매업 - 슈퍼","category":"mart"}]},{"lat":"37.285070176","long":"126.84621677","imageIndex":7,"items":[{"name":"홈할인마트","tel":"031-415-1215","addr":"경기도 안산시 상록구 사동 1383-7번지","indutype":"유통업 영리 - 슈퍼마켓","category":"mart"}]}]