[{"lat":"37.752156303","long":"127.06954592","imageIndex":8,"items":[{"name":"365바른한의원","tel":"031-853-3650","addr":"경기도 의정부시 금오동 473-1번지 3층 302,303호","indutype":"의원 - 한의원","category":"medical"},{"name":"서울비뇨기과의원","tel":"031-852-5875","addr":"경기도 의정부시 금오동 473-1플래티넘프라자-1301.401호","indutype":"의원 - 의원","category":"medical"},{"name":"예일마취통증의학과의원","tel":"02-904-4231","addr":"경기도 의정부시 금오동 473-1번지 플레티넘프라자 601호","indutype":"의원 - 의원","category":"medical"},{"name":"현대약국","tel":"031-851-1688","addr":"경기도 의정부시 금오동 473-1번지 플래티넘프라자1 1층 108호","indutype":"약국 - 약국","category":"medical"}]},{"lat":"37.75187695","long":"127.0696478","imageIndex":8,"items":[{"name":"경희하림한의원","tel":"031-812-5211","addr":"경기도 의정부시 금오동 473-2번지 4층 403,404호","indutype":"의원 - 한의원","category":"medical"},{"name":"에이(A)플란트차과의원","tel":"031-852-0028","addr":"경기도 의정부시 금오동 473-2번지 금오삼성플라자 505호","indutype":"의원 - 치과의원","category":"medical"},{"name":"엘의원","tel":"031-853-8840","addr":"경기도 의정부시 금오동 473-2번지 금오삼성플라자 501호","indutype":"의원 - 의원","category":"medical"},{"name":"행복한신경외과의원","tel":"031-852-0220","addr":"경기도 의정부시 금오동 473-2 금오삼성플라자502호~503호","indutype":"의원 - 의원","category":"medical"}]},{"lat":"37.750205978","long":"127.06054619","imageIndex":8,"items":[{"name":"공주한의원","tel":"031-846-6820","addr":"경기도 의정부시 금오동 336-5번지 4층","indutype":"의원 - 한의원","category":"medical"},{"name":"늘좋은치과의원","tel":"031-848-7582","addr":"경기도 의정부시 금오동 336-5번지 3층","indutype":"의원 - 치과의원","category":"medical"}]},{"lat":"37.751426377","long":"127.0698176","imageIndex":8,"items":[{"name":"금오경희한의원","tel":"031-853-0636","addr":"경기도 의정부시 금오동 473-3번지 신세계프라자 402호","indutype":"의원 - 한의원","category":"medical"},{"name":"금오동물병원","tel":"031-826-7582","addr":"경기도 의정부시 금오동 473-3번지 신세계프라자 1층 112호","indutype":"기타의료기관 - 동물병원","category":"medical"},{"name":"멘파워비뇨기과의원","tel":"031-851-6400","addr":"경기도 의정부시 금오동 473-3번지 신세계프라자 605호","indutype":"의원 - 의원","category":"medical"},{"name":"미래소아과의원","tel":"031-853-1513","addr":"경기도 의정부시 금오동 473-3번지 신세계프라자 404호","indutype":"의원 - 의원","category":"medical"},{"name":"샤인365의원","tel":"031-851-7365","addr":"경기도 의정부시 금오동 473-3번지 신세계프라자 301호","indutype":"의원 - 의원","category":"medical"},{"name":"서울안과","tel":"031-851-6060","addr":"경기도 의정부시 금오동 473-3번지 신세계프라자 602호","indutype":"의원 - 의원","category":"medical"},{"name":"성모사랑정신건강의학과의원","tel":"031-928-6020","addr":"경기도 의정부시 금오동 473-3번지 신세계프라자 6층 604호","indutype":"의원 - 의원","category":"medical"},{"name":"순수미피부과의원","tel":"031-853-1577","addr":"경기도 의정부시 금오동 473-3번지 신세계프라자","indutype":"의원 - 의원","category":"medical"},{"name":"연세웰치과의원","tel":"031-852-2889","addr":"경기도 의정부시 금오동 473-3번지 신세계프라자 504호","indutype":"의원 - 치과의원","category":"medical"},{"name":"우리들이비인후과","tel":"031-853-0671","addr":"경기도 의정부시 금오동 473-3번지 신세계프라자 502호","indutype":"의원 - 의원","category":"medical"},{"name":"주니어치과의원","tel":"031-853-2833","addr":"경기도 의정부시 금오동 473-3번지 신세계프라자 601호","indutype":"의원 - 치과의원","category":"medical"},{"name":"진내과의원","tel":"031-853-1266","addr":"경기도 의정부시 금오동 473-3번지","indutype":"의원 - 의원","category":"medical"},{"name":"진정형외과의원","tel":"031-853-1266","addr":"경기도 의정부시 금오동 473-3번지 신세계프라자502,503","indutype":"의원 - 의원","category":"medical"}]},{"lat":"37.756206625","long":"127.07623334","imageIndex":8,"items":[{"name":"금오우리치과의원","tel":"031-848-2812","addr":"경기도 의정부시 금오동 453-2번지 외1필지지상 4층","indutype":"의원 - 치과의원","category":"medical"}]},{"lat":"37.754065344","long":"127.07126109","imageIndex":8,"items":[{"name":"금오정문약국","tel":"031-847-7665","addr":"경기도 의정부시 금오동 447-7번지","indutype":"약국 - 약국","category":"medical"}]},{"lat":"37.752065384","long":"127.07098692","imageIndex":8,"items":[{"name":"도그플러스동물병원","tel":"031-851-7373","addr":"경기도 의정부시 금오동 475-1번지 홈플러스 4층 도그플러스동물병원","indutype":"기타의료기관 - 동물병원","category":"medical"},{"name":"플러스약국","tel":"031-850-8231","addr":"경기도 의정부시 금오동 475-1번지 홈플러스 2층","indutype":"약국 - 약국","category":"medical"}]},{"lat":"37.757703384","long":"127.07431702","imageIndex":8,"items":[{"name":"동양경희한의원","tel":"031-841-0906","addr":"경기도 의정부시 금오동 80-19번지 이롬프라자 204호","indutype":"의원 - 한의원","category":"medical"},{"name":"햇살온누리약국","tel":"031-846-2199","addr":"경기도 의정부시 금오동 80-19번지 이롬프라자 107호","indutype":"약국 - 약국","category":"medical"},{"name":"행복한서울의원","tel":"031-821-7581","addr":"경기도 의정부시 금오동 80-19번지 이롬프라자 203호","indutype":"의원 - 의원","category":"medical"}]},{"lat":"37.751093681","long":"127.06864857","imageIndex":8,"items":[{"name":"서울드림치과의원","tel":"031-853-2755","addr":"경기도 의정부시 금오동 471-4번지 현대프라자 3층 303호","indutype":"의원 - 치과의원","category":"medical"}]},{"lat":"37.751264378","long":"127.06951108","imageIndex":8,"items":[{"name":"서울바른치과교정과치과의원","tel":"031-852-8575","addr":"경기도 의정부시 금오동 473-4번지 플래티넘프라자 401호","indutype":"의원 - 치과의원","category":"medical"},{"name":"소명의원","tel":"031-853-9503","addr":"경기도 의정부시 금오동 473-4번지 플래티넘프라자 3층 303호,340호","indutype":"의원 - 의원","category":"medical"},{"name":"원광한약국","tel":"031-852-5677","addr":"경기도 의정부시 금오동 473-4번지 외1필지플래티넘프라자2 104호","indutype":"약국 - 약국","category":"medical"}]},{"lat":"37.752822492","long":"127.07045429","imageIndex":8,"items":[{"name":"서정동물메디컬센터","tel":"031-851-0901","addr":"경기도 의정부시 금오동 474-2번지 대송프라자","indutype":"기타의료기관 - 동물병원","category":"medical"},{"name":"함소아한의원","tel":"031-928-6788","addr":"경기도 의정부시 금오동 474-2번지 대송프라자 8층 801호","indutype":"의원 - 한의원","category":"medical"}]},{"lat":"37.757538506","long":"127.07865176","imageIndex":8,"items":[{"name":"성모드림약국","tel":"031-848-2365","addr":"경기도 의정부시 금오동 60-10번지","indutype":"약국 - 약국","category":"medical"}]},{"lat":"37.757763708","long":"127.07870873","imageIndex":8,"items":[{"name":"성바오로약국","tel":"031-821-7582","addr":"경기도 의정부시 금오동 62-4번지 1층 일부","indutype":"약국 - 약국","category":"medical"}]},{"lat":"37.753239018","long":"127.06671009","imageIndex":8,"items":[{"name":"심마니 약초꾼","tel":"031-841-1012","addr":"경기도 의정부시 금오동 216번지 1층 좌측","indutype":"약국 - 한약방","category":"medical"}]},{"lat":"37.752903402","long":"127.07076074","imageIndex":8,"items":[{"name":"아이누리한의원","tel":"031-853-2365","addr":"경기도 의정부시 금오동 474-3번지 세하메디칼스타201호,208호","indutype":"의원 - 한의원","category":"medical"},{"name":"아이엠요양병원","tel":"","addr":"경기도 의정부시 금오동 474-3번지","indutype":"병원 - 병원","category":"medical"}]},{"lat":"37.747900521","long":"127.0584907","imageIndex":8,"items":[{"name":"유명약국","tel":"070-8845-3718","addr":"경기도 의정부시 금오동 463-2번지 거성빌딩 105호","indutype":"약국 - 약국","category":"medical"}]},{"lat":"37.752732585","long":"127.07012515","imageIndex":8,"items":[{"name":"정약국","tel":"031-853-2624","addr":"경기도 의정부시 금오동 474-1번지 금오플러스빌딩 1층 108호","indutype":"약국 - 약국","category":"medical"}]}]