[{"lat":"37.324705346","long":"126.94448385","imageIndex":13,"items":[{"name":"(주)28솔루션덴탈랩","tel":"031-394-2830","addr":"경기도 군포시 부곡동 1120-1번지 거성프라자 402호","indutype":"보건위생 - 의료용품","category":"beauty"},{"name":"정성치과기공소","tel":"03-124-1280","addr":"경기도 군포시 부곡동 1120-1번지 거성프라자1 402호","indutype":"보건위생 - 의료용품","category":"beauty"}]},{"lat":"37.33088252","long":"126.93720128","imageIndex":13,"items":[{"name":"(주)까메코리아(CAME KOREA)","tel":"032-224-0707","addr":"경기도 군포시 부곡동 451번지 4층 한국복합물류(주)","indutype":"보건위생 - 미용재료","category":"beauty"}]},{"lat":"37.335196099","long":"126.9331804","imageIndex":13,"items":[{"name":"(주)유스타앤코","tel":"070-7802-1550","addr":"경기도 군포시 부곡동 1192번지 상훈오피스텔 217호","indutype":"보건위생 - 화장품","category":"beauty"}]},{"lat":"37.337089059","long":"126.93458919","imageIndex":13,"items":[{"name":"GANZI HAIR (간지헤어)","tel":"031-399-7770","addr":"경기도 군포시 부곡동 1216-3번지 1층","indutype":"보건위생 - 미용원","category":"beauty"}]},{"lat":"37.321956359","long":"126.94273726","imageIndex":13,"items":[{"name":"가위소리","tel":"031-461-5353","addr":"경기도 군포시 부곡동 1134-6번지","indutype":"보건위생 - 미용원","category":"beauty"}]},{"lat":"37.322343242","long":"126.94165387","imageIndex":13,"items":[{"name":"군포부곡내태후사랑염색방","tel":"031-462-1554","addr":"경기도 군포시 부곡동 1133-1번지","indutype":"보건위생 - 화장품","category":"beauty"}]},{"lat":"37.322506033","long":"126.94283836","imageIndex":13,"items":[{"name":"김경민헤어","tel":"031-462-1284","addr":"경기도 군포시 부곡동 1130-3번지","indutype":"보건위생 - 미용원","category":"beauty"}]},{"lat":"37.323047752","long":"126.94506053","imageIndex":13,"items":[{"name":"김선미헤어","tel":"031-893-6867","addr":"경기도 군포시 부곡동 1137번지 휴먼시아 상가 101호","indutype":"보건위생 - 미용원","category":"beauty"}]},{"lat":"37.336755264","long":"126.9338673","imageIndex":13,"items":[{"name":"꽃잎헤어","tel":"031-395-1551","addr":"경기도 군포시 부곡동 1214-5번지 102호","indutype":"보건위생 - 미용원","category":"beauty"}]},{"lat":"37.337475527","long":"126.93293004","imageIndex":13,"items":[{"name":"너와네일","tel":"070-4686-9412","addr":"경기도 군포시 부곡동 1210-2번지 1층 3호","indutype":"보건위생 - 피부미용실","category":"beauty"}]},{"lat":"37.337088382","long":"126.93342691","imageIndex":13,"items":[{"name":"네일스토리","tel":"031-391-2123","addr":"경기도 군포시 부곡동 1214-1번지 1층 103호","indutype":"보건위생 - 피부미용실","category":"beauty"}]},{"lat":"37.337314333","long":"126.93462284","imageIndex":13,"items":[{"name":"네일엔젤","tel":"031-392-1508","addr":"경기도 군포시 부곡동 1216-5번지 101호","indutype":"보건위생 - 피부미용실","category":"beauty"}]},{"lat":"37.337142377","long":"126.93331401","imageIndex":13,"items":[{"name":"머리맛집","tel":"031-393-5567","addr":"경기도 군포시 부곡동 1214번지 1층 02호","indutype":"보건위생 - 미용원","category":"beauty"}]},{"lat":"37.335953456","long":"126.9340373","imageIndex":13,"items":[{"name":"보다안경원 군포점","tel":"","addr":"경기도 군포시 부곡동 1195번지 1층 108,109호","indutype":"보건위생 - 안경","category":"beauty"},{"name":"보다안경원군포점","tel":"031-391-1016","addr":"경기도 군포시 부곡동 1195번지 1층 108,109호","indutype":"보건위생 - 안경","category":"beauty"},{"name":"준헤어","tel":"031-396-8260","addr":"경기도 군포시 부곡동 1195번지 해피시티 104호","indutype":"보건위생 - 미용원","category":"beauty"}]},{"lat":"37.321650349","long":"126.94340314","imageIndex":13,"items":[{"name":"본안경","tel":"070-4220-0908","addr":"경기도 군포시 부곡동 1142-1번지 101호,102호","indutype":"보건위생 - 안경","category":"beauty"},{"name":"엘린헤어","tel":"031-461-7177","addr":"경기도 군포시 부곡동 1142-1번지","indutype":"보건위생 - 미용원","category":"beauty"}]},{"lat":"37.321894407","long":"126.94498244","imageIndex":13,"items":[{"name":"비앤에이","tel":"031-461-4630","addr":"경기도 군포시 부곡동 1141-1번지","indutype":"보건위생 - 미용원","category":"beauty"}]},{"lat":"37.322119268","long":"126.94418124","imageIndex":13,"items":[{"name":"상남자","tel":"031-462-2850","addr":"경기도 군포시 부곡동 1140-1번지 103호","indutype":"보건위생 - 이용원","category":"beauty"}]},{"lat":"37.325425003","long":"126.94218165","imageIndex":13,"items":[{"name":"샤인헤어","tel":"031-461-7896","addr":"경기도 군포시 부곡동 1253-3번지 1층 102호","indutype":"보건위생 - 미용원","category":"beauty"}]},{"lat":"37.336918061","long":"126.93492788","imageIndex":13,"items":[{"name":"슈에뜨","tel":"031-394-2227","addr":"경기도 군포시 부곡동 1218-2번지 노블타워 4층 401호","indutype":"보건위생 - 피부미용실","category":"beauty"}]},{"lat":"37.337251657","long":"126.93531124","imageIndex":13,"items":[{"name":"스터디센터","tel":"031-399-7988","addr":"경기도 군포시 부곡동 1218번지 드림스마트타운 202,203호","indutype":"보건위생 - 기타대인서비스","category":"beauty"},{"name":"컴퍼니에이치","tel":"031-397-2400","addr":"경기도 군포시 부곡동 1218번지 드림스마트타운 2층 201호","indutype":"보건위생 - 화장품","category":"beauty"}]},{"lat":"37.337259886","long":"126.93395711","imageIndex":13,"items":[{"name":"아인스","tel":"031-398-3440","addr":"경기도 군포시 부곡동 1215-9번지 1층 102호 상가","indutype":"보건위생 - 미용원","category":"beauty"},{"name":"커머스","tel":"031-398-3440","addr":"경기도 군포시 부곡동 1215-9번지 1층","indutype":"보건위생 - 미용원","category":"beauty"}]},{"lat":"37.33761957","long":"126.93272679","imageIndex":13,"items":[{"name":"엘린","tel":"","addr":"경기도 군포시 부곡동 1210번지 문하우스 101호","indutype":"보건위생 - 미용원","category":"beauty"}]},{"lat":"37.337537277","long":"126.93072952","imageIndex":13,"items":[{"name":"올가스킨","tel":"","addr":"경기도 군포시 부곡동 1201번지 삼성마을4단지 상가동 101호","indutype":"보건위생 - 화장품","category":"beauty"},{"name":"와이샵헤어","tel":"031-398-8053","addr":"경기도 군포시 부곡동 1201번지 삼성마을4단지 상가동 1층 102호","indutype":"보건위생 - 미용원","category":"beauty"}]},{"lat":"37.32537061","long":"126.94153859","imageIndex":13,"items":[{"name":"이제이네일","tel":"031-461-5959","addr":"경기도 군포시 부곡동 1251-2번지 101호","indutype":"보건위생 - 피부미용실","category":"beauty"}]},{"lat":"37.321011341","long":"126.94484773","imageIndex":13,"items":[{"name":"주식회사 선호메딕스","tel":"031-461-0606","addr":"경기도 군포시 부곡동 1141-4번지 부일빌딩 406호","indutype":"보건위생 - 의료용품","category":"beauty"},{"name":"주식회사 제이피메디칼","tel":"031-689-5789","addr":"경기도 군포시 부곡동 1141-4번지 부일빌딩 305호","indutype":"보건위생 - 화장품","category":"beauty"}]},{"lat":"37.323646712","long":"126.93609063","imageIndex":13,"items":[{"name":"주식회사 알파메디칼","tel":"031-461-8780","addr":"경기도 군포시 부곡동 1091-2번지 1층 101호","indutype":"보건위생 - 의료용품","category":"beauty"}]},{"lat":"37.336809567","long":"126.93428477","imageIndex":13,"items":[{"name":"코코","tel":"031-399-1215","addr":"경기도 군포시 부곡동 1215-5번지 103호","indutype":"보건위생 - 화장품","category":"beauty"}]},{"lat":"37.323658432","long":"126.9410774","imageIndex":13,"items":[{"name":"하나뷰티라인","tel":"02-419-0045","addr":"경기도 군포시 부곡동 1098번지 휴먼시아","indutype":"보건위생 - 화장품","category":"beauty"}]},{"lat":"37.337224309","long":"126.93475834","imageIndex":13,"items":[{"name":"헤어7번가","tel":"031-391-7721","addr":"경기도 군포시 부곡동 1216-4번지 101호","indutype":"보건위생 - 미용원","category":"beauty"}]},{"lat":"37.323178073","long":"126.93589924","imageIndex":13,"items":[{"name":"헤어다온","tel":"031-461-1259","addr":"경기도 군포시 부곡동 1092-3번지 1층 102호","indutype":"보건위생 - 미용원","category":"beauty"}]},{"lat":"37.321343917","long":"126.94323416","imageIndex":13,"items":[{"name":"힐링헤어샵","tel":"031-461-2727","addr":"경기도 군포시 부곡동 1142-3번지 101호","indutype":"보건위생 - 미용원","category":"beauty"}]}]