[{"lat":"37.343765239","long":"127.49204305","imageIndex":17,"items":[{"name":"SG골프이여로점","tel":"031-631-0270","addr":"경기도 여주시 흥천면 외사리 244-2번지 호","indutype":"레져용품 - 스포츠·레져용품","category":"other"},{"name":"가구아울렛","tel":"031-631-2921","addr":"경기도 여주시 흥천면 외사리 244-2번지","indutype":"가구 - 일반가구","category":"other"}]},{"lat":"37.348571915","long":"127.48881259","imageIndex":17,"items":[{"name":"견사월드","tel":"031-633-0379","addr":"경기도 여주시 흥천면 외사리 619번지","indutype":"문화.취미 - 애완동물","category":"other"}]},{"lat":"37.348653483","long":"127.49523482","imageIndex":17,"items":[{"name":"마음을 품은 식물","tel":"031-635-2000","addr":"경기도 여주시 흥천면 외사리 310-1번지","indutype":"문화.취미 - 화원","category":"other"}]},{"lat":"37.347625516","long":"127.49543125","imageIndex":17,"items":[{"name":"미루공방","tel":"031-633-5189","addr":"경기도 여주시 흥천면 외사리 291-13번지","indutype":"문화.취미 - 민예·공예품","category":"other"}]},{"lat":"37.342101868","long":"127.49337517","imageIndex":17,"items":[{"name":"백흥농약사","tel":"031-634-3208","addr":"경기도 여주시 흥천면 외사리 231-4번지","indutype":"농업 - 비료,사료,종자","category":"other"}]},{"lat":"37.344658323","long":"127.49395606","imageIndex":17,"items":[{"name":"세븐일레븐여주흥천본점","tel":"031-1577-0711","addr":"경기도 여주시 흥천면 외사리 280-11번지","indutype":"유통업 영리 - 편 의 점","category":"other"}]},{"lat":"37.349685248","long":"127.49412424","imageIndex":17,"items":[{"name":"신흥종합농기사","tel":"031-634-4884","addr":"경기도 여주시 흥천면 외사리 349번지","indutype":"농업 - 농기계","category":"other"}]},{"lat":"37.344461843","long":"127.49570401","imageIndex":17,"items":[{"name":"에프엠이벤트기획","tel":"031-635-1969","addr":"경기도 여주시 흥천면 외사리 278-1번지","indutype":"용역 서비스 - 종합용역","category":"other"}]},{"lat":"37.352962072","long":"127.49912297","imageIndex":17,"items":[{"name":"여주사무용가구","tel":"031-631-7739","addr":"경기도 여주시 흥천면 외사리 14-1번지","indutype":"가구 - 기타가구","category":"other"},{"name":"주식회사 쏘포유","tel":"031-8011-0099","addr":"경기도 여주시 흥천면 외사리 14-1번지","indutype":"가구 - 일반가구","category":"other"}]},{"lat":"37.353260009","long":"127.50112267","imageIndex":17,"items":[{"name":"제일쇼파","tel":"031-636-1172","addr":"경기도 여주시 흥천면 외사리 9-3번지","indutype":"수리서비스 - 가정용품수리","category":"other"}]},{"lat":"37.352347247","long":"127.49748238","imageIndex":17,"items":[{"name":"팡팡이벤트","tel":"031-633-5852","addr":"경기도 여주시 흥천면 외사리 68-3번지","indutype":"용역 서비스 - 종합용역","category":"other"}]},{"lat":"37.350402","long":"127.49509952","imageIndex":17,"items":[{"name":"평화산업","tel":"031-631-8935","addr":"경기도 여주시 흥천면 외사리 367-3번지","indutype":"건축자재 - 기타건축자재","category":"other"}]},{"lat":"37.347735899","long":"127.48834448","imageIndex":17,"items":[{"name":"피부환경","tel":"031-633-0511","addr":"경기도 여주시 흥천면 외사리 485-1번지","indutype":"회원제형태 - 기타1","category":"other"}]},{"lat":"37.348458505","long":"127.49445482","imageIndex":17,"items":[{"name":"한양부동산","tel":"031-631-5877","addr":"경기도 여주시 흥천면 외사리 342번지","indutype":"회원제형태 - 기타4","category":"other"}]},{"lat":"37.342013874","long":"127.49286677","imageIndex":4,"items":[{"name":"가반대구막창","tel":"031-632-8702","addr":"경기도 여주시 흥천면 외사리 237-3번지","indutype":"일반휴게음식 - 일반한식","category":"restaurant"},{"name":"남한강 민물장어","tel":"031-632-8702","addr":"경기도 여주시 흥천면 외사리 237-3번지","indutype":"일반휴게음식 - 일반한식","category":"restaurant"},{"name":"수산시장","tel":"031-631-3774","addr":"경기도 여주시 흥천면 외사리 237-3번지","indutype":"일반휴게음식 - 일식·회집","category":"restaurant"}]},{"lat":"37.344233595","long":"127.494258","imageIndex":4,"items":[{"name":"금반향숯불갈비","tel":"031-632-0333","addr":"경기도 여주시 흥천면 외사리 278-3번지","indutype":"일반휴게음식 - 갈비전문점","category":"restaurant"}]},{"lat":"37.341680369","long":"127.49289846","imageIndex":4,"items":[{"name":"노다지","tel":"031-635-8828","addr":"경기도 여주시 흥천면 외사리 237-5번지","indutype":"일반휴게음식 - 일반한식","category":"restaurant"},{"name":"도깨비포차","tel":"031-635-2955","addr":"경기도 여주시 흥천면 외사리 237-5번지","indutype":"일반휴게음식 - 주점","category":"restaurant"}]},{"lat":"37.354098978","long":"127.5030131","imageIndex":4,"items":[{"name":"석성가든","tel":"031-634-5883","addr":"경기도 여주시 흥천면 외사리 2-1번지","indutype":"일반휴게음식 - 일반한식","category":"restaurant"}]},{"lat":"37.35162635","long":"127.49534453","imageIndex":4,"items":[{"name":"석화촌","tel":"031-632-2599","addr":"경기도 여주시 흥천면 외사리 362-3번지","indutype":"일반휴게음식 - 일반한식","category":"restaurant"}]},{"lat":"37.345178972","long":"127.49442216","imageIndex":4,"items":[{"name":"에이(A)카페","tel":"","addr":"경기도 여주시 흥천면 외사리 280-7번지","indutype":"일반휴게음식 - 서양음식","category":"restaurant"},{"name":"커피스토리(coffee story)","tel":"031-631-8428","addr":"경기도 여주시 흥천면 외사리 280-7번지","indutype":"일반휴게음식 - 서양음식","category":"restaurant"}]},{"lat":"37.344658323","long":"127.49395606","imageIndex":4,"items":[{"name":"에이카페 A Cafe","tel":"","addr":"경기도 여주시 흥천면 외사리 280-11번지","indutype":"일반휴게음식 - 서양음식","category":"restaurant"},{"name":"조개칼국수","tel":"031-631-0319","addr":"경기도 여주시 흥천면 외사리 280-11번지","indutype":"일반휴게음식 - 스넥","category":"restaurant"},{"name":"흑돼지여행","tel":"031-634-4834","addr":"경기도 여주시 흥천면 외사리 280-11번지 2층","indutype":"일반휴게음식 - 일반한식","category":"restaurant"}]},{"lat":"37.343906802","long":"127.4948427","imageIndex":4,"items":[{"name":"옛고을","tel":"031-633-3420","addr":"경기도 여주시 흥천면 외사리 275-5번지","indutype":"일반휴게음식 - 일반한식","category":"restaurant"}]},{"lat":"37.34445931","long":"127.49414662","imageIndex":4,"items":[{"name":"쭈꾸미철판구이","tel":"031-631-9779","addr":"경기도 여주시 흥천면 외사리 279번지","indutype":"일반휴게음식 - 일반한식","category":"restaurant"}]},{"lat":"37.34442753","long":"127.49311945","imageIndex":4,"items":[{"name":"푸주옥","tel":"031-631-3460","addr":"경기도 여주시 흥천면 외사리 247-1번지","indutype":"일반휴게음식 - 일반한식","category":"restaurant"}]},{"lat":"37.343706614","long":"127.49531538","imageIndex":4,"items":[{"name":"함즈뽕","tel":"031-631-4302","addr":"경기도 여주시 흥천면 외사리 274-4번지","indutype":"일반휴게음식 - 중국식","category":"restaurant"}]},{"lat":"37.347070695","long":"127.49668035","imageIndex":16,"items":[{"name":"로뎀어린이집[아이행복]","tel":"031-632-4282","addr":"경기도 여주시 흥천면 외사리 301-2번지","indutype":"학원 - 유아원","category":"study"}]},{"lat":"37.342235477","long":"127.49157044","imageIndex":5,"items":[{"name":"수궁장여관","tel":"031-632-4960","addr":"경기도 여주시 흥천면 외사리 237-5번지","indutype":"숙박업 - 여관/기타숙박업","category":"hotel"}]},{"lat":"37.342487334","long":"127.49167364","imageIndex":9,"items":[{"name":"안전상사","tel":"031-2277-0011","addr":"경기도 여주시 흥천면 외사리 238-2번지","indutype":"연료판매점 - LPG 취급점","category":"oil"}]}]