[{"lat":"37.46370941","long":"126.81257914","imageIndex":16,"items":[{"name":"e해법수학 부천옥길자이점","tel":"","addr":"경기도 부천시 옥길동 776-1번지 부천옥길자이 101동 1603호","indutype":"학원 - 기타 교육기관","category":"study"},{"name":"개인과외","tel":"","addr":"경기도 부천시 옥길동 776-1번지 부천옥길자이 102동 304호","indutype":"학원 - 기타 교육기관","category":"study"},{"name":"뮤엠영어옥길자이 영어교습소","tel":"02-6403-1555","addr":"경기도 부천시 옥길동 776-1번지 자이상가 1층 102호","indutype":"학원 - 외국어학원","category":"study"}]},{"lat":"37.464350686","long":"126.82515821","imageIndex":16,"items":[{"name":"개인과외","tel":"","addr":"경기도 부천시 옥길동 747-1번지 엘에이치옥길헤일라움 405동 502호","indutype":"학원 - 기타 교육기관","category":"study"},{"name":"라라음악교습소","tel":"","addr":"경기도 부천시 옥길동 747-1번지 엘에이치옥길헤일라움 상가동 102호","indutype":"학원 - 예·체능계학원","category":"study"},{"name":"크리아트","tel":"031-000-0000","addr":"경기도 부천시 옥길동 747-1번지 엘에이치옥길헤일라움 407동 2003호","indutype":"학원 - 예·체능계학원","category":"study"}]},{"lat":"37.464957462","long":"126.82723662","imageIndex":16,"items":[{"name":"경희대석사 슈퍼키즈 태권도장","tel":"032-345-0079","addr":"경기도 부천시 옥길동 739-1번지 2단지 207~209호 제이드카운티","indutype":"학원 - 예·체능계학원","category":"study"},{"name":"예솔음악학원","tel":"032-345-3375","addr":"경기도 부천시 옥길동 739-1번지 제이드카운티2단지 2층 204,205,206호","indutype":"학원 - 예·체능계학원","category":"study"},{"name":"플레이에듀","tel":"02-851-5025","addr":"경기도 부천시 옥길동 739-1번지 제이드카운티2단지 205동 201호","indutype":"학원 - 기타 교육기관","category":"study"}]},{"lat":"37.468824549","long":"126.82245725","imageIndex":16,"items":[{"name":"공부방","tel":"","addr":"경기도 부천시 옥길동 732-1번지 202호","indutype":"학원 - 기타 교육기관","category":"study"}]},{"lat":"37.467680287","long":"126.82246","imageIndex":16,"items":[{"name":"공터영어옥길센터보습학원","tel":"032-344-1747","addr":"경기도 부천시 옥길동 726-2번지 씨티프라자 401호","indutype":"학원 - 보습학원","category":"study"},{"name":"쎈수학러닝센터옥길정수학보습학원","tel":"070-4195-5753","addr":"경기도 부천시 옥길동 726-2번지 씨티프라자 503호","indutype":"학원 - 보습학원","category":"study"},{"name":"엠티에이태권도","tel":"032-346-0010","addr":"경기도 부천시 옥길동 726-2번지 601-603호","indutype":"학원 - 예·체능계학원","category":"study"},{"name":"옥길EiE(이아이이)어학원","tel":"032-721-5106","addr":"경기도 부천시 옥길동 726-2번지 301호,302호","indutype":"학원 - 외국어학원","category":"study"},{"name":"올리브멜로디음악미술학원","tel":"031-341-9211","addr":"경기도 부천시 옥길동 726-2번지 시티프라자 501호","indutype":"학원 - 예·체능계학원","category":"study"},{"name":"차수학뉴턴보습학원","tel":"032-342-0570","addr":"경기도 부천시 옥길동 726-2번지 씨티프라자 4층 402호","indutype":"학원 - 보습학원","category":"study"},{"name":"해냄마인드케어센터","tel":"00-1644-7907","addr":"경기도 부천시 옥길동 726-2번지 씨티프라자 403호","indutype":"학원 - 기타 교육기관","category":"study"}]},{"lat":"37.466483703","long":"126.82360455","imageIndex":16,"items":[{"name":"그랜드음악학원","tel":"032-344-4333","addr":"경기도 부천시 옥길동 744-2번지 이에스타워 602호","indutype":"학원 - 예·체능계학원","category":"study"},{"name":"리브로아르츠미술학원","tel":"031-0000-0000","addr":"경기도 부천시 옥길동 744-2번지 이에스타워 3층 303호","indutype":"학원 - 예·체능계학원","category":"study"},{"name":"명품수학교습소","tel":"032-341-0331","addr":"경기도 부천시 옥길동 744-2번지 이에스타워 405호","indutype":"학원 - 보습학원","category":"study"},{"name":"명품영어교습소","tel":"032-000-0000","addr":"경기도 부천시 옥길동 744-2번지 이에스타워 405호","indutype":"학원 - 외국어학원","category":"study"},{"name":"샘미술교습소","tel":"032-342-2250","addr":"경기도 부천시 옥길동 744-2번지 이에스타워 7층 704호","indutype":"학원 - 예·체능계학원","category":"study"},{"name":"스터디모드보습학원","tel":"032-343-9876","addr":"경기도 부천시 옥길동 744-2번지 이에스타워 702호","indutype":"학원 - 보습학원","category":"study"},{"name":"연세포디움보습학원","tel":"","addr":"경기도 부천시 옥길동 744-2번지 이에스타워 301,304호","indutype":"학원 - 보습학원","category":"study"},{"name":"용인대인성태권도","tel":"031-111-1111","addr":"경기도 부천시 옥길동 744-2번지 ES타워 6층 601,604호","indutype":"학원 - 예·체능계학원","category":"study"},{"name":"이투스(ETOOS)수학보습학원","tel":"032-341-2033","addr":"경기도 부천시 옥길동 744-2번지 이에스타워 7층 703호","indutype":"학원 - 보습학원","category":"study"},{"name":"정독서논술보습학원","tel":"032-348-8958","addr":"경기도 부천시 옥길동 744-2번지 이에스타워 701호","indutype":"학원 - 보습학원","category":"study"},{"name":"제이비 잉글리쉬 보습학원","tel":"032-345-0579","addr":"경기도 부천시 옥길동 744-2번지 이에스타워 201호","indutype":"학원 - 보습학원","category":"study"},{"name":"조선생에듀보습학원","tel":"032-346-5002","addr":"경기도 부천시 옥길동 744-2번지","indutype":"학원 - 보습학원","category":"study"},{"name":"퍼펙트리딩영어교습소","tel":"031-000-0000","addr":"경기도 부천시 옥길동 744-2번지 이에스타워 4층 404호","indutype":"학원 - 외국어학원","category":"study"},{"name":"프라임영수보습학원","tel":"032-348-0108","addr":"경기도 부천시 옥길동 744-2번지 이에스타워 603호","indutype":"학원 - 보습학원","category":"study"},{"name":"해법수학교실수학교습소","tel":"032-343-0689","addr":"경기도 부천시 옥길동 744-2번지 이에스타워 605호","indutype":"학원 - 보습학원","category":"study"}]},{"lat":"37.462069729","long":"126.81266241","imageIndex":16,"items":[{"name":"꼼꼼이 한자 교습소","tel":"","addr":"경기도 부천시 옥길동 777-4번지 서영아너시티 213호","indutype":"학원 - 보습학원","category":"study"},{"name":"벨라어학원","tel":"032-346-0085","addr":"경기도 부천시 옥길동 777-4번지 서영아너시티 304,305호","indutype":"학원 - 외국어학원","category":"study"},{"name":"삼성영어최강수학보습학원","tel":"","addr":"경기도 부천시 옥길동 777-4번지 서영아너시티 306호","indutype":"학원 - 보습학원","category":"study"},{"name":"옥길 탑 수학학원","tel":"032-347-0102","addr":"경기도 부천시 옥길동 777-4번지 서영아너시티1차 3층 302호","indutype":"학원 - 보습학원","category":"study"},{"name":"옥길비상영어학원","tel":"032-322-0503","addr":"경기도 부천시 옥길동 777-4번지 서영아너시티 1동 3층 303호 비상잉글리시아이","indutype":"학원 - 보습학원","category":"study"},{"name":"옥길해법수학보습학원","tel":"032-641-7337","addr":"경기도 부천시 옥길동 777-4번지 서영아너시티 311호","indutype":"학원 - 보습학원","category":"study"}]},{"lat":"37.466293721","long":"126.82309634","imageIndex":16,"items":[{"name":"꿈 그리는 아이","tel":"032-342-8664","addr":"경기도 부천시 옥길동 744-3번지 7층 712호","indutype":"학원 - 예·체능계학원","category":"study"},{"name":"수학여우수학교습소","tel":"","addr":"경기도 부천시 옥길동 744-3번지 805호","indutype":"학원 - 보습학원","category":"study"},{"name":"알렌음악교습소","tel":"032-347-0409","addr":"경기도 부천시 옥길동 744-3번지 4층 409호","indutype":"학원 - 예·체능계학원","category":"study"},{"name":"옥길C&C(씨앤씨)미술학원","tel":"032-345-7172","addr":"경기도 부천시 옥길동 744-3번지 8층 812호 및 813호","indutype":"학원 - 예·체능계학원","category":"study"},{"name":"피아노치는고양이음악학원","tel":"032-345-7985","addr":"경기도 부천시 옥길동 744-3번지 808호,809호,810호","indutype":"학원 - 예·체능계학원","category":"study"}]},{"lat":"37.462574285","long":"126.81266113","imageIndex":16,"items":[{"name":"나디아잉글리쉬보습학원","tel":"032-343-7905","addr":"경기도 부천시 옥길동 777-1번지 1동 2층 208호","indutype":"학원 - 보습학원","category":"study"},{"name":"옥길소리엘음악학원","tel":"032-345-2330","addr":"경기도 부천시 옥길동 777-1번지 2층 206호","indutype":"학원 - 예·체능계학원","category":"study"},{"name":"용인대 금메달 브레인 태권도","tel":"032-343-1152","addr":"경기도 부천시 옥길동 777-1번지 헤리움타운 207호","indutype":"학원 - 예·체능계학원","category":"study"}]},{"lat":"37.468963745","long":"126.81923524","imageIndex":16,"items":[{"name":"나폴나폴","tel":"","addr":"경기도 부천시 옥길동 710-2번지","indutype":"학원 - 예·체능계학원","category":"study"}]},{"lat":"37.467436673","long":"126.8222345","imageIndex":16,"items":[{"name":"노마드영재보습학원","tel":"032-346-0507","addr":"경기도 부천시 옥길동 726-3번지 제일프라자 601호","indutype":"학원 - 보습학원","category":"study"},{"name":"루나무용학원","tel":"032-346-8999","addr":"경기도 부천시 옥길동 726-3번지 제일프라자 502호","indutype":"학원 - 예·체능계학원","category":"study"},{"name":"뮤엠옥길캠퍼스영어보습학원","tel":"032-344-2767","addr":"경기도 부천시 옥길동 726-3번지 제일프라자 602호","indutype":"학원 - 보습학원","category":"study"}]},{"lat":"37.462929396","long":"126.82074202","imageIndex":16,"items":[{"name":"덴스토리자매공부방","tel":"","addr":"경기도 부천시 옥길동 751-1번지 엘에이치옥길브리즈힐 605동 505호","indutype":"학원 - 기타 교육기관","category":"study"},{"name":"라온공부방","tel":"032-343-6489","addr":"경기도 부천시 옥길동 751-1번지 엘에이치옥길브리즈힐 610동 105호","indutype":"학원 - 기타 교육기관","category":"study"},{"name":"베스트수학","tel":"032-661-1332","addr":"경기도 부천시 옥길동 751-1번지 엘에이치옥길브리즈힐 608동 1802호","indutype":"학원 - 기타 교육기관","category":"study"},{"name":"브리즈힐영어교실","tel":"070-7358-0904","addr":"경기도 부천시 옥길동 751-1번지 엘에이치옥길브리즈힐 610동 601호","indutype":"학원 - 기타 교육기관","category":"study"},{"name":"옥길 이스턴 영어","tel":"032-323-1605","addr":"경기도 부천시 옥길동 751-1번지 엘에이치옥길브리즈힐 601동 401호","indutype":"학원 - 기타 교육기관","category":"study"},{"name":"옥길에이플러스","tel":"032-529-2460","addr":"경기도 부천시 옥길동 751-1번지 엘에이치옥길브리즈힐 603동 302호","indutype":"학원 - 기타 교육기관","category":"study"},{"name":"유니스공부방","tel":"032-341-9377","addr":"경기도 부천시 옥길동 751-1번지 엘에이치옥길브리즈힐 611동 103호","indutype":"학원 - 보습학원","category":"study"},{"name":"음악상자","tel":"031-000-0000","addr":"경기도 부천시 옥길동 751-1번지 엘에이치옥길브리즈힐 602동 102호","indutype":"학원 - 기타 교육기관","category":"study"}]},{"lat":"37.462215159","long":"126.82505023","imageIndex":16,"items":[{"name":"라쌤English","tel":"","addr":"경기도 부천시 옥길동 748-1번지 엘에이치옥길센트럴힐 506동 1202호","indutype":"학원 - 기타 교육기관","category":"study"},{"name":"천사피아노교습소","tel":"032-111-1111","addr":"경기도 부천시 옥길동 748-1번지 엘에이치옥길센트럴힐 상가동 204호","indutype":"학원 - 예·체능계학원","category":"study"}]},{"lat":"37.467878678","long":"126.82257256","imageIndex":16,"items":[{"name":"부천옥길소마보습학원","tel":"070-7730-7558","addr":"경기도 부천시 옥길동 726-1번지 센타프라자 5층 501호","indutype":"학원 - 보습학원","category":"study"},{"name":"옥길클라라음악학원","tel":"02-349-6669","addr":"경기도 부천시 옥길동 726-1번지 센타프라자 4층 403호","indutype":"학원 - 예·체능계학원","category":"study"},{"name":"캡틴코리아 태권도(옥길점)","tel":"032-345-1682","addr":"경기도 부천시 옥길동 726-1번지 센타프라자 6층 601,602호,603호","indutype":"학원 - 예·체능계학원","category":"study"},{"name":"키즈블럭","tel":"032-345-6777","addr":"경기도 부천시 옥길동 726-1번지 센타프라자 503호","indutype":"학원 - 기타 교육기관","category":"study"}]},{"lat":"37.461904221","long":"126.81060568","imageIndex":16,"items":[{"name":"산들 공부방","tel":"070-7761-2944","addr":"경기도 부천시 옥길동 780-1번지 옥길호반베르디움 108동 102호","indutype":"학원 - 기타 교육기관","category":"study"},{"name":"윤정원수학","tel":"","addr":"경기도 부천시 옥길동 780-1번지 옥길호반베르디움 103동 503호","indutype":"학원 - 기타 교육기관","category":"study"}]},{"lat":"37.464097288","long":"126.81854633","imageIndex":16,"items":[{"name":"수학과외","tel":"","addr":"경기도 부천시 옥길동 771-1번지 엘에이치센트리뷰 701동 1301호","indutype":"학원 - 기타 교육기관","category":"study"}]},{"lat":"37.467184188","long":"126.82209947","imageIndex":16,"items":[{"name":"아트앤하트옥길미술학원","tel":"032-343-9903","addr":"경기도 부천시 옥길동 726-4번지 상림프라자 601호","indutype":"학원 - 예·체능계학원","category":"study"},{"name":"엘리트 합기도 특공무술","tel":"031-000-0000","addr":"경기도 부천시 옥길동 726-4번지 상림프라자 602,603","indutype":"학원 - 예·체능계학원","category":"study"},{"name":"엠베스트SE(에스이)보습학원","tel":"032-342-6230","addr":"경기도 부천시 옥길동 726-4번지 상림프라자 4층 401호","indutype":"학원 - 보습학원","category":"study"},{"name":"하이베스트옥길보습학원","tel":"032-342-6230","addr":"경기도 부천시 옥길동 726-4번지 상림프라자 501호","indutype":"학원 - 보습학원","category":"study"}]},{"lat":"37.462349564","long":"126.81298949","imageIndex":16,"items":[{"name":"예담음악학원","tel":"031-404-6534","addr":"경기도 부천시 옥길동 777-2번지 6층 602호","indutype":"학원 - 예·체능계학원","category":"study"},{"name":"용인대 NO.1 태권도","tel":"032-347-8787","addr":"경기도 부천시 옥길동 777-2번지 옥길중앙타워 6층 601호","indutype":"학원 - 예·체능계학원","category":"study"},{"name":"토킹스타옥길영수보습학원","tel":"032-345-9405","addr":"경기도 부천시 옥길동 777-2번지 702,703호","indutype":"학원 - 보습학원","category":"study"}]},{"lat":"37.467958748","long":"126.82190543","imageIndex":16,"items":[{"name":"오르프 칸타","tel":"02-2604-8176","addr":"경기도 부천시 옥길동 724-1번지 201호","indutype":"학원 - 예·체능계학원","category":"study"}]},{"lat":"37.461431982","long":"126.81388475","imageIndex":16,"items":[{"name":"위피크 (주) EBS스포츠 아카데미","tel":"031-8072-8502","addr":"경기도 부천시 옥길동 768번지 4층 4105호, 8층 8100호","indutype":"학원 - 예·체능계학원","category":"study"}]},{"lat":"37.471069351","long":"126.81748921","imageIndex":16,"items":[{"name":"인더짐 키즈포츠","tel":"","addr":"경기도 부천시 옥길동 701-1번지 부천옥길엘에이치1단지 101동 608호","indutype":"학원 - 기타 교육기관","category":"study"}]},{"lat":"37.466958593","long":"126.82187393","imageIndex":16,"items":[{"name":"조이에비뉴미술어학원","tel":"02-6956-5202","addr":"경기도 부천시 옥길동 726-5번지 701호일부,702호","indutype":"학원 - 외국어학원","category":"study"}]},{"lat":"37.474711482","long":"126.8247154","imageIndex":16,"items":[{"name":"티아이씨어학원(TIC Kinder English)","tel":"","addr":"경기도 부천시 옥길동 501-7번지","indutype":"학원 - 외국어학원","category":"study"}]},{"lat":"37.466017355","long":"126.82504123","imageIndex":16,"items":[{"name":"한국파워점핑","tel":"","addr":"경기도 부천시 옥길동 742-1번지 제이드카운티1단지 2층 204-207호","indutype":"학원 - 예·체능계학원","category":"study"}]},{"lat":"37.471288899","long":"126.82551483","imageIndex":16,"items":[{"name":"항동태권도","tel":"","addr":"경기도 부천시 옥길동 482-4번지 1층 101호","indutype":"학원 - 예·체능계학원","category":"study"}]}]