[{"lat":"37.27998819","long":"127.11149048","imageIndex":13,"items":[{"name":"(주)이스트덴트","tel":"031-693-5767","addr":"경기도 용인시 기흥구 구갈동 352-5번지 소공빌딩 601-1호","indutype":"보건위생 - 의료용품","category":"beauty"},{"name":"마음고운심리언어상담센터","tel":"031-282-7275","addr":"경기도 용인시 기흥구 구갈동 352-5번지 소공빌딩 6층 603-1호","indutype":"보건위생 - 기타대인서비스","category":"beauty"},{"name":"봄안경","tel":"031-274-1002","addr":"경기도 용인시 기흥구 구갈동 352-5번지 소공빌딩 1층 107호","indutype":"보건위생 - 안경","category":"beauty"},{"name":"인디자인페이스","tel":"070-4176-4887","addr":"경기도 용인시 기흥구 구갈동 352-5 소공빌딩501-1호","indutype":"보건위생 - 화장품","category":"beauty"},{"name":"헤어플러스","tel":"031-275-5664","addr":"경기도 용인시 기흥구 구갈동 352-5번지 소공빌딩 102호","indutype":"보건위생 - 미용원","category":"beauty"}]},{"lat":"37.27032298","long":"127.12696757","imageIndex":13,"items":[{"name":"(주)퀸즈스킨틸로","tel":"031-282-0209","addr":"경기도 용인시 기흥구 구갈동 595-2번지 301-1호","indutype":"보건위생 - 화장품","category":"beauty"},{"name":"김정문알로에 강남대 지점","tel":"031-284-8963","addr":"경기도 용인시 기흥구 구갈동 595-2번지 강남대 프라자 302호","indutype":"보건위생 - 화장품","category":"beauty"},{"name":"더그라시스안경","tel":"031-285-3030","addr":"경기도 용인시 기흥구 구갈동 595-2번지 강남대프라자 106호","indutype":"보건위생 - 안경","category":"beauty"},{"name":"미라클 뷰티케어","tel":"031-282-5678","addr":"경기도 용인시 기흥구 구갈동 595-2번지 강남대프라자 506호","indutype":"보건위생 - 피부미용실","category":"beauty"},{"name":"보니타네일","tel":"031-287-8980","addr":"경기도 용인시 기흥구 구갈동 595-2번지 강남대프라자 5층 505호","indutype":"보건위생 - 피부미용실","category":"beauty"},{"name":"보니타헤어","tel":"031-000-0000","addr":"경기도 용인시 기흥구 구갈동 595-2번지 강남대프라자 1층 110호","indutype":"보건위생 - 미용원","category":"beauty"},{"name":"장혜순애착교육연구소","tel":"031-275-7557","addr":"경기도 용인시 기흥구 구갈동 595-2번지 강남대프라자 702호","indutype":"보건위생 - 기타대인서비스","category":"beauty"}]},{"lat":"37.27451561","long":"127.11507934","imageIndex":13,"items":[{"name":"78맨즈헤어","tel":"031-287-7883","addr":"경기도 용인시 기흥구 구갈동 227-32번지 기흥역롯데캐슬레이시티주상복합 상가동 1층 113호","indutype":"보건위생 - 이용원","category":"beauty"},{"name":"종로백운학","tel":"","addr":"경기도 용인시 기흥구 구갈동 227-32번지 기흥역롯데캐슬레이시티주상복합 320호","indutype":"보건위생 - 기타대인서비스","category":"beauty"}]},{"lat":"37.281069162","long":"127.11177394","imageIndex":13,"items":[{"name":"Bling Bling(블링블링)","tel":"031-284-7111","addr":"경기도 용인시 기흥구 구갈동 351번지 스포츠센터 1층 127호","indutype":"보건위생 - 화장품","category":"beauty"},{"name":"닥터큐","tel":"031-8005-7726","addr":"경기도 용인시 기흥구 구갈동 351번지214호","indutype":"보건위생 - 화장품","category":"beauty"},{"name":"루비","tel":"031-261-2016","addr":"경기도 용인시 기흥구 구갈동 351번지 구갈스포츠센터 1층 118호","indutype":"보건위생 - 화장품","category":"beauty"},{"name":"머리하기조은날","tel":"031-287-8897","addr":"경기도 용인시 기흥구 구갈동 351번지 구갈스포츠센터 132호","indutype":"보건위생 - 미용원","category":"beauty"},{"name":"미샤용인구갈점","tel":"031-282-0532","addr":"경기도 용인시 기흥구 구갈동 351번지 구갈스포츠센타 111호","indutype":"보건위생 - 화장품","category":"beauty"},{"name":"반하다","tel":"031-284-2863","addr":"경기도 용인시 기흥구 구갈동 351번지 구갈스포츠센터 1층 128호","indutype":"보건위생 - 화장품","category":"beauty"},{"name":"아이리스네일","tel":"070-7521-2608","addr":"경기도 용인시 기흥구 구갈동 351번지 구갈스포츠센터 113호 일부","indutype":"보건위생 - 피부미용실","category":"beauty"},{"name":"안경마을","tel":"031-286-5037","addr":"경기도 용인시 기흥구 구갈동 351번지 구갈스포츠센터 109동 110호","indutype":"보건위생 - 안경","category":"beauty"},{"name":"이니스프리 (용인구갈점)","tel":"031-274-1191","addr":"경기도 용인시 기흥구 구갈동 351번지 구갈스포츠센터 104호","indutype":"보건위생 - 화장품","category":"beauty"},{"name":"토니모리 용인기흥구청점","tel":"031-282-2762","addr":"경기도 용인시 기흥구 구갈동 351번지 구갈스포츠센타 113호","indutype":"보건위생 - 화장품","category":"beauty"},{"name":"헤어살롱 인휘","tel":"031-282-6611","addr":"경기도 용인시 기흥구 구갈동 351번지 구갈스포츠센타 119호,209호","indutype":"보건위생 - 미용원","category":"beauty"}]},{"lat":"37.274682851","long":"127.10961121","imageIndex":13,"items":[{"name":"J&D Nail (제이디네일)","tel":"031-286-6655","addr":"경기도 용인시 기흥구 구갈동 411번지 101호","indutype":"보건위생 - 피부미용실","category":"beauty"}]},{"lat":"37.271798675","long":"127.12885284","imageIndex":13,"items":[{"name":"J헤어","tel":"031-274-4315","addr":"경기도 용인시 기흥구 구갈동 591번지 더힐 201호","indutype":"보건위생 - 미용원","category":"beauty"},{"name":"더블라썸","tel":"031-285-0564","addr":"경기도 용인시 기흥구 구갈동 591번지","indutype":"보건위생 - 피부미용실","category":"beauty"}]},{"lat":"37.272294119","long":"127.12896641","imageIndex":13,"items":[{"name":"가위이야기","tel":"","addr":"경기도 용인시 기흥구 구갈동 583-2번지 204호","indutype":"보건위생 - 미용재료","category":"beauty"}]},{"lat":"37.271322337","long":"127.12771332","imageIndex":13,"items":[{"name":"강남스캔앤바디","tel":"031-274-1278","addr":"경기도 용인시 기흥구 구갈동 594-1번지 그랜드프라자 4층 401호","indutype":"보건위생 - 피부미용실","category":"beauty"},{"name":"주식회사 힐덴스","tel":"031-8058-2809","addr":"경기도 용인시 기흥구 구갈동 594-1번지 그랜드프라자 207호","indutype":"보건위생 - 의료용품","category":"beauty"},{"name":"헤어망고(강남대점)","tel":"031-8005-8007","addr":"경기도 용인시 기흥구 구갈동 594-1번지 그랜드프라자 205,206호","indutype":"보건위생 - 미용원","category":"beauty"}]},{"lat":"37.278842869","long":"127.11259385","imageIndex":13,"items":[{"name":"곤이","tel":"","addr":"경기도 용인시 기흥구 구갈동 396번지 한양아파트","indutype":"보건위생 - 화장품","category":"beauty"}]},{"lat":"37.271799022","long":"127.12852588","imageIndex":13,"items":[{"name":"권헤어","tel":"031-274-8303","addr":"경기도 용인시 기흥구 구갈동 592-3번지 지하1층","indutype":"보건위생 - 미용원","category":"beauty"}]},{"lat":"37.279960412","long":"127.1123023","imageIndex":13,"items":[{"name":"글라스스토리안경(기흥구갈점)","tel":"031-285-6680","addr":"경기도 용인시 기흥구 구갈동 354번지 청파빌딩 101호","indutype":"보건위생 - 안경","category":"beauty"},{"name":"리안헤어(기흥구청점)","tel":"031-274-2070","addr":"경기도 용인시 기흥구 구갈동 354번지 라파빌딩 2층 201호","indutype":"보건위생 - 미용원","category":"beauty"},{"name":"문메디칼","tel":"","addr":"경기도 용인시 기흥구 구갈동 354번지 라파빌딩 602호 내 16K호","indutype":"보건위생 - 의료용품","category":"beauty"}]},{"lat":"37.282402959","long":"127.1114714","imageIndex":13,"items":[{"name":"금강체형관리","tel":"031-283-4338","addr":"경기도 용인시 기흥구 구갈동 345-3번지 204호","indutype":"보건위생 - 피부미용실","category":"beauty"}]},{"lat":"37.281068527","long":"127.11246177","imageIndex":13,"items":[{"name":"기흥스파","tel":"031-281-8385","addr":"경기도 용인시 기흥구 구갈동 351-1번지 모닝프라자 8층 801호","indutype":"보건위생 - 사우나","category":"beauty"},{"name":"도로시","tel":"031-285-3333","addr":"경기도 용인시 기흥구 구갈동 351-1번지 구갈2지구주차장전용빌딩1층103-1호","indutype":"보건위생 - 화장품","category":"beauty"},{"name":"아리따움 용연구갈점","tel":"031-274-7004","addr":"경기도 용인시 기흥구 구갈동 351-1번지 모닝프라자 110호","indutype":"보건위생 - 화장품","category":"beauty"},{"name":"유연뷰티건강관리실","tel":"02-000-0000","addr":"경기도 용인시 기흥구 구갈동 351-1번지 9층 기흥스파","indutype":"보건위생 - 피부미용실","category":"beauty"}]},{"lat":"37.272402972","long":"127.11946205","imageIndex":13,"items":[{"name":"김나연헤어","tel":"031-275-8852","addr":"경기도 용인시 기흥구 구갈동 234-5번지 기흥역 더샵 1층 0-110-2호","indutype":"보건위생 - 미용원","category":"beauty"}]},{"lat":"37.276992142","long":"127.11643606","imageIndex":13,"items":[{"name":"김민서헤어","tel":"031-287-1896","addr":"경기도 용인시 기흥구 구갈동 374-13번지","indutype":"보건위생 - 미용원","category":"beauty"}]},{"lat":"37.275988941","long":"127.11005279","imageIndex":13,"items":[{"name":"나경헤어샵","tel":"031-281-5777","addr":"경기도 용인시 기흥구 구갈동 402-32","indutype":"보건위생 - 미용원","category":"beauty"}]},{"lat":"37.273434752","long":"127.11468312","imageIndex":13,"items":[{"name":"나네일 (na.NAIL)","tel":"031-281-2525","addr":"경기도 용인시 기흥구 구갈동 227-34번지 기흥역지웰푸르지오","indutype":"보건위생 - 피부미용실","category":"beauty"},{"name":"선에스테틱스파","tel":"031-679-0443","addr":"경기도 용인시 기흥구 구갈동 227-34번지 기흥역지웰푸르지오","indutype":"보건위생 - 피부미용실","category":"beauty"},{"name":"아름다운아동,청소년,가족심리상담소","tel":"031-264-5205","addr":"경기도 용인시 기흥구 구갈동 227-34번지 기흥역지웰푸르지오","indutype":"보건위생 - 기타대인서비스","category":"beauty"},{"name":"이가자헤어비스기흥역이루다점","tel":"031-362-6000","addr":"경기도 용인시 기흥구 구갈동 227-34번지 기흥역지웰푸르지오","indutype":"보건위생 - 미용원","category":"beauty"}]},{"lat":"37.273961447","long":"127.11976888","imageIndex":13,"items":[{"name":"나이스가이","tel":"031-284-9994","addr":"경기도 용인시 기흥구 구갈동 234-4번지 기흥역센트럴푸르지오 근린생활시설동 2동 지하2층 8206호","indutype":"보건위생 - 미용원","category":"beauty"},{"name":"라끌로에 헤어","tel":"031-282-8832","addr":"경기도 용인시 기흥구 구갈동 234-4번지 기흥역센트럴푸르지오 근린생활시설동 2층 203호","indutype":"보건위생 - 미용원","category":"beauty"},{"name":"와이스킨앤바디","tel":"031-284-8894","addr":"경기도 용인시 기흥구 구갈동 234-4번지 기흥역센트럴푸르지오 근린생활시설동 지하1층 2-B110호","indutype":"보건위생 - 피부미용실","category":"beauty"},{"name":"포미네일(for me nail)","tel":"","addr":"경기도 용인시 기흥구 구갈동 234-4번지 기흥역센트럴푸르지오 지2층 2-B212호","indutype":"보건위생 - 피부미용실","category":"beauty"},{"name":"현정헤어샵","tel":"031-285-6194","addr":"경기도 용인시 기흥구 구갈동 234-4번지 기흥역센트럴푸르지오 근린생활시설동 지하1층 3-B107호","indutype":"보건위생 - 미용원","category":"beauty"}]},{"lat":"37.27729849","long":"127.11643652","imageIndex":13,"items":[{"name":"누리맘","tel":"031-286-3713","addr":"경기도 용인시 기흥구 구갈동 374-19번지","indutype":"보건위생 - 기타대인서비스","category":"beauty"},{"name":"친정맘","tel":"031-285-3488","addr":"경기도 용인시 기흥구 구갈동 374-19번지 종원 2층 2호","indutype":"보건위생 - 기타대인서비스","category":"beauty"}]},{"lat":"37.273934999","long":"127.10961016","imageIndex":13,"items":[{"name":"뉴대성","tel":"031-282-3321","addr":"경기도 용인시 기흥구 구갈동 412번지","indutype":"보건위생 - 이용원","category":"beauty"}]},{"lat":"37.271492614","long":"127.12858174","imageIndex":13,"items":[{"name":"다겸앤style","tel":"031-281-7600","addr":"경기도 용인시 기흥구 구갈동 591-2번지","indutype":"보건위생 - 미용원","category":"beauty"}]},{"lat":"37.27695895","long":"127.11342549","imageIndex":13,"items":[{"name":"닥터루쥬","tel":"02-1566-5992","addr":"경기도 용인시 기흥구 구갈동 385번지 풍림아파트","indutype":"보건위생 - 화장품","category":"beauty"}]},{"lat":"37.271766557","long":"127.12510963","imageIndex":13,"items":[{"name":"달나라미장","tel":"031-282-1103","addr":"경기도 용인시 기흥구 구갈동 582-3번지 대경프라자 1층 102호","indutype":"보건위생 - 미용원","category":"beauty"},{"name":"미스터어벤(Mr. Aven)","tel":"031-000-0000","addr":"경기도 용인시 기흥구 구갈동 582-3번지 대경프라자 102호","indutype":"보건위생 - 피부미용실","category":"beauty"}]},{"lat":"37.27862289","long":"127.11655126","imageIndex":13,"items":[{"name":"대영통상","tel":"031-284-3570","addr":"경기도 용인시 기흥구 구갈동 377-12번지 1층 좌측","indutype":"보건위생 - 화장품","category":"beauty"}]},{"lat":"37.277348017","long":"127.12977539","imageIndex":13,"items":[{"name":"더 헤어","tel":"031-283-6300","addr":"경기도 용인시 기흥구 구갈동 554-3번지 1층 에이치엔제이","indutype":"보건위생 - 미용원","category":"beauty"}]},{"lat":"37.271763423","long":"127.12810866","imageIndex":13,"items":[{"name":"더네일샵 (The Nail#)","tel":"031-285-5697","addr":"경기도 용인시 기흥구 구갈동 593-1번지 에이스빌 1층 103호","indutype":"보건위생 - 화장품","category":"beauty"}]},{"lat":"37.271324459","long":"127.12568392","imageIndex":13,"items":[{"name":"더페이스샵/강남대점","tel":"070-4212-3171","addr":"경기도 용인시 기흥구 구갈동 581-2 명문메디칼프라자1층106-1호","indutype":"보건위생 - 화장품","category":"beauty"},{"name":"타마시헤어(강남대점)","tel":"031-287-7082","addr":"경기도 용인시 기흥구 구갈동 581-2번지 사훈프라자 105,107호","indutype":"보건위생 - 미용원","category":"beauty"},{"name":"플랫폼코리아","tel":"","addr":"경기도 용인시 기흥구 구갈동 581-2번지 사훈프라자 502호","indutype":"보건위생 - 미용재료","category":"beauty"},{"name":"플러터코리아","tel":"031-284-8254","addr":"경기도 용인시 기흥구 구갈동 581-2번지 사훈프라자 502호","indutype":"보건위생 - 화장품","category":"beauty"}]},{"lat":"37.279770349","long":"127.11321536","imageIndex":13,"items":[{"name":"도도","tel":"070-7018-5392","addr":"경기도 용인시 기흥구 구갈동 354-5번지 진웅프라자 701호","indutype":"보건위생 - 화장품","category":"beauty"}]},{"lat":"37.27704729","long":"127.11529733","imageIndex":13,"items":[{"name":"동부미용실","tel":"031-284-6472","addr":"경기도 용인시 기흥구 구갈동 384-2번지 1층","indutype":"보건위생 - 미용원","category":"beauty"}]},{"lat":"37.272017287","long":"127.12660956","imageIndex":13,"items":[{"name":"드림미용재료앤드림헤어샵","tel":"031-275-1254","addr":"경기도 용인시 기흥구 구갈동 579번지 아카데미프라자 107호","indutype":"보건위생 - 미용재료","category":"beauty"}]},{"lat":"37.271485599","long":"127.12668761","imageIndex":13,"items":[{"name":"드림안경","tel":"031-285-2528","addr":"경기도 용인시 기흥구 구갈동 579-2번지 태양프라자 107호","indutype":"보건위생 - 안경","category":"beauty"},{"name":"리안헤어 강남대점","tel":"031-284-3315","addr":"경기도 용인시 기흥구 구갈동 579-2번지 태평양프라자 2층 202호","indutype":"보건위생 - 미용원","category":"beauty"},{"name":"에뛰드하우스강남대점","tel":"031-286-6206","addr":"경기도 용인시 기흥구 구갈동 579-2번지 태평양프라자 102호","indutype":"보건위생 - 화장품","category":"beauty"},{"name":"주식회사 씨에스바이오테크","tel":"070-7863-5987","addr":"경기도 용인시 기흥구 구갈동 579-2번지 태평양프라자 5층 503-2H호","indutype":"보건위생 - 화장품","category":"beauty"}]},{"lat":"37.270743378","long":"127.12987705","imageIndex":13,"items":[{"name":"라니아헤어","tel":"070-8946-9876","addr":"경기도 용인시 기흥구 구갈동 587-1번지 103호","indutype":"보건위생 - 미용원","category":"beauty"}]},{"lat":"37.277042466","long":"127.11079846","imageIndex":13,"items":[{"name":"라신미용실","tel":"031-282-9866","addr":"경기도 용인시 기흥구 구갈동 401-3번지","indutype":"보건위생 - 미용원","category":"beauty"},{"name":"예스(YES)안경","tel":"031-283-0881","addr":"경기도 용인시 기흥구 구갈동 401-3","indutype":"보건위생 - 안경","category":"beauty"},{"name":"오휘카운셀러","tel":"034-693-9919","addr":"경기도 용인시 기흥구 구갈동 401-3번지 세명약국 304호","indutype":"보건위생 - 화장품","category":"beauty"}]},{"lat":"37.271215527","long":"127.12646168","imageIndex":13,"items":[{"name":"레아헤어비스","tel":"031-275-7759","addr":"경기도 용인시 기흥구 구갈동 581번지 아트프라자 106호","indutype":"보건위생 - 미용원","category":"beauty"},{"name":"미샤 강남대점","tel":"031-274-8308","addr":"경기도 용인시 기흥구 구갈동 581번지 아트프라자 103호","indutype":"보건위생 - 화장품","category":"beauty"}]},{"lat":"37.271464078","long":"127.12999101","imageIndex":13,"items":[{"name":"로데오헤어","tel":"031-693-5252","addr":"경기도 용인시 기흥구 구갈동 584-3번지 소망빌 201호","indutype":"보건위생 - 미용원","category":"beauty"}]},{"lat":"37.276989539","long":"127.12795946","imageIndex":13,"items":[{"name":"리버(Liebe)코스메틱","tel":"031-772-7125","addr":"경기도 용인시 기흥구 구갈동 563-2번지","indutype":"보건위생 - 화장품","category":"beauty"}]},{"lat":"37.270520507","long":"127.12763308","imageIndex":13,"items":[{"name":"린","tel":"031-284-8175","addr":"경기도 용인시 기흥구 구갈동 596-1번지 강남대팰리스뷰 501호","indutype":"보건위생 - 화장품","category":"beauty"},{"name":"퀸라인","tel":"070-7583-7684","addr":"경기도 용인시 기흥구 구갈동 596-1번지 팰리스뷰 101호","indutype":"보건위생 - 기타대인서비스","category":"beauty"}]},{"lat":"37.279404063","long":"127.10979829","imageIndex":13,"items":[{"name":"마리헤어","tel":"031-282-6363","addr":"경기도 용인시 기흥구 구갈동 390외1필지드림프라자102호","indutype":"보건위생 - 미용원","category":"beauty"}]},{"lat":"37.279762187","long":"127.11230201","imageIndex":13,"items":[{"name":"마음터","tel":"031-284-7997","addr":"경기도 용인시 기흥구 구갈동 354-8번지 로얄프라자 5층 502호","indutype":"보건위생 - 기타대인서비스","category":"beauty"},{"name":"타로cafe진","tel":"053-000-0000","addr":"경기도 용인시 기흥구 구갈동 354-8번지 로얄프라자 2층 201호","indutype":"보건위생 - 기타대인서비스","category":"beauty"},{"name":"헤어몽","tel":"031-283-6151","addr":"경기도 용인시 기흥구 구갈동 354-8번지 로얄프라자 2층 204호","indutype":"보건위생 - 미용원","category":"beauty"}]},{"lat":"37.279762934","long":"127.11149016","imageIndex":13,"items":[{"name":"머리못하는집(구갈점)","tel":"031-287-3233","addr":"경기도 용인시 기흥구 구갈동 352-4번지","indutype":"보건위생 - 미용원","category":"beauty"}]},{"lat":"37.276124472","long":"127.1096358","imageIndex":13,"items":[{"name":"머리쟁이","tel":"031-281-8556","addr":"경기도 용인시 기흥구 구갈동 402-13번지 1층","indutype":"보건위생 - 미용원","category":"beauty"}]},{"lat":"37.280456589","long":"127.11163774","imageIndex":13,"items":[{"name":"머바르니네일","tel":"","addr":"경기도 용인시 기흥구 구갈동 352번지 메가타운 204호","indutype":"보건위생 - 피부미용실","category":"beauty"},{"name":"빌에반스헤어","tel":"031-285-0901","addr":"경기도 용인시 기흥구 구갈동 352번지 메가타운 203호","indutype":"보건위생 - 미용원","category":"beauty"},{"name":"예그리나발달센터","tel":"031-281-9660","addr":"경기도 용인시 기흥구 구갈동 352번지 구갈메가타운 407호","indutype":"보건위생 - 기타대인서비스","category":"beauty"},{"name":"지붕개조","tel":"070-4142-0976","addr":"경기도 용인시 기흥구 구갈동 352번지 메가타운 2층 203호","indutype":"보건위생 - 미용원","category":"beauty"},{"name":"타마시헤어 기흥구청점","tel":"031-282-3684","addr":"경기도 용인시 기흥구 구갈동 352번지 메가타운 112호","indutype":"보건위생 - 미용원","category":"beauty"},{"name":"토리헤어 기흥구청점","tel":"031-282-6766","addr":"경기도 용인시 기흥구 구갈동 352번지 메가타운 2층","indutype":"보건위생 - 미용원","category":"beauty"}]},{"lat":"37.276628996","long":"127.10969289","imageIndex":13,"items":[{"name":"모든화장품","tel":"031-274-5410","addr":"경기도 용인시 기흥구 구갈동 402번지 삼구프라자 103호","indutype":"보건위생 - 화장품","category":"beauty"}]},{"lat":"37.2780758","long":"127.11387815","imageIndex":13,"items":[{"name":"미남미녀","tel":"031-282-8503","addr":"경기도 용인시 기흥구 구갈동 383번지 금보빌딩 상가 102호","indutype":"보건위생 - 미용원","category":"beauty"}]},{"lat":"37.270488836","long":"127.13196239","imageIndex":13,"items":[{"name":"미앤미헤어","tel":"031-275-0588","addr":"경기도 용인시 기흥구 구갈동 600강남마을4단지상가-102","indutype":"보건위생 - 미용원","category":"beauty"}]},{"lat":"37.273818699","long":"127.11832547","imageIndex":13,"items":[{"name":"박철아이론헤어","tel":"031-281-0665","addr":"경기도 용인시 기흥구 구갈동 46-11번지 기흥역파크푸르지오","indutype":"보건위생 - 미용원","category":"beauty"},{"name":"에이엘코퍼레이션","tel":"070-8622-7473","addr":"경기도 용인시 기흥구 구갈동 234-3번지 힐스테이트기흥 201동 2504호","indutype":"보건위생 - 미용재료","category":"beauty"},{"name":"지니스(JINY'S)안경","tel":"031-5418-9538","addr":"경기도 용인시 기흥구 구갈동 234번지 힐스테이트기흥단지내상가 301동 107호 106,107호","indutype":"보건위생 - 안경","category":"beauty"}]},{"lat":"37.279761936","long":"127.11257263","imageIndex":13,"items":[{"name":"발라드림","tel":"","addr":"경기도 용인시 기흥구 구갈동 354-7번지 삼성프라자 5층 503호","indutype":"보건위생 - 피부미용실","category":"beauty"},{"name":"이시내살롱","tel":"051-866-9696","addr":"경기도 용인시 기흥구 구갈동 354-7번지 삼성프라자 203호","indutype":"보건위생 - 피부미용실","category":"beauty"},{"name":"헤어플러스Y","tel":"","addr":"경기도 용인시 기흥구 구갈동 354-7번지 삼성프라자 104,105호","indutype":"보건위생 - 미용원","category":"beauty"}]},{"lat":"37.281906866","long":"127.11204577","imageIndex":13,"items":[{"name":"베델피아노","tel":"031-281-8262","addr":"경기도 용인시 기흥구 구갈동 348-8번지 하이트빌 302호","indutype":"보건위생 - 기타대인서비스","category":"beauty"}]},{"lat":"37.27698908","long":"127.11005421","imageIndex":13,"items":[{"name":"베스트네일","tel":"","addr":"경기도 용인시 기흥구 구갈동 400-7번지 105호","indutype":"보건위생 - 피부미용실","category":"beauty"},{"name":"헤어앤봄","tel":"031-283-1930","addr":"경기도 용인시 기흥구 구갈동 400-7번지 104호","indutype":"보건위생 - 미용원","category":"beauty"}]},{"lat":"37.276985357","long":"127.12330274","imageIndex":13,"items":[{"name":"벤자롱스파","tel":"031-282-4999","addr":"경기도 용인시 기흥구 구갈동 258-1번지 J동 1층 수원C.C골프연습장","indutype":"보건위생 - 피부미용실","category":"beauty"}]},{"lat":"37.276766723","long":"127.11660485","imageIndex":13,"items":[{"name":"보떼","tel":"031-282-4505","addr":"경기도 용인시 기흥구 구갈동 374-17번지 1층","indutype":"보건위생 - 미용원","category":"beauty"}]},{"lat":"37.278821223","long":"127.11643881","imageIndex":13,"items":[{"name":"본미용재료","tel":"031-000-0000","addr":"경기도 용인시 기흥구 구갈동 378-3번지 지하 101호","indutype":"보건위생 - 미용재료","category":"beauty"}]},{"lat":"37.275680925","long":"127.11187893","imageIndex":13,"items":[{"name":"뷰티초이스","tel":"031-202-2080","addr":"경기도 용인시 기흥구 구갈동 405-1번지 풍림아파트 상가 114호","indutype":"보건위생 - 미용원","category":"beauty"}]},{"lat":"37.27093298","long":"127.12951659","imageIndex":13,"items":[{"name":"뷰티플러스(Beauty+)","tel":"031-274-5678","addr":"경기도 용인시 기흥구 구갈동 589-3번지 202호","indutype":"보건위생 - 피부미용실","category":"beauty"},{"name":"오네일(O'NAIL)","tel":"031-281-4910","addr":"경기도 용인시 기흥구 구갈동 589-3번지 리치빌딩 102호","indutype":"보건위생 - 피부미용실","category":"beauty"}]},{"lat":"37.271159736","long":"127.12810766","imageIndex":13,"items":[{"name":"블루클럽 (강남대점)","tel":"031-275-3611","addr":"경기도 용인시 기흥구 구갈동 594번지 강남피아 101호","indutype":"보건위생 - 미용원","category":"beauty"},{"name":"헤어뮤즈","tel":"031-284-2262","addr":"경기도 용인시 기흥구 구갈동 594번지 강남피아 113호","indutype":"보건위생 - 미용원","category":"beauty"}]},{"lat":"37.276457831","long":"127.10965882","imageIndex":13,"items":[{"name":"블루클럽(신갈점)","tel":"031-284-1112","addr":"경기도 용인시 기흥구 구갈동 402-8번지","indutype":"보건위생 - 미용원","category":"beauty"}]},{"lat":"37.277349745","long":"127.10977283","imageIndex":13,"items":[{"name":"사과나무케어","tel":"031-274-3668","addr":"경기도 용인시 기흥구 구갈동 400-3번지 쥬피터빌딩 102호","indutype":"보건위생 - 의료용품","category":"beauty"},{"name":"아그립파","tel":"","addr":"경기도 용인시 기흥구 구갈동 400-3번지 쥬피터빌딩 101호","indutype":"보건위생 - 미용원","category":"beauty"}]},{"lat":"37.27079123","long":"127.12723892","imageIndex":13,"items":[{"name":"사단법인용인CYA부설마음드림심리상담센터","tel":"031-286-4231","addr":"경기도 용인시 기흥구 구갈동 595번지 우성메디피아 301호","indutype":"보건위생 - 기타대인서비스","category":"beauty"}]},{"lat":"37.279959795","long":"127.11296757","imageIndex":13,"items":[{"name":"산모도우미119","tel":"","addr":"경기도 용인시 기흥구 구갈동 354-2번지 인텔존 503호","indutype":"보건위생 - 기타대인서비스","category":"beauty"},{"name":"산모피아 용인/안성","tel":"031-274-1434","addr":"경기도 용인시 기흥구 구갈동 354-2번지 인텔존 805호","indutype":"보건위생 - 기타대인서비스","category":"beauty"},{"name":"신개념","tel":"031-111-1111","addr":"경기도 용인시 기흥구 구갈동 354-2번지 세영빌딩 1001호","indutype":"보건위생 - 화장품","category":"beauty"},{"name":"아모레 카운셀러","tel":"031-284-2863","addr":"경기도 용인시 기흥구 구갈동 354-2번지 세영빌딩 301호","indutype":"보건위생 - 화장품","category":"beauty"},{"name":"아모레카운셀러","tel":"031-284-2863","addr":"경기도 용인시 기흥구 구갈동 354-2번지 세영빌딩 301호","indutype":"보건위생 - 화장품","category":"beauty"},{"name":"아모레카운셀러","tel":"031-284-2863","addr":"경기도 용인시 기흥구 구갈동 354-2번지 세영빌딩 301호","indutype":"보건위생 - 화장품","category":"beauty"},{"name":"아모레카운셀러","tel":"031-284-2863","addr":"경기도 용인시 기흥구 구갈동 354-2번지 세영빌딩 301호","indutype":"보건위생 - 화장품","category":"beauty"},{"name":"아모레카운셀러","tel":"031-284-2863","addr":"경기도 용인시 기흥구 구갈동 354-2번지 세영빌딩 301호","indutype":"보건위생 - 화장품","category":"beauty"},{"name":"아모레카운셀러","tel":"031-284-2863","addr":"경기도 용인시 기흥구 구갈동 354-2번지 세영빌딩 301호","indutype":"보건위생 - 화장품","category":"beauty"},{"name":"아모레카운셀러","tel":"031-284-2863","addr":"경기도 용인시 기흥구 구갈동 354-2번지 세영빌딩 301호","indutype":"보건위생 - 화장품","category":"beauty"},{"name":"아모레카운셀러","tel":"031-284-2863","addr":"경기도 용인시 기흥구 구갈동 354-2번지 세영빌딩 301호","indutype":"보건위생 - 화장품","category":"beauty"},{"name":"아모레카운셀러","tel":"031-284-2863","addr":"경기도 용인시 기흥구 구갈동 354-2번지 세영빌딩 301호","indutype":"보건위생 - 화장품","category":"beauty"},{"name":"아모레카운셀러","tel":"031-284-2863","addr":"경기도 용인시 기흥구 구갈동 354-2번지 세영빌딩 301호","indutype":"보건위생 - 화장품","category":"beauty"},{"name":"아모레카운셀러","tel":"031-284-2863","addr":"경기도 용인시 기흥구 구갈동 354-2번지 세영빌딩 301호","indutype":"보건위생 - 화장품","category":"beauty"},{"name":"아모레카운셀러","tel":"031-284-2863","addr":"경기도 용인시 기흥구 구갈동 354-2번지 세영빌딩 301호","indutype":"보건위생 - 화장품","category":"beauty"},{"name":"아모레카운셀러","tel":"031-284-2863","addr":"경기도 용인시 기흥구 구갈동 354-2번지 세영빌딩 301호","indutype":"보건위생 - 화장품","category":"beauty"},{"name":"아모레카운셀러","tel":"031-284-2863","addr":"경기도 용인시 기흥구 구갈동 354-2번지 세영빌딩 301호","indutype":"보건위생 - 화장품","category":"beauty"},{"name":"아모레카운셀러","tel":"031-284-2863","addr":"경기도 용인시 기흥구 구갈동 354-2번지 세영빌딩 301호","indutype":"보건위생 - 화장품","category":"beauty"},{"name":"아모레카운셀러","tel":"031-284-2863","addr":"경기도 용인시 기흥구 구갈동 354-2번지 세영빌딩 301호","indutype":"보건위생 - 화장품","category":"beauty"},{"name":"아모레카운셀러","tel":"031-284-2863","addr":"경기도 용인시 기흥구 구갈동 354-2번지 세영빌딩 301호","indutype":"보건위생 - 화장품","category":"beauty"},{"name":"아모레카운셀러","tel":"031-284-2863","addr":"경기도 용인시 기흥구 구갈동 354-2번지 세영 B동 301호","indutype":"보건위생 - 화장품","category":"beauty"},{"name":"아모레카운셀러","tel":"031-284-2863","addr":"경기도 용인시 기흥구 구갈동 354-2번지 세영빌딩 301호","indutype":"보건위생 - 화장품","category":"beauty"},{"name":"아모레카운셀러","tel":"031-284-2863","addr":"경기도 용인시 기흥구 구갈동 354-2번지 세영빌딩 301호","indutype":"보건위생 - 화장품","category":"beauty"},{"name":"아모레카운셀러","tel":"031-284-2863","addr":"경기도 용인시 기흥구 구갈동 354-2번지 세영빌딩 301호","indutype":"보건위생 - 화장품","category":"beauty"},{"name":"아모레카운셀러","tel":"031-284-2863","addr":"경기도 용인시 기흥구 구갈동 354-2번지 세영빌딩 301호","indutype":"보건위생 - 화장품","category":"beauty"},{"name":"아모레카운셀러","tel":"031-284-2862","addr":"경기도 용인시 기흥구 구갈동 354-2번지 세영빌딩 301호","indutype":"보건위생 - 화장품","category":"beauty"},{"name":"아모레카운셀러","tel":"031-284-2862","addr":"경기도 용인시 기흥구 구갈동 354-2번지 세영빌딩 301호","indutype":"보건위생 - 화장품","category":"beauty"},{"name":"아모레카운셀러","tel":"031-284-2863","addr":"경기도 용인시 기흥구 구갈동 354-2번지 세영빌딩 301호","indutype":"보건위생 - 화장품","category":"beauty"},{"name":"아모레카운셀러","tel":"031-284-2863","addr":"경기도 용인시 기흥구 구갈동 354-2번지 세영빌딩 301호","indutype":"보건위생 - 화장품","category":"beauty"},{"name":"아모레카운셀러","tel":"031-284-2863","addr":"경기도 용인시 기흥구 구갈동 354-2번지 세영빌딩 301호","indutype":"보건위생 - 화장품","category":"beauty"},{"name":"아모레카운셀러","tel":"031-284-2863","addr":"경기도 용인시 기흥구 구갈동 354-2번지 세영빌딩 301호","indutype":"보건위생 - 화장품","category":"beauty"},{"name":"아모레카운셀러","tel":"031-284-2863","addr":"경기도 용인시 기흥구 구갈동 354-2번지 세영빌딩 301호","indutype":"보건위생 - 화장품","category":"beauty"},{"name":"아모레카운셀러","tel":"031-284-2863","addr":"경기도 용인시 기흥구 구갈동 354-2 세영빌딩301호","indutype":"보건위생 - 화장품","category":"beauty"},{"name":"아모레카운셀러","tel":"031-284-2863","addr":"경기도 용인시 기흥구 구갈동 354-2번지 세영빌딩 301호","indutype":"보건위생 - 화장품","category":"beauty"},{"name":"아모레카운셀러","tel":"031-284-2863","addr":"경기도 용인시 기흥구 구갈동 354-2번지 세영빌딩 3층","indutype":"보건위생 - 화장품","category":"beauty"},{"name":"아모레카운셀러","tel":"031-284-2863","addr":"경기도 용인시 기흥구 구갈동 354-2번지 세영빌딩 3층","indutype":"보건위생 - 화장품","category":"beauty"},{"name":"아모레카운셀러","tel":"031-284-2863","addr":"경기도 용인시 기흥구 구갈동 354-2번지 3층","indutype":"보건위생 - 화장품","category":"beauty"},{"name":"아모레카운셀러","tel":"031-284-2863","addr":"경기도 용인시 기흥구 구갈동 354-2번지 세영빌딩 3층","indutype":"보건위생 - 화장품","category":"beauty"},{"name":"아모레카운셀러","tel":"031-284-2863","addr":"경기도 용인시 기흥구 구갈동 354-2번지 세영빌딩 3층","indutype":"보건위생 - 화장품","category":"beauty"},{"name":"아모레카운셀러","tel":"031-284-2863","addr":"경기도 용인시 기흥구 구갈동 354-2번지 세열빌딩 3층","indutype":"보건위생 - 화장품","category":"beauty"},{"name":"아모레카운셀러","tel":"031-284-2863","addr":"경기도 용인시 기흥구 구갈동 354-2번지 3층","indutype":"보건위생 - 화장품","category":"beauty"},{"name":"아모레카운셀러","tel":"031-284-2863","addr":"경기도 용인시 기흥구 구갈동 354-2번지 세영빌딩 3층 301호","indutype":"보건위생 - 화장품","category":"beauty"},{"name":"아모레카운셀러","tel":"031-284-2863","addr":"경기도 용인시 기흥구 구갈동 354-2번지 세영빌딩 3층","indutype":"보건위생 - 화장품","category":"beauty"},{"name":"아모레카운셀러","tel":"031-284-2863","addr":"경기도 용인시 기흥구 구갈동 354-2번지 세영빌딩 3층","indutype":"보건위생 - 화장품","category":"beauty"},{"name":"아모레카운셀러","tel":"031-284-2863","addr":"경기도 용인시 기흥구 구갈동 354-2번지 세영빌딩 3층","indutype":"보건위생 - 화장품","category":"beauty"},{"name":"아모레카운셀러","tel":"031-284-2863","addr":"경기도 용인시 기흥구 구갈동 354-2번지 세영빌딩 3층","indutype":"보건위생 - 화장품","category":"beauty"},{"name":"아모레카운셀러","tel":"031-284-2863","addr":"경기도 용인시 기흥구 구갈동 354-2번지 세명빌딩 3층 301호","indutype":"보건위생 - 화장품","category":"beauty"},{"name":"아모레카운셀러","tel":"031-284-2863","addr":"경기도 용인시 기흥구 구갈동 354-2번지 3층","indutype":"보건위생 - 화장품","category":"beauty"},{"name":"아모레카운셀러","tel":"031-284-2863","addr":"경기도 용인시 기흥구 구갈동 354-2번지 세영빌딩 3층","indutype":"보건위생 - 화장품","category":"beauty"},{"name":"아모레카운셀러","tel":"031-284-2863","addr":"경기도 용인시 기흥구 구갈동 354-2번지 세영빌딩 3층 301호","indutype":"보건위생 - 화장품","category":"beauty"},{"name":"아모레카운셀러","tel":"031-284-2863","addr":"경기도 용인시 기흥구 구갈동 354-2번지 세영B 3층","indutype":"보건위생 - 화장품","category":"beauty"},{"name":"아모레카운셀러","tel":"031-284-2863","addr":"경기도 용인시 기흥구 구갈동 354-2번지 세영빌딩 301호","indutype":"보건위생 - 화장품","category":"beauty"},{"name":"아모레카운셀러","tel":"031-284-2863","addr":"경기도 용인시 기흥구 구갈동 354-2번지 세영빌딩 301호","indutype":"보건위생 - 화장품","category":"beauty"},{"name":"아모레카운셀러","tel":"031-284-2863","addr":"경기도 용인시 기흥구 구갈동 354-2번지 3층","indutype":"보건위생 - 화장품","category":"beauty"},{"name":"아모레카운셀러","tel":"031-284-2863","addr":"경기도 용인시 기흥구 구갈동 354-2번지 3층","indutype":"보건위생 - 화장품","category":"beauty"},{"name":"아모레카운셀러","tel":"031-284-2863","addr":"경기도 용인시 기흥구 구갈동 354-2번지 세영빌딩 3층","indutype":"보건위생 - 화장품","category":"beauty"},{"name":"아모레카운셀러","tel":"031-281-2863","addr":"경기도 용인시 기흥구 구갈동 354-2번지 세영빌딩 3층","indutype":"보건위생 - 화장품","category":"beauty"},{"name":"아모레카운셀러","tel":"031-284-2863","addr":"경기도 용인시 기흥구 구갈동 354-2번지 인텔존 301호","indutype":"보건위생 - 화장품","category":"beauty"},{"name":"아모레카운셀러","tel":"031-284-2863","addr":"경기도 용인시 기흥구 구갈동 354-2번지 인텔존 301호","indutype":"보건위생 - 화장품","category":"beauty"},{"name":"아모레카운셀러","tel":"031-284-2863","addr":"경기도 용인시 기흥구 구갈동 354-2번지 세영빌딩 3층 301호","indutype":"보건위생 - 화장품","category":"beauty"},{"name":"아모레카운셀러","tel":"031-284-2863","addr":"경기도 용인시 기흥구 구갈동 354-2번지 세영빌딩 3층","indutype":"보건위생 - 화장품","category":"beauty"},{"name":"아모레카운셀러","tel":"031-284-2863","addr":"경기도 용인시 기흥구 구갈동 354-2번지 세영빌딩 301호","indutype":"보건위생 - 화장품","category":"beauty"},{"name":"아모레카운셀러","tel":"031-284-2863","addr":"경기도 용인시 기흥구 구갈동 354-2번지 세영빌딩 3층","indutype":"보건위생 - 화장품","category":"beauty"},{"name":"아모레카운셀러","tel":"031-284-2863","addr":"경기도 용인시 기흥구 구갈동 354-2번지 세영빌딩 301호","indutype":"보건위생 - 화장품","category":"beauty"},{"name":"아모레카운셀러","tel":"031-284-2863","addr":"경기도 용인시 기흥구 구갈동 354-2번지 세영빌딩 301호","indutype":"보건위생 - 화장품","category":"beauty"},{"name":"아모레카운셀러","tel":"031-284-2863","addr":"경기도 용인시 기흥구 구갈동 354-2번지 세영빌딩 3층","indutype":"보건위생 - 화장품","category":"beauty"},{"name":"아모레카운셀러","tel":"031-284-2863","addr":"경기도 용인시 기흥구 구갈동 354-2번지 세영빌딩 3층 301호","indutype":"보건위생 - 화장품","category":"beauty"},{"name":"아모레카운셀러","tel":"031-284-2862","addr":"경기도 용인시 기흥구 구갈동 354-2번지 세영빌딩 3층","indutype":"보건위생 - 화장품","category":"beauty"},{"name":"아모레카운셀러","tel":"031-284-2863","addr":"경기도 용인시 기흥구 구갈동 354-2번지 세영빌딩 301호","indutype":"보건위생 - 화장품","category":"beauty"},{"name":"아모레카운셀러","tel":"031-284-2863","addr":"경기도 용인시 기흥구 구갈동 354-2번지 세영빌딩 301호","indutype":"보건위생 - 화장품","category":"beauty"},{"name":"아모레카운셀러","tel":"031-284-2863","addr":"경기도 용인시 기흥구 구갈동 354-2번지 세영빌딩 3층","indutype":"보건위생 - 화장품","category":"beauty"},{"name":"아모레카운셀러","tel":"031-284-2863","addr":"경기도 용인시 기흥구 구갈동 354-2번지 세영빌딩 301호","indutype":"보건위생 - 화장품","category":"beauty"},{"name":"아모레카운셀러","tel":"031-284-2863","addr":"경기도 용인시 기흥구 구갈동 354-2번지 세영빌딩 301호","indutype":"보건위생 - 화장품","category":"beauty"},{"name":"아모레카운셀러","tel":"031-284-2863","addr":"경기도 용인시 기흥구 구갈동 354-2번지 세영빌딩 301호","indutype":"보건위생 - 화장품","category":"beauty"},{"name":"아모레카운셀러","tel":"031-284-2863","addr":"경기도 용인시 기흥구 구갈동 354-2번지 세영빌딩 301호","indutype":"보건위생 - 화장품","category":"beauty"},{"name":"아모레카운셀러","tel":"031-284-2863","addr":"경기도 용인시 기흥구 구갈동 354-2번지 세영빌딩 301호","indutype":"보건위생 - 화장품","category":"beauty"},{"name":"아모레카운셀러","tel":"031-284-2863","addr":"경기도 용인시 기흥구 구갈동 354-2번지 세영빌딩 301호","indutype":"보건위생 - 화장품","category":"beauty"},{"name":"아모레카운셀러","tel":"031-284-2863","addr":"경기도 용인시 기흥구 구갈동 354-2번지 세영빌딩 301호","indutype":"보건위생 - 화장품","category":"beauty"},{"name":"아모레카운셀러","tel":"031-284-2863","addr":"경기도 용인시 기흥구 구갈동 354-2번지 세영빌딩 301호","indutype":"보건위생 - 화장품","category":"beauty"},{"name":"아모레카운셀러","tel":"031-284-2863","addr":"경기도 용인시 기흥구 구갈동 354-2번지 세영빌딩 301호","indutype":"보건위생 - 화장품","category":"beauty"},{"name":"아모레카운셀러","tel":"031-284-2863","addr":"경기도 용인시 기흥구 구갈동 354-2번지 세영빌딩 3층","indutype":"보건위생 - 화장품","category":"beauty"},{"name":"아모레카운셀러","tel":"031-284-2863","addr":"경기도 용인시 기흥구 구갈동 354-2번지 세영빌딩 3층 301호","indutype":"보건위생 - 화장품","category":"beauty"},{"name":"아모레카운셀러","tel":"031-284-2863","addr":"경기도 용인시 기흥구 구갈동 354-2번지 세영빌딩 3층","indutype":"보건위생 - 화장품","category":"beauty"},{"name":"아모레카운셀러","tel":"031-284-2863","addr":"경기도 용인시 기흥구 구갈동 354-2번지 세영빌딩 301호","indutype":"보건위생 - 화장품","category":"beauty"},{"name":"아모레카운셀러","tel":"031-284-2863","addr":"경기도 용인시 기흥구 구갈동 354-2번지 세영빌딩 301호","indutype":"보건위생 - 화장품","category":"beauty"},{"name":"아모레카운셀러","tel":"031-284-2863","addr":"경기도 용인시 기흥구 구갈동 354-2번지 세영빌딩 301호","indutype":"보건위생 - 화장품","category":"beauty"},{"name":"아모레카운셀러","tel":"031-837-7001","addr":"경기도 용인시 기흥구 구갈동 354-2번지 세영빌딩 301호","indutype":"보건위생 - 화장품","category":"beauty"},{"name":"아이미래로","tel":"031-281-5992","addr":"경기도 용인시 기흥구 구갈동 354-2번지 세영빌딩 504호","indutype":"보건위생 - 기타대인서비스","category":"beauty"}]},{"lat":"37.279789706","long":"127.11177209","imageIndex":13,"items":[{"name":"살롱비(SALON B)","tel":"031-287-0922","addr":"경기도 용인시 기흥구 구갈동 352-3번지 구갈지구골드프라자 101호","indutype":"보건위생 - 미용원","category":"beauty"},{"name":"펄스캠생활과학기흥지점","tel":"031-282-5595","addr":"경기도 용인시 기흥구 구갈동 352-3번지 골드프라자 301호 302호","indutype":"보건위생 - 의료용품","category":"beauty"},{"name":"헤어텐","tel":"031-282-5565","addr":"경기도 용인시 기흥구 구갈동 352-3번지 골드프라자 201,202호","indutype":"보건위생 - 미용원","category":"beauty"}]},{"lat":"37.279987932","long":"127.11177238","imageIndex":13,"items":[{"name":"세이네일","tel":"031-275-0131","addr":"경기도 용인시 기흥구 구갈동 352-2번지 711,712호","indutype":"보건위생 - 피부미용실","category":"beauty"},{"name":"이가자헤어비스 기흥구청점","tel":"031-282-2326","addr":"경기도 용인시 기흥구 구갈동 352-2번지 101호 201호","indutype":"보건위생 - 미용원","category":"beauty"}]},{"lat":"37.276962325","long":"127.10974973","imageIndex":13,"items":[{"name":"송철헤어","tel":"031-286-0898","addr":"경기도 용인시 기흥구 구갈동 400-4번지 국일빌딩 1층","indutype":"보건위생 - 미용원","category":"beauty"}]},{"lat":"37.271764658","long":"127.12693611","imageIndex":13,"items":[{"name":"수","tel":"070-4206-8572","addr":"경기도 용인시 기흥구 구갈동 579-1번지 칼리지포인트 4층 401,402호","indutype":"보건위생 - 화장품","category":"beauty"}]},{"lat":"37.281878105","long":"127.11390628","imageIndex":13,"items":[{"name":"수연헤어샵","tel":"031-274-9066","addr":"경기도 용인시 기흥구 구갈동 361-4번지","indutype":"보건위생 - 미용원","category":"beauty"}]},{"lat":"37.275762473","long":"127.11138294","imageIndex":13,"items":[{"name":"수진헤어","tel":"031-282-3575","addr":"경기도 용인시 기흥구 구갈동 406-3번지","indutype":"보건위생 - 미용원","category":"beauty"}]},{"lat":"37.280320206","long":"127.1129681","imageIndex":13,"items":[{"name":"슈네일","tel":"","addr":"경기도 용인시 기흥구 구갈동 353-6번지 서안빌딩 8층 802호","indutype":"보건위생 - 피부미용실","category":"beauty"}]},{"lat":"37.275185101","long":"127.11216009","imageIndex":13,"items":[{"name":"스칼렛","tel":"031-285-1661","addr":"경기도 용인시 기흥구 구갈동 405-8번지 상가 104호","indutype":"보건위생 - 미용원","category":"beauty"}]},{"lat":"37.270824616","long":"127.1297419","imageIndex":13,"items":[{"name":"스타일by하나","tel":"031-285-3204","addr":"경기도 용인시 기흥구 구갈동 587번지 1층 103호","indutype":"보건위생 - 미용원","category":"beauty"}]},{"lat":"37.280400835","long":"127.11346435","imageIndex":13,"items":[{"name":"신신의료기 기흥지점","tel":"031-282-0518","addr":"경기도 용인시 기흥구 구갈동 353-4번지 신건프라자 602호","indutype":"보건위생 - 의료용품","category":"beauty"},{"name":"조은얼굴","tel":"070-7425-4545","addr":"경기도 용인시 기흥구 구갈동 353-4번지 신건프라자 704호","indutype":"보건위생 - 화장품","category":"beauty"}]},{"lat":"37.274042623","long":"127.11016278","imageIndex":13,"items":[{"name":"아름다운헤어","tel":"031-274-1677","addr":"경기도 용인시 기흥구 구갈동 412-3번지","indutype":"보건위생 - 미용원","category":"beauty"},{"name":"헤어코디라인","tel":"031-281-3440","addr":"경기도 용인시 기흥구 구갈동 412-3번지","indutype":"보건위생 - 미용원","category":"beauty"}]},{"lat":"37.271043245","long":"127.12749865","imageIndex":13,"items":[{"name":"아리따움강남대점","tel":"031-287-0344","addr":"경기도 용인시 기흥구 구갈동 594-2번지 스카이프라자 105호","indutype":"보건위생 - 화장품","category":"beauty"}]},{"lat":"37.27976157","long":"127.11296728","imageIndex":13,"items":[{"name":"아모레카운셀러","tel":"031-284-2863","addr":"경기도 용인시 기흥구 구갈동 354-6번지 3층","indutype":"보건위생 - 화장품","category":"beauty"}]},{"lat":"37.276096339","long":"127.12907423","imageIndex":13,"items":[{"name":"아바드헤어","tel":"031-274-2332","addr":"경기도 용인시 기흥구 구갈동 566-3번지 승연빌딩 1층","indutype":"보건위생 - 미용원","category":"beauty"}]},{"lat":"37.271294064","long":"127.12888582","imageIndex":13,"items":[{"name":"안경스토리","tel":"031-275-2552","addr":"경기도 용인시 기흥구 구갈동 590-3번지 금랑은랑 102호","indutype":"보건위생 - 안경","category":"beauty"}]},{"lat":"37.27213179","long":"127.12910144","imageIndex":13,"items":[{"name":"어썸헤어","tel":"","addr":"경기도 용인시 기흥구 구갈동 583-3번지 발해프라자 1층 110호","indutype":"보건위생 - 미용원","category":"beauty"}]},{"lat":"37.271014217","long":"127.12938143","imageIndex":13,"items":[{"name":"에스뷰티","tel":"031-274-0104","addr":"경기도 용인시 기흥구 구갈동 589-2번지","indutype":"보건위생 - 화장품","category":"beauty"}]},{"lat":"37.27140208","long":"127.12898747","imageIndex":13,"items":[{"name":"엔오르헤어","tel":"031-283-3287","addr":"경기도 용인시 기흥구 구갈동 590-2번지 104호","indutype":"보건위생 - 미용원","category":"beauty"}]},{"lat":"37.277902394","long":"127.11621192","imageIndex":13,"items":[{"name":"엘림뷰티헤어","tel":"031-281-3759","addr":"경기도 용인시 기흥구 구갈동 377-5번지 101호","indutype":"보건위생 - 미용원","category":"beauty"}]},{"lat":"37.26935201","long":"127.13335845","imageIndex":13,"items":[{"name":"엣지헤어","tel":"031-275-7566","addr":"경기도 용인시 기흥구 구갈동 604 강남마을계룡리슈빌 상가-102","indutype":"보건위생 - 미용원","category":"beauty"}]},{"lat":"37.27715154","long":"127.10975","imageIndex":13,"items":[{"name":"연화중기","tel":"031-889-5155","addr":"경기도 용인시 기흥구 구갈동 400-5번지 두원빌딩","indutype":"보건위생 - 화장품","category":"beauty"}]},{"lat":"37.276880609","long":"127.11043741","imageIndex":13,"items":[{"name":"예쁜손톱","tel":"031-274-5667","addr":"경기도 용인시 기흥구 구갈동 401-4번지","indutype":"보건위생 - 화장품","category":"beauty"}]},{"lat":"37.278848492","long":"127.11619078","imageIndex":13,"items":[{"name":"오드리헤어샵","tel":"031-274-7746","addr":"경기도 용인시 기흥구 구갈동 378-1번지 세종당구장 102호","indutype":"보건위생 - 미용원","category":"beauty"}]},{"lat":"37.270097345","long":"127.12732797","imageIndex":13,"items":[{"name":"오땡큐","tel":"031-275-0007","addr":"경기도 용인시 기흥구 구갈동 595-3번지 103호","indutype":"보건위생 - 화장품","category":"beauty"}]},{"lat":"37.274908117","long":"127.10960026","imageIndex":13,"items":[{"name":"오땡큐 (신갈오거리점)","tel":"070-8116-7771","addr":"경기도 용인시 기흥구 구갈동 410-14번지 1층 101호","indutype":"보건위생 - 미용원","category":"beauty"}]},{"lat":"37.282681331","long":"127.11249794","imageIndex":13,"items":[{"name":"오땡큐(기흥구청점)","tel":"031-281-5933","addr":"경기도 용인시 기흥구 구갈동 346-5번지 다미문구 101호","indutype":"보건위생 - 미용원","category":"beauty"}]},{"lat":"37.274014555","long":"127.1113015","imageIndex":13,"items":[{"name":"오렌지","tel":"","addr":"경기도 용인시 기흥구 구갈동 414-6번지 2층","indutype":"보건위생 - 미용재료","category":"beauty"}]},{"lat":"37.271104464","long":"127.12924629","imageIndex":13,"items":[{"name":"올가스킨","tel":"031-0000-0000","addr":"경기도 용인시 기흥구 구갈동 589-1번지 우리부동산 101호","indutype":"보건위생 - 화장품","category":"beauty"}]},{"lat":"37.279851231","long":"127.113441","imageIndex":13,"items":[{"name":"올드림","tel":"031-285-4339","addr":"경기도 용인시 기흥구 구갈동 354-4번지 금강프라자 406호","indutype":"보건위생 - 피부미용실","category":"beauty"},{"name":"힐스템","tel":"031-287-9106","addr":"경기도 용인시 기흥구 구갈동 354-4번지 금강프라자 503호","indutype":"보건위생 - 화장품","category":"beauty"}]},{"lat":"37.275763634","long":"127.11010885","imageIndex":13,"items":[{"name":"이레헤어","tel":"031-283-6603","addr":"경기도 용인시 기흥구 구갈동 410-3번지","indutype":"보건위생 - 미용원","category":"beauty"}]},{"lat":"37.271017677","long":"127.12610057","imageIndex":13,"items":[{"name":"잇츠스킨 강남대점","tel":"031-283-9747","addr":"경기도 용인시 기흥구 구갈동 581-1번지 강남앤플러스 1층 108호","indutype":"보건위생 - 화장품","category":"beauty"}]},{"lat":"37.280320572","long":"127.11257344","imageIndex":13,"items":[{"name":"정성헤어플랜","tel":"031-275-8008","addr":"경기도 용인시 기흥구 구갈동 353-7번지 그랜드프라자 208호","indutype":"보건위생 - 미용원","category":"beauty"},{"name":"하이미 헤어아트미용실 기흥구청점","tel":"031-286-5251","addr":"경기도 용인시 기흥구 구갈동 353-7번지 그랜드프라자 2층 206,207호","indutype":"보건위생 - 미용원","category":"beauty"},{"name":"후아인","tel":"","addr":"경기도 용인시 기흥구 구갈동 353-7번지 그랜드프라자 503, 504호","indutype":"보건위생 - 화장품","category":"beauty"}]},{"lat":"37.279959564","long":"127.11321564","imageIndex":13,"items":[{"name":"정연이네 네일샵","tel":"031-286-5333","addr":"경기도 용인시 기흥구 구갈동 354-3번지","indutype":"보건위생 - 피부미용실","category":"beauty"}]},{"lat":"37.271374748","long":"127.12926929","imageIndex":13,"items":[{"name":"정인스킨케어","tel":"031-274-0890","addr":"경기도 용인시 기흥구 구갈동 588-7번지 202호","indutype":"보건위생 - 화장품","category":"beauty"}]},{"lat":"37.277297655","long":"127.11730472","imageIndex":13,"items":[{"name":"정헤어","tel":"031-5822-9294","addr":"경기도 용인시 기흥구 구갈동 275번지","indutype":"보건위생 - 미용원","category":"beauty"}]},{"lat":"37.276574281","long":"127.11041443","imageIndex":13,"items":[{"name":"지구촌미용실","tel":"031-282-5938","addr":"경기도 용인시 기흥구 구갈동 403번지","indutype":"보건위생 - 미용원","category":"beauty"}]},{"lat":"37.275989318","long":"127.10963561","imageIndex":13,"items":[{"name":"청수목욕탕","tel":"031-285-0109","addr":"경기도 용인시 기흥구 구갈동 402-14번지 42번길 10, 지하1층","indutype":"보건위생 - 사우나","category":"beauty"}]},{"lat":"37.278181733","long":"127.11618978","imageIndex":13,"items":[{"name":"초롱","tel":"031-281-2880","addr":"경기도 용인시 기흥구 구갈동 377-3번지","indutype":"보건위생 - 이용원","category":"beauty"}]},{"lat":"37.276687424","long":"127.11472175","imageIndex":13,"items":[{"name":"초빙샵","tel":"031-287-0774","addr":"경기도 용인시 기흥구 구갈동 384-1번지","indutype":"보건위생 - 미용원","category":"beauty"}]},{"lat":"37.270490643","long":"127.13029378","imageIndex":13,"items":[{"name":"커트클럽","tel":"031-274-9352","addr":"경기도 용인시 기흥구 구갈동 587-4번지 105호","indutype":"보건위생 - 미용원","category":"beauty"}]},{"lat":"37.27182665","long":"127.1279622","imageIndex":13,"items":[{"name":"퀸즈코스메틱","tel":"031-282-0209","addr":"경기도 용인시 기흥구 구갈동 593번지 환희빌 202호","indutype":"보건위생 - 화장품","category":"beauty"}]},{"lat":"37.277790993","long":"127.11005534","imageIndex":13,"items":[{"name":"탑미장","tel":"031-281-7063","addr":"경기도 용인시 기흥구 구갈동 398-3번지 성림빌딩 104호","indutype":"보건위생 - 미용원","category":"beauty"}]},{"lat":"37.277598298","long":"127.11383234","imageIndex":13,"items":[{"name":"태후사랑","tel":"","addr":"경기도 용인시 기흥구 구갈동 383-2번지 신갈프라자 1층 105호","indutype":"보건위생 - 이용원","category":"beauty"}]},{"lat":"37.276655025","long":"127.1107979","imageIndex":13,"items":[{"name":"투윈헤어","tel":"031-999-9999","addr":"경기도 용인시 기흥구 구갈동 403-1번지 2층","indutype":"보건위생 - 미용원","category":"beauty"}]},{"lat":"37.272465638","long":"127.12866228","imageIndex":13,"items":[{"name":"포스타","tel":"031-283-1262","addr":"경기도 용인시 기흥구 구갈동 583번지 204호","indutype":"보건위생 - 화장품","category":"beauty"}]},{"lat":"37.270763546","long":"127.12785897","imageIndex":13,"items":[{"name":"피부사랑","tel":"031-286-7495","addr":"경기도 용인시 기흥구 구갈동 596번지 강남피아스 507호","indutype":"보건위생 - 화장품","category":"beauty"}]},{"lat":"37.282129681","long":"127.11466215","imageIndex":13,"items":[{"name":"한신메디칼","tel":"031-286-5035","addr":"경기도 용인시 기흥구 구갈동 360-3번지 주차빌딩 1층 105호","indutype":"보건위생 - 의료용품","category":"beauty"}]},{"lat":"37.275735752","long":"127.11104464","imageIndex":13,"items":[{"name":"헤어21세기","tel":"031-285-0144","addr":"경기도 용인시 기흥구 구갈동 406-1번지","indutype":"보건위생 - 미용원","category":"beauty"}]},{"lat":"37.27665565","long":"127.11011011","imageIndex":13,"items":[{"name":"헤어샤인","tel":"031-287-1987","addr":"경기도 용인시 기흥구 구갈동 402-3번지","indutype":"보건위생 - 미용원","category":"beauty"}]},{"lat":"37.282186713","long":"127.11147109","imageIndex":13,"items":[{"name":"헤어샵감각","tel":"031-285-3455","addr":"경기도 용인시 기흥구 구갈동 345-5번지 1층","indutype":"보건위생 - 미용원","category":"beauty"}]},{"lat":"37.278371947","long":"127.11514144","imageIndex":13,"items":[{"name":"화장품(동백)","tel":"","addr":"경기도 용인시 기흥구 구갈동 380번지 한성1차아파트","indutype":"보건위생 - 화장품","category":"beauty"}]},{"lat":"37.279150712","long":"127.1109706","imageIndex":13,"items":[{"name":"힐링아로마","tel":"031-223-9159","addr":"경기도 용인시 기흥구 구갈동 391-2번지 2층","indutype":"보건위생 - 피부미용실","category":"beauty"}]}]