[{"lat":"37.59589569","long":"127.14695952","imageIndex":17,"items":[{"name":"(주)다성조명","tel":"031-565-9091","addr":"경기도 구리시 수택동 492-10부원빌딩C동1층,2층","indutype":"건축자재 - 조명기구","category":"other"}]},{"lat":"37.596394735","long":"127.15139924","imageIndex":17,"items":[{"name":"(주)드림환경건설","tel":"031-568-0089","addr":"경기도 구리시 수택동 322-26번지","indutype":"건축자재 - 인테리어전문","category":"other"}]},{"lat":"37.602807244","long":"127.14608955","imageIndex":17,"items":[{"name":"(주)바인트레이딩","tel":"031-553-6060","addr":"경기도 구리시 수택동 562-1번지","indutype":"의류 - 정장","category":"other"},{"name":"(주)바인트레이딩","tel":"031-553-6060","addr":"경기도 구리시 수택동 562-1번지","indutype":"의류 - 정장","category":"other"},{"name":"(주)바인트레이딩","tel":"031-553-6060","addr":"경기도 구리시 수택동 562-1번지","indutype":"의류 - 정장","category":"other"},{"name":"(주)바인트레이딩","tel":"031-553-6060","addr":"경기도 구리시 수택동 562-1번지","indutype":"의류 - 정장","category":"other"},{"name":"(주)바인트레이딩","tel":"031-553-6060","addr":"경기도 구리시 수택동 562-1번지","indutype":"의류 - 정장","category":"other"},{"name":"디키즈구리점","tel":"031-551-3334","addr":"경기도 구리시 수택동 562-1번지","indutype":"의류 - 기타의류","category":"other"},{"name":"벤제프골프스포츠","tel":"031-552-8834","addr":"경기도 구리시 수택동 562-1번지 1층 9호","indutype":"의류 - 스포츠의류","category":"other"},{"name":"서희어패럴","tel":"031-554-2333","addr":"경기도 구리시 수택동 562-1번지","indutype":"의류 - 정장","category":"other"},{"name":"신원지이크","tel":"031-555-8019","addr":"경기도 구리시 수택동 562-1번지 1층","indutype":"레져용품 - 스포츠·레져용품","category":"other"},{"name":"이지스포츠","tel":"031-569-5333","addr":"경기도 구리시 수택동 562-1번지 외4필지 구리패션아울렛 105호","indutype":"레져용품 - 스포츠·레져용품","category":"other"},{"name":"자쿠이(zakui)","tel":"031-555-4986","addr":"경기도 구리시 수택동 562-1번지 구리패션아울렛 2층 5호","indutype":"레져용품 - 스포츠·레져용품","category":"other"},{"name":"주)바인트레이딩","tel":"031-553-6060","addr":"경기도 구리시 수택동 562-1번지","indutype":"의류 - 정장","category":"other"},{"name":"코오롱스포츠 구리점","tel":"031-568-2335","addr":"경기도 구리시 수택동 562-1번지 1층 구리패션아울렛 11호 12호","indutype":"레져용품 - 스포츠·레져용품","category":"other"},{"name":"트랙스타구리점","tel":"031-562-3226","addr":"경기도 구리시 수택동 562-1번지 외4필지 구리패션아울렛 1층 6호","indutype":"레져용품 - 스포츠·레져용품","category":"other"},{"name":"티지스포츠(TGSPORT)","tel":"031-569-6333","addr":"경기도 구리시 수택동 562-1번지 구리패션아울렛 1층 4호","indutype":"레져용품 - 스포츠·레져용품","category":"other"}]},{"lat":"37.599140029","long":"127.14628635","imageIndex":17,"items":[{"name":"(주)센추리냉열시스템","tel":"031-565-5588","addr":"경기도 구리시 수택동 518-8번지 백합 상가 101호","indutype":"전기제품 - 냉열기기","category":"other"},{"name":"천연아트","tel":"070-4038-9426","addr":"경기도 구리시 수택동 518-8번지 백합빌라 1층 105호","indutype":"문화.취미 - 문화취미기타","category":"other"}]},{"lat":"37.591506548","long":"127.1405651","imageIndex":17,"items":[{"name":"(주)쉐프코리아","tel":"031-1544-4987","addr":"경기도 구리시 수택동 849-5번지 광희빌딩 601호","indutype":"회원제형태 - 기타4","category":"other"},{"name":"선뷰티","tel":"070-8878-1688","addr":"경기도 구리시 수택동 849-5번지 광희빌딩 202호","indutype":"회원제형태 - 기타4","category":"other"}]},{"lat":"37.597311214","long":"127.14614696","imageIndex":17,"items":[{"name":"(주)에이프레임","tel":"031-562-0701","addr":"경기도 구리시 수택동 503-6번지 G동 1층","indutype":"용역 서비스 - 기타용역서비스","category":"other"}]},{"lat":"37.58722941","long":"127.13839473","imageIndex":17,"items":[{"name":"(주)잉글리시에그구리","tel":"031-593-3237","addr":"경기도 구리시 수택동 873-1번지 302~303호","indutype":"회원제형태 - 서적","category":"other"},{"name":"주식회사 잉글리시에그구리","tel":"031-552-3237","addr":"경기도 구리시 수택동 873-1번지 미림프라자 302호 302-303호","indutype":"서적문구 - 일반서적","category":"other"},{"name":"커브스 수택클럽","tel":"031-552-2030","addr":"경기도 구리시 수택동 873-1 외1필지제2층 201호202호","indutype":"회원제형태 - 레져업소","category":"other"}]},{"lat":"37.60003301","long":"127.1377838","imageIndex":17,"items":[{"name":"(주)토마토넷","tel":"031-555-0099","addr":"경기도 구리시 수택동 370-6번지 케이티구리지사 3층","indutype":"사무통신 - 통신기기","category":"other"},{"name":"빈티지드레스","tel":"031-564-0134","addr":"경기도 구리시 수택동 370-6번지","indutype":"의류 - 기타의류","category":"other"}]},{"lat":"37.59389166","long":"127.14267557","imageIndex":17,"items":[{"name":"(주)하이엔터테인먼트","tel":"031-569-9604","addr":"경기도 구리시 수택동 454번지 신삼화주택 2호(1층)","indutype":"용역 서비스 - 종합용역","category":"other"}]},{"lat":"37.593558117","long":"127.15728153","imageIndex":17,"items":[{"name":"155플라워","tel":"031-567-5335","addr":"경기도 구리시 수택동 236-7번지","indutype":"문화.취미 - 화원","category":"other"},{"name":"GS원예","tel":"031-564-1004","addr":"경기도 구리시 수택동 236-7번지","indutype":"문화.취미 - 화원","category":"other"},{"name":"국제화원","tel":"031-555-8822","addr":"경기도 구리시 수택동 236-7번지","indutype":"문화.취미 - 화원","category":"other"},{"name":"늘봄농원","tel":"031-566-9769","addr":"경기도 구리시 수택동 236-7번지","indutype":"문화.취미 - 화원","category":"other"},{"name":"매일꽃직매장","tel":"031-565-6508","addr":"경기도 구리시 수택동 236-7번지","indutype":"문화.취미 - 화원","category":"other"},{"name":"준플라워","tel":"031-551-4883","addr":"경기도 구리시 수택동 236-7번지","indutype":"문화.취미 - 화원","category":"other"},{"name":"청산화원","tel":"031-555-5963","addr":"경기도 구리시 수택동 236-7번지","indutype":"문화.취미 - 화원","category":"other"}]},{"lat":"37.594391599","long":"127.14651502","imageIndex":17,"items":[{"name":"21마켓","tel":"031-516-5626","addr":"경기도 구리시 수택동 479-18번지","indutype":"의류 - 정장","category":"other"}]},{"lat":"37.585426739","long":"127.13901415","imageIndex":17,"items":[{"name":"ACE세탁","tel":"","addr":"경기도 구리시 수택동 877번지 금호 상가 104호","indutype":"수리서비스 - 세탁소","category":"other"},{"name":"에이스세탁소","tel":"031-551-8857","addr":"경기도 구리시 수택동 877금호상사105","indutype":"수리서비스 - 세탁소","category":"other"}]},{"lat":"37.593309072","long":"127.14762258","imageIndex":17,"items":[{"name":"AND코리아","tel":"031-565-5059","addr":"경기도 구리시 수택동 276-45번지 1층","indutype":"건축자재 - 인테리어전문","category":"other"}]},{"lat":"37.599085098","long":"127.13942404","imageIndex":17,"items":[{"name":"CALLIA SOLEZIA 구리점","tel":"031-566-5258","addr":"경기도 구리시 수택동 381-13번지","indutype":"의류 - 정장","category":"other"}]},{"lat":"37.59506453","long":"127.14131898","imageIndex":17,"items":[{"name":"CC System","tel":"031-521-3688","addr":"경기도 구리시 수택동 462-1번지","indutype":"전기제품 - 기타전기제품","category":"other"}]},{"lat":"37.592980469","long":"127.15806161","imageIndex":17,"items":[{"name":"Daisy(데이지)","tel":"031-566-7708","addr":"경기도 구리시 수택동 249-3번지 1층","indutype":"의류 - 정장","category":"other"},{"name":"대일유통","tel":"031-555-8056","addr":"경기도 구리시 수택동 249-3번지","indutype":"서적문구 - 완구점","category":"other"},{"name":"대일유통/비씨","tel":"031-555-0360","addr":"경기도 구리시 수택동 249-3번지","indutype":"별도관리 - 자체물품대금","category":"other"},{"name":"주식회사 에이텐","tel":"031-555-7942","addr":"경기도 구리시 수택동 249-3번지","indutype":"유통업 영리 - 기타유통업","category":"other"}]},{"lat":"37.599057254","long":"127.14012606","imageIndex":17,"items":[{"name":"E&L Company","tel":"031-514-1711","addr":"경기도 구리시 수택동 417-13번지 1층","indutype":"의류 - 정장","category":"other"}]},{"lat":"37.591092129","long":"127.14805987","imageIndex":17,"items":[{"name":"EnglishPlus구리점","tel":"031-565-0579","addr":"경기도 구리시 수택동 685-9번지 진성빌딩 3층","indutype":"회원제형태 - 서적","category":"other"},{"name":"두영정보통신","tel":"031-1833-9441","addr":"경기도 구리시 수택동 685-9번지 진성빌딩 2층","indutype":"사무통신 - 통신기기","category":"other"}]},{"lat":"37.597783822","long":"127.14272814","imageIndex":17,"items":[{"name":"GS25R구리5점","tel":"","addr":"경기도 구리시 수택동 424-21번지 5층","indutype":"유통업 영리 - 편 의 점","category":"other"},{"name":"세븐일레븐마사회구리4층점","tel":"","addr":"경기도 구리시 수택동 424-21번지 4층 한국마사회구리지사","indutype":"유통업 영리 - 편 의 점","category":"other"}]},{"lat":"37.586669263","long":"127.13972969","imageIndex":17,"items":[{"name":"GS25구리공원점","tel":"","addr":"경기도 구리시 수택동 876번지","indutype":"유통업 영리 - 편 의 점","category":"other"},{"name":"르 뮈게 (Le Muguet)","tel":"031-433-5376","addr":"경기도 구리시 수택동 876번지 2층 204호","indutype":"문화.취미 - 화원","category":"other"},{"name":"산들 디자인","tel":"031-557-8295","addr":"경기도 구리시 수택동 876번지 206호","indutype":"건축자재 - 인테리어전문","category":"other"}]},{"lat":"37.598502768","long":"127.13653543","imageIndex":17,"items":[{"name":"GS25구리꽃길점","tel":"","addr":"경기도 구리시 수택동 376-3번지 1층","indutype":"유통업 영리 - 편 의 점","category":"other"},{"name":"아띠샵","tel":"031-555-5955","addr":"경기도 구리시 수택동 376-3번지 1층","indutype":"의류 - 정장","category":"other"}]},{"lat":"37.594454502","long":"127.14665102","imageIndex":17,"items":[{"name":"GS25구리서일점","tel":"031-552-6353","addr":"경기도 구리시 수택동 479-16번지","indutype":"유통업 영리 - 편 의 점","category":"other"}]},{"lat":"37.592866666","long":"127.14087332","imageIndex":17,"items":[{"name":"GS25구리타운점","tel":"","addr":"경기도 구리시 수택동 444-12번지","indutype":"유통업 영리 - 편 의 점","category":"other"}]},{"lat":"37.592036305","long":"127.14211729","imageIndex":17,"items":[{"name":"GS25구리해원점","tel":"02-2006-2118","addr":"경기도 구리시 수택동 449-14번지 해원빌딩 104호","indutype":"유통업 영리 - 편 의 점","category":"other"}]},{"lat":"37.596036999","long":"127.14181901","imageIndex":17,"items":[{"name":"GS25수택공원점","tel":"","addr":"경기도 구리시 수택동 468-5번지","indutype":"유통업 영리 - 편 의 점","category":"other"}]},{"lat":"37.597505536","long":"127.14186703","imageIndex":17,"items":[{"name":"GS25수택서현점","tel":"031-551-3459","addr":"경기도 구리시 수택동 426-48번지 1층","indutype":"유통업 영리 - 편 의 점","category":"other"}]},{"lat":"37.592313267","long":"127.14408796","imageIndex":17,"items":[{"name":"GS25수택잉꼬점","tel":"","addr":"경기도 구리시 수택동 652-1번지","indutype":"유통업 영리 - 편 의 점","category":"other"}]},{"lat":"37.600701161","long":"127.14426235","imageIndex":17,"items":[{"name":"GS25수택제일점","tel":"","addr":"경기도 구리시 수택동 527-42번지 104호","indutype":"유통업 영리 - 편 의 점","category":"other"}]},{"lat":"37.592145858","long":"127.14089464","imageIndex":17,"items":[{"name":"GS텔레콤","tel":"031-566-1115","addr":"경기도 구리시 수택동 449-22번지 1층","indutype":"사무통신 - 통신기기","category":"other"}]},{"lat":"37.600725166","long":"127.146765","imageIndex":17,"items":[{"name":"HR무역","tel":"031-563-3778","addr":"경기도 구리시 수택동 541-10번지 1층","indutype":"신변잡화 - 액세서리","category":"other"},{"name":"하랑청소년교향악단","tel":"031-513-2077","addr":"경기도 구리시 수택동 541-10","indutype":"문화.취미 - 티켓","category":"other"}]},{"lat":"37.595253744","long":"127.14879264","imageIndex":17,"items":[{"name":"IS컴퓨터","tel":"031-569-2857","addr":"경기도 구리시 수택동 290-6번지","indutype":"사무통신 - 컴퓨터","category":"other"}]},{"lat":"37.593337084","long":"127.14681871","imageIndex":17,"items":[{"name":"IT전산","tel":"031-563-6656","addr":"경기도 구리시 수택동 276-133번지","indutype":"전기제품 - 기타전기제품","category":"other"},{"name":"메이블링","tel":"031-1111-1111","addr":"경기도 구리시 수택동 276-133번지 102호","indutype":"의류 - 정장","category":"other"}]},{"lat":"37.5918143","long":"127.13934282","imageIndex":17,"items":[{"name":"JFD Company","tel":"031-514-3166","addr":"경기도 구리시 수택동 850-8번지 금산빌딩 6층","indutype":"의류 - 아동의류","category":"other"},{"name":"슈가","tel":"031-554-9627","addr":"경기도 구리시 수택동 850-8번지 금산빌딩 1층","indutype":"의류 - 정장","category":"other"}]},{"lat":"37.599865798","long":"127.14212055","imageIndex":17,"items":[{"name":"JH모바일","tel":"031-551-5588","addr":"경기도 구리시 수택동 526-10번지 1층","indutype":"사무통신 - 통신기기","category":"other"}]},{"lat":"37.598787133","long":"127.13997836","imageIndex":17,"items":[{"name":"K&M","tel":"031-557-5689","addr":"경기도 구리시 수택동 417-11번지","indutype":"의류 - 아동의류","category":"other"},{"name":"그랑프리","tel":"031-551-4223","addr":"경기도 구리시 수택동 417-11번지","indutype":"의류 - 정장","category":"other"},{"name":"풍기인견","tel":"031-568-5350","addr":"경기도 구리시 수택동 417-11번지 101호","indutype":"의류 - 정장","category":"other"},{"name":"함영상회","tel":"031-563-8757","addr":"경기도 구리시 수택동 417-11호","indutype":"의류 - 내의판매","category":"other"}]},{"lat":"37.597252769","long":"127.14228553","imageIndex":17,"items":[{"name":"Krp고려","tel":"031-554-7506","addr":"경기도 구리시 수택동 433-52번지","indutype":"서적문구 - 문구용품","category":"other"}]},{"lat":"37.592145755","long":"127.14848086","imageIndex":17,"items":[{"name":"LG.삼성 에어컨 설치","tel":"","addr":"경기도 구리시 수택동 271-1번지 보림빌라 302호","indutype":"용역 서비스 - 기타용역서비스","category":"other"}]},{"lat":"37.599835627","long":"127.14475896","imageIndex":17,"items":[{"name":"LG샷시인테리어","tel":"031-564-6007","addr":"경기도 구리시 수택동 521-40번지","indutype":"건축자재 - 인테리어전문","category":"other"}]},{"lat":"37.596909625","long":"127.15033586","imageIndex":17,"items":[{"name":"LG시스템에어컨구리점","tel":"02-966-7770","addr":"경기도 구리시 수택동 343-1번지 대우주택 가동 101호","indutype":"용역 서비스 - 기타용역서비스","category":"other"}]},{"lat":"37.591892585","long":"127.14920502","imageIndex":17,"items":[{"name":"MEGA통신","tel":"031-515-6789","addr":"경기도 구리시 수택동 268-15번지 1층","indutype":"사무통신 - 통신기기","category":"other"}]},{"lat":"37.598615394","long":"127.14045364","imageIndex":17,"items":[{"name":"NII(니)구리점","tel":"031-552-3077","addr":"경기도 구리시 수택동 419-1번지","indutype":"의류 - 스포츠의류","category":"other"},{"name":"바른자세요가원","tel":"031-551-3361","addr":"경기도 구리시 수택동 419-1, 2층","indutype":"회원제형태 - 레져업소","category":"other"},{"name":"초례청 주단","tel":"031-566-2238","addr":"경기도 구리시 수택동 419-1번지","indutype":"의류 - 맞춤복점","category":"other"}]},{"lat":"37.598695926","long":"127.14092938","imageIndex":17,"items":[{"name":"O.K 뉴패션","tel":"031-551-5551","addr":"경기도 구리시 수택동 419-35번지 1층","indutype":"의류 - 정장","category":"other"}]},{"lat":"37.59758669","long":"127.14181057","imageIndex":17,"items":[{"name":"R&P trading","tel":"031-7698-9939","addr":"경기도 구리시 수택동 426-47 3 4/","indutype":"레져용품 - 스포츠·레져용품","category":"other"}]},{"lat":"37.597988164","long":"127.14514045","imageIndex":17,"items":[{"name":"REX","tel":"","addr":"경기도 구리시 수택동 507-2번지 동진주택 1-202 12/","indutype":"수리서비스 - 신변잡화수리","category":"other"}]},{"lat":"37.596613036","long":"127.14231831","imageIndex":17,"items":[{"name":"SLC","tel":"031-555-6772","addr":"경기도 구리시 수택동 469-1번지 무학율촌마을 지층상가 101호~106호","indutype":"신변잡화 - 기타잡화","category":"other"}]},{"lat":"37.600173791","long":"127.14070563","imageIndex":17,"items":[{"name":"SWAG (스웩)","tel":"02-1111-1111","addr":"경기도 구리시 수택동 404-9번지","indutype":"의류 - 스포츠의류","category":"other"},{"name":"빨강구두의유혹","tel":"031-558-4173","addr":"경기도 구리시 수택동 404-9번지 1층","indutype":"신변잡화 - 신발","category":"other"},{"name":"제이골드","tel":"031-567-5209","addr":"경기도 구리시 수택동 404-9번지 1층","indutype":"신변잡화 - 액세서리","category":"other"},{"name":"학사문구센타","tel":"031-552-0957","addr":"경기도 구리시 수택동 404-9번지","indutype":"서적문구 - 문구용품","category":"other"}]},{"lat":"37.592588361","long":"127.14756457","imageIndex":17,"items":[{"name":"TH주방설비","tel":"031-554-3714","addr":"경기도 구리시 수택동 276-79번지","indutype":"주방용구 - 주방용구","category":"other"}]},{"lat":"37.592252428","long":"127.14964731","imageIndex":17,"items":[{"name":"TPGOLF","tel":"031-565-0753","addr":"경기도 구리시 수택동 268-1 2층 1호~12호","indutype":"레져용품 - 골프용품 전문점","category":"other"},{"name":"그린가스 주식회사","tel":"031-568-9111","addr":"경기도 구리시 수택동 268-1번지 동양상가 B동 1층 7,8호","indutype":"건축자재 - 보일러·펌프·샷시","category":"other"},{"name":"삼화페인트 파랑상사","tel":"031-555-4977","addr":"경기도 구리시 수택동 268-1번지 동양 상가 1층","indutype":"건축자재 - 페인트","category":"other"},{"name":"주식회사더블유렌트카","tel":"031-1577-2752","addr":"경기도 구리시 수택동 268-1번지 동양상가 B동 16호","indutype":"여행 - 렌터카","category":"other"}]},{"lat":"37.600313809","long":"127.14420499","imageIndex":17,"items":[{"name":"Tina(티나)","tel":"031-553-0072","addr":"경기도 구리시 수택동 521-1번지","indutype":"신변잡화 - 기타잡화","category":"other"}]},{"lat":"37.599867234","long":"127.14089757","imageIndex":17,"items":[{"name":"YJ플라워","tel":"","addr":"경기도 구리시 수택동 409-5번지","indutype":"문화.취미 - 화원","category":"other"},{"name":"세븐일레븐구리제일점","tel":"031-551-5204","addr":"경기도 구리시 수택동 409-5번지 1층 102호","indutype":"유통업 영리 - 편 의 점","category":"other"}]},{"lat":"37.591671722","long":"127.14562663","imageIndex":17,"items":[{"name":"a*","tel":"031-553-9332","addr":"경기도 구리시 수택동 698-10번지 상가우측 1층","indutype":"유통업 영리 - 편 의 점","category":"other"}]},{"lat":"37.600585425","long":"127.14309575","imageIndex":17,"items":[{"name":"by 린","tel":"031-513-2432","addr":"경기도 구리시 수택동 525-12번지 1층","indutype":"의류 - 맞춤복점","category":"other"},{"name":"신화꽃","tel":"031-566-5630","addr":"경기도 구리시 수택동 525-12번지","indutype":"문화.취미 - 화원","category":"other"}]},{"lat":"37.603139723","long":"127.14681495","imageIndex":17,"items":[{"name":"가구 갤러리","tel":"031-551-8644","addr":"경기도 구리시 수택동 561번지","indutype":"가구 - 일반가구","category":"other"},{"name":"제니스","tel":"031-567-1353","addr":"경기도 구리시 수택동 561번지","indutype":"의류 - 기타의류","category":"other"}]},{"lat":"37.596065766","long":"127.14786571","imageIndex":17,"items":[{"name":"가구플래너","tel":"031-568-7885","addr":"경기도 구리시 수택동 572-4번지 1층","indutype":"가구 - 일반가구","category":"other"}]},{"lat":"37.594757159","long":"127.14220162","imageIndex":17,"items":[{"name":"가람","tel":"","addr":"경기도 구리시 수택동 465-22번지 지하1층","indutype":"광학제품 - 사진관","category":"other"},{"name":"대창기획","tel":"","addr":"경기도 구리시 수택동 465-22번지 1층","indutype":"용역 서비스 - 종합용역","category":"other"}]},{"lat":"37.597030414","long":"127.1398166","imageIndex":17,"items":[{"name":"가야만물","tel":"031-514-5176","addr":"경기도 구리시 수택동 431-3번지","indutype":"신변잡화 - 기념품점","category":"other"}]},{"lat":"37.600281996","long":"127.14814567","imageIndex":17,"items":[{"name":"가온누리 교육사","tel":"070-7433-0565","addr":"경기도 구리시 수택동 544-5번지 지하","indutype":"서적문구 - 기타서적문구","category":"other"},{"name":"유디코","tel":"031-556-9106","addr":"경기도 구리시 수택동 544-5번지 1층","indutype":"용역 서비스 - 종합용역","category":"other"},{"name":"유디코","tel":"31-556-9106","addr":"경기도 구리시 수택동 544-5번지 1층","indutype":"용역 서비스 - 종합용역","category":"other"}]},{"lat":"37.593335107","long":"127.1409308","imageIndex":17,"items":[{"name":"가인란제리","tel":"031-567-9370","addr":"경기도 구리시 수택동 444-6번지","indutype":"의류 - 내의판매","category":"other"}]},{"lat":"37.591786233","long":"127.14023726","imageIndex":17,"items":[{"name":"강동제록스","tel":"031-568-7134","addr":"경기도 구리시 수택동 850-5번지 신안빌딩 1층 103호","indutype":"서적문구 - 출판 및 인쇄물","category":"other"}]},{"lat":"37.594696033","long":"127.14806687","imageIndex":17,"items":[{"name":"거창상사","tel":"031-564-4747","addr":"경기도 구리시 수택동 588-2번지","indutype":"건축자재 - 보일러·펌프·샷시","category":"other"},{"name":"레이","tel":"070-8243-1222","addr":"경기도 구리시 수택동 588-2번지 1층","indutype":"신변잡화 - 기타잡화","category":"other"},{"name":"삼보앵글","tel":"031-565-6789","addr":"경기도 구리시 수택동 588-2번지","indutype":"기타 - 기계공구","category":"other"},{"name":"코스테스(costes)","tel":"031-871-9436","addr":"경기도 구리시 수택동 588-2번지 2층","indutype":"유통업 영리 - 편 의 점","category":"other"}]},{"lat":"37.591447093","long":"127.14511668","imageIndex":17,"items":[{"name":"건강의료기","tel":"031-556-7582","addr":"경기도 구리시 수택동 697-3번지 중앙 1층","indutype":"기타의료기관 - 기타의료기관 및 기타","category":"other"},{"name":"제일컴퓨터","tel":"031-565-3335","addr":"경기도 구리시 수택동 697-3번지","indutype":"사무통신 - 컴퓨터","category":"other"}]},{"lat":"37.596699223","long":"127.14559094","imageIndex":17,"items":[{"name":"경기동부보육교사교육원","tel":"031-569-9090","addr":"경기도 구리시 수택동 504-2번지 세진빌딩 3층 경기동부보육교사교육원","indutype":"기타 - 비영리/대상","category":"other"},{"name":"구리사랑방 인지재활 주야간보호센터","tel":"031-569-6565","addr":"경기도 구리시 수택동 504-2번지 세진빌딩 4층","indutype":"기타의료기관 - 기타의료기관 및 기타","category":"other"},{"name":"사랑방노인주야간보호센터","tel":"031-569-6565","addr":"경기도 구리시 수택동 504-2번지 4층","indutype":"기타의료기관 - 기타의료기관 및 기타","category":"other"},{"name":"씨유구리제일점","tel":"031-552-7787","addr":"경기도 구리시 수택동 504-2번지","indutype":"유통업 영리 - 편 의 점","category":"other"},{"name":"한복사랑방","tel":"031-562-9987","addr":"경기도 구리시 수택동 504-2번지","indutype":"의류 - 맞춤복점","category":"other"},{"name":"현대키즈","tel":"070-4209-4809","addr":"경기도 구리시 수택동 504-2번지 4층","indutype":"서적문구 - 기타서적문구","category":"other"}]},{"lat":"37.594057312","long":"127.13970925","imageIndex":17,"items":[{"name":"경기백산타월","tel":"031-562-6921","addr":"경기도 구리시 수택동 440번지 쌍용상가 2층 203호","indutype":"직물 - 옷감·직물","category":"other"}]},{"lat":"37.595979411","long":"127.14478561","imageIndex":17,"items":[{"name":"경기부동산공인중개사사무소","tel":"031-554-4989","addr":"경기도 구리시 수택동 480번지","indutype":"용역 서비스 - 부동산 중개·임대","category":"other"},{"name":"열쇠마트","tel":"031-566-1313","addr":"경기도 구리시 수택동 480번지","indutype":"수리서비스 - 기타수리서비스","category":"other"},{"name":"이호전기","tel":"031-562-0754","addr":"경기도 구리시 수택동 480번지","indutype":"신변잡화 - 기타잡화","category":"other"}]},{"lat":"37.598925494","long":"127.13718164","imageIndex":17,"items":[{"name":"경기수족관","tel":"031-569-6800","addr":"경기도 구리시 수택동 375-4번지 1층","indutype":"문화.취미 - 수족관","category":"other"}]},{"lat":"37.598836283","long":"127.13640015","imageIndex":17,"items":[{"name":"경기인쇄","tel":"031-557-6226","addr":"경기도 구리시 수택동 376-1번지","indutype":"기타 - 기타 전문점","category":"other"},{"name":"아모아테라피","tel":"031-554-5510","addr":"경기도 구리시 수택동 376-1번지 2층","indutype":"회원제형태 - 기타4","category":"other"},{"name":"우리부동산공인중개사사무소","tel":"031-566-8400","addr":"경기도 구리시 수택동 376-1번지 1층 102호","indutype":"용역 서비스 - 부동산 중개·임대","category":"other"}]},{"lat":"37.59811207","long":"127.13939961","imageIndex":17,"items":[{"name":"경기포장","tel":"031-562-8830","addr":"경기도 구리시 수택동 380-28번지","indutype":"유통업 영리 - 기타유통업","category":"other"}]},{"lat":"37.600002485","long":"127.14831498","imageIndex":17,"items":[{"name":"경동보일러","tel":"031-551-7835","addr":"경기도 구리시 수택동 544-17번지","indutype":"건축자재 - 보일러·펌프·샷시","category":"other"}]},{"lat":"37.597200862","long":"127.14045103","imageIndex":17,"items":[{"name":"경원O.A","tel":"","addr":"경기도 구리시 수택동 431-11번지 4층","indutype":"사무통신 - 사무용 OA기기","category":"other"},{"name":"상신상사","tel":"031-563-1296","addr":"경기도 구리시 수택동 431-11번지","indutype":"건축자재 - 기타건축자재","category":"other"},{"name":"정우물산","tel":"031-555-4037","addr":"경기도 구리시 수택동 431-11번지","indutype":"신변잡화 - 기타잡화","category":"other"}]},{"lat":"37.596057506","long":"127.14725424","imageIndex":17,"items":[{"name":"경일공업사","tel":"031-566-9081","addr":"경기도 구리시 수택동 492-9번지","indutype":"건축자재 - 보일러·펌프·샷시","category":"other"}]},{"lat":"37.594783827","long":"127.14250739","imageIndex":17,"items":[{"name":"경천교육","tel":"070-8241-8748","addr":"경기도 구리시 수택동 458-6번지","indutype":"회원제형태 - 서적","category":"other"}]},{"lat":"37.598864885","long":"127.14282076","imageIndex":17,"items":[{"name":"고릴라파이프(구리점)","tel":"031-566-0121","addr":"경기도 구리시 수택동 524-7번지","indutype":"기타 - 기타 전문점","category":"other"}]},{"lat":"37.595561011","long":"127.14803458","imageIndex":17,"items":[{"name":"고명산업설비","tel":"031-552-0482","addr":"경기도 구리시 수택동 290-7번지","indutype":"건축자재 - 보일러·펌프·샷시","category":"other"}]},{"lat":"37.591200552","long":"127.14781099","imageIndex":17,"items":[{"name":"골드골프","tel":"031-568-0766","addr":"경기도 구리시 수택동 685-1번지 부광빌딩 4층","indutype":"회원제형태 - 레져업소","category":"other"}]},{"lat":"37.598862207","long":"127.13737403","imageIndex":17,"items":[{"name":"골드공인중개사","tel":"031-567-7722","addr":"경기도 구리시 수택동 375-12번지","indutype":"용역 서비스 - 부동산 중개·임대","category":"other"},{"name":"기분좋은날","tel":"031-565-4928","addr":"경기도 구리시 수택동 375-12번지","indutype":"의류 - 정장","category":"other"}]},{"lat":"37.591841748","long":"127.13898054","imageIndex":17,"items":[{"name":"골드뱅크","tel":"031-551-7071","addr":"경기도 구리시 수택동 847-5번지 104호","indutype":"신변잡화 - 귀금속","category":"other"},{"name":"미니스톱구리번영점","tel":"031-551-8245","addr":"경기도 구리시 수택동 847-5번지 도레미 상가 106호","indutype":"유통업 영리 - 편 의 점","category":"other"}]},{"lat":"37.596035298","long":"127.14325707","imageIndex":17,"items":[{"name":"공간디자인 인테리어","tel":"031-553-2650","addr":"경기도 구리시 수택동 472-1번지 A동 4층 402호 구리트레져","indutype":"건축자재 - 인테리어전문","category":"other"}]},{"lat":"37.596812888","long":"127.1409259","imageIndex":17,"items":[{"name":"광덕철물","tel":"031-552-0482","addr":"경기도 구리시 수택동 433-27번지","indutype":"건축자재 - 목재·석재·철물","category":"other"}]},{"lat":"37.596420889","long":"127.14478645","imageIndex":17,"items":[{"name":"광성주방","tel":"031-566-5416","addr":"경기도 구리시 수택동 487-15번지","indutype":"주방용구 - 주방용구","category":"other"}]},{"lat":"37.600426288","long":"127.14051359","imageIndex":17,"items":[{"name":"구리 로엠","tel":"031-553-9000","addr":"경기도 구리시 수택동 404-3번지 영강빌딩","indutype":"의류 - 정장","category":"other"},{"name":"구리사진관 이미지샷","tel":"031-567-4140","addr":"경기도 구리시 수택동 404-3번지 지층","indutype":"광학제품 - 사진관","category":"other"}]},{"lat":"37.591419818","long":"127.14532044","imageIndex":17,"items":[{"name":"구리 만물열쇠","tel":"031-554-1304","addr":"경기도 구리시 수택동 697-18번지 연일주택","indutype":"수리서비스 - 기타수리서비스","category":"other"}]},{"lat":"37.59792579","long":"127.14456283","imageIndex":17,"items":[{"name":"구리 쉐르빌","tel":"02-497-0440","addr":"경기도 구리시 수택동 512-12번지","indutype":"용역 서비스 - 부동산 중개·임대","category":"other"}]},{"lat":"37.59911697","long":"127.14297976","imageIndex":17,"items":[{"name":"구리24시열쇠철물","tel":"031-554-7878","addr":"경기도 구리시 수택동 524-11번지 1층","indutype":"건축자재 - 목재·석재·철물","category":"other"}]},{"lat":"37.598894762","long":"127.14039753","imageIndex":17,"items":[{"name":"구리2아날도","tel":"031-552-7198","addr":"경기도 구리시 수택동 414-9번지","indutype":"의류 - 스포츠의류","category":"other"}]},{"lat":"37.598840188","long":"127.14083906","imageIndex":17,"items":[{"name":"구리BYC","tel":"031-557-7187","addr":"경기도 구리시 수택동 419번지","indutype":"의류 - 내의판매","category":"other"},{"name":"정 확 사","tel":"031-562-0918","addr":"경기도 구리시 수택동 419번지","indutype":"신변잡화 - 시계","category":"other"}]},{"lat":"37.591507968","long":"127.13934226","imageIndex":17,"items":[{"name":"구리김태식복싱체육관","tel":"031-557-1212","addr":"경기도 구리시 수택동 849번지 이화빌딩 3층","indutype":"회원제형태 - 레져업소","category":"other"}]},{"lat":"37.598005231","long":"127.1382897","imageIndex":17,"items":[{"name":"구리냉동산업","tel":"","addr":"경기도 구리시 수택동 380-14번지 201호","indutype":"기타 - 기계공구","category":"other"}]},{"lat":"37.598197477","long":"127.14339701","imageIndex":17,"items":[{"name":"구리동양복싱체육관","tel":"031-569-7987","addr":"경기도 구리시 수택동 515-59번지","indutype":"회원제형태 - 레져업소","category":"other"}]},{"lat":"37.600139944","long":"127.13881447","imageIndex":17,"items":[{"name":"구리로이드점","tel":"031-555-0725","addr":"경기도 구리시 수택동 383-5번지","indutype":"신변잡화 - 시계","category":"other"}]},{"lat":"37.598978506","long":"127.13809896","imageIndex":17,"items":[{"name":"구리만물","tel":"031-563-7554","addr":"경기도 구리시 수택동 375-34번지","indutype":"신변잡화 - 기념품점","category":"other"}]},{"lat":"37.592922305","long":"127.13951468","imageIndex":17,"items":[{"name":"구리무훈체육관","tel":"031-562-7271","addr":"경기도 구리시 수택동 445-15번지","indutype":"회원제형태 - 레져업소","category":"other"}]},{"lat":"37.6001453","long":"127.14195121","imageIndex":17,"items":[{"name":"구리미싱","tel":"031-562-6712","addr":"경기도 구리시 수택동 526-8번지","indutype":"기타 - 기계공구","category":"other"},{"name":"런시스(RUNSYS)","tel":"031-551-3121","addr":"경기도 구리시 수택동 526-8번지","indutype":"사무통신 - 컴퓨터","category":"other"},{"name":"삼흥상사","tel":"031-566-6710","addr":"경기도 구리시 수택동 526-8번지 삼흥상사","indutype":"건축자재 - 기타건축자재","category":"other"},{"name":"폰사요몰 중고폰 구리점","tel":"031-553-9245","addr":"경기도 구리시 수택동 526-8번지 2층","indutype":"사무통신 - 통신기기","category":"other"}]},{"lat":"37.595811955","long":"127.14164874","imageIndex":17,"items":[{"name":"구리서비스","tel":"031-562-3652","addr":"경기도 구리시 수택동 468-7번지","indutype":"회원제형태 - 기타4","category":"other"},{"name":"실로암메디칼","tel":"","addr":"경기도 구리시 수택동 468-7번지 1호","indutype":"레져용품 - 스포츠·레져용품","category":"other"}]},{"lat":"37.595615473","long":"127.14770631","imageIndex":17,"items":[{"name":"구리소방전기조명","tel":"031-568-7233","addr":"경기도 구리시 수택동 574-6번지 1층","indutype":"기타 - 기계공구","category":"other"},{"name":"주식회사 씽큐디지털","tel":"031-551-9388","addr":"경기도 구리시 수택동 574-6번지","indutype":"전기제품 - 가전제품","category":"other"}]},{"lat":"37.597144384","long":"127.1425118","imageIndex":17,"items":[{"name":"구리스카이정보통신","tel":"031-566-7011","addr":"경기도 구리시 수택동 482번지","indutype":"사무통신 - 통신기기","category":"other"},{"name":"미니스톱구리남양점","tel":"031-340-4261","addr":"경기도 구리시 수택동 482번지","indutype":"유통업 영리 - 편 의 점","category":"other"}]},{"lat":"37.590920427","long":"127.14847847","imageIndex":17,"items":[{"name":"구리애견미용","tel":"031-557-4722","addr":"경기도 구리시 수택동 265-5번지","indutype":"문화.취미 - 애완동물","category":"other"}]},{"lat":"37.595424535","long":"127.14164802","imageIndex":17,"items":[{"name":"구리열쇠","tel":"031-556-9213","addr":"경기도 구리시 수택동 466-29번지 오상빌라 201호","indutype":"기타 - 기타 전문점","category":"other"}]},{"lat":"37.599896289","long":"127.13915375","imageIndex":17,"items":[{"name":"구리장례식장","tel":"031-564-9944","addr":"경기도 구리시 수택동 383-16번지","indutype":"용역 서비스 - 가례서비스업","category":"other"}]},{"lat":"37.59745299","long":"127.14809487","imageIndex":17,"items":[{"name":"구리전장","tel":"031-563-1180","addr":"경기도 구리시 수택동 501-23번지","indutype":"수리서비스 - 기타수리서비스","category":"other"}]},{"lat":"37.586760486","long":"127.13875618","imageIndex":17,"items":[{"name":"구리제일라이온스클럽","tel":"031-568-3100","addr":"경기도 구리시 수택동 875번지 금호프라자2차 505호","indutype":"문화.취미 - 문화취미기타","category":"other"},{"name":"더플랫","tel":"031-565-6990","addr":"경기도 구리시 수택동 875번지 외1필지2차103호","indutype":"의류 - 정장","category":"other"},{"name":"봄 플라워","tel":"031-551-0355","addr":"경기도 구리시 수택동 875번지 금호프라자2 110호","indutype":"문화.취미 - 화원","category":"other"},{"name":"쉬즈","tel":"070-8899-2320","addr":"경기도 구리시 수택동 875번지 금호프라자2 109호","indutype":"의류 - 정장","category":"other"},{"name":"아이유","tel":"","addr":"경기도 구리시 수택동 875번지 금호프라자2 107호","indutype":"의류 - 정장","category":"other"},{"name":"일이공육(1206)","tel":"031-556-0550","addr":"경기도 구리시 수택동 875번지 금호프라자2 105호","indutype":"의류 - 정장","category":"other"},{"name":"제이블리","tel":"031-569-8529","addr":"경기도 구리시 수택동 875번지 금호프라자2 106호","indutype":"의류 - 정장","category":"other"}]},{"lat":"37.595256135","long":"127.14684506","imageIndex":17,"items":[{"name":"구리종합가구","tel":"031-562-8927","addr":"경기도 구리시 수택동 489-2번지","indutype":"가구 - 일반가구","category":"other"}]},{"lat":"37.597864547","long":"127.14303403","imageIndex":17,"items":[{"name":"구리중앙로타리클럽","tel":"031-556-3636","addr":"경기도 구리시 수택동 424-28번지 아이프랜드빌딩 403호","indutype":"기타 - 비영리/대상","category":"other"},{"name":"동그라미산후조리원","tel":"031-567-0012","addr":"경기도 구리시 수택동 424-28번지 6층 현주아이프랜드상가","indutype":"기타의료기관 - 산후조리원","category":"other"},{"name":"지니:어스","tel":"070-8835-0408","addr":"경기도 구리시 수택동 424-28번지 현주Ifriend빌딩 704호","indutype":"신변잡화 - 기타잡화","category":"other"}]},{"lat":"37.591147201","long":"127.14723343","imageIndex":17,"items":[{"name":"구리코트로","tel":"031-562-3307","addr":"경기도 구리시 수택동 685-3번지 2층","indutype":"레져용품 - 스포츠·레져용품","category":"other"},{"name":"벌 사진관","tel":"031-562-1559","addr":"경기도 구리시 수택동 685-3번지 201호","indutype":"광학제품 - 사진관","category":"other"}]},{"lat":"37.596255471","long":"127.14745844","imageIndex":17,"items":[{"name":"구리하나인쇄소","tel":"031-562-0048","addr":"경기도 구리시 수택동 493-14번지","indutype":"서적문구 - 출판 및 인쇄물","category":"other"}]},{"lat":"37.595093656","long":"127.14709385","imageIndex":17,"items":[{"name":"국선도무예협회구리선원","tel":"031-564-6445","addr":"경기도 구리시 수택동 489-4번지","indutype":"회원제형태 - 레져업소","category":"other"},{"name":"샵앤샵","tel":"031-000-0000","addr":"경기도 구리시 수택동 489-4번지 지층","indutype":"사무통신 - 통신기기","category":"other"}]},{"lat":"37.594064871","long":"127.1409548","imageIndex":17,"items":[{"name":"굴뚝스팀코리아","tel":"031-1644-1295","addr":"경기도 구리시 수택동 442번지 바이오에너지상사 302동 3층","indutype":"용역 서비스 - 종합용역","category":"other"}]},{"lat":"37.58705851","long":"127.13814533","imageIndex":17,"items":[{"name":"굿라인 for you","tel":"031-567-6042","addr":"경기도 구리시 수택동 873-9번지 고덕프라자 301호","indutype":"회원제형태 - 기타4","category":"other"},{"name":"이레","tel":"031-512-5550","addr":"경기도 구리시 수택동 873-9번지 고덕프라자 지층 01호 비","indutype":"문화.취미 - 민예·공예품","category":"other"}]},{"lat":"37.592893244","long":"127.14125835","imageIndex":17,"items":[{"name":"굿모닝월드프랜차이즈구리점(배네슈수제화)","tel":"031-569-5418","addr":"경기도 구리시 수택동 444-14번지","indutype":"신변잡화 - 신발","category":"other"},{"name":"펫이좋아","tel":"031-567-8080","addr":"경기도 구리시 수택동 444-14번지","indutype":"문화.취미 - 애완동물","category":"other"}]},{"lat":"37.594785095","long":"127.1414317","imageIndex":17,"items":[{"name":"귀뚜라미보일러구리서비스/시공설치","tel":"031-567-9000","addr":"경기도 구리시 수택동 462-6번지 102호","indutype":"용역 서비스 - 기타용역서비스","category":"other"},{"name":"실내인테리어","tel":"031-566-9346","addr":"경기도 구리시 수택동 462-6번지 1층","indutype":"건축자재 - 인테리어전문","category":"other"}]},{"lat":"37.598640043","long":"127.14248062","imageIndex":17,"items":[{"name":"귀빈수제화","tel":"031-566-8493","addr":"경기도 구리시 수택동 423-17번지","indutype":"신변잡화 - 제화","category":"other"},{"name":"만화카페 만만세","tel":"031-552-4303","addr":"경기도 구리시 수택동 423-17번지 은수빌딩 3층","indutype":"서적문구 - 일반서적","category":"other"}]},{"lat":"37.597196827","long":"127.14387072","imageIndex":17,"items":[{"name":"규방가구","tel":"031-551-1527","addr":"경기도 구리시 수택동 486-9번지","indutype":"가구 - 일반가구","category":"other"}]},{"lat":"37.595534926","long":"127.14726455","imageIndex":17,"items":[{"name":"그린","tel":"070-4025-4524","addr":"경기도 구리시 수택동 492-18번지 2층","indutype":"직물 - 침구·수예점","category":"other"},{"name":"꽃님노래뮤비방","tel":"031-564-2540","addr":"경기도 구리시 수택동 492-18번지","indutype":"용역 서비스 - 종합용역","category":"other"},{"name":"삼성통신","tel":"031-552-2201","addr":"경기도 구리시 수택동 492-18번지","indutype":"사무통신 - 통신기기","category":"other"}]},{"lat":"37.594144899","long":"127.14931133","imageIndex":17,"items":[{"name":"그린세탁편의점","tel":"031-514-7045","addr":"경기도 구리시 수택동 280-9번지","indutype":"수리서비스 - 세탁소","category":"other"},{"name":"품애개","tel":"031-555-8401","addr":"경기도 구리시 수택동 280-9번지 1층 3호","indutype":"문화.취미 - 애완동물","category":"other"}]},{"lat":"37.593731351","long":"127.14109005","imageIndex":17,"items":[{"name":"그린시스템","tel":"031-563-0578","addr":"경기도 구리시 수택동 442-4번지","indutype":"레져용품 - 스포츠·레져용품","category":"other"}]},{"lat":"37.594065252","long":"127.14814491","imageIndex":17,"items":[{"name":"그린유통","tel":"031-564-7710","addr":"경기도 구리시 수택동 279-5번지","indutype":"신변잡화 - 기타잡화","category":"other"}]},{"lat":"37.598861897","long":"127.1376458","imageIndex":17,"items":[{"name":"그린조이 구리점","tel":"031-563-6829","addr":"경기도 구리시 수택동 375-20번지 1층","indutype":"레져용품 - 스포츠·레져용품","category":"other"},{"name":"이동우콜렉션","tel":"031-555-2332","addr":"경기도 구리시 수택동 375-20번지 1층 101호,102호","indutype":"의류 - 정장","category":"other"}]},{"lat":"37.599447905","long":"127.13731847","imageIndex":17,"items":[{"name":"극단 마중물","tel":"031-557-0350","addr":"경기도 구리시 수택동 374-1","indutype":"문화.취미 - 티켓","category":"other"}]},{"lat":"37.590953415","long":"127.14356455","imageIndex":17,"items":[{"name":"글로리작은도서관","tel":"031-555-5058","addr":"경기도 구리시 수택동 853번지 유치원동 101호","indutype":"기타 - 비영리/대상","category":"other"},{"name":"정오중기","tel":"031-798-0608","addr":"경기도 구리시 수택동 853 럭키상가204","indutype":"기타 - 기계공구","category":"other"}]},{"lat":"37.596586954","long":"127.1415143","imageIndex":17,"items":[{"name":"금강타일건재","tel":"031-563-7709","addr":"경기도 구리시 수택동 433-54번지 금강종합건재","indutype":"건축자재 - 기타건축자재","category":"other"}]},{"lat":"37.592648902","long":"127.14217504","imageIndex":17,"items":[{"name":"금메달인테리어","tel":"031-567-5022","addr":"경기도 구리시 수택동 449-6번지","indutype":"직물 - 카페트,커튼,천막,지물","category":"other"},{"name":"포포키드","tel":"031-551-4788","addr":"경기도 구리시 수택동 449-6번지","indutype":"의류 - 아동의류","category":"other"}]},{"lat":"37.601979046","long":"127.14551043","imageIndex":17,"items":[{"name":"금산유통","tel":"031-566-5454","addr":"경기도 구리시 수택동 535-8번지 나-2호","indutype":"회원제형태 - 기타4","category":"other"}]},{"lat":"37.600368301","long":"127.14384273","imageIndex":17,"items":[{"name":"금택철물건재","tel":"031-563-3326","addr":"경기도 구리시 수택동 527-35","indutype":"건축자재 - 목재·석재·철물","category":"other"}]},{"lat":"37.596811478","long":"127.14212618","imageIndex":17,"items":[{"name":"금호기계","tel":"031-553-5353","addr":"경기도 구리시 수택동 469-2번지","indutype":"건축자재 - 보일러·펌프·샷시","category":"other"}]},{"lat":"37.59983682","long":"127.14376246","imageIndex":17,"items":[{"name":"금화당","tel":"031-567-9200","addr":"경기도 구리시 수택동 522-7번지","indutype":"신변잡화 - 귀금속","category":"other"}]},{"lat":"37.59950626","long":"127.14139515","imageIndex":17,"items":[{"name":"기삶사(기술로삶사는사람들)","tel":"031-8865-9777","addr":"경기도 구리시 수택동 405-14번지 2층","indutype":"용역 서비스 - 종합용역","category":"other"}]},{"lat":"37.598839764","long":"127.14120142","imageIndex":17,"items":[{"name":"김봉자 손뜨개 교실","tel":"031-553-9355","addr":"경기도 구리시 수택동 422-8번지","indutype":"직물 - 침구·수예점","category":"other"},{"name":"동부그릇","tel":"031-567-5649","addr":"경기도 구리시 수택동 422-8번지","indutype":"주방용구 - 주방용식기","category":"other"},{"name":"현대지물포","tel":"031-563-1564","addr":"경기도 구리시 수택동 422-8번지","indutype":"직물 - 카페트,커튼,천막,지물","category":"other"}]},{"lat":"37.597953045","long":"127.13664769","imageIndex":17,"items":[{"name":"김철기세무회계사무소","tel":"031-566-0306","addr":"경기도 구리시 수택동 376-8번지 3층","indutype":"용역 서비스 - 법률회계서비스(개인)","category":"other"},{"name":"박홍수세무회계사무소","tel":"031-554-1600","addr":"경기도 구리시 수택동 376-8번지 해청빌딩 4층","indutype":"용역 서비스 - 법률회계서비스(개인)","category":"other"}]},{"lat":"37.599003656","long":"127.13972963","imageIndex":17,"items":[{"name":"꼴레뜨슈즈마트","tel":"031-557-7250","addr":"경기도 구리시 수택동 417-3번지","indutype":"신변잡화 - 신발","category":"other"},{"name":"아씨반찬","tel":"031-562-0171","addr":"경기도 구리시 수택동 417-3번지","indutype":"회원제형태 - 기타4","category":"other"}]},{"lat":"37.597183295","long":"127.14760744","imageIndex":17,"items":[{"name":"꼼질공방 협동조합","tel":"031-512-4350","addr":"경기도 구리시 수택동 494번지 남양주택 가동 102호","indutype":"문화.취미 - 문화취미기타","category":"other"}]},{"lat":"37.595119603","long":"127.14797711","imageIndex":17,"items":[{"name":"꽃 같은 개","tel":"031-111-1111","addr":"경기도 구리시 수택동 288번지 1층","indutype":"문화.취미 - 애완동물","category":"other"},{"name":"성림커텐","tel":"031-566-7722","addr":"경기도 구리시 수택동 288번지","indutype":"건축자재 - 인테리어전문","category":"other"},{"name":"정우전기조명","tel":"031-562-0588","addr":"경기도 구리시 수택동 288번지","indutype":"건축자재 - 조명기구","category":"other"}]},{"lat":"37.598335999","long":"127.14053239","imageIndex":17,"items":[{"name":"꽃씨","tel":"031-552-5210","addr":"경기도 구리시 수택동 419-14번지","indutype":"의류 - 정장","category":"other"}]},{"lat":"37.596339937","long":"127.14467306","imageIndex":17,"items":[{"name":"꽃자작나무","tel":"031-591-7835","addr":"경기도 구리시 수택동 487-13번지 1층","indutype":"문화.취미 - 화원","category":"other"},{"name":"디앤엘유통","tel":"031-514-8208","addr":"경기도 구리시 수택동 487-13번지","indutype":"신변잡화 - 기타잡화","category":"other"},{"name":"보금당","tel":"031-563-4333","addr":"경기도 구리시 수택동 487-13번지","indutype":"신변잡화 - 시계","category":"other"},{"name":"옷샘","tel":"031-563-3566","addr":"경기도 구리시 수택동 487-13번지","indutype":"의류 - 기타의류","category":"other"},{"name":"폰테마노","tel":"031-000-0000","addr":"경기도 구리시 수택동 487-13번지 1층","indutype":"신변잡화 - 제화","category":"other"},{"name":"후니네꽃농원","tel":"031-551-8323","addr":"경기도 구리시 수택동 487-13번지","indutype":"문화.취미 - 화원","category":"other"}]},{"lat":"37.599256414","long":"127.13931111","imageIndex":17,"items":[{"name":"꽃지.Jang","tel":"031-567-4998","addr":"경기도 구리시 수택동 382-18번지","indutype":"신변잡화 - 액세서리","category":"other"}]},{"lat":"37.594425487","long":"127.14076297","imageIndex":17,"items":[{"name":"나루치","tel":"031-552-1040","addr":"경기도 구리시 수택동 462-35번지 1층","indutype":"회원제형태 - 서적","category":"other"}]},{"lat":"37.600335542","long":"127.1410683","imageIndex":17,"items":[{"name":"나비구두","tel":"031-566-7718","addr":"경기도 구리시 수택동 404-7번지","indutype":"신변잡화 - 제화","category":"other"},{"name":"더토마토","tel":"031-512-6506","addr":"경기도 구리시 수택동 404-7","indutype":"의류 - 정장","category":"other"},{"name":"쥬얼제이(Jewel J)","tel":"031-516-2236","addr":"경기도 구리시 수택동 404-7번지","indutype":"신변잡화 - 액세서리","category":"other"},{"name":"휴베스트샵","tel":"031-568-2282","addr":"경기도 구리시 수택동 404-7번지 한국씨티은행 지하","indutype":"의류 - 정장","category":"other"}]},{"lat":"37.597808065","long":"127.13737214","imageIndex":17,"items":[{"name":"나진쇼가무단","tel":"031-553-2288","addr":"경기도 구리시 수택동 378번지 지층","indutype":"문화.취미 - 티켓","category":"other"}]},{"lat":"37.592892846","long":"127.14159803","imageIndex":17,"items":[{"name":"난생처음 옷가게","tel":"","addr":"경기도 구리시 수택동 447-37번지 성경빌딩 1층","indutype":"의류 - 정장","category":"other"},{"name":"보물창고","tel":"031-511-6223","addr":"경기도 구리시 수택동 447-37번지 성경빌딩 1층","indutype":"의류 - 기타의류","category":"other"},{"name":"진흥","tel":"031-558-7821","addr":"경기도 구리시 수택동 447-37번지 성경빌딩 지하","indutype":"직물 - 침구·수예점","category":"other"}]},{"lat":"37.597645916","long":"127.14503789","imageIndex":17,"items":[{"name":"남도종합광고","tel":"031-564-4424","addr":"경기도 구리시 수택동 507-6번지","indutype":"용역 서비스 - 종합용역","category":"other"},{"name":"선디자인광고","tel":"031-564-4424","addr":"경기도 구리시 수택동 507-6번지 1층","indutype":"용역 서비스 - 종합용역","category":"other"}]},{"lat":"37.595255031","long":"127.14020966","imageIndex":17,"items":[{"name":"남선상사","tel":"031-553-3304","addr":"경기도 구리시 수택동 437-16번지","indutype":"기타 - 기계공구","category":"other"}]},{"lat":"37.598725791","long":"127.13848351","imageIndex":17,"items":[{"name":"남성복크로커달다일 (구리지점)","tel":"031-564-5004","addr":"경기도 구리시 수택동 381-22번지 뱅뱅의류 1층 106호","indutype":"의류 - 정장","category":"other"},{"name":"알리프랑","tel":"031-567-6200","addr":"경기도 구리시 수택동 381-22번지","indutype":"의류 - 기타의류","category":"other"}]},{"lat":"37.596204587","long":"127.14484265","imageIndex":17,"items":[{"name":"남양공예","tel":"031-568-5419","addr":"경기도 구리시 수택동 488-17번지","indutype":"문화.취미 - 민예·공예품","category":"other"}]},{"lat":"37.60019556","long":"127.1374557","imageIndex":17,"items":[{"name":"남양농약종묘사","tel":"031-566-6464","addr":"경기도 구리시 수택동 370-5번지","indutype":"농업 - 비료,사료,종자","category":"other"},{"name":"반석기획","tel":"031-553-7800","addr":"경기도 구리시 수택동 370-5번지","indutype":"용역 서비스 - 종합용역","category":"other"},{"name":"양키캔들 구리점","tel":"031-556-0705","addr":"경기도 구리시 수택동 370-5번지 1층","indutype":"신변잡화 - 기타잡화","category":"other"}]},{"lat":"37.595224742","long":"127.14298379","imageIndex":17,"items":[{"name":"남양시장 정비사업 조합","tel":"031-551-2100","addr":"경기도 구리시 수택동 458번지 2층","indutype":"건축자재 - 부동산 분양","category":"other"},{"name":"씨유구리새싹점","tel":"080-080-3663","addr":"경기도 구리시 수택동 458번지","indutype":"유통업 영리 - 편 의 점","category":"other"},{"name":"아이월드어린이스포츠","tel":"070-7627-8131","addr":"경기도 구리시 수택동 458번지","indutype":"용역 서비스 - 사무서비스","category":"other"}]},{"lat":"37.598537376","long":"127.14545856","imageIndex":17,"items":[{"name":"남양유리","tel":"031-563-8054","addr":"경기도 구리시 수택동 509-2번지","indutype":"건축자재 - 유리","category":"other"},{"name":"이레 종합 인테리어","tel":"031-554-8885","addr":"경기도 구리시 수택동 509-2번지 1층","indutype":"건축자재 - 인테리어전문","category":"other"}]},{"lat":"37.598783703","long":"127.14289987","imageIndex":17,"items":[{"name":"내아이","tel":"031-555-0977","addr":"경기도 구리시 수택동 524-8번지 102 (1층102호~103호)","indutype":"레져용품 - 스포츠·레져용품","category":"other"}]},{"lat":"37.593871524","long":"127.15875416","imageIndex":17,"items":[{"name":"내품에다육","tel":"031-558-1010","addr":"경기도 구리시 수택동 158-8, 159-9번지","indutype":"문화.취미 - 화원","category":"other"},{"name":"승주플라워","tel":"031-552-0217","addr":"경기도 구리시 수택동 158-8, 9번지 비닐하우스","indutype":"문화.취미 - 화원","category":"other"}]},{"lat":"37.599781867","long":"127.14450973","imageIndex":17,"items":[{"name":"놀다가게","tel":"031-512-8517","addr":"경기도 구리시 수택동 522-54번지","indutype":"문화.취미 - 수족관","category":"other"}]},{"lat":"37.599589709","long":"127.13936834","imageIndex":17,"items":[{"name":"놀숲 구리돌다리점","tel":"031-553-2403","addr":"경기도 구리시 수택동 382-23번지 2층","indutype":"서적문구 - 일반서적","category":"other"},{"name":"마로","tel":"02-565-9148","addr":"경기도 구리시 수택동 382-23번지 굿모닝마트 24호","indutype":"의류 - 정장","category":"other"},{"name":"못된고양이/(주)엔캣 구리돌다리점","tel":"070-8857-9441","addr":"경기도 구리시 수택동 382-23번지","indutype":"신변잡화 - 액세서리","category":"other"},{"name":"배트맨","tel":"","addr":"경기도 구리시 수택동 382-23번지 지하1층","indutype":"의류 - 정장","category":"other"},{"name":"삼도보석","tel":"031-563-7219","addr":"경기도 구리시 수택동 382-23번지","indutype":"신변잡화 - 귀금속","category":"other"},{"name":"어씀플레이","tel":"031-563-0289","addr":"경기도 구리시 수택동 382-23번지 청양빌딩 9.10호","indutype":"의류 - 정장","category":"other"},{"name":"콩나물Ⅱ","tel":"070-4251-9143","addr":"경기도 구리시 수택동 382-23번지 굿모닝마트 1층 3호","indutype":"의류 - 정장","category":"other"},{"name":"콩나물Ⅱ","tel":"031-562-9143","addr":"경기도 구리시 수택동 382-23번지 굿모닝마트 1층 3호","indutype":"의류 - 정장","category":"other"}]},{"lat":"37.593752181","long":"127.14628733","imageIndex":17,"items":[{"name":"누벨바그ll(Nouvelle Vague ll)","tel":"070-7721-7981","addr":"경기도 구리시 수택동 596-13번지","indutype":"의류 - 정장","category":"other"},{"name":"블랑(Blanc)","tel":"070-6189-9295","addr":"경기도 구리시 수택동 596-13번지 1층","indutype":"의류 - 정장","category":"other"},{"name":"아띠랑스","tel":"031-111-1111","addr":"경기도 구리시 수택동 596-13번지 1층","indutype":"의류 - 정장","category":"other"},{"name":"케이라인 컴퍼니","tel":"031-595-9257","addr":"경기도 구리시 수택동 596-13번지 1층 103호 케이라인 컴퍼니","indutype":"서적문구 - 완구점","category":"other"}]},{"lat":"37.593391688","long":"127.13875691","imageIndex":17,"items":[{"name":"뉴월드옷수선","tel":"031-551-9408","addr":"경기도 구리시 수택동 438-55번지","indutype":"수리서비스 - 세탁소","category":"other"}]},{"lat":"37.598142092","long":"127.14450662","imageIndex":17,"items":[{"name":"늘거부","tel":"031-569-5129","addr":"경기도 구리시 수택동 512-5번지 1층","indutype":"의류 - 아동의류","category":"other"}]},{"lat":"37.597836722","long":"127.1510624","imageIndex":17,"items":[{"name":"니트팩토리","tel":"","addr":"경기도 구리시 수택동 355번지","indutype":"기타 - 기계공구","category":"other"},{"name":"도그베이 구리점","tel":"031-555-8959","addr":"경기도 구리시 수택동 355번지","indutype":"문화.취미 - 애완동물","category":"other"}]},{"lat":"37.594310414","long":"127.14659413","imageIndex":17,"items":[{"name":"닛시","tel":"031-566-7365","addr":"경기도 구리시 수택동 479-17번지","indutype":"의류 - 기타의류","category":"other"},{"name":"대박통신 수택점","tel":"031-564-6011","addr":"경기도 구리시 수택동 479-17번지 1층 102호","indutype":"사무통신 - 통신기기","category":"other"},{"name":"러블리 (lovely)","tel":"031-111-1111","addr":"경기도 구리시 수택동 479-17번지 1층","indutype":"의류 - 정장","category":"other"},{"name":"블랙","tel":"031-557-9651","addr":"경기도 구리시 수택동 479-17번지 1층","indutype":"의류 - 정장","category":"other"},{"name":"블랙","tel":"031-557-9651","addr":"경기도 구리시 수택동 479-17번지 1층","indutype":"의류 - 정장","category":"other"}]},{"lat":"37.595088801","long":"127.1436516","imageIndex":17,"items":[{"name":"다비다","tel":"031-564-0691","addr":"경기도 구리시 수택동 474-31번지","indutype":"의류 - 내의판매","category":"other"}]},{"lat":"37.602447963","long":"127.14517159","imageIndex":17,"items":[{"name":"다스트릿댄스학원","tel":"031-566-5556","addr":"경기도 구리시 수택동 534-2번지 성원메스티지상가306호~307호 306호","indutype":"회원제형태 - 레져업소","category":"other"},{"name":"베스트릭","tel":"","addr":"경기도 구리시 수택동 534-2번지 106호,성원메스티지 상가","indutype":"의류 - 내의판매","category":"other"},{"name":"휴대폰폰가게","tel":"031-000-0001","addr":"경기도 구리시 수택동 534-2번지 성원에스티지 상가 1층 103호","indutype":"사무통신 - 통신기기","category":"other"}]},{"lat":"37.595867106","long":"127.14822767","imageIndex":17,"items":[{"name":"다원양행","tel":"","addr":"경기도 구리시 수택동 334-13번지 1층","indutype":"유통업 영리 - 기타유통업","category":"other"}]},{"lat":"37.596669989","long":"127.14740263","imageIndex":17,"items":[{"name":"다윤","tel":"031-553-7070","addr":"경기도 구리시 수택동 493-10번지","indutype":"광학제품 - 사진관","category":"other"}]},{"lat":"37.591813729","long":"127.14739324","imageIndex":17,"items":[{"name":"다음컴넷","tel":"","addr":"경기도 구리시 수택동 683-19번지 1층","indutype":"사무통신 - 컴퓨터","category":"other"}]},{"lat":"37.596616415","long":"127.1470062","imageIndex":17,"items":[{"name":"다해종합설비","tel":"031-515-0303","addr":"경기도 구리시 수택동 493-2번지 1층","indutype":"용역 서비스 - 기타용역서비스","category":"other"}]},{"lat":"37.5938962","long":"127.14640084","imageIndex":17,"items":[{"name":"달봉이 펫샵","tel":"031-555-7337","addr":"경기도 구리시 수택동 596-8번지 1층 좌측호","indutype":"문화.취미 - 애완동물","category":"other"}]},{"lat":"37.59286527","long":"127.14206222","imageIndex":17,"items":[{"name":"담다공방","tel":"031-111-1111","addr":"경기도 구리시 수택동 447-23번지","indutype":"신변잡화 - 액세서리","category":"other"}]},{"lat":"37.598032014","long":"127.1385049","imageIndex":17,"items":[{"name":"대건종합광고","tel":"031-554-1212","addr":"경기도 구리시 수택동 380-17번지","indutype":"용역 서비스 - 종합용역","category":"other"}]},{"lat":"37.595452378","long":"127.14845333","imageIndex":17,"items":[{"name":"대광에이디 (DAEGNANGAD)","tel":"031-516-2671","addr":"경기도 구리시 수택동 290-18번지 2층","indutype":"용역 서비스 - 종합용역","category":"other"}]},{"lat":"37.599256217","long":"127.13948097","imageIndex":17,"items":[{"name":"대동상회","tel":"031-563-5975","addr":"경기도 구리시 수택동 382-25번지","indutype":"의류 - 내의판매","category":"other"},{"name":"샤트렌 구리점","tel":"031-551-9244","addr":"경기도 구리시 수택동 382-25번지","indutype":"레져용품 - 스포츠·레져용품","category":"other"},{"name":"청바지세상(외의)","tel":"031-563-1100","addr":"경기도 구리시 수택동 382-25번지","indutype":"의류 - 정장","category":"other"}]},{"lat":"37.595617846","long":"127.14575872","imageIndex":17,"items":[{"name":"대동장식","tel":"031-566-2425","addr":"경기도 구리시 수택동 488-7번지","indutype":"직물 - 카페트,커튼,천막,지물","category":"other"}]},{"lat":"37.593228872","long":"127.13931143","imageIndex":17,"items":[{"name":"대박공인중개사사무소","tel":"031-567-0094","addr":"경기도 구리시 수택동 445번지","indutype":"용역 서비스 - 부동산 중개·임대","category":"other"},{"name":"얼룩빼기이박사","tel":"031-564-3001","addr":"경기도 구리시 수택동 445번지 1층","indutype":"수리서비스 - 세탁소","category":"other"}]},{"lat":"37.592923887","long":"127.14578754","imageIndex":17,"items":[{"name":"대박로또점","tel":"031-557-0099","addr":"경기도 구리시 수택동 276-63번지","indutype":"신변잡화 - 기타잡화","category":"other"}]},{"lat":"37.59745332","long":"127.14029297","imageIndex":17,"items":[{"name":"대성정보","tel":"31-577-8901","addr":"경기도 구리시 수택동 427-17번지","indutype":"사무통신 - 통신기기","category":"other"}]},{"lat":"37.595782431","long":"127.14375482","imageIndex":17,"items":[{"name":"대성철물설비","tel":"031-563-4319","addr":"경기도 구리시 수택동 473","indutype":"건축자재 - 목재·석재·철물","category":"other"},{"name":"분도조경및오뚜기철물","tel":"031-552-5613","addr":"경기도 구리시 수택동 473번지","indutype":"건축자재 - 인테리어전문","category":"other"},{"name":"콩퀼트","tel":"031-111-1111","addr":"경기도 구리시 수택동 473번지 1층","indutype":"직물 - 침구·수예점","category":"other"}]},{"lat":"37.597285989","long":"127.14465221","imageIndex":17,"items":[{"name":"대영기획","tel":"031-566-6408","addr":"경기도 구리시 수택동 506-4번지","indutype":"건축자재 - 인테리어전문","category":"other"}]},{"lat":"37.599173311","long":"127.1410435","imageIndex":17,"items":[{"name":"대원전기","tel":"031-563-7880","addr":"경기도 구리시 수택동 409-23번지","indutype":"건축자재 - 조명기구","category":"other"},{"name":"제이스토리","tel":"02-000-0000","addr":"경기도 구리시 수택동 409-23번지","indutype":"의류 - 정장","category":"other"},{"name":"제이스토리","tel":"02-3436-9905","addr":"경기도 구리시 수택동 409-23번지","indutype":"의류 - 정장","category":"other"},{"name":"플로렌티아","tel":"070-8867-0521","addr":"경기도 구리시 수택동 409-23번지 1층","indutype":"문화.취미 - 화원","category":"other"},{"name":"황실한복","tel":"031-569-7271","addr":"경기도 구리시 수택동 409-23번지","indutype":"의류 - 맞춤복점","category":"other"}]},{"lat":"37.595646607","long":"127.14432072","imageIndex":17,"items":[{"name":"대일홈인테리어","tel":"031-557-7221","addr":"경기도 구리시 수택동 474번지","indutype":"직물 - 카페트,커튼,천막,지물","category":"other"}]},{"lat":"37.603336954","long":"127.14761936","imageIndex":17,"items":[{"name":"대주조명","tel":"031-562-1515","addr":"경기도 구리시 수택동 561-4번지","indutype":"건축자재 - 조명기구","category":"other"},{"name":"한일지하수개발,한일자동펌프","tel":"031-562-4958","addr":"경기도 구리시 수택동 561-4번지 1층","indutype":"건축자재 - 보일러·펌프·샷시","category":"other"}]},{"lat":"37.598093079","long":"127.14023753","imageIndex":17,"items":[{"name":"대한불교사","tel":"031-562-8851","addr":"경기도 구리시 수택동 418-16번지","indutype":"신변잡화 - 기념품점","category":"other"}]},{"lat":"37.592811371","long":"127.14192624","imageIndex":17,"items":[{"name":"대흥사","tel":"031-569-9412","addr":"경기도 구리시 수택동 447-22번지","indutype":"수리서비스 - 세탁소","category":"other"},{"name":"엘림기획","tel":"031-551-0426","addr":"경기도 구리시 수택동 447-22번지","indutype":"용역 서비스 - 종합용역","category":"other"}]},{"lat":"37.587030361","long":"127.13911897","imageIndex":17,"items":[{"name":"댄스인사이드","tel":"031-555-8383","addr":"경기도 구리시 수택동 874-9번지 정우빌딩 4층","indutype":"용역 서비스 - 종합용역","category":"other"},{"name":"디아이(DI)엔터테인먼트","tel":"031-555-8383","addr":"경기도 구리시 수택동 874-9번지 4층","indutype":"회원제형태 - 기타4","category":"other"},{"name":"디아이댄스학원","tel":"031-555-8383","addr":"경기도 구리시 수택동 874-9번지 정우빌딩 4층","indutype":"회원제형태 - 레져업소","category":"other"}]},{"lat":"37.598812336","long":"127.14154108","imageIndex":17,"items":[{"name":"더데이걸","tel":"031-566-5470","addr":"경기도 구리시 수택동 422-4","indutype":"의류 - 기타의류","category":"other"}]},{"lat":"37.598508539","long":"127.13936637","imageIndex":17,"items":[{"name":"더베이직하우스 경기구리점","tel":"031-565-7323","addr":"경기도 구리시 수택동 380-26번지","indutype":"레져용품 - 스포츠·레져용품","category":"other"},{"name":"희윤유통","tel":"031-568-5350","addr":"경기도 구리시 수택동 380-26번지 후레쉬베리 102호","indutype":"의류 - 정장","category":"other"}]},{"lat":"37.592534819","long":"127.13957059","imageIndex":17,"items":[{"name":"더블S","tel":"031-562-3061","addr":"경기도 구리시 수택동 448번지 대호빌딩 가동 1층","indutype":"사무통신 - 통신기기","category":"other"},{"name":"스카이문고","tel":"031-565-4747","addr":"경기도 구리시 수택동 448번지 대호빌딩 지층 102호","indutype":"서적문구 - 일반서적","category":"other"},{"name":"신진양행","tel":"031-557-7752","addr":"경기도 구리시 수택동 448번지 대호빌딩 나동 105호","indutype":"의류 - 내의판매","category":"other"}]},{"lat":"37.593675829","long":"127.14976333","imageIndex":17,"items":[{"name":"더엠플로라","tel":"031-565-6509","addr":"경기도 구리시 수택동 888번지 구리대명데시앙","indutype":"문화.취미 - 화원","category":"other"},{"name":"데시앙공인중개사사무소","tel":"031-569-8900","addr":"경기도 구리시 수택동 888번지 구리태영데시앙 상가동 105호","indutype":"용역 서비스 - 부동산 중개·임대","category":"other"},{"name":"백마크리닝 구리5호점","tel":"","addr":"경기도 구리시 수택동 888번지 구리태영데시앙 상가동 1층 108호","indutype":"수리서비스 - 세탁소","category":"other"},{"name":"토브","tel":"031-565-9495","addr":"경기도 구리시 수택동 888번지 구리태영데시앙 상가동 101호","indutype":"의류 - 정장","category":"other"}]},{"lat":"37.594923191","long":"127.13889557","imageIndex":17,"items":[{"name":"덕슨코리아","tel":"02-2047-6366","addr":"경기도 구리시 수택동 437-32번지 1층 호","indutype":"기타 - 기계공구","category":"other"}]},{"lat":"37.599369673","long":"127.14261787","imageIndex":17,"items":[{"name":"데이지","tel":"02-000-0000","addr":"경기도 구리시 수택동 524-16번지 1층","indutype":"의류 - 정장","category":"other"},{"name":"태화방재산업","tel":"031-566-1192","addr":"경기도 구리시 수택동 524-16번지 1층 101호","indutype":"용역 서비스 - 기타용역서비스","category":"other"}]},{"lat":"37.598727318","long":"127.13714732","imageIndex":17,"items":[{"name":"도그버디구리점","tel":"031-566-0234","addr":"경기도 구리시 수택동 377-1번지 동원빌딩 1층","indutype":"문화.취미 - 애완동물","category":"other"},{"name":"마코스포츠구리점","tel":"031-563-2005","addr":"경기도 구리시 수택동 377-1번지 동원빌딩 1층 101호 102호","indutype":"레져용품 - 스포츠·레져용품","category":"other"},{"name":"바이더웨이구리골드점","tel":"031-569-7077","addr":"경기도 구리시 수택동 377-1번지 동원빌딩 1층","indutype":"유통업 영리 - 편 의 점","category":"other"},{"name":"세븐일레븐구리골드점","tel":"","addr":"경기도 구리시 수택동 377-1번지 1층","indutype":"유통업 영리 - 편 의 점","category":"other"}]},{"lat":"37.600363088","long":"127.14062671","imageIndex":17,"items":[{"name":"도깨비방망이","tel":"031-555-0564","addr":"경기도 구리시 수택동 404-6","indutype":"의류 - 기타의류","category":"other"}]},{"lat":"37.594954254","long":"127.15053582","imageIndex":17,"items":[{"name":"도시경관길","tel":"070-8823-6016","addr":"경기도 구리시 수택동 293-14번지","indutype":"용역 서비스 - 기타용역서비스","category":"other"}]},{"lat":"37.595947951","long":"127.1409243","imageIndex":17,"items":[{"name":"도시커텐","tel":"031-552-9355","addr":"경기도 구리시 수택동 436-23번지","indutype":"직물 - 침구·수예점","category":"other"},{"name":"수택자전거마트","tel":"031-563-6125","addr":"경기도 구리시 수택동 436-23번지","indutype":"레져용품 - 스포츠·레져용품","category":"other"}]},{"lat":"37.600175304","long":"127.13940338","imageIndex":17,"items":[{"name":"돌다리텔레콤","tel":"031-555-5880","addr":"경기도 구리시 수택동 383-10번지","indutype":"사무통신 - 통신기기","category":"other"},{"name":"미니골드 남양주구리점","tel":"031-556-2222","addr":"경기도 구리시 수택동 383-10번지","indutype":"신변잡화 - 액세서리","category":"other"}]},{"lat":"37.596424886","long":"127.14889684","imageIndex":17,"items":[{"name":"동광공조","tel":"070-4085-2407","addr":"경기도 구리시 수택동 495-20번지 동명빌라 303호","indutype":"용역 서비스 - 기타용역서비스","category":"other"}]},{"lat":"37.594010328","long":"127.14884683","imageIndex":17,"items":[{"name":"동구상사","tel":"031-552-0080","addr":"경기도 구리시 수택동 278-7","indutype":"신변잡화 - 기타잡화","category":"other"}]},{"lat":"37.592673224","long":"127.14445097","imageIndex":17,"items":[{"name":"동남닥터puretopia","tel":"031-567-2566","addr":"경기도 구리시 수택동 651-11번지","indutype":"신변잡화 - 기타잡화","category":"other"}]},{"lat":"37.598204152","long":"127.14534469","imageIndex":17,"items":[{"name":"동덕아트","tel":"031-564-5141","addr":"경기도 구리시 수택동 509-6번지 석산빌딩","indutype":"용역 서비스 - 종합용역","category":"other"},{"name":"현대냉동설비","tel":"031-567-4614","addr":"경기도 구리시 수택동 509-6번지","indutype":"수리서비스 - 기타수리서비스","category":"other"}]},{"lat":"37.597034259","long":"127.14419879","imageIndex":17,"items":[{"name":"동서사인","tel":"031-553-6633","addr":"경기도 구리시 수택동 487","indutype":"건축자재 - 인테리어전문","category":"other"},{"name":"컴뱅크구리점","tel":"031-565-0005","addr":"경기도 구리시 수택동 487번지","indutype":"사무통신 - 컴퓨터","category":"other"},{"name":"호수공구철물","tel":"031-563-5545","addr":"경기도 구리시 수택동 487번지 1층","indutype":"건축자재 - 목재·석재·철물","category":"other"}]},{"lat":"37.600558799","long":"127.14275598","imageIndex":17,"items":[{"name":"동서커뮤니티","tel":"031-565-0006","addr":"경기도 구리시 수택동 526-28번지","indutype":"레져용품 - 스포츠·레져용품","category":"other"}]},{"lat":"37.601337773","long":"127.14681148","imageIndex":17,"items":[{"name":"동서커뮤티니","tel":"031-565-0006","addr":"경기도 구리시 수택동 554-9번지","indutype":"레져용품 - 스포츠·레져용품","category":"other"}]},{"lat":"37.593113024","long":"127.14584451","imageIndex":17,"items":[{"name":"동성기업","tel":"031-562-3039","addr":"경기도 구리시 수택동 669-1번지","indutype":"용역 서비스 - 기타용역서비스","category":"other"},{"name":"레드퀸(RED QUEEN)","tel":"031-567-4988","addr":"경기도 구리시 수택동 669-1번지 1층 좌측호","indutype":"의류 - 정장","category":"other"},{"name":"현대철물","tel":"031-562-4519","addr":"경기도 구리시 수택동 669-1번지","indutype":"건축자재 - 목재·석재·철물","category":"other"}]},{"lat":"37.597087175","long":"127.14515006","imageIndex":17,"items":[{"name":"동신제지","tel":"031-862-2050","addr":"경기도 구리시 수택동 506-9번지 하이스트빌 101동 1308호","indutype":"회원제형태 - 기타4","category":"other"},{"name":"스피드 하우스","tel":"02-6959-7690","addr":"경기도 구리시 수택동 506-9번지 하이스트빌 2층 201호","indutype":"회원제형태 - 서적","category":"other"},{"name":"아도니제","tel":"031-569-3155","addr":"경기도 구리시 수택동 506-9번지 하이스트빌 108호","indutype":"의류 - 정장","category":"other"}]},{"lat":"37.593256789","long":"127.13854153","imageIndex":17,"items":[{"name":"동아일보구리지국","tel":"031-563-4200","addr":"경기도 구리시 수택동 751-59번지","indutype":"서적문구 - 정기간행물","category":"other"}]},{"lat":"37.59495052","long":"127.14625566","imageIndex":17,"items":[{"name":"동양나노메디컬","tel":"","addr":"경기도 구리시 수택동 479-1번지","indutype":"주방용구 - 주방용구","category":"other"}]},{"lat":"37.598898375","long":"127.13726086","imageIndex":17,"items":[{"name":"동양전기","tel":"031-563-2778","addr":"경기도 구리시 수택동 375-10번지","indutype":"전기제품 - 기타전기제품","category":"other"}]},{"lat":"37.597174149","long":"127.14017922","imageIndex":17,"items":[{"name":"동영상제작프로덕션 봉","tel":"","addr":"경기도 구리시 수택동 431-9번지 5층","indutype":"용역 서비스 - 종합용역","category":"other"},{"name":"삼보전기철물","tel":"031-568-1140","addr":"경기도 구리시 수택동 431-9번지 1층","indutype":"건축자재 - 기타건축자재","category":"other"}]},{"lat":"37.590390822","long":"127.13928361","imageIndex":17,"items":[{"name":"동우씨엠MIK","tel":"031-555-4036","addr":"경기도 구리시 수택동 854","indutype":"신변잡화 - 기타잡화","category":"other"}]},{"lat":"37.596482041","long":"127.14637183","imageIndex":17,"items":[{"name":"동주미싱","tel":"031-554-1828","addr":"경기도 구리시 수택동 504-8번지","indutype":"기타 - 기계공구","category":"other"}]},{"lat":"37.598618874","long":"127.14511901","imageIndex":17,"items":[{"name":"동천건재철물","tel":"031-566-7779","addr":"경기도 구리시 수택동 517-12번지 외1번지 517-26","indutype":"건축자재 - 기타건축자재","category":"other"}]},{"lat":"37.598448356","long":"127.14456382","imageIndex":17,"items":[{"name":"두리광고기획","tel":"031-555-1116","addr":"경기도 구리시 수택동 516-28번지","indutype":"회원제형태 - 기타4","category":"other"}]},{"lat":"37.598668473","long":"127.14129169","imageIndex":17,"items":[{"name":"두발로신발","tel":"031-567-4103","addr":"경기도 구리시 수택동 422-10번지","indutype":"신변잡화 - 신발","category":"other"},{"name":"숙녀복","tel":"031-566-9321","addr":"경기도 구리시 수택동 422-10번지","indutype":"의류 - 정장","category":"other"},{"name":"스마일체육사","tel":"031-563-4463","addr":"경기도 구리시 수택동 422-10번지","indutype":"의류 - 정장","category":"other"}]},{"lat":"37.594230494","long":"127.14563151","imageIndex":17,"items":[{"name":"두얼디자인","tel":"031-567-7123","addr":"경기도 구리시 수택동 477-7번지 동산빌라 라동 112호","indutype":"건축자재 - 인테리어전문","category":"other"}]},{"lat":"37.594478177","long":"127.14192934","imageIndex":17,"items":[{"name":"두영 건축","tel":"031-554-5068","addr":"경기도 구리시 수택동 460-14번지","indutype":"용역 서비스 - 기타용역서비스","category":"other"},{"name":"영광 재활용센타","tel":"031-527-4945","addr":"경기도 구리시 수택동 460-14번지","indutype":"수리서비스 - 가정용품수리","category":"other"}]},{"lat":"37.592086026","long":"127.13809782","imageIndex":17,"items":[{"name":"드루와모바일","tel":"031-513-0010","addr":"경기도 구리시 수택동 847번지 타워클리닉 1층","indutype":"사무통신 - 통신기기","category":"other"},{"name":"미고디자인","tel":"031-565-5568","addr":"경기도 구리시 수택동 847번지 타워클리닉 104호","indutype":"건축자재 - 인테리어전문","category":"other"},{"name":"비에이블스터디카페 구리수택센터","tel":"02-854-8255","addr":"경기도 구리시 수택동 847번지 타워클리닉 2층 201호","indutype":"용역 서비스 - 사무서비스","category":"other"}]},{"lat":"37.600228719","long":"127.13995835","imageIndex":17,"items":[{"name":"디엠댄스","tel":"031-552-5515","addr":"경기도 구리시 수택동 404-1번지 명진빌딩 5층","indutype":"회원제형태 - 레져업소","category":"other"},{"name":"백민우댄스스포츠","tel":"031-568-8825","addr":"경기도 구리시 수택동 404-1번지 명진빌딩 5층","indutype":"회원제형태 - 레져업소","category":"other"},{"name":"퀸비쥬","tel":"031-551-5961","addr":"경기도 구리시 수택동 404-1번지 1층","indutype":"신변잡화 - 액세서리","category":"other"}]},{"lat":"37.593559993","long":"127.14123694","imageIndex":17,"items":[{"name":"디자인 이즈","tel":"031-567-9277","addr":"경기도 구리시 수택동 444-2번지 1층","indutype":"가구 - 일반가구","category":"other"},{"name":"오바사","tel":"031-555-8048","addr":"경기도 구리시 수택동 444-2번지","indutype":"직물 - 기타직물","category":"other"}]},{"lat":"37.592982528","long":"127.14939964","imageIndex":17,"items":[{"name":"딱지 옷가게","tel":"031-000-0000","addr":"경기도 구리시 수택동 274-14번지 1층","indutype":"의류 - 정장","category":"other"},{"name":"수택꽃집","tel":"031-571-5590","addr":"경기도 구리시 수택동 274-14번지","indutype":"문화.취미 - 화원","category":"other"}]},{"lat":"37.599922585","long":"127.13978793","imageIndex":17,"items":[{"name":"뚜버기","tel":"","addr":"경기도 구리시 수택동 404-14번지","indutype":"신변잡화 - 신발","category":"other"},{"name":"바디스타 남양주점","tel":"","addr":"경기도 구리시 수택동 404-14번지","indutype":"의류 - 내의판매","category":"other"},{"name":"수수깡","tel":"031-564-9921","addr":"경기도 구리시 수택동 404-14","indutype":"의류 - 정장","category":"other"},{"name":"트리진","tel":"","addr":"경기도 구리시 수택동 404-14","indutype":"의류 - 정장","category":"other"},{"name":"피데스(Fides)","tel":"","addr":"경기도 구리시 수택동 404-14번지 1층","indutype":"신변잡화 - 신발","category":"other"}]},{"lat":"37.598785121","long":"127.14169956","imageIndex":17,"items":[{"name":"라렌느(LAREINE)","tel":"031-551-2518","addr":"경기도 구리시 수택동 422-3번지 1층","indutype":"의류 - 정장","category":"other"},{"name":"상뚜스","tel":"031-555-8745","addr":"경기도 구리시 수택동 422-3번지","indutype":"의류 - 정장","category":"other"}]},{"lat":"37.592003505","long":"127.13934316","imageIndex":17,"items":[{"name":"라이브러리(LIVRARY)","tel":"070-7004-0020","addr":"경기도 구리시 수택동 850번지 청림빌딩 401호","indutype":"서적문구 - 일반서적","category":"other"},{"name":"솜사탕","tel":"031-566-1239","addr":"경기도 구리시 수택동 850번지","indutype":"의류 - 정장","category":"other"},{"name":"최별님요가","tel":"031-569-8696","addr":"경기도 구리시 수택동 850번지 청림빌딩 501호","indutype":"회원제형태 - 레져업소","category":"other"},{"name":"태양정보통신","tel":"031-566-4009","addr":"경기도 구리시 수택동 850번지","indutype":"사무통신 - 통신기기","category":"other"}]},{"lat":"37.594364194","long":"127.13923424","imageIndex":17,"items":[{"name":"라임","tel":"031-554-1015","addr":"경기도 구리시 수택동 438-76번지","indutype":"의류 - 정장","category":"other"},{"name":"럭셔리 세컨샵","tel":"031-1111-1111","addr":"경기도 구리시 수택동 438-76번지 대림e편한세상공인중개사사무 103호","indutype":"의류 - 정장","category":"other"},{"name":"미아미아유","tel":"070-4154-7942","addr":"경기도 구리시 수택동 438-76번지 1층","indutype":"의류 - 정장","category":"other"},{"name":"하나공인중개사사무소","tel":"031-565-8989","addr":"경기도 구리시 수택동 438-76번지 대림e편한세상공인중개사사무 106호","indutype":"용역 서비스 - 부동산 중개·임대","category":"other"}]},{"lat":"37.586589","long":"127.13901627","imageIndex":17,"items":[{"name":"러브펫 멀티펫샵 (구리토평점)","tel":"031-557-6767","addr":"경기도 구리시 수택동 875-5번지 새롬프라자11차 102호","indutype":"문화.취미 - 애완동물","category":"other"},{"name":"제이씨헤븐(JC HEAVEN)","tel":"02-1544-4917","addr":"경기도 구리시 수택동 875-5번지 새롬프라자 1층 108호","indutype":"의류 - 정장","category":"other"},{"name":"청산애황토구들","tel":"031-553-0335","addr":"경기도 구리시 수택동 875-5번지 새롬프라자11차 104호","indutype":"건축자재 - 기타건축자재","category":"other"}]},{"lat":"37.587030583","long":"127.1389265","imageIndex":17,"items":[{"name":"러블리스튜디오","tel":"031-566-1512","addr":"경기도 구리시 수택동 874-10번지 태원빌딩 2층","indutype":"광학제품 - 사진관","category":"other"}]},{"lat":"37.595281678","long":"127.14053808","imageIndex":17,"items":[{"name":"럭셔리멀티샵","tel":"031-528-6263","addr":"경기도 구리시 수택동 463-10번지","indutype":"의류 - 정장","category":"other"},{"name":"화인","tel":"031-551-3451","addr":"경기도 구리시 수택동 463-10번지 1층","indutype":"수리서비스 - 세탁소","category":"other"}]},{"lat":"37.592118431","long":"127.14123427","imageIndex":17,"items":[{"name":"레스포신구리대리점","tel":"031-564-5483","addr":"경기도 구리시 수택동 449-21번지","indutype":"레져용품 - 스포츠·레져용품","category":"other"},{"name":"손끝향기","tel":"031-567-3023","addr":"경기도 구리시 수택동 449-21번지 1층","indutype":"회원제형태 - 기타4","category":"other"}]},{"lat":"37.592674549","long":"127.14334134","imageIndex":17,"items":[{"name":"로그인편의점수택점","tel":"031-556-6666","addr":"경기도 구리시 수택동 453-8번지","indutype":"유통업 영리 - 편 의 점","category":"other"}]},{"lat":"37.591842763","long":"127.13809738","imageIndex":17,"items":[{"name":"로이스(REUSS)","tel":"031-566-9068","addr":"경기도 구리시 수택동 847-9번지 타워클래스 107호","indutype":"의류 - 정장","category":"other"}]},{"lat":"37.59350878","long":"127.1464001","imageIndex":17,"items":[{"name":"루디아 강남구제","tel":"031-528-4690","addr":"경기도 구리시 수택동 276번지 1층","indutype":"의류 - 기타의류","category":"other"}]},{"lat":"37.597367349","long":"127.14442589","imageIndex":17,"items":[{"name":"루쏘소(구리점)","tel":"070-4210-1381","addr":"경기도 구리시 수택동 506-2번지","indutype":"의류 - 정장","category":"other"}]},{"lat":"37.59839291","long":"127.13806393","imageIndex":17,"items":[{"name":"룸비니불교전시장","tel":"031-567-1121","addr":"경기도 구리시 수택동 377-31번지","indutype":"기타 - 기타 전문점","category":"other"}]},{"lat":"37.586562973","long":"127.13814444","imageIndex":17,"items":[{"name":"리벨리(LILY OF THE VALLEY)","tel":"02-512-1456","addr":"경기도 구리시 수택동 873-6번지 금호프라자 108호","indutype":"의류 - 정장","category":"other"},{"name":"장자바이크","tel":"031-553-6569","addr":"경기도 구리시 수택동 873-6번지 금호프라자 111호","indutype":"레져용품 - 스포츠·레져용품","category":"other"},{"name":"트윈스언니(Twins unni)","tel":"031-528-6263","addr":"경기도 구리시 수택동 873-6번지 금호프라자 109호","indutype":"의류 - 양품점","category":"other"},{"name":"프라하","tel":"031-528-6263","addr":"경기도 구리시 수택동 873-6번지 금호프라자 107호","indutype":"의류 - 정장","category":"other"}]},{"lat":"37.597501991","long":"127.13714512","imageIndex":17,"items":[{"name":"리싸이클시티구리점","tel":"031-565-7282","addr":"경기도 구리시 수택동 476번지","indutype":"전기제품 - 가전제품","category":"other"}]},{"lat":"37.59897972","long":"127.13703453","imageIndex":17,"items":[{"name":"린나이종합주방","tel":"031-63-0634","addr":"경기도 구리시 수택동 375-3번지","indutype":"주방용구 - 주방용구","category":"other"},{"name":"준 모바일","tel":"031-516-9779","addr":"경기도 구리시 수택동 375-3번지 유진빌딩 1층","indutype":"사무통신 - 통신기기","category":"other"}]},{"lat":"37.58720203","long":"127.13870037","imageIndex":17,"items":[{"name":"마리(Marie)","tel":"031-565-7699","addr":"경기도 구리시 수택동 874번지 새롬프라자8차 1층 104호","indutype":"의류 - 정장","category":"other"},{"name":"취죽진여실","tel":"031-569-2276","addr":"경기도 구리시 수택동 874외1필지403","indutype":"기타 - 기타 전문점","category":"other"}]},{"lat":"37.598505191","long":"127.14223125","imageIndex":17,"items":[{"name":"마린","tel":"031-554-0304","addr":"경기도 구리시 수택동 423-21번지","indutype":"의류 - 기타의류","category":"other"}]},{"lat":"37.598282901","long":"127.13970566","imageIndex":17,"items":[{"name":"마마 란제리","tel":"031-000-0000","addr":"경기도 구리시 수택동 418-1번지 1층 5호","indutype":"의류 - 내의판매","category":"other"},{"name":"멋누리","tel":"031-557-3462","addr":"경기도 구리시 수택동 418-1번지 구리시장","indutype":"의류 - 정장","category":"other"},{"name":"일광주단","tel":"031-563-2967","addr":"경기도 구리시 수택동 418-1번지","indutype":"의류 - 맞춤복점","category":"other"}]},{"lat":"37.593005112","long":"127.14567447","imageIndex":17,"items":[{"name":"말자네 애견미용","tel":"031-565-0345","addr":"경기도 구리시 수택동 669-2번지 1층","indutype":"문화.취미 - 애완동물","category":"other"},{"name":"스타일","tel":"031-556-0903","addr":"경기도 구리시 수택동 669-2번지 103호","indutype":"의류 - 기타의류","category":"other"}]},{"lat":"37.595036328","long":"127.14231537","imageIndex":17,"items":[{"name":"매일야채","tel":"031-565-0287","addr":"경기도 구리시 수택동 465-14번지 일우주택 202호","indutype":"회원제형태 - 기타1","category":"other"}]},{"lat":"37.598642093","long":"127.14073678","imageIndex":17,"items":[{"name":"매치포인트","tel":"031-566-7046","addr":"경기도 구리시 수택동 419-4번지","indutype":"의류 - 정장","category":"other"},{"name":"봉주르베베","tel":"031-568-8684","addr":"경기도 구리시 수택동 419-4번지 우먼로드","indutype":"의류 - 아동의류","category":"other"},{"name":"아기자기","tel":"031-566-5725","addr":"경기도 구리시 수택동 419-4번지","indutype":"직물 - 침구·수예점","category":"other"},{"name":"우먼센스","tel":"031-562-0356","addr":"경기도 구리시 수택동 419-4번지","indutype":"직물 - 침구·수예점","category":"other"}]},{"lat":"37.592085806","long":"127.1382903","imageIndex":17,"items":[{"name":"맥스플로","tel":"031-111-1111","addr":"경기도 구리시 수택동 847-1번지 509호, 609호","indutype":"용역 서비스 - 사무서비스","category":"other"}]},{"lat":"37.591921801","long":"127.13987518","imageIndex":17,"items":[{"name":"메리앤유","tel":"031-514-9190","addr":"경기도 구리시 수택동 850-2번지 1층","indutype":"의류 - 정장","category":"other"},{"name":"잼잼포토","tel":"031-568-6094","addr":"경기도 구리시 수택동 850-2번지","indutype":"광학제품 - 사진관","category":"other"}]},{"lat":"37.598420948","long":"127.13718074","imageIndex":17,"items":[{"name":"메인시스템","tel":"031-569-1111","addr":"경기도 구리시 수택동 377-10번지","indutype":"사무통신 - 사무용 OA기기","category":"other"}]},{"lat":"37.600037143","long":"127.14198498","imageIndex":17,"items":[{"name":"멘즈스튜디오","tel":"070-7794-6884","addr":"경기도 구리시 수택동 526-9 2층","indutype":"의류 - 정장","category":"other"}]},{"lat":"37.592115634","long":"127.14360071","imageIndex":17,"items":[{"name":"명가에스티","tel":"031-562-2996","addr":"경기도 구리시 수택동 660-1성우연립가동지층302호","indutype":"수리서비스 - 기타수리서비스","category":"other"}]},{"lat":"37.600557303","long":"127.14401295","imageIndex":17,"items":[{"name":"명동사","tel":"031-568-8182","addr":"경기도 구리시 수택동 527-30번지 외2필지","indutype":"수리서비스 - 세탁소","category":"other"}]},{"lat":"37.598537261","long":"127.13789434","imageIndex":17,"items":[{"name":"명동의류","tel":"031-566-4951","addr":"경기도 구리시 수택동 377-15번지 동림빌딩 1층","indutype":"의류 - 정장","category":"other"},{"name":"심플하우스","tel":"031-565-5622","addr":"경기도 구리시 수택동 377-15번지 동림빌딩","indutype":"직물 - 침구·수예점","category":"other"}]},{"lat":"37.595313056","long":"127.14447862","imageIndex":17,"items":[{"name":"명성개발","tel":"031-0000-0000","addr":"경기도 구리시 수택동 474-19번지 1층","indutype":"건축자재 - 인테리어전문","category":"other"}]},{"lat":"37.594786408","long":"127.14784058","imageIndex":17,"items":[{"name":"명성철물점","tel":"031-562-5628","addr":"경기도 구리시 수택동 588-1번지","indutype":"건축자재 - 목재·석재·철물","category":"other"}]},{"lat":"37.60078411","long":"127.14269979","imageIndex":17,"items":[{"name":"모네","tel":"031-515-1501","addr":"경기도 구리시 수택동 526-25번지","indutype":"의류 - 정장","category":"other"},{"name":"삼미음향","tel":"031-551-5611","addr":"경기도 구리시 수택동 526-25번지","indutype":"전기제품 - 가전제품","category":"other"}]},{"lat":"37.596981712","long":"127.14293046","imageIndex":17,"items":[{"name":"모노리빙","tel":"","addr":"경기도 구리시 수택동 482-2번지 수택동성원상떼빌 101동 1층 117호","indutype":"주방용구 - 주방용구","category":"other"},{"name":"승일금속","tel":"","addr":"경기도 구리시 수택동 482-2번지 수택동성원상떼빌 710호","indutype":"용역 서비스 - 기타용역서비스","category":"other"},{"name":"예스","tel":"031-557-7005","addr":"경기도 구리시 수택동 482-2번지 수택동성원상떼빌 101동 118호","indutype":"회원제형태 - 기타1","category":"other"},{"name":"휴앤스페이스","tel":"031-555-7904","addr":"경기도 구리시 수택동 482-2번지 수택동성원상떼빌 101동 403호","indutype":"회원제형태 - 기타4","category":"other"}]},{"lat":"37.593425628","long":"127.14056864","imageIndex":17,"items":[{"name":"모던그램","tel":"031-565-0578","addr":"경기도 구리시 수택동 442-19번지 1층","indutype":"의류 - 정장","category":"other"},{"name":"송스샵","tel":"031-555-6884","addr":"경기도 구리시 수택동 442-19번지 대성전력공사 104호","indutype":"의류 - 정장","category":"other"}]},{"lat":"37.601090535","long":"127.14262109","imageIndex":17,"items":[{"name":"모디스특수가발","tel":"031-565-2008","addr":"경기도 구리시 수택동 527번지","indutype":"신변잡화 - 액세서리","category":"other"},{"name":"피아노타운","tel":"031-553-9595","addr":"경기도 구리시 수택동 527번지","indutype":"레져용품 - 악기점","category":"other"}]},{"lat":"37.593370186","long":"127.14920791","imageIndex":17,"items":[{"name":"모바일 라인6 (Mobile Line6)","tel":"031-555-2335","addr":"경기도 구리시 수택동 275-1 지상 102~4호","indutype":"사무통신 - 통신기기","category":"other"}]},{"lat":"37.598697613","long":"127.13947995","imageIndex":17,"items":[{"name":"무자크","tel":"031-551-0206","addr":"경기도 구리시 수택동 381-17번지 107호","indutype":"의류 - 정장","category":"other"},{"name":"선미상회","tel":"031-563-4920","addr":"경기도 구리시 수택동 381-17번지","indutype":"직물 - 기타직물","category":"other"},{"name":"수정이네","tel":"031-557-4091","addr":"경기도 구리시 수택동 381-17번지","indutype":"신변잡화 - 기타잡화","category":"other"},{"name":"신발백화점","tel":"031-563-5182","addr":"경기도 구리시 수택동 381-17번지","indutype":"신변잡화 - 신발","category":"other"},{"name":"신원사","tel":"031-563-3395","addr":"경기도 구리시 수택동 381-17번지","indutype":"신변잡화 - 시계","category":"other"},{"name":"아주상회","tel":"031-562-0122","addr":"경기도 구리시 수택동 381-17번지","indutype":"의류 - 내의판매","category":"other"}]},{"lat":"37.594976016","long":"127.14751258","imageIndex":17,"items":[{"name":"문방구","tel":"031-569-0223","addr":"경기도 구리시 수택동 587번지","indutype":"서적문구 - 문구용품","category":"other"},{"name":"천금당","tel":"031-566-5512","addr":"경기도 구리시 수택동 587번지 1층","indutype":"신변잡화 - 귀금속","category":"other"}]},{"lat":"37.591842256","long":"127.13853896","imageIndex":17,"items":[{"name":"미네르바서점","tel":"031-566-6646","addr":"경기도 구리시 수택동 847-7번지 씨엔씨빌딩 901호","indutype":"서적문구 - 일반서적","category":"other"}]},{"lat":"37.599560611","long":"127.14114613","imageIndex":17,"items":[{"name":"미니미니","tel":"","addr":"경기도 구리시 수택동 409-17번지 1층","indutype":"신변잡화 - 액세서리","category":"other"}]},{"lat":"37.592946179","long":"127.14964867","imageIndex":17,"items":[{"name":"미니스톱구리부자점","tel":"031-1577-9621","addr":"경기도 구리시 수택동 274-15번지","indutype":"유통업 영리 - 편 의 점","category":"other"}]},{"lat":"37.595171632","long":"127.14961907","imageIndex":17,"items":[{"name":"미니시티","tel":"031-515-4582","addr":"경기도 구리시 수택동 291-1.3호.1층","indutype":"서적문구 - 완구점","category":"other"}]},{"lat":"37.597639961","long":"127.14247876","imageIndex":17,"items":[{"name":"미림문구인쇄","tel":"031-563-5035","addr":"경기도 구리시 수택동 425-20번지","indutype":"서적문구 - 문구용품","category":"other"}]},{"lat":"37.598390861","long":"127.13984174","imageIndex":17,"items":[{"name":"미보백양","tel":"031-566-9484","addr":"경기도 구리시 수택동 418-2번지 미보쇼핑","indutype":"의류 - 내의판매","category":"other"},{"name":"오케이","tel":"02-485-5412","addr":"경기도 구리시 수택동 418-2번지 오예스몰","indutype":"레져용품 - 스포츠·레져용품","category":"other"}]},{"lat":"37.596420426","long":"127.14517144","imageIndex":17,"items":[{"name":"미사랑","tel":"031-514-8865","addr":"경기도 구리시 수택동 488번지 2층","indutype":"회원제형태 - 기타4","category":"other"},{"name":"케드구리점","tel":"031-553-3838","addr":"경기도 구리시 수택동 488번지","indutype":"레져용품 - 스포츠·레져용품","category":"other"},{"name":"팝콘정보통신","tel":"070-8862-1222","addr":"경기도 구리시 수택동 488번지 1층 점포1칸","indutype":"사무통신 - 통신기기","category":"other"}]},{"lat":"37.59903479","long":"127.14389683","imageIndex":17,"items":[{"name":"미샵","tel":"031-555-6993","addr":"경기도 구리시 수택동 515-51번지","indutype":"신변잡화 - 기타잡화","category":"other"}]},{"lat":"37.598945583","long":"127.1431493","imageIndex":17,"items":[{"name":"미소맘 클린","tel":"070-4063-2873","addr":"경기도 구리시 수택동 515-2번지","indutype":"용역 서비스 - 종합용역","category":"other"}]},{"lat":"37.597836587","long":"127.14381531","imageIndex":17,"items":[{"name":"미스터모바일구리점","tel":"031-514-6034","addr":"경기도 구리시 수택동 512번지","indutype":"사무통신 - 통신기기","category":"other"},{"name":"제일액자","tel":"031-563-3845","addr":"경기도 구리시 수택동 512번지","indutype":"문화.취미 - 화방·표구점","category":"other"}]},{"lat":"37.593454515","long":"127.14656983","imageIndex":17,"items":[{"name":"미쓰멍","tel":"02-1111-1111","addr":"경기도 구리시 수택동 276-131번지 102호","indutype":"문화.취미 - 애완동물","category":"other"}]},{"lat":"37.598004659","long":"127.13878794","imageIndex":17,"items":[{"name":"미진","tel":"031-555-1536","addr":"경기도 구리시 수택동 380-20,380-21","indutype":"용역 서비스 - 부동산 중개·임대","category":"other"}]},{"lat":"37.598390308","long":"127.14031734","imageIndex":17,"items":[{"name":"민들레옷가게","tel":"031-562-2435","addr":"경기도 구리시 수택동 418-13번지","indutype":"의류 - 정장","category":"other"},{"name":"삼화철물","tel":"031-562-6168","addr":"경기도 구리시 수택동 418-13","indutype":"건축자재 - 목재·석재·철물","category":"other"},{"name":"최언니","tel":"031-511-4120","addr":"경기도 구리시 수택동 418-13번지","indutype":"신변잡화 - 액세서리","category":"other"}]},{"lat":"37.597453201","long":"127.14039488","imageIndex":17,"items":[{"name":"민호만물","tel":"031-552-4640","addr":"경기도 구리시 수택동 427-18번지 1층","indutype":"신변잡화 - 기념품점","category":"other"}]},{"lat":"37.5971755","long":"127.1390129","imageIndex":17,"items":[{"name":"믿음전파사","tel":"031-566-5988","addr":"경기도 구리시 수택동 430-36번지","indutype":"수리서비스 - 가정용품수리","category":"other"},{"name":"저스코전자담배","tel":"031-557-5282","addr":"경기도 구리시 수택동 430-36번지","indutype":"기타 - 기타 전문점","category":"other"}]},{"lat":"37.586588464","long":"127.13948046","imageIndex":17,"items":[{"name":"바른체 휘트니스","tel":"031-555-8583","addr":"경기도 구리시 수택동 875-4번지 상재빌딩 2-3층","indutype":"레져용품 - 스포츠·레져용품","category":"other"}]},{"lat":"37.603229544","long":"127.14704161","imageIndex":17,"items":[{"name":"박상희우리옷","tel":"031-565-8623","addr":"경기도 구리시 수택동 561-1번지 평애빌딩 2층","indutype":"의류 - 맞춤복점","category":"other"}]},{"lat":"37.595343603","long":"127.14898531","imageIndex":17,"items":[{"name":"박선생뮤지크","tel":"031-569-5007","addr":"경기도 구리시 수택동 290-20번지 2층","indutype":"레져용품 - 악기점","category":"other"},{"name":"진원철물","tel":"031-563-8229","addr":"경기도 구리시 수택동 290-20번지","indutype":"건축자재 - 목재·석재·철물","category":"other"}]},{"lat":"37.593401075","long":"127.1460602","imageIndex":17,"items":[{"name":"반딧불교육","tel":"","addr":"경기도 구리시 수택동 669번지 행운아트빌라 A동 201호","indutype":"서적문구 - 기타서적문구","category":"other"}]},{"lat":"37.592297628","long":"127.1420838","imageIndex":17,"items":[{"name":"발리","tel":"031-552-4048","addr":"경기도 구리시 수택동 449-11 원풍주택가-B102","indutype":"회원제형태 - 기타4","category":"other"}]},{"lat":"37.593977804","long":"127.13833902","imageIndex":17,"items":[{"name":"백라이프","tel":"070-4126-6628","addr":"경기도 구리시 수택동 438-34번지 지층","indutype":"신변잡화 - 가방","category":"other"},{"name":"블라인드케이비","tel":"02-461-0714","addr":"경기도 구리시 수택동 438-34번지","indutype":"직물 - 카페트,커튼,천막,지물","category":"other"}]},{"lat":"37.58909369","long":"127.13904347","imageIndex":17,"items":[{"name":"버디골프연습장","tel":"031-568-4492","addr":"경기도 구리시 수택동 854-2","indutype":"회원제형태 - 레져업소","category":"other"}]},{"lat":"37.592085428","long":"127.13861866","imageIndex":17,"items":[{"name":"버디버디 스크린 골프","tel":"031-554-0207","addr":"경기도 구리시 수택동 847-2번지 동진프라자 8층 801호","indutype":"레져용품 - 골프용품 전문점","category":"other"},{"name":"스카이휘트니스","tel":"031-569-9777","addr":"경기도 구리시 수택동 847-2번지 동진프라자 7층","indutype":"회원제형태 - 레져업소","category":"other"},{"name":"아발론서점","tel":"031-567-2244","addr":"경기도 구리시 수택동 847-2번지 동진프라자 401호","indutype":"서적문구 - 일반서적","category":"other"},{"name":"위너스스크린골프","tel":"031-562-3330","addr":"경기도 구리시 수택동 847-2번지 도진프라자 8층","indutype":"회원제형태 - 레져업소","category":"other"},{"name":"현앤장 스터디클럽","tel":"031-515-7115","addr":"경기도 구리시 수택동 847-2번지 동진프라자 501호","indutype":"서적문구 - 기타서적문구","category":"other"}]},{"lat":"37.597227071","long":"127.14115314","imageIndex":17,"items":[{"name":"번영오토바이","tel":"031-567-6576","addr":"경기도 구리시 수택동 433-6번지 1층","indutype":"수리서비스 - 레져용품수리","category":"other"}]},{"lat":"37.599727646","long":"127.14464552","imageIndex":17,"items":[{"name":"범양냉열공사(귀뚜라미범양냉난방)","tel":"070-7757-8889","addr":"경기도 구리시 수택동 522-72번지","indutype":"전기제품 - 냉열기기","category":"other"},{"name":"현민스포츠","tel":"031-563-8345","addr":"경기도 구리시 수택동 522-72번지","indutype":"레져용품 - 스포츠·레져용품","category":"other"}]},{"lat":"37.594585193","long":"127.15026334","imageIndex":17,"items":[{"name":"법률사무소 비앤비","tel":"031-554-5488","addr":"경기도 구리시 수택동 282-4번지 디앤디빌딩 2층","indutype":"용역 서비스 - 법률회계서비스(개인)","category":"other"}]},{"lat":"37.594256659","long":"127.14634492","imageIndex":17,"items":[{"name":"베누스스킨케어","tel":"031-569-0525","addr":"경기도 구리시 수택동 595-5번지 1층","indutype":"회원제형태 - 기타4","category":"other"}]},{"lat":"37.600223977","long":"127.13623277","imageIndex":17,"items":[{"name":"베르지오","tel":"031-563-3145","addr":"경기도 구리시 수택동 370번지 은산빌딩 101호","indutype":"신변잡화 - 제화","category":"other"},{"name":"펫클럽(수택점)","tel":"031-556-6250","addr":"경기도 구리시 수택동 370번지 113호","indutype":"문화.취미 - 애완동물","category":"other"}]},{"lat":"37.598730529","long":"127.14215241","imageIndex":17,"items":[{"name":"베비라","tel":"031-566-3664","addr":"경기도 구리시 수택동 423-13번지","indutype":"의류 - 아동의류","category":"other"},{"name":"올리브","tel":"031-551-4807","addr":"경기도 구리시 수택동 423-13번지 1층","indutype":"의류 - 정장","category":"other"}]},{"lat":"37.597476953","long":"127.14318051","imageIndex":17,"items":[{"name":"베스트","tel":"031-567-4520","addr":"경기도 구리시 수택동 486-2번지 동화빌딩 3층","indutype":"회원제형태 - 기타4","category":"other"}]},{"lat":"37.592341511","long":"127.14306897","imageIndex":17,"items":[{"name":"베스트락","tel":"031-556-1304","addr":"경기도 구리시 수택동 453-22번지 1층","indutype":"건축자재 - 목재·석재·철물","category":"other"}]},{"lat":"37.592976834","long":"127.13910716","imageIndex":17,"items":[{"name":"베짜이교육","tel":"031-471-6964","addr":"경기도 구리시 수택동 754-13번지 팔복주택 6동 302호","indutype":"회원제형태 - 서적","category":"other"}]},{"lat":"37.598279613","long":"127.14251392","imageIndex":17,"items":[{"name":"보금건설주식회사 구리지점","tel":"031-566-9204","addr":"경기도 구리시 수택동 424-5번지 3호","indutype":"용역 서비스 - 기타용역서비스","category":"other"}]},{"lat":"37.598781968","long":"127.13662652","imageIndex":17,"items":[{"name":"보디가드(구리점)","tel":"031-567-9989","addr":"경기도 구리시 수택동 376-23번지","indutype":"의류 - 내의판매","category":"other"}]},{"lat":"37.599313774","long":"127.13642365","imageIndex":17,"items":[{"name":"보석당","tel":"031-563-3883","addr":"경기도 구리시 수택동 373-7번지","indutype":"신변잡화 - 시계","category":"other"},{"name":"선진수지","tel":"","addr":"경기도 구리시 수택동 373-7 청기와빌딩303","indutype":"기타 - 기계공구","category":"other"},{"name":"양평철물","tel":"031-563-6400","addr":"경기도 구리시 수택동 373-7번지","indutype":"건축자재 - 목재·석재·철물","category":"other"},{"name":"온누리텔레콤","tel":"031-557-6633","addr":"경기도 구리시 수택동 373-7번지","indutype":"사무통신 - 통신기기","category":"other"},{"name":"온누리텔레콤_PS","tel":"031-557-6633","addr":"경기도 구리시 수택동 373-7번지","indutype":"사무통신 - 통신기기","category":"other"}]},{"lat":"37.594724629","long":"127.14678742","imageIndex":17,"items":[{"name":"보성당","tel":"031-564-7198","addr":"경기도 구리시 수택동 479-3번지","indutype":"신변잡화 - 시계","category":"other"}]},{"lat":"37.596619063","long":"127.14482079","imageIndex":17,"items":[{"name":"보스아티(주)","tel":"031-555-8272","addr":"경기도 구리시 수택동 487-17번지","indutype":"의류 - 정장","category":"other"},{"name":"오빌리아","tel":"031-567-3217","addr":"경기도 구리시 수택동 487-17번지","indutype":"의류 - 기타의류","category":"other"}]},{"lat":"37.599256701","long":"127.13906199","imageIndex":17,"items":[{"name":"보은","tel":"02-2208-4647","addr":"경기도 구리시 수택동 382-16번지","indutype":"회원제형태 - 기타1","category":"other"}]},{"lat":"37.592649156","long":"127.14195991","imageIndex":17,"items":[{"name":"부들스(BOODLE.S)","tel":"031-557-8491","addr":"경기도 구리시 수택동 449-5번지 1층 호","indutype":"문화.취미 - 수족관","category":"other"}]},{"lat":"37.597506188","long":"127.14131218","imageIndex":17,"items":[{"name":"부엌짓는남자","tel":"031-567-8001","addr":"경기도 구리시 수택동 426-22번지 1층","indutype":"가구 - 일반가구","category":"other"}]},{"lat":"37.598396619","long":"127.14261605","imageIndex":17,"items":[{"name":"부연당","tel":"031-555-1723","addr":"경기도 구리시 수택동 424-1번지 광진빌딩 내","indutype":"신변잡화 - 시계","category":"other"}]},{"lat":"37.596751699","long":"127.14689323","imageIndex":17,"items":[{"name":"브니엘상사","tel":"031-553-0463","addr":"경기도 구리시 수택동 503-24번지","indutype":"의류 - 정장","category":"other"}]},{"lat":"37.598698345","long":"127.13884582","imageIndex":17,"items":[{"name":"브이제이(VJ)노래뮤비방","tel":"031-564-7776","addr":"경기도 구리시 수택동 381-21번지 지층 좌","indutype":"용역 서비스 - 종합용역","category":"other"},{"name":"올리비아로렌 구리점","tel":"031-565-5054","addr":"경기도 구리시 수택동 381-21번지 1층 101,102호","indutype":"레져용품 - 스포츠·레져용품","category":"other"},{"name":"올포유","tel":"031-557-4005","addr":"경기도 구리시 수택동 381-21번지","indutype":"의류 - 정장","category":"other"},{"name":"지센구리점","tel":"031-567-1021","addr":"경기도 구리시 수택동 381-21번지 1층","indutype":"의류 - 스포츠의류","category":"other"},{"name":"크로커다일","tel":"031-563-4590","addr":"경기도 구리시 수택동 381-21번지 1층","indutype":"레져용품 - 스포츠·레져용품","category":"other"}]},{"lat":"37.598640271","long":"127.14228812","imageIndex":17,"items":[{"name":"블랑드제이","tel":"031-566-3767","addr":"경기도 구리시 수택동 423-18번지 1층","indutype":"의류 - 정장","category":"other"},{"name":"에메랄드 금방","tel":"031-569-9005","addr":"경기도 구리시 수택동 423-18번지 1층","indutype":"신변잡화 - 귀금속","category":"other"}]},{"lat":"37.596892832","long":"127.14189987","imageIndex":17,"items":[{"name":"비비빅","tel":"031-515-5825","addr":"경기도 구리시 수택동 433-59번지 1층","indutype":"의류 - 정장","category":"other"},{"name":"컴퓨터천국","tel":"031-553-1009","addr":"경기도 구리시 수택동 433-59번지","indutype":"수리서비스 - 사무·통신기기수리","category":"other"}]},{"lat":"37.599892439","long":"127.14244899","imageIndex":17,"items":[{"name":"비전건축사사무소","tel":"031-555-4198","addr":"경기도 구리시 수택동 525-2번지","indutype":"용역 서비스 - 사무서비스","category":"other"}]},{"lat":"37.587038598","long":"127.13978698","imageIndex":17,"items":[{"name":"빅뮤직(BICMUSIC)엔터테인먼트","tel":"031-567-5679","addr":"경기도 구리시 수택동 874-6번지","indutype":"레져용품 - 음반/영상물","category":"other"}]},{"lat":"37.598532715","long":"127.14181233","imageIndex":17,"items":[{"name":"빤쮸","tel":"031-111-1111","addr":"경기도 구리시 수택동 422-14번지","indutype":"의류 - 내의판매","category":"other"}]},{"lat":"37.596641993","long":"127.14067647","imageIndex":17,"items":[{"name":"뿌리종합광고","tel":"031-553-4836","addr":"경기도 구리시 수택동 434-6,7","indutype":"건축자재 - 인테리어전문","category":"other"},{"name":"피씨사랑","tel":"070-7150-0966","addr":"경기도 구리시 수택동 434-6번지","indutype":"사무통신 - 컴퓨터","category":"other"}]},{"lat":"37.592815976","long":"127.14561749","imageIndex":17,"items":[{"name":"사과나무피오피","tel":"031-512-8401","addr":"경기도 구리시 수택동 667-5번지","indutype":"용역 서비스 - 기타용역서비스","category":"other"}]},{"lat":"37.591391768","long":"127.13853814","imageIndex":17,"items":[{"name":"사단법인고구려역사문화보전회","tel":"031-569-2281","addr":"경기도 구리시 수택동 848번지 행정복지타운 509호","indutype":"기타 - 비영리/대상","category":"other"},{"name":"수택보건지소","tel":"031-550-2465","addr":"경기도 구리시 수택동 848번지","indutype":"기타의료기관 - 기타의료기관 및 기타","category":"other"},{"name":"진 씨어터","tel":"02-554-1008","addr":"경기도 구리시 수택동 848번지 4층","indutype":"문화.취미 - 티켓","category":"other"}]},{"lat":"37.591481886","long":"127.14614711","imageIndex":17,"items":[{"name":"사랑통신","tel":"031-551-2011","addr":"경기도 구리시 수택동 696번지 1층 마트코너","indutype":"사무통신 - 통신기기","category":"other"}]},{"lat":"37.599334423","long":"127.1419497","imageIndex":17,"items":[{"name":"사루비아제화","tel":"031-566-1644","addr":"경기도 구리시 수택동 423-2번지","indutype":"신변잡화 - 제화","category":"other"},{"name":"성진보석","tel":"031-557-0070","addr":"경기도 구리시 수택동 423-2번지","indutype":"신변잡화 - 시계","category":"other"},{"name":"티아라","tel":"031-569-3456","addr":"경기도 구리시 수택동 423-2번지","indutype":"신변잡화 - 가방","category":"other"}]},{"lat":"37.600422454","long":"127.14376356","imageIndex":17,"items":[{"name":"산모도우미 119","tel":"031-568-3519","addr":"경기도 구리시 수택동 527-34번지","indutype":"용역 서비스 - 종합용역","category":"other"}]},{"lat":"37.597418868","long":"127.13892276","imageIndex":17,"items":[{"name":"산정사진관","tel":"031-555-4747","addr":"경기도 구리시 수택동 379-13번지","indutype":"광학제품 - 사진관","category":"other"}]},{"lat":"37.59508981","long":"127.15020771","imageIndex":17,"items":[{"name":"산하 바이크랜드","tel":"031-551-6618","addr":"경기도 구리시 수택동 292-25번지","indutype":"레져용품 - 스포츠·레져용품","category":"other"}]},{"lat":"37.596701885","long":"127.14337155","imageIndex":17,"items":[{"name":"삼성남양대리점","tel":"031-563-3931","addr":"경기도 구리시 수택동 482-8번지","indutype":"전기제품 - 가전제품","category":"other"},{"name":"세영인테리어","tel":"031-567-4063","addr":"경기도 구리시 수택동 482-8번지 1층","indutype":"직물 - 카페트,커튼,천막,지물","category":"other"},{"name":"센스가구","tel":"031-562-4223","addr":"경기도 구리시 수택동 482-8번지 가동 7호","indutype":"가구 - 철제가구","category":"other"},{"name":"지성사진관","tel":"031-566-0951","addr":"경기도 구리시 수택동 482-8번지","indutype":"광학제품 - 사진관","category":"other"}]},{"lat":"37.593613573","long":"127.14164466","imageIndex":17,"items":[{"name":"삼성냉열","tel":"031-566-6909","addr":"경기도 구리시 수택동 444-26번지 1층","indutype":"용역 서비스 - 기타용역서비스","category":"other"}]},{"lat":"37.599091812","long":"127.14139439","imageIndex":17,"items":[{"name":"삼성유리","tel":"031-563-6398","addr":"경기도 구리시 수택동 422-1","indutype":"건축자재 - 유리","category":"other"},{"name":"시장철물","tel":"031-566-2900","addr":"경기도 구리시 수택동 422-1번지 1층","indutype":"건축자재 - 목재·석재·철물","category":"other"}]},{"lat":"37.597724231","long":"127.13976126","imageIndex":17,"items":[{"name":"삼순이패션클럽","tel":"031-553-6609","addr":"경기도 구리시 수택동 427-7번지","indutype":"의류 - 정장","category":"other"}]},{"lat":"37.592649262","long":"127.14186933","imageIndex":17,"items":[{"name":"삼양C&P","tel":"031-577-5242","addr":"경기도 구리시 수택동 449-4번지","indutype":"건축자재 - 인테리어전문","category":"other"}]},{"lat":"37.595338448","long":"127.14583745","imageIndex":17,"items":[{"name":"삼원인테리어","tel":"031-551-3131","addr":"경기도 구리시 수택동 479-27번지","indutype":"직물 - 카페트,커튼,천막,지물","category":"other"}]},{"lat":"37.59606456","long":"127.14136613","imageIndex":17,"items":[{"name":"삼화광고기획","tel":"031-562-6615","addr":"경기도 구리시 수택동 468-13번지","indutype":"용역 서비스 - 종합용역","category":"other"}]},{"lat":"37.591701158","long":"127.14362257","imageIndex":17,"items":[{"name":"삼화페인트","tel":"031-552-7504","addr":"경기도 구리시 수택동 660-10번지","indutype":"건축자재 - 페인트","category":"other"}]},{"lat":"37.593254125","long":"127.14084007","imageIndex":17,"items":[{"name":"새터부동산공인중개사사무소","tel":"031-555-5700","addr":"경기도 구리시 수택동 444-7번지","indutype":"용역 서비스 - 부동산 중개·임대","category":"other"}]},{"lat":"37.59731179","long":"127.14567137","imageIndex":17,"items":[{"name":"생쥐컬렉션","tel":"031-555-5093","addr":"경기도 구리시 수택동 507-18번지 4호","indutype":"의류 - 정장","category":"other"}]},{"lat":"37.591926927","long":"127.14318142","imageIndex":17,"items":[{"name":"샤론플라워","tel":"031-565-9635","addr":"경기도 구리시 수택동 660-5번지 외1필지","indutype":"문화.취미 - 화원","category":"other"}]},{"lat":"37.598063513","long":"127.14240028","imageIndex":17,"items":[{"name":"서명기획","tel":"031-555-5949","addr":"경기도 구리시 수택동 424-18번지","indutype":"신변잡화 - 기타잡화","category":"other"}]},{"lat":"37.600729419","long":"127.14323191","imageIndex":17,"items":[{"name":"서문재가복지센터","tel":"031-555-2455","addr":"경기도 구리시 수택동 527-5번지 3층","indutype":"기타의료기관 - 기타의료기관 및 기타","category":"other"}]},{"lat":"37.594173187","long":"127.14078515","imageIndex":17,"items":[{"name":"서연경락","tel":"031-555-4959","addr":"경기도 구리시 수택동 441-3번지","indutype":"회원제형태 - 기타4","category":"other"}]},{"lat":"37.59470191","long":"127.15059194","imageIndex":17,"items":[{"name":"서울철물건재","tel":"031-563-7208","addr":"경기도 구리시 수택동 294-2","indutype":"건축자재 - 목재·석재·철물","category":"other"}]},{"lat":"37.598158885","long":"127.14552578","imageIndex":17,"items":[{"name":"서이공조","tel":"","addr":"경기도 구리시 수택동 509-36번지 동진주택 9동 202호","indutype":"용역 서비스 - 기타용역서비스","category":"other"}]},{"lat":"37.595116759","long":"127.14287035","imageIndex":17,"items":[{"name":"서진아이티","tel":"031-514-7793","addr":"경기도 구리시 수택동 458-1번지","indutype":"사무통신 - 컴퓨터","category":"other"}]},{"lat":"37.599531741","long":"127.14270877","imageIndex":17,"items":[{"name":"석유통","tel":"031-564-7942","addr":"경기도 구리시 수택동 525-51번지","indutype":"신변잡화 - 기타잡화","category":"other"}]},{"lat":"37.600139814","long":"127.13892771","imageIndex":17,"items":[{"name":"설탕수박","tel":"031-558-0904","addr":"경기도 구리시 수택동 383-6지하1층","indutype":"의류 - 정장","category":"other"}]},{"lat":"37.602061443","long":"127.14442346","imageIndex":17,"items":[{"name":"성림설비","tel":"031-563-7421","addr":"경기도 구리시 수택동 531-2번지","indutype":"건축자재 - 보일러·펌프·샷시","category":"other"}]},{"lat":"37.6013927","long":"127.14609816","imageIndex":17,"items":[{"name":"성림세탁소","tel":"031-562-1701","addr":"경기도 구리시 수택동 537-11","indutype":"수리서비스 - 세탁소","category":"other"}]},{"lat":"37.588030733","long":"127.13887171","imageIndex":17,"items":[{"name":"성민기획","tel":"031-556-0078","addr":"경기도 구리시 수택동 854-3한성3차상가205호","indutype":"용역 서비스 - 종합용역","category":"other"},{"name":"윤인테리어","tel":"031-551-4813","addr":"경기도 구리시 수택동 854-3 한성상가2층 204","indutype":"건축자재 - 인테리어전문","category":"other"}]},{"lat":"37.591842853","long":"127.14567225","imageIndex":17,"items":[{"name":"성우건물","tel":"031-534-7107","addr":"경기도 구리시 수택동 698-3번지","indutype":"용역 서비스 - 부동산 중개·임대","category":"other"},{"name":"우리피아노악기","tel":"031-0000-0000","addr":"경기도 구리시 수택동 698-3번지 1층","indutype":"레져용품 - 피아노대리점","category":"other"}]},{"lat":"37.598446332","long":"127.13861889","imageIndex":17,"items":[{"name":"성진","tel":"031-555-0983","addr":"경기도 구리시 수택동 380-4번지","indutype":"의류 - 정장","category":"other"},{"name":"피에이티(PAT)","tel":"031-571-9737","addr":"경기도 구리시 수택동 380-4번지","indutype":"레져용품 - 스포츠·레져용품","category":"other"},{"name":"현대한복","tel":"031-556-8684","addr":"경기도 구리시 수택동 380-4번지","indutype":"의류 - 맞춤복점","category":"other"}]},{"lat":"37.593676868","long":"127.14892544","imageIndex":17,"items":[{"name":"성화종합사무기","tel":"031-565-2647","addr":"경기도 구리시 수택동 278-9번지","indutype":"사무통신 - 사무용 OA기기","category":"other"}]},{"lat":"37.596336767","long":"127.14728875","imageIndex":17,"items":[{"name":"세계로난방","tel":"031-554-9204","addr":"경기도 구리시 수택동 493-13번지 비제이빌 102호","indutype":"전기제품 - 냉열기기","category":"other"}]},{"lat":"37.59483865","long":"127.14931269","imageIndex":17,"items":[{"name":"세계의료기","tel":"031-566-7750","addr":"경기도 구리시 수택동 286-2번지","indutype":"기타의료기관 - 기타의료기관 및 기타","category":"other"},{"name":"재활용센터","tel":"031-483-7741","addr":"경기도 구리시 수택동 286-2번지","indutype":"가구 - 일반가구","category":"other"}]},{"lat":"37.591898778","long":"127.14412114","imageIndex":17,"items":[{"name":"세기","tel":"031-568-7937","addr":"경기도 구리시 수택동 660-4번지 청송빌라 A동 204호","indutype":"회원제형태 - 기타4","category":"other"}]},{"lat":"37.597057706","long":"127.13959019","imageIndex":17,"items":[{"name":"세기냉안방기전문점","tel":"031-553-0138","addr":"경기도 구리시 수택동 430-30번지","indutype":"전기제품 - 냉열기기","category":"other"}]},{"lat":"37.599954082","long":"127.14364944","imageIndex":17,"items":[{"name":"세담","tel":"070-7499-0592","addr":"경기도 구리시 수택동 525-79번지 3층호","indutype":"용역 서비스 - 종합용역","category":"other"}]},{"lat":"37.591894351","long":"127.14023746","imageIndex":17,"items":[{"name":"세란","tel":"031-553-8217","addr":"경기도 구리시 수택동 850-3번지 2층","indutype":"회원제형태 - 기타4","category":"other"},{"name":"토즈스터디센터수택센터","tel":"031-565-1400","addr":"경기도 구리시 수택동 850-3번지","indutype":"용역 서비스 - 사무서비스","category":"other"}]},{"lat":"37.600309452","long":"127.14026425","imageIndex":17,"items":[{"name":"세븐스토리","tel":"031-551-7060","addr":"경기도 구리시 수택동 404-2번지 1층","indutype":"신변잡화 - 신발","category":"other"},{"name":"씨유구리돌다리점","tel":"02-1577-8007","addr":"경기도 구리시 수택동 404-2번지 상가","indutype":"유통업 영리 - 편 의 점","category":"other"},{"name":"찍고푼","tel":"031-568-7975","addr":"경기도 구리시 수택동 404-2번지 보광빌딩","indutype":"광학제품 - 사진관","category":"other"}]},{"lat":"37.594814146","long":"127.14726316","imageIndex":17,"items":[{"name":"세븐일레븐구리대성점","tel":"","addr":"경기도 구리시 수택동 589-3번지","indutype":"유통업 영리 - 편 의 점","category":"other"}]},{"lat":"37.597807302","long":"127.13804023","imageIndex":17,"items":[{"name":"세븐일레븐구리사랑점","tel":"","addr":"경기도 구리시 수택동 378-9번지 양평부동산","indutype":"유통업 영리 - 편 의 점","category":"other"}]},{"lat":"37.59992223","long":"127.14009368","imageIndex":17,"items":[{"name":"세븐일레븐구리센타점","tel":"","addr":"경기도 구리시 수택동 404-13번지 1층","indutype":"유통업 영리 - 편 의 점","category":"other"}]},{"lat":"37.600170113","long":"127.14381971","imageIndex":17,"items":[{"name":"세븐일레븐구리수택그린점","tel":"031-1577-0711","addr":"경기도 구리시 수택동 525-87번지 1층","indutype":"유통업 영리 - 편 의 점","category":"other"}]},{"lat":"37.594533215","long":"127.14858742","imageIndex":17,"items":[{"name":"세성침장","tel":"031-556-4933","addr":"경기도 구리시 수택동 287-12번지","indutype":"직물 - 침구·수예점","category":"other"},{"name":"유성타일상사","tel":"031-551-8161","addr":"경기도 구리시 수택동 287-12번지","indutype":"건축자재 - 건축용 요업제품","category":"other"},{"name":"춘추낚시","tel":"031-551-6694","addr":"경기도 구리시 수택동 287-12번지","indutype":"레져용품 - 스포츠·레져용품","category":"other"},{"name":"현지건축자재","tel":"031-562-6919","addr":"경기도 구리시 수택동 287-12번지","indutype":"건축자재 - 기타건축자재","category":"other"}]},{"lat":"37.596147049","long":"127.14770734","imageIndex":17,"items":[{"name":"세영산업개발","tel":"031-554-4994","addr":"경기도 구리시 수택동 493-21번지 1동","indutype":"용역 서비스 - 기타용역서비스","category":"other"}]},{"lat":"37.600834877","long":"127.14545162","imageIndex":17,"items":[{"name":"세원","tel":"031-426-3883","addr":"경기도 구리시 수택동 539-2 4층-401 20/","indutype":"회원제형태 - 기타4","category":"other"}]},{"lat":"37.598982052","long":"127.142787","imageIndex":17,"items":[{"name":"소란플라워","tel":"","addr":"경기도 구리시 수택동 524-6 6/","indutype":"회원제형태 - 기타4","category":"other"}]},{"lat":"37.591507417","long":"127.13981781","imageIndex":17,"items":[{"name":"소프롱S/C","tel":"02-1544-4511","addr":"경기도 구리시 수택동 849-2번지 404호","indutype":"주방용구 - 주방용구","category":"other"}]},{"lat":"37.595640383","long":"127.1419768","imageIndex":17,"items":[{"name":"소희패션","tel":"031-562-5879","addr":"경기도 구리시 수택동 466-8번지","indutype":"의류 - 정장","category":"other"}]},{"lat":"37.596394159","long":"127.14453728","imageIndex":17,"items":[{"name":"속옷나라","tel":"031-563-3399","addr":"경기도 구리시 수택동 487-12번지","indutype":"의류 - 내의판매","category":"other"}]},{"lat":"37.596366558","long":"127.14501281","imageIndex":17,"items":[{"name":"송이네","tel":"031-564-5805","addr":"경기도 구리시 수택동 488-21번지 1층","indutype":"수리서비스 - 세탁소","category":"other"}]},{"lat":"37.595753142","long":"127.1379799","imageIndex":17,"items":[{"name":"수 스킨&바디(Skon&Body)","tel":"031-429-6252","addr":"경기도 구리시 수택동 437-50번지 1층","indutype":"회원제형태 - 기타1","category":"other"}]},{"lat":"37.597420555","long":"127.1374507","imageIndex":17,"items":[{"name":"수니의 정원","tel":"031-554-8997","addr":"경기도 구리시 수택동 378-26","indutype":"문화.취미 - 화원","category":"other"}]},{"lat":"37.599198125","long":"127.14292329","imageIndex":17,"items":[{"name":"수택동시온쇼핑","tel":"031-563-9367","addr":"경기도 구리시 수택동 524-12번지","indutype":"신변잡화 - 기타잡화","category":"other"}]},{"lat":"37.593842658","long":"127.13833878","imageIndex":17,"items":[{"name":"수택세탁소","tel":"031-563-0204","addr":"경기도 구리시 수택동 438-39번지","indutype":"수리서비스 - 세탁소","category":"other"}]},{"lat":"37.599898163","long":"127.14520071","imageIndex":17,"items":[{"name":"수현&동그라미","tel":"031-563-4272","addr":"경기도 구리시 수택동 521-56번지 1층","indutype":"회원제형태 - 기타2","category":"other"}]},{"lat":"37.592369077","long":"127.14261611","imageIndex":17,"items":[{"name":"슈크르","tel":"","addr":"경기도 구리시 수택동 453-27번지 1층","indutype":"의류 - 정장","category":"other"}]},{"lat":"37.599807351","long":"127.13814576","imageIndex":17,"items":[{"name":"스마트하우스","tel":"031-555-4232","addr":"경기도 구리시 수택동 370-8번지","indutype":"신변잡화 - 기타잡화","category":"other"}]},{"lat":"37.595140904","long":"127.14528224","imageIndex":17,"items":[{"name":"스쿨체육사","tel":"031-565-9100","addr":"경기도 구리시 수택동 480-43번지 온누리한일약국","indutype":"레져용품 - 스포츠·레져용품","category":"other"},{"name":"장원컴퓨터","tel":"031-563-1116","addr":"경기도 구리시 수택동 480-43번지","indutype":"사무통신 - 컴퓨터","category":"other"}]},{"lat":"37.59500203","long":"127.14833922","imageIndex":17,"items":[{"name":"스타광고","tel":"031-555-3653","addr":"경기도 구리시 수택동 287-2번지","indutype":"용역 서비스 - 종합용역","category":"other"},{"name":"이불할인마트","tel":"031-555-4747","addr":"경기도 구리시 수택동 287-2번지","indutype":"직물 - 침구·수예점","category":"other"},{"name":"칠만표방수","tel":"031-565-5977","addr":"경기도 구리시 수택동 287-2번지","indutype":"건축자재 - 페인트","category":"other"}]},{"lat":"37.591786628","long":"127.13989758","imageIndex":17,"items":[{"name":"스토피아 수택센타","tel":"031-1111-1111","addr":"경기도 구리시 수택동 850-6번지 보령빌딩 4층","indutype":"용역 서비스 - 사무서비스","category":"other"}]},{"lat":"37.597783316","long":"127.15054141","imageIndex":17,"items":[{"name":"시원에어컨","tel":"","addr":"경기도 구리시 수택동 355-1번지 동명빌라 2층 3호","indutype":"수리서비스 - 가정용품수리","category":"other"}]},{"lat":"37.597200148","long":"127.1410625","imageIndex":17,"items":[{"name":"신도네트구리/특별할부","tel":"031-551-4348","addr":"경기도 구리시 수택동 433-5번지 3층","indutype":"사무통신 - 사무용 OA기기","category":"other"}]},{"lat":"37.595063374","long":"127.14973209","imageIndex":17,"items":[{"name":"신성광고","tel":"031-553-1681","addr":"경기도 구리시 수택동 291-3번지","indutype":"용역 서비스 - 종합용역","category":"other"}]},{"lat":"37.596001293","long":"127.14153586","imageIndex":17,"items":[{"name":"신세기","tel":"031-566-3008","addr":"경기도 구리시 수택동 468-32번지","indutype":"의류 - 정장","category":"other"}]},{"lat":"37.597753706","long":"127.14530986","imageIndex":17,"items":[{"name":"신영어패럴","tel":"031-567-0915","addr":"경기도 구리시 수택동 507-5번지 2층","indutype":"직물 - 기타직물","category":"other"}]},{"lat":"37.595064078","long":"127.14170397","imageIndex":17,"items":[{"name":"신원기획","tel":"031-511-1829","addr":"경기도 구리시 수택동 466-20번지 1층","indutype":"의류 - 기타의류","category":"other"}]},{"lat":"37.594811269","long":"127.14959572","imageIndex":17,"items":[{"name":"신원산업","tel":"031-551-4227","addr":"경기도 구리시 수택동 285-2번지","indutype":"주방용구 - 주방용구","category":"other"}]},{"lat":"37.595254027","long":"127.14107022","imageIndex":17,"items":[{"name":"신정종합설비","tel":"031-513-7990","addr":"경기도 구리시 수택동 463-3번지 1층","indutype":"용역 서비스 - 기타용역서비스","category":"other"}]},{"lat":"37.592647951","long":"127.14297896","imageIndex":17,"items":[{"name":"신화 하우징","tel":"031-568-5495","addr":"경기도 구리시 수택동 453-5번지 1층 3,4호","indutype":"건축자재 - 인테리어전문","category":"other"}]},{"lat":"37.595475666","long":"127.14411658","imageIndex":17,"items":[{"name":"신화냉기","tel":"031-556-6450","addr":"경기도 구리시 수택동 474-2번지 1층","indutype":"전기제품 - 냉열기기","category":"other"}]},{"lat":"37.596285579","long":"127.14492207","imageIndex":17,"items":[{"name":"심미","tel":"031-563-9724","addr":"경기도 구리시 수택동 488-18번지","indutype":"의류 - 정장","category":"other"}]},{"lat":"37.595478441","long":"127.14923468","imageIndex":17,"items":[{"name":"십이지불교용품","tel":"031-566-6347","addr":"경기도 구리시 수택동 328-3번지","indutype":"신변잡화 - 기념품점","category":"other"},{"name":"해성","tel":"","addr":"경기도 구리시 수택동 328-3번지","indutype":"직물 - 기타직물","category":"other"}]},{"lat":"37.598730729","long":"127.14198255","imageIndex":17,"items":[{"name":"쌍둥이네 이불","tel":"031-566-0123","addr":"경기도 구리시 수택동 423-12번지","indutype":"직물 - 침구·수예점","category":"other"},{"name":"함박신발","tel":"031-566-1825","addr":"경기도 구리시 수택동 423-12번지","indutype":"신변잡화 - 신발","category":"other"}]},{"lat":"37.600147052","long":"127.14045646","imageIndex":17,"items":[{"name":"썬휘트니스","tel":"031-562-2728","addr":"경기도 구리시 수택동 404-11번지","indutype":"회원제형태 - 레져업소","category":"other"},{"name":"탑원룸텔","tel":"031-566-6321","addr":"경기도 구리시 수택동 404-11번지","indutype":"용역 서비스 - 부동산 중개·임대","category":"other"}]},{"lat":"37.591755742","long":"127.14318109","imageIndex":17,"items":[{"name":"쎈텐스쿨하모니","tel":"031-555-6525","addr":"경기도 구리시 수택동 660-7번지","indutype":"의류 - 기타의류","category":"other"}]},{"lat":"37.591090548","long":"127.14933932","imageIndex":17,"items":[{"name":"쓰담쓰담","tel":"031-553-9908","addr":"경기도 구리시 수택동 266-3번지","indutype":"문화.취미 - 애완동물","category":"other"}]},{"lat":"37.599730424","long":"127.1423128","imageIndex":17,"items":[{"name":"씨유구리구룡점","tel":"031-563-8527","addr":"경기도 구리시 수택동 525번지","indutype":"유통업 영리 - 편 의 점","category":"other"}]},{"lat":"37.592425808","long":"127.14034034","imageIndex":17,"items":[{"name":"씨유구리미소지움점","tel":"02-1577-8007","addr":"경기도 구리시 수택동 448-6번지 구리신성미소지움 1층 7호","indutype":"유통업 영리 - 편 의 점","category":"other"}]},{"lat":"37.598502211","long":"127.14473378","imageIndex":17,"items":[{"name":"씨유구리연수점","tel":"080-080-3663","addr":"경기도 구리시 수택동 516-12번지","indutype":"유통업 영리 - 편 의 점","category":"other"}]},{"lat":"37.59595185","long":"127.14522716","imageIndex":17,"items":[{"name":"아꼬르","tel":"031-551-6257","addr":"경기도 구리시 수택동 488-13번지 1층","indutype":"직물 - 침구·수예점","category":"other"}]},{"lat":"37.592009955","long":"127.14153978","imageIndex":17,"items":[{"name":"아랑주이불","tel":"","addr":"경기도 구리시 수택동 449-20번지 1층","indutype":"직물 - 침구·수예점","category":"other"}]},{"lat":"37.593757982","long":"127.14142979","imageIndex":17,"items":[{"name":"아셀테크","tel":"031-556-8253","addr":"경기도 구리시 수택동 444번지 1층","indutype":"사무통신 - 컴퓨터","category":"other"}]},{"lat":"37.592810382","long":"127.14276413","imageIndex":17,"items":[{"name":"아주환경","tel":"031-552-3800","addr":"경기도 구리시 수택동 447-34번지","indutype":"용역 서비스 - 종합용역","category":"other"}]},{"lat":"37.598478523","long":"127.14192546","imageIndex":17,"items":[{"name":"아지트","tel":"031-2222-2222","addr":"경기도 구리시 수택동 422-15번지 1층","indutype":"의류 - 정장","category":"other"},{"name":"케숀","tel":"031-66-1220","addr":"경기도 구리시 수택동 422-15번지","indutype":"의류 - 정장","category":"other"},{"name":"한독티셔츠","tel":"031-566-5710","addr":"경기도 구리시 수택동 422-15번지","indutype":"의류 - 정장","category":"other"}]},{"lat":"37.598280468","long":"127.14178921","imageIndex":17,"items":[{"name":"알뜰매장","tel":"031-568-5545","addr":"경기도 구리시 수택동 422-17번지","indutype":"의류 - 기타의류","category":"other"}]},{"lat":"37.595954577","long":"127.1503453","imageIndex":17,"items":[{"name":"알앤에스(R&S)","tel":"070-4113-7784","addr":"경기도 구리시 수택동 325-2번지 1층","indutype":"사무통신 - 사무용 OA기기","category":"other"}]},{"lat":"37.59306488","long":"127.14087369","imageIndex":17,"items":[{"name":"앤공방 앤부동산중개사무소","tel":"031-555-0813","addr":"경기도 구리시 수택동 444-9번지","indutype":"직물 - 침구·수예점","category":"other"},{"name":"왕자","tel":"031-557-1105","addr":"경기도 구리시 수택동 444-9번지","indutype":"회원제형태 - 기타1","category":"other"}]},{"lat":"37.592621404","long":"127.14257129","imageIndex":17,"items":[{"name":"어드레스 453","tel":"031-557-0453","addr":"경기도 구리시 수택동 453번지 SIWA 102호","indutype":"의류 - 정장","category":"other"}]},{"lat":"37.587201769","long":"127.13892681","imageIndex":17,"items":[{"name":"어썸커뮤니티","tel":"031-558-1253","addr":"경기도 구리시 수택동 874-1번지 이우프라자 5층","indutype":"용역 서비스 - 사무서비스","category":"other"}]},{"lat":"37.594893536","long":"127.14864474","imageIndex":17,"items":[{"name":"어울림 데코","tel":"031-566-2324","addr":"경기도 구리시 수택동 287-3번지","indutype":"직물 - 카페트,커튼,천막,지물","category":"other"}]},{"lat":"37.599278782","long":"127.14328581","imageIndex":17,"items":[{"name":"엄마정성","tel":"070--8631-9111","addr":"경기도 구리시 수택동 522번지","indutype":"의류 - 정장","category":"other"}]},{"lat":"37.593752717","long":"127.14584574","imageIndex":17,"items":[{"name":"에너지웨이브스칼라","tel":"","addr":"경기도 구리시 수택동 670-2번지 행운다세대 3층 301호","indutype":"신변잡화 - 기타잡화","category":"other"}]},{"lat":"37.600201979","long":"127.13970918","imageIndex":17,"items":[{"name":"에메필 구리점","tel":"","addr":"경기도 구리시 수택동 404번지 동원빌딩 104호","indutype":"의류 - 내의판매","category":"other"},{"name":"쥬얼리","tel":"031-555-2236","addr":"경기도 구리시 수택동 404번지 동원빌딩","indutype":"신변잡화 - 액세서리","category":"other"},{"name":"흥농종묘사","tel":"031-563-6483","addr":"경기도 구리시 수택동 404번지 동원빌딩 1층","indutype":"농업 - 비료,사료,종자","category":"other"}]},{"lat":"37.600031122","long":"127.13942577","imageIndex":17,"items":[{"name":"에블린구리점","tel":"031-563-6409","addr":"경기도 구리시 수택동 383-12번지","indutype":"의류 - 내의판매","category":"other"},{"name":"에블린구리점","tel":"031-563-6409","addr":"경기도 구리시 수택동 383-12번지","indutype":"의류 - 내의판매","category":"other"}]},{"lat":"37.596896393","long":"127.13884254","imageIndex":17,"items":[{"name":"에스에스스포츠(SS SPORTS)","tel":"031-528-5808","addr":"경기도 구리시 수택동 430-5번지 한영그린하우스 201호","indutype":"레져용품 - 스포츠·레져용품","category":"other"}]},{"lat":"37.59361507","long":"127.14789493","imageIndex":17,"items":[{"name":"에어컨 세탁기 매트리스 청소 리더스 클린","tel":"","addr":"경기도 구리시 수택동 277-21번지 101호","indutype":"용역 서비스 - 종합용역","category":"other"}]},{"lat":"37.593814755","long":"127.13909737","imageIndex":17,"items":[{"name":"에어컨향기나라","tel":"031-568-5882","addr":"경기도 구리시 수택동 438-65번지 1층","indutype":"용역 서비스 - 기타용역서비스","category":"other"}]},{"lat":"37.594252345","long":"127.14242714","imageIndex":17,"items":[{"name":"에이 퓨쳐 랩 (A.F.Lab)","tel":"031-557-9932","addr":"경기도 구리시 수택동 458-13번지","indutype":"서적문구 - 과학기자재","category":"other"},{"name":"티엔비(T and B)","tel":"031-557-2083","addr":"경기도 구리시 수택동 458-13번지","indutype":"문화.취미 - 화방·표구점","category":"other"}]},{"lat":"37.59966797","long":"127.14179179","imageIndex":17,"items":[{"name":"에이에스에이피","tel":"070-8816-9590","addr":"경기도 구리시 수택동 405-23번지 104호","indutype":"신변잡화 - 액세서리","category":"other"},{"name":"핑크라인아카데미","tel":"031-564-2700","addr":"경기도 구리시 수택동 405-23번지","indutype":"회원제형태 - 기타4","category":"other"}]},{"lat":"37.598673192","long":"127.14490396","imageIndex":17,"items":[{"name":"에이치뉴얼","tel":"","addr":"경기도 구리시 수택동 517-14번지 2층","indutype":"신변잡화 - 가방","category":"other"}]},{"lat":"37.59997502","long":"127.14118087","imageIndex":17,"items":[{"name":"에이치앤에이치","tel":"070-7631-9590","addr":"경기도 구리시 수택동 405번지","indutype":"신변잡화 - 제화","category":"other"}]},{"lat":"37.594384303","long":"127.14509962","imageIndex":17,"items":[{"name":"엔젤클린","tel":"070-8628-2259","addr":"경기도 구리시 수택동 454-16번지 광진주택 다동 306호","indutype":"용역 서비스 - 종합용역","category":"other"}]},{"lat":"37.600222873","long":"127.13720662","imageIndex":17,"items":[{"name":"엘가.비단청","tel":"031-569-7999","addr":"경기도 구리시 수택동 370-4번지 지하1층 ,1층,2층","indutype":"광학제품 - 사진관","category":"other"}]},{"lat":"37.599701258","long":"127.13636772","imageIndex":17,"items":[{"name":"엘르골프 구리점","tel":"070-4063-5950","addr":"경기도 구리시 수택동 373번지","indutype":"레져용품 - 스포츠·레져용품","category":"other"}]},{"lat":"37.599669693","long":"127.14031969","imageIndex":17,"items":[{"name":"엘스쥬얼리","tel":"031-569-2326","addr":"경기도 구리시 수택동 414-20번지","indutype":"신변잡화 - 액세서리","category":"other"}]},{"lat":"37.595196621","long":"127.14390091","imageIndex":17,"items":[{"name":"연꽃마을","tel":"031-555-0661","addr":"경기도 구리시 수택동 474-6번지 1층","indutype":"문화.취미 - 화원","category":"other"}]},{"lat":"37.592306397","long":"127.14228763","imageIndex":17,"items":[{"name":"연지문구","tel":"031-555-3322","addr":"경기도 구리시 수택동 449-12번지 원풍빌라 라동 102호","indutype":"서적문구 - 문구용품","category":"other"}]},{"lat":"37.597200466","long":"127.14079074","imageIndex":17,"items":[{"name":"열쇠나라","tel":"031-567-1304","addr":"경기도 구리시 수택동 433번지","indutype":"수리서비스 - 기타수리서비스","category":"other"}]},{"lat":"37.598810464","long":"127.1431264","imageIndex":17,"items":[{"name":"예스맘","tel":"031-553-7959","addr":"경기도 구리시 수택동 515-4번지","indutype":"의류 - 정장","category":"other"}]},{"lat":"37.592341121","long":"127.14339732","imageIndex":17,"items":[{"name":"예승","tel":"","addr":"경기도 구리시 수택동 453-19번지 1층","indutype":"의류 - 정장","category":"other"},{"name":"패션아트","tel":"031-553-7855","addr":"경기도 구리시 수택동 453-19번지","indutype":"의류 - 정장","category":"other"}]},{"lat":"37.593038116","long":"127.14064718","imageIndex":17,"items":[{"name":"오렌지","tel":"070-1713-3712","addr":"경기도 구리시 수택동 445-24번지","indutype":"의류 - 내의판매","category":"other"}]},{"lat":"37.598477103","long":"127.14312577","imageIndex":17,"items":[{"name":"오메가정보통신","tel":"031-568-8011","addr":"경기도 구리시 수택동 515-7번지","indutype":"사무통신 - 통신기기","category":"other"}]},{"lat":"37.596001903","long":"127.14101499","imageIndex":17,"items":[{"name":"오벨전자담배(수택점)","tel":"031-567-7098","addr":"경기도 구리시 수택동 436-22번지 1층","indutype":"기타 - 기타 전문점","category":"other"}]},{"lat":"37.601060216","long":"127.14537278","imageIndex":17,"items":[{"name":"오복상사","tel":"031-565-3591","addr":"경기도 구리시 수택동 537-17","indutype":"서적문구 - 문구용품","category":"other"}]},{"lat":"37.598529322","long":"127.13695446","imageIndex":17,"items":[{"name":"오스타유통","tel":"031-624-1140","addr":"경기도 구리시 수택동 376-19번지","indutype":"서적문구 - 문구용품","category":"other"}]},{"lat":"37.59472864","long":"127.14345843","imageIndex":17,"items":[{"name":"오토테크","tel":"031-790-1425","addr":"경기도 구리시 수택동 456-22번지 4층","indutype":"전기제품 - 가전제품","category":"other"}]},{"lat":"37.591507128","long":"127.14006691","imageIndex":17,"items":[{"name":"오피스원(Officeone)","tel":"031-557-5001","addr":"경기도 구리시 수택동 849-3번지 문구할인매장","indutype":"서적문구 - 문구용품","category":"other"}]},{"lat":"37.598641735","long":"127.14104252","imageIndex":17,"items":[{"name":"옷싸게파는집","tel":"031-565-1986","addr":"경기도 구리시 수택동 419-36","indutype":"의류 - 정장","category":"other"}]},{"lat":"37.595536525","long":"127.14595106","imageIndex":17,"items":[{"name":"옷이날개","tel":"031-567-4393","addr":"경기도 구리시 수택동 489-9번지","indutype":"의류 - 정장","category":"other"}]},{"lat":"37.599786596","long":"127.14051241","imageIndex":17,"items":[{"name":"와이에이치(YH)스포츠","tel":"031-256-2701","addr":"경기도 구리시 수택동 409번지 1층","indutype":"레져용품 - 스포츠·레져용품","category":"other"},{"name":"유명메이커할인매장","tel":"031-563-8985","addr":"경기도 구리시 수택동 409번지","indutype":"의류 - 정장","category":"other"}]},{"lat":"37.594343071","long":"127.14934569","imageIndex":17,"items":[{"name":"왕정타일도기","tel":"031-571-8835","addr":"경기도 구리시 수택동 285-6번지 1층","indutype":"건축자재 - 건축용 요업제품","category":"other"},{"name":"이에스솔루션","tel":"070-7556-2866","addr":"경기도 구리시 수택동 285-6번지 한아름빌딩","indutype":"전기제품 - 기타전기제품","category":"other"},{"name":"푸른들기획","tel":"031-554-1620","addr":"경기도 구리시 수택동 285-6번지 한아름 상가 1층","indutype":"서적문구 - 출판 및 인쇄물","category":"other"}]},{"lat":"37.592838013","long":"127.14225465","imageIndex":17,"items":[{"name":"우리","tel":"031-557-0070","addr":"경기도 구리시 수택동 447-30번지","indutype":"신변잡화 - 액세서리","category":"other"}]},{"lat":"37.597978703","long":"127.14551411","imageIndex":17,"items":[{"name":"우리냉동","tel":"031-565-5001","addr":"경기도 구리시 수택동 509-8번지","indutype":"전기제품 - 냉열기기","category":"other"}]},{"lat":"37.593644404","long":"127.13837239","imageIndex":17,"items":[{"name":"우리시스템","tel":"031-572-4471","addr":"경기도 구리시 수택동 438-45번지 1층","indutype":"건축자재 - 보일러·펌프·샷시","category":"other"}]},{"lat":"37.599420346","long":"127.1377827","imageIndex":17,"items":[{"name":"우리유리샷시공사","tel":"02-420-4704","addr":"경기도 구리시 수택동 374-15번지 쉼레지던트 303호","indutype":"용역 서비스 - 기타용역서비스","category":"other"}]},{"lat":"37.591480229","long":"127.14750582","imageIndex":17,"items":[{"name":"우림세탁","tel":"031-566-4555","addr":"경기도 구리시 수택동 684-9번지 우림B상가 1층 2","indutype":"수리서비스 - 세탁소","category":"other"}]},{"lat":"37.5921698","long":"127.14351023","imageIndex":17,"items":[{"name":"우성종합공사","tel":"031-564-2965","addr":"경기도 구리시 수택동 653-7번지 1층","indutype":"용역 서비스 - 기타용역서비스","category":"other"}]},{"lat":"37.598477828","long":"127.14251429","imageIndex":17,"items":[{"name":"우연금방","tel":"031-563-5871","addr":"경기도 구리시 수택동 424번지 1층","indutype":"신변잡화 - 귀금속","category":"other"}]},{"lat":"37.593452048","long":"127.14108954","imageIndex":17,"items":[{"name":"워크 포인트","tel":"031-512-9296","addr":"경기도 구리시 수택동 444-4번지 1층","indutype":"건축자재 - 인테리어전문","category":"other"}]},{"lat":"37.592562438","long":"127.13906112","imageIndex":17,"items":[{"name":"원더우먼","tel":"031-565-0789","addr":"경기도 구리시 수택동 755-8번지","indutype":"의류 - 정장","category":"other"},{"name":"유씨철물","tel":"031-566-1549","addr":"경기도 구리시 수택동 755-8번지","indutype":"기타 - 기계공구","category":"other"}]},{"lat":"37.596230879","long":"127.14545416","imageIndex":17,"items":[{"name":"원텔테크놀러지","tel":"031-552-3339","addr":"경기도 구리시 수택동 488-4번지 제일빌딩 4층 402호","indutype":"기타 - 기타 전문점","category":"other"},{"name":"조은환경기술단","tel":"031-512-0258","addr":"경기도 구리시 수택동 488-4번지 4층","indutype":"건축자재 - 인테리어전문","category":"other"}]},{"lat":"37.596009609","long":"127.1495641","imageIndex":17,"items":[{"name":"월드사","tel":"031-556-7633","addr":"경기도 구리시 수택동 329-4","indutype":"의류 - 정장","category":"other"},{"name":"주하나산업","tel":"031-554-8880","addr":"경기도 구리시 수택동 329-4번지","indutype":"직물 - 옷감·직물","category":"other"},{"name":"태형ENG","tel":"070-4025-4988","addr":"경기도 구리시 수택동 329-4번지","indutype":"전기제품 - 가전제품","category":"other"}]},{"lat":"37.594335308","long":"127.14833792","imageIndex":17,"items":[{"name":"위드 에듀테인먼트(WITH EDUTAINMENT)","tel":"031-562-7080","addr":"경기도 구리시 수택동 279-4번지 2동","indutype":"의류 - 정장","category":"other"}]},{"lat":"37.587201547","long":"127.13911928","imageIndex":17,"items":[{"name":"위드댄스구리","tel":"031-567-9767","addr":"경기도 구리시 수택동 874-2연성크리닉센터지하2층","indutype":"회원제형태 - 레져업소","category":"other"}]},{"lat":"37.600170949","long":"127.14311762","imageIndex":17,"items":[{"name":"윈윈에어컨","tel":"","addr":"경기도 구리시 수택동 525-34번지 202호","indutype":"용역 서비스 - 기타용역서비스","category":"other"}]},{"lat":"37.599228899","long":"127.13973004","imageIndex":17,"items":[{"name":"유솔주니어","tel":"031-565-9395","addr":"경기도 구리시 수택동 417-1번지","indutype":"의류 - 정장","category":"other"}]},{"lat":"37.598647628","long":"127.14368095","imageIndex":17,"items":[{"name":"유신공조","tel":"02-1577-3914","addr":"경기도 구리시 수택동 515-39번지 2층","indutype":"용역 서비스 - 기타용역서비스","category":"other"}]},{"lat":"37.594225904","long":"127.14192887","imageIndex":17,"items":[{"name":"유신교역","tel":"031-563-9286","addr":"경기도 구리시 수택동 459-16번지","indutype":"가구 - 기타가구","category":"other"}]},{"lat":"37.59658969","long":"127.14675704","imageIndex":17,"items":[{"name":"유진메디칼","tel":"02-798-2009","addr":"경기도 구리시 수택동 503-22번지","indutype":"의류 - 아동의류","category":"other"}]},{"lat":"37.598673002","long":"127.13737369","imageIndex":17,"items":[{"name":"유진유통","tel":"","addr":"경기도 구리시 수택동 377-3번지","indutype":"의류 - 정장","category":"other"}]},{"lat":"37.597057837","long":"127.13947695","imageIndex":17,"items":[{"name":"유채유통","tel":"","addr":"경기도 구리시 수택동 430-29번지","indutype":"유통업 영리 - 기타유통업","category":"other"}]},{"lat":"37.598974512","long":"127.14154138","imageIndex":17,"items":[{"name":"유피","tel":"031-553-5866","addr":"경기도 구리시 수택동 422-2번지","indutype":"의류 - 정장","category":"other"}]},{"lat":"37.598060596","long":"127.14484618","imageIndex":17,"items":[{"name":"윤스","tel":"","addr":"경기도 구리시 수택동 512-10번지 동부빌라 지층 101호","indutype":"의류 - 정장","category":"other"}]},{"lat":"37.595334704","long":"127.14142139","imageIndex":17,"items":[{"name":"윤스킨케어","tel":"031-556-5754","addr":"경기도 구리시 수택동 466-27번지","indutype":"회원제형태 - 기타4","category":"other"}]},{"lat":"37.593198698","long":"127.14200622","imageIndex":17,"items":[{"name":"율이네 수입옷짱","tel":"031-557-7215","addr":"경기도 구리시 수택동 447-8번지 일우빌라 2층 1호","indutype":"의류 - 정장","category":"other"},{"name":"친환경상품지원센터","tel":"031-554-2714","addr":"경기도 구리시 수택동 447-8번지 일우빌라 1층 1호","indutype":"신변잡화 - 기타잡화","category":"other"}]},{"lat":"37.598757237","long":"127.14242422","imageIndex":17,"items":[{"name":"은성레포츠","tel":"031-552-4983","addr":"경기도 구리시 수택동 423-16번지","indutype":"레져용품 - 스포츠·레져용품","category":"other"}]},{"lat":"37.594230584","long":"127.16639796","imageIndex":17,"items":[{"name":"은성타일창고","tel":"031-558-7827","addr":"경기도 구리시 수택동 1번지","indutype":"건축자재 - 기타건축자재","category":"other"}]},{"lat":"37.598230475","long":"127.13829011","imageIndex":17,"items":[{"name":"은주세탁소","tel":"031-566-4548","addr":"경기도 구리시 수택동 380-12번지","indutype":"수리서비스 - 세탁소","category":"other"}]},{"lat":"37.594895607","long":"127.14695759","imageIndex":17,"items":[{"name":"은하철물","tel":"031-551-4415","addr":"경기도 구리시 수택동 489-5번지","indutype":"건축자재 - 목재·석재·철물","category":"other"}]},{"lat":"37.595473855","long":"127.14562257","imageIndex":17,"items":[{"name":"이레공인중개사사무소","tel":"031-1111-1111","addr":"경기도 구리시 수택동 480-31번지 1층","indutype":"용역 서비스 - 부동산 중개·임대","category":"other"}]},{"lat":"37.594647956","long":"127.14311858","imageIndex":17,"items":[{"name":"이루다무역","tel":"031-514-7910","addr":"경기도 구리시 수택동 456-5번지","indutype":"의류 - 정장","category":"other"}]},{"lat":"37.593035733","long":"127.14267397","imageIndex":17,"items":[{"name":"이마트24 구리성경점","tel":"","addr":"경기도 구리시 수택동 612-2번지 성경아파트 1층","indutype":"유통업 영리 - 편 의 점","category":"other"},{"name":"이마트24 구리성경점","tel":"","addr":"경기도 구리시 수택동 612-2번지 성경아파트 1층","indutype":"유통업 영리 - 편 의 점","category":"other"}]},{"lat":"37.599778849","long":"127.13942531","imageIndex":17,"items":[{"name":"이쁜아이","tel":"02-431-9306","addr":"경기도 구리시 수택동 383-15번지","indutype":"신변잡화 - 액세서리","category":"other"},{"name":"쿠차이아이린","tel":"031-567-5263","addr":"경기도 구리시 수택동 383-15번지 1층","indutype":"의류 - 정장","category":"other"}]},{"lat":"37.596564909","long":"127.14489995","imageIndex":17,"items":[{"name":"이쁜집","tel":"031-552-6010","addr":"경기도 구리시 수택동 487-16번지","indutype":"의류 - 내의판매","category":"other"}]},{"lat":"37.59181288","long":"127.14056566","imageIndex":17,"items":[{"name":"이사열쇠","tel":"031-552-2413","addr":"경기도 구리시 수택동 850-4번지","indutype":"건축자재 - 목재·석재·철물","category":"other"}]},{"lat":"37.599226625","long":"127.14167773","imageIndex":17,"items":[{"name":"이센","tel":"031-562-2839","addr":"경기도 구리시 수택동 423번지","indutype":"신변잡화 - 가방","category":"other"}]},{"lat":"37.596642488","long":"127.14778757","imageIndex":17,"items":[{"name":"이솔전자","tel":"031-111-1111","addr":"경기도 구리시 수택동 494-18번지 1층 뒷쪽호","indutype":"용역 서비스 - 기타용역서비스","category":"other"}]},{"lat":"37.598145774","long":"127.14140396","imageIndex":17,"items":[{"name":"이헌영패션","tel":"031-557-5799","addr":"경기도 구리시 수택동 419-23번지","indutype":"의류 - 정장","category":"other"}]},{"lat":"37.595732363","long":"127.14789904","imageIndex":17,"items":[{"name":"이화","tel":"031-563-0482","addr":"경기도 구리시 수택동 574-1번지","indutype":"용역 서비스 - 기타용역서비스","category":"other"}]},{"lat":"37.597231794","long":"127.14476534","imageIndex":17,"items":[{"name":"인디고진","tel":"","addr":"경기도 구리시 수택동 506-5번지 1층 우측 일부","indutype":"의류 - 정장","category":"other"}]},{"lat":"37.591282724","long":"127.13934185","imageIndex":17,"items":[{"name":"인생사진","tel":"070-7798-5032","addr":"경기도 구리시 수택동 849-11번지 삼화빌딩 지하1층","indutype":"광학제품 - 사진관","category":"other"}]},{"lat":"37.598339641","long":"127.13737309","imageIndex":17,"items":[{"name":"인성ENG","tel":"031-554-4259","addr":"경기도 구리시 수택동 377-19번지 102호","indutype":"용역 서비스 - 기타용역서비스","category":"other"}]},{"lat":"37.592558641","long":"127.15681523","imageIndex":17,"items":[{"name":"인창농원","tel":"031-552-0472","addr":"경기도 구리시 수택동 238-3번지,외1필지","indutype":"문화.취미 - 화원","category":"other"}]},{"lat":"37.59464411","long":"127.13870257","imageIndex":17,"items":[{"name":"일성크리닝","tel":"031-551-2835","addr":"경기도 구리시 수택동 437-38번지 세우신교회 16호","indutype":"수리서비스 - 세탁소","category":"other"}]},{"lat":"37.598446072","long":"127.13884536","imageIndex":17,"items":[{"name":"임스플라워","tel":"031-569-7098","addr":"경기도 구리시 수택동 380-5번지 BYC 102호","indutype":"문화.취미 - 화원","category":"other"},{"name":"제이디엑스(JDX)","tel":"031-569-1359","addr":"경기도 구리시 수택동 380-5번지","indutype":"레져용품 - 스포츠·레져용품","category":"other"}]},{"lat":"37.594675856","long":"127.14981059","imageIndex":17,"items":[{"name":"잉크서비스 미니몰","tel":"031-557-3361","addr":"경기도 구리시 수택동 284번지","indutype":"신변잡화 - 기타잡화","category":"other"},{"name":"피부관리","tel":"031-556-2225","addr":"경기도 구리시 수택동 284번지 3층","indutype":"회원제형태 - 기타4","category":"other"}]},{"lat":"37.586760225","long":"127.13898261","imageIndex":17,"items":[{"name":"자미원","tel":"031-555-0583","addr":"경기도 구리시 수택동 875-1번지 금호프라자2차제 501호","indutype":"회원제형태 - 기타4","category":"other"}]},{"lat":"37.59575949","long":"127.14781983","imageIndex":17,"items":[{"name":"자전거만물센터","tel":"070-4046-7400","addr":"경기도 구리시 수택동 574-3번지","indutype":"레져용품 - 스포츠·레져용품","category":"other"}]},{"lat":"37.591282173","long":"127.1398174","imageIndex":17,"items":[{"name":"작심스페이스","tel":"031-557-0910","addr":"경기도 구리시 수택동 849-9번지 4층 일부","indutype":"용역 서비스 - 사무서비스","category":"other"}]},{"lat":"37.59722662","long":"127.14153813","imageIndex":17,"items":[{"name":"장수공인중개사사무소&홍동주행정사사무소","tel":"","addr":"경기도 구리시 수택동 433-8번지 1층","indutype":"용역 서비스 - 법률회계서비스(개인)","category":"other"},{"name":"청성테크","tel":"031-553-6316","addr":"경기도 구리시 수택동 433-8번지 지층","indutype":"사무통신 - 통신기기","category":"other"}]},{"lat":"37.597589085","long":"127.13976101","imageIndex":17,"items":[{"name":"재원이엔지시스템","tel":"","addr":"경기도 구리시 수택동 427-12번지 3층 14","indutype":"용역 서비스 - 기타용역서비스","category":"other"}]},{"lat":"37.599480528","long":"127.14028537","imageIndex":17,"items":[{"name":"전주콩","tel":"031-551-8071","addr":"경기도 구리시 수택동 414 3층 2/","indutype":"신변잡화 - 기타잡화","category":"other"}]},{"lat":"37.59481207","long":"127.1489503","imageIndex":17,"items":[{"name":"정수기백화점","tel":"031-564-5330","addr":"경기도 구리시 수택동 287-17번지","indutype":"주방용구 - 정수기","category":"other"}]},{"lat":"37.598364343","long":"127.13940007","imageIndex":17,"items":[{"name":"정신포목","tel":"031-566-2966","addr":"경기도 구리시 수택동 380-27,1층,9","indutype":"의류 - 맞춤복점","category":"other"}]},{"lat":"37.597532071","long":"127.14228605","imageIndex":17,"items":[{"name":"제이디컴퍼니","tel":"031-000-0000","addr":"경기도 구리시 수택동 425-23번지 3층","indutype":"용역 서비스 - 종합용역","category":"other"}]},{"lat":"37.599864079","long":"127.14357","imageIndex":17,"items":[{"name":"제이엔씨","tel":"031-568-2217","addr":"경기도 구리시 수택동 525-78번지","indutype":"용역 서비스 - 기타용역서비스","category":"other"}]},{"lat":"37.601446593","long":"127.14623415","imageIndex":17,"items":[{"name":"제이엠텔레콤","tel":"031-527-1129","addr":"경기도 구리시 수택동 537-10번지 1층 3호","indutype":"사무통신 - 통신기기","category":"other"}]},{"lat":"37.596227733","long":"127.14803588","imageIndex":17,"items":[{"name":"제일광고","tel":"031-555-8888","addr":"경기도 구리시 수택동 571-17번지 벽진빌라 102호","indutype":"건축자재 - 인테리어전문","category":"other"}]},{"lat":"37.598395692","long":"127.14339739","imageIndex":17,"items":[{"name":"제일철물","tel":"031-563-2444","addr":"경기도 구리시 수택동 515-26번지","indutype":"건축자재 - 기타건축자재","category":"other"}]},{"lat":"37.599308112","long":"127.14133817","imageIndex":17,"items":[{"name":"젠가","tel":"031-528-6263","addr":"경기도 구리시 수택동 409-21번지 1층","indutype":"의류 - 정장","category":"other"}]},{"lat":"37.597446951","long":"127.1380056","imageIndex":17,"items":[{"name":"조영수세무회계사무소","tel":"031-562-5900","addr":"경기도 구리시 수택동 378-22번지 2층","indutype":"용역 서비스 - 법률회계서비스(개인)","category":"other"}]},{"lat":"37.603364261","long":"127.14739292","imageIndex":17,"items":[{"name":"조은타일","tel":"031-554-1788","addr":"경기도 구리시 수택동 561-3번지 401호","indutype":"용역 서비스 - 기타용역서비스","category":"other"},{"name":"커튼명가창 구리다산점","tel":"02-353-0050","addr":"경기도 구리시 수택동 561-3번지 1층","indutype":"직물 - 카페트,커튼,천막,지물","category":"other"}]},{"lat":"37.591814012","long":"127.13959192","imageIndex":17,"items":[{"name":"조이골프연습장","tel":"031-556-7979","addr":"경기도 구리시 수택동 850-7번지 성창빌딩 6층","indutype":"회원제형태 - 레져업소","category":"other"}]},{"lat":"37.600640141","long":"127.14254098","imageIndex":17,"items":[{"name":"종합보일러","tel":"031-562-0061","addr":"경기도 구리시 수택동 526-24번지","indutype":"건축자재 - 보일러·펌프·샷시","category":"other"}]},{"lat":"37.594004248","long":"127.14645766","imageIndex":17,"items":[{"name":"종합전기","tel":"031-562-5185","addr":"경기도 구리시 수택동 595-13번지","indutype":"수리서비스 - 기타수리서비스","category":"other"}]},{"lat":"37.594037081","long":"127.15617286","imageIndex":17,"items":[{"name":"주식회사 메이드제이","tel":"02-1666-2498","addr":"경기도 구리시 수택동 883번지","indutype":"용역 서비스 - 종합용역","category":"other"}]},{"lat":"37.594448132","long":"127.1654473","imageIndex":17,"items":[{"name":"주식회사 브라운팩","tel":"02-473-2253","addr":"경기도 구리시 수택동 128-1번지","indutype":"유통업 영리 - 기타유통업","category":"other"}]},{"lat":"37.594454553","long":"127.13900795","imageIndex":17,"items":[{"name":"주식회사 신화디자인(SHIN WHA DESIGN)","tel":"070-8711-9652","addr":"경기도 구리시 수택동 438-5번지 2층","indutype":"의류 - 정장","category":"other"}]},{"lat":"37.596779294","long":"127.14642902","imageIndex":17,"items":[{"name":"주식회사 에이원스포츠","tel":"070-7752-5599","addr":"경기도 구리시 수택동 503-13번지","indutype":"레져용품 - 스포츠·레져용품","category":"other"}]},{"lat":"37.600175631","long":"127.13912028","imageIndex":17,"items":[{"name":"주식회사 효성스포츠","tel":"031-557-0123","addr":"경기도 구리시 수택동 383-8번지","indutype":"의류 - 스포츠의류","category":"other"}]},{"lat":"37.59884186","long":"127.13940095","imageIndex":17,"items":[{"name":"주식회사모아의류타운","tel":"031-563-4053","addr":"경기도 구리시 수택동 381-15번지 모아의류1층","indutype":"의류 - 정장","category":"other"}]},{"lat":"37.600312912","long":"127.14495237","imageIndex":17,"items":[{"name":"주식회사예성테크","tel":"031-553-5535","addr":"경기도 구리시 수택동 521-33번지 1층","indutype":"수리서비스 - 사무·통신기기수리","category":"other"}]},{"lat":"37.600475822","long":"127.14434119","imageIndex":17,"items":[{"name":"주원상사","tel":"031-556-7109","addr":"경기도 구리시 수택동 521-4번지 1층","indutype":"의류 - 기타의류","category":"other"}]},{"lat":"37.59475768","long":"127.14176002","imageIndex":17,"items":[{"name":"준디자인","tel":"","addr":"경기도 구리시 수택동 460-10번지 1층 우측","indutype":"건축자재 - 인테리어전문","category":"other"}]},{"lat":"37.594562481","long":"127.14676446","imageIndex":17,"items":[{"name":"중앙장식","tel":"031-566-9595","addr":"경기도 구리시 수택동 479-4번지","indutype":"직물 - 카페트,커튼,천막,지물","category":"other"}]},{"lat":"37.59903419","long":"127.13667227","imageIndex":17,"items":[{"name":"쥬디옷수선","tel":"031-563-6097","addr":"경기도 구리시 수택동 373-12번지","indutype":"수리서비스 - 세탁소","category":"other"}]},{"lat":"37.600506177","long":"127.14900673","imageIndex":17,"items":[{"name":"지드론","tel":"","addr":"경기도 구리시 수택동 551번지 상가 1층 101호의 3,4호 (550번지)","indutype":"서적문구 - 완구점","category":"other"}]},{"lat":"37.594975703","long":"127.1402318","imageIndex":17,"items":[{"name":"지앤애드","tel":"031-564-9256","addr":"경기도 구리시 수택동 463-32번지","indutype":"용역 서비스 - 종합용역","category":"other"}]},{"lat":"37.599140396","long":"127.13834838","imageIndex":17,"items":[{"name":"진영","tel":"031-553-3389","addr":"경기도 구리시 수택동 381번지","indutype":"의류 - 기타의류","category":"other"}]},{"lat":"37.596781647","long":"127.1444814","imageIndex":17,"items":[{"name":"진주꽃","tel":"031-564-3283","addr":"경기도 구리시 수택동 487-7번지 1층","indutype":"문화.취미 - 화원","category":"other"},{"name":"학생백화점","tel":"031-553-9999","addr":"경기도 구리시 수택동 487-7번지 지하1층","indutype":"서적문구 - 문구용품","category":"other"}]},{"lat":"37.59806374","long":"127.14220778","imageIndex":17,"items":[{"name":"창성전기","tel":"031-553-7243","addr":"경기도 구리시 수택동 425-14번지","indutype":"신변잡화 - 기타잡화","category":"other"}]},{"lat":"37.59714167","long":"127.14478781","imageIndex":17,"items":[{"name":"창우페인트","tel":"031-563-3990","addr":"경기도 구리시 수택동 506-6번지","indutype":"건축자재 - 페인트","category":"other"}]},{"lat":"37.598898117","long":"127.13748734","imageIndex":17,"items":[{"name":"천우사","tel":"031-563-6268","addr":"경기도 구리시 수택동 375-19번지 현대한의원 1층 1호","indutype":"직물 - 옷감·직물","category":"other"}]},{"lat":"37.595676675","long":"127.14176172","imageIndex":17,"items":[{"name":"천하공조","tel":"02-428-8742","addr":"경기도 구리시 수택동 466-11번지 1층 1호","indutype":"전기제품 - 냉열기기","category":"other"}]},{"lat":"37.594342604","long":"127.14229143","imageIndex":17,"items":[{"name":"청명건축","tel":"031-563-3576","addr":"경기도 구리시 수택동 458-12번지","indutype":"건축자재 - 인테리어전문","category":"other"}]},{"lat":"37.598976941","long":"127.13945781","imageIndex":17,"items":[{"name":"청바지세상","tel":"031-551-3789","addr":"경기도 구리시 수택동 381-14번지","indutype":"의류 - 기타의류","category":"other"},{"name":"피앤비 P&B","tel":"031-562-2254","addr":"경기도 구리시 수택동 381-14번지 1층 좌측 1층","indutype":"의류 - 정장","category":"other"}]},{"lat":"37.600369755","long":"127.14261974","imageIndex":17,"items":[{"name":"청춘공방 엠스튜디오(MStudio)","tel":"","addr":"경기도 구리시 수택동 526-30번지 지하","indutype":"용역 서비스 - 사무서비스","category":"other"}]},{"lat":"37.598537002","long":"127.13812081","imageIndex":17,"items":[{"name":"체이스컬트 구리점","tel":"","addr":"경기도 구리시 수택동 377-16번지","indutype":"의류 - 정장","category":"other"}]},{"lat":"37.591037582","long":"127.14845605","imageIndex":17,"items":[{"name":"총각네유리","tel":"031-565-6959","addr":"경기도 구리시 수택동 266-2번지 배재연립 106호","indutype":"건축자재 - 유리","category":"other"}]},{"lat":"37.591864289","long":"127.14281897","imageIndex":17,"items":[{"name":"카라","tel":"031-566-8074","addr":"경기도 구리시 수택동 657번지 강학빌딩","indutype":"의류 - 정장","category":"other"}]},{"lat":"37.593647918","long":"127.15750817","imageIndex":17,"items":[{"name":"카리스플라워","tel":"031-566-8448","addr":"경기도 구리시 수택동 235-4","indutype":"문화.취미 - 화원","category":"other"}]},{"lat":"37.596863426","long":"127.14390406","imageIndex":17,"items":[{"name":"케이비시스템","tel":"031-562-1127","addr":"경기도 구리시 수택동 487-2번지","indutype":"용역 서비스 - 부동산 중개·임대","category":"other"}]},{"lat":"37.594336296","long":"127.14753399","imageIndex":17,"items":[{"name":"케이와이디기업","tel":"070-8950-1618","addr":"경기도 구리시 수택동 589-11번지 102호","indutype":"건축자재 - 목재·석재·철물","category":"other"}]},{"lat":"37.59986888","long":"127.13948209","imageIndex":17,"items":[{"name":"코디박스","tel":"031-562-5927","addr":"경기도 구리시 수택동 383-14번지 1층","indutype":"의류 - 정장","category":"other"}]},{"lat":"37.598642331","long":"127.14053295","imageIndex":17,"items":[{"name":"콜핑 구리점","tel":"031-562-2985","addr":"경기도 구리시 수택동 419-2번지","indutype":"레져용품 - 스포츠·레져용품","category":"other"}]},{"lat":"37.594446304","long":"127.14598294","imageIndex":17,"items":[{"name":"쿤태(KUNTAE)","tel":"","addr":"경기도 구리시 수택동 477-2번지 2층","indutype":"의류 - 정장","category":"other"}]},{"lat":"37.59461319","long":"127.14204283","imageIndex":17,"items":[{"name":"쿨라이크","tel":"","addr":"경기도 구리시 수택동 460-12번지 1층 일부","indutype":"신변잡화 - 기타잡화","category":"other"}]},{"lat":"37.595421309","long":"127.14436559","imageIndex":17,"items":[{"name":"크린에어","tel":"031-555-3181","addr":"경기도 구리시 수택동 474-13번지 2층","indutype":"용역 서비스 - 종합용역","category":"other"}]},{"lat":"37.596226603","long":"127.14147966","imageIndex":17,"items":[{"name":"큰집공인중개사사무소","tel":"031-568-5800","addr":"경기도 구리시 수택동 468","indutype":"용역 서비스 - 부동산 중개·임대","category":"other"}]},{"lat":"37.591619312","long":"127.14425649","imageIndex":17,"items":[{"name":"킹바이크 (수택점)","tel":"031-556-2494","addr":"경기도 구리시 수택동 660-16번지 송림빌딩 1층","indutype":"레져용품 - 스포츠·레져용품","category":"other"}]},{"lat":"37.601168032","long":"127.14562212","imageIndex":17,"items":[{"name":"탑디자인기획","tel":"","addr":"경기도 구리시 수택동 537-15번지 2층 2호","indutype":"용역 서비스 - 종합용역","category":"other"}]},{"lat":"37.600113163","long":"127.13859927","imageIndex":17,"items":[{"name":"탑플레이스(Topplace)","tel":"031-566-4050","addr":"경기도 구리시 수택동 383-3번지 외1필지","indutype":"의류 - 정장","category":"other"}]},{"lat":"37.598201393","long":"127.14006787","imageIndex":17,"items":[{"name":"태양","tel":"031-563-7093","addr":"경기도 구리시 수택동 418-6번지 302호","indutype":"회원제형태 - 기타4","category":"other"}]},{"lat":"37.59369782","long":"127.14653633","imageIndex":17,"items":[{"name":"태영블라인드","tel":"031-565-0532","addr":"경기도 구리시 수택동 276-57번지","indutype":"직물 - 카페트,커튼,천막,지물","category":"other"}]},{"lat":"37.600806364","long":"127.14667456","imageIndex":17,"items":[{"name":"태영스포츠","tel":"031-556-0042","addr":"경기도 구리시 수택동 541-9번지","indutype":"레져용품 - 스포츠·레져용품","category":"other"}]},{"lat":"37.593254574","long":"127.14045509","imageIndex":17,"items":[{"name":"태영침구","tel":"070-8158-2853","addr":"경기도 구리시 수택동 445-9번지 삼도빌라 가-304","indutype":"회원제형태 - 기타4","category":"other"}]},{"lat":"37.599867327","long":"127.14081831","imageIndex":17,"items":[{"name":"테이크(TAKE)","tel":"031-528-6263","addr":"경기도 구리시 수택동 409-4번지","indutype":"의류 - 정장","category":"other"}]},{"lat":"37.599035654","long":"127.14317211","imageIndex":17,"items":[{"name":"토탈만복인테리어","tel":"031-510-9339","addr":"경기도 구리시 수택동 515-1번지","indutype":"건축자재 - 인테리어전문","category":"other"}]},{"lat":"37.599113652","long":"127.13809921","imageIndex":17,"items":[{"name":"파스텔","tel":"031-566-9630","addr":"경기도 구리시 수택동 375-33번지","indutype":"의류 - 정장","category":"other"}]},{"lat":"37.595974552","long":"127.1487714","imageIndex":17,"items":[{"name":"파워시스템","tel":"","addr":"경기도 구리시 수택동 334-14번지 팔팔주택 5동 202호","indutype":"용역 서비스 - 기타용역서비스","category":"other"}]},{"lat":"37.598561783","long":"127.14006853","imageIndex":17,"items":[{"name":"패션아울렛","tel":"031-567-0365","addr":"경기도 구리시 수택동 418-9번지 1층","indutype":"의류 - 정장","category":"other"}]},{"lat":"37.598559837","long":"127.14173311","imageIndex":17,"items":[{"name":"패션지대","tel":"031-564-5559","addr":"경기도 구리시 수택동 422-13번지","indutype":"의류 - 정장","category":"other"}]},{"lat":"37.595446222","long":"127.14612074","imageIndex":17,"items":[{"name":"패션프라자대붕","tel":"031-414-7328","addr":"경기도 구리시 수택동 489-8번지","indutype":"의류 - 정장","category":"other"}]},{"lat":"37.597197354","long":"127.1434291","imageIndex":17,"items":[{"name":"평화마트","tel":"031-562-1346","addr":"경기도 구리시 수택동 486-6번지 4층 일부 동우빌딩","indutype":"사무통신 - 통신기기","category":"other"},{"name":"해밀톤양복점","tel":"031-551-7430","addr":"경기도 구리시 수택동 486-6번지","indutype":"의류 - 맞춤복점","category":"other"}]},{"lat":"37.5865893","long":"127.13875586","imageIndex":17,"items":[{"name":"폰엔카페","tel":"070-8683-5503","addr":"경기도 구리시 수택동 875-7 금호2차프라자304호~306호","indutype":"회원제형태 - 기타1","category":"other"}]},{"lat":"37.600507125","long":"127.14072889","imageIndex":17,"items":[{"name":"풀잎문화센타(구리)","tel":"031-551-2597","addr":"경기도 구리시 수택동 404-5번지","indutype":"문화.취미 - 문화취미기타","category":"other"},{"name":"풀잎문화센터(구리)","tel":"031-551-2597","addr":"경기도 구리시 수택동 404-5번지","indutype":"문화.취미 - 문화취미기타","category":"other"}]},{"lat":"37.59455709","long":"127.14376383","imageIndex":17,"items":[{"name":"피쉬프렌드","tel":"070-7657-2960","addr":"경기도 구리시 수택동 456-33번지 3층","indutype":"문화.취미 - 애완동물","category":"other"}]},{"lat":"37.594654295","long":"127.14534925","imageIndex":17,"items":[{"name":"피에스엘커뮤니케이션","tel":"070-7590-0301","addr":"경기도 구리시 수택동 477-12번지 보성연립 다동 203호","indutype":"의류 - 정장","category":"other"}]},{"lat":"37.595675297","long":"127.14292802","imageIndex":17,"items":[{"name":"피엘크린","tel":"","addr":"경기도 구리시 수택동 472-37번지 4층 406호","indutype":"용역 서비스 - 종합용역","category":"other"}]},{"lat":"37.596365258","long":"127.14608853","imageIndex":17,"items":[{"name":"필노래뮤비방","tel":"031-552-8878","addr":"경기도 구리시 수택동 504-6번지 지하층","indutype":"용역 서비스 - 종합용역","category":"other"}]},{"lat":"37.60064817","long":"127.14336765","imageIndex":17,"items":[{"name":"핑크라인","tel":"031-551-1144","addr":"경기도 구리시 수택동 527-6번지","indutype":"의류 - 정장","category":"other"}]},{"lat":"37.587228066","long":"127.13956089","imageIndex":17,"items":[{"name":"하우스터디 구리토평센터 모임공간","tel":"031-568-6366","addr":"경기도 구리시 수택동 874-4번지 우건빌딩 4층","indutype":"용역 서비스 - 사무서비스","category":"other"}]},{"lat":"37.601701121","long":"127.14436616","imageIndex":17,"items":[{"name":"하이전자서비스","tel":"031-552-2328","addr":"경기도 구리시 수택동 531-12번지 1층","indutype":"수리서비스 - 기타수리서비스","category":"other"}]},{"lat":"37.594370381","long":"127.14911928","imageIndex":17,"items":[{"name":"한결노인요양원","tel":"031-562-5500","addr":"경기도 구리시 수택동 280-2번지","indutype":"기타의료기관 - 기타의료기관 및 기타","category":"other"}]},{"lat":"37.594032731","long":"127.14525748","imageIndex":17,"items":[{"name":"한국과학렌탈","tel":"070-4410-5254","addr":"경기도 구리시 수택동 454-17번지 동산빌라 102호","indutype":"서적문구 - 과학기자재","category":"other"}]},{"lat":"37.593892942","long":"127.14158856","imageIndex":17,"items":[{"name":"한국월어웨이(구리)","tel":"031-551-2332","addr":"경기도 구리시 수택동 459-11번지","indutype":"주방용구 - 주방용식기","category":"other"}]},{"lat":"37.595310676","long":"127.14644885","imageIndex":17,"items":[{"name":"한국종합공사","tel":"031-553-0717","addr":"경기도 구리시 수택동 489-1번지","indutype":"건축자재 - 목재·석재·철물","category":"other"}]},{"lat":"37.59761992","long":"127.14417725","imageIndex":17,"items":[{"name":"한미체육관","tel":"031-557-0010","addr":"경기도 구리시 수택동 512-14번지","indutype":"회원제형태 - 레져업소","category":"other"}]},{"lat":"37.59878188","long":"127.14442857","imageIndex":17,"items":[{"name":"한빛전기조명","tel":"031-593-4946","addr":"경기도 구리시 수택동 516-6번지 301호","indutype":"건축자재 - 조명기구","category":"other"}]},{"lat":"37.594503794","long":"127.15051228","imageIndex":17,"items":[{"name":"한솔바이크","tel":"031-551-9895","addr":"경기도 구리시 수택동 281-62번지","indutype":"레져용품 - 스포츠·레져용품","category":"other"}]},{"lat":"37.592448414","long":"127.14408822","imageIndex":17,"items":[{"name":"한울건축","tel":"031-551-2332","addr":"경기도 구리시 수택동 651-13번지","indutype":"건축자재 - 인테리어전문","category":"other"}]},{"lat":"37.596200425","long":"127.14826229","imageIndex":17,"items":[{"name":"해피트리종합물물","tel":"031-2207-8005","addr":"경기도 구리시 수택동 333번지","indutype":"가구 - 일반가구","category":"other"}]},{"lat":"37.591704247","long":"127.14100705","imageIndex":17,"items":[{"name":"행복한일터(장애인보호작업장,크린아우스)","tel":"031-562-0015","addr":"경기도 구리시 수택동 851번지 2층","indutype":"용역 서비스 - 종합용역","category":"other"}]},{"lat":"37.594170547","long":"127.15042104","imageIndex":17,"items":[{"name":"행운열쇠","tel":"031-564-1304","addr":"경기도 구리시 수택동 281-56 1층","indutype":"건축자재 - 목재·석재·철물","category":"other"}]},{"lat":"37.595925557","long":"127.14461566","imageIndex":17,"items":[{"name":"허밍그라운드(humming ground)","tel":"031-557-2174","addr":"경기도 구리시 수택동 480-1번지 1층","indutype":"의류 - 정장","category":"other"}]},{"lat":"37.595397665","long":"127.14151209","imageIndex":17,"items":[{"name":"현대기기","tel":"031-566-0507","addr":"경기도 구리시 수택동 466-28번지 1층","indutype":"기타 - 기계공구","category":"other"}]},{"lat":"37.600589923","long":"127.14684401","imageIndex":17,"items":[{"name":"현대문방구","tel":"031-563-9830","addr":"경기도 구리시 수택동 541-23번지","indutype":"서적문구 - 문구용품","category":"other"}]},{"lat":"37.596315218","long":"127.14273672","imageIndex":17,"items":[{"name":"현대세탁","tel":"031-564-3280","addr":"경기도 구리시 수택동 471번지 반석블레스 3호","indutype":"수리서비스 - 세탁소","category":"other"}]},{"lat":"37.592009662","long":"127.14178888","imageIndex":17,"items":[{"name":"현수종합철물점","tel":"031-565-7804","addr":"경기도 구리시 수택동 449-29번지","indutype":"건축자재 - 목재·석재·철물","category":"other"}]},{"lat":"37.598614188","long":"127.14148409","imageIndex":17,"items":[{"name":"협진주방백화점","tel":"031-563-2328","addr":"경기도 구리시 수택동 422-11번지","indutype":"주방용구 - 주방용식기","category":"other"}]},{"lat":"37.60025754","long":"127.14603937","imageIndex":17,"items":[{"name":"혜성바이크","tel":"031-562-0407","addr":"경기도 구리시 수택동 541-18번지","indutype":"레져용품 - 스포츠·레져용품","category":"other"}]},{"lat":"37.598978293","long":"127.14592368","imageIndex":17,"items":[{"name":"호부앤","tel":"031-564-1070","addr":"경기도 구리시 수택동 517-5번지","indutype":"의류 - 정장","category":"other"}]},{"lat":"37.591811217","long":"127.14943131","imageIndex":17,"items":[{"name":"홈런판촉물","tel":"031-569-8511","addr":"경기도 구리시 수택동 268-7번지","indutype":"용역 서비스 - 종합용역","category":"other"}]},{"lat":"37.601645959","long":"127.14528331","imageIndex":17,"items":[{"name":"홈스텍처환경","tel":"","addr":"경기도 구리시 수택동 535-21번지 3층","indutype":"용역 서비스 - 기타용역서비스","category":"other"}]},{"lat":"37.594203113","long":"127.13828282","imageIndex":17,"items":[{"name":"화이어오토도어 주식회사","tel":"02-448-8952","addr":"경기도 구리시 수택동 438-26번지 1층","indutype":"용역 서비스 - 기타용역서비스","category":"other"}]},{"lat":"37.600584738","long":"127.14367328","imageIndex":17,"items":[{"name":"화조량이","tel":"","addr":"경기도 구리시 수택동 527-21번지 3층","indutype":"신변잡화 - 액세서리","category":"other"}]},{"lat":"37.59877908","long":"127.13915171","imageIndex":17,"items":[{"name":"황금당","tel":"031-563-4249","addr":"경기도 구리시 수택동 381-19번지","indutype":"신변잡화 - 귀금속","category":"other"}]},{"lat":"37.601530531","long":"127.14386757","imageIndex":17,"items":[{"name":"휴먼필라테스","tel":"031-565-7790","addr":"경기도 구리시 수택동 531-10번지 성지빌딩","indutype":"회원제형태 - 레져업소","category":"other"}]},{"lat":"37.598533234","long":"127.1413707","imageIndex":17,"items":[{"name":"흙사랑공방","tel":"031-7645-3447","addr":"경기도 구리시 수택동 422-25번지 1층","indutype":"의류 - 정장","category":"other"}]}]