[{"lat":"37.167533732","long":"127.1073324","imageIndex":8,"items":[{"name":"경희용한의원","tel":"031-215-1275","addr":"경기도 화성시 산척동 728-2번지 동탕2우성에듀파크 3층 314호","indutype":"의원 - 한의원","category":"medical"},{"name":"동탄미래약국","tel":"031-377-0233","addr":"경기도 화성시 산척동 728-2번지 상가동 111호 동탄2우성에듀파크","indutype":"약국 - 약국","category":"medical"},{"name":"동탄성모소아청소년과의원","tel":"031-375-1122","addr":"경기도 화성시 산척동 728-2번지 우성에듀파크 408동 4층 410호","indutype":"의원 - 의원","category":"medical"},{"name":"해든치과의원","tel":"031-378-2272","addr":"경기도 화성시 산척동 728-2번지 에듀파크 513호","indutype":"의원 - 치과의원","category":"medical"}]},{"lat":"37.169893356","long":"127.11824603","imageIndex":8,"items":[{"name":"김성진치과의원","tel":"031-831-8742","addr":"경기도 화성시 산척동 724-3번지 204호","indutype":"의원 - 치과의원","category":"medical"},{"name":"이로운동물병원","tel":"031-8055-8075","addr":"경기도 화성시 산척동 724-2번지 2층 203호","indutype":"기타의료기관 - 동물병원","category":"medical"}]},{"lat":"37.17386227","long":"127.11371428","imageIndex":8,"items":[{"name":"나인동물의료센터","tel":"031-376-9909","addr":"경기도 화성시 산척동 산716-6번지 1층","indutype":"기타의료기관 - 동물병원","category":"medical"}]},{"lat":"37.166642046","long":"127.10693711","imageIndex":8,"items":[{"name":"더욱편한치과의원","tel":"031-377-1343","addr":"경기도 화성시 산척동 728-5번지 403,404호","indutype":"의원 - 치과의원","category":"medical"},{"name":"따스랑한의원","tel":"031-831-8595","addr":"경기도 화성시 산척동 728-5번지 308호","indutype":"의원 - 한의원","category":"medical"}]},{"lat":"37.170533391","long":"127.11794299","imageIndex":8,"items":[{"name":"동탄맑은이비인후과의원","tel":"031-375-5375","addr":"경기도 화성시 산척동 723번지 풍산리치인타워 306,307호","indutype":"의원 - 의원","category":"medical"},{"name":"동탄바른정형외과","tel":"031-8077-9193","addr":"경기도 화성시 산척동 723번지 4층 402~403호","indutype":"의원 - 의원","category":"medical"},{"name":"동탄스타치과의원","tel":"","addr":"경기도 화성시 산척동 723번지 3층 303호","indutype":"의원 - 치과의원","category":"medical"},{"name":"동탄약국","tel":"031-307-0007","addr":"경기도 화성시 산척동 723번지 109,110호","indutype":"약국 - 약국","category":"medical"},{"name":"동탄약국","tel":"031-307-0007","addr":"경기도 화성시 산척동 723번지 풍산리치안타워 109,110호","indutype":"약국 - 약국","category":"medical"},{"name":"동탄이소아청소년과의원","tel":"031-8055-8737","addr":"경기도 화성시 산척동 723번지 풍산리치안타워 근린상업단지 201호","indutype":"의원 - 의원","category":"medical"},{"name":"실다움 한의원","tel":"031-831-8253","addr":"경기도 화성시 산척동 723번지 308호","indutype":"의원 - 한의원","category":"medical"},{"name":"연세키즈365소아청소년과의원","tel":"031-374-0365","addr":"경기도 화성시 산척동 723번지 406호,407호","indutype":"의원 - 의원","category":"medical"}]},{"lat":"37.165920666","long":"127.10755536","imageIndex":8,"items":[{"name":"동탄삼성이비인후과","tel":"031-374-1003","addr":"경기도 화성시 산척동 728-6번지 408 409 410호","indutype":"의원 - 의원","category":"medical"},{"name":"동탄서울내과","tel":"031-831-8363","addr":"경기도 화성시 산척동 728-6번지 우성센트럴타워 507동 511호","indutype":"의원 - 의원","category":"medical"},{"name":"몸바로한의원 동탄점","tel":"031-376-0875","addr":"경기도 화성시 산척동 728-6번지 7층 711호 712호","indutype":"의원 - 한의원","category":"medical"},{"name":"스마일피부과의원","tel":"031-8077-9400","addr":"경기도 화성시 산척동 728-6번지 4층 411-414호","indutype":"의원 - 의원","category":"medical"},{"name":"착한미소치과","tel":"031-378-4006","addr":"경기도 화성시 산척동 728-6번지 우성센트럴타워 3층 307,308,309호","indutype":"의원 - 치과의원","category":"medical"},{"name":"캠프나인정형외과의원","tel":"031-377-5511","addr":"경기도 화성시 산척동 728-6번지 센트럴타워 동탄2가신도시일반상업지역 14-2블럭 201~208호,301~306호","indutype":"의원 - 의원","category":"medical"},{"name":"코코(COCO)치과교정과치과의원","tel":"031-375-2882","addr":"경기도 화성시 산척동 728-6번지 우성센트럴타워 5층, 512호,513호,514호","indutype":"의원 - 치과의원","category":"medical"},{"name":"파란약국","tel":"031-8055-0504","addr":"경기도 화성시 산척동 728-6번지 우성센트럴타워 111호","indutype":"약국 - 약국","category":"medical"}]},{"lat":"37.167029395","long":"127.10705024","imageIndex":8,"items":[{"name":"동탄서울안과","tel":"031-111-1111","addr":"경기도 화성시 산척동 728-4번지 508동 510호","indutype":"의원 - 의원","category":"medical"},{"name":"동탄연세원구강악안면외과치과의원","tel":"031-377-1281","addr":"경기도 화성시 산척동 728-4번지 우성애비뉴타워 306,307호","indutype":"의원 - 치과의원","category":"medical"},{"name":"마음본 정신건강의학과","tel":"031-000-0000","addr":"경기도 화성시 산척동 728-4번지 408호","indutype":"의원 - 의원","category":"medical"},{"name":"연세본내과의원","tel":"031-831-8910","addr":"경기도 화성시 산척동 728-4번지 동탄(2)신도시일상13-3BL동탄우성메디피아상가 411~414호","indutype":"의원 - 의원","category":"medical"},{"name":"연세참예쁜치과교정과치과의원","tel":"031-377-2119","addr":"경기도 화성시 산척동 728-4번지 우성메디피아 3층 314호,315호","indutype":"의원 - 치과의원","category":"medical"},{"name":"이솜이비인후과","tel":"031-8055-7931","addr":"경기도 화성시 산척동 728-4번지 5층 501-503호","indutype":"의원 - 의원","category":"medical"},{"name":"킴스치과의원","tel":"031-374-2275","addr":"경기도 화성시 산척동 728-4번지 4층 409호, 410호","indutype":"의원 - 치과의원","category":"medical"},{"name":"호수율약국","tel":"031-375-0977","addr":"경기도 화성시 산척동 728-4번지 우성메디피아 110호","indutype":"약국 - 약국","category":"medical"}]},{"lat":"37.167558096","long":"127.1286346","imageIndex":8,"items":[{"name":"동탄아이비치과의원","tel":"031-377-2835","addr":"경기도 화성시 산척동 744번지 그린힐 반도유보라 아이비파크 10 S307-310호","indutype":"의원 - 치과의원","category":"medical"}]},{"lat":"37.171858327","long":"127.1078","imageIndex":8,"items":[{"name":"동탄키즈웰소아청소년과의원","tel":"031-376-6619","addr":"경기도 화성시 산척동 717-1번지 드림타워 4층 406호","indutype":"의원 - 의원","category":"medical"},{"name":"동탄호수약국","tel":"031-375-6783","addr":"경기도 화성시 산척동 717-1번지 드림타워 113호","indutype":"약국 - 약국","category":"medical"},{"name":"명당한의원","tel":"031-374-5086","addr":"경기도 화성시 산척동 717-1번지 403호","indutype":"의원 - 한의원","category":"medical"},{"name":"하이웰치과","tel":"031-8055-8253","addr":"경기도 화성시 산척동 717-1번지 드림타워 404호","indutype":"의원 - 치과의원","category":"medical"}]},{"lat":"37.166171016","long":"127.12813691","imageIndex":8,"items":[{"name":"명주한의원","tel":"031-378-9770","addr":"경기도 화성시 산척동 745번지 3625동 2층 211~213호","indutype":"의원 - 한의원","category":"medical"},{"name":"우리소아청소년과의원","tel":"031-1111-1111","addr":"경기도 화성시 산척동 745번지 109,110호","indutype":"의원 - 의원","category":"medical"}]}]