[{"lat":"37.134562331","long":"127.02986953","imageIndex":4,"items":[{"name":"김치찌개 미화식당","tel":"031-375-0808","addr":"경기도 화성시 정남면 덕절리 27-1번지 1층","indutype":"일반휴게음식 - 일반한식","category":"restaurant"},{"name":"페리카나","tel":"031-373-2660","addr":"경기도 화성시 정남면 덕절리 27-1번지","indutype":"일반휴게음식 - 스넥","category":"restaurant"}]},{"lat":"37.133059754","long":"127.01745587","imageIndex":4,"items":[{"name":"다원푸드","tel":"031-376-3994","addr":"경기도 화성시 정남면 덕절리 380-33번지 다동 1층","indutype":"일반휴게음식 - 일반한식","category":"restaurant"}]},{"lat":"37.139862076","long":"127.0217003","imageIndex":4,"items":[{"name":"동흥셀프식당","tel":"031-372-4007","addr":"경기도 화성시 정남면 덕절리 296-3번지 1층","indutype":"일반휴게음식 - 일반한식","category":"restaurant"}]},{"lat":"37.134562947","long":"127.02701097","imageIndex":4,"items":[{"name":"두메산골","tel":"031-373-0907","addr":"경기도 화성시 정남면 덕절리 74-1번지 1층","indutype":"일반휴게음식 - 일반한식","category":"restaurant"}]},{"lat":"37.133589584","long":"127.02811355","imageIndex":4,"items":[{"name":"백프로수제찐빵","tel":"031-373-3698","addr":"경기도 화성시 정남면 덕절리 47-4번지","indutype":"일반휴게음식 - 스넥","category":"restaurant"}]},{"lat":"37.139283045","long":"127.03311261","imageIndex":4,"items":[{"name":"북경반점","tel":"031-373-1057","addr":"경기도 화성시 정남면 덕절리 472-1번지","indutype":"일반휴게음식 - 중국식","category":"restaurant"}]},{"lat":"37.138616274","long":"127.03308984","imageIndex":4,"items":[{"name":"산정한식뷔페","tel":"031-376-1156","addr":"경기도 화성시 정남면 덕절리 486-16번지","indutype":"일반휴게음식 - 일반한식","category":"restaurant"}]},{"lat":"37.138228818","long":"127.03311219","imageIndex":4,"items":[{"name":"산해진미","tel":"031-377-2688","addr":"경기도 화성시 정남면 덕절리 488번지 1층","indutype":"일반휴게음식 - 일반한식","category":"restaurant"}]},{"lat":"37.136309063","long":"127.03509221","imageIndex":4,"items":[{"name":"스타쭈꾸미","tel":"031-372-3522","addr":"경기도 화성시 정남면 덕절리 495-4번지 1층 일부호","indutype":"일반휴게음식 - 일반한식","category":"restaurant"},{"name":"이화수육개장 화성정남점","tel":"031-377-3522","addr":"경기도 화성시 정남면 덕절리 495-4번지","indutype":"일반휴게음식 - 일반한식","category":"restaurant"}]},{"lat":"37.133922965","long":"127.02814743","imageIndex":4,"items":[{"name":"신가네왕족발","tel":"031-297-3401","addr":"경기도 화성시 정남면 덕절리 46-1번지","indutype":"일반휴게음식 - 일반한식","category":"restaurant"}]},{"lat":"37.134337243","long":"127.02909291","imageIndex":4,"items":[{"name":"원조설악추어탕","tel":"031-378-7999","addr":"경기도 화성시 정남면 덕절리 30-1번지","indutype":"일반휴게음식 - 일반한식","category":"restaurant"}]},{"lat":"37.141446131","long":"127.03078365","imageIndex":4,"items":[{"name":"유림식당","tel":"031-663-0447","addr":"경기도 화성시 정남면 덕절리 114-6번지 1층","indutype":"일반휴게음식 - 일반한식","category":"restaurant"}]},{"lat":"37.134175054","long":"127.02909286","imageIndex":4,"items":[{"name":"장독대","tel":"031-372-2417","addr":"경기도 화성시 정남면 덕절리 29-1번지","indutype":"일반휴게음식 - 일반한식","category":"restaurant"}]},{"lat":"37.139861926","long":"127.02262321","imageIndex":4,"items":[{"name":"정가네한식부페","tel":"031-355-8284","addr":"경기도 화성시 정남면 덕절리 429번지","indutype":"일반휴게음식 - 일반한식","category":"restaurant"}]},{"lat":"37.133751635","long":"127.02875509","imageIndex":4,"items":[{"name":"정우캐터링","tel":"031-378-5085","addr":"경기도 화성시 정남면 덕절리 45번지 306호","indutype":"일반휴게음식 - 위탁급식업","category":"restaurant"},{"name":"풍년","tel":"031-376-8868","addr":"경기도 화성시 정남면 덕절리 45번지","indutype":"일반휴게음식 - 중국식","category":"restaurant"}]},{"lat":"37.131167315","long":"127.0192561","imageIndex":4,"items":[{"name":"정이가교동짬뽕","tel":"031-373-4187","addr":"경기도 화성시 정남면 덕절리 231-9번지","indutype":"일반휴게음식 - 중국식","category":"restaurant"},{"name":"큰집 부대찌개","tel":"031-376-6497","addr":"경기도 화성시 정남면 덕절리 231-9번지 1층","indutype":"일반휴게음식 - 일반한식","category":"restaurant"}]},{"lat":"37.135030513","long":"127.03142278","imageIndex":4,"items":[{"name":"커피하라","tel":"031-374-0808","addr":"경기도 화성시 정남면 덕절리 12-5번지 1층","indutype":"일반휴게음식 - 서양음식","category":"restaurant"}]},{"lat":"37.133085459","long":"127.02584009","imageIndex":4,"items":[{"name":"해피홈(덕절점)","tel":"031-377-5877","addr":"경기도 화성시 정남면 덕절리 55-1번지","indutype":"일반휴게음식 - 서양음식","category":"restaurant"}]},{"lat":"37.136921837","long":"127.03486738","imageIndex":4,"items":[{"name":"황제짬뽕","tel":"031-374-0008","addr":"경기도 화성시 정남면 덕절리 103-23번지","indutype":"일반휴게음식 - 중국식","category":"restaurant"}]}]