[{"lat":"37.534433015","long":"127.17234293","imageIndex":4,"items":[{"name":"(주)글로벌컨설팅","tel":"02-000-0000","addr":"경기도 하남시 초이동 322-66번지 1층","indutype":"일반휴게음식 - 일반한식","category":"restaurant"}]},{"lat":"37.534650531","long":"127.17144962","imageIndex":4,"items":[{"name":"(주)장흥출장부페","tel":"02-481-0772","addr":"경기도 하남시 초이동 322-125번지 1층","indutype":"일반휴게음식 - 일반한식","category":"restaurant"}]},{"lat":"37.537372179","long":"127.17098054","imageIndex":4,"items":[{"name":"금강식당","tel":"031-0000-0000","addr":"경기도 하남시 초이동 277-8번지 1층","indutype":"일반휴게음식 - 일반한식","category":"restaurant"}]},{"lat":"37.544425227","long":"127.17215055","imageIndex":4,"items":[{"name":"꼬꼬천국","tel":"","addr":"경기도 하남시 초이동 168-2번지","indutype":"일반휴게음식 - 주점","category":"restaurant"}]},{"lat":"37.534956978","long":"127.17137111","imageIndex":4,"items":[{"name":"논두렁추어탕","tel":"02-451-9404","addr":"경기도 하남시 초이동 322-59번지","indutype":"일반휴게음식 - 일반한식","category":"restaurant"}]},{"lat":"37.534099651","long":"127.17234218","imageIndex":4,"items":[{"name":"다담씨에스","tel":"02-426-0362","addr":"경기도 하남시 초이동 322-107번지","indutype":"일반휴게음식 - 일반한식","category":"restaurant"}]},{"lat":"37.535843104","long":"127.17542359","imageIndex":4,"items":[{"name":"다미가한식부페","tel":"031-875-2018","addr":"경기도 하남시 초이동 301-10번지 1층","indutype":"일반휴게음식 - 일반한식","category":"restaurant"}]},{"lat":"37.535406953","long":"127.17173418","imageIndex":4,"items":[{"name":"닷츠 컴퍼니","tel":"","addr":"경기도 하남시 초이동 319-5번지 1층 101호","indutype":"일반휴게음식 - 서양음식","category":"restaurant"}]},{"lat":"37.536483156","long":"127.15553453","imageIndex":4,"items":[{"name":"대사골식당/유한회사 더키위","tel":"02-428-1500","addr":"경기도 하남시 초이동 10-2번지","indutype":"일반휴게음식 - 일반한식","category":"restaurant"}]},{"lat":"37.542903279","long":"127.17164924","imageIndex":4,"items":[{"name":"도시장게","tel":"02-6737-1066","addr":"경기도 하남시 초이동 165-8번지","indutype":"일반휴게음식 - 일반한식","category":"restaurant"},{"name":"백임왕순대국","tel":"02-428-9998","addr":"경기도 하남시 초이동 165-8번지","indutype":"일반휴게음식 - 일반한식","category":"restaurant"}]},{"lat":"37.541761852","long":"127.17592377","imageIndex":4,"items":[{"name":"독불장군","tel":"02-426-8975","addr":"경기도 하남시 초이동 203-7번지","indutype":"일반휴게음식 - 일반한식","category":"restaurant"}]},{"lat":"37.54465521","long":"127.16881299","imageIndex":4,"items":[{"name":"동문","tel":"031-428-9292","addr":"경기도 하남시 초이동 74-2번지","indutype":"일반휴게음식 - 일반한식","category":"restaurant"}]},{"lat":"37.535600086","long":"127.17525331","imageIndex":4,"items":[{"name":"디오 베네디또","tel":"031-792-3927","addr":"경기도 하남시 초이동 310-3번지 1층","indutype":"일반휴게음식 - 서양음식","category":"restaurant"}]},{"lat":"37.540820339","long":"127.15978648","imageIndex":4,"items":[{"name":"또오리","tel":"02-429-0202","addr":"경기도 하남시 초이동 39번지","indutype":"일반휴게음식 - 일반한식","category":"restaurant"}]},{"lat":"37.541763516","long":"127.16847845","imageIndex":4,"items":[{"name":"메밀랑.메밀랑카페","tel":"02-427-8890","addr":"경기도 하남시 초이동 96번지","indutype":"일반휴게음식 - 일반한식","category":"restaurant"},{"name":"식도락샤브칼국수","tel":"02-514-9999","addr":"경기도 하남시 초이동 96번지","indutype":"일반휴게음식 - 일반한식","category":"restaurant"}]},{"lat":"37.542014326","long":"127.17578857","imageIndex":4,"items":[{"name":"명가","tel":"02-428-3358","addr":"경기도 하남시 초이동 202-1번지","indutype":"일반휴게음식 - 일반한식","category":"restaurant"}]},{"lat":"37.541433315","long":"127.17259639","imageIndex":4,"items":[{"name":"몽땅비어","tel":"02-429-5199","addr":"경기도 하남시 초이동 161-28번지 1층","indutype":"일반휴게음식 - 주점","category":"restaurant"}]},{"lat":"37.545153036","long":"127.1735327","imageIndex":4,"items":[{"name":"무봉리 순대국&감자탕","tel":"02-426-1066","addr":"경기도 하남시 초이동 174-4번지 2층","indutype":"일반휴게음식 - 일반한식","category":"restaurant"}]},{"lat":"37.534399603","long":"127.15728395","imageIndex":4,"items":[{"name":"샘나는집","tel":"031-442-6163","addr":"경기도 하남시 초이동 17-3번지 1층","indutype":"일반휴게음식 - 일반한식","category":"restaurant"}]},{"lat":"37.544711228","long":"127.17375801","imageIndex":4,"items":[{"name":"서경일식","tel":"02-444-9445","addr":"경기도 하남시 초이동 175-5번지","indutype":"일반휴게음식 - 일식·회집","category":"restaurant"}]},{"lat":"37.544513371","long":"127.17350861","imageIndex":4,"items":[{"name":"서부음식점","tel":"02-429-0977","addr":"경기도 하남시 초이동 177-6번지 1층","indutype":"일반휴게음식 - 일반한식","category":"restaurant"}]},{"lat":"37.543619989","long":"127.1744797","imageIndex":4,"items":[{"name":"싸이숯불닭갈비","tel":"031-428-4292","addr":"경기도 하남시 초이동 188-4번지 1층","indutype":"일반휴게음식 - 일반한식","category":"restaurant"}]},{"lat":"37.533712585","long":"127.1720924","imageIndex":4,"items":[{"name":"유일출장뷔페","tel":"070-4131-9004","addr":"경기도 하남시 초이동 322-118번지","indutype":"일반휴게음식 - 일반한식","category":"restaurant"}]},{"lat":"37.544958085","long":"127.17125783","imageIndex":4,"items":[{"name":"장수설렁탕","tel":"02-442-5534","addr":"경기도 하남시 초이동 76-5번지 1층","indutype":"일반휴게음식 - 일반한식","category":"restaurant"},{"name":"카페165","tel":"031-999-3882","addr":"경기도 하남시 초이동 76-5번지 1층","indutype":"일반휴게음식 - 서양음식","category":"restaurant"}]},{"lat":"37.538017547","long":"127.17331278","imageIndex":4,"items":[{"name":"주식회사호수에프엔비","tel":"02-3401-6900","addr":"경기도 하남시 초이동 281-3번지","indutype":"일반휴게음식 - 일반한식","category":"restaurant"}]},{"lat":"37.535348174","long":"127.17500382","imageIndex":4,"items":[{"name":"주심유황참숯가마스넥","tel":"02-429-9500","addr":"경기도 하남시 초이동 310번지 주심유황참숯가마내","indutype":"일반휴게음식 - 스넥","category":"restaurant"}]},{"lat":"37.531379344","long":"127.17187217","imageIndex":4,"items":[{"name":"철탑집","tel":"02-442-6702","addr":"경기도 하남시 초이동 433-1번지 가동 1층","indutype":"일반휴게음식 - 일반한식","category":"restaurant"}]},{"lat":"37.544371006","long":"127.17226359","imageIndex":4,"items":[{"name":"초이반점","tel":"02-442-9515","addr":"경기도 하남시 초이동 168-3번지","indutype":"일반휴게음식 - 중국식","category":"restaurant"}]},{"lat":"37.537210034","long":"127.17095755","imageIndex":4,"items":[{"name":"초이분식","tel":"02-429-5353","addr":"경기도 하남시 초이동 277-9번지","indutype":"일반휴게음식 - 스넥","category":"restaurant"}]},{"lat":"37.541096381","long":"127.1750623","imageIndex":4,"items":[{"name":"추오정남원추어탕","tel":"02-428-9293","addr":"경기도 하남시 초이동 226-2번지 1층","indutype":"일반휴게음식 - 일반한식","category":"restaurant"}]},{"lat":"37.539344623","long":"127.17148281","imageIndex":4,"items":[{"name":"추풍령감자탕","tel":"031-441-0399","addr":"경기도 하남시 초이동 254-7","indutype":"일반휴게음식 - 일반한식","category":"restaurant"}]},{"lat":"37.544594868","long":"127.17322591","imageIndex":4,"items":[{"name":"터줏대감","tel":"02-427-1558","addr":"경기도 하남시 초이동 174-2번지 1층","indutype":"일반휴게음식 - 일반한식","category":"restaurant"}]},{"lat":"37.545065524","long":"127.17173332","imageIndex":4,"items":[{"name":"토박이한식","tel":"02-428-3987","addr":"경기도 하남시 초이동 171-7번지","indutype":"일반휴게음식 - 일반한식","category":"restaurant"}]},{"lat":"37.539484823","long":"127.17423261","imageIndex":4,"items":[{"name":"파티코리아","tel":"..-1544-4734","addr":"경기도 하남시 초이동 232번지","indutype":"일반휴게음식 - 일반한식","category":"restaurant"}]},{"lat":"37.529239601","long":"127.16862046","imageIndex":4,"items":[{"name":"한설식품 구내 뷔페식당/(주)노다지","tel":"02-3013-7333","addr":"경기도 하남시 초이동 624-5번지 한설식품하남공장 1층","indutype":"일반휴게음식 - 위탁급식업","category":"restaurant"}]},{"lat":"37.537786744","long":"127.17090227","imageIndex":4,"items":[{"name":"현림케이터링","tel":"02-501-9293","addr":"경기도 하남시 초이동 263-6번지 1층","indutype":"일반휴게음식 - 일반한식","category":"restaurant"}]},{"lat":"37.539650132","long":"127.17206056","imageIndex":4,"items":[{"name":"현풍할매집","tel":"02-427-2277","addr":"경기도 하남시 초이동 244-5번지 1층","indutype":"일반휴게음식 - 일반한식","category":"restaurant"}]},{"lat":"37.54409162","long":"127.17231953","imageIndex":4,"items":[{"name":"황제점심뷔페","tel":"031-426-2898","addr":"경기도 하남시 초이동 168-10번지","indutype":"일반휴게음식 - 일반한식","category":"restaurant"}]}]