[{"lat":"37.106622272","long":"127.09728117","imageIndex":17,"items":[{"name":"(재)평택시청소년재단","tel":"031-610-4525","addr":"경기도 평택시 진위면 동천리 679번지","indutype":"기타 - 비영리/대상","category":"other"},{"name":"무봉산수련원(평택시청소년재단)","tel":"031-611-8393","addr":"경기도 평택시 진위면 동천리 679번지","indutype":"서비스업 - 교육, 청소년수련","category":"other"}]},{"lat":"37.105036293","long":"127.10813527","imageIndex":17,"items":[{"name":"㈜미래로 팜 농업회사","tel":"031-682-8201","addr":"경기도 평택시 진위면 동천리 530-5번지","indutype":"도소매업 - 농산물","category":"other"}]},{"lat":"37.125589411","long":"127.09728221","imageIndex":17,"items":[{"name":"삼일가설산업","tel":"031-664-6012","addr":"경기도 평택시 진위면 동천리 602-9 외2필지","indutype":"건축자재 - 기타건축자재","category":"other"}]},{"lat":"37.130779598","long":"127.1078333","imageIndex":17,"items":[{"name":"서창팩","tel":"031-663-8188","addr":"경기도 평택시 진위면 동천리 250번지 1동","indutype":"유통업 영리 - 기타유통업","category":"other"}]},{"lat":"37.124344268","long":"127.09938492","imageIndex":17,"items":[{"name":"오산기공","tel":"031-664-2900","addr":"경기도 평택시 진위면 동천리 606-15번지","indutype":"기타 - 기계공구","category":"other"}]},{"lat":"37.112651528","long":"127.10661568","imageIndex":17,"items":[{"name":"주식회사 디에스바이오","tel":"031-662-8112","addr":"경기도 평택시 진위면 동천리 345-1번지","indutype":"주방용구 - 주방용구","category":"other"}]},{"lat":"37.111698341","long":"127.10438673","imageIndex":17,"items":[{"name":"주식회사 산토","tel":"031-667-7588","addr":"경기도 평택시 진위면 동천리 556-6번지","indutype":"건축자재 - 기타건축자재","category":"other"}]},{"lat":"37.122530864","long":"127.10216196","imageIndex":17,"items":[{"name":"주식회사 플레저카라반","tel":"031-603-1233","addr":"경기도 평택시 진위면 동천리 606-30번지 2동","indutype":"레져용품 - 스포츠·레져용품","category":"other"}]},{"lat":"37.124479645","long":"127.09911502","imageIndex":17,"items":[{"name":"주식회사25시전국물류","tel":"031-223-5214","addr":"경기도 평택시 진위면 동천리 606-14번지 2층","indutype":"용역 서비스 - 사무서비스","category":"other"}]},{"lat":"37.110117564","long":"127.10888484","imageIndex":17,"items":[{"name":"케이-미디어플러스","tel":"031-664-1901","addr":"경기도 평택시 진위면 동천리 394-2번지","indutype":"주방용구 - 주방용구","category":"other"}]},{"lat":"37.105397983","long":"127.10669579","imageIndex":17,"items":[{"name":"포지유텍 주식회사","tel":"031-611-8221","addr":"경기도 평택시 진위면 동천리 530-32번지","indutype":"농업 - 비료,사료,종자","category":"other"}]},{"lat":"37.133593039","long":"127.11529862","imageIndex":17,"items":[{"name":"한솔기획","tel":"","addr":"경기도 평택시 진위면 동천리 69-1번지","indutype":"용역 서비스 - 종합용역","category":"other"}]},{"lat":"37.137307351","long":"127.10302535","imageIndex":17,"items":[{"name":"혜인요양원","tel":"031-667-4773","addr":"경기도 평택시 진위면 동천리 156번지","indutype":"기타의료기관 - 기타의료기관 및 기타","category":"other"}]}]