[{"lat":"38.0974677","long":"127.0780893","imageIndex":0,"items":[{"name":"1급연원자동차공업사","tel":"031-834-4499","addr":"경기도 연천군 연천읍 옥산리 439-13번지 GM대우지정정비공장","indutype":"자동차정비 유지 - 자동차정비","category":"car"}]},{"lat":"38.12310819","long":"127.0898278","imageIndex":0,"items":[{"name":"광탄특수렉카","tel":"031-947-4445","addr":"경기도 연천군 연천읍 옥산리 174-1번지","indutype":"자동차정비 유지 - 견인서비스","category":"car"},{"name":"백마대형렉카","tel":"031-761-9991","addr":"경기도 연천군 연천읍 옥산리 174-1번지","indutype":"자동차정비 유지 - 견인서비스","category":"car"},{"name":"백마대형특수렉카 (정백물류)","tel":"02-1855-2949","addr":"경기도 연천군 연천읍 옥산리 174-1번지","indutype":"자동차정비 유지 - 견인서비스","category":"car"},{"name":"우리대형특수","tel":"031-761-4982","addr":"경기도 연천군 연천읍 옥산리 174-1번지","indutype":"자동차정비 유지 - 견인서비스","category":"car"},{"name":"정백물류","tel":"031-394-5252","addr":"경기도 연천군 연천읍 옥산리 174-1번지","indutype":"자동차정비 유지 - 견인서비스","category":"car"},{"name":"정백물류(현대렉카)","tel":"031-858-8288","addr":"경기도 연천군 연천읍 옥산리 174-1번지","indutype":"자동차정비 유지 - 견인서비스","category":"car"},{"name":"청송특수화물","tel":"","addr":"경기도 연천군 연천읍 옥산리 174-1번지","indutype":"자동차정비 유지 - 견인서비스","category":"car"}]},{"lat":"38.10119637","long":"127.0797235","imageIndex":17,"items":[{"name":"GS25연천점","tel":"02-2006-2485","addr":"경기도 연천군 연천읍 옥산리 458-3","indutype":"유통업 영리 - 편 의 점","category":"other"}]},{"lat":"38.10071999","long":"127.0780242","imageIndex":17,"items":[{"name":"다올산업주식회사","tel":"070-5159-6510","addr":"경기도 연천군 연천읍 옥산리 460-1번지","indutype":"용역 서비스 - 종합용역","category":"other"}]},{"lat":"38.1248319","long":"127.08569","imageIndex":17,"items":[{"name":"성일기획","tel":"","addr":"경기도 연천군 연천읍 옥산리 696-1번지","indutype":"용역 서비스 - 종합용역","category":"other"}]},{"lat":"38.1034401","long":"127.0789733","imageIndex":17,"items":[{"name":"연천군 노인복지관","tel":"031-834-6080","addr":"경기도 연천군 연천읍 옥산리 874번지","indutype":"신변잡화 - 기타잡화","category":"other"}]},{"lat":"38.10702468","long":"127.0805049","imageIndex":17,"items":[{"name":"연천군청","tel":"031-834-9482","addr":"경기도 연천군 연천읍 옥산리 320번지 연천공설운동장 관리사무실","indutype":"신변잡화 - 기타잡화","category":"other"}]},{"lat":"38.10552109","long":"127.0791123","imageIndex":17,"items":[{"name":"연천군청(청소년육성재단)","tel":"031-839-4434","addr":"경기도 연천군 연천읍 옥산리 852번지 연천군청소년수련관","indutype":"레져용품 - 스포츠·레져용품","category":"other"}]},{"lat":"38.13771586","long":"127.0961643","imageIndex":4,"items":[{"name":"꽃봉산 가든","tel":"031-834-0023","addr":"경기도 연천군 연천읍 옥산리 24-10","indutype":"일반휴게음식 - 일반한식","category":"restaurant"}]},{"lat":"38.10071999","long":"127.0780242","imageIndex":4,"items":[{"name":"밀밭칼국수","tel":"031-834-3382","addr":"경기도 연천군 연천읍 옥산리 460-1번지","indutype":"일반휴게음식 - 일반한식","category":"restaurant"}]},{"lat":"38.10074666","long":"127.0785829","imageIndex":4,"items":[{"name":"연천가마골","tel":"031-834-9777","addr":"경기도 연천군 연천읍 옥산리 459-43","indutype":"일반휴게음식 - 일반한식","category":"restaurant"}]},{"lat":"38.10702468","long":"127.0805049","imageIndex":4,"items":[{"name":"카도쉬","tel":"","addr":"경기도 연천군 연천읍 옥산리 320번지","indutype":"일반휴게음식 - 서양음식","category":"restaurant"}]},{"lat":"38.10119637","long":"127.0797235","imageIndex":16,"items":[{"name":"모짜르트음악학원","tel":"031-834-0039","addr":"경기도 연천군 연천읍 옥산리 458-3번지 금강빌딩 202호","indutype":"회원제형태 - 학원","category":"study"}]},{"lat":"38.10241178","long":"127.0809446","imageIndex":16,"items":[{"name":"정진도장","tel":"031-834-7277","addr":"경기도 연천군 연천읍 옥산리 364-3번지","indutype":"학원 - 예·체능계학원","category":"study"}]},{"lat":"38.099359","long":"127.0790033","imageIndex":9,"items":[{"name":"연천가스","tel":"031-834-1700","addr":"경기도 연천군 연천읍 옥산리 450-1번지","indutype":"연료판매점 - LPG 취급점","category":"oil"}]},{"lat":"38.10119637","long":"127.0797235","imageIndex":8,"items":[{"name":"연천가축약품","tel":"031-834-6102","addr":"경기도 연천군 연천읍 옥산리 458-3번지 1층","indutype":"기타의료기관 - 동물병원","category":"medical"}]},{"lat":"38.10552109","long":"127.0791123","imageIndex":5,"items":[{"name":"연천군청/청소년수련관","tel":"031-834-8785","addr":"경기도 연천군 연천읍 옥산리 852번지 연천청소년수련관","indutype":"숙박업 - 여관/기타숙박업","category":"hotel"}]},{"lat":"38.10074666","long":"127.0785829","imageIndex":13,"items":[{"name":"연천당구클럽","tel":"","addr":"경기도 연천군 연천읍 옥산리 459-43번지 2층","indutype":"레저업소 - 당 구 장","category":"leisure"}]},{"lat":"38.12127313","long":"127.0860053","imageIndex":7,"items":[{"name":"옥산 사과 농원","tel":"031-111-1111","addr":"경기도 연천군 연천읍 옥산리 208-2번지","indutype":"음료식품 - 농·축·수산품","category":"food"}]},{"lat":"38.12152016","long":"127.0804746","imageIndex":7,"items":[{"name":"장수꽃벵이농장","tel":"031-834-2323","addr":"경기도 연천군 연천읍 옥산리 634-3번지","indutype":"음료식품 - 농·축·수산품","category":"food"}]},{"lat":"38.10119637","long":"127.0797235","imageIndex":7,"items":[{"name":"정원마트","tel":"031-834-2747","addr":"경기도 연천군 연천읍 옥산리 458-3번지","indutype":"유통업 영리 - 슈퍼마켓","category":"mart"}]}]