[{"lat":"37.755117621","long":"126.75298709","imageIndex":17,"items":[{"name":"(주) 신교하창호","tel":"031-943-1749","addr":"경기도 파주시 하지석동 152-4번지","indutype":"건축자재 - 인테리어전문","category":"other"},{"name":"대원복층유리","tel":"","addr":"경기도 파주시 하지석동 152-4번지","indutype":"건축자재 - 유리","category":"other"}]},{"lat":"37.755927691","long":"126.7442694","imageIndex":17,"items":[{"name":"(주)원방하이텍","tel":"031-944-8040","addr":"경기도 파주시 하지석동 437-7번지","indutype":"전기제품 - 냉열기기","category":"other"}]},{"lat":"37.761863093","long":"126.75173876","imageIndex":17,"items":[{"name":"나무풍경","tel":"031-942-8723","addr":"경기도 파주시 하지석동 51-19번지","indutype":"문화.취미 - 문화취미기타","category":"other"}]},{"lat":"37.75495456","long":"126.75256779","imageIndex":17,"items":[{"name":"몬스터볼링샵","tel":"","addr":"경기도 파주시 하지석동 154번지","indutype":"레져용품 - 스포츠·레져용품","category":"other"}]},{"lat":"37.754787625","long":"126.73802093","imageIndex":17,"items":[{"name":"배드몬스터즈(Bad Monsters)","tel":"070-7562-1750","addr":"경기도 파주시 하지석동 454번지","indutype":"가구 - 기타가구","category":"other"},{"name":"우주 가구","tel":"","addr":"경기도 파주시 하지석동 454번지","indutype":"가구 - 일반가구","category":"other"}]},{"lat":"37.760918586","long":"126.74823531","imageIndex":17,"items":[{"name":"오드아울(ODDOWL)","tel":"02-000-0000","addr":"경기도 파주시 하지석동 313-14번지","indutype":"신변잡화 - 가방","category":"other"}]},{"lat":"37.75600922","long":"126.75282523","imageIndex":17,"items":[{"name":"운정장례식장","tel":"031-957-4444","addr":"경기도 파주시 하지석동 148-2번지","indutype":"용역 서비스 - 가례서비스업","category":"other"}]},{"lat":"37.760395665","long":"126.75226574","imageIndex":17,"items":[{"name":"일품공조","tel":"031-943-3703","addr":"경기도 파주시 하지석동 75번지","indutype":"전기제품 - 냉열기기","category":"other"}]},{"lat":"37.755449501","long":"126.75229378","imageIndex":17,"items":[{"name":"정석가설산업","tel":"031-941-9305","addr":"경기도 파주시 하지석동 153-1","indutype":"건축자재 - 기타건축자재","category":"other"}]},{"lat":"37.76047935","long":"126.74926951","imageIndex":17,"items":[{"name":"제맥스코리아","tel":"031-943-0313","addr":"경기도 파주시 하지석동 산 3-3","indutype":"레져용품 - 스포츠·레져용품","category":"other"}]},{"lat":"37.759197047","long":"126.74377005","imageIndex":17,"items":[{"name":"창고87","tel":"031-945-7987","addr":"경기도 파주시 하지석동 398-2","indutype":"용역 서비스 - 보관및 창고업","category":"other"}]},{"lat":"37.759728432","long":"126.7478195","imageIndex":17,"items":[{"name":"한진상회","tel":"031-941-4285","addr":"경기도 파주시 하지석동 233-18번지","indutype":"주방용구 - 주방용식기","category":"other"}]}]