[{"lat":"37.54068308","long":"127.20816882","imageIndex":0,"items":[{"name":"(주)하남모터스","tel":"031-793-4288","addr":"경기도 하남시 신장동 413-2번지","indutype":"자동차정비 유지 - 자동차정비","category":"car"},{"name":"(주)하남자동차서비스","tel":"031-793-4288","addr":"경기도 하남시 신장동 413-2번지","indutype":"자동차정비 유지 - 자동차부품","category":"car"},{"name":"하남자동차공업사","tel":"031-794-5777","addr":"경기도 하남시 신장동 413-2번지","indutype":"자동차정비 유지 - 자동차정비","category":"car"}]},{"lat":"37.547371156","long":"127.21172904","imageIndex":0,"items":[{"name":"Battery Fighter (배터리 파이터)","tel":"031-791-3994","addr":"경기도 하남시 신장동 303-59번지 신풍빌딩 1층","indutype":"자동차정비 유지 - 자동차부품","category":"car"},{"name":"오토밸리","tel":"031-792-8113","addr":"경기도 하남시 신장동 303-59번지 1층 103,104호","indutype":"자동차정비 유지 - 카인테리어","category":"car"},{"name":"폴리텍관리 주식회사","tel":"031-000-0000","addr":"경기도 하남시 신장동 303-59번지 신풍빌딩 202호","indutype":"자동차정비 유지 - 주차장","category":"car"}]},{"lat":"37.539904315","long":"127.21547605","imageIndex":0,"items":[{"name":"E좋은주차장","tel":"031-796-7771","addr":"경기도 하남시 신장동 525번지","indutype":"자동차정비 유지 - 주차장","category":"car"}]},{"lat":"37.55239992","long":"127.21100749","imageIndex":0,"items":[{"name":"WI 커스텀(워커스텀)","tel":"031-794-7783","addr":"경기도 하남시 신장동 289번지 1층 102호","indutype":"자동차정비 유지 - 카인테리어","category":"car"}]},{"lat":"37.538706274","long":"127.2102566","imageIndex":0,"items":[{"name":"경도자동차공업사","tel":"031-796-1993","addr":"경기도 하남시 신장동 449-26번지","indutype":"자동차정비 유지 - 자동차정비","category":"car"}]},{"lat":"37.546903326","long":"127.211343","imageIndex":0,"items":[{"name":"기아오토큐미사점","tel":"031-792-5438","addr":"경기도 하남시 신장동 315-9번지","indutype":"자동차정비 유지 - 자동차정비","category":"car"}]},{"lat":"37.542234867","long":"127.21211075","imageIndex":0,"items":[{"name":"깔끄미스팀세차","tel":"031-794-8620","addr":"경기도 하남시 신장동 381-22번지","indutype":"자동차정비 유지 - 카인테리어","category":"car"}]},{"lat":"37.537816738","long":"127.20886246","imageIndex":0,"items":[{"name":"나라피앤에프","tel":"070-8154-8681","addr":"경기도 하남시 신장동 441-15번지","indutype":"자동차정비 유지 - 자동차정비","category":"car"}]},{"lat":"37.54312211","long":"127.21972842","imageIndex":0,"items":[{"name":"뉴삼성카써비스","tel":"031-765-7155","addr":"경기도 하남시 신장동 94번지","indutype":"자동차정비 유지 - 자동차정비","category":"car"}]},{"lat":"37.538097047","long":"127.20828619","imageIndex":0,"items":[{"name":"대림오토바이","tel":"031-796-0236","addr":"경기도 하남시 신장동 442-41번지","indutype":"자동차판매 - 이륜차판매","category":"car"}]},{"lat":"37.537126765","long":"127.21183624","imageIndex":0,"items":[{"name":"대신종합카센터","tel":"031-791-3664","addr":"경기도 하남시 신장동 468-12번지","indutype":"자동차정비 유지 - 자동차정비","category":"car"}]},{"lat":"37.539960442","long":"127.20923043","imageIndex":0,"items":[{"name":"동부자동차공업사","tel":"031-795-3535","addr":"경기도 하남시 신장동 409-1번지","indutype":"자동차정비 유지 - 자동차정비","category":"car"}]},{"lat":"37.541156637","long":"127.21550223","imageIndex":0,"items":[{"name":"동부카센타","tel":"031-792-5149","addr":"경기도 하남시 신장동 523번지","indutype":"자동차정비 유지 - 자동차정비","category":"car"}]},{"lat":"37.540676618","long":"127.20669786","imageIndex":0,"items":[{"name":"동화건설(주)","tel":"031-791-4801","addr":"경기도 하남시 신장동 415-44번지 2층","indutype":"자동차정비 유지 - 주차장","category":"car"}]},{"lat":"37.547597216","long":"127.21631264","imageIndex":0,"items":[{"name":"디에이치정비기기","tel":"031-791-0901","addr":"경기도 하남시 신장동 255-5번지","indutype":"자동차정비 유지 - 자동차부품","category":"car"}]},{"lat":"37.540516278","long":"127.2208071","imageIndex":0,"items":[{"name":"로버파츠","tel":"02-402-0242","addr":"경기도 하남시 신장동 104-3 99-30","indutype":"자동차정비 유지 - 자동차부품","category":"car"}]},{"lat":"37.540511362","long":"127.20847385","imageIndex":0,"items":[{"name":"르노삼성자동차하남부품","tel":"031-793-5774","addr":"경기도 하남시 신장동 413-4번지","indutype":"자동차정비 유지 - 자동차부품","category":"car"}]},{"lat":"37.539291136","long":"127.2106995","imageIndex":0,"items":[{"name":"만수손세차장","tel":"031-793-9426","addr":"경기도 하남시 신장동 447-2번지","indutype":"자동차정비 유지 - 세차장","category":"car"}]},{"lat":"37.539598504","long":"127.21011198","imageIndex":0,"items":[{"name":"모란카독크","tel":"031-792-8507","addr":"경기도 하남시 신장동 408-1번지","indutype":"자동차정비 유지 - 자동차정비","category":"car"}]},{"lat":"37.541011665","long":"127.21595442","imageIndex":0,"items":[{"name":"미디어케어라인","tel":"031-795-0045","addr":"경기도 하남시 신장동 523-1번지","indutype":"자동차정비 유지 - 주차장","category":"car"},{"name":"현대베스코아관리단","tel":"031-795-6536","addr":"경기도 하남시 신장동 523-1번지","indutype":"자동차정비 유지 - 주차장","category":"car"}]},{"lat":"37.547653091","long":"127.21530568","imageIndex":0,"items":[{"name":"벤츠전문 카젠모터스","tel":"","addr":"경기도 하남시 신장동 257-22번지","indutype":"자동차정비 유지 - 자동차부품","category":"car"}]},{"lat":"37.547237274","long":"127.21606266","imageIndex":0,"items":[{"name":"삼육공플레이","tel":"031-791-9309","addr":"경기도 하남시 신장동 254-3번지","indutype":"자동차정비 유지 - 자동차시트·타이어","category":"car"}]},{"lat":"37.536983335","long":"127.20625786","imageIndex":0,"items":[{"name":"성우차량공업사","tel":"031-794-7832","addr":"경기도 하남시 신장동 430-30번지","indutype":"자동차정비 유지 - 자동차정비","category":"car"}]},{"lat":"37.537071558","long":"127.20734428","imageIndex":0,"items":[{"name":"스마트전자(하남점)","tel":"031-794-5112","addr":"경기도 하남시 신장동 432-8번지 1층 101호","indutype":"자동차정비 유지 - 자동차부품","category":"car"}]},{"lat":"37.547569143","long":"127.21688967","imageIndex":0,"items":[{"name":"스팅거402","tel":"070-8818-4020","addr":"경기도 하남시 신장동 255-12번지 1층","indutype":"자동차정비 유지 - 자동차부품","category":"car"}]},{"lat":"37.536129308","long":"127.21033998","imageIndex":0,"items":[{"name":"신장상사","tel":"031-794-3164","addr":"경기도 하남시 신장동 472-32번지","indutype":"자동차정비 유지 - 자동차부품","category":"car"}]},{"lat":"37.53776596","long":"127.2069728","imageIndex":0,"items":[{"name":"신장전통시장연합회","tel":"031-794-4626","addr":"경기도 하남시 신장동 429-1번지","indutype":"자동차정비 유지 - 주차장","category":"car"}]},{"lat":"37.538622454","long":"127.21180647","imageIndex":0,"items":[{"name":"신장카공업사","tel":"031-792-3117","addr":"경기도 하남시 신장동 455-27번지","indutype":"자동차정비 유지 - 자동차정비","category":"car"}]},{"lat":"37.546404093","long":"127.21342371","imageIndex":0,"items":[{"name":"아지트","tel":"031-111-1111","addr":"경기도 하남시 신장동 332번지","indutype":"자동차정비 유지 - 세차장","category":"car"}]},{"lat":"37.542567074","long":"127.22266876","imageIndex":0,"items":[{"name":"애니카랜드신장점","tel":"031-793-4694","addr":"경기도 하남시 신장동 75-9번지","indutype":"자동차정비 유지 - 자동차정비","category":"car"}]},{"lat":"37.540406226","long":"127.2067537","imageIndex":0,"items":[{"name":"애니카랜드하남점","tel":"031-791-8064","addr":"경기도 하남시 신장동 427-460번지","indutype":"자동차정비 유지 - 자동차정비","category":"car"}]},{"lat":"37.546960475","long":"127.21467002","imageIndex":0,"items":[{"name":"옐로우터널","tel":"070-9048-4080","addr":"경기도 하남시 신장동 259-20번지","indutype":"자동차정비 유지 - 자동차정비","category":"car"}]},{"lat":"37.537927355","long":"127.21256261","imageIndex":0,"items":[{"name":"오토오아시스홈플러스경기하남점","tel":"031-791-5169","addr":"경기도 하남시 신장동 570번지 하남두산위브파크 지하3층","indutype":"자동차정비 유지 - 자동차정비","category":"car"}]},{"lat":"37.536961417","long":"127.20850936","imageIndex":0,"items":[{"name":"유신모터스","tel":"","addr":"경기도 하남시 신장동 505-19번지","indutype":"자동차정비 유지 - 카인테리어","category":"car"}]},{"lat":"37.538651738","long":"127.210528","imageIndex":0,"items":[{"name":"제일델코","tel":"031-792-5798","addr":"경기도 하남시 신장동 449-5번지","indutype":"자동차정비 유지 - 카인테리어","category":"car"}]},{"lat":"37.536989332","long":"127.20800029","imageIndex":0,"items":[{"name":"제일카공업사(세차)","tel":"031-794-9723","addr":"경기도 하남시 신장동 432-37번지 외2필지","indutype":"자동차정비 유지 - 자동차정비","category":"car"}]},{"lat":"37.540735345","long":"127.20919862","imageIndex":0,"items":[{"name":"주식회사 모토모빌","tel":"","addr":"경기도 하남시 신장동 565-10번지 재옥빌딩 5층","indutype":"자동차판매 - 국산신차판매","category":"car"}]},{"lat":"37.536484497","long":"127.21328268","imageIndex":0,"items":[{"name":"주식회사 세원공조","tel":"031-795-9085","addr":"경기도 하남시 신장동 470-3번지","indutype":"자동차정비 유지 - 자동차부품","category":"car"},{"name":"챠밍덴트","tel":"031-8028-4966","addr":"경기도 하남시 신장동 470-3번지 2층","indutype":"자동차정비 유지 - 카인테리어","category":"car"}]},{"lat":"37.536843954","long":"127.20870138","imageIndex":0,"items":[{"name":"주식회사 유신자동차공업사","tel":"031-793-5550","addr":"경기도 하남시 신장동 438-1번지","indutype":"자동차정비 유지 - 자동차정비","category":"car"}]},{"lat":"37.543265456","long":"127.22017013","imageIndex":0,"items":[{"name":"주식회사 현대자동차하남서비스","tel":"031-794-9000","addr":"경기도 하남시 신장동 69번지","indutype":"자동차정비 유지 - 자동차정비","category":"car"}]},{"lat":"37.537956208","long":"127.21153307","imageIndex":0,"items":[{"name":"준모터스","tel":"02-5340-9469","addr":"경기도 하남시 신장동 454-34번지","indutype":"자동차정비 유지 - 자동차부품","category":"car"}]},{"lat":"37.536236989","long":"127.21058919","imageIndex":0,"items":[{"name":"중앙산업","tel":"031-793-6793","addr":"경기도 하남시 신장동 472-16번지 1층","indutype":"자동차정비 유지 - 자동차부품","category":"car"}]},{"lat":"37.539455694","long":"127.20934219","imageIndex":0,"items":[{"name":"천우카서비스","tel":"031-791-3040","addr":"경기도 하남시 신장동 444-51번지","indutype":"자동차정비 유지 - 자동차정비","category":"car"}]},{"lat":"37.539042645","long":"127.20853771","imageIndex":0,"items":[{"name":"출장배터리","tel":"","addr":"경기도 하남시 신장동 444-43번지","indutype":"자동차정비 유지 - 자동차부품","category":"car"}]},{"lat":"37.539795248","long":"127.21094982","imageIndex":0,"items":[{"name":"타이어월드하남점","tel":"031-795-0088","addr":"경기도 하남시 신장동 447-10번지","indutype":"자동차정비 유지 - 자동차시트·타이어","category":"car"},{"name":"하남타이어 월드","tel":"031-795-0088","addr":"경기도 하남시 신장동 447-10번지","indutype":"자동차정비 유지 - 자동차정비","category":"car"}]},{"lat":"37.542181159","long":"127.20675853","imageIndex":0,"items":[{"name":"타이어코리아TK하남점","tel":"031-794-5201","addr":"경기도 하남시 신장동 423-27번지","indutype":"자동차정비 유지 - 자동차시트·타이어","category":"car"}]},{"lat":"37.547569131","long":"127.21186539","imageIndex":0,"items":[{"name":"타이어프로 하남미사리점","tel":"031-792-8266","addr":"경기도 하남시 신장동 303-58번지 101호","indutype":"자동차정비 유지 - 자동차시트·타이어","category":"car"}]},{"lat":"37.542320799","long":"127.21942059","imageIndex":0,"items":[{"name":"탑쉴드","tel":"031-792-4681","addr":"경기도 하남시 신장동 95-1번지","indutype":"자동차정비 유지 - 세차장","category":"car"}]},{"lat":"37.539040918","long":"127.21461368","imageIndex":0,"items":[{"name":"하남시청","tel":"031-790-5650","addr":"경기도 하남시 신장동 520번지","indutype":"자동차정비 유지 - 주차장","category":"car"},{"name":"하남시청","tel":"031-790-5650","addr":"경기도 하남시 신장동 520번지 하남시청","indutype":"자동차정비 유지 - 주차장","category":"car"},{"name":"하남시청/시청사부설주차장","tel":"031-790-5650","addr":"경기도 하남시 신장동 520번지 하남시청","indutype":"자동차정비 유지 - 주차장","category":"car"},{"name":"하남시청_덕풍소공원주차장","tel":"031-790-5650","addr":"경기도 하남시 신장동 520번지 하남시청","indutype":"자동차정비 유지 - 주차장","category":"car"}]},{"lat":"37.540817651","long":"127.21361167","imageIndex":0,"items":[{"name":"한성카크리닉","tel":"031-791-4938","addr":"경기도 하남시 신장동 147-19번지","indutype":"자동차정비 유지 - 자동차부품","category":"car"},{"name":"한성카클리닉","tel":"02-487-7640","addr":"경기도 하남시 신장동 147-19번지 1층","indutype":"자동차정비 유지 - 세차장","category":"car"}]},{"lat":"37.53767993","long":"127.2098125","imageIndex":0,"items":[{"name":"현대오토피아","tel":"031-795-2589","addr":"경기도 하남시 신장동 451-11번지","indutype":"자동차정비 유지 - 자동차정비","category":"car"}]}]