[{"lat":"37.680084183","long":"127.37334434","imageIndex":4,"items":[{"name":"가든무풍지대","tel":"031-591-9989","addr":"경기도 남양주시 화도읍 구암리 214-2","indutype":"일반휴게음식 - 일반한식","category":"restaurant"}]},{"lat":"37.663085599","long":"127.36379643","imageIndex":4,"items":[{"name":"공사식당","tel":"031-511-4569","addr":"경기도 남양주시 화도읍 구암리 464-6번지 1층","indutype":"일반휴게음식 - 서양음식","category":"restaurant"}]},{"lat":"37.670308476","long":"127.37343176","imageIndex":4,"items":[{"name":"구암막국수","tel":"031-594-3398","addr":"경기도 남양주시 화도읍 구암리 188-9번지","indutype":"일반휴게음식 - 일반한식","category":"restaurant"}]},{"lat":"37.670254348","long":"127.37345416","imageIndex":4,"items":[{"name":"구암올갱이","tel":"031-592-5403","addr":"경기도 남양주시 화도읍 구암리 155-3번지","indutype":"일반휴게음식 - 일반한식","category":"restaurant"}]},{"lat":"37.663697343","long":"127.36409407","imageIndex":4,"items":[{"name":"구암토종","tel":"031-592-8365","addr":"경기도 남양주시 화도읍 구암리 394-3번지","indutype":"일반휴게음식 - 일반한식","category":"restaurant"}]},{"lat":"37.670280415","long":"127.37376032","imageIndex":4,"items":[{"name":"국시가","tel":"031-593-6570","addr":"경기도 남양주시 화도읍 구암리 156-2번지 1층","indutype":"일반휴게음식 - 일반한식","category":"restaurant"}]},{"lat":"37.68128123","long":"127.37373572","imageIndex":4,"items":[{"name":"금강가든","tel":"031-591-2895","addr":"경기도 남양주시 화도읍 구암리 217-1번지","indutype":"일반휴게음식 - 일반한식","category":"restaurant"}]},{"lat":"37.661086037","long":"127.36945332","imageIndex":4,"items":[{"name":"길라가든","tel":"031-591-9999","addr":"경기도 남양주시 화도읍 구암리 61-6번지 1층","indutype":"일반휴게음식 - 일반한식","category":"restaurant"}]},{"lat":"37.681334574","long":"127.37396271","imageIndex":4,"items":[{"name":"나무사랑캠프가든","tel":"031-591-2895","addr":"경기도 남양주시 화도읍 구암리 217-7번지","indutype":"일반휴게음식 - 일반한식","category":"restaurant"}]},{"lat":"37.658500695","long":"127.3722058","imageIndex":4,"items":[{"name":"대청마루","tel":"","addr":"경기도 남양주시 화도읍 구암리 37-4번지 2층","indutype":"일반휴게음식 - 일반한식","category":"restaurant"}]},{"lat":"37.657895319","long":"127.3727581","imageIndex":4,"items":[{"name":"마당골","tel":"031-591-1621","addr":"경기도 남양주시 화도읍 구암리 39-1번지","indutype":"일반휴게음식 - 일반한식","category":"restaurant"},{"name":"오동나무집","tel":"031-511-0320","addr":"경기도 남양주시 화도읍 구암리 39-1번지","indutype":"일반휴게음식 - 일반한식","category":"restaurant"},{"name":"오동나무집","tel":"","addr":"경기도 남양주시 화도읍 구암리 39-1번지","indutype":"일반휴게음식 - 일반한식","category":"restaurant"}]},{"lat":"37.669776739","long":"127.37348579","imageIndex":4,"items":[{"name":"마음정원","tel":"031-577-2327","addr":"경기도 남양주시 화도읍 구암리 153-1번지 1층","indutype":"일반휴게음식 - 서양음식","category":"restaurant"}]},{"lat":"37.658248323","long":"127.37223854","imageIndex":4,"items":[{"name":"무봉리토종순대국금남점","tel":"031-595-9633","addr":"경기도 남양주시 화도읍 구암리 38-8번지","indutype":"일반휴게음식 - 일반한식","category":"restaurant"}]},{"lat":"37.659283989","long":"127.37237967","imageIndex":4,"items":[{"name":"시골청국장집","tel":"031-591-3894","addr":"경기도 남양주시 화도읍 구암리 35-7","indutype":"일반휴게음식 - 일반한식","category":"restaurant"}]},{"lat":"37.659561294","long":"127.37301569","imageIndex":4,"items":[{"name":"양지뜰","tel":"031-592-5421","addr":"경기도 남양주시 화도읍 구암리 32번지","indutype":"일반휴게음식 - 일반한식","category":"restaurant"}]},{"lat":"37.660109342","long":"127.37062715","imageIndex":4,"items":[{"name":"어부의집","tel":"031-591-0288","addr":"경기도 남양주시 화도읍 구암리 71-5번지","indutype":"일반휴게음식 - 일반한식","category":"restaurant"}]},{"lat":"37.660498939","long":"127.36992642","imageIndex":4,"items":[{"name":"언니'S J&H","tel":"031-511-5283","addr":"경기도 남양주시 화도읍 구암리 63-4번지 1층","indutype":"일반휴게음식 - 일반한식","category":"restaurant"}]},{"lat":"37.664526807","long":"127.36390541","imageIndex":4,"items":[{"name":"오! 헬로 (O! hello)","tel":"","addr":"경기도 남양주시 화도읍 구암리 395-11번지 1층","indutype":"일반휴게음식 - 서양음식","category":"restaurant"}]},{"lat":"37.660416442","long":"127.37037934","imageIndex":4,"items":[{"name":"옥천가든","tel":"","addr":"경기도 남양주시 화도읍 구암리 71-4번지","indutype":"일반휴게음식 - 일반한식","category":"restaurant"}]},{"lat":"37.661830792","long":"127.37043164","imageIndex":4,"items":[{"name":"이가네","tel":"031-594-5283","addr":"경기도 남양주시 화도읍 구암리 69-10번지","indutype":"일반휴게음식 - 일반한식","category":"restaurant"}]},{"lat":"37.673310248","long":"127.37579303","imageIndex":4,"items":[{"name":"카페휴","tel":"031-559-7488","addr":"경기도 남양주시 화도읍 구암리 6-8번지","indutype":"일반휴게음식 - 서양음식","category":"restaurant"}]},{"lat":"37.664165057","long":"127.36139894","imageIndex":4,"items":[{"name":"클럽아카","tel":"031-577-0904","addr":"경기도 남양주시 화도읍 구암리 473-7","indutype":"일반휴게음식 - 서양음식","category":"restaurant"}]},{"lat":"37.657780254","long":"127.37210023","imageIndex":4,"items":[{"name":"토방사랑","tel":"031-592-1145","addr":"경기도 남양주시 화도읍 구암리 39-8번지","indutype":"일반휴게음식 - 일반한식","category":"restaurant"}]},{"lat":"37.67158297","long":"127.37497962","imageIndex":4,"items":[{"name":"화도왕오리","tel":"","addr":"경기도 남양주시 화도읍 구암리 11-4번지","indutype":"일반휴게음식 - 일반한식","category":"restaurant"}]}]