[{"lat":"37.293661283","long":"127.6412156","imageIndex":4,"items":[{"name":"Mzee cafe OLRAE(올래)/사단법인대한노인회","tel":"031-884-9191","addr":"경기도 여주시 상동 352번지","indutype":"일반휴게음식 - 서양음식","category":"restaurant"},{"name":"여주시노인복지관 청춘카페","tel":"031-881-0050","addr":"경기도 여주시 상동 352번지","indutype":"일반휴게음식 - 서양음식","category":"restaurant"}]},{"lat":"37.297771924","long":"127.63916385","imageIndex":4,"items":[{"name":"강변가요제","tel":"031-886-3900","addr":"경기도 여주시 상동 214-24번지 2층","indutype":"일반휴게음식 - 일반한식","category":"restaurant"},{"name":"최가네함흥냉면","tel":"031-886-8808","addr":"경기도 여주시 상동 214-24번지","indutype":"일반휴게음식 - 일반한식","category":"restaurant"},{"name":"카누","tel":"031-886-1366","addr":"경기도 여주시 상동 214-24번지","indutype":"일반휴게음식 - 주점","category":"restaurant"}]},{"lat":"37.297330779","long":"127.64077292","imageIndex":4,"items":[{"name":"개그맨 7080","tel":"031-885-0009","addr":"경기도 여주시 상동 201-54번지 2층","indutype":"일반휴게음식 - 주점","category":"restaurant"}]},{"lat":"37.29219083","long":"127.6531347","imageIndex":4,"items":[{"name":"개성칡냉면","tel":"031-882-6167","addr":"경기도 여주시 상동 53번지","indutype":"일반휴게음식 - 일반한식","category":"restaurant"},{"name":"잠실꼬꼬","tel":"031-884-9989","addr":"경기도 여주시 상동 53번지","indutype":"일반휴게음식 - 주점","category":"restaurant"}]},{"lat":"37.297744168","long":"127.63929896","imageIndex":4,"items":[{"name":"곱배기영양탕","tel":"031-885-5292","addr":"경기도 여주시 상동 214-23번지","indutype":"일반휴게음식 - 일반한식","category":"restaurant"},{"name":"요리에빠진남자들","tel":"","addr":"경기도 여주시 상동 214-23번지","indutype":"일반휴게음식 - 일반한식","category":"restaurant"}]},{"lat":"37.295357113","long":"127.64252689","imageIndex":4,"items":[{"name":"국민부대찌개","tel":"031-882-8002","addr":"경기도 여주시 상동 316-9번지","indutype":"일반휴게음식 - 일반한식","category":"restaurant"}]},{"lat":"37.290495652","long":"127.65663859","imageIndex":4,"items":[{"name":"금룡","tel":"031-882-8006","addr":"경기도 여주시 상동 15번지","indutype":"일반휴게음식 - 중국식","category":"restaurant"},{"name":"양평본가해장국","tel":"031-886-0982","addr":"경기도 여주시 상동 15번지","indutype":"일반휴게음식 - 일반한식","category":"restaurant"}]},{"lat":"37.2953883027","long":"127.6467450876","imageIndex":4,"items":[{"name":"금밭갈비","tel":"031-884-9856","addr":"경기도 여주시 상동 140번지","indutype":"일반휴게음식 - 갈비전문점","category":"restaurant"}]},{"lat":"37.297689321","long":"127.63944511","imageIndex":4,"items":[{"name":"나무","tel":"031-885-2178","addr":"경기도 여주시 상동 214-21번지","indutype":"일반휴게음식 - 서양음식","category":"restaurant"}]},{"lat":"37.291717554","long":"127.65399898","imageIndex":4,"items":[{"name":"남한강종가집","tel":"031-884-9981","addr":"경기도 여주시 상동 41번지","indutype":"일반휴게음식 - 일반한식","category":"restaurant"}]},{"lat":"37.297606475","long":"127.63977148","imageIndex":4,"items":[{"name":"낮술CC","tel":"","addr":"경기도 여주시 상동 214-18번지","indutype":"일반휴게음식 - 주점","category":"restaurant"},{"name":"휠라이브","tel":"031-886-7006","addr":"경기도 여주시 상동 214-18번지","indutype":"일반휴게음식 - 주점","category":"restaurant"}]},{"lat":"37.295412506","long":"127.64061011","imageIndex":4,"items":[{"name":"네네치킨","tel":"031-885-8886","addr":"경기도 여주시 상동 293-1번지","indutype":"일반휴게음식 - 주점","category":"restaurant"},{"name":"여흥식당","tel":"031-883-5054","addr":"경기도 여주시 상동 293-1번지","indutype":"일반휴게음식 - 일반한식","category":"restaurant"}]},{"lat":"37.296638309","long":"127.64053023","imageIndex":4,"items":[{"name":"달리는커피여주점","tel":"031-884-3772","addr":"경기도 여주시 상동 201-21번지","indutype":"일반휴게음식 - 서양음식","category":"restaurant"}]},{"lat":"37.296193674","long":"127.64111294","imageIndex":4,"items":[{"name":"돈이도니(두번째이야기)","tel":"031-885-8751","addr":"경기도 여주시 상동 307-2번지","indutype":"일반휴게음식 - 스넥","category":"restaurant"}]},{"lat":"37.296720186","long":"127.64038431","imageIndex":4,"items":[{"name":"땡기면 들어와!!","tel":"031-881-3498","addr":"경기도 여주시 상동 201-22번지","indutype":"일반휴게음식 - 일반한식","category":"restaurant"}]},{"lat":"37.290304984","long":"127.64038656","imageIndex":4,"items":[{"name":"마을식당","tel":"031-885-2450","addr":"경기도 여주시 상동 410-7번지 1층","indutype":"일반휴게음식 - 일반한식","category":"restaurant"}]},{"lat":"37.295499725","long":"127.63947177","imageIndex":4,"items":[{"name":"맘스터치치킨여주점","tel":"031-886-9282","addr":"경기도 여주시 상동 282-64번지","indutype":"일반휴게음식 - 서양음식","category":"restaurant"}]},{"lat":"37.295077324","long":"127.64094561","imageIndex":4,"items":[{"name":"메카(MECCA)","tel":"031-884-1671","addr":"경기도 여주시 상동 325-4번지 외2필지","indutype":"일반휴게음식 - 일반한식","category":"restaurant"}]},{"lat":"37.2942441923","long":"127.6450549540","imageIndex":4,"items":[{"name":"명동닭갈비","tel":"031-885-2848","addr":"경기도 여주시 상동 109-1번지 1층","indutype":"일반휴게음식 - 일반한식","category":"restaurant"}]},{"lat":"37.294215082","long":"127.64543815","imageIndex":4,"items":[{"name":"명동분식","tel":"031-885-0849","addr":"경기도 여주시 상동 116-1번지","indutype":"일반휴게음식 - 스넥","category":"restaurant"}]},{"lat":"37.292333838","long":"127.65005718","imageIndex":4,"items":[{"name":"명태항구","tel":"031-881-5755","addr":"경기도 여주시 상동 65-8번지","indutype":"일반휴게음식 - 일반한식","category":"restaurant"}]},{"lat":"37.296021559","long":"127.63961151","imageIndex":4,"items":[{"name":"묵은지전문시골집","tel":"031-882-4906","addr":"경기도 여주시 상동 264번지","indutype":"일반휴게음식 - 일반한식","category":"restaurant"}]},{"lat":"37.291719569","long":"127.65199163","imageIndex":4,"items":[{"name":"미스터반포 브이카페(여주상동점)","tel":"070-1111-1111","addr":"경기도 여주시 상동 55-7번지 1층","indutype":"일반휴게음식 - 서양음식","category":"restaurant"}]},{"lat":"37.294998797","long":"127.6421404","imageIndex":4,"items":[{"name":"미스터보쌈5379 여흥점","tel":"031-881-5379","addr":"경기도 여주시 상동 329-4번지","indutype":"일반휴게음식 - 일반한식","category":"restaurant"},{"name":"피자나라치킨공주여주점","tel":"031-881-6914","addr":"경기도 여주시 상동 329-4번지","indutype":"일반휴게음식 - 서양음식","category":"restaurant"}]},{"lat":"37.29735957","long":"127.64044609","imageIndex":4,"items":[{"name":"발렌타인","tel":"031-884-6080","addr":"경기도 여주시 상동 201-53번지","indutype":"일반휴게음식 - 주점","category":"restaurant"}]},{"lat":"37.296165368","long":"127.63799996","imageIndex":4,"items":[{"name":"베러댄와플 (여주중앙점)","tel":"031-883-1579","addr":"경기도 여주시 상동 226-9번지 1층","indutype":"일반휴게음식 - 서양음식","category":"restaurant"},{"name":"식객","tel":"031-886-1777","addr":"경기도 여주시 상동 226-9번지","indutype":"일반휴게음식 - 일반한식","category":"restaurant"}]},{"lat":"37.292803202","long":"127.65154984","imageIndex":4,"items":[{"name":"보노","tel":"031-886-3003","addr":"경기도 여주시 상동 60-1번지","indutype":"일반휴게음식 - 서양음식","category":"restaurant"},{"name":"커피지 (coffeezi)","tel":"031-111-1111","addr":"경기도 여주시 상동 60-1번지 1층","indutype":"일반휴게음식 - 서양음식","category":"restaurant"}]},{"lat":"37.292607752","long":"127.65268719","imageIndex":4,"items":[{"name":"보드로(Bord de l'eau)","tel":"031-882-6915","addr":"경기도 여주시 상동 58번지 1,2층","indutype":"일반휴게음식 - 서양음식","category":"restaurant"}]},{"lat":"37.295193699","long":"127.63941281","imageIndex":4,"items":[{"name":"보연식당","tel":"031-882-1470","addr":"경기도 여주시 상동 285-3번지","indutype":"일반휴게음식 - 일반한식","category":"restaurant"},{"name":"피자파는집","tel":"031-881-4444","addr":"경기도 여주시 상동 285-3번지 1층","indutype":"일반휴게음식 - 서양음식","category":"restaurant"}]},{"lat":"37.29697182","long":"127.63883005","imageIndex":4,"items":[{"name":"본토동태탕","tel":"031-885-8330","addr":"경기도 여주시 상동 220-3번지","indutype":"일반휴게음식 - 일반한식","category":"restaurant"}]},{"lat":"37.295718685","long":"127.63896611","imageIndex":4,"items":[{"name":"사천성","tel":"031-882-1414","addr":"경기도 여주시 상동 239번지","indutype":"일반휴게음식 - 중국식","category":"restaurant"},{"name":"화끈한닭발","tel":"031-885-8959","addr":"경기도 여주시 상동 239번지","indutype":"일반휴게음식 - 일반한식","category":"restaurant"}]},{"lat":"37.291137868","long":"127.64797192","imageIndex":4,"items":[{"name":"상동93","tel":"","addr":"경기도 여주시 상동 93-1번지","indutype":"일반휴게음식 - 서양음식","category":"restaurant"}]},{"lat":"37.294442895","long":"127.64496642","imageIndex":4,"items":[{"name":"상리페리카나치킨","tel":"031-884-5600","addr":"경기도 여주시 상동 114-2번지","indutype":"일반휴게음식 - 스넥","category":"restaurant"}]},{"lat":"37.295859947","long":"127.63782822","imageIndex":4,"items":[{"name":"세종뚝배기","tel":"031-885-3787","addr":"경기도 여주시 상동 227-2번지","indutype":"일반휴게음식 - 일반한식","category":"restaurant"},{"name":"쉼터","tel":"031-885-6291","addr":"경기도 여주시 상동 227-2번지 2층","indutype":"일반휴게음식 - 서양음식","category":"restaurant"},{"name":"에덴식당","tel":"031-886-5021","addr":"경기도 여주시 상동 227-2번지","indutype":"일반휴게음식 - 일반한식","category":"restaurant"},{"name":"왕호프카페","tel":"031-882-6291","addr":"경기도 여주시 상동 227-2번지","indutype":"일반휴게음식 - 주점","category":"restaurant"},{"name":"일성식당","tel":"031-883-2505","addr":"경기도 여주시 상동 227-2번지","indutype":"일반휴게음식 - 일반한식","category":"restaurant"}]},{"lat":"37.295471786","long":"127.63964071","imageIndex":4,"items":[{"name":"세종참치","tel":"031-886-6900","addr":"경기도 여주시 상동 283-4번지","indutype":"일반휴게음식 - 일반한식","category":"restaurant"},{"name":"카슈카슈","tel":"031-886-6442","addr":"경기도 여주시 상동 283-4번지","indutype":"일반휴게음식 - 서양음식","category":"restaurant"}]},{"lat":"37.296609093","long":"127.64260515","imageIndex":4,"items":[{"name":"소리니","tel":"031-886-4393","addr":"경기도 여주시 상동 177-4번지 인텔존 가동 1층 102호","indutype":"일반휴게음식 - 일반한식","category":"restaurant"},{"name":"송탄어울림부대찌개","tel":"031-883-5888","addr":"경기도 여주시 상동 177-4번지","indutype":"일반휴게음식 - 일반한식","category":"restaurant"},{"name":"어썸커피(coffee)","tel":"","addr":"경기도 여주시 상동 177-4번지 인텔존 가동 1층 102호","indutype":"일반휴게음식 - 서양음식","category":"restaurant"},{"name":"인텔죤치킨","tel":"031-111-1111","addr":"경기도 여주시 상동 177-4번지 인텔존 1층 105호","indutype":"일반휴게음식 - 스넥","category":"restaurant"}]},{"lat":"37.297773137","long":"127.6389383","imageIndex":4,"items":[{"name":"수금정","tel":"031-883-9114","addr":"경기도 여주시 상동 214-16번지","indutype":"일반휴게음식 - 일반한식","category":"restaurant"}]},{"lat":"37.2916068625","long":"127.6478857066","imageIndex":4,"items":[{"name":"수림영양탕","tel":"031-884-0276","addr":"경기도 여주시 상동 94-1번지","indutype":"일반휴게음식 - 일반한식","category":"restaurant"}]},{"lat":"37.29607594","long":"127.64122472","imageIndex":4,"items":[{"name":"승우","tel":"02-0000-0000","addr":"경기도 여주시 상동 307-1번지","indutype":"일반휴게음식 - 서양음식","category":"restaurant"},{"name":"와카페편의점포차","tel":"031-000-0000","addr":"경기도 여주시 상동 307-1번지","indutype":"일반휴게음식 - 일반한식","category":"restaurant"}]},{"lat":"37.295132598","long":"127.64072052","imageIndex":4,"items":[{"name":"신전떡볶이","tel":"031-886-7980","addr":"경기도 여주시 상동 292-1번지","indutype":"일반휴게음식 - 스넥","category":"restaurant"}]},{"lat":"37.291687486","long":"127.6512696","imageIndex":4,"items":[{"name":"안단테","tel":"031-883-3363","addr":"경기도 여주시 상동 62-10번지 B동 1층","indutype":"일반휴게음식 - 서양음식","category":"restaurant"}]},{"lat":"37.292832517","long":"127.65113282","imageIndex":4,"items":[{"name":"어희","tel":"031-886-9977","addr":"경기도 여주시 상동 60번지","indutype":"일반휴게음식 - 일식·회집","category":"restaurant"}]},{"lat":"37.296999455","long":"127.6387175","imageIndex":4,"items":[{"name":"여기가 좋겠네","tel":"031-886-2727","addr":"경기도 여주시 상동 220-6번지","indutype":"일반휴게음식 - 일반한식","category":"restaurant"}]},{"lat":"37.296110402","long":"127.63816867","imageIndex":4,"items":[{"name":"여내울두번째집","tel":"031-883-1976","addr":"경기도 여주시 상동 226-6번지","indutype":"일반휴게음식 - 일반한식","category":"restaurant"}]},{"lat":"37.297524174","long":"127.63999635","imageIndex":4,"items":[{"name":"여주강변막국수","tel":"031-886-1479","addr":"경기도 여주시 상동 201-47번지","indutype":"일반휴게음식 - 일반한식","category":"restaurant"},{"name":"여주쌀밥집","tel":"031-885-9544","addr":"경기도 여주시 상동 201-47번지","indutype":"일반휴게음식 - 일반한식","category":"restaurant"}]},{"lat":"37.296020848","long":"127.64141598","imageIndex":4,"items":[{"name":"여주댁꽃돼지","tel":"031-885-3756","addr":"경기도 여주시 상동 310-2번지","indutype":"일반휴게음식 - 일반한식","category":"restaurant"}]},{"lat":"37.29738751","long":"127.64027716","imageIndex":4,"items":[{"name":"여주선","tel":"031-884-2616","addr":"경기도 여주시 상동 201-46번지","indutype":"일반휴게음식 - 일반한식","category":"restaurant"}]},{"lat":"37.2974139","long":"127.63872099","imageIndex":4,"items":[{"name":"옛집","tel":"031-885-4077","addr":"경기도 여주시 상동 216번지","indutype":"일반휴게음식 - 일반한식","category":"restaurant"}]},{"lat":"37.296134078","long":"127.64213873","imageIndex":4,"items":[{"name":"우리집밥상","tel":"031-884-8333","addr":"경기도 여주시 상동 179번지","indutype":"일반휴게음식 - 일반한식","category":"restaurant"},{"name":"일성야식","tel":"031-886-6388","addr":"경기도 여주시 상동 179번지","indutype":"일반휴게음식 - 일반한식","category":"restaurant"}]},{"lat":"37.292438363","long":"127.65235868","imageIndex":4,"items":[{"name":"이동숯불갈비","tel":"031-883-8108","addr":"경기도 여주시 상동 57-1번지","indutype":"일반휴게음식 - 갈비전문점","category":"restaurant"}]},{"lat":"37.297826407","long":"127.63908536","imageIndex":4,"items":[{"name":"이집커피","tel":"","addr":"경기도 여주시 상동 214-25번지 1,2층","indutype":"일반휴게음식 - 서양음식","category":"restaurant"}]},{"lat":"37.295500331","long":"127.639359","imageIndex":4,"items":[{"name":"인생라멘","tel":"031-885-0282","addr":"경기도 여주시 상동 282-63번지","indutype":"일반휴게음식 - 일식·회집","category":"restaurant"}]},{"lat":"37.295388303","long":"127.64674509","imageIndex":4,"items":[{"name":"장가네동태탕","tel":"031-885-7877","addr":"경기도 여주시 상동 140번지","indutype":"일반휴게음식 - 일반한식","category":"restaurant"}]},{"lat":"37.291995563","long":"127.64433664","imageIndex":4,"items":[{"name":"재상막국수","tel":"031-884-3826","addr":"경기도 여주시 상동 106번지","indutype":"일반휴게음식 - 일반한식","category":"restaurant"}]},{"lat":"37.289633962","long":"127.65440955","imageIndex":4,"items":[{"name":"종지골","tel":"031-885-2414","addr":"경기도 여주시 상동 22-16번지","indutype":"일반휴게음식 - 서양음식","category":"restaurant"}]},{"lat":"37.295854351","long":"127.64221531","imageIndex":4,"items":[{"name":"중국집","tel":"031-885-5110","addr":"경기도 여주시 상동 315-6번지","indutype":"일반휴게음식 - 중국식","category":"restaurant"}]},{"lat":"37.296938969","long":"127.63991247","imageIndex":4,"items":[{"name":"집밥","tel":"031-885-9335","addr":"경기도 여주시 상동 201-13번지","indutype":"일반휴게음식 - 일반한식","category":"restaurant"}]},{"lat":"37.294996582","long":"127.64421551","imageIndex":4,"items":[{"name":"참참참","tel":"031-885-3775","addr":"경기도 여주시 상동 156-3번지","indutype":"일반휴게음식 - 스넥","category":"restaurant"}]},{"lat":"37.297022301","long":"127.63949588","imageIndex":4,"items":[{"name":"초록담쟁이","tel":"031-881-0850","addr":"경기도 여주시 상동 206-1번지","indutype":"일반휴게음식 - 서양음식","category":"restaurant"}]},{"lat":"37.29705397","long":"127.64030818","imageIndex":4,"items":[{"name":"카페미려","tel":"031-881-0091","addr":"경기도 여주시 상동 201-29번지 경기도여주교육지원청 1층","indutype":"일반휴게음식 - 서양음식","category":"restaurant"}]},{"lat":"37.294886479","long":"127.6412485","imageIndex":4,"items":[{"name":"커피콩","tel":"070-4616-4144","addr":"경기도 여주시 상동 326-2번지 1층","indutype":"일반휴게음식 - 서양음식","category":"restaurant"}]},{"lat":"37.288523226","long":"127.6449725","imageIndex":4,"items":[{"name":"클라츠","tel":"031-885-8500","addr":"경기도 여주시 상동 449-5번지","indutype":"일반휴게음식 - 일반한식","category":"restaurant"}]},{"lat":"37.2932713372","long":"127.6499749930","imageIndex":4,"items":[{"name":"투썸플레이스 여주강변점","tel":"031-882-0022","addr":"경기도 여주시 상동 69번지","indutype":"일반휴게음식 - 서양음식","category":"restaurant"}]},{"lat":"37.293271337","long":"127.64997499","imageIndex":4,"items":[{"name":"투썸플레이스 여주강변점","tel":"031-881-0022","addr":"경기도 여주시 상동 69번지 1층","indutype":"일반휴게음식 - 서양음식","category":"restaurant"}]},{"lat":"37.29724878","long":"127.6409414","imageIndex":4,"items":[{"name":"풍곡회관","tel":"031-884-5252","addr":"경기도 여주시 상동 201-44번지","indutype":"일반휴게음식 - 일반한식","category":"restaurant"}]},{"lat":"37.291327255","long":"127.64793971","imageIndex":4,"items":[{"name":"한아농산삼계탕","tel":"031-885-3450","addr":"경기도 여주시 상동 93번지","indutype":"일반휴게음식 - 일반한식","category":"restaurant"}]},{"lat":"37.29525","long":"127.638996","imageIndex":4,"items":[{"name":"향원","tel":"031-886-3887","addr":"경기도 여주시 상동 285-4번지","indutype":"일반휴게음식 - 중국식","category":"restaurant"}]}]