[{"lat":"37.169390359","long":"126.89899198","imageIndex":7,"items":[{"name":"1004번길 빵집","tel":"031-8059-1378","addr":"경기도 화성시 팔탄면 구장리 90번지 101동 1층 1호","indutype":"음료식품 - 제과점","category":"food"}]},{"lat":"37.15855061","long":"126.90960034","imageIndex":7,"items":[{"name":"고참들마당","tel":"031-000-0000","addr":"경기도 화성시 팔탄면 구장리 868번지 2동","indutype":"음료식품 - 기타음료식품","category":"food"}]},{"lat":"37.169637956","long":"126.89376729","imageIndex":7,"items":[{"name":"구장24","tel":"","addr":"경기도 화성시 팔탄면 구장리 38-63번지 101동 114호","indutype":"음료식품 - 기타음료식품","category":"food"}]},{"lat":"37.167638529","long":"126.89473844","imageIndex":7,"items":[{"name":"송탄","tel":"031-351-5777","addr":"경기도 화성시 팔탄면 구장리 21번지","indutype":"음료식품 - 기타음료식품","category":"food"}]},{"lat":"37.161609172","long":"126.90346087","imageIndex":7,"items":[{"name":"수정축산","tel":"031-352-4402","addr":"경기도 화성시 팔탄면 구장리 554-2번지","indutype":"음료식품 - 정육점","category":"food"}]},{"lat":"37.162890475","long":"126.90565458","imageIndex":7,"items":[{"name":"여울농산","tel":"031-111-1111","addr":"경기도 화성시 팔탄면 구장리 780번지","indutype":"음료식품 - 농·축·수산품","category":"food"}]},{"lat":"37.158805352","long":"126.90160701","imageIndex":7,"items":[{"name":"우미한우정육점","tel":"070-8947-4490","addr":"경기도 화성시 팔탄면 구장리 521-3번지","indutype":"음료식품 - 정육점","category":"food"}]},{"lat":"37.160834481","long":"126.90370956","imageIndex":7,"items":[{"name":"장미영베이커리","tel":"031-353-3544","addr":"경기도 화성시 팔탄면 구장리 527-14","indutype":"음료식품 - 제과점","category":"food"}]},{"lat":"37.164054533","long":"126.89713036","imageIndex":7,"items":[{"name":"주식회사에이치앤에스두리반","tel":"031-354-6090","addr":"경기도 화성시 팔탄면 구장리 146-4","indutype":"음료식품 - 제과점","category":"food"}]},{"lat":"37.164302151","long":"126.90210631","imageIndex":7,"items":[{"name":"진호식품","tel":"031-111-1111","addr":"경기도 화성시 팔탄면 구장리 607-1번지","indutype":"음료식품 - 제과점","category":"food"}]},{"lat":"37.161888891","long":"126.90393335","imageIndex":7,"items":[{"name":"참살이","tel":"031-239-0368","addr":"경기도 화성시 팔탄면 구장리 564-3번지","indutype":"음료식품 - 농·축·수산품","category":"food"}]},{"lat":"37.163833013","long":"126.91254359","imageIndex":7,"items":[{"name":"청호인재개발원매점","tel":"031-354-0489","addr":"경기도 화성시 팔탄면 구장리 914-2번지","indutype":"음료식품 - 기타음료식품","category":"food"}]},{"lat":"37.16996969","long":"126.89198782","imageIndex":7,"items":[{"name":"팔탄정육점","tel":"031-352-8144","addr":"경기도 화성시 팔탄면 구장리 7-1번지","indutype":"음료식품 - 정육점","category":"food"}]},{"lat":"37.159801114","long":"126.90715584","imageIndex":7,"items":[{"name":"화성시햇살사과농원","tel":"070-1111-1111","addr":"경기도 화성시 팔탄면 구장리 254-1번지","indutype":"음료식품 - 농·축·수산품","category":"food"}]},{"lat":"37.158280308","long":"126.89879329","imageIndex":7,"items":[{"name":"효건강원","tel":"031-352-9998","addr":"경기도 화성시 팔탄면 구장리 180-4번지 1층","indutype":"건강식품 - 기타건강식품","category":"food"}]}]