[{"lat":"37.826788811","long":"127.51450034","imageIndex":17,"items":[{"name":"(주)국제건설","tel":"031-582-5995","addr":"경기도 가평군 가평읍 대곡리 233-1번지","indutype":"용역 서비스 - 종합용역","category":"other"}]},{"lat":"37.8267888107","long":"127.5145003449","imageIndex":17,"items":[{"name":"(주)국제광고","tel":"031-582-1966","addr":"경기도 가평군 가평읍 대곡리 233-1번지","indutype":"건축자재 - 인테리어전문","category":"other"}]},{"lat":"37.826456116","long":"127.51435039","imageIndex":17,"items":[{"name":"(주)느낌하우징","tel":"031-581-2456","addr":"경기도 가평군 가평읍 대곡리 234-3번지","indutype":"건축자재 - 인테리어전문","category":"other"}]},{"lat":"37.819233105","long":"127.51377812","imageIndex":17,"items":[{"name":"(주)앨앤에이치코아퍼레이션","tel":"031-582-7288","addr":"경기도 가평군 가평읍 대곡리 108-4번지 1층","indutype":"의류 - 정장","category":"other"}]},{"lat":"37.824569173","long":"127.51526873","imageIndex":17,"items":[{"name":"(주)진흥고속/발권","tel":"02-6220-3044","addr":"경기도 가평군 가평읍 대곡리 168-9","indutype":"여행 - 고속버스","category":"other"},{"name":"(주)진흥고속/부도","tel":"02-6220-3044","addr":"경기도 가평군 가평읍 대곡리 168-9","indutype":"여행 - 고속버스","category":"other"},{"name":"(주)진흥고속/취소","tel":"02-6220-3044","addr":"경기도 가평군 가평읍 대곡리 168-9","indutype":"여행 - 고속버스","category":"other"}]},{"lat":"37.826654069","long":"127.51440855","imageIndex":17,"items":[{"name":"119세탁소","tel":"031-581-7119","addr":"경기도 가평군 가평읍 대곡리 234-1번지","indutype":"수리서비스 - 세탁소","category":"other"},{"name":"119세탁소","tel":"031-581-7119","addr":"경기도 가평군 가평읍 대곡리 234-1","indutype":"수리서비스 - 세탁소","category":"other"},{"name":"씨유가평센타점","tel":"031-581-7470","addr":"경기도 가평군 가평읍 대곡리 234-1번지 1층","indutype":"유통업 영리 - 편 의 점","category":"other"}]},{"lat":"37.826621615","long":"127.51150059","imageIndex":17,"items":[{"name":"CU 가평종합운동장","tel":"","addr":"경기도 가평군 가평읍 대곡리 245번지","indutype":"편의점","category":"other"},{"name":"이마트24 가평중앙점","tel":"","addr":"경기도 가평군 가평읍 대곡리 275-1번지 101호","indutype":"유통업 영리 - 편 의 점","category":"other"},{"name":"이마트24(가평중앙점)","tel":"","addr":"경기도 가평군 가평읍 대곡리 275-1번지","indutype":"유통업 영리 - 편 의 점","category":"other"}]},{"lat":"37.82359807","long":"127.51483041","imageIndex":17,"items":[{"name":"Club river fun (클럽 리버 펀)","tel":"031-582-6211","addr":"경기도 가평군 가평읍 대곡리 187-1번지 삼정빌라 6층 602호","indutype":"용역 서비스 - 종합용역","category":"other"}]},{"lat":"37.826210651","long":"127.51485982","imageIndex":17,"items":[{"name":"EH 엔터테인먼트","tel":"031-582-3003","addr":"경기도 가평군 가평읍 대곡리 232-1번지 청구서적 G동 1층","indutype":"용역 서비스 - 종합용역","category":"other"},{"name":"은하문고","tel":"031-581-1009","addr":"경기도 가평군 가평읍 대곡리 232-1번지","indutype":"서적문구 - 일반서적","category":"other"}]},{"lat":"37.81984843","long":"127.51315771","imageIndex":17,"items":[{"name":"GS25가평경춘점","tel":"","addr":"경기도 가평군 가평읍 대곡리 121-6번지","indutype":"유통업 영리 - 편 의 점","category":"other"}]},{"lat":"37.824314942","long":"127.51572129","imageIndex":17,"items":[{"name":"GS25가평터미널점","tel":"","addr":"경기도 가평군 가평읍 대곡리 169-1번지 하나스포츠","indutype":"유통업 영리 - 편 의 점","category":"other"},{"name":"뉴-하나스포츠","tel":"031-582-0077","addr":"경기도 가평군 가평읍 대곡리 169-1번지","indutype":"레져용품 - 스포츠·레져용품","category":"other"},{"name":"하나스포츠","tel":"031-582-0077","addr":"경기도 가평군 가평읍 대곡리 169-1","indutype":"레져용품 - 스포츠·레져용품","category":"other"}]},{"lat":"37.826487214","long":"127.51132929","imageIndex":17,"items":[{"name":"HP가평점","tel":"031-582-2457","addr":"경기도 가평군 가평읍 대곡리 258-1번지","indutype":"사무통신 - 컴퓨터","category":"other"}]},{"lat":"37.824655436","long":"127.51407673","imageIndex":17,"items":[{"name":"ㅇㅣㅁ아트갤러리","tel":"070-7533-9501","addr":"경기도 가평군 가평읍 대곡리 164-1번지 1층 가평군농협 남부지점","indutype":"문화.취미 - 화랑","category":"other"},{"name":"경기도개인택시운송사업조합가평군조합","tel":"031-582-5385","addr":"경기도 가평군 가평읍 대곡리 173-22번지","indutype":"여행 - 택시","category":"other"}]},{"lat":"37.825930284","long":"127.51510776","imageIndex":17,"items":[{"name":"가농아그로","tel":"031-582-8810","addr":"경기도 가평군 가평읍 대곡리 232-8번지","indutype":"농업 - 비료,사료,종자","category":"other"},{"name":"가농아그로","tel":"031-582-8810","addr":"경기도 가평군 가평읍 대곡리 232-8번지 외1필지","indutype":"농업 - 비료,사료,종자","category":"other"}]},{"lat":"37.826234715","long":"127.51138435","imageIndex":17,"items":[{"name":"가평OA","tel":"031-582-9077","addr":"경기도 가평군 가평읍 대곡리 258-23번지","indutype":"사무통신 - 사무용 OA기기","category":"other"},{"name":"가평OA/특별할부","tel":"031-582-9077","addr":"경기도 가평군 가평읍 대곡리 258-23번지","indutype":"사무통신 - 사무용 OA기기","category":"other"}]},{"lat":"37.819124158","long":"127.51397044","imageIndex":17,"items":[{"name":"가평고물상","tel":"031-582-2201","addr":"경기도 가평군 가평읍 대곡리 109-3번지","indutype":"신변잡화 - 기타잡화","category":"other"}]},{"lat":"37.824512795","long":"127.51580216","imageIndex":17,"items":[{"name":"가평군산림조합","tel":"031-582-2207","addr":"경기도 가평군 가평읍 대곡리 168-7","indutype":"유통업 비영리 - 기타비영리유통","category":"other"}]},{"lat":"37.822314456","long":"127.51374257","imageIndex":17,"items":[{"name":"가평기획렌탈","tel":"031-581-8946","addr":"경기도 가평군 가평읍 대곡리 148-1","indutype":"신변잡화 - 기타잡화","category":"other"}]},{"lat":"37.828647627","long":"127.50966303","imageIndex":17,"items":[{"name":"가평로타리클럽","tel":"031-582-3076","addr":"경기도 가평군 가평읍 대곡리 285-9번지","indutype":"기타 - 비영리/대상","category":"other"}]},{"lat":"37.81970896","long":"127.51415619","imageIndex":17,"items":[{"name":"가평신용전기조명","tel":"031-582-7572","addr":"경기도 가평군 가평읍 대곡리 103-4번지 1층","indutype":"건축자재 - 조명기구","category":"other"}]},{"lat":"37.822291762","long":"127.51688849","imageIndex":17,"items":[{"name":"가평지게차","tel":"031-582-9104","addr":"경기도 가평군 가평읍 대곡리 209-2번지","indutype":"기타 - 기계공구","category":"other"}]},{"lat":"37.824454475","long":"127.51471139","imageIndex":17,"items":[{"name":"가평축산업협동조합","tel":"031-582-4111","addr":"경기도 가평군 가평읍 대곡리 166-2번지","indutype":"농업 - 비료,사료,종자","category":"other"},{"name":"가평축산업협동조합","tel":"031-582-4111","addr":"경기도 가평군 가평읍 대곡리 166-2번지","indutype":"농업 - 비료,사료,종자","category":"other"},{"name":"가평축산업협동조합","tel":"031-581-4111","addr":"경기도 가평군 가평읍 대곡리 166-2번지","indutype":"유통업 비영리 - 농,축협 직영매장","category":"other"},{"name":"가평축협 본점","tel":"031-582-4111","addr":"경기도 가평군 가평읍 대곡리 166-2번지","indutype":"농업 - 비료,사료,종자","category":"other"}]},{"lat":"37.825595861","long":"127.51535533","imageIndex":17,"items":[{"name":"경기농약사","tel":"031-581-2204","addr":"경기도 가평군 가평읍 대곡리 228번지","indutype":"농업 - 비료,사료,종자","category":"other"},{"name":"경기농약사","tel":"031-581-2204","addr":"경기도 가평군 가평읍 대곡리 228번지","indutype":"농업 - 비료,사료,종자","category":"other"},{"name":"유앤미스킨케어","tel":"031-582-5756","addr":"경기도 가평군 가평읍 대곡리 228번지 경기농약사 3층 301호","indutype":"회원제형태 - 기타4","category":"other"}]},{"lat":"37.823536054","long":"127.5166586","imageIndex":17,"items":[{"name":"경기도청/가평소방서현장지휘과","tel":"031-580-0318","addr":"경기도 가평군 가평읍 대곡리 213-5번지 가평소방서 1층 민원실","indutype":"용역 서비스 - 사무서비스","category":"other"}]},{"lat":"37.819487821","long":"127.51321201","imageIndex":17,"items":[{"name":"경춘종합상사","tel":"031-582-0015","addr":"경기도 가평군 가평읍 대곡리 107번지","indutype":"건축자재 - 기타건축자재","category":"other"}]},{"lat":"37.813097276","long":"127.49913167","imageIndex":17,"items":[{"name":"경춘종합상사 ","tel":"","addr":"경기도 가평군 가평읍 대곡리 107번지","indutype":"","category":"other"}]},{"lat":"37.826153535","long":"127.51140651","imageIndex":17,"items":[{"name":"귀뚜라미보일러A/S지정점","tel":"031-581-9000","addr":"경기도 가평군 가평읍 대곡리 261-1번지","indutype":"건축자재 - 보일러·펌프·샷시","category":"other"}]},{"lat":"37.826154712","long":"127.51113392","imageIndex":17,"items":[{"name":"김민수 포토 스튜디오","tel":"031-581-0300","addr":"경기도 가평군 가평읍 대곡리 258-22","indutype":"광학제품 - 사진관","category":"other"},{"name":"허스트","tel":"031-581-8711","addr":"경기도 가평군 가평읍 대곡리 258-22번지 승우체육관 3층 2호","indutype":"신변잡화 - 기타잡화","category":"other"},{"name":"허스트","tel":"031-581-8711","addr":"경기도 가평군 가평읍 대곡리 258-22번지 승우체육관 3층 2호","indutype":"용역 서비스 - 종합용역","category":"other"}]},{"lat":"37.825790382","long":"127.51412999","imageIndex":17,"items":[{"name":"꽃빛 바느질","tel":"031-582-0130","addr":"경기도 가평군 가평읍 대곡리 239-5번지 ARIDAUM","indutype":"직물 - 침구·수예점","category":"other"},{"name":"닛시","tel":"031-581-5008","addr":"경기도 가평군 가평읍 대곡리 239-5번지","indutype":"의류 - 정장","category":"other"},{"name":"우성아울렛","tel":"031-582-3636","addr":"경기도 가평군 가평읍 대곡리 239-5번지","indutype":"의류 - 정장","category":"other"}]},{"lat":"37.826261613","long":"127.51349718","imageIndex":17,"items":[{"name":"느낌하우징","tel":"031-581-2456","addr":"경기도 가평군 가평읍 대곡리 236-6번지","indutype":"건축자재 - 인테리어전문","category":"other"},{"name":"종로사","tel":"031-582-2507","addr":"경기도 가평군 가평읍 대곡리 236-6","indutype":"유통업 영리 - 기타유통업","category":"other"}]},{"lat":"37.823875425","long":"127.51527529","imageIndex":17,"items":[{"name":"다락방","tel":"","addr":"경기도 가평군 가평읍 대곡리 189-5번지 삼성홈타운","indutype":"의류 - 정장","category":"other"}]},{"lat":"37.825512776","long":"127.5137419","imageIndex":17,"items":[{"name":"다모아수입코너","tel":"031-582-0755","addr":"경기도 가평군 가평읍 대곡리 240-10번지","indutype":"의류 - 정장","category":"other"},{"name":"서울철물","tel":"031-582-2840","addr":"경기도 가평군 가평읍 대곡리 240-10번지","indutype":"기타 - 기계공구","category":"other"},{"name":"필그린인카운티","tel":"031-581-9386","addr":"경기도 가평군 가평읍 대곡리 240-10번지","indutype":"주방용구 - 주방용구","category":"other"}]},{"lat":"37.826538381","long":"127.51407836","imageIndex":17,"items":[{"name":"대림기업","tel":"031-581-0982","addr":"경기도 가평군 가평읍 대곡리 234-10번지","indutype":"기타 - 기계공구","category":"other"}]},{"lat":"37.823622825","long":"127.51535305","imageIndex":17,"items":[{"name":"대신전기","tel":"031-582-9888","addr":"경기도 가평군 가평읍 대곡리 195-3번지","indutype":"기타 - 기계공구","category":"other"},{"name":"코아폭스스포츠","tel":"031-582-8588","addr":"경기도 가평군 가평읍 대곡리 195-3번지","indutype":"레져용품 - 스포츠·레져용품","category":"other"},{"name":"코아폭스스포츠","tel":"031-582-8588","addr":"경기도 가평군 가평읍 대곡리 195-3번지","indutype":"레져용품 - 스포츠·레져용품","category":"other"}]},{"lat":"37.818009133","long":"127.51555273","imageIndex":17,"items":[{"name":"대영상사","tel":"031-582-2889","addr":"경기도 가평군 가평읍 대곡리 63-11번지","indutype":"기타 - 기계공구","category":"other"}]},{"lat":"37.826349684","long":"127.51396347","imageIndex":17,"items":[{"name":"대우전자","tel":"031-82-2526","addr":"경기도 가평군 가평읍 대곡리 234-7번지","indutype":"전기제품 - 가전제품","category":"other"}]},{"lat":"37.82651426","long":"127.51340805","imageIndex":17,"items":[{"name":"동아유리","tel":"031-582-2719","addr":"경기도 가평군 가평읍 대곡리 236-2번지 동부화재","indutype":"건축자재 - 유리","category":"other"}]},{"lat":"37.828652701","long":"127.51474039","imageIndex":17,"items":[{"name":"동진판매상사","tel":"031-582-7544","addr":"경기도 가평군 가평읍 대곡리 59-1번지","indutype":"직물 - 카페트,커튼,천막,지물","category":"other"}]},{"lat":"37.825708115","long":"127.51232347","imageIndex":17,"items":[{"name":"류성공구백화점","tel":"","addr":"경기도 가평군 가평읍 대곡리 530번지","indutype":"기타 - 기계공구","category":"other"},{"name":"이마트24 가평뮤직빌리지점","tel":"","addr":"경기도 가평군 가평읍 대곡리 145-4번지","indutype":"유통영리-편의점","category":"other"}]},{"lat":"37.825846851","long":"127.51357383","imageIndex":17,"items":[{"name":"미광세탁소","tel":"031-582-4115","addr":"경기도 가평군 가평읍 대곡리 240-1번지","indutype":"수리서비스 - 세탁소","category":"other"},{"name":"미광세탁소","tel":"031-582-4115","addr":"경기도 가평군 가평읍 대곡리 240-1","indutype":"수리서비스 - 세탁소","category":"other"}]},{"lat":"37.818691548","long":"127.51607988","imageIndex":17,"items":[{"name":"미래와사람","tel":"031-582-7743","addr":"경기도 가평군 가평읍 대곡리 73번지 맘모스빌라 A동 102호","indutype":"유통업 영리 - 기타유통업","category":"other"}]},{"lat":"37.825984486","long":"127.51507406","imageIndex":17,"items":[{"name":"민텔레콤","tel":"031-582-7997","addr":"경기도 가평군 가평읍 대곡리 232-5번지","indutype":"사무통신 - 통신기기","category":"other"},{"name":"크레파스","tel":"031-582-5580","addr":"경기도 가평군 가평읍 대곡리 232-5번지","indutype":"서적문구 - 문구용품","category":"other"}]},{"lat":"37.828037902","long":"127.51107868","imageIndex":17,"items":[{"name":"바오","tel":"031-582-3100","addr":"경기도 가평군 가평읍 대곡리 277-1번지","indutype":"의류 - 정장","category":"other"}]},{"lat":"37.826154849","long":"127.50690864","imageIndex":17,"items":[{"name":"배금산건강원","tel":"031-4061-061","addr":"경기도 가평군 가평읍 대곡리 171","indutype":"건강원","category":"other"},{"name":"현대화원","tel":"031-582-4422","addr":"경기도 가평군 가평읍 대곡리 230","indutype":"문화.취미 - 화원","category":"other"},{"name":"화장품왕도매점","tel":"031-582-5544","addr":"경기도 가평군 가평읍 대곡리 230-3","indutype":"화장품","category":"other"}]},{"lat":"37.825710619","long":"127.51174422","imageIndex":17,"items":[{"name":"별다리캠핑","tel":"031-581-3591","addr":"경기도 가평군 가평읍 대곡리 262-7번지 별다리캠핑","indutype":"레져용품 - 스포츠·레져용품","category":"other"}]},{"lat":"37.825872148","long":"127.50980307","imageIndex":17,"items":[{"name":"보경전력주식회사","tel":"031-582-7572","addr":"경기도 가평군 가평읍 대곡리 270-2번지","indutype":"용역 서비스 - 기타용역서비스","category":"other"}]},{"lat":"37.823732622","long":"127.51288914","imageIndex":17,"items":[{"name":"사단법인 가평음악문화발전협의회","tel":"031-582-3909","addr":"경기도 가평군 가평읍 대곡리 148-3번지 (가평뮤직빌리지 음악역 1939)","indutype":"문화.취미 - 영화관","category":"other"}]},{"lat":"37.822926581","long":"127.51386036","imageIndex":17,"items":[{"name":"삼화페인트가평공사","tel":"031-581-3377","addr":"경기도 가평군 가평읍 대곡리 154-3","indutype":"용역 서비스 - 기타용역서비스","category":"other"}]},{"lat":"37.821400867","long":"127.50410507","imageIndex":17,"items":[{"name":"상미식물원","tel":"031-582-1588","addr":"경기도 가평군 가평읍 대곡리 441-1","indutype":"문화.취미 - 화원","category":"other"}]},{"lat":"37.826369869","long":"127.51346385","imageIndex":17,"items":[{"name":"서울건재","tel":"031-582-6654","addr":"경기도 가평군 가평읍 대곡리 236-5","indutype":"건축자재 - 기타건축자재","category":"other"}]},{"lat":"37.825709547","long":"127.51407264","imageIndex":17,"items":[{"name":"서울스튜디오","tel":"031-582-5144","addr":"경기도 가평군 가평읍 대곡리 239-4번지","indutype":"광학제품 - 사진관","category":"other"}]},{"lat":"37.825432286","long":"127.51360504","imageIndex":17,"items":[{"name":"성광지물","tel":"031-582-2177","addr":"경기도 가평군 가평읍 대곡리 241-2","indutype":"직물 - 카페트,커튼,천막,지물","category":"other"}]},{"lat":"37.817733703","long":"127.51466499","imageIndex":17,"items":[{"name":"세븐일레븐가평자라째즈점","tel":"","addr":"경기도 가평군 가평읍 대곡리 68-4번지","indutype":"유통업 영리 - 편 의 점","category":"other"}]},{"lat":"37.826149216","long":"127.51240601","imageIndex":17,"items":[{"name":"수연철망건설","tel":"031-581-0161","addr":"경기도 가평군 가평읍 대곡리 247-4번지 수연철망","indutype":"건축자재 - 목재·석재·철물","category":"other"}]},{"lat":"37.826321911","long":"127.51205509","imageIndex":17,"items":[{"name":"씨유가평종합운동장점","tel":"031-582-5113","addr":"경기도 가평군 가평읍 대곡리 245번지 1층","indutype":"유통업 영리 - 편 의 점","category":"other"}]},{"lat":"37.8248739","long":"127.51563429","imageIndex":17,"items":[{"name":"씨유가평터미널점","tel":"031-582-7832","addr":"경기도 가평군 가평읍 대곡리 167-4","indutype":"유통업 영리 - 편 의 점","category":"other"},{"name":"씨유가평터미널점","tel":"031-582-7832","addr":"경기도 가평군 가평읍 대곡리 167-4번지","indutype":"유통업 영리 - 편 의 점","category":"other"},{"name":"영아트","tel":"031-582-9189","addr":"경기도 가평군 가평읍 대곡리 164-1","indutype":"서적문구 - 문구용품","category":"other"}]},{"lat":"37.819458824","long":"127.5136661","imageIndex":17,"items":[{"name":"아림광고기획","tel":"031-582-1933","addr":"경기도 가평군 가평읍 대곡리 106-1번지 4호","indutype":"건축자재 - 인테리어전문","category":"other"}]},{"lat":"37.825675284","long":"127.51366351","imageIndex":17,"items":[{"name":"아이비클럽","tel":"031-582-7901","addr":"경기도 가평군 가평읍 대곡리 240-9번지","indutype":"의류 - 스포츠의류","category":"other"},{"name":"아이비클럽","tel":"031-582-7901","addr":"경기도 가평군 가평읍 대곡리 230-23번지","indutype":"의류 - 스포츠의류","category":"other"},{"name":"호야","tel":"031-582-1253","addr":"경기도 가평군 가평읍 대곡리 240-9번지 1층","indutype":"의류 - 정장","category":"other"}]},{"lat":"37.825259192","long":"127.51404682","imageIndex":17,"items":[{"name":"아이비클럽","tel":"031-582-7901","addr":"경기도 가평군 가평읍 대곡리 230-23번지 (외1)","indutype":"레져용품 - 스포츠·레져용품","category":"other"},{"name":"제일신발","tel":"031-582-1942","addr":"경기도 가평군 가평읍 대곡리 230-23번지","indutype":"신변잡화 - 신발","category":"other"},{"name":"현대환경디자인 주식회사","tel":"031-582-5557","addr":"경기도 가평군 가평읍 대곡리 230-23","indutype":"용역 서비스 - 종합용역","category":"other"}]},{"lat":"37.828290646","long":"127.51096683","imageIndex":17,"items":[{"name":"알파가평 주식회사","tel":"031-581-7372","addr":"경기도 가평군 가평읍 대곡리 282-5번지 1층","indutype":"서적문구 - 문구용품","category":"other"}]},{"lat":"37.824711314","long":"127.51365687","imageIndex":17,"items":[{"name":"영아트","tel":"031-582-9189","addr":"경기도 가평군 가평읍 대곡리 164-8","indutype":"서적문구 - 문구용품","category":"other"}]},{"lat":"37.818316322","long":"127.51119374","imageIndex":17,"items":[{"name":"온엑스테크","tel":"031-582-0625","addr":"경기도 가평군 가평읍 대곡리 406-3번지 2층 201호","indutype":"용역 서비스 - 종합용역","category":"other"}]},{"lat":"37.824738269","long":"127.51574693","imageIndex":17,"items":[{"name":"올림픽체육사","tel":"031-582-3165","addr":"경기도 가평군 가평읍 대곡리 167-2번지","indutype":"레져용품 - 스포츠·레져용품","category":"other"},{"name":"올림픽체육사","tel":"031-582-3165","addr":"경기도 가평군 가평읍 대곡리 167-2번지","indutype":"레져용품 - 스포츠·레져용품","category":"other"}]},{"lat":"37.82495239","long":"127.51415828","imageIndex":17,"items":[{"name":"완구점바우바우","tel":"031-582-0798","addr":"경기도 가평군 가평읍 대곡리 230-3번지","indutype":"서적문구 - 완구점","category":"other"},{"name":"한솔통신","tel":"031-581-3858","addr":"경기도 가평군 가평읍 대곡리 230-3번지 카라 마사지숍 1층 103호","indutype":"사무통신 - 통신기기","category":"other"}]},{"lat":"37.826348205","long":"127.51430421","imageIndex":17,"items":[{"name":"유명상회","tel":"031-582-2259","addr":"경기도 가평군 가평읍 대곡리 234-6번지","indutype":"직물 - 카페트,커튼,천막,지물","category":"other"}]},{"lat":"37.821869414","long":"127.51249016","imageIndex":17,"items":[{"name":"이마트24 가평뮤직빌리지점","tel":"031-1111-1111","addr":"경기도 가평군 가평읍 대곡리 145-4번지","indutype":"유통업 영리 - 편 의 점","category":"other"}]},{"lat":"37.823654788","long":"127.51421748","imageIndex":17,"items":[{"name":"조은보일러","tel":"031-581-8577","addr":"경기도 가평군 가평읍 대곡리 172","indutype":"수리서비스 - 기타수리서비스","category":"other"}]},{"lat":"37.82679318","long":"127.5114109","imageIndex":17,"items":[{"name":"주식회사백율건축사무소","tel":"031-582-4300","addr":"경기도 가평군 가평읍 대곡리 276-5","indutype":"용역 서비스 - 사무서비스","category":"other"}]},{"lat":"37.822258334","long":"127.51005094","imageIndex":17,"items":[{"name":"주식회사서희투어","tel":"031-582-1116","addr":"경기도 가평군 가평읍 대곡리 379-9번지 서희투어","indutype":"여행 - 관광여행","category":"other"}]},{"lat":"37.82331471","long":"127.51369267","imageIndex":17,"items":[{"name":"지평문짝","tel":"031-581-4971","addr":"경기도 가평군 가평읍 대곡리 155-2","indutype":"건축자재 - 기타건축자재","category":"other"}]},{"lat":"37.823069543","long":"127.51413394","imageIndex":17,"items":[{"name":"차예마을 가평점","tel":"","addr":"경기도 가평군 가평읍 대곡리 177-1번지","indutype":"주방용구 - 주방용식기","category":"other"}]},{"lat":"37.826150252","long":"127.51424605","imageIndex":17,"items":[{"name":"천지","tel":"031-581-1627","addr":"경기도 가평군 가평읍 대곡리 239-1","indutype":"사무통신 - 컴퓨터","category":"other"}]},{"lat":"37.823542336","long":"127.5152162","imageIndex":17,"items":[{"name":"크린위드","tel":"031-581-5500","addr":"경기도 가평군 가평읍 대곡리 196-1","indutype":"수리서비스 - 세탁소","category":"other"},{"name":"크린위드","tel":"031-581-5500","addr":"경기도 가평군 가평읍 대곡리 196-1번지","indutype":"수리서비스 - 세탁소","category":"other"}]},{"lat":"37.824954883","long":"127.51565757","imageIndex":17,"items":[{"name":"풍선&이벤트","tel":"031-582-7749","addr":"경기도 가평군 가평읍 대곡리 227-1","indutype":"용역 서비스 - 사무서비스","category":"other"}]},{"lat":"37.821219912","long":"127.50428557","imageIndex":17,"items":[{"name":"한빛전력주식회사","tel":"031-581-8209","addr":"경기도 가평군 가평읍 대곡리 441-1번지 정동주택 가동 101호","indutype":"용역 서비스 - 기타용역서비스","category":"other"}]},{"lat":"37.826176934","long":"127.51432575","imageIndex":17,"items":[{"name":"해표사료","tel":"031-582-2205","addr":"경기도 가평군 가평읍 대곡리 234-6번지","indutype":"농업 - 비료,사료,종자","category":"other"},{"name":"해표사료","tel":"031-582-2205","addr":"경기도 가평군 가평읍 대곡리 231-9번지","indutype":"농업 - 비료,사료,종자","category":"other"}]},{"lat":"37.825931024","long":"127.51493739","imageIndex":17,"items":[{"name":"해피타운플러스주식회사","tel":"02-470-8104","addr":"경기도 가평군 가평읍 대곡리 232-3번지","indutype":"회원제형태 - 기타4","category":"other"}]},{"lat":"37.824233514","long":"127.51580023","imageIndex":17,"items":[{"name":"현대장식","tel":"031-582-3152","addr":"경기도 가평군 가평읍 대곡리 189-1번지","indutype":"직물 - 카페트,커튼,천막,지물","category":"other"}]},{"lat":"37.825206074","long":"127.51383065","imageIndex":17,"items":[{"name":"흥농농약사","tel":"031-582-2725","addr":"경기도 가평군 가평읍 대곡리 238-3번지","indutype":"농업 - 비료,사료,종자","category":"other"},{"name":"흥농농약사","tel":"031-582-2725","addr":"경기도 가평군 가평읍 대곡리 240-3번지","indutype":"농업 - 비료,사료,종자","category":"other"}]}]