[{"lat":"37.318769383","long":"127.50112055","imageIndex":7,"items":[{"name":"(주)건강한우리","tel":"0000-1670-8123","addr":"경기도 이천시 백사면 내촌리 151-1번지","indutype":"건강식품 - 기타건강식품","category":"food"},{"name":"길경영농조합법인","tel":"031-631-0905","addr":"경기도 이천시 백사면 내촌리 151-1번지","indutype":"음료식품 - 농·축·수산품","category":"food"}]},{"lat":"37.315488342","long":"127.4949846","imageIndex":7,"items":[{"name":"가촌 사회적협동조합","tel":"031-631-8383","addr":"경기도 이천시 백사면 내촌리 254번지","indutype":"음료식품 - 기타음료식품","category":"food"}]},{"lat":"37.323933574","long":"127.50292596","imageIndex":7,"items":[{"name":"내촌농장","tel":"031-635-8560","addr":"경기도 이천시 백사면 내촌리 210번지","indutype":"음료식품 - 농·축·수산품","category":"food"}]},{"lat":"37.31576868","long":"127.49473825","imageIndex":17,"items":[{"name":"금강","tel":"031-638-0222","addr":"경기도 이천시 백사면 내촌리 263-1번지","indutype":"용역 서비스 - 기타용역서비스","category":"other"}]},{"lat":"37.324855244","long":"127.49801294","imageIndex":17,"items":[{"name":"더바른싱크","tel":"031-633-4744","addr":"경기도 이천시 백사면 내촌리 232-1번지","indutype":"가구 - 일반가구","category":"other"}]},{"lat":"37.316294495","long":"127.50257076","imageIndex":17,"items":[{"name":"아트타일","tel":"031-635-6779","addr":"경기도 이천시 백사면 내촌리 108번지 1층","indutype":"건축자재 - 건축용 요업제품","category":"other"},{"name":"이천부자재","tel":"031-000-0000","addr":"경기도 이천시 백사면 내촌리 108번지","indutype":"직물 - 카페트,커튼,천막,지물","category":"other"}]},{"lat":"37.31793213","long":"127.50095709","imageIndex":17,"items":[{"name":"우경아그로텍","tel":"","addr":"경기도 이천시 백사면 내촌리 145-1번지","indutype":"농업 - 기타농업관련","category":"other"}]},{"lat":"37.319160578","long":"127.50661724","imageIndex":17,"items":[{"name":"정담은도자기","tel":"031-636-3033","addr":"경기도 이천시 백사면 내촌리 47-26번지","indutype":"문화.취미 - 문화취미기타","category":"other"}]},{"lat":"37.315241055","long":"127.50239458","imageIndex":16,"items":[{"name":"백사어린이집[아이행복]","tel":"031-631-9020","addr":"경기도 이천시 백사면 내촌리 105번지","indutype":"학원 - 유아원","category":"study"}]}]