[{"lat":"37.815952933","long":"127.16280863","imageIndex":4,"items":[{"name":"거구참숯왕갈비","tel":"","addr":"경기도 포천시 소흘읍 이가팔리 26-13번지","indutype":"일반휴게음식 - 일반한식","category":"restaurant"}]},{"lat":"37.824450977","long":"127.15436517","imageIndex":4,"items":[{"name":"고기명가","tel":"543-6786","addr":"경기도 포천시 소흘읍 이가팔리 457-11번지","indutype":"음식 - 한식","category":"restaurant"},{"name":"고기명가","tel":"031-543-6786","addr":"경기도 포천시 소흘읍 이가팔리 457-11번지","indutype":"일반휴게음식 - 일반한식","category":"restaurant"}]},{"lat":"37.819841843","long":"127.15844442","imageIndex":4,"items":[{"name":"고인돌식당","tel":"031-542-4947","addr":"경기도 포천시 소흘읍 이가팔리 565-10","indutype":"일반휴게음식 - 일반한식","category":"restaurant"}]},{"lat":"37.823061547","long":"127.15589565","imageIndex":4,"items":[{"name":"내가잘가는집","tel":"031-541-9513","addr":"경기도 포천시 소흘읍 이가팔리 441-2번지","indutype":"일반휴게음식 - 일반한식","category":"restaurant"}]},{"lat":"37.826418227","long":"127.15185898","imageIndex":4,"items":[{"name":"능이버섯 백숙","tel":"541-4470","addr":"경기도 포천시 소흘읍 이가팔리 326번지","indutype":"음식 - 한식","category":"restaurant"},{"name":"능이버섯백숙","tel":"031-541-4470","addr":"경기도 포천시 소흘읍 이가팔리 326번지","indutype":"일반휴게음식 - 일반한식","category":"restaurant"},{"name":"헤이 커멍","tel":"542-0773","addr":"경기도 포천시 소흘읍 이가팔리 326번지 B동 1층","indutype":"음식 - 커피 등","category":"restaurant"},{"name":"헤이,커멍","tel":"031-542-0773","addr":"경기도 포천시 소흘읍 이가팔리 326번지 B동 1층","indutype":"일반휴게음식 - 서양음식","category":"restaurant"}]},{"lat":"37.823865146","long":"127.15453435","imageIndex":4,"items":[{"name":"대박포차","tel":"","addr":"경기도 포천시 소흘읍 이가팔리 456-4번지","indutype":"음식 - 한식","category":"restaurant"},{"name":"대박포차","tel":"031-542-8402","addr":"경기도 포천시 소흘읍 이가팔리 456-4번지","indutype":"일반휴게음식 - 일반한식","category":"restaurant"}]},{"lat":"37.818643066","long":"127.15883941","imageIndex":4,"items":[{"name":"디디치킨","tel":"031-543-4458","addr":"경기도 포천시 소흘읍 이가팔리 730번지 1층","indutype":"일반휴게음식 - 스넥","category":"restaurant"},{"name":"디디치킨","tel":"543-4458","addr":"경기도 포천시 소흘읍 이가팔리 730번지","indutype":"음식 - 치킨","category":"restaurant"},{"name":"청해진","tel":"031-541-3471","addr":"경기도 포천시 소흘읍 이가팔리 730번지","indutype":"일반휴게음식 - 중국식","category":"restaurant"},{"name":"청해진","tel":"541-34712","addr":"경기도 포천시 소흘읍 이가팔리 730번지","indutype":"음식 - 중식","category":"restaurant"}]},{"lat":"37.822230218","long":"127.15777932","imageIndex":4,"items":[{"name":"로얄타이","tel":"031-535-0825","addr":"경기도 포천시 소흘읍 이가팔리 545-1번지 2층","indutype":"일반휴게음식 - 서양음식","category":"restaurant"},{"name":"치우치우","tel":"031-535-0825","addr":"경기도 포천시 소흘읍 이가팔리 545-1번지 2층","indutype":"일반휴게음식 - 서양음식","category":"restaurant"}]},{"lat":"37.823787396","long":"127.15192184","imageIndex":4,"items":[{"name":"목스녹스","tel":"543-5555","addr":"경기도 포천시 소흘읍 이가팔리 488번지 1층","indutype":"음식 - 커피 등","category":"restaurant"},{"name":"목스녹스","tel":"031-543-5555","addr":"경기도 포천시 소흘읍 이가팔리 488번지 1,2층","indutype":"일반휴게음식 - 서양음식","category":"restaurant"},{"name":"육향미","tel":"031-542-3277","addr":"경기도 포천시 소흘읍 이가팔리 488번지 1층","indutype":"일반휴게음식 - 일반한식","category":"restaurant"},{"name":"육향미","tel":"542-3277","addr":"경기도 포천시 소흘읍 이가팔리 488번지 1층","indutype":"음식 - 한식","category":"restaurant"}]},{"lat":"37.826759879","long":"127.15241624","imageIndex":4,"items":[{"name":"반푸드","tel":"031-543-5899","addr":"경기도 포천시 소흘읍 이가팔리 310-1번지 4층 KT 구내식당","indutype":"일반휴게음식 - 위탁급식업","category":"restaurant"}]},{"lat":"37.824758432","long":"127.15347986","imageIndex":4,"items":[{"name":"빵","tel":"","addr":"경기도 포천시 소흘읍 이가팔리 485-2번지 나동 1층","indutype":"음식 - 제빵","category":"restaurant"}]},{"lat":"37.81942729","long":"127.15853441","imageIndex":4,"items":[{"name":"수정식당","tel":"031-542-9831","addr":"경기도 포천시 소흘읍 이가팔리 565-6번지 1층","indutype":"일반휴게음식 - 일반한식","category":"restaurant"}]},{"lat":"37.825667829","long":"127.15391333","imageIndex":4,"items":[{"name":"왕뎅이선생","tel":"544-0481","addr":"경기도 포천시 소흘읍 이가팔리 476-5번지","indutype":"음식 - 한식","category":"restaurant"}]},{"lat":"37.826509295","long":"127.15108679","imageIndex":4,"items":[{"name":"의정부부대찌개.삼겹살","tel":"031-541-0677","addr":"경기도 포천시 소흘읍 이가팔리 320-3번지","indutype":"일반휴게음식 - 일반한식","category":"restaurant"}]},{"lat":"37.8243412506","long":"127.1556143396","imageIndex":4,"items":[{"name":"카페아리","tel":"031-302-6334","addr":"경기도 포천시 소흘읍 이가팔리 459번지 가동 1층","indutype":"일반휴게음식 - 서양음식","category":"restaurant"},{"name":"카페아리","tel":"","addr":"경기도 포천시 소흘읍 이가팔리 459번지","indutype":"음식 - 커피 등","category":"restaurant"}]},{"lat":"37.814870474","long":"127.16378297","imageIndex":4,"items":[{"name":"황금은행나무집","tel":"031-543-5850","addr":"경기도 포천시 소흘읍 이가팔리 28-6번지","indutype":"일반휴게음식 - 일반한식","category":"restaurant"}]},{"lat":"37.824063894","long":"127.1541145","imageIndex":4,"items":[{"name":"효자관","tel":"031-543-2898","addr":"경기도 포천시 소흘읍 이가팔리 456-6번지 1층","indutype":"일반휴게음식 - 중국식","category":"restaurant"},{"name":"효자관","tel":"543-2898","addr":"경기도 포천시 소흘읍 이가팔리 456-6번지","indutype":"음식 - 중식","category":"restaurant"}]}]