[{"lat":"37.40772172","long":"127.2554474","imageIndex":13,"items":[{"name":"Miss 2 헤어샵","tel":"031-734-8924","addr":"경기도 광주시 역동 1-6번지","indutype":"보건위생 - 미용원","category":"beauty"}]},{"lat":"37.39891884","long":"127.2468912","imageIndex":13,"items":[{"name":"ST HAIR & CARE (에스티헤어앤케어)","tel":"031-761-0831","addr":"경기도 광주시 역동 246번지 이편한세상광주역4단지 418동 지층 303호 1층","indutype":"보건위생 - 미용원","category":"beauty"},{"name":"스킨,담다","tel":"031-000-0000","addr":"경기도 광주시 역동 246번지 이편한세상광주역4단지 제416(상가)동 102호","indutype":"보건위생 - 피부미용실","category":"beauty"}]},{"lat":"37.40639277","long":"127.2575324","imageIndex":13,"items":[{"name":"가위손미용실","tel":"031-762-6658","addr":"경기도 광주시 역동 13-8번지","indutype":"보건위생 - 미용원","category":"beauty"}]},{"lat":"37.40761189","long":"127.2604167","imageIndex":13,"items":[{"name":"감성헤어샵.오늘","tel":"031-761-6017","addr":"경기도 광주시 역동 27-18번지 3층","indutype":"보건위생 - 미용원","category":"beauty"},{"name":"플러스아동발달센터","tel":"031-763-4052","addr":"경기도 광주시 역동 27-18번지","indutype":"보건위생 - 기타대인서비스","category":"beauty"}]},{"lat":"37.40808397","long":"127.2587806","imageIndex":13,"items":[{"name":"경기광주 해피케어","tel":"","addr":"경기도 광주시 역동 22-10번지 희망빌딩 4층 1호","indutype":"보건위생 - 기타대인서비스","category":"beauty"}]},{"lat":"37.40705467","long":"127.255592","imageIndex":13,"items":[{"name":"경미헤어#","tel":"031-767-0342","addr":"경기도 광주시 역동 1-141번지","indutype":"보건위생 - 미용원","category":"beauty"}]},{"lat":"37.40050614","long":"127.2547568","imageIndex":13,"items":[{"name":"골든라인","tel":"031-766-3538","addr":"경기도 광주시 역동 142-11번지 2층","indutype":"보건위생 - 미용재료","category":"beauty"}]},{"lat":"37.40847752","long":"127.2601147","imageIndex":13,"items":[{"name":"광주밝은안경","tel":"031-798-8288","addr":"경기도 광주시 역동 23-1번지 1층","indutype":"보건위생 - 안경","category":"beauty"},{"name":"헤어코코","tel":"031-762-7557","addr":"경기도 광주시 역동 23-1번지","indutype":"보건위생 - 미용원","category":"beauty"}]},{"lat":"37.40775437","long":"127.2570288","imageIndex":13,"items":[{"name":"광주베스트","tel":"031-763-2120","addr":"경기도 광주시 역동 7-5번지","indutype":"보건위생 - 미용재료","category":"beauty"},{"name":"천궁의료기","tel":"031-766-8279","addr":"경기도 광주시 역동 7-5번지 2층","indutype":"보건위생 - 의료용품","category":"beauty"}]},{"lat":"37.40495164","long":"127.257313","imageIndex":13,"items":[{"name":"광주피아노백화점","tel":"031-797-5996","addr":"경기도 광주시 역동 61-5번지 1층","indutype":"보건위생 - 기타대인서비스","category":"beauty"}]},{"lat":"37.4068635","long":"127.260674","imageIndex":13,"items":[{"name":"굿맨남성컷트","tel":"031-766-7853","addr":"경기도 광주시 역동 27-11번지","indutype":"보건위생 - 미용원","category":"beauty"}]},{"lat":"37.408029","long":"127.2591983","imageIndex":13,"items":[{"name":"궁","tel":"031-761-8088","addr":"경기도 광주시 역동 22-7번지 2층","indutype":"보건위생 - 기타대인서비스","category":"beauty"}]},{"lat":"37.40730796","long":"127.2593088","imageIndex":13,"items":[{"name":"글라스박스안경원","tel":"031-762-2030","addr":"경기도 광주시 역동 23-4번지","indutype":"보건위생 - 안경","category":"beauty"}]},{"lat":"37.40745121","long":"127.2597272","imageIndex":13,"items":[{"name":"글라스플라이","tel":"031-798-3434","addr":"경기도 광주시 역동 25-11번지","indutype":"보건위생 - 안경","category":"beauty"}]},{"lat":"37.40741579","long":"127.2552543","imageIndex":13,"items":[{"name":"까꼬복꼬샤방샤방미용실","tel":"032-111-1111","addr":"경기도 광주시 역동 1-135번지 1층","indutype":"보건위생 - 미용원","category":"beauty"}]},{"lat":"37.40516729","long":"127.2575848","imageIndex":13,"items":[{"name":"내멋대로피부샵","tel":"070-7761-2564","addr":"경기도 광주시 역동 48-6번지","indutype":"보건위생 - 피부미용실","category":"beauty"}]},{"lat":"37.40700377","long":"127.2583138","imageIndex":13,"items":[{"name":"네일블로그","tel":"070-7565-0810","addr":"경기도 광주시 역동 16-4번지 1층","indutype":"보건위생 - 피부미용실","category":"beauty"}]},{"lat":"37.40263886","long":"127.2560063","imageIndex":13,"items":[{"name":"뉴가위소리","tel":"070-7954-8272","addr":"경기도 광주시 역동 68-20번지","indutype":"보건위생 - 미용원","category":"beauty"}]},{"lat":"37.40836213","long":"127.2593124","imageIndex":13,"items":[{"name":"다샘피부관리","tel":"031-762-0356","addr":"경기도 광주시 역동 22-5번지","indutype":"보건위생 - 피부미용실","category":"beauty"},{"name":"베라헤어","tel":"031-764-3369","addr":"경기도 광주시 역동 22-5번지","indutype":"보건위생 - 미용원","category":"beauty"}]},{"lat":"37.40133619","long":"127.2542288","imageIndex":13,"items":[{"name":"다올by경빈","tel":"031-699-8333","addr":"경기도 광주시 역동 134-70번지 1층","indutype":"보건위생 - 피부미용실","category":"beauty"}]},{"lat":"37.40701385","long":"127.2578169","imageIndex":13,"items":[{"name":"다현 헤어샵","tel":"031-766-8289","addr":"경기도 광주시 역동 7-3번지 동양파크빌","indutype":"보건위생 - 미용원","category":"beauty"}]},{"lat":"37.40783682","long":"127.2605643","imageIndex":13,"items":[{"name":"라온","tel":"070-9144-0098","addr":"경기도 광주시 역동 27-6번지 2층","indutype":"보건위생 - 미용재료","category":"beauty"},{"name":"바른","tel":"070-9144-0098","addr":"경기도 광주시 역동 27-6번지 2층 1호","indutype":"보건위생 - 기타대인서비스","category":"beauty"}]},{"lat":"37.4084177","long":"127.2586123","imageIndex":13,"items":[{"name":"류옵티컬","tel":"031-762-0247","addr":"경기도 광주시 역동 20-12번지","indutype":"보건위생 - 안경","category":"beauty"},{"name":"메디카","tel":"031-769-4233","addr":"경기도 광주시 역동 20-12번지","indutype":"보건위생 - 의료용품","category":"beauty"}]},{"lat":"37.40783925","long":"127.2594462","imageIndex":13,"items":[{"name":"마벨헤어","tel":"031-763-5655","addr":"경기도 광주시 역동 23-2번지 대영빌딩 2층","indutype":"보건위생 - 미용원","category":"beauty"},{"name":"보떼경기광주점","tel":"031-761-2006","addr":"경기도 광주시 역동 23-2번지 대영빌딩","indutype":"보건위생 - 화장품","category":"beauty"}]},{"lat":"37.40586388","long":"127.2604446","imageIndex":13,"items":[{"name":"마터피아 (Materpia) 광주","tel":"031-764-8031","addr":"경기도 광주시 역동 27-102번지","indutype":"보건위생 - 기타대인서비스","category":"beauty"}]},{"lat":"37.40566844","long":"127.2591677","imageIndex":13,"items":[{"name":"만호","tel":"011-***-****","addr":"경기도 광주시 역동 27-30번지","indutype":"보건위생 - 화장품","category":"beauty"}]},{"lat":"37.40655922","long":"127.2597242","imageIndex":13,"items":[{"name":"매일이용원","tel":"031-797-3986","addr":"경기도 광주시 역동 27-28번지","indutype":"보건위생 - 이용원","category":"beauty"}]},{"lat":"37.40739414","long":"127.2569485","imageIndex":13,"items":[{"name":"매직헤어","tel":"031-797-0711","addr":"경기도 광주시 역동 6-3번지","indutype":"보건위생 - 미용원","category":"beauty"}]},{"lat":"37.40539541","long":"127.2562528","imageIndex":13,"items":[{"name":"머리쟁이","tel":"031-761-9655","addr":"경기도 광주시 역동 51-2번지","indutype":"보건위생 - 미용원","category":"beauty"}]},{"lat":"37.406612","long":"127.2561439","imageIndex":13,"items":[{"name":"명동화장품","tel":"031-765-2060","addr":"경기도 광주시 역동 2-2번지 1층","indutype":"보건위생 - 화장품","category":"beauty"},{"name":"주희미용실","tel":"031-762-1685","addr":"경기도 광주시 역동 2-2번지","indutype":"보건위생 - 미용원","category":"beauty"}]},{"lat":"37.39911201","long":"127.2536115","imageIndex":13,"items":[{"name":"미(  )2헤어샵","tel":"031-789-2179","addr":"경기도 광주시 역동 213-1번지 103호","indutype":"보건위생 - 미용원","category":"beauty"},{"name":"휴소리케어네트워크휴보청기","tel":"031-762-4321","addr":"경기도 광주시 역동 213-1번지 2층 202호 계단우측사무실","indutype":"보건위생 - 의료용품","category":"beauty"}]},{"lat":"37.40661117","long":"127.2565279","imageIndex":13,"items":[{"name":"미래미용실","tel":"031-767-6747","addr":"경기도 광주시 역동 3-12번지","indutype":"보건위생 - 미용원","category":"beauty"}]},{"lat":"37.4075834","long":"127.2569265","imageIndex":13,"items":[{"name":"민헤어샵","tel":"031-798-1296","addr":"경기도 광주시 역동 6-1번지","indutype":"보건위생 - 미용원","category":"beauty"}]},{"lat":"37.40777761","long":"127.2545891","imageIndex":13,"items":[{"name":"배추머리","tel":"031-766-1720","addr":"경기도 광주시 역동 1-189번지 1층","indutype":"보건위생 - 미용원","category":"beauty"}]},{"lat":"37.40719942","long":"127.2595005","imageIndex":13,"items":[{"name":"보라안경","tel":"031-769-9994","addr":"경기도 광주시 역동 25-6번지 1층","indutype":"보건위생 - 안경","category":"beauty"},{"name":"이선아언어심리상담센터","tel":"031-767-5355","addr":"경기도 광주시 역동 25-6번지 4층","indutype":"보건위생 - 기타대인서비스","category":"beauty"}]},{"lat":"37.40730928","long":"127.2586989","imageIndex":13,"items":[{"name":"산모피아 광주이천여주점","tel":"031-761-2620","addr":"경기도 광주시 역동 16-3번지 상원오피스텔 5층 509호","indutype":"보건위생 - 기타대인서비스","category":"beauty"},{"name":"아이미래로","tel":"031-761-5992","addr":"경기도 광주시 역동 16-3번지 상원오피스텔 611호","indutype":"보건위생 - 기타대인서비스","category":"beauty"}]},{"lat":"37.40745001","long":"127.2602807","imageIndex":13,"items":[{"name":"석기시대","tel":"031-765-7997","addr":"경기도 광주시 역동 27-13번지 한솔빌딩 1층","indutype":"보건위생 - 이용원","category":"beauty"},{"name":"한마음가정상담소","tel":"031-765-1336","addr":"경기도 광주시 역동 27-13번지","indutype":"보건위생 - 기타대인서비스","category":"beauty"}]},{"lat":"37.40108261","long":"127.2548378","imageIndex":13,"items":[{"name":"신다경헤어라인","tel":"031-761-5121","addr":"경기도 광주시 역동 134-33번지","indutype":"보건위생 - 미용원","category":"beauty"}]},{"lat":"37.40805801","long":"127.2582835","imageIndex":13,"items":[{"name":"썸타이테라피","tel":"031-797-6987","addr":"경기도 광주시 역동 8-19번지 성환빌딩 1호동 1동 501호","indutype":"보건위생 - 화장품","category":"beauty"}]},{"lat":"37.40836411","long":"127.2583975","imageIndex":13,"items":[{"name":"안경세상","tel":"031-767-9990","addr":"경기도 광주시 역동 20-15번지","indutype":"보건위생 - 안경","category":"beauty"}]},{"lat":"37.40306162","long":"127.2563353","imageIndex":13,"items":[{"name":"유니헤어","tel":"031-762-5725","addr":"경기도 광주시 역동 67-12번지","indutype":"보건위생 - 미용원","category":"beauty"}]},{"lat":"37.4074991","long":"127.2584172","imageIndex":13,"items":[{"name":"으뜸50안경","tel":"031-763-1103","addr":"경기도 광주시 역동 16-1번지","indutype":"보건위생 - 안경","category":"beauty"}]},{"lat":"37.40697199","long":"127.2605049","imageIndex":13,"items":[{"name":"컷트클럽","tel":"031-797-8400","addr":"경기도 광주시 역동 27-63번지","indutype":"보건위생 - 미용원","category":"beauty"},{"name":"황실피부미용","tel":"031-769-7932","addr":"경기도 광주시 역동 27-63번지 삼원빌딩 2층","indutype":"보건위생 - 피부미용실","category":"beauty"}]},{"lat":"37.40775017","long":"127.2547811","imageIndex":13,"items":[{"name":"크리스탈헤어샵","tel":"031-761-3108","addr":"경기도 광주시 역동 1-196번지 영공빌라 1층 102호","indutype":"보건위생 - 미용원","category":"beauty"},{"name":"황금머리미용실","tel":"031-761-1310","addr":"경기도 광주시 역동 1-196번지 영공빌라","indutype":"보건위생 - 미용원","category":"beauty"}]},{"lat":"37.39836657","long":"127.2481769","imageIndex":13,"items":[{"name":"헤어수아","tel":"031-764-4656","addr":"경기도 광주시 역동 190-5번지 1층 104호","indutype":"보건위생 - 미용원","category":"beauty"}]}]