[{"lat":"37.296703019","long":"126.93075727","imageIndex":4,"items":[{"name":"(주)에스엔제이푸드","tel":"031-899-8600","addr":"경기도 안산시 상록구 사사동 119-38번지 6층","indutype":"일반휴게음식 - 위탁급식업","category":"restaurant"}]},{"lat":"37.302513502","long":"126.91570532","imageIndex":4,"items":[{"name":"능이촌","tel":"031-438-5588","addr":"경기도 안산시 상록구 사사동 475-1번지","indutype":"일반휴게음식 - 일반한식","category":"restaurant"},{"name":"산촌쌈밥","tel":"031-416-7370","addr":"경기도 안산시 상록구 사사동 475-1번지","indutype":"일반휴게음식 - 일반한식","category":"restaurant"}]},{"lat":"37.302397203","long":"126.91684465","imageIndex":4,"items":[{"name":"다우리토종순대국","tel":"031-416-5972","addr":"경기도 안산시 상록구 사사동 479번지 1층","indutype":"일반휴게음식 - 일반한식","category":"restaurant"},{"name":"방일휴게소식당","tel":"031-419-0056","addr":"경기도 안산시 상록구 사사동 479번지 1층","indutype":"일반휴게음식 - 일반한식","category":"restaurant"}]},{"lat":"37.299061963","long":"126.92795791","imageIndex":4,"items":[{"name":"더드림푸드","tel":"031-417-8191","addr":"경기도 안산시 상록구 사사동 123-3번지","indutype":"일반휴게음식 - 일반한식","category":"restaurant"}]},{"lat":"37.298090903","long":"126.93126348","imageIndex":4,"items":[{"name":"미래한식부페","tel":"031-407-3246","addr":"경기도 안산시 상록구 사사동 119-29번지 3층","indutype":"일반휴게음식 - 일반한식","category":"restaurant"}]},{"lat":"37.298203071","long":"126.92348119","imageIndex":4,"items":[{"name":"반월부페","tel":"031-419-1911","addr":"경기도 안산시 상록구 사사동 243-21번지","indutype":"일반휴게음식 - 일반한식","category":"restaurant"}]},{"lat":"37.298339222","long":"126.92498109","imageIndex":4,"items":[{"name":"봉궁순대국본점/농업회사법인 (주)선진식품","tel":"031-439-0005","addr":"경기도 안산시 상록구 사사동 239-20번지 1층","indutype":"일반휴게음식 - 일반한식","category":"restaurant"}]},{"lat":"37.296595252","long":"126.93134384","imageIndex":4,"items":[{"name":"상록푸드","tel":"031-416-6500","addr":"경기도 안산시 상록구 사사동 119-69번지","indutype":"일반휴게음식 - 일반한식","category":"restaurant"}]},{"lat":"37.306008389","long":"126.92722912","imageIndex":4,"items":[{"name":"신도농장","tel":"031-419-1744","addr":"경기도 안산시 상록구 사사동 47-6번지 1층","indutype":"일반휴게음식 - 일반한식","category":"restaurant"}]},{"lat":"37.2986748","long":"126.92839816","imageIndex":4,"items":[{"name":"아름한식","tel":"031-419-2230","addr":"경기도 안산시 상록구 사사동 119-54번지 B동 1층","indutype":"일반휴게음식 - 일반한식","category":"restaurant"}]},{"lat":"37.293790066","long":"126.92654213","imageIndex":4,"items":[{"name":"아초원","tel":"031-419-3775","addr":"경기도 안산시 상록구 사사동 271-13번지 1층","indutype":"일반휴게음식 - 일반한식","category":"restaurant"}]},{"lat":"37.294285433","long":"126.92623713","imageIndex":4,"items":[{"name":"아초원별관","tel":"031-437-3838","addr":"경기도 안산시 상록구 사사동 271-5번지 외1필지 1층","indutype":"일반휴게음식 - 일반한식","category":"restaurant"}]},{"lat":"37.299653049","long":"126.92248714","imageIndex":4,"items":[{"name":"옛날시골밥상","tel":"031-419-1201","addr":"경기도 안산시 상록구 사사동 377-9번지 1층","indutype":"일반휴게음식 - 일반한식","category":"restaurant"},{"name":"옛날시골밥상","tel":"031-419-1201","addr":"경기도 안산시 상록구 사사동 377-9번지 1층","indutype":"일반휴게음식 - 일반한식","category":"restaurant"}]},{"lat":"37.298681043","long":"126.92412357","imageIndex":4,"items":[{"name":"웰빙밥상","tel":"031-416-2727","addr":"경기도 안산시 상록구 사사동 239-1","indutype":"일반휴게음식 - 일반한식","category":"restaurant"}]},{"lat":"37.296812094","long":"126.91856531","imageIndex":4,"items":[{"name":"임마누엘밥집","tel":"031-419-7338","addr":"경기도 안산시 상록구 사사동 397번지","indutype":"일반휴게음식 - 일반한식","category":"restaurant"}]},{"lat":"37.299901386","long":"126.91687005","imageIndex":4,"items":[{"name":"카페519","tel":"031-415-6666","addr":"경기도 안산시 상록구 사사동 519-4번지 2층","indutype":"일반휴게음식 - 서양음식","category":"restaurant"}]}]