[{"lat":"37.64960667","long":"126.78020784","imageIndex":8,"items":[{"name":"건강을요리하는약국","tel":"031-965-4321","addr":"경기도 고양시 일산동구 마두동 806번지 강촌마을6단지아파트","indutype":"약국 - 약국","category":"medical"},{"name":"경희선한약국","tel":"031-902-2889","addr":"경기도 고양시 일산동구 마두동 806번지 강촌마을6단지아파트","indutype":"약국 - 약국","category":"medical"},{"name":"올리브동물병원","tel":"031-908-7582","addr":"경기도 고양시 일산동구 마두동","indutype":"기타의료기관 - 동물병원","category":"medical"}]},{"lat":"37.657576199","long":"126.78774291","imageIndex":8,"items":[{"name":"경희솔한의원","tel":"031-903-7510","addr":"경기도 고양시 일산동구 마두동 753-4번지","indutype":"의원 - 한의원","category":"medical"},{"name":"일산하이치과의원","tel":"031-905-8275","addr":"경기도 고양시 일산동구 마두동 753-4번지","indutype":"의원 - 치과의원","category":"medical"}]},{"lat":"37.654849144","long":"126.78932596","imageIndex":8,"items":[{"name":"고양성모안과의원","tel":"031-905-1811","addr":"경기도 고양시 일산동구 마두동 737-2번지","indutype":"의원 - 의원","category":"medical"},{"name":"고양정형외과","tel":"031-905-9700","addr":"경기도 고양시 일산동구 마두동 737-2번지","indutype":"의원 - 의원","category":"medical"},{"name":"백마성동 한의원","tel":"031-901-8001","addr":"경기도 고양시 일산동구 마두동 737-2번지","indutype":"의원 - 한의원","category":"medical"},{"name":"보아스이비인후과의원","tel":"031-901-1227","addr":"경기도 고양시 일산동구 마두동 737-2번지","indutype":"의원 - 의원","category":"medical"},{"name":"일산사랑약국","tel":"031-903-8806","addr":"경기도 고양시 일산동구 마두동 737-2번지","indutype":"약국 - 약국","category":"medical"},{"name":"정다운치과의원","tel":"031-907-2804","addr":"경기도 고양시 일산동구 마두동 737-2번지","indutype":"의원 - 치과의원","category":"medical"},{"name":"최의원","tel":"031-904-6167","addr":"경기도 고양시 일산동구 마두동 737-2번지","indutype":"의원 - 의원","category":"medical"}]},{"lat":"37.652989257","long":"126.77754607","imageIndex":8,"items":[{"name":"고운결한의원(일산점)","tel":"031-903-7533","addr":"경기도 고양시 일산동구 마두동 798-6번지","indutype":"의원 - 한의원","category":"medical"}]},{"lat":"37.657406625","long":"126.78862734","imageIndex":8,"items":[{"name":"고은이치과","tel":"031-932-5575","addr":"경기도 고양시 일산동구 마두동 723-1번지","indutype":"의원 - 치과의원","category":"medical"},{"name":"남서한의원","tel":"031-904-8575","addr":"경기도 고양시 일산동구 마두동 723-1번지","indutype":"의원 - 한의원","category":"medical"}]},{"lat":"37.654739582","long":"126.78362617","imageIndex":8,"items":[{"name":"광제한의원","tel":"031-904-6327","addr":"경기도 고양시 일산동구 마두동 759번지","indutype":"의원 - 한의원","category":"medical"},{"name":"신일산동물병원","tel":"031-904-6681","addr":"경기도 고양시 일산동구 마두동 759번지","indutype":"기타의료기관 - 동물병원","category":"medical"}]},{"lat":"37.651657409","long":"126.77837731","imageIndex":8,"items":[{"name":"김영호신경통증클리닉","tel":"031-906-2094","addr":"경기도 고양시 일산동구 마두동 802-1번지","indutype":"의원 - 의원","category":"medical"},{"name":"마두온누리약국","tel":"031-905-8913","addr":"경기도 고양시 일산동구 마두동 802-1번지","indutype":"약국 - 약국","category":"medical"},{"name":"마두이비인후과의원","tel":"031-902-1862","addr":"경기도 고양시 일산동구 마두동 802-1번지","indutype":"의원 - 의원","category":"medical"},{"name":"시티약국","tel":"031-905-5599","addr":"경기도 고양시 일산동구 마두동 802-1번지","indutype":"의원 - 의원","category":"medical"},{"name":"신록내과","tel":"031-904-7575","addr":"경기도 고양시 일산동구 마두동","indutype":"의원 - 의원","category":"medical"},{"name":"은빛약국","tel":"031-907-0930","addr":"경기도 고양시 일산동구 마두동 802-1번지","indutype":"약국 - 약국","category":"medical"},{"name":"일산나을약국","tel":"031-902-9906","addr":"경기도 고양시 일산동구 마두동 802-1번지","indutype":"약국 - 약국","category":"medical"},{"name":"제일정신과의원","tel":"031-904-8111","addr":"경기도 고양시 일산동구 마두동 802-1번지","indutype":"의원 - 의원","category":"medical"},{"name":"진외과의원","tel":"031-901-3984","addr":"경기도 고양시 일산동구 마두동","indutype":"의원 - 의원","category":"medical"},{"name":"최치과의원","tel":"031-905-2275","addr":"경기도 고양시 일산동구 마두동 802-1번지","indutype":"의원 - 치과의원","category":"medical"},{"name":"한결한의원","tel":"031-905-2637","addr":"경기도 고양시 일산동구 마두동 802-1번지","indutype":"의원 - 한의원","category":"medical"}]},{"lat":"37.654270301","long":"126.78320826","imageIndex":8,"items":[{"name":"나병만내과","tel":"031-908-7570","addr":"경기도 고양시 일산동구 마두동 792-2번지","indutype":"의원 - 의원","category":"medical"},{"name":"대연치과","tel":"031-904-1751","addr":"경기도 고양시 일산동구 마두동 792-2번지","indutype":"의원 - 치과의원","category":"medical"},{"name":"새일산약국","tel":"031-902-8642","addr":"경기도 고양시 일산동구 마두동 792-2번지","indutype":"약국 - 약국","category":"medical"},{"name":"홍이비인후과의원","tel":"031-904-2917","addr":"경기도 고양시 일산동구 마두동 792-2번지","indutype":"의원 - 의원","category":"medical"}]},{"lat":"37.653572719","long":"126.79096142","imageIndex":8,"items":[{"name":"뉴코아약국","tel":"070-7723-9559","addr":"경기도 고양시 일산동구 마두동 731번지","indutype":"약국 - 약국","category":"medical"},{"name":"동인한의원","tel":"031-906-1255","addr":"경기도 고양시 일산동구 마두동 731번지","indutype":"의원 - 한의원","category":"medical"},{"name":"두리소아과","tel":"031-932-8222","addr":"경기도 고양시 일산동구 마두동 731번지","indutype":"의원 - 의원","category":"medical"},{"name":"이훈피부비뇨기과","tel":"031-905-5511","addr":"경기도 고양시 일산동구 마두동 731번지","indutype":"의원 - 의원","category":"medical"},{"name":"일산성모이비인후과의원","tel":"031-905-8912","addr":"경기도 고양시 일산동구 마두동 731번지","indutype":"의원 - 의원","category":"medical"},{"name":"일산윤내과의원","tel":"031-904-9138","addr":"경기도 고양시 일산동구 마두동 731번지","indutype":"의원 - 의원","category":"medical"},{"name":"형치과의원","tel":"031-907-2275","addr":"경기도 고양시 일산동구 마두동 731번지","indutype":"의원 - 치과의원","category":"medical"}]},{"lat":"37.65673915","long":"126.78820996","imageIndex":8,"items":[{"name":"다니엘동물병원","tel":"031-908-5857","addr":"경기도 고양시 일산동구 마두동 751-2번지","indutype":"기타의료기관 - 동물병원","category":"medical"}]},{"lat":"37.653799213","long":"126.77706767","imageIndex":8,"items":[{"name":"다정한한의원","tel":"031-908-7580","addr":"경기도 고양시 일산동구 마두동 798-1번지","indutype":"의원 - 한의원","category":"medical"}]},{"lat":"37.656713624","long":"126.7890373","imageIndex":8,"items":[{"name":"다주한의원","tel":"031-908-7885","addr":"경기도 고양시 일산동구 마두동 724번지","indutype":"의원 - 한의원","category":"medical"}]},{"lat":"37.657991287","long":"126.79310208","imageIndex":8,"items":[{"name":"동준한의원","tel":"031-907-7575","addr":"경기도 고양시 일산동구 마두동 744번지","indutype":"의원 - 한의원","category":"medical"},{"name":"벨피부과의원","tel":"031-902-4320","addr":"경기도 고양시 일산동구 마두동 744번지","indutype":"의원 - 의원","category":"medical"},{"name":"우주약국","tel":"031-907-0567","addr":"경기도 고양시 일산동구 마두동 744번지","indutype":"약국 - 약국","category":"medical"}]},{"lat":"37.651019404","long":"126.7792631","imageIndex":8,"items":[{"name":"마두경희한의원","tel":"031-901-3222","addr":"경기도 고양시 일산동구 마두동 804번지","indutype":"의원 - 한의원","category":"medical"},{"name":"연세내과의원","tel":"031-903-8281","addr":"경기도 고양시 일산동구 마두동 804번지","indutype":"의원 - 의원","category":"medical"},{"name":"이편한치과의원","tel":"031-906-7582","addr":"경기도 고양시 일산동구 마두동 804번지","indutype":"의원 - 치과의원","category":"medical"},{"name":"진영약국","tel":"031-904-3753","addr":"경기도 고양시 일산동구 마두동 804번지","indutype":"약국 - 약국","category":"medical"}]},{"lat":"37.653160288","long":"126.77746623","imageIndex":8,"items":[{"name":"맨남성의원","tel":"031-904-1999","addr":"경기도 고양시 일산동구 마두동 798-5번지","indutype":"의원 - 의원","category":"medical"},{"name":"지키미한의원","tel":"031-909-1000","addr":"경기도 고양시 일산동구 마두동 798-5번지","indutype":"의원 - 한의원","category":"medical"}]},{"lat":"37.653466225","long":"126.77726133","imageIndex":8,"items":[{"name":"바른몸 한의원","tel":"31-902-7585","addr":"경기도 고양시 일산동구 마두동 798-3번지","indutype":"의원 - 한의원","category":"medical"},{"name":"솔벗약국","tel":"031-905-0377","addr":"경기도 고양시 일산동구 마두동 798-3번지","indutype":"약국 - 약국","category":"medical"}]},{"lat":"37.653739344","long":"126.78353846","imageIndex":8,"items":[{"name":"박소아과의원","tel":"031-904-0978","addr":"경기도 고양시 일산동구 마두동 785번지","indutype":"의원 - 의원","category":"medical"},{"name":"약손한의원","tel":"031-901-7510","addr":"경기도 고양시 일산동구 마두동 785번지","indutype":"의원 - 한의원","category":"medical"}]},{"lat":"37.652603204","long":"126.77826114","imageIndex":8,"items":[{"name":"박유정내과","tel":"031-902-3403","addr":"경기도 고양시 일산동구 마두동 801번지","indutype":"의원 - 의원","category":"medical"},{"name":"본재활의학과의원","tel":"031-908-5975","addr":"경기도 고양시 일산동구 마두동","indutype":"의원 - 의원","category":"medical"},{"name":"본치과의원","tel":"031-908-2882","addr":"경기도 고양시 일산동구 마두동 801번지","indutype":"의원 - 치과의원","category":"medical"},{"name":"삼성의원","tel":"031-903-5040","addr":"경기도 고양시 일산동구 마두동 801번지","indutype":"의원 - 의원","category":"medical"},{"name":"아이랑치과","tel":"031-908-2275","addr":"경기도 고양시 일산동구 마두동 801번지","indutype":"의원 - 치과의원","category":"medical"},{"name":"일산마두정형외과의원","tel":"031-907-1119","addr":"경기도 고양시 일산동구 마두동 801번지","indutype":"의원 - 의원","category":"medical"},{"name":"최병진한의원","tel":"031-932-6054","addr":"경기도 고양시 일산동구 마두동 801번지","indutype":"의원 - 한의원","category":"medical"}]},{"lat":"37.653961234","long":"126.77698786","imageIndex":8,"items":[{"name":"밝은미소정신건강의학과의원","tel":"031-902-0688","addr":"경기도 고양시 일산동구 마두동 798번지","indutype":"의원 - 의원","category":"medical"},{"name":"베네치아치과의원","tel":"031-906-2878","addr":"경기도 고양시 일산동구 마두동 798번지","indutype":"의원 - 치과의원","category":"medical"},{"name":"연세봄정신건강의학과의원","tel":"031-905-8982","addr":"경기도 고양시 일산동구 마두동 798번지","indutype":"의원 - 의원","category":"medical"}]},{"lat":"37.654877627","long":"126.79013046","imageIndex":8,"items":[{"name":"서울그린치과","tel":"031-905-2835","addr":"경기도 고양시 일산동구 마두동","indutype":"의원 - 치과의원","category":"medical"}]},{"lat":"37.656460099","long":"126.78834675","imageIndex":8,"items":[{"name":"서울자연이치과","tel":"031-811-2888","addr":"경기도 고양시 일산동구 마두동 750번지","indutype":"의원 - 치과의원","category":"medical"}]},{"lat":"37.65377331","long":"126.77765702","imageIndex":8,"items":[{"name":"세은치과","tel":"031-905-0025","addr":"경기도 고양시 일산동구 마두동 799-2번지","indutype":"의원 - 치과의원","category":"medical"},{"name":"참나무한의원","tel":"031-908-1076","addr":"경기도 고양시 일산동구 마두동 799-2번지","indutype":"의원 - 한의원","category":"medical"}]},{"lat":"37.655408643","long":"126.78982298","imageIndex":8,"items":[{"name":"수한의원","tel":"031-903-7975","addr":"경기도 고양시 일산동구 마두동 728번지","indutype":"의원 - 한의원","category":"medical"},{"name":"제일약국","tel":"031-904-3158","addr":"경기도 고양시 일산동구 마두동 728번지","indutype":"약국 - 약국","category":"medical"}]},{"lat":"37.6528273","long":"126.77765988","imageIndex":8,"items":[{"name":"연세바른이치과","tel":"031-906-2833","addr":"경기도 고양시 일산동구 마두동 798-7번지","indutype":"병원 - 치과병원","category":"medical"}]},{"lat":"37.654157591","long":"126.79054047","imageIndex":8,"items":[{"name":"연세키즈앤쥬니어치과의원","tel":"031-901-8228","addr":"경기도 고양시 일산동구 마두동 730-3번지","indutype":"의원 - 치과의원","category":"medical"},{"name":"일산연세키즈소아과의원","tel":"031-907-1677","addr":"경기도 고양시 일산동구 마두동 730-3번지","indutype":"의원 - 의원","category":"medical"}]},{"lat":"37.664660562","long":"126.78434502","imageIndex":8,"items":[{"name":"열린치과의원","tel":"031-907-0500","addr":"경기도 고양시 일산동구 마두동 857번지","indutype":"의원 - 치과의원","category":"medical"}]},{"lat":"37.65632859","long":"126.77584744","imageIndex":8,"items":[{"name":"온누리시민약국","tel":"031-901-1091","addr":"경기도 고양시 일산동구 마두동 1010번지","indutype":"약국 - 약국","category":"medical"}]},{"lat":"37.66162775","long":"126.78621256","imageIndex":8,"items":[{"name":"이솝동물병원","tel":"031-903-3399","addr":"경기도 고양시 일산동구 마두동 898-7번지","indutype":"기타의료기관 - 동물병원","category":"medical"}]},{"lat":"37.657577664","long":"126.78854752","imageIndex":8,"items":[{"name":"이시은 한의원","tel":"031-901-8577","addr":"경기도 고양시 일산동구 마두동 723번지","indutype":"의원 - 한의원","category":"medical"}]},{"lat":"37.663487893","long":"126.7884852","imageIndex":8,"items":[{"name":"인정약국","tel":"031-905-9050","addr":"경기도 고양시 일산동구 마두동 884번지","indutype":"약국 - 약국","category":"medical"}]},{"lat":"37.650857445","long":"126.7793769","imageIndex":8,"items":[{"name":"일산 연세 비뇨기과","tel":"031-927-9276","addr":"경기도 고양시 일산동구 마두동 804-1번지","indutype":"의원 - 의원","category":"medical"}]},{"lat":"37.654156099","long":"126.78971323","imageIndex":8,"items":[{"name":"일산웰치과","tel":"031-904-2752","addr":"경기도 고양시 일산동구 마두동 736-1번지","indutype":"의원 - 치과의원","category":"medical"}]},{"lat":"37.655155102","long":"126.7891211","imageIndex":8,"items":[{"name":"정다운약국","tel":"031-906-4946","addr":"경기도 고양시 일산동구 마두동 737번지","indutype":"약국 - 약국","category":"medical"}]},{"lat":"37.653794601","long":"126.78418422","imageIndex":8,"items":[{"name":"채한승치과의원","tel":"031-908-7575","addr":"경기도 고양시 일산동구 마두동 781-1번지","indutype":"의원 - 치과의원","category":"medical"}]},{"lat":"37.665265798","long":"126.78520461","imageIndex":8,"items":[{"name":"화타원한약방","tel":"031-905-3363","addr":"경기도 고양시 일산동구 마두동 842-9번지","indutype":"약국 - 한약방","category":"medical"}]}]