[{"lat":"37.132093157","long":"127.52043208","imageIndex":4,"items":[{"name":"길고리호프","tel":"031-642-2205","addr":"경기도 이천시 설성면 금당리 94-6번지 1층","indutype":"일반휴게음식 - 주점","category":"restaurant"}]},{"lat":"37.132319392","long":"127.52020855","imageIndex":4,"items":[{"name":"길모퉁이카페","tel":"031-1111-1111","addr":"경기도 이천시 설성면 금당리 78-1번지 1층","indutype":"일반휴게음식 - 서양음식","category":"restaurant"},{"name":"맛깔손두루치기","tel":"031-641-3777","addr":"경기도 이천시 설성면 금당리 78-1번지","indutype":"일반휴게음식 - 일반한식","category":"restaurant"},{"name":"행복한날개","tel":"031-642-1217","addr":"경기도 이천시 설성면 금당리 78-1번지","indutype":"일반휴게음식 - 일반한식","category":"restaurant"}]},{"lat":"37.132761527","long":"127.52006526","imageIndex":4,"items":[{"name":"난향","tel":"031-642-4247","addr":"경기도 이천시 설성면 금당리 76-1번지","indutype":"일반휴게음식 - 중국식","category":"restaurant"},{"name":"사랑방식당","tel":"031-642-6602","addr":"경기도 이천시 설성면 금당리 76-1번지 1층","indutype":"일반휴게음식 - 일반한식","category":"restaurant"},{"name":"신토불이투","tel":"031-642-6199","addr":"경기도 이천시 설성면 금당리 76-1번지","indutype":"일반휴게음식 - 일반한식","category":"restaurant"}]},{"lat":"37.133514501","long":"127.516818","imageIndex":4,"items":[{"name":"대명정육점식당","tel":"031-642-8860","addr":"경기도 이천시 설성면 금당리 193-32번지","indutype":"일반휴게음식 - 일반한식","category":"restaurant"},{"name":"황금육계장전문","tel":"031-641-4319","addr":"경기도 이천시 설성면 금당리 193-32번지 1층","indutype":"일반휴게음식 - 일반한식","category":"restaurant"}]},{"lat":"37.132401318","long":"127.52001779","imageIndex":4,"items":[{"name":"돈마루","tel":"031-643-3888","addr":"경기도 이천시 설성면 금당리 77-4번지 금성빌딩 가동 1층","indutype":"일반휴게음식 - 일반한식","category":"restaurant"}]},{"lat":"37.131291354","long":"127.52040411","imageIndex":4,"items":[{"name":"땡기는날","tel":"031-641-5089","addr":"경기도 이천시 설성면 금당리 85-5번지","indutype":"일반휴게음식 - 일반한식","category":"restaurant"}]},{"lat":"37.132678471","long":"127.52051484","imageIndex":4,"items":[{"name":"사랑채","tel":"031-642-3369","addr":"경기도 이천시 설성면 금당리 80-3번지","indutype":"일반휴게음식 - 주점","category":"restaurant"}]},{"lat":"37.131207433","long":"127.51898559","imageIndex":4,"items":[{"name":"설성숯불갈비","tel":"031-642-3830","addr":"경기도 이천시 설성면 금당리 70-1번지","indutype":"일반휴게음식 - 일반한식","category":"restaurant"}]},{"lat":"37.131731671","long":"127.5206772","imageIndex":4,"items":[{"name":"송림식당","tel":"031-641-6263","addr":"경기도 이천시 설성면 금당리 124-4번지","indutype":"일반휴게음식 - 일반한식","category":"restaurant"}]},{"lat":"37.129623384","long":"127.51232412","imageIndex":4,"items":[{"name":"와우낙농체험","tel":"031-641-3366","addr":"경기도 이천시 설성면 금당리 278-2번지","indutype":"일반휴게음식 - 서양음식","category":"restaurant"}]},{"lat":"37.133459952","long":"127.51693017","imageIndex":4,"items":[{"name":"원조바지락칼국수","tel":"031-642-1705","addr":"경기도 이천시 설성면 금당리 193-33번지","indutype":"일반휴게음식 - 일반한식","category":"restaurant"}]},{"lat":"37.130656835","long":"127.51920692","imageIndex":4,"items":[{"name":"윤이네","tel":"031-642-2567","addr":"경기도 이천시 설성면 금당리 69-5번지","indutype":"일반휴게음식 - 일반한식","category":"restaurant"}]},{"lat":"37.134819282","long":"127.51304545","imageIndex":4,"items":[{"name":"임금님표이천한우(설성점)","tel":"031-641-5720","addr":"경기도 이천시 설성면 금당리 188-1번지","indutype":"일반휴게음식 - 일반한식","category":"restaurant"}]},{"lat":"37.13301665","long":"127.51734357","imageIndex":4,"items":[{"name":"장능촌","tel":"031-642-2980","addr":"경기도 이천시 설성면 금당리 209-1","indutype":"일반휴게음식 - 일반한식","category":"restaurant"}]},{"lat":"37.133814371","long":"127.51623483","imageIndex":4,"items":[{"name":"장충동흥부왕족발보쌈","tel":"031-642-2426","addr":"경기도 이천시 설성면 금당리 193-26번지","indutype":"일반휴게음식 - 일반한식","category":"restaurant"}]},{"lat":"37.132654485","long":"127.51981695","imageIndex":4,"items":[{"name":"친구 포차","tel":"031-643-8800","addr":"경기도 이천시 설성면 금당리 76-3번지","indutype":"일반휴게음식 - 주점","category":"restaurant"}]},{"lat":"37.130571231","long":"127.52024166","imageIndex":4,"items":[{"name":"태양명태찜","tel":"031-643-9440","addr":"경기도 이천시 설성면 금당리 89-8번지 1층","indutype":"일반휴게음식 - 일반한식","category":"restaurant"}]},{"lat":"37.131515624","long":"127.52063071","imageIndex":4,"items":[{"name":"퓨전포차","tel":"031-641-6391","addr":"경기도 이천시 설성면 금당리 84-1번지","indutype":"일반휴게음식 - 주점","category":"restaurant"}]},{"lat":"37.134850086","long":"127.5142611","imageIndex":4,"items":[{"name":"해동기사식당","tel":"031-642-7859","addr":"경기도 이천시 설성면 금당리 187-4","indutype":"일반휴게음식 - 일반한식","category":"restaurant"}]},{"lat":"37.131650579","long":"127.52067665","imageIndex":4,"items":[{"name":"흥남식당","tel":"031-641-6741","addr":"경기도 이천시 설성면 금당리 124-1번지","indutype":"일반휴게음식 - 일반한식","category":"restaurant"}]}]