[{"lat":"37.46215728","long":"126.8784236","imageIndex":16,"items":[{"name":"(JnK)솔루션영수학원","tel":"031-111-1111","addr":"경기도 광명시 하안동 34-10번지 삼성빌딩 801호","indutype":"학원 - 보습학원","category":"study"},{"name":"정철어학원(하안분원)","tel":"02-807-0511","addr":"경기도 광명시 하안동 34-10번지 삼성빌딩 6층","indutype":"회원제형태 - 학원","category":"study"},{"name":"토즈스터디센터하안독서실","tel":"02-898-0302","addr":"경기도 광명시 하안동 34-10번지 삼성빌딩 701호","indutype":"학원 - 독서실","category":"study"}]},{"lat":"37.46212417","long":"126.8812381","imageIndex":16,"items":[{"name":"(주)스포데미체육영재개발원","tel":"02-898-0070","addr":"경기도 광명시 하안동 61-1번지 조일프라자 지하3층비303호,비304호,비307호","indutype":"학원 - 예·체능계학원","category":"study"},{"name":"미술로생각하기미술학원","tel":"02-804-6733","addr":"경기도 광명시 하안동 61-1번지 조일프라자 8층","indutype":"학원 - 예·체능계학원","category":"study"},{"name":"북꼬리 하안센터 논술학원","tel":"02-899-2023","addr":"경기도 광명시 하안동 61-1번지 조일프라자 301호","indutype":"학원 - 보습학원","category":"study"},{"name":"브레인스쿨 광명센타 사고력학원","tel":"02-807-7082","addr":"경기도 광명시 하안동 61-1번지 조일프라자 1001호","indutype":"회원제형태 - 학원","category":"study"},{"name":"씨,엠코드수학학원","tel":"02-892-4960","addr":"경기도 광명시 하안동 61-1번지 조일프라자빌딩 10층 1002호","indutype":"학원 - 보습학원","category":"study"},{"name":"에이레네실용음악학원","tel":"02-898-5016","addr":"경기도 광명시 하안동 61-1번지 조일프라자빌딩 6층 604호","indutype":"학원 - 예·체능계학원","category":"study"},{"name":"와이즈만영재보습학원","tel":"02-894-4020","addr":"경기도 광명시 하안동 61-1번지 조일프라자빌딩 701호","indutype":"학원 - 보습학원","category":"study"},{"name":"유투엠수학학원","tel":"02-898-7749","addr":"경기도 광명시 하안동 61-1번지 조일프라자빌딩 3층 301호","indutype":"학원 - 보습학원","category":"study"},{"name":"유투엠수학학원","tel":"02-898-7749","addr":"경기도 광명시 하안동 61-1번지 조일프라자 3층 301호","indutype":"회원제형태 - 학원","category":"study"},{"name":"포라라폴댄스","tel":"","addr":"경기도 광명시 하안동 61-1번지 조일프라자빌딩 지하3층 306호","indutype":"학원 - 예·체능계학원","category":"study"}]},{"lat":"37.46262666","long":"126.8792366","imageIndex":16,"items":[{"name":"(주)엠베스티안(하안 2관 베스티안학원)","tel":"02-6952-8012","addr":"경기도 광명시 하안동 34-5번지 성원빌딩 8층","indutype":"학원 - 보습학원","category":"study"},{"name":"엠쓰리수학학원","tel":"02-897-0341","addr":"경기도 광명시 하안동 34-5번지 성원빌딩 601호","indutype":"학원 - 보습학원","category":"study"}]},{"lat":"37.4620129","long":"126.878209","imageIndex":16,"items":[{"name":"153수학교습소","tel":"02-897-3153","addr":"경기도 광명시 하안동 34-11번지 삼호빌딩 301호","indutype":"학원 - 보습학원","category":"study"},{"name":"고대영어교습소","tel":"02-805-0908","addr":"경기도 광명시 하안동 34-11번지 삼호빌딩 6층 605호","indutype":"회원제형태 - 학원","category":"study"},{"name":"웅샘국어교습소","tel":"031-0000-0000","addr":"경기도 광명시 하안동 34-11번지 삼호빌딩 5층 505호","indutype":"학원 - 보습학원","category":"study"},{"name":"이투스(ETOOS)24/7광명점학원","tel":"02-898-0247","addr":"경기도 광명시 하안동 34-11번지 삼호빌딩 8층 801호","indutype":"학원 - 보습학원","category":"study"},{"name":"잉글리시홀릭영어교습소","tel":"02-898-0549","addr":"경기도 광명시 하안동 34-11번지 삼호빌딩 701호","indutype":"학원 - 외국어학원","category":"study"},{"name":"해머매쓰수학교습소","tel":"031-111-1111","addr":"경기도 광명시 하안동 34-11번지 삼호빌딩 504호","indutype":"학원 - 보습학원","category":"study"}]},{"lat":"37.4605995","long":"126.8793191","imageIndex":16,"items":[{"name":"Acc영어놀이학원","tel":"02-898-0552","addr":"경기도 광명시 하안동 52번지 계명빌딩 403호","indutype":"학원 - 보습학원","category":"study"},{"name":"ETS어학원","tel":"02-898-0594","addr":"경기도 광명시 하안동 52번지 계명빌딩 401호","indutype":"회원제형태 - 학원","category":"study"},{"name":"광명서울보습학원","tel":"031-894-0586","addr":"경기도 광명시 하안동 52번지 계명빌딩 601호","indutype":"학원 - 기타 교육기관","category":"study"},{"name":"동기행동자기주도학습학원","tel":"070-8840-2929","addr":"경기도 광명시 하안동 52번지 계명빌딩 302호","indutype":"학원 - 보습학원","category":"study"},{"name":"아가페음악학원","tel":"02-892-3344","addr":"경기도 광명시 하안동 52번지 계명빌딩 3층 1호","indutype":"학원 - 예·체능계학원","category":"study"},{"name":"우슈늘푸른무술스쿨","tel":"02-802-8218","addr":"경기도 광명시 하안동 52번지 계명빌딩 5층 501호","indutype":"학원 - 예·체능계학원","category":"study"},{"name":"하영음악학원","tel":"02-893-9271","addr":"경기도 광명시 하안동 52번지 계명빌딩 602호","indutype":"학원 - 예·체능계학원","category":"study"}]},{"lat":"37.47084498","long":"126.8720109","imageIndex":16,"items":[{"name":"CES영어학원","tel":"02-899-7905","addr":"경기도 광명시 하안동 770번지 효현빌딩 5층","indutype":"학원 - 외국어학원","category":"study"}]},{"lat":"37.4539023","long":"126.8608177","imageIndex":16,"items":[{"name":"Core English(코어 잉글리쉬)","tel":"02-897-8891","addr":"경기도 광명시 하안동 871-4번지 1층","indutype":"학원 - 기타 교육기관","category":"study"}]},{"lat":"37.4630149","long":"126.8800159","imageIndex":16,"items":[{"name":"EBS독서실","tel":"02-895-9193","addr":"경기도 광명시 하안동 33-5번지 유창빌딩 10층","indutype":"학원 - 독서실","category":"study"},{"name":"링구아어학원","tel":"02-893-0505","addr":"경기도 광명시 하안동 33-5번지 유창빌딩 6층","indutype":"회원제형태 - 학원","category":"study"}]},{"lat":"37.45076759","long":"126.8614565","imageIndex":16,"items":[{"name":"EBS리틀엔학원","tel":"02-897-5463","addr":"경기도 광명시 하안동 407-1번지","indutype":"학원 - 외국어학원","category":"study"},{"name":"외국어배움학원","tel":"02-897-2010","addr":"경기도 광명시 하안동 407-1번지","indutype":"회원제형태 - 학원","category":"study"}]},{"lat":"37.46925061","long":"126.8723641","imageIndex":16,"items":[{"name":"KTM 차오름 태권도","tel":"02-898-8909","addr":"경기도 광명시 하안동 863번지 외2필지 광명두산트레지움 301,302,303호","indutype":"학원 - 예·체능계학원","category":"study"},{"name":"두산위브해법영어교습소","tel":"02-899-0050","addr":"경기도 광명시 하안동 863번지 두산위브트레지움 307호 상가","indutype":"학원 - 외국어학원","category":"study"},{"name":"무지개미술","tel":"02-897-1182","addr":"경기도 광명시 하안동 863번지 두산위브트레지움 상가 309호","indutype":"학원 - 예·체능계학원","category":"study"},{"name":"뮤직슐레음악학원","tel":"02-897-1377","addr":"경기도 광명시 하안동 863번지 두산단지내상가304~306호","indutype":"학원 - 예·체능계학원","category":"study"},{"name":"비타민수학교습소","tel":"02-2612-3239","addr":"경기도 광명시 하안동 863번지 광명두산위브트레지움","indutype":"학원 - 보습학원","category":"study"},{"name":"오덕진 영어","tel":"","addr":"경기도 광명시 하안동 863번지 광명 두산위브 트레지움 상가동 312호,313호,314 일부호","indutype":"학원 - 외국어학원","category":"study"},{"name":"이(e)해법셀파수학","tel":"02-111-1111","addr":"경기도 광명시 하안동 863번지 두산위브트레지움 상가동 308호","indutype":"학원 - 보습학원","category":"study"},{"name":"피아노바닐라음악교습소","tel":"02-897-7915","addr":"경기도 광명시 하안동 863번지 두산트레지움 상가 207동 3층 311호","indutype":"학원 - 예·체능계학원","category":"study"},{"name":"해법영어철산위브교습소","tel":"02-899-0050","addr":"경기도 광명시 하안동 863번지 두산위브단지내상가307,308호","indutype":"회원제형태 - 학원","category":"study"}]},{"lat":"37.46141001","long":"126.878956","imageIndex":16,"items":[{"name":"MJ수학교습소","tel":"070-8831-0973","addr":"경기도 광명시 하안동 37-1번지 잠실빌딩 704호","indutype":"회원제형태 - 학원","category":"study"}]},{"lat":"37.4620685","long":"126.8796783","imageIndex":16,"items":[{"name":"MS수학학원","tel":"02-808-6752","addr":"경기도 광명시 하안동 36-4번지 10층 3,5,6호","indutype":"학원 - 보습학원","category":"study"},{"name":"U&I English(잉글리쉬)학원","tel":"02-899-1782","addr":"경기도 광명시 하안동 36-4번지 성보프라자 802호","indutype":"회원제형태 - 학원","category":"study"},{"name":"고대학당학원","tel":"02-892-0541","addr":"경기도 광명시 하안동 36-4번지 성보빌딩 608호","indutype":"학원 - 기타 교육기관","category":"study"},{"name":"광명하안 튼튼영어 마스터클럽 교습소","tel":"02-898-0503","addr":"경기도 광명시 하안동 36-4번지 6층 2-1호","indutype":"학원 - 외국어학원","category":"study"},{"name":"니키영어교습소","tel":"02-855-2697","addr":"경기도 광명시 하안동 36-4번지 성보빌딩 905호","indutype":"회원제형태 - 학원","category":"study"},{"name":"미니오영어","tel":"02-808-8363","addr":"경기도 광명시 하안동 36-4번지 성보빌딩 9층 1호 2호 일부","indutype":"학원 - 외국어학원","category":"study"},{"name":"분석학원","tel":"02-893-0218","addr":"경기도 광명시 하안동 36-4번지 9층 1호","indutype":"학원 - 보습학원","category":"study"},{"name":"세종샤인발레학원","tel":"02-899-8883","addr":"경기도 광명시 하안동 36-4번지 성보프라자 701호","indutype":"학원 - 예·체능계학원","category":"study"},{"name":"요미요미하안소하학원","tel":"02-894-5252","addr":"경기도 광명시 하안동 36-4번지 702호","indutype":"학원 - 예·체능계학원","category":"study"},{"name":"차오름학원","tel":"","addr":"경기도 광명시 하안동 36-4번지 성보빌딩 703호","indutype":"학원 - 보습학원","category":"study"},{"name":"한라영어학원","tel":"02-891-0333","addr":"경기도 광명시 하안동 36-4번지 1001호","indutype":"회원제형태 - 학원","category":"study"}]},{"lat":"37.46237596","long":"126.8807629","imageIndex":16,"items":[{"name":"ONTOP(온탑)영어교습소","tel":"02-895-4696","addr":"경기도 광명시 하안동 54-1번지 한진빌딩 403호","indutype":"회원제형태 - 학원","category":"study"},{"name":"위캔수학교습소","tel":"","addr":"경기도 광명시 하안동 54-1번지 한진빌딩 503호","indutype":"회원제형태 - 학원","category":"study"},{"name":"조이매스광명하안센터학원","tel":"02-899-9968","addr":"경기도 광명시 하안동 54-1번지 한진빌딩 302,304호","indutype":"학원 - 보습학원","category":"study"},{"name":"피비티수학교습소","tel":"02-898-4070","addr":"경기도 광명시 하안동 54-1번지 한진빌딩 5층 501호","indutype":"학원 - 보습학원","category":"study"},{"name":"해냄주산암산교습소","tel":"","addr":"경기도 광명시 하안동 54-1번지 한진빌딩 603-4호","indutype":"학원 - 기타 교육기관","category":"study"},{"name":"헬로소프트광명코딩교육원코딩교습소","tel":"02-899-0245","addr":"경기도 광명시 하안동 54-1번지 한진빌딩 4층 404호","indutype":"학원 - 컴퓨터학원","category":"study"}]},{"lat":"37.46190841","long":"126.8817019","imageIndex":16,"items":[{"name":"Tune music (음악교습소)","tel":"02-897-1022","addr":"경기도 광명시 하안동 62-5번지 신광빌딩 304호","indutype":"학원 - 예·체능계학원","category":"study"},{"name":"경희대 푸른솔 태권도","tel":"02-896-7798","addr":"경기도 광명시 하안동 62-5번지 신광빌딩 303호","indutype":"학원 - 예·체능계학원","category":"study"},{"name":"멘토잉글리쉬영어교습소","tel":"02-897-3910","addr":"경기도 광명시 하안동 62-5번지 신광빌딩 2층 4호","indutype":"학원 - 외국어학원","category":"study"},{"name":"소미아트미술학원","tel":"02-808-2554","addr":"경기도 광명시 하안동 62-5번지 신광빌딩 402호","indutype":"회원제형태 - 학원","category":"study"},{"name":"티에이피수학학원","tel":"070-7755-1080","addr":"경기도 광명시 하안동 62-5번지 신광빌딩 6층 3호","indutype":"학원 - 보습학원","category":"study"},{"name":"혜인음악학원","tel":"02-894-2804","addr":"경기도 광명시 하안동 62-5번지 신광빌딩 4층 1호","indutype":"학원 - 예·체능계학원","category":"study"}]},{"lat":"37.46665177","long":"126.8770144","imageIndex":16,"items":[{"name":"e-해법수학","tel":"02-804-0865","addr":"경기도 광명시 하안동 13번지 하안9단지고층주공아파트","indutype":"회원제형태 - 학원","category":"study"}]},{"lat":"37.46065312","long":"126.8789008","imageIndex":16,"items":[{"name":"e해법수학광명지사","tel":"02-897-2090","addr":"경기도 광명시 하안동 35-6번지 인성빌딩 501호","indutype":"학원 - 보습학원","category":"study"},{"name":"수능독서실","tel":"02-891-4781","addr":"경기도 광명시 하안동 35-6번지 인성빌딩","indutype":"학원 - 독서실","category":"study"}]},{"lat":"37.45723944","long":"126.8799575","imageIndex":16,"items":[{"name":"가림중학교","tel":"02-6917-0105","addr":"경기도 광명시 하안동 261번지 가림중학교","indutype":"학원 - 초중고교육기관","category":"study"}]},{"lat":"37.45823861","long":"126.879063","imageIndex":16,"items":[{"name":"가림초등학교","tel":"02-803-3328","addr":"경기도 광명시 하안동 297번지 가림초등학교","indutype":"학원 - 초중고교육기관","category":"study"},{"name":"가림초등학교_수업료","tel":"02-803-3328","addr":"경기도 광명시 하안동 297번지 가림초등학교","indutype":"학원 - 초중고교육기관","category":"study"}]},{"lat":"37.46090516","long":"126.8786743","imageIndex":16,"items":[{"name":"강쌤국어학원","tel":"070-4132-9200","addr":"경기도 광명시 하안동 35-4번지 한주빌딩 401호","indutype":"학원 - 보습학원","category":"study"},{"name":"새로운미래보습학원","tel":"02-897-0104","addr":"경기도 광명시 하안동 35-4번지 한주빌딩 4층 402호","indutype":"학원 - 보습학원","category":"study"},{"name":"세종무용학원","tel":"02-899-0119","addr":"경기도 광명시 하안동 35-4번지 한주빌딩 6층","indutype":"학원 - 예·체능계학원","category":"study"},{"name":"와이즈리더","tel":"02-899-0535","addr":"경기도 광명시 하안동 35-4번지 한주빌딩 3층 302호","indutype":"학원 - 보습학원","category":"study"}]},{"lat":"37.46234836","long":"126.8802091","imageIndex":16,"items":[{"name":"강학학원","tel":"02-806-7775","addr":"경기도 광명시 하안동 53-1골든힐401.402호","indutype":"학원 - 기타 교육기관","category":"study"}]},{"lat":"37.46518779","long":"126.8650238","imageIndex":16,"items":[{"name":"개인과외","tel":"02-897-3893","addr":"경기도 광명시 하안동 702번지 하안5단지고층주공아파트","indutype":"학원 - 기타 교육기관","category":"study"}]},{"lat":"37.46551329","long":"126.8660066","imageIndex":16,"items":[{"name":"개인과외교습","tel":"","addr":"경기도 광명시 하안동 702번지 하안5단지고층주공아파트","indutype":"학원 - 기타 교육기관","category":"study"}]},{"lat":"37.46515714","long":"126.8779777","imageIndex":16,"items":[{"name":"개인과외교습","tel":"","addr":"경기도 광명시 하안동 30번지 하안10단지고층주공아파트","indutype":"학원 - 기타 교육기관","category":"study"}]},{"lat":"37.4673754","long":"126.8634825","imageIndex":16,"items":[{"name":"경희대석사태권도장","tel":"02-899-0023","addr":"경기도 광명시 하안동 707-9.301.302.307.308호","indutype":"학원 - 예·체능계학원","category":"study"}]},{"lat":"37.46334687","long":"126.8786816","imageIndex":16,"items":[{"name":"경희대하안태권도교육관","tel":"02-893-0083","addr":"경기도 광명시 하안동 34번지 한일빌딩 6층","indutype":"학원 - 예·체능계학원","category":"study"},{"name":"드림아트미술교습소","tel":"","addr":"경기도 광명시 하안동 34번지 한일빌딩 301호","indutype":"학원 - 예·체능계학원","category":"study"},{"name":"러닝잉글리쉬어학원","tel":"02-803-8591","addr":"경기도 광명시 하안동 34한일빌딩401호,402호","indutype":"학원 - 외국어학원","category":"study"},{"name":"봉수학교습소","tel":"","addr":"경기도 광명시 하안동 34번지 한일빌딩 207호","indutype":"학원 - 보습학원","category":"study"}]},{"lat":"37.46107203","long":"126.8746276","imageIndex":16,"items":[{"name":"고대수학교습소","tel":"02-897-7600","addr":"경기도 광명시 하안동 599-8번지","indutype":"회원제형태 - 학원","category":"study"}]},{"lat":"37.46379125","long":"126.8814614","imageIndex":16,"items":[{"name":"관인현대피아노학원","tel":"02-807-4341","addr":"경기도 광명시 하안동 27-1번지","indutype":"학원 - 예·체능계학원","category":"study"}]},{"lat":"37.45916029","long":"126.8816272","imageIndex":16,"items":[{"name":"광명경찰서어린이집[아이행복]","tel":"02-897-0901","addr":"경기도 광명시 하안동 295-3번지","indutype":"학원 - 유아원","category":"study"}]},{"lat":"37.45871365","long":"126.8767113","imageIndex":16,"items":[{"name":"광명스포츠축구교실","tel":"02-899-2234","addr":"경기도 광명시 하안동 305-1번지 프라임모터스빌딩 3층 301호","indutype":"학원 - 예·체능계학원","category":"study"}]},{"lat":"37.46415324","long":"126.8664047","imageIndex":16,"items":[{"name":"광명아트스쿨미술학원","tel":"02-899-1165","addr":"경기도 광명시 하안동 702-5번지 5단지교육센터 4층","indutype":"학원 - 예·체능계학원","category":"study"},{"name":"루디아음악학원","tel":"02-1111-1111","addr":"경기도 광명시 하안동 702-5번지 교육센터 3층 302호","indutype":"학원 - 예·체능계학원","category":"study"}]},{"lat":"37.46187737","long":"126.8778476","imageIndex":16,"items":[{"name":"국가대표 스타클래스 태권도장","tel":"02-893-0002","addr":"경기도 광명시 하안동 651-1번지 송화빌딩 7층","indutype":"학원 - 예·체능계학원","category":"study"},{"name":"유앤아이아카데미학원/유앤아이아카데미(주","tel":"02-899-1103","addr":"경기도 광명시 하안동 651-1번지 송화빌딩 3층 301호","indutype":"학원 - 보습학원","category":"study"},{"name":"주식회사 에스디엠","tel":"02-892-9981","addr":"경기도 광명시 하안동 651-1번지 4층","indutype":"회원제형태 - 학원","category":"study"}]},{"lat":"37.46135363","long":"126.8767634","imageIndex":16,"items":[{"name":"권은영수학학원","tel":"02-899-9981","addr":"경기도 광명시 하안동 650-3번지 4층","indutype":"학원 - 보습학원","category":"study"},{"name":"예원유치원","tel":"02-891-0101","addr":"경기도 광명시 하안동 650-3번지 3단지교육센터","indutype":"학원 - 유치원","category":"study"},{"name":"은혜어린이집","tel":"02-806-8886","addr":"경기도 광명시 하안동 650-3번지 주공3단지교육센터3 4층","indutype":"학원 - 유치원","category":"study"},{"name":"은혜어린이집[아이행복]","tel":"02-806-8886","addr":"경기도 광명시 하안동 650-3번지 3층","indutype":"학원 - 유아원","category":"study"},{"name":"정경순음악원","tel":"02-806-3850","addr":"경기도 광명시 하안동 650-3번지 3단지교육센터 3층 2호","indutype":"학원 - 예·체능계학원","category":"study"}]},{"lat":"37.45831645","long":"126.8846915","imageIndex":16,"items":[{"name":"글램빙룩","tel":"","addr":"경기도 광명시 하안동 200번지 하안13단지고층주공아파트","indutype":"학원 - 기타 교육기관","category":"study"}]},{"lat":"37.46290646","long":"126.8797109","imageIndex":16,"items":[{"name":"글로벌리더십평생교육원","tel":"02-897-9778","addr":"경기도 광명시 하안동 33-3번지 세일빌딩 604호","indutype":"학원 - 기타 교육기관","category":"study"},{"name":"다수인수학플러스어학원","tel":"031-897-7005","addr":"경기도 광명시 하안동 33-3번지 세일빌딩 5층","indutype":"회원제형태 - 학원","category":"study"},{"name":"잇올스파르타관리형프리미엄독서실(광명점)","tel":"02-2038-3253","addr":"경기도 광명시 하안동 33-3번지 세일빌딩 501~503호","indutype":"학원 - 독서실","category":"study"},{"name":"잇올스파르타독학관리학원 (광명점)","tel":"02-2038-3183","addr":"경기도 광명시 하안동 33-3번지 세일빌딩 5층","indutype":"학원 - 보습학원","category":"study"}]},{"lat":"37.46480507","long":"126.877334","imageIndex":16,"items":[{"name":"김건희수학","tel":"070-4922-1261","addr":"경기도 광명시 하안동 651번지 하안4단지고층주공아파트","indutype":"학원 - 기타 교육기관","category":"study"}]},{"lat":"37.46290582","long":"126.8791005","imageIndex":16,"items":[{"name":"김기성수학교습소","tel":"02-897-9716","addr":"경기도 광명시 하안동 34-3번지 세인빌딩 303호","indutype":"회원제형태 - 학원","category":"study"}]},{"lat":"37.46668638","long":"126.8756805","imageIndex":16,"items":[{"name":"김민수 미스터샤크 유도짐","tel":"02-897-0300","addr":"경기도 광명시 하안동 681-4번지 4층 401,402,403호","indutype":"학원 - 예·체능계학원","category":"study"},{"name":"다알해법학원","tel":"02-802-5303","addr":"경기도 광명시 하안동 681-4번지 3층 A호","indutype":"학원 - 보습학원","category":"study"},{"name":"삼손태권도장","tel":"02-804-0050","addr":"경기도 광명시 하안동 681-4번지 하안주공2단지교육센터 404호","indutype":"학원 - 예·체능계학원","category":"study"},{"name":"잉글리쉬무무하안2동학원","tel":"02-2684-9905","addr":"경기도 광명시 하안동 681-4번지 2단지교육센터 3층","indutype":"학원 - 외국어학원","category":"study"},{"name":"한마음유치원[아이행복]","tel":"02-806-4500","addr":"경기도 광명시 하안동 681-4번지","indutype":"학원 - 유치원","category":"study"},{"name":"홍샘피아노전문음악학원","tel":"02-897-8917","addr":"경기도 광명시 하안동 681-4번지 한마음교육센타 4층","indutype":"학원 - 예·체능계학원","category":"study"}]},{"lat":"37.46035512","long":"126.8782683","imageIndex":16,"items":[{"name":"김선생 고전영어","tel":"","addr":"경기도 광명시 하안동 296번지","indutype":"학원 - 기타 교육기관","category":"study"}]},{"lat":"37.46174342","long":"126.8789894","imageIndex":16,"items":[{"name":"김영아영어교습소","tel":"02-898-1105","addr":"경기도 광명시 하안동 36-1번지 제일빌딩 7층 701-3호","indutype":"학원 - 외국어학원","category":"study"},{"name":"바운스뮤직실용음악아카데미","tel":"02-898-8827","addr":"경기도 광명시 하안동 36-1번지 제일빌딩 308호","indutype":"회원제형태 - 학원","category":"study"},{"name":"비법스터디학원","tel":"02-2689-1234","addr":"경기도 광명시 하안동 36-1번지 제일빌딩 504호","indutype":"학원 - 보습학원","category":"study"},{"name":"튼튼영어광명교육본부","tel":"02-892-7474","addr":"경기도 광명시 하안동 36-1번지 제일빌딩 604호","indutype":"학원 - 학습지 교육","category":"study"},{"name":"하안씨앤씨미술학원","tel":"02-899-2014","addr":"경기도 광명시 하안동 36-1번지 제일빌딩 5층 503호","indutype":"학원 - 예·체능계학원","category":"study"},{"name":"하피수학학원","tel":"02-899-7360","addr":"경기도 광명시 하안동 36-1번지 제일빌딩 505호","indutype":"학원 - 보습학원","category":"study"},{"name":"해피트리","tel":"02-897-7275","addr":"경기도 광명시 하안동 36-1번지 제일프라자 701호","indutype":"학원 - 기타 교육기관","category":"study"}]},{"lat":"37.46955219","long":"126.8681245","imageIndex":16,"items":[{"name":"꿀잼융합교육 협동조합","tel":"031-0000-0000","addr":"경기도 광명시 하안동 864번지 이편한세상센트레빌아파트 102동 7층 702호","indutype":"학원 - 기타 교육기관","category":"study"}]},{"lat":"37.46401058","long":"126.875832","imageIndex":16,"items":[{"name":"꿈계수","tel":"","addr":"경기도 광명시 하안동 650번지 하안3단지고층주공아파트","indutype":"학원 - 기타 교육기관","category":"study"},{"name":"다온애뎃(daonadet)","tel":"02-6293-9593","addr":"경기도 광명시 하안동 650번지 하안3단지고층주공아파트","indutype":"학원 - 기타 교육기관","category":"study"},{"name":"뮤엠영어","tel":"","addr":"경기도 광명시 하안동 650번지 하안3단지고층주공아파트","indutype":"학원 - 기타 교육기관","category":"study"},{"name":"아이엠수학교실","tel":"02-6676-9733","addr":"경기도 광명시 하안동 650번지 하안3단지고층주공아파트","indutype":"회원제형태 - 학원","category":"study"}]},{"lat":"37.45990581","long":"126.8793993","imageIndex":16,"items":[{"name":"꿈꾸는 미술","tel":"","addr":"경기도 광명시 하안동 295-1번지 206호 (7단지단지내상가,하안동)","indutype":"학원 - 예·체능계학원","category":"study"},{"name":"뮤엠영어 가림교습소","tel":"02-804-0505","addr":"경기도 광명시 하안동 295-1번지","indutype":"학원 - 외국어학원","category":"study"},{"name":"블랙벨트짐앤펀스포츠","tel":"02-898-5580","addr":"경기도 광명시 하안동 295-1번지 하안주공7단지종합상가 지하1층","indutype":"학원 - 기타 교육기관","category":"study"},{"name":"블랙벨트태권도장","tel":"02-898-5580","addr":"경기도 광명시 하안동 295-1번지 하안주공7단지종합상가 지하","indutype":"학원 - 예·체능계학원","category":"study"}]},{"lat":"37.46223859","long":"126.8786269","imageIndex":16,"items":[{"name":"나레스트광명미용학원","tel":"02-899-8210","addr":"경기도 광명시 하안동 34-9번지 원촌빌딩 6층 일부","indutype":"학원 - 기능학원","category":"study"},{"name":"더케이수학학원","tel":"02-898-6265","addr":"경기도 광명시 하안동 34-9번지 원촌빌딩 201호","indutype":"학원 - 보습학원","category":"study"},{"name":"아카데미라운지 하안독서실","tel":"02-802-0240","addr":"경기도 광명시 하안동 34-9번지 원촌빌딩 501호","indutype":"학원 - 독서실","category":"study"}]},{"lat":"37.46429705","long":"126.8741247","imageIndex":16,"items":[{"name":"나무열매미술교습소","tel":"","addr":"경기도 광명시 하안동 682-1번지 하안주공1단지종합상가 202호","indutype":"학원 - 예·체능계학원","category":"study"},{"name":"뉴조이음악학원","tel":"02-896-0808","addr":"경기도 광명시 하안동 682-1번지 205,206호","indutype":"학원 - 예·체능계학원","category":"study"},{"name":"미드미태권도장","tel":"031-000-0000","addr":"경기도 광명시 하안동 682-1번지 209, 210호","indutype":"학원 - 예·체능계학원","category":"study"},{"name":"톨스(TOL.S) ENGLISH교습소","tel":"","addr":"경기도 광명시 하안동 682-1번지 하안주공1단지종합상가 2층 208호","indutype":"학원 - 외국어학원","category":"study"},{"name":"톨스영어교습소","tel":"02-899-2001","addr":"경기도 광명시 하안동 682-1번지 하안주공1단지종합상가 208호","indutype":"회원제형태 - 학원","category":"study"}]},{"lat":"37.4616557","long":"126.881284","imageIndex":16,"items":[{"name":"뉴하안댄스스포츠학원","tel":"02-808-5555","addr":"경기도 광명시 하안동 62-2번지 뉴코리아나빌딩 3층 2호","indutype":"학원 - 예·체능계학원","category":"study"},{"name":"힘이되는요양보호사교육원","tel":"02-898-9192","addr":"경기도 광명시 하안동 62-2번지 뉴코리아나빌딩 402호","indutype":"학원 - 기능학원","category":"study"}]},{"lat":"37.46402372","long":"126.8797317","imageIndex":16,"items":[{"name":"느낌피아노","tel":"02-809-8315","addr":"경기도 광명시 하안동 30번지 하안10단지고층주공아파트","indutype":"학원 - 예·체능계학원","category":"study"},{"name":"영어과외(하안10)","tel":"031-912-4288","addr":"경기도 광명시 하안동 30번지 하안10단지고층주공아파트","indutype":"학원 - 기타 교육기관","category":"study"}]},{"lat":"37.46318545","long":"126.8794052","imageIndex":16,"items":[{"name":"다래바둑학원","tel":"02-892-6015","addr":"경기도 광명시 하안동 33-1번지 다래빌딩 402호","indutype":"학원 - 기타 교육기관","category":"study"},{"name":"다솔음악학원","tel":"02-803-7273","addr":"경기도 광명시 하안동 33-1번지 다래빌딩 4층 401호","indutype":"학원 - 예·체능계학원","category":"study"},{"name":"비상수학학원 제2관학원","tel":"02-809-7799","addr":"경기도 광명시 하안동 33-1번지 다래빌딩 406호","indutype":"회원제형태 - 학원","category":"study"},{"name":"비트겐슈타인학원","tel":"02-803-7001","addr":"경기도 광명시 하안동 33-1번지 다래빌딩 403호","indutype":"학원 - 보습학원","category":"study"},{"name":"소르키타교습소","tel":"02-896-7624","addr":"경기도 광명시 하안동 하안상업지구33-1 다래빌딩603","indutype":"회원제형태 - 학원","category":"study"},{"name":"아람무용학원","tel":"02-806-7024","addr":"경기도 광명시 하안동 33-1번지 다래빌딩 5층 501호","indutype":"학원 - 예·체능계학원","category":"study"},{"name":"정상보습학원","tel":"02-898-3344","addr":"경기도 광명시 하안동 33-1번지 다래빌딩 6층 1호","indutype":"학원 - 보습학원","category":"study"}]},{"lat":"37.46854203","long":"126.8672107","imageIndex":16,"items":[{"name":"더샵음악학원","tel":"02-897-7667","addr":"경기도 광명시 하안동 864 e편한세상센트레빌주상가 208","indutype":"학원 - 예·체능계학원","category":"study"},{"name":"아이피플미술교육학원","tel":"02-898-3379","addr":"경기도 광명시 하안동 864 e편한세상센트레빌주상가302호","indutype":"학원 - 예·체능계학원","category":"study"},{"name":"튼튼영어마스터클럽하안제1교습소","tel":"02-898-8301","addr":"경기도 광명시 하안동 864 이편한세상센트레빌나상가동 205호","indutype":"회원제형태 - 학원","category":"study"}]},{"lat":"37.46610233","long":"126.8771736","imageIndex":16,"items":[{"name":"동영태권도","tel":"02-803-1939","addr":"경기도 광명시 하안동 13-2번지 하안9단지 상가 212호","indutype":"학원 - 예·체능계학원","category":"study"},{"name":"어린음악대하일원음악학원","tel":"02-891-1560","addr":"경기도 광명시 하안동 13-2번지 하안9단지종합상가304,306호 306호","indutype":"학원 - 예·체능계학원","category":"study"},{"name":"해법수학 하안9단지점","tel":"070-7651-4219","addr":"경기도 광명시 하안동 13-2번지 9단지종합상가 210호","indutype":"회원제형태 - 학원","category":"study"}]},{"lat":"37.46265519","long":"126.8806834","imageIndex":16,"items":[{"name":"동화월드학원","tel":"02-802-0579","addr":"경기도 광명시 하안동 53-4번지 천일빌딩 5층","indutype":"회원제형태 - 학원","category":"study"}]},{"lat":"37.4622947","long":"126.8805935","imageIndex":16,"items":[{"name":"드럼플러스음악교습소","tel":"02-897-3722","addr":"경기도 광명시 하안동 54번지 청진빌딩 303호","indutype":"학원 - 예·체능계학원","category":"study"},{"name":"라온피아노음악교습소","tel":"02-898-9400","addr":"경기도 광명시 하안동 54번지 청진빌딩 3층","indutype":"학원 - 예·체능계학원","category":"study"},{"name":"아이콘스포츠(IKON SPORTS)","tel":"02-899-8976","addr":"경기도 광명시 하안동 54번지 청진빌딩 지하1층","indutype":"학원 - 기타 교육기관","category":"study"},{"name":"윤선생영어교실","tel":"02-894-3100","addr":"경기도 광명시 하안동 54번지 청진빌딩 202호","indutype":"학원 - 보습학원","category":"study"},{"name":"주식회사 씨엠에스광명","tel":"02-6954-1288","addr":"경기도 광명시 하안동 54번지 청진빌딩 5층","indutype":"학원 - 보습학원","category":"study"}]},{"lat":"37.45912563","long":"126.8829835","imageIndex":16,"items":[{"name":"또래또어린이집","tel":"02-892-1010","addr":"경기도 광명시 하안동 200-2번지 정산빌딩 203호","indutype":"학원 - 유아원","category":"study"},{"name":"또래또어린이집[아이행복]","tel":"02-892-1010","addr":"경기도 광명시 하안동 200-2번지","indutype":"학원 - 유아원","category":"study"},{"name":"태권 M 아카데미","tel":"","addr":"경기도 광명시 하안동 200-2번지 정산빌딩 2층","indutype":"학원 - 예·체능계학원","category":"study"}]},{"lat":"37.45829118","long":"126.8776501","imageIndex":16,"items":[{"name":"라솜키즈(Lasomkids)어학원","tel":"","addr":"경기도 광명시 하안동 322번지 제니스빌딩 7층 701호","indutype":"학원 - 외국어학원","category":"study"}]},{"lat":"37.46213224","long":"126.8803225","imageIndex":16,"items":[{"name":"로열튜터스학원","tel":"02-898-0464","addr":"경기도 광명시 하안동 53번지 현대빌딩 4층 세계로외국어학원","indutype":"학원 - 보습학원","category":"study"},{"name":"아가토스학원","tel":"02-894-4276","addr":"경기도 광명시 하안동 53번지 현대빌딩 6층","indutype":"학원 - 보습학원","category":"study"},{"name":"퍼스트수학학원","tel":"02-898-0988","addr":"경기도 광명시 하안동 53번지 현대빌딩 501호","indutype":"학원 - 보습학원","category":"study"},{"name":"해법중국어미래어학원","tel":"02-898-8812","addr":"경기도 광명시 하안동 53번지 현대빌딩 503호","indutype":"회원제형태 - 학원","category":"study"}]},{"lat":"37.46173505","long":"126.8795998","imageIndex":16,"items":[{"name":"마이스터디독서실","tel":"070-4100-1009","addr":"경기도 광명시 하안동 37-5번지 두원빌딩 6층","indutype":"학원 - 독서실","category":"study"}]},{"lat":"37.46101473","long":"126.8800644","imageIndex":16,"items":[{"name":"마테마티쿰학원","tel":"02-3281-0508","addr":"경기도 광명시 하안동 52-5번지 뉴코아빌딩 3층 제에이호","indutype":"회원제형태 - 학원","category":"study"},{"name":"지오에듀수학학원","tel":"02-899-4556","addr":"경기도 광명시 하안동 52-5번지 뉴코아빌딩 5층 제비호 제시호","indutype":"학원 - 보습학원","category":"study"},{"name":"파인데스크독서실하안점","tel":"02-899-5256","addr":"경기도 광명시 하안동 52-5번지 6층 에이호,비호,시호","indutype":"학원 - 독서실","category":"study"}]},{"lat":"37.46148617","long":"126.8829007","imageIndex":16,"items":[{"name":"뮤엠영어하안12단지영어교습소","tel":"","addr":"경기도 광명시 하안동 110-5번지 하안주공12단지 2층 202호","indutype":"학원 - 외국어학원","category":"study"},{"name":"정서윤피아노교습소","tel":"02-897-3255","addr":"경기도 광명시 하안동 110-5번지 12단지 종합상가 208호","indutype":"학원 - 예·체능계학원","category":"study"}]},{"lat":"37.46050101","long":"126.8799183","imageIndex":16,"items":[{"name":"민사이언스","tel":"","addr":"경기도 광명시 하안동 295번지 하안7단지고층주공아파트","indutype":"학원 - 기타 교육기관","category":"study"}]},{"lat":"37.4614661","long":"126.8809001","imageIndex":16,"items":[{"name":"백시현미술학원","tel":"02-802-1546","addr":"경기도 광명시 하안동 62번지 금성빌딩 303호","indutype":"학원 - 예·체능계학원","category":"study"},{"name":"수학의빛교습소","tel":"","addr":"경기도 광명시 하안동 62번지 금성빌딩 5층 504호","indutype":"학원 - 보습학원","category":"study"},{"name":"올림수학학원","tel":"02-891-1367","addr":"경기도 광명시 하안동 62번지 금성빌딩 502호","indutype":"학원 - 보습학원","category":"study"},{"name":"용인대중앙유도체육관","tel":"02-809-7007","addr":"경기도 광명시 하안동 62번지 금성빌딩 B01호","indutype":"학원 - 예·체능계학원","category":"study"}]},{"lat":"37.45732443","long":"126.8837663","imageIndex":16,"items":[{"name":"백의민족 태권도장","tel":"02-897-5908","addr":"경기도 광명시 하안동 260-4번지 4층 402,403호","indutype":"학원 - 예·체능계학원","category":"study"},{"name":"예란유치원[아이행복]","tel":"02-861-6677","addr":"경기도 광명시 하안동 260-4","indutype":"학원 - 유치원","category":"study"}]},{"lat":"37.45963243","long":"126.8764837","imageIndex":16,"items":[{"name":"베스트 스포츠 아카데미","tel":"02-897-6751","addr":"경기도 광명시 하안동 302-9번지 2층","indutype":"학원 - 예·체능계학원","category":"study"}]},{"lat":"37.46095799","long":"126.87751","imageIndex":16,"items":[{"name":"보리수어린이집[아이행복]","tel":"02-898-8220","addr":"경기도 광명시 하안동 296-2번지","indutype":"학원 - 유아원","category":"study"}]},{"lat":"37.46079812","long":"126.879703","imageIndex":16,"items":[{"name":"보리수음악학원","tel":"02-894-1959","addr":"경기도 광명시 하안동 52-2번지 대하빌딩 5층","indutype":"학원 - 예·체능계학원","category":"study"},{"name":"아트앤하트하안점학원","tel":"02-898-8092","addr":"경기도 광명시 하안동 52-2번지 4층","indutype":"학원 - 예·체능계학원","category":"study"},{"name":"열린태권도","tel":"02-802-8182","addr":"경기도 광명시 하안동 52-2번지 대하빌딩 6층","indutype":"학원 - 예·체능계학원","category":"study"},{"name":"하이클래스 영어학원","tel":"02-809-8739","addr":"경기도 광명시 하안동 52-2번지 대하빌딩 501호","indutype":"회원제형태 - 학원","category":"study"}]},{"lat":"37.46450218","long":"126.8806238","imageIndex":16,"items":[{"name":"부스트 잉글리쉬(BOOST ENGLISH)","tel":"","addr":"경기도 광명시 하안동 27번지 하안11단지고층주공아파트","indutype":"학원 - 기타 교육기관","category":"study"},{"name":"스파크수학","tel":"02-6334-6004","addr":"경기도 광명시 하안동 27번지 하안11단지고층주공아파트","indutype":"학원 - 보습학원","category":"study"}]},{"lat":"37.46371209","long":"126.8747587","imageIndex":16,"items":[{"name":"비룡경희대석사태권도장","tel":"02-808-7774","addr":"경기도 광명시 하안동 650-1번지 하안주공3단지종합상가 201호","indutype":"학원 - 예·체능계학원","category":"study"},{"name":"하안음악교습소","tel":"02-1111-1111","addr":"경기도 광명시 하안동 650-1번지 하안주공3단지종합상가 2층 205호","indutype":"학원 - 예·체능계학원","category":"study"},{"name":"한솔주니어랩","tel":"02-898-0553","addr":"경기도 광명시 하안동 650-1번지","indutype":"학원 - 보습학원","category":"study"}]},{"lat":"37.46209814","long":"126.8822102","imageIndex":16,"items":[{"name":"비엔나음악학원","tel":"02-893-1164","addr":"경기도 광명시 하안동 110-3번지 4층","indutype":"학원 - 예·체능계학원","category":"study"},{"name":"진진에듀학원","tel":"02-807-0979","addr":"경기도 광명시 하안동 110-3번지 4층","indutype":"학원 - 보습학원","category":"study"}]},{"lat":"37.46923561","long":"126.8670511","imageIndex":16,"items":[{"name":"빨간펜수학의달인","tel":"02-895-3102","addr":"경기도 광명시 하안동 864번지 이편한세상센트레빌아파트","indutype":"회원제형태 - 학원","category":"study"}]},{"lat":"37.45635198","long":"126.8599541","imageIndex":16,"items":[{"name":"산들유치원[아이행복]","tel":"02-898-8777","addr":"경기도 광명시 하안동 463","indutype":"학원 - 유치원","category":"study"}]},{"lat":"37.46479026","long":"126.8803973","imageIndex":16,"items":[{"name":"삼성영어","tel":"02-899-3305","addr":"경기도 광명시 하안동 30-5번지 하안주공10단지 상가 206호","indutype":"회원제형태 - 학원","category":"study"},{"name":"예영피아노음악학원","tel":"02-891-2339","addr":"경기도 광명시 하안동 30-5번지","indutype":"학원 - 예·체능계학원","category":"study"},{"name":"용인대영광태권도","tel":"02-802-9553","addr":"경기도 광명시 하안동 30-5번지 10단지 상가 208호","indutype":"회원제형태 - 학원","category":"study"},{"name":"하림서예교습소","tel":"02-803-6391","addr":"경기도 광명시 하안동 30-5번지 10단지종합상가 201호","indutype":"학원 - 예·체능계학원","category":"study"}]},{"lat":"37.46512676","long":"126.8667873","imageIndex":16,"items":[{"name":"삼성영어하안5단지점 교습소","tel":"02-899-0365","addr":"경기도 광명시 하안동 702-1번지 5단지 종합상가 203호","indutype":"회원제형태 - 학원","category":"study"}]},{"lat":"37.46257452","long":"126.8810904","imageIndex":16,"items":[{"name":"수앤리딩학원","tel":"02-899-0314","addr":"경기도 광명시 하안동 54-3번지 부림코아빌딩 302호","indutype":"회원제형태 - 학원","category":"study"},{"name":"일무합기도","tel":"02-809-5182","addr":"경기도 광명시 하안동 54-3번지 부림코아401,403","indutype":"학원 - 예·체능계학원","category":"study"},{"name":"한국종이문화원","tel":"02-2617-9463","addr":"경기도 광명시 하안동 54-3번지 부림코아빌딩 3층 301호","indutype":"학원 - 기타 교육기관","category":"study"}]},{"lat":"37.46234687","long":"126.8787849","imageIndex":16,"items":[{"name":"스키마보습학원","tel":"02-896-1018","addr":"경기도 광명시 하안동 34-8번지 제일프라자 601호","indutype":"학원 - 보습학원","category":"study"},{"name":"윤선생영어교실광명센터","tel":"02-805-0505","addr":"경기도 광명시 하안동 34-8번지 704호","indutype":"학원 - 학습지 교육","category":"study"},{"name":"윤선생영어숲광명영어학원","tel":"02-805-0505","addr":"경기도 광명시 하안동 34-8 제일프라자7층703호,704호","indutype":"학원 - 학습지 교육","category":"study"},{"name":"이화클래짐","tel":"02-1111-1111","addr":"경기도 광명시 하안동 34-8번지 제일플라자 5층 501,502,503,504호","indutype":"학원 - 기타 교육기관","category":"study"},{"name":"청아음악학원","tel":"02-803-2104","addr":"경기도 광명시 하안동 34-8제일프라자603~604호","indutype":"학원 - 예·체능계학원","category":"study"},{"name":"합격독서실","tel":"","addr":"경기도 광명시 하안동 34-8번지 501-504호","indutype":"학원 - 독서실","category":"study"}]},{"lat":"37.46165378","long":"126.8794304","imageIndex":16,"items":[{"name":"스텝업댄스무용학원","tel":"02-808-5571","addr":"경기도 광명시 하안동 37-4번지 성우빌딩 6층 전체","indutype":"학원 - 예·체능계학원","category":"study"}]},{"lat":"37.45907233","long":"126.8837296","imageIndex":16,"items":[{"name":"시립둥지어린이집[아이행복]","tel":"02-894-0684","addr":"경기도 광명시 하안동 200번지 하안종합사회복지관 신관 1층","indutype":"학원 - 유아원","category":"study"},{"name":"하안종합사회복지관","tel":"02-894-0720","addr":"경기도 광명시 하안동 200번지 하안13단지고층주공아파트","indutype":"학원 - 예·체능계학원","category":"study"}]},{"lat":"37.45929261","long":"126.8705956","imageIndex":16,"items":[{"name":"시립안현어린이집[아이행복]","tel":"02-897-7766","addr":"경기도 광명시 하안동 587-1번지","indutype":"학원 - 유아원","category":"study"}]},{"lat":"37.46637779","long":"126.8736012","imageIndex":16,"items":[{"name":"시립푸른어린이집[아이행복]","tel":"02-803-3622","addr":"경기도 광명시 하안동 683번지 다목적복지회관 신관 하안동","indutype":"학원 - 유아원","category":"study"},{"name":"시립하안누리어린이집[아이행복]","tel":"02-899-0108","addr":"경기도 광명시 하안동 683번지 시립하안누리어린이집","indutype":"학원 - 유아원","category":"study"}]},{"lat":"37.47093536","long":"126.8722594","imageIndex":16,"items":[{"name":"시립한빛어린이집[아이행복]","tel":"02-898-0555","addr":"경기도 광명시 하안동 772번지","indutype":"학원 - 유아원","category":"study"},{"name":"시립한빛어린이집[아이행복]","tel":"02-898-0555","addr":"경기도 광명시 하안동 772번지","indutype":"학원 - 유아원","category":"study"}]},{"lat":"37.46548996","long":"126.8774572","imageIndex":16,"items":[{"name":"쎈수학러닝센터하안보습학원","tel":"02-899-0979","addr":"경기도 광명시 하안동 30-1번지 중앙상가 상가동 401-2","indutype":"학원 - 보습학원","category":"study"},{"name":"열음음악학원","tel":"02-894-3444","addr":"경기도 광명시 하안동 30-1번지 4층 3-1호","indutype":"학원 - 예·체능계학원","category":"study"},{"name":"한우리보습학원","tel":"02-894-1954","addr":"경기도 광명시 하안동 30-1번지 중앙상가 401-1호","indutype":"학원 - 보습학원","category":"study"}]},{"lat":"37.46154641","long":"126.8801539","imageIndex":16,"items":[{"name":"아이플러스 아이발달연구소","tel":"02-6166-7579","addr":"경기도 광명시 하안동 51번지 태홍빌딩 A동","indutype":"회원제형태 - 학원","category":"study"},{"name":"아이플러스 아이발달연구소","tel":"02-897-0010","addr":"경기도 광명시 하안동 51번지 태홍빌딩 A동 4층","indutype":"학원 - 기타 교육기관","category":"study"},{"name":"차일드유&스타어학원","tel":"02-803-0525","addr":"경기도 광명시 하안동 51번지 태흥빌딩 3층","indutype":"회원제형태 - 학원","category":"study"},{"name":"포텐업영어학원","tel":"02-899-9342","addr":"경기도 광명시 하안동 51번지 석현빌딩 3층","indutype":"회원제형태 - 학원","category":"study"},{"name":"플레이코딩아카데미학원(광명캠퍼스)","tel":"02-897-7677","addr":"경기도 광명시 하안동 51번지 석현빌딩 B동 4층","indutype":"학원 - 컴퓨터학원","category":"study"}]},{"lat":"37.46482084","long":"126.8671496","imageIndex":16,"items":[{"name":"엠베스트 공부방","tel":"02-899-5105","addr":"경기도 광명시 하안동 702번지 하안5단지고층주공아파트","indutype":"학원 - 기타 교육기관","category":"study"}]},{"lat":"37.46318486","long":"126.8788401","imageIndex":16,"items":[{"name":"엠플러스수학학원","tel":"02-899-5411","addr":"경기도 광명시 하안동 34-1번지 근영빌딩 602호","indutype":"학원 - 보습학원","category":"study"},{"name":"점프하이영수학원","tel":"02-897-4067","addr":"경기도 광명시 하안동 34-1번지 근영빌딩 601호","indutype":"학원 - 보습학원","category":"study"}]},{"lat":"37.46604408","long":"126.8817856","imageIndex":16,"items":[{"name":"연서초등학교","tel":"02-892-5084","addr":"경기도 광명시 하안동 25-1번지 연서초등학교","indutype":"학원 - 초중고교육기관","category":"study"}]},{"lat":"37.4611295","long":"126.8778149","imageIndex":16,"items":[{"name":"예그린유치원[아이행복]","tel":"02-808-5757","addr":"경기도 광명시 하안동 296-3 하안주공6단지내","indutype":"학원 - 유치원","category":"study"},{"name":"이투스수학학원(하안직영점)","tel":"02-899-8855","addr":"경기도 광명시 하안동 296-3번지 4층 402호,403호(6단지 삼화교육센터)","indutype":"학원 - 보습학원","category":"study"}]},{"lat":"37.46125938","long":"126.8813977","imageIndex":16,"items":[{"name":"올리브앤스토리","tel":"02-2633-1033","addr":"경기도 광명시 하안동 110번지 하안12단지고층주공아파트","indutype":"회원제형태 - 학원","category":"study"}]},{"lat":"37.46176405","long":"126.8815099","imageIndex":16,"items":[{"name":"용인대동아태권도","tel":"02-805-8908","addr":"경기도 광명시 하안동 62-4번지 우성빌딩 201호","indutype":"학원 - 예·체능계학원","category":"study"},{"name":"하늘숲보습학원","tel":"02-891-3333","addr":"경기도 광명시 하안동 62-4번지 우성빌딩 401호","indutype":"학원 - 보습학원","category":"study"},{"name":"하늘숲음악학원","tel":"02-895-0066","addr":"경기도 광명시 하안동 62-4번지 우성빌딩 402호","indutype":"학원 - 예·체능계학원","category":"study"},{"name":"한별미술학원","tel":"02-893-9900","addr":"경기도 광명시 하안동 62-4번지 우성빌딩 3층","indutype":"학원 - 예·체능계학원","category":"study"}]},{"lat":"37.45693032","long":"126.8773133","imageIndex":16,"items":[{"name":"우리숲어린이집[아이행복]","tel":"02-899-1628","addr":"경기도 광명시 하안동 242-5번지","indutype":"학원 - 유아원","category":"study"}]},{"lat":"37.46359162","long":"126.8800941","imageIndex":16,"items":[{"name":"이세희 개인과외 교습","tel":"","addr":"경기도 광명시 하안동 30번지 하안10단지고층주공아파트","indutype":"학원 - 기타 교육기관","category":"study"}]},{"lat":"37.45994887","long":"126.8775117","imageIndex":16,"items":[{"name":"일등수학","tel":"","addr":"경기도 광명시 하안동 296번지","indutype":"학원 - 기타 교육기관","category":"study"}]},{"lat":"37.45813219","long":"126.8806907","imageIndex":16,"items":[{"name":"임토웅","tel":"02-554-8844","addr":"경기도 광명시 하안동 260번지 하안8단지주공아파트","indutype":"학원 - 기타 교육기관","category":"study"}]},{"lat":"37.46304082","long":"126.8789533","imageIndex":16,"items":[{"name":"작살수학학원","tel":"02-897-8119","addr":"경기도 광명시 하안동 34-2번지 목화빌딩 401호","indutype":"학원 - 보습학원","category":"study"},{"name":"플랜비학원","tel":"031-899-9888","addr":"경기도 광명시 하안동 34-2번지 목화빌딩 3층 301호","indutype":"학원 - 보습학원","category":"study"}]},{"lat":"37.46157445","long":"126.8811259","imageIndex":16,"items":[{"name":"작은화가들미술학원","tel":"070-8112-7525","addr":"경기도 광명시 하안동 62-1번지 신영빌딩 5층","indutype":"학원 - 예·체능계학원","category":"study"},{"name":"클라라음악학원","tel":"070-8112-7522","addr":"경기도 광명시 하안동 62-1번지 신영빌딩 302호","indutype":"학원 - 예·체능계학원","category":"study"}]},{"lat":"37.46637978","long":"126.8754324","imageIndex":16,"items":[{"name":"정인음악학원","tel":"02-891-0022","addr":"경기도 광명시 하안동 681번지 2단지교육센터 3층","indutype":"학원 - 예·체능계학원","category":"study"}]},{"lat":"37.46313229","long":"126.8802644","imageIndex":16,"items":[{"name":"제이케이음악학원","tel":"02-895-9506","addr":"경기도 광명시 하안동 33-6번지 삼전빌딩 403호","indutype":"학원 - 예·체능계학원","category":"study"}]},{"lat":"37.46070782","long":"126.879511","imageIndex":16,"items":[{"name":"주식회사 하안해법보습학원","tel":"02-805-3111","addr":"경기도 광명시 하안동 52-1번지 동명빌딩 4층","indutype":"학원 - 보습학원","category":"study"},{"name":"찬스 학원","tel":"02-802-3300","addr":"경기도 광명시 하안동 52-1번지 동명빌딩 5층 찬스학원","indutype":"학원 - 보습학원","category":"study"}]},{"lat":"37.46190652","long":"126.8798708","imageIndex":16,"items":[{"name":"찬수학전문학원","tel":"02-899-0036","addr":"경기도 광명시 하안동 36-5번지 노벨빌딩 7층","indutype":"학원 - 보습학원","category":"study"}]},{"lat":"37.45935071","long":"126.8828136","imageIndex":16,"items":[{"name":"천사음악학원","tel":"02-897-9944","addr":"경기도 광명시 하안동 200-1번지 경향빌딩 301호","indutype":"학원 - 예·체능계학원","category":"study"},{"name":"하안베스트자기주도학원","tel":"02-805-7905","addr":"경기도 광명시 하안동 200-1번지 경향빌딩 303호","indutype":"학원 - 보습학원","category":"study"}]},{"lat":"37.46872324","long":"126.868092","imageIndex":16,"items":[{"name":"키즈빌어린이집[아이행복]","tel":"02-6403-7888","addr":"경기도 광명시 하안동 864번지 이편한센트레빌아 104동 103호","indutype":"학원 - 유아원","category":"study"}]},{"lat":"37.46234582","long":"126.8777903","imageIndex":16,"items":[{"name":"톰콜린스 과외교습","tel":"","addr":"경기도 광명시 하안동 651번지 하안4단지고층주공아파트","indutype":"학원 - 기타 교육기관","category":"study"}]},{"lat":"37.46154482","long":"126.878628","imageIndex":16,"items":[{"name":"티앤씨(T&C)학원","tel":"02-2647-8774","addr":"경기도 광명시 하안동 36번지 5층 505호","indutype":"학원 - 보습학원","category":"study"},{"name":"티움 아이키친","tel":"02-898-2777","addr":"경기도 광명시 하안동 36번지 골드프라자 5층 504호","indutype":"학원 - 기타 교육기관","category":"study"}]},{"lat":"37.4663418","long":"126.8656547","imageIndex":16,"items":[{"name":"풀꽃어린이집","tel":"02-899-3034","addr":"경기도 광명시 하안동 864 이편한세상센트리빌 208-103","indutype":"학원 - 유아원","category":"study"}]},{"lat":"37.45963108","long":"126.8752291","imageIndex":16,"items":[{"name":"하안고시원","tel":"02-899-0599","addr":"경기도 광명시 하안동 302-2번지 6층","indutype":"학원 - 독서실","category":"study"}]},{"lat":"37.46451558","long":"126.8680996","imageIndex":16,"items":[{"name":"하안북중학교","tel":"02-898-3821","addr":"경기도 광명시 하안동 684번지 하안북중학교","indutype":"학원 - 초중고교육기관","category":"study"}]},{"lat":"37.45960118","long":"126.8725956","imageIndex":16,"items":[{"name":"하안색동원어린이집[아이행복]","tel":"02-897-5415","addr":"경기도 광명시 하안동 602-7번지","indutype":"학원 - 유아원","category":"study"}]},{"lat":"37.46084641","long":"126.8742889","imageIndex":16,"items":[{"name":"하안숲소리어린이집[아이행복]","tel":"02-897-0871","addr":"경기도 광명시 하안동 599-5번지","indutype":"학원 - 유아원","category":"study"}]},{"lat":"37.4669623","long":"126.8810155","imageIndex":16,"items":[{"name":"하안중학교","tel":"031-895-8505","addr":"경기도 광명시 하안동 25번지 하안중학교","indutype":"학원 - 초중고교육기관","category":"study"}]},{"lat":"37.46246422","long":"126.8789882","imageIndex":16,"items":[{"name":"한국심는치아연구회","tel":"02-892-6913","addr":"경기도 광명시 하안동 34-7번지 우덕빌딩 502호","indutype":"학원 - 기타 교육기관","category":"study"}]},{"lat":"37.46691906","long":"126.8661962","imageIndex":16,"items":[{"name":"한양본영어수학","tel":"02-879-1995","addr":"경기도 광명시 하안동 864번지 이편한세상센트레빌아파트","indutype":"회원제형태 - 학원","category":"study"}]},{"lat":"37.4662652","long":"126.8778176","imageIndex":16,"items":[{"name":"혜성유치원[아이행복]","tel":"02-893-6677","addr":"경기도 광명시 하안동 13-3번지 9단지교육센터","indutype":"학원 - 유치원","category":"study"}]}]