[{"lat":"37.751699688","long":"126.80320894","imageIndex":0,"items":[{"name":"금촌타이어","tel":"031-943-9737","addr":"경기도 파주시 조리읍 등원리 282-4","indutype":"자동차정비 유지 - 자동차시트·타이어","category":"car"},{"name":"에스엠씨에너지","tel":"031-944-7500","addr":"경기도 파주시 조리읍 등원리 282-4번지","indutype":"자동차판매 - 기타운송","category":"car"}]},{"lat":"37.761205552","long":"126.80909593","imageIndex":0,"items":[{"name":"대한자동차정비공업사","tel":"031-944-3280","addr":"경기도 파주시 조리읍 등원리 7-9번지","indutype":"자동차정비 유지 - 자동차정비","category":"car"}]},{"lat":"37.746733259","long":"126.80192882","imageIndex":0,"items":[{"name":"봉일천카서비스","tel":"031-943-7689","addr":"경기도 파주시 조리읍 등원리 316-2,316-12","indutype":"자동차정비 유지 - 자동차부품","category":"car"}]},{"lat":"37.763260366","long":"126.80948777","imageIndex":0,"items":[{"name":"신현대모터스","tel":"031-944-4777","addr":"경기도 파주시 조리읍 등원리 145번지","indutype":"자동차정비 유지 - 자동차정비","category":"car"}]},{"lat":"37.756338952","long":"126.79759072","imageIndex":0,"items":[{"name":"싼마일샵","tel":"031-945-8777","addr":"경기도 파주시 조리읍 등원리 438-12번지","indutype":"자동차정비 유지 - 자동차정비","category":"car"}]},{"lat":"37.758396892","long":"126.80506337","imageIndex":0,"items":[{"name":"주식회사퍼스트엔지니어링","tel":"070-7516-2690","addr":"경기도 파주시 조리읍 등원리 249-6, 249-5","indutype":"자동차정비 유지 - 자동차부품","category":"car"}]},{"lat":"37.756761586","long":"126.79712429","imageIndex":0,"items":[{"name":"파주종합타이어","tel":"031-947-6465","addr":"경기도 파주시 조리읍 등원리 438-7번지","indutype":"자동차정비 유지 - 자동차시트·타이어","category":"car"},{"name":"파주종합타이어","tel":"031-947-6465","addr":"경기도 파주시 조리읍 등원리 438-7번지","indutype":"자동차정비 유지 - 자동차정비","category":"car"}]}]