[{"lat":"37.522453622","long":"126.78612924","imageIndex":7,"items":[{"name":"공원마트","tel":"032-672-7045","addr":"경기도 부천시 내동 342-6번지","indutype":"유통업 영리 - 슈퍼마켓","category":"mart"}]},{"lat":"37.517454681","long":"126.7726605","imageIndex":7,"items":[{"name":"내동마트24시","tel":"032-683-9675","addr":"경기도 부천시 내동 32-6번지","indutype":"유통업 영리 - 슈퍼마켓","category":"mart"}]},{"lat":"37.523055011","long":"126.78489446","imageIndex":7,"items":[{"name":"내촌마트","tel":"070-4642-4932","addr":"경기도 부천시 내동 289-6번지 성진그린타운 7동 1층","indutype":"유통업 영리 - 슈퍼마켓","category":"mart"}]},{"lat":"37.520705195","long":"126.7858515","imageIndex":7,"items":[{"name":"대성할인마트","tel":"032-681-7170","addr":"경기도 부천시 내동 306-4번지 선경타운 1층 103호","indutype":"유통업 영리 - 슈퍼마켓","category":"mart"}]},{"lat":"37.52237122","long":"126.78057521","imageIndex":7,"items":[{"name":"대신슈퍼","tel":"032-678-3401","addr":"경기도 부천시 내동 172번지","indutype":"유통업 영리 - 슈퍼마켓","category":"mart"}]},{"lat":"37.521396259","long":"126.77957133","imageIndex":7,"items":[{"name":"민호슈퍼","tel":"032-679-0356","addr":"경기도 부천시 내동 161번지 1층","indutype":"유통업 영리 - 슈퍼마켓","category":"mart"}]},{"lat":"37.519314452","long":"126.77929474","imageIndex":7,"items":[{"name":"보람슈퍼","tel":"032-672-6773","addr":"경기도 부천시 내동 136-3번지","indutype":"유통업 영리 - 슈퍼마켓","category":"mart"}]},{"lat":"37.519816411","long":"126.7827094","imageIndex":7,"items":[{"name":"부천 프렌드 타이마트","tel":"070-7347-1711","addr":"경기도 부천시 내동 262-1번지 지하층","indutype":"유통업 영리 - 슈퍼마켓","category":"mart"}]},{"lat":"37.517035585","long":"126.77962957","imageIndex":7,"items":[{"name":"삼광슈퍼","tel":"032-683-3337","addr":"경기도 부천시 내동 151번지","indutype":"유통업 영리 - 슈퍼마켓","category":"mart"}]},{"lat":"37.516926675","long":"126.77921138","imageIndex":7,"items":[{"name":"성진마트","tel":"032-678-3224","addr":"경기도 부천시 내동 150","indutype":"유통업 영리 - 슈퍼마켓","category":"mart"}]},{"lat":"37.520286794","long":"126.78371477","imageIndex":7,"items":[{"name":"송림미니마트","tel":"032-678-8502","addr":"경기도 부천시 내동 274-1","indutype":"유통업 영리 - 슈퍼마켓","category":"mart"}]},{"lat":"37.519869644","long":"126.77749452","imageIndex":7,"items":[{"name":"오마트","tel":"032-677-8049","addr":"경기도 부천시 내동 115번지","indutype":"유통업 영리 - 슈퍼마켓","category":"mart"}]},{"lat":"37.520283993","long":"126.78221031","imageIndex":7,"items":[{"name":"위드미부천무지개점","tel":"032-678-8228","addr":"경기도 부천시 내동 228-3번지 1층","indutype":"유통업 영리 - 슈퍼마켓","category":"mart"}]},{"lat":"37.519203067","long":"126.78234923","imageIndex":7,"items":[{"name":"인성슈퍼","tel":"02-111-1111","addr":"경기도 부천시 내동 308-2번지 1층","indutype":"유통업 영리 - 슈퍼마켓","category":"mart"}]},{"lat":"37.519011969","long":"126.77193177","imageIndex":7,"items":[{"name":"제일할인마트","tel":"032-677-6819","addr":"경기도 부천시 내동 19-11상아빌리지1층-101","indutype":"유통업 영리 - 슈퍼마켓","category":"mart"}]},{"lat":"37.519340396","long":"126.77402342","imageIndex":7,"items":[{"name":"종원슈퍼마켓","tel":"032-672-1501","addr":"경기도 부천시 내동 17-3 우성연립 101 6/6","indutype":"유통업 영리 - 슈퍼마켓","category":"mart"}]},{"lat":"37.520398039","long":"126.77583008","imageIndex":7,"items":[{"name":"태광슈퍼","tel":"032-673-2588","addr":"경기도 부천시 내동 69-1번지","indutype":"유통업 영리 - 슈퍼마켓","category":"mart"}]},{"lat":"37.519284558","long":"126.77310734","imageIndex":7,"items":[{"name":"투마트","tel":"031-111-1111","addr":"경기도 부천시 내동 17번지 푸른솔빌 101호","indutype":"유통업 영리 - 슈퍼마켓","category":"mart"}]},{"lat":"37.520281917","long":"126.78110175","imageIndex":7,"items":[{"name":"현대슈퍼","tel":"032-684-1820","addr":"경기도 부천시 내동 227-2번지","indutype":"유통업 영리 - 슈퍼마켓","category":"mart"}]}]