[{"lat":"37.358089764","long":"126.93122908","imageIndex":9,"items":[{"name":"SK네트웍스(주)성원주유소","tel":"031-391-1548","addr":"경기도 군포시 산본동 1142-8번지","indutype":"연료판매점 - SK주유소","category":"oil"}]},{"lat":"37.370976414","long":"126.93487459","imageIndex":9,"items":[{"name":"군포스타주유소","tel":"031-393-5189","addr":"경기도 군포시 산본동 207-3번지","indutype":"연료판매점 - 주유소","category":"oil"},{"name":"지에스칼텍스(주)군포스타주유소","tel":"031-393-5189","addr":"경기도 군포시 산본동 207-3번지","indutype":"연료판매점 - GS주유소","category":"oil"}]},{"lat":"37.372060591","long":"126.94023615","imageIndex":9,"items":[{"name":"대화석유","tel":"031-398-1043","addr":"경기도 군포시 산본동 90-40","indutype":"연료판매점 - 유류판매","category":"oil"},{"name":"대화석유","tel":"031-398-1043","addr":"경기도 군포시 산본동 90-40","indutype":"연료판매점 - 유류판매","category":"oil"}]},{"lat":"37.375837492","long":"126.9434507","imageIndex":9,"items":[{"name":"삼미상사(주)금정역셀프주유소","tel":"031-456-5189","addr":"경기도 군포시 산본동 18-35번지","indutype":"연료판매점 - SK주유소","category":"oil"},{"name":"주식회사 부광주유소","tel":"031-456-5189","addr":"경기도 군포시 산본동 18-35번지","indutype":"연료판매점 - SK주유소","category":"oil"}]},{"lat":"37.376719503","long":"126.94153066","imageIndex":9,"items":[{"name":"일성가스상사","tel":"031-456-6700","addr":"경기도 군포시 산본동 19-5번지 1층","indutype":"연료판매점 - 기타연료","category":"oil"},{"name":"일성가스상사","tel":"02-212-1035","addr":"경기도 군포시 산본동 19-5번지 1층","indutype":"연료판매점 - LPG 취급점","category":"oil"}]}]