[{"lat":"37.841333376","long":"127.06720626","imageIndex":0,"items":[{"name":"EDS프로모터스","tel":"031-858-1404","addr":"경기도 양주시 덕정동 173-5번지","indutype":"자동차정비 유지 - 세차장","category":"car"}]},{"lat":"37.839777373","long":"127.0622063","imageIndex":0,"items":[{"name":"광천","tel":"031-000-0000","addr":"경기도 양주시 덕정동 287-13번지","indutype":"자동차정비 유지 - 자동차정비","category":"car"},{"name":"덕정스마일세차장","tel":"031-866-0505","addr":"경기도 양주시 덕정동 287-13번지","indutype":"자동차정비 유지 - 세차장","category":"car"},{"name":"수지자동차공업사","tel":"031-859-1097","addr":"경기도 양주시 덕정동 287-13번지","indutype":"자동차정비 유지 - 자동차정비","category":"car"}]},{"lat":"37.848140333","long":"127.05758877","imageIndex":0,"items":[{"name":"대현카센타","tel":"031-858-8997","addr":"경기도 양주시 덕정동 404번지","indutype":"자동차정비 유지 - 자동차정비","category":"car"}]},{"lat":"37.84814132","long":"127.07275671","imageIndex":0,"items":[{"name":"더꾸밈","tel":"070-8161-7660","addr":"경기도 양주시 덕정동 31-20번지","indutype":"자동차정비 유지 - 자동차부품","category":"car"}]},{"lat":"37.841471572","long":"127.06134424","imageIndex":0,"items":[{"name":"덕정역 신환승 주차장","tel":"","addr":"경기도 양주시 덕정동 350-270번지 외4필지","indutype":"자동차정비 유지 - 주차장","category":"car"}]},{"lat":"37.840695526","long":"127.06378616","imageIndex":0,"items":[{"name":"덕정카공업사","tel":"031-861-9993","addr":"경기도 양주시 덕정동 156-21번지","indutype":"자동차정비 유지 - 자동차정비","category":"car"}]},{"lat":"37.838443613","long":"127.06293229","imageIndex":0,"items":[{"name":"덕정카크리닉","tel":"031-857-8280","addr":"경기도 양주시 덕정동 286-35번지","indutype":"자동차정비 유지 - 자동차정비","category":"car"}]},{"lat":"37.84613839","long":"127.06145018","imageIndex":0,"items":[{"name":"덕흥카센타","tel":"031-858-3355","addr":"경기도 양주시 덕정동 350-24번지","indutype":"자동차정비 유지 - 자동차정비","category":"car"},{"name":"수정세차장","tel":"031-868-7332","addr":"경기도 양주시 덕정동 350-24번지","indutype":"자동차정비 유지 - 세차장","category":"car"}]},{"lat":"37.853525176","long":"127.06326267","imageIndex":0,"items":[{"name":"덱스크루","tel":"031-866-0858","addr":"경기도 양주시 덕정동 475-2번지 1층","indutype":"자동차정비 유지 - 카인테리어","category":"car"}]},{"lat":"37.85297664","long":"127.06120561","imageIndex":0,"items":[{"name":"동일부품","tel":"031-859-1855","addr":"경기도 양주시 덕정동 467번지","indutype":"자동차정비 유지 - 자동차부품","category":"car"}]},{"lat":"37.848194408","long":"127.07437013","imageIndex":0,"items":[{"name":"르노삼성양주부품대리점","tel":"031-865-2286","addr":"경기도 양주시 덕정동 29-2번지","indutype":"자동차정비 유지 - 자동차부품","category":"car"}]},{"lat":"37.845084189","long":"127.06165385","imageIndex":0,"items":[{"name":"모든타이어","tel":"031-857-8255","addr":"경기도 양주시 덕정동 350-272번지","indutype":"자동차정비 유지 - 자동차시트·타이어","category":"car"},{"name":"모터샵","tel":"03-487-3614","addr":"경기도 양주시 덕정동 350-272번지","indutype":"자동차정비 유지 - 자동차부품","category":"car"},{"name":"삼원자동차정비공업사","tel":"031-861-8203","addr":"경기도 양주시 덕정동 350-272번지","indutype":"자동차정비 유지 - 자동차정비","category":"car"}]},{"lat":"37.837669046","long":"127.06245454","imageIndex":0,"items":[{"name":"새차만들기","tel":"031-848-3335","addr":"경기도 양주시 덕정동 281-1번지 1층","indutype":"자동차정비 유지 - 카인테리어","category":"car"},{"name":"형제오토바이","tel":"031-858-1925","addr":"경기도 양주시 덕정동 281-1","indutype":"자동차판매 - 이륜차판매","category":"car"}]},{"lat":"37.837920729","long":"127.06359076","imageIndex":0,"items":[{"name":"쌍용자동차양주서비스프라자","tel":"031-859-3366","addr":"경기도 양주시 덕정동 222-6번지","indutype":"자동차정비 유지 - 자동차정비","category":"car"}]},{"lat":"37.837389737","long":"127.06248839","imageIndex":0,"items":[{"name":"양주오토매틱","tel":"031-859-6633","addr":"경기도 양주시 덕정동 281-8번지","indutype":"자동차정비 유지 - 자동차정비","category":"car"}]},{"lat":"37.841720768","long":"127.06722932","imageIndex":0,"items":[{"name":"에이스 카센터","tel":"031-857-0021","addr":"경기도 양주시 덕정동 179-2번지","indutype":"자동차정비 유지 - 자동차정비","category":"car"}]},{"lat":"37.840143383","long":"127.06856849","imageIndex":0,"items":[{"name":"카앤미","tel":"031-861-2904","addr":"경기도 양주시 덕정동 203-1번지","indutype":"자동차정비 유지 - 자동차정비","category":"car"}]},{"lat":"37.837921338","long":"127.06239794","imageIndex":0,"items":[{"name":"투엠카센타","tel":"031-857-5599","addr":"경기도 양주시 덕정동 223-31번지","indutype":"자동차정비 유지 - 자동차정비","category":"car"}]}]