[{"lat":"37.406190593","long":"126.89104199","imageIndex":4,"items":[{"name":"(주)신세계푸드 코카콜라 안양물류점","tel":"02-3397-6176","addr":"경기도 안양시 만안구 박달동 621-2번지","indutype":"일반휴게음식 - 위탁급식업","category":"restaurant"}]},{"lat":"37.401301198","long":"126.90464717","imageIndex":4,"items":[{"name":"59쌀피자안양박달점","tel":"031-465-5982","addr":"경기도 안양시 만안구 박달동 138-2번지","indutype":"일반휴게음식 - 서양음식","category":"restaurant"}]},{"lat":"37.403665753","long":"126.90947805","imageIndex":4,"items":[{"name":"60계치킨박달점","tel":"031-469-4794","addr":"경기도 안양시 만안구 박달동 17-4번지","indutype":"일반휴게음식 - 스넥","category":"restaurant"}]},{"lat":"37.404883509","long":"126.91126106","imageIndex":4,"items":[{"name":"강남식당","tel":"031-441-3875","addr":"경기도 안양시 만안구 박달동 60-10번지","indutype":"일반휴게음식 - 일반한식","category":"restaurant"}]},{"lat":"37.405857154","long":"126.91198273","imageIndex":4,"items":[{"name":"강릉회식당","tel":"031-448-3938","addr":"경기도 안양시 만안구 박달동 55-20번지","indutype":"일반휴게음식 - 일반한식","category":"restaurant"},{"name":"구이타운","tel":"070-4129-4188","addr":"경기도 안양시 만안구 박달동 55-20번지","indutype":"일반휴게음식 - 일반한식","category":"restaurant"},{"name":"뉴컴백커피맥주","tel":"031-466-7064","addr":"경기도 안양시 만안구 박달동 55-20번지","indutype":"일반휴게음식 - 서양음식","category":"restaurant"},{"name":"비스트로7월","tel":"","addr":"경기도 안양시 만안구 박달동 55-20번지","indutype":"일반휴게음식 - 주점","category":"restaurant"}]},{"lat":"37.402747144","long":"126.91001001","imageIndex":4,"items":[{"name":"개미다방","tel":"031-443-8411","addr":"경기도 안양시 만안구 박달동 18-7번지","indutype":"일반휴게음식 - 서양음식","category":"restaurant"},{"name":"이삭토스트안양박달사거리점","tel":"031-444-0113","addr":"경기도 안양시 만안구 박달동 18-7번지","indutype":"일반휴게음식 - 서양음식","category":"restaurant"},{"name":"제주도","tel":"031-469-7600","addr":"경기도 안양시 만안구 박달동 18-7번지","indutype":"일반휴게음식 - 일식·회집","category":"restaurant"}]},{"lat":"37.402609778","long":"126.90723182","imageIndex":4,"items":[{"name":"거인의정원","tel":"","addr":"경기도 안양시 만안구 박달동 99-33번지","indutype":"일반휴게음식 - 서양음식","category":"restaurant"}]},{"lat":"37.402689514","long":"126.90557148","imageIndex":4,"items":[{"name":"고기굽는아저씨","tel":"031-446-8745","addr":"경기도 안양시 만안구 박달동 137-1번지","indutype":"일반휴게음식 - 일반한식","category":"restaurant"},{"name":"맥주한잔","tel":"031-469-9992","addr":"경기도 안양시 만안구 박달동 137-1번지","indutype":"일반휴게음식 - 주점","category":"restaurant"}]},{"lat":"37.402771804","long":"126.90703961","imageIndex":4,"items":[{"name":"고두향","tel":"031-445-0204","addr":"경기도 안양시 만안구 박달동 99-18번지","indutype":"일반휴게음식 - 일반한식","category":"restaurant"}]},{"lat":"37.401806565","long":"126.9056178","imageIndex":4,"items":[{"name":"고향보쌈","tel":"031-469-5756","addr":"경기도 안양시 만안구 박달동 139-19번지","indutype":"일반휴게음식 - 일반한식","category":"restaurant"},{"name":"챤스","tel":"031-443-8748","addr":"경기도 안양시 만안구 박달동 139-19번지","indutype":"일반휴게음식 - 칵테일바","category":"restaurant"}]},{"lat":"37.404612095","long":"126.90983829","imageIndex":4,"items":[{"name":"골목식당","tel":"031-464-1980","addr":"경기도 안양시 만안구 박달동 21-11번지","indutype":"일반휴게음식 - 일반한식","category":"restaurant"},{"name":"민이네초밥","tel":"070-4306-7184","addr":"경기도 안양시 만안구 박달동 21-11번지","indutype":"일반휴게음식 - 일식·회집","category":"restaurant"}]},{"lat":"37.402331887","long":"126.90900535","imageIndex":4,"items":[{"name":"교촌치킨 박달사거리점","tel":"031-464-1991","addr":"경기도 안양시 만안구 박달동 85-15번지","indutype":"일반휴게음식 - 일반한식","category":"restaurant"},{"name":"전복삼계탕","tel":"031-441-1888","addr":"경기도 안양시 만안구 박달동 85-15번지","indutype":"일반휴게음식 - 일반한식","category":"restaurant"}]},{"lat":"37.404520965","long":"126.90853955","imageIndex":4,"items":[{"name":"국수전문점","tel":"","addr":"경기도 안양시 만안구 박달동 45-2번지","indutype":"일반휴게음식 - 스넥","category":"restaurant"}]},{"lat":"37.401996073","long":"126.90597896","imageIndex":4,"items":[{"name":"굴다리돼지갈비박달점","tel":"031-469-8227","addr":"경기도 안양시 만안구 박달동 139-95번지","indutype":"일반휴게음식 - 일반한식","category":"restaurant"}]},{"lat":"37.405359189","long":"126.90889992","imageIndex":4,"items":[{"name":"굿스고로케","tel":"031-444-6780","addr":"경기도 안양시 만안구 박달동 22-38번지","indutype":"일반휴게음식 - 스넥","category":"restaurant"}]},{"lat":"37.405551132","long":"126.912401","imageIndex":4,"items":[{"name":"그잘난꼼장어","tel":"031-446-0995","addr":"경기도 안양시 만안구 박달동 58-4번지","indutype":"일반휴게음식 - 주점","category":"restaurant"}]},{"lat":"37.401549296","long":"126.89973396","imageIndex":4,"items":[{"name":"김밥나라","tel":"031-443-8068","addr":"경기도 안양시 만안구 박달동 158-8번지","indutype":"일반휴게음식 - 일반한식","category":"restaurant"},{"name":"카페쿠잉","tel":"","addr":"경기도 안양시 만안구 박달동 158-8번지","indutype":"일반휴게음식 - 서양음식","category":"restaurant"}]},{"lat":"37.408662002","long":"126.88450978","imageIndex":4,"items":[{"name":"김밥세상","tel":"031-447-3999","addr":"경기도 안양시 만안구 박달동 931-14번지","indutype":"일반휴게음식 - 스넥","category":"restaurant"}]},{"lat":"37.398973901","long":"126.90145412","imageIndex":4,"items":[{"name":"김밥킹 박달점","tel":"031-442-0045","addr":"경기도 안양시 만안구 박달동 149-1번지","indutype":"일반휴게음식 - 스넥","category":"restaurant"},{"name":"의정부부대찌개도담","tel":"031-443-9060","addr":"경기도 안양시 만안구 박달동 149-1번지","indutype":"일반휴게음식 - 일반한식","category":"restaurant"},{"name":"처갓집양념치킨 박달점","tel":"031-468-3392","addr":"경기도 안양시 만안구 박달동 149-1번지","indutype":"일반휴게음식 - 일반한식","category":"restaurant"}]},{"lat":"37.405577284","long":"126.91126022","imageIndex":4,"items":[{"name":"김서방네곱창볶음","tel":"031-443-5241","addr":"경기도 안양시 만안구 박달동 55-29번지","indutype":"일반휴게음식 - 일반한식","category":"restaurant"}]},{"lat":"37.405412809","long":"126.90834642","imageIndex":4,"items":[{"name":"깨비비어","tel":"","addr":"경기도 안양시 만안구 박달동 15-1번지","indutype":"일반휴게음식 - 주점","category":"restaurant"},{"name":"바로숯닭안양박달점","tel":"031-383-8592","addr":"경기도 안양시 만안구 박달동 15-1번지","indutype":"일반휴게음식 - 일반한식","category":"restaurant"},{"name":"숙성고기한상","tel":"031-469-7717","addr":"경기도 안양시 만안구 박달동 15-1번지","indutype":"일반휴게음식 - 일반한식","category":"restaurant"},{"name":"카페쉼표","tel":"070-4384-1074","addr":"경기도 안양시 만안구 박달동 15-1번지","indutype":"일반휴게음식 - 서양음식","category":"restaurant"}]},{"lat":"37.405584333","long":"126.9087641","imageIndex":4,"items":[{"name":"꼬끼오","tel":"031-441-9898","addr":"경기도 안양시 만안구 박달동 22-1번지","indutype":"일반휴게음식 - 일반한식","category":"restaurant"},{"name":"옥이네두루치기","tel":"031-446-6161","addr":"경기도 안양시 만안구 박달동 22-1번지","indutype":"일반휴게음식 - 일반한식","category":"restaurant"}]},{"lat":"37.405917553","long":"126.90857168","imageIndex":4,"items":[{"name":"꽃이피고","tel":"031-447-7979","addr":"경기도 안양시 만안구 박달동 23-17번지","indutype":"일반휴게음식 - 서양음식","category":"restaurant"}]},{"lat":"37.402000408","long":"126.90043358","imageIndex":4,"items":[{"name":"꾼떡","tel":"031-448-5548","addr":"경기도 안양시 만안구 박달동 157-13번지","indutype":"일반휴게음식 - 일반한식","category":"restaurant"},{"name":"본죽(비발디점)","tel":"031-449-6288","addr":"경기도 안양시 만안구 박달동 157-13번지","indutype":"일반휴게음식 - 일반한식","category":"restaurant"},{"name":"카페나무","tel":"070-4411-5548","addr":"경기도 안양시 만안구 박달동 157-13번지","indutype":"일반휴게음식 - 서양음식","category":"restaurant"},{"name":"호치킨하우스","tel":"031-444-5727","addr":"경기도 안양시 만안구 박달동 157-13번지","indutype":"일반휴게음식 - 스넥","category":"restaurant"}]},{"lat":"37.40474646","long":"126.90884421","imageIndex":4,"items":[{"name":"나주홍어","tel":"031-444-0589","addr":"경기도 안양시 만안구 박달동 15-4번지","indutype":"일반휴게음식 - 일반한식","category":"restaurant"}]},{"lat":"37.404720376","long":"126.91004146","imageIndex":4,"items":[{"name":"남대문곱창순대","tel":"031-447-7432","addr":"경기도 안양시 만안구 박달동 57-3번지","indutype":"일반휴게음식 - 일반한식","category":"restaurant"},{"name":"장충족발","tel":"031-465-6200","addr":"경기도 안양시 만안구 박달동 57-3번지","indutype":"일반휴게음식 - 일반한식","category":"restaurant"}]},{"lat":"37.402694594","long":"126.91195267","imageIndex":4,"items":[{"name":"남도빈대떡","tel":"","addr":"경기도 안양시 만안구 박달동 74-11번지","indutype":"일반휴게음식 - 일반한식","category":"restaurant"}]},{"lat":"37.405827488","long":"126.90861697","imageIndex":4,"items":[{"name":"남원추어탕.민물장어구이","tel":"031-449-6348","addr":"경기도 안양시 만안구 박달동 23-21번지","indutype":"일반휴게음식 - 일반한식","category":"restaurant"}]},{"lat":"37.406107294","long":"126.90923783","imageIndex":4,"items":[{"name":"네네치킨 박달점","tel":"031-445-9282","addr":"경기도 안양시 만안구 박달동 31-27번지","indutype":"일반휴게음식 - 스넥","category":"restaurant"}]},{"lat":"37.402668307","long":"126.912924","imageIndex":4,"items":[{"name":"노가리랑먹태랑","tel":"","addr":"경기도 안양시 만안구 박달동 75-24번지","indutype":"일반휴게음식 - 일반한식","category":"restaurant"},{"name":"추억호프","tel":"031-465-1121","addr":"경기도 안양시 만안구 박달동 75-24번지","indutype":"일반휴게음식 - 주점","category":"restaurant"}]},{"lat":"37.401773427","long":"126.89845743","imageIndex":4,"items":[{"name":"노가리슈퍼","tel":"","addr":"경기도 안양시 만안구 박달동 607-20번지","indutype":"일반휴게음식 - 일반한식","category":"restaurant"}]},{"lat":"37.406940413","long":"126.88384609","imageIndex":4,"items":[{"name":"논두렁밭두렁","tel":"031-442-9007","addr":"경기도 안양시 만안구 박달동 822-1번지","indutype":"일반휴게음식 - 일반한식","category":"restaurant"}]},{"lat":"37.405577711","long":"126.91181365","imageIndex":4,"items":[{"name":"논산포차","tel":"","addr":"경기도 안양시 만안구 박달동 58-9번지","indutype":"일반휴게음식 - 일반한식","category":"restaurant"},{"name":"박리김밥","tel":"031-443-6050","addr":"경기도 안양시 만안구 박달동 58-9번지","indutype":"일반휴게음식 - 일반한식","category":"restaurant"},{"name":"시골막걸리와 부침개","tel":"031-466-7414","addr":"경기도 안양시 만안구 박달동 58-9번지","indutype":"일반휴게음식 - 일반한식","category":"restaurant"}]},{"lat":"37.405692669","long":"126.90903504","imageIndex":4,"items":[{"name":"놀구있네","tel":"031-468-3919","addr":"경기도 안양시 만안구 박달동 22-32번지","indutype":"일반휴게음식 - 주점","category":"restaurant"}]},{"lat":"37.405631876","long":"126.91194912","imageIndex":4,"items":[{"name":"달콩카페","tel":"031-442-0011","addr":"경기도 안양시 만안구 박달동 58-10번지","indutype":"일반휴게음식 - 서양음식","category":"restaurant"},{"name":"한키반7080라이브","tel":"031-349-4050","addr":"경기도 안양시 만안구 박달동 58-10번지","indutype":"일반휴게음식 - 주점","category":"restaurant"}]},{"lat":"37.402361326","long":"126.9120886","imageIndex":4,"items":[{"name":"당진아구동태탕찜","tel":"031-441-0013","addr":"경기도 안양시 만안구 박달동 68-39번지","indutype":"일반휴게음식 - 일반한식","category":"restaurant"}]},{"lat":"37.406412862","long":"126.9082661","imageIndex":4,"items":[{"name":"대가집숯불갈비","tel":"031-466-0355","addr":"경기도 안양시 만안구 박달동 23-1번지","indutype":"일반휴게음식 - 일반한식","category":"restaurant"},{"name":"종점다방","tel":"031-449-2366","addr":"경기도 안양시 만안구 박달동 23-1번지","indutype":"일반휴게음식 - 서양음식","category":"restaurant"},{"name":"풍기삼계탕","tel":"031-442-2399","addr":"경기도 안양시 만안구 박달동 23-1번지","indutype":"일반휴게음식 - 일반한식","category":"restaurant"}]},{"lat":"37.403053708","long":"126.91029199","imageIndex":4,"items":[{"name":"대관령화로구이","tel":"031-465-9988","addr":"경기도 안양시 만안구 박달동 20-35번지","indutype":"일반휴게음식 - 일반한식","category":"restaurant"}]},{"lat":"37.402862552","long":"126.90784139","imageIndex":4,"items":[{"name":"대마족발박달점","tel":"031-442-8253","addr":"경기도 안양시 만안구 박달동 100-17번지","indutype":"일반휴게음식 - 일반한식","category":"restaurant"}]},{"lat":"37.404467166","long":"126.90886715","imageIndex":4,"items":[{"name":"대운강정이랑치킨","tel":"031-442-8966","addr":"경기도 안양시 만안구 박달동 16-1번지","indutype":"일반휴게음식 - 스넥","category":"restaurant"},{"name":"우품우거지품은순대국","tel":"031-447-4580","addr":"경기도 안양시 만안구 박달동 16-1번지","indutype":"일반휴게음식 - 일반한식","category":"restaurant"},{"name":"호프광장","tel":"031-443-2897","addr":"경기도 안양시 만안구 박달동 16-1번지","indutype":"일반휴게음식 - 주점","category":"restaurant"}]},{"lat":"37.40410738","long":"126.90964691","imageIndex":4,"items":[{"name":"대원해물탕","tel":"031-444-5556","addr":"경기도 안양시 만안구 박달동 21-22번지","indutype":"일반휴게음식 - 일반한식","category":"restaurant"},{"name":"화룡양꼬치","tel":"031-442-0008","addr":"경기도 안양시 만안구 박달동 21-22번지","indutype":"일반휴게음식 - 일반한식","category":"restaurant"}]},{"lat":"37.403665628","long":"126.90931993","imageIndex":4,"items":[{"name":"데니스숯불바베큐","tel":"031-445-3437","addr":"경기도 안양시 만안구 박달동 17-1번지","indutype":"일반휴게음식 - 일반한식","category":"restaurant"}]},{"lat":"37.40494424","long":"126.90829054","imageIndex":4,"items":[{"name":"데니스커피 박달점","tel":"","addr":"경기도 안양시 만안구 박달동 15-2번지 박달동동원베네스트","indutype":"일반휴게음식 - 서양음식","category":"restaurant"},{"name":"막썰어세꼬시회","tel":"031-466-7898","addr":"경기도 안양시 만안구 박달동 15-2번지 박달동동원베네스트","indutype":"일반휴게음식 - 일식·회집","category":"restaurant"},{"name":"박달콩나물해장국","tel":"031-445-8880","addr":"경기도 안양시 만안구 박달동 15-2번지 박달동동원베네스트","indutype":"일반휴게음식 - 일반한식","category":"restaurant"}]},{"lat":"37.399695871","long":"126.90281969","imageIndex":4,"items":[{"name":"데이데이","tel":"02-1234-1234","addr":"경기도 안양시 만안구 박달동 139-202번지","indutype":"일반휴게음식 - 서양음식","category":"restaurant"},{"name":"떡달","tel":"031-469-2821","addr":"경기도 안양시 만안구 박달동 139-202번지","indutype":"일반휴게음식 - 스넥","category":"restaurant"}]},{"lat":"37.404387331","long":"126.91045976","imageIndex":4,"items":[{"name":"도깨비족발","tel":"","addr":"경기도 안양시 만안구 박달동 60-4번지","indutype":"일반휴게음식 - 일반한식","category":"restaurant"}]},{"lat":"37.405161976","long":"126.91017645","imageIndex":4,"items":[{"name":"도담","tel":"","addr":"경기도 안양시 만안구 박달동 56-24번지","indutype":"일반휴게음식 - 서양음식","category":"restaurant"}]},{"lat":"37.405161629","long":"126.90973596","imageIndex":4,"items":[{"name":"돈닭지글자글","tel":"070-4254-0160","addr":"경기도 안양시 만안구 박달동 56-2번지","indutype":"일반휴게음식 - 일반한식","category":"restaurant"}]},{"lat":"37.401385103","long":"126.89745281","imageIndex":4,"items":[{"name":"돈도담","tel":"031-443-1236","addr":"경기도 안양시 만안구 박달동 604-25번지","indutype":"일반휴게음식 - 일반한식","category":"restaurant"}]},{"lat":"37.404272253","long":"126.91312538","imageIndex":4,"items":[{"name":"동네포차","tel":"031-443-1104","addr":"경기도 안양시 만안구 박달동 70-5번지","indutype":"일반휴게음식 - 주점","category":"restaurant"}]},{"lat":"37.405640205","long":"126.91106813","imageIndex":4,"items":[{"name":"동북반점","tel":"031-340-7991","addr":"경기도 안양시 만안구 박달동 55-27번지","indutype":"일반휴게음식 - 일반한식","category":"restaurant"},{"name":"춘천닭갈비막국수","tel":"031-441-9159","addr":"경기도 안양시 만안구 박달동 55-27번지","indutype":"일반휴게음식 - 일반한식","category":"restaurant"}]},{"lat":"37.402028385","long":"126.91265371","imageIndex":4,"items":[{"name":"동해포차","tel":"031-444-9567","addr":"경기도 안양시 만안구 박달동 68-99번지","indutype":"일반휴게음식 - 일반한식","category":"restaurant"},{"name":"인생술집 (zip)","tel":"031-465-1766","addr":"경기도 안양시 만안구 박달동 68-99번지","indutype":"일반휴게음식 - 주점","category":"restaurant"}]},{"lat":"37.404466724","long":"126.90831373","imageIndex":4,"items":[{"name":"두리아치킨박달점","tel":"031-446-9229","addr":"경기도 안양시 만안구 박달동 45-3번지","indutype":"일반휴게음식 - 스넥","category":"restaurant"},{"name":"에삐케이크(ep.cake)","tel":"","addr":"경기도 안양시 만안구 박달동 45-3번지","indutype":"일반휴게음식 - 서양음식","category":"restaurant"}]},{"lat":"37.402361091","long":"126.91178366","imageIndex":4,"items":[{"name":"두씨네","tel":"031-443-5140","addr":"경기도 안양시 만안구 박달동 68-35번지","indutype":"일반휴게음식 - 일반한식","category":"restaurant"},{"name":"박달선술집","tel":"031-466-9229","addr":"경기도 안양시 만안구 박달동 68-35번지","indutype":"일반휴게음식 - 일반한식","category":"restaurant"},{"name":"여초밥","tel":"031-447-4264","addr":"경기도 안양시 만안구 박달동 68-35번지","indutype":"일반휴게음식 - 일식·회집","category":"restaurant"}]},{"lat":"37.402388805","long":"126.91267586","imageIndex":4,"items":[{"name":"두툼한고깃집","tel":"031-465-6092","addr":"경기도 안양시 만안구 박달동 68-108번지","indutype":"일반휴게음식 - 일반한식","category":"restaurant"},{"name":"유턴세계맥주","tel":"070-4300-9464","addr":"경기도 안양시 만안구 박달동 68-108번지","indutype":"일반휴게음식 - 주점","category":"restaurant"}]},{"lat":"37.407634107","long":"126.88376593","imageIndex":4,"items":[{"name":"둥근상시골집 광명점","tel":"031-465-6656","addr":"경기도 안양시 만안구 박달동 810-8번지","indutype":"일반휴게음식 - 일반한식","category":"restaurant"}]},{"lat":"37.403801234","long":"126.90989577","imageIndex":4,"items":[{"name":"또와유청정명태간장조림","tel":"031-465-3392","addr":"경기도 안양시 만안구 박달동 20-2번지","indutype":"일반휴게음식 - 일반한식","category":"restaurant"}]},{"lat":"37.405188463","long":"126.90948745","imageIndex":4,"items":[{"name":"뚱보식당","tel":"031-447-2037","addr":"경기도 안양시 만안구 박달동 22-10번지","indutype":"일반휴게음식 - 일반한식","category":"restaurant"},{"name":"박달곱창볶음","tel":"031-443-4294","addr":"경기도 안양시 만안구 박달동 22-10번지","indutype":"일반휴게음식 - 일반한식","category":"restaurant"}]},{"lat":"37.40346703","long":"126.90884581","imageIndex":4,"items":[{"name":"띵호","tel":"","addr":"경기도 안양시 만안구 박달동 79-21번지","indutype":"일반휴게음식 - 중국식","category":"restaurant"}]},{"lat":"37.404304163","long":"126.90783957","imageIndex":4,"items":[{"name":"런던떡볶이","tel":"031-464-1664","addr":"경기도 안양시 만안구 박달동 45-9번지","indutype":"일반휴게음식 - 스넥","category":"restaurant"}]},{"lat":"37.404800825","long":"126.90922816","imageIndex":4,"items":[{"name":"레드","tel":"031-446-4860","addr":"경기도 안양시 만안구 박달동 22-17번지","indutype":"일반휴게음식 - 주점","category":"restaurant"}]},{"lat":"37.404721415","long":"126.9113742","imageIndex":4,"items":[{"name":"로페(Rophe)","tel":"031-472-9625","addr":"경기도 안양시 만안구 박달동 60-14번지","indutype":"일반휴게음식 - 서양음식","category":"restaurant"}]},{"lat":"37.40157671","long":"126.90017439","imageIndex":4,"items":[{"name":"마산아구찜","tel":"031-464-3060","addr":"경기도 안양시 만안구 박달동 157-26번지","indutype":"일반휴게음식 - 일반한식","category":"restaurant"}]},{"lat":"37.404999359","long":"126.90962322","imageIndex":4,"items":[{"name":"만두나라","tel":"031-443-7321","addr":"경기도 안양시 만안구 박달동 22-21번지","indutype":"일반휴게음식 - 스넥","category":"restaurant"},{"name":"홍콩호프","tel":"070-4042-1628","addr":"경기도 안양시 만안구 박달동 22-21번지","indutype":"일반휴게음식 - 서양음식","category":"restaurant"}]},{"lat":"37.405942705","long":"126.88626473","imageIndex":4,"items":[{"name":"만보기사식당","tel":"031-449-1404","addr":"경기도 안양시 만안구 박달동 684번지","indutype":"일반휴게음식 - 일반한식","category":"restaurant"}]},{"lat":"37.406412527","long":"126.9078482","imageIndex":4,"items":[{"name":"만복순대국","tel":"031-465-5351","addr":"경기도 안양시 만안구 박달동 13-11번지","indutype":"일반휴게음식 - 일반한식","category":"restaurant"}]},{"lat":"37.401385575","long":"126.89798362","imageIndex":4,"items":[{"name":"만복순대국","tel":"031-469-5351","addr":"경기도 안양시 만안구 박달동 606-28번지","indutype":"일반휴게음식 - 일반한식","category":"restaurant"}]},{"lat":"37.402167541","long":"126.90631756","imageIndex":4,"items":[{"name":"맘마호프광장","tel":"031-393-5554","addr":"경기도 안양시 만안구 박달동 139-8번지","indutype":"일반휴게음식 - 주점","category":"restaurant"}]},{"lat":"37.402360856","long":"126.91147872","imageIndex":4,"items":[{"name":"메모리스타","tel":"031-446-5898","addr":"경기도 안양시 만안구 박달동 68-31번지","indutype":"일반휴게음식 - 서양음식","category":"restaurant"},{"name":"착한순대국","tel":"031-466-2169","addr":"경기도 안양시 만안구 박달동 68-31번지","indutype":"일반휴게음식 - 일반한식","category":"restaurant"}]},{"lat":"37.402694958","long":"126.91242703","imageIndex":4,"items":[{"name":"메이펑","tel":"","addr":"경기도 안양시 만안구 박달동 74-16번지","indutype":"일반휴게음식 - 중국식","category":"restaurant"}]},{"lat":"37.403885471","long":"126.89259274","imageIndex":4,"items":[{"name":"멕시칸치킨","tel":"031-464-9200","addr":"경기도 안양시 만안구 박달동 616-9번지","indutype":"일반휴게음식 - 스넥","category":"restaurant"},{"name":"얼큰네","tel":"031-341-1256","addr":"경기도 안양시 만안구 박달동","indutype":"일반휴게음식 - 일반한식","category":"restaurant"},{"name":"혜화동돈까스극장","tel":"031-464-6160","addr":"경기도 안양시 만안구 박달동 616-9번지","indutype":"일반휴게음식 - 서양음식","category":"restaurant"},{"name":"힐링분식","tel":"031-441-0987","addr":"경기도 안양시 만안구 박달동 616-9번지","indutype":"일반휴게음식 - 스넥","category":"restaurant"}]},{"lat":"37.401882919","long":"126.91095978","imageIndex":4,"items":[{"name":"면천추어탕","tel":"031-471-8435","addr":"경기도 안양시 만안구 박달동 68-64번지","indutype":"일반휴게음식 - 일반한식","category":"restaurant"},{"name":"수작","tel":"031-441-1905","addr":"경기도 안양시 만안구 박달동 68-64번지","indutype":"일반휴게음식 - 주점","category":"restaurant"}]},{"lat":"37.402360986","long":"126.91164813","imageIndex":4,"items":[{"name":"명가식당","tel":"031-447-5421","addr":"경기도 안양시 만안구 박달동 68-33번지","indutype":"일반휴게음식 - 일반한식","category":"restaurant"}]},{"lat":"37.404195706","long":"126.90742181","imageIndex":4,"items":[{"name":"명동왕만두","tel":"031-443-9907","addr":"경기도 안양시 만안구 박달동 44-5번지","indutype":"일반휴게음식 - 일반한식","category":"restaurant"},{"name":"빅토리아돈까스파스타","tel":"031-441-0906","addr":"경기도 안양시 만안구 박달동 44-5번지","indutype":"일반휴게음식 - 서양음식","category":"restaurant"}]},{"lat":"37.405774314","long":"126.9097352","imageIndex":4,"items":[{"name":"명문식당","tel":"031-443-1897","addr":"경기도 안양시 만안구 박달동 52-1번지","indutype":"일반휴게음식 - 일반한식","category":"restaurant"},{"name":"원조용인집","tel":"031-448-8272","addr":"경기도 안양시 만안구 박달동 52-1번지","indutype":"일반휴게음식 - 일반한식","category":"restaurant"}]},{"lat":"37.404494644","long":"126.90943184","imageIndex":4,"items":[{"name":"명품청기와감자탕 안양박달점","tel":"031-469-4040","addr":"경기도 안양시 만안구 박달동 21-16번지","indutype":"일반휴게음식 - 일반한식","category":"restaurant"}]},{"lat":"37.401914853","long":"126.90582095","imageIndex":4,"items":[{"name":"무안박속연포탕","tel":"031-464-9575","addr":"경기도 안양시 만안구 박달동 139-9번지","indutype":"일반휴게음식 - 일반한식","category":"restaurant"}]},{"lat":"37.405722254","long":"126.91231044","imageIndex":4,"items":[{"name":"무한리필고기굼터","tel":"","addr":"경기도 안양시 만안구 박달동 58-3번지","indutype":"일반휴게음식 - 일반한식","category":"restaurant"}]},{"lat":"37.403666693","long":"126.91067524","imageIndex":4,"items":[{"name":"묵호수산","tel":"031-464-6532","addr":"경기도 안양시 만안구 박달동 64-3번지 대동연립","indutype":"일반휴게음식 - 일식·회집","category":"restaurant"}]},{"lat":"37.405917876","long":"126.90897829","imageIndex":4,"items":[{"name":"뮤지컬","tel":"031-466-1024","addr":"경기도 안양시 만안구 박달동 23-6번지","indutype":"일반휴게음식 - 주점","category":"restaurant"},{"name":"좋은친구들","tel":"","addr":"경기도 안양시 만안구 박달동 23-6번지","indutype":"일반휴게음식 - 일반한식","category":"restaurant"},{"name":"해송식당","tel":"031-448-5002","addr":"경기도 안양시 만안구 박달동 23-6번지","indutype":"일반휴게음식 - 일반한식","category":"restaurant"},{"name":"화풍초벌구이","tel":"031-441-5252","addr":"경기도 안양시 만안구 박달동 23-6번지","indutype":"일반휴게음식 - 일반한식","category":"restaurant"}]},{"lat":"37.404134107","long":"126.90926287","imageIndex":4,"items":[{"name":"미스터보쌈","tel":"031-443-5389","addr":"경기도 안양시 만안구 박달동 16-17번지","indutype":"일반휴게음식 - 일반한식","category":"restaurant"}]},{"lat":"37.400967411","long":"126.90415067","imageIndex":4,"items":[{"name":"미켈족발보쌈","tel":"","addr":"경기도 안양시 만안구 박달동 140-29번지","indutype":"일반휴게음식 - 일반한식","category":"restaurant"}]},{"lat":"37.405440504","long":"126.90918218","imageIndex":4,"items":[{"name":"민물천국","tel":"031-441-0592","addr":"경기도 안양시 만안구 박달동 22-29번지","indutype":"일반휴게음식 - 일반한식","category":"restaurant"},{"name":"박달수산","tel":"031-444-1480","addr":"경기도 안양시 만안구 박달동 22-29번지","indutype":"일반휴게음식 - 일반한식","category":"restaurant"},{"name":"통큰칼국수","tel":"031-446-0567","addr":"경기도 안양시 만안구 박달동 22-29번지","indutype":"일반휴게음식 - 스넥","category":"restaurant"}]},{"lat":"37.400804899","long":"126.9037556","imageIndex":4,"items":[{"name":"민카인드","tel":"031-465-0904","addr":"경기도 안양시 만안구 박달동 140-25번지","indutype":"일반휴게음식 - 서양음식","category":"restaurant"},{"name":"치킨플러스","tel":"031-446-4666","addr":"경기도 안양시 만안구 박달동 140-25번지","indutype":"일반휴게음식 - 일반한식","category":"restaurant"}]},{"lat":"37.408409472","long":"126.88426168","imageIndex":4,"items":[{"name":"바움더","tel":"031-465-0519","addr":"경기도 안양시 만안구 박달동 932-2번지","indutype":"일반휴게음식 - 일반한식","category":"restaurant"},{"name":"바움스하우스","tel":"031-443-5661","addr":"경기도 안양시 만안구 박달동 932-2번지","indutype":"일반휴게음식 - 서양음식","category":"restaurant"},{"name":"백합칼국수","tel":"031-465-5600","addr":"경기도 안양시 만안구 박달동 932-2번지","indutype":"일반휴게음식 - 일반한식","category":"restaurant"}]},{"lat":"37.402668478","long":"126.91314988","imageIndex":4,"items":[{"name":"박가네숯불껍데기","tel":"031-477-1705","addr":"경기도 안양시 만안구 박달동 75-18번지","indutype":"일반휴게음식 - 일반한식","category":"restaurant"},{"name":"작은공간","tel":"031-441-2509","addr":"경기도 안양시 만안구 박달동 75-18번지","indutype":"일반휴게음식 - 주점","category":"restaurant"}]},{"lat":"37.408553995","long":"126.8846229","imageIndex":4,"items":[{"name":"박달감자탕","tel":"031-466-2229","addr":"경기도 안양시 만안구 박달동 931-13번지","indutype":"일반휴게음식 - 일반한식","category":"restaurant"}]},{"lat":"37.402331762","long":"126.90884723","imageIndex":4,"items":[{"name":"박달점굽네치킨","tel":"031-442-9294","addr":"경기도 안양시 만안구 박달동 85-13번지","indutype":"일반휴게음식 - 주점","category":"restaurant"}]},{"lat":"37.404747184","long":"126.90975906","imageIndex":4,"items":[{"name":"박서방꽈배기","tel":"031-469-2184","addr":"경기도 안양시 만안구 박달동 21-6번지","indutype":"일반휴게음식 - 일반한식","category":"restaurant"},{"name":"봉란옥한식부페","tel":"031-466-5585","addr":"경기도 안양시 만안구 박달동 21-6번지","indutype":"일반휴게음식 - 일반한식","category":"restaurant"},{"name":"족발천국","tel":"031-448-4878","addr":"경기도 안양시 만안구 박달동 21-6번지","indutype":"일반휴게음식 - 일반한식","category":"restaurant"}]},{"lat":"37.403942183","long":"126.9058974","imageIndex":4,"items":[{"name":"박신혜가게","tel":"","addr":"경기도 안양시 만안구 박달동 108-7번지","indutype":"일반휴게음식 - 일반한식","category":"restaurant"}]},{"lat":"37.402360619","long":"126.91117378","imageIndex":4,"items":[{"name":"별이빛나는밤에","tel":"031-449-8060","addr":"경기도 안양시 만안구 박달동 68-27번지","indutype":"일반휴게음식 - 주점","category":"restaurant"},{"name":"펀비어킹","tel":"031-441-3535","addr":"경기도 안양시 만안구 박달동 68-27번지","indutype":"일반휴게음식 - 주점","category":"restaurant"}]},{"lat":"37.403302357","long":"126.90576269","imageIndex":4,"items":[{"name":"보꼬네파스타","tel":"031-346-7942","addr":"경기도 안양시 만안구 박달동 108-17번지","indutype":"일반휴게음식 - 서양음식","category":"restaurant"}]},{"lat":"37.403386602","long":"126.90968169","imageIndex":4,"items":[{"name":"복돼지커피호프","tel":"031-442-9907","addr":"경기도 안양시 만안구 박달동 17-23번지","indutype":"일반휴게음식 - 주점","category":"restaurant"},{"name":"청진동해장국","tel":"031-442-2033","addr":"경기도 안양시 만안구 박달동 17-23번지","indutype":"일반휴게음식 - 일반한식","category":"restaurant"}]},{"lat":"37.402668143","long":"126.91270941","imageIndex":4,"items":[{"name":"본도시락(안얀동점)","tel":"031-443-4282","addr":"경기도 안양시 만안구 박달동 75-17번지","indutype":"일반휴게음식 - 일반한식","category":"restaurant"}]},{"lat":"37.402694228","long":"126.91147832","imageIndex":4,"items":[{"name":"본죽 안양박달점","tel":"031-442-6233","addr":"경기도 안양시 만안구 박달동 74-19번지","indutype":"일반휴게음식 - 일반한식","category":"restaurant"}]},{"lat":"37.402803251","long":"126.91265278","imageIndex":4,"items":[{"name":"볼음도치킨","tel":"","addr":"경기도 안양시 만안구 박달동 75-13번지","indutype":"일반휴게음식 - 스넥","category":"restaurant"}]},{"lat":"37.405216899","long":"126.91128325","imageIndex":4,"items":[{"name":"봉구비어 안양박달점","tel":"","addr":"경기도 안양시 만안구 박달동 58-18번지","indutype":"일반휴게음식 - 주점","category":"restaurant"},{"name":"투데이 꾼","tel":"031-445-1117","addr":"경기도 안양시 만안구 박달동 58-18번지","indutype":"일반휴게음식 - 스넥","category":"restaurant"}]},{"lat":"37.402970291","long":"126.90736689","imageIndex":4,"items":[{"name":"봉봉딜리버리","tel":"","addr":"경기도 안양시 만안구 박달동 102-10번지","indutype":"일반휴게음식 - 스넥","category":"restaurant"}]},{"lat":"37.403467977","long":"126.910043","imageIndex":4,"items":[{"name":"부연","tel":"031-468-7190","addr":"경기도 안양시 만안구 박달동 20-25번지","indutype":"일반휴게음식 - 일반한식","category":"restaurant"},{"name":"산본닭발","tel":"031-441-5551","addr":"경기도 안양시 만안구 박달동 20-25번지","indutype":"일반휴게음식 - 일반한식","category":"restaurant"},{"name":"생방송","tel":"031-433-3468","addr":"경기도 안양시 만안구 박달동 20-25번지","indutype":"일반휴게음식 - 주점","category":"restaurant"}]},{"lat":"37.402694828","long":"126.91225761","imageIndex":4,"items":[{"name":"불오뎅가마솥떡볶이","tel":"031-466-6632","addr":"경기도 안양시 만안구 박달동 74-17번지","indutype":"일반휴게음식 - 일반한식","category":"restaurant"},{"name":"소문만복래월래집","tel":"031-446-9016","addr":"경기도 안양시 만안구 박달동 74-17번지","indutype":"일반휴게음식 - 일반한식","category":"restaurant"},{"name":"영빈다방","tel":"031-448-2655","addr":"경기도 안양시 만안구 박달동 74-17번지","indutype":"일반휴게음식 - 서양음식","category":"restaurant"}]},{"lat":"37.4020503","long":"126.90618219","imageIndex":4,"items":[{"name":"불티나","tel":"031-443-9904","addr":"경기도 안양시 만안구 박달동 139-18번지","indutype":"일반휴게음식 - 일반한식","category":"restaurant"},{"name":"차이","tel":"031-441-3984","addr":"경기도 안양시 만안구 박달동 139-18번지","indutype":"일반휴게음식 - 중국식","category":"restaurant"}]},{"lat":"37.408635221","long":"126.88475831","imageIndex":4,"items":[{"name":"붐비다커피","tel":"031-448-5144","addr":"경기도 안양시 만안구 박달동 931-2번지","indutype":"일반휴게음식 - 서양음식","category":"restaurant"}]},{"lat":"37.405216706","long":"126.91103477","imageIndex":4,"items":[{"name":"블루하우스호프","tel":"031-468-8355","addr":"경기도 안양시 만안구 박달동 57-9번지","indutype":"일반휴게음식 - 주점","category":"restaurant"}]},{"lat":"37.402694681","long":"126.91206561","imageIndex":4,"items":[{"name":"비결","tel":"031-464-8292","addr":"경기도 안양시 만안구 박달동 74-12번지","indutype":"일반휴게음식 - 일반한식","category":"restaurant"}]},{"lat":"37.405971252","long":"126.90811983","imageIndex":4,"items":[{"name":"비마이커피","tel":"031-464-2637","addr":"경기도 안양시 만안구 박달동 14-14번지","indutype":"일반휴게음식 - 서양음식","category":"restaurant"},{"name":"이름없는포차","tel":"031-464-5884","addr":"경기도 안양시 만안구 박달동 14-14번지","indutype":"일반휴게음식 - 일반한식","category":"restaurant"}]},{"lat":"37.402498327","long":"126.90319996","imageIndex":4,"items":[{"name":"비발디맥시칸치킨호프","tel":"031-444-8686","addr":"경기도 안양시 만안구 박달동 114-6번지","indutype":"일반휴게음식 - 주점","category":"restaurant"}]},{"lat":"37.405610985","long":"126.9082897","imageIndex":4,"items":[{"name":"비어사케","tel":"031-466-1914","addr":"경기도 안양시 만안구 박달동 14-4번지","indutype":"일반휴게음식 - 주점","category":"restaurant"}]},{"lat":"37.403548694","long":"126.90956855","imageIndex":4,"items":[{"name":"빌보드","tel":"031-444-9924","addr":"경기도 안양시 만안구 박달동 17-6번지","indutype":"일반휴게음식 - 주점","category":"restaurant"},{"name":"팔도참숯갈비","tel":"031-449-9321","addr":"경기도 안양시 만안구 박달동 17-6번지","indutype":"일반휴게음식 - 일반한식","category":"restaurant"}]},{"lat":"37.403437526","long":"126.9057851","imageIndex":4,"items":[{"name":"빨간통피자","tel":"031-441-3557","addr":"경기도 안양시 만안구 박달동 108-16번지","indutype":"일반휴게음식 - 서양음식","category":"restaurant"},{"name":"홍콩반점","tel":"031-443-2682","addr":"경기도 안양시 만안구 박달동 108-16번지","indutype":"일반휴게음식 - 중국식","category":"restaurant"}]},{"lat":"37.402194072","long":"126.90570765","imageIndex":4,"items":[{"name":"뽕잎사랑샤브칼국수보쌈냉면","tel":"031-465-0059","addr":"경기도 안양시 만안구 박달동 135-5번지","indutype":"일반휴게음식 - 일반한식","category":"restaurant"}]},{"lat":"37.402472722","long":"126.90490541","imageIndex":4,"items":[{"name":"사계절","tel":"031-448-8853","addr":"경기도 안양시 만안구 박달동 134-5번지","indutype":"일반휴게음식 - 일반한식","category":"restaurant"},{"name":"페리카나(박달2호점)","tel":"031-447-3131","addr":"경기도 안양시 만안구 박달동 134-5번지","indutype":"일반휴게음식 - 칵테일바","category":"restaurant"},{"name":"피자스쿨 박달점","tel":"031-468-5100","addr":"경기도 안양시 만안구 박달동 134-5번지","indutype":"일반휴게음식 - 서양음식","category":"restaurant"}]},{"lat":"37.401939874","long":"126.90340399","imageIndex":4,"items":[{"name":"삼보수산","tel":"031-469-8088","addr":"경기도 안양시 만안구 박달동 128-5번지","indutype":"일반휴게음식 - 일식·회집","category":"restaurant"},{"name":"츄라스코","tel":"031-465-8592","addr":"경기도 안양시 만안구 박달동 128-5번지","indutype":"일반휴게음식 - 서양음식","category":"restaurant"},{"name":"해인정육식당","tel":"031-446-7843","addr":"경기도 안양시 만안구 박달동 128-5번지","indutype":"일반휴게음식 - 일반한식","category":"restaurant"},{"name":"황토장군불바베큐","tel":"031-449-3634","addr":"경기도 안양시 만안구 박달동 128-5번지","indutype":"일반휴게음식 - 일반한식","category":"restaurant"}]},{"lat":"37.406277458","long":"126.90795002","imageIndex":4,"items":[{"name":"상아호프","tel":"031-444-2655","addr":"경기도 안양시 만안구 박달동 14-9번지","indutype":"일반휴게음식 - 주점","category":"restaurant"},{"name":"칭니","tel":"031-441-8877","addr":"경기도 안양시 만안구 박달동 14-9번지","indutype":"일반휴게음식 - 중국식","category":"restaurant"}]},{"lat":"37.405802299","long":"126.91095499","imageIndex":4,"items":[{"name":"새마을포차","tel":"","addr":"경기도 안양시 만안구 박달동 55-26번지","indutype":"일반휴게음식 - 일반한식","category":"restaurant"},{"name":"핫오리","tel":"031-340-7717","addr":"경기도 안양시 만안구 박달동 55-26번지","indutype":"일반휴게음식 - 일반한식","category":"restaurant"}]},{"lat":"37.405667489","long":"126.91139564","imageIndex":4,"items":[{"name":"생포갈비","tel":"","addr":"경기도 안양시 만안구 박달동 55-32번지","indutype":"일반휴게음식 - 일반한식","category":"restaurant"},{"name":"한화양꼬치","tel":"031-466-0092","addr":"경기도 안양시 만안구 박달동 55-32번지","indutype":"일반휴게음식 - 일반한식","category":"restaurant"}]},{"lat":"37.405411134","long":"126.88628814","imageIndex":4,"items":[{"name":"서울","tel":"031-444-7641","addr":"경기도 안양시 만안구 박달동 693-17번지","indutype":"일반휴게음식 - 일반한식","category":"restaurant"}]},{"lat":"37.404078911","long":"126.90783985","imageIndex":4,"items":[{"name":"서울막걸리","tel":"031-464-7550","addr":"경기도 안양시 만안구 박달동 45-17번지","indutype":"일반휴게음식 - 일반한식","category":"restaurant"}]},{"lat":"37.405465083","long":"126.88617511","imageIndex":4,"items":[{"name":"서울카페","tel":"","addr":"경기도 안양시 만안구 박달동 693-16번지","indutype":"일반휴게음식 - 일반한식","category":"restaurant"}]},{"lat":"37.405638483","long":"126.90887698","imageIndex":4,"items":[{"name":"센스","tel":"070-8286-8368","addr":"경기도 안양시 만안구 박달동 22-24번지","indutype":"일반휴게음식 - 주점","category":"restaurant"}]},{"lat":"37.405332553","long":"126.90939691","imageIndex":4,"items":[{"name":"셰프초밥활어","tel":"031-341-4085","addr":"경기도 안양시 만안구 박달동 22-5번지","indutype":"일반휴게음식 - 일식·회집","category":"restaurant"}]},{"lat":"37.402361221","long":"126.91195307","imageIndex":4,"items":[{"name":"소백산참숯불갈비","tel":"031-465-8283","addr":"경기도 안양시 만안구 박달동 68-37번지","indutype":"일반휴게음식 - 일반한식","category":"restaurant"},{"name":"엠커피팩토리","tel":"031-472-8123","addr":"경기도 안양시 만안구 박달동 68-37번지","indutype":"일반휴게음식 - 서양음식","category":"restaurant"}]},{"lat":"37.40788778","long":"126.88515481","imageIndex":4,"items":[{"name":"소쿠리집밥","tel":"031-442-8022","addr":"경기도 안양시 만안구 박달동 931-8번지","indutype":"일반휴게음식 - 일반한식","category":"restaurant"}]},{"lat":"37.402360365","long":"126.91084625","imageIndex":4,"items":[{"name":"수경왕만두","tel":"031-465-9998","addr":"경기도 안양시 만안구 박달동 68-23번지","indutype":"일반휴게음식 - 스넥","category":"restaurant"},{"name":"파파롱","tel":"","addr":"경기도 안양시 만안구 박달동 68-23번지","indutype":"일반휴게음식 - 서양음식","category":"restaurant"}]},{"lat":"37.404305191","long":"126.90912713","imageIndex":4,"items":[{"name":"쉼터 커피숍","tel":"","addr":"경기도 안양시 만안구 박달동 16-10번지","indutype":"일반휴게음식 - 서양음식","category":"restaurant"}]},{"lat":"37.404332916","long":"126.91000805","imageIndex":4,"items":[{"name":"슬기분식","tel":"031-445-1660","addr":"경기도 안양시 만안구 박달동 21-31번지","indutype":"일반휴게음식 - 스넥","category":"restaurant"},{"name":"진미통닭","tel":"031-441-0933","addr":"경기도 안양시 만안구 박달동 21-31번지","indutype":"일반휴게음식 - 스넥","category":"restaurant"}]},{"lat":"37.404134633","long":"126.90992924","imageIndex":4,"items":[{"name":"시골밥상","tel":"","addr":"경기도 안양시 만안구 박달동 21-26번지","indutype":"일반휴게음식 - 일반한식","category":"restaurant"}]},{"lat":"37.404854975","long":"126.90934104","imageIndex":4,"items":[{"name":"시장순대국","tel":"031-442-8664","addr":"경기도 안양시 만안구 박달동 22-18번지","indutype":"일반휴게음식 - 일반한식","category":"restaurant"}]},{"lat":"37.405467265","long":"126.90884331","imageIndex":4,"items":[{"name":"시흥곱창","tel":"031-444-3483","addr":"경기도 안양시 만안구 박달동 22-37번지","indutype":"일반휴게음식 - 일반한식","category":"restaurant"}]},{"lat":"37.405442281","long":"126.91145239","imageIndex":4,"items":[{"name":"신미양꼬치","tel":"031-347-6899","addr":"경기도 안양시 만안구 박달동 58-6번지","indutype":"일반휴게음식 - 중국식","category":"restaurant"}]},{"lat":"37.405000095","long":"126.91056066","imageIndex":4,"items":[{"name":"신승면식점","tel":"","addr":"경기도 안양시 만안구 박달동 57-7번지 서광아침의빛아파트","indutype":"일반휴게음식 - 일반한식","category":"restaurant"},{"name":"킹콩부대찌개테이크아웃안양점","tel":"031-731-9709","addr":"경기도 안양시 만안구 박달동 57-7번지 서광아침의빛아파트","indutype":"일반휴게음식 - 일반한식","category":"restaurant"}]},{"lat":"37.404133108","long":"126.9080092","imageIndex":4,"items":[{"name":"신토불이","tel":"031-444-8295","addr":"경기도 안양시 만안구 박달동 45-18번지","indutype":"일반휴게음식 - 일반한식","category":"restaurant"}]},{"lat":"37.40233253","long":"126.90981852","imageIndex":4,"items":[{"name":"싱싱활어회수산시장포장전문점","tel":"031-443-9998","addr":"경기도 안양시 만안구 박달동 68-12번지","indutype":"일반휴게음식 - 일식·회집","category":"restaurant"}]},{"lat":"37.402215626","long":"126.8992587","imageIndex":4,"items":[{"name":"써니외식산업(주)","tel":"031-466-4692","addr":"경기도 안양시 만안구 박달동 158-1번지","indutype":"일반휴게음식 - 일반한식","category":"restaurant"}]},{"lat":"37.405694633","long":"126.91154244","imageIndex":4,"items":[{"name":"씨에스아이 치킨","tel":"031-466-9242","addr":"경기도 안양시 만안구 박달동 55-33번지","indutype":"일반휴게음식 - 스넥","category":"restaurant"},{"name":"해와달","tel":"031-348-0042","addr":"경기도 안양시 만안구 박달동 55-33번지","indutype":"일반휴게음식 - 주점","category":"restaurant"}]},{"lat":"37.405773545","long":"126.90876387","imageIndex":4,"items":[{"name":"안양왕소금구이","tel":"031-449-8472","addr":"경기도 안양시 만안구 박달동 23-5번지","indutype":"일반휴게음식 - 갈비전문점","category":"restaurant"}]},{"lat":"37.402360497","long":"126.91101566","imageIndex":4,"items":[{"name":"연변왕양꼬치","tel":"","addr":"경기도 안양시 만안구 박달동 68-25번지","indutype":"일반휴게음식 - 중국식","category":"restaurant"},{"name":"좋은하루커피호프","tel":"031-465-1993","addr":"경기도 안양시 만안구 박달동 68-25번지","indutype":"일반휴게음식 - 주점","category":"restaurant"}]},{"lat":"37.40390931","long":"126.90983916","imageIndex":4,"items":[{"name":"연호프","tel":"031-456-4895","addr":"경기도 안양시 만안구 박달동 20-1번지","indutype":"일반휴게음식 - 주점","category":"restaurant"}]},{"lat":"37.405748062","long":"126.91072916","imageIndex":4,"items":[{"name":"영심이먹거리","tel":"","addr":"경기도 안양시 만안구 박달동 56-17번지","indutype":"일반휴게음식 - 일반한식","category":"restaurant"}]},{"lat":"37.409355471","long":"126.88420372","imageIndex":4,"items":[{"name":"예손부대찌개","tel":"031-466-8555","addr":"경기도 안양시 만안구 박달동","indutype":"일반휴게음식 - 일반한식","category":"restaurant"}]},{"lat":"37.403909833","long":"126.91050553","imageIndex":4,"items":[{"name":"옛골순대국","tel":"031-445-7513","addr":"경기도 안양시 만안구 박달동 61-14번지","indutype":"일반휴게음식 - 일반한식","category":"restaurant"},{"name":"찌개전쟁","tel":"031-444-8001","addr":"경기도 안양시 만안구 박달동 61-14번지","indutype":"일반휴게음식 - 일반한식","category":"restaurant"}]},{"lat":"37.403889454","long":"126.90753514","imageIndex":4,"items":[{"name":"오부장치킨","tel":"031-4659-9994","addr":"경기도 안양시 만안구 박달동 103-2번지","indutype":"일반휴게음식 - 스넥","category":"restaurant"},{"name":"온양반점","tel":"031-443-1513","addr":"경기도 안양시 만안구 박달동 103-2번지","indutype":"일반휴게음식 - 중국식","category":"restaurant"}]},{"lat":"37.405695103","long":"126.91215235","imageIndex":4,"items":[{"name":"오천냥포차","tel":"031-466-9253","addr":"경기도 안양시 만안구 박달동 58-35번지","indutype":"일반휴게음식 - 주점","category":"restaurant"}]},{"lat":"37.402887708","long":"126.90553734","imageIndex":4,"items":[{"name":"와동감자탕","tel":"031-443-8211","addr":"경기도 안양시 만안구 박달동 134-1번지","indutype":"일반휴게음식 - 일반한식","category":"restaurant"}]},{"lat":"37.403332905","long":"126.91014482","imageIndex":4,"items":[{"name":"왕냉면","tel":"031-442-3373","addr":"경기도 안양시 만안구 박달동 20-34번지","indutype":"일반휴게음식 - 일반한식","category":"restaurant"},{"name":"할매냉면","tel":"031-446-2323","addr":"경기도 안양시 만안구 박달동 20-34번지","indutype":"일반휴게음식 - 일반한식","category":"restaurant"}]},{"lat":"37.404494331","long":"126.90903653","imageIndex":4,"items":[{"name":"요리왕이될사나이","tel":"","addr":"경기도 안양시 만안구 박달동 16-19번지","indutype":"일반휴게음식 - 일반한식","category":"restaurant"}]},{"lat":"37.400828422","long":"126.89965589","imageIndex":4,"items":[{"name":"욜로","tel":"","addr":"경기도 안양시 만안구 박달동 152번지","indutype":"일반휴게음식 - 주점","category":"restaurant"}]},{"lat":"37.400384828","long":"126.90790098","imageIndex":4,"items":[{"name":"우성분식","tel":"031-441-5525","addr":"경기도 안양시 만안구 박달동 85번지","indutype":"일반휴게음식 - 스넥","category":"restaurant"}]},{"lat":"37.402855221","long":"126.90995341","imageIndex":4,"items":[{"name":"원할머니보쌈박달점","tel":"031-465-5353","addr":"경기도 안양시 만안구 박달동 18-3번지","indutype":"일반휴게음식 - 일반한식","category":"restaurant"}]},{"lat":"37.404333138","long":"126.91029041","imageIndex":4,"items":[{"name":"웰빙 빵박사","tel":"031-469-0049","addr":"경기도 안양시 만안구 박달동 60-3번지","indutype":"일반휴게음식 - 일반한식","category":"restaurant"}]},{"lat":"37.405250184","long":"126.90779319","imageIndex":4,"items":[{"name":"유가네","tel":"031-468-4567","addr":"경기도 안양시 만안구 박달동 36-6번지","indutype":"일반휴게음식 - 일반한식","category":"restaurant"}]},{"lat":"37.404051799","long":"126.90773823","imageIndex":4,"items":[{"name":"유가네김밥","tel":"031-465-1622","addr":"경기도 안양시 만안구 박달동 45-16번지","indutype":"일반휴게음식 - 스넥","category":"restaurant"}]},{"lat":"37.40699858","long":"126.90834443","imageIndex":4,"items":[{"name":"이끌림","tel":"031-464-7776","addr":"경기도 안양시 만안구 박달동 24-6번지","indutype":"일반휴게음식 - 주점","category":"restaurant"}]},{"lat":"37.402694315","long":"126.91159126","imageIndex":4,"items":[{"name":"이디야커피안양박달점","tel":"031-442-8264","addr":"경기도 안양시 만안구 박달동 74-18번지","indutype":"일반휴게음식 - 서양음식","category":"restaurant"}]},{"lat":"37.405135852","long":"126.91133982","imageIndex":4,"items":[{"name":"이찌방","tel":"031-441-4006","addr":"경기도 안양시 만안구 박달동 58-19번지","indutype":"일반휴게음식 - 주점","category":"restaurant"}]},{"lat":"37.402361438","long":"126.91223543","imageIndex":4,"items":[{"name":"임군상회","tel":"","addr":"경기도 안양시 만안구 박달동 68-41번지","indutype":"일반휴게음식 - 일반한식","category":"restaurant"}]},{"lat":"37.403278525","long":"126.90973829","imageIndex":4,"items":[{"name":"자매통닭","tel":"031-372-0540","addr":"경기도 안양시 만안구 박달동 17-24번지","indutype":"일반휴게음식 - 일반한식","category":"restaurant"}]},{"lat":"37.401522639","long":"126.91111833","imageIndex":4,"items":[{"name":"장원중화요리","tel":"031-469-9999","addr":"경기도 안양시 만안구 박달동 68-158번지","indutype":"일반휴게음식 - 중국식","category":"restaurant"}]},{"lat":"37.403303417","long":"126.90706153","imageIndex":4,"items":[{"name":"장터치킨","tel":"031-466-9991","addr":"경기도 안양시 만안구 박달동 103번지","indutype":"일반휴게음식 - 스넥","category":"restaurant"}]},{"lat":"37.401418423","long":"126.90475996","imageIndex":4,"items":[{"name":"저잣거리장어생고기","tel":"031-441-9290","addr":"경기도 안양시 만안구 박달동 138-15번지","indutype":"일반휴게음식 - 일반한식","category":"restaurant"}]},{"lat":"37.4041888","long":"126.9100647","imageIndex":4,"items":[{"name":"전부쳐","tel":"031-445-0199","addr":"경기도 안양시 만안구 박달동 21-34번지","indutype":"일반휴게음식 - 스넥","category":"restaurant"}]},{"lat":"37.405692786","long":"126.90918187","imageIndex":4,"items":[{"name":"전주시골순대","tel":"031-469-0722","addr":"경기도 안양시 만안구 박달동 22-33번지","indutype":"일반휴게음식 - 일반한식","category":"restaurant"}]},{"lat":"37.403414587","long":"126.91090144","imageIndex":4,"items":[{"name":"정거장포차","tel":"","addr":"경기도 안양시 만안구 박달동 65-22번지","indutype":"일반휴게음식 - 주점","category":"restaurant"}]},{"lat":"37.402131842","long":"126.90673549","imageIndex":4,"items":[{"name":"조아(JOAH)","tel":"","addr":"경기도 안양시 만안구 박달동 94-143번지","indutype":"일반휴게음식 - 서양음식","category":"restaurant"}]},{"lat":"37.401967227","long":"126.90378795","imageIndex":4,"items":[{"name":"중화반점","tel":"031-443-7737","addr":"경기도 안양시 만안구 박달동 128-12번지","indutype":"일반휴게음식 - 중국식","category":"restaurant"}]},{"lat":"37.40075133","long":"126.90434295","imageIndex":4,"items":[{"name":"진미","tel":"031-448-1814","addr":"경기도 안양시 만안구 박달동 139-5번지","indutype":"일반휴게음식 - 스넥","category":"restaurant"}]},{"lat":"37.403827541","long":"126.90898089","imageIndex":4,"items":[{"name":"진미본가","tel":"031-445-2336","addr":"경기도 안양시 만안구 박달동 49-6번지","indutype":"일반휴게음식 - 일반한식","category":"restaurant"}]},{"lat":"37.403773838","long":"126.90943273","imageIndex":4,"items":[{"name":"착한고깃집","tel":"031-464-0592","addr":"경기도 안양시 만안구 박달동 17-3번지","indutype":"일반휴게음식 - 일반한식","category":"restaurant"}]},{"lat":"37.409527024","long":"126.88456489","imageIndex":4,"items":[{"name":"채움","tel":"031-466-1871","addr":"경기도 안양시 만안구 박달동 925-5번지","indutype":"일반휴게음식 - 일반한식","category":"restaurant"}]},{"lat":"37.405496455","long":"126.91159915","imageIndex":4,"items":[{"name":"천명로마라탕","tel":"","addr":"경기도 안양시 만안구 박달동 58-7번지","indutype":"일반휴게음식 - 일반한식","category":"restaurant"},{"name":"한양족발","tel":"031-468-8853","addr":"경기도 안양시 만안구 박달동 58-7번지","indutype":"일반휴게음식 - 일반한식","category":"restaurant"}]},{"lat":"37.405640012","long":"126.91081965","imageIndex":4,"items":[{"name":"천해정샤브샤브","tel":"031-448-9233","addr":"경기도 안양시 만안구 박달동 56-31번지","indutype":"일반휴게음식 - 일반한식","category":"restaurant"}]},{"lat":"37.406306236","long":"126.91015245","imageIndex":4,"items":[{"name":"철이네분식","tel":"031-441-7644","addr":"경기도 안양시 만안구 박달동 31-6번지","indutype":"일반휴게음식 - 스넥","category":"restaurant"}]},{"lat":"37.403442577","long":"126.91214377","imageIndex":4,"items":[{"name":"청개구리","tel":"","addr":"경기도 안양시 만안구 박달동 73-13번지","indutype":"일반휴게음식 - 일반한식","category":"restaurant"}]},{"lat":"37.402694018","long":"126.91120726","imageIndex":4,"items":[{"name":"최가네손칼국수","tel":"031-464-2727","addr":"경기도 안양시 만안구 박달동 74-5번지","indutype":"일반휴게음식 - 일반한식","category":"restaurant"}]},{"lat":"37.400579648","long":"126.9037559","imageIndex":4,"items":[{"name":"추억82","tel":"034-440-0082","addr":"경기도 안양시 만안구 박달동 139-15번지","indutype":"일반휴게음식 - 서양음식","category":"restaurant"}]},{"lat":"37.402663573","long":"126.90690422","imageIndex":4,"items":[{"name":"축산이야기","tel":"031-442-7747","addr":"경기도 안양시 만안구 박달동 99-8번지","indutype":"일반휴게음식 - 일반한식","category":"restaurant"}]},{"lat":"37.408247878","long":"126.88484928","imageIndex":4,"items":[{"name":"치키니즘","tel":"02-898-3154","addr":"경기도 안양시 만안구 박달동 931-11번지","indutype":"일반휴게음식 - 스넥","category":"restaurant"}]},{"lat":"37.402693694","long":"126.91078937","imageIndex":4,"items":[{"name":"치킨선생","tel":"031-445-8959","addr":"경기도 안양시 만안구 박달동 19-9번지","indutype":"일반휴게음식 - 스넥","category":"restaurant"}]},{"lat":"37.402691115","long":"126.90753666","imageIndex":4,"items":[{"name":"카리스커피 안양점","tel":"031-449-7656","addr":"경기도 안양시 만안구 박달동 99-9번지","indutype":"일반휴게음식 - 서양음식","category":"restaurant"}]},{"lat":"37.40152227","long":"126.91064399","imageIndex":4,"items":[{"name":"카페수가","tel":"","addr":"경기도 안양시 만안구 박달동 94-95번지","indutype":"일반휴게음식 - 서양음식","category":"restaurant"}]},{"lat":"37.403778995","long":"126.90467782","imageIndex":4,"items":[{"name":"커피111(COFFEE111)","tel":"031-471-6572","addr":"경기도 안양시 만안구 박달동 111-1번지","indutype":"일반휴게음식 - 서양음식","category":"restaurant"}]},{"lat":"37.401691533","long":"126.90820427","imageIndex":4,"items":[{"name":"커피베이안양우성점","tel":"031-466-1006","addr":"경기도 안양시 만안구 박달동 85-26번지","indutype":"일반휴게음식 - 서양음식","category":"restaurant"}]},{"lat":"37.402716567","long":"126.8952034","imageIndex":4,"items":[{"name":"코리아식당","tel":"031-446-9740","addr":"경기도 안양시 만안구 박달동 614-9번지","indutype":"일반휴게음식 - 일반한식","category":"restaurant"}]},{"lat":"37.408382917","long":"126.88473612","imageIndex":4,"items":[{"name":"콩두레돌솥밥순두부","tel":"031-466-9985","addr":"경기도 안양시 만안구 박달동 931-12번지","indutype":"일반휴게음식 - 일반한식","category":"restaurant"}]},{"lat":"37.410076195","long":"126.88412351","imageIndex":4,"items":[{"name":"콩두레얼큰한통북어","tel":"031-442-0088","addr":"경기도 안양시 만안구 박달동 925번지","indutype":"일반휴게음식 - 일반한식","category":"restaurant"}]},{"lat":"37.402332947","long":"126.91034935","imageIndex":4,"items":[{"name":"콩심전주콩나물국밥전문점","tel":"031-443-7006","addr":"경기도 안양시 만안구 박달동 68-18번지","indutype":"일반휴게음식 - 일반한식","category":"restaurant"},{"name":"회전초밥스시가","tel":"031-388-2111","addr":"경기도 안양시 만안구 박달동 68-18번지","indutype":"일반휴게음식 - 일식·회집","category":"restaurant"}]},{"lat":"37.402693517","long":"126.91056349","imageIndex":4,"items":[{"name":"탐앤탐스커피(TOMNTOMSCOFFEE)박달사거리점","tel":"031-465-6161","addr":"경기도 안양시 만안구 박달동 19-4번지","indutype":"일반휴게음식 - 서양음식","category":"restaurant"}]},{"lat":"37.405800151","long":"126.90823299","imageIndex":4,"items":[{"name":"태양식당","tel":"031-449-6845","addr":"경기도 안양시 만안구 박달동 14-6번지","indutype":"일반휴게음식 - 일반한식","category":"restaurant"}]},{"lat":"37.403412817","long":"126.90865388","imageIndex":4,"items":[{"name":"태원정육식당","tel":"031-443-9233","addr":"경기도 안양시 만안구 박달동 79-4번지","indutype":"일반휴게음식 - 일반한식","category":"restaurant"}]},{"lat":"37.406584054","long":"126.90826589","imageIndex":4,"items":[{"name":"택이네조개전골","tel":"031-469-9292","addr":"경기도 안양시 만안구 박달동 24-4번지","indutype":"일반휴게음식 - 일반한식","category":"restaurant"}]},{"lat":"37.405388134","long":"126.91133951","imageIndex":4,"items":[{"name":"토평한우소곱창(안양박달점)","tel":"031-469-2233","addr":"경기도 안양시 만안구 박달동 58-5번지","indutype":"일반휴게음식 - 일반한식","category":"restaurant"},{"name":"티비두마리치킨","tel":"031-441-0407","addr":"경기도 안양시 만안구 박달동 58-5번지","indutype":"일반휴게음식 - 일반한식","category":"restaurant"},{"name":"화랑","tel":"031-469-7898","addr":"경기도 안양시 만안구 박달동 58-5번지","indutype":"일반휴게음식 - 일반한식","category":"restaurant"}]},{"lat":"37.40569203","long":"126.90823312","imageIndex":4,"items":[{"name":"통닭원5900","tel":"031-443-9288","addr":"경기도 안양시 만안구 박달동 14-7번지","indutype":"일반휴게음식 - 스넥","category":"restaurant"}]},{"lat":"37.40354943","long":"126.91050597","imageIndex":4,"items":[{"name":"튀김&떡볶이","tel":"031-441-9528","addr":"경기도 안양시 만안구 박달동 20-32번지","indutype":"일반휴게음식 - 일반한식","category":"restaurant"}]},{"lat":"37.406270585","long":"126.91064946","imageIndex":4,"items":[{"name":"푸드뱅크","tel":"031-469-9252","addr":"경기도 안양시 만안구 박달동 54-1번지","indutype":"일반휴게음식 - 스넥","category":"restaurant"}]},{"lat":"37.406468762","long":"126.91059274","imageIndex":4,"items":[{"name":"피자웨이(pizzaway)","tel":"","addr":"경기도 안양시 만안구 박달동 30-35번지","indutype":"일반휴게음식 - 서양음식","category":"restaurant"}]},{"lat":"37.401084637","long":"126.90426346","imageIndex":4,"items":[{"name":"피크닉","tel":"070-4640-1079","addr":"경기도 안양시 만안구 박달동 140-10번지","indutype":"일반휴게음식 - 서양음식","category":"restaurant"}]},{"lat":"37.401358296","long":"126.9083741","imageIndex":4,"items":[{"name":"하림맥시칸","tel":"031-448-5513","addr":"경기도 안양시 만안구 박달동 94-59번지","indutype":"일반휴게음식 - 스넥","category":"restaurant"}]},{"lat":"37.401776103","long":"126.91265401","imageIndex":4,"items":[{"name":"하우스호프","tel":"031-448-8854","addr":"경기도 안양시 만안구 박달동 68-103번지","indutype":"일반휴게음식 - 주점","category":"restaurant"}]},{"lat":"37.401385915","long":"126.89836762","imageIndex":4,"items":[{"name":"한일숯불갈비","tel":"031-469-5730","addr":"경기도 안양시 만안구 박달동 606-2번지","indutype":"일반휴게음식 - 일반한식","category":"restaurant"}]},{"lat":"37.402195988","long":"126.90806811","imageIndex":4,"items":[{"name":"해마루","tel":"031-444-9964","addr":"경기도 안양시 만안구 박달동 85-4번지 노블레스빌","indutype":"일반휴게음식 - 일반한식","category":"restaurant"}]},{"lat":"37.403693529","long":"126.91042673","imageIndex":4,"items":[{"name":"햇빛김밥찰밥","tel":"031-447-0244","addr":"경기도 안양시 만안구 박달동 20-56번지","indutype":"일반휴게음식 - 스넥","category":"restaurant"}]},{"lat":"37.402745575","long":"126.90803353","imageIndex":4,"items":[{"name":"행피나","tel":"031-348-5017","addr":"경기도 안양시 만안구 박달동 100-20번지","indutype":"일반휴게음식 - 서양음식","category":"restaurant"}]},{"lat":"37.402360733","long":"126.91132061","imageIndex":4,"items":[{"name":"홀시드카페(WHOLESEEDCAFE)","tel":"","addr":"경기도 안양시 만안구 박달동 68-29번지","indutype":"일반휴게음식 - 서양음식","category":"restaurant"}]},{"lat":"37.401529397","long":"126.90826095","imageIndex":4,"items":[{"name":"화이팅","tel":"031-441-3344","addr":"경기도 안양시 만안구 박달동 94-58번지","indutype":"일반휴게음식 - 주점","category":"restaurant"}]},{"lat":"37.404720047","long":"126.90962357","imageIndex":4,"items":[{"name":"흥부가반해버리고놀부가기절한닭강정","tel":"","addr":"경기도 안양시 만안구 박달동 21-4번지","indutype":"일반휴게음식 - 스넥","category":"restaurant"}]},{"lat":"37.400661003","long":"126.90407202","imageIndex":4,"items":[{"name":"희카페","tel":"031-443-8643","addr":"경기도 안양시 만안구 박달동 139-111번지","indutype":"일반휴게음식 - 서양음식","category":"restaurant"}]}]