[{"lat":"37.795952433","long":"127.1058378","imageIndex":13,"items":[{"name":"거호삼승도장","tel":"031-821-3911","addr":"경기도 양주시 삼숭동 685-1번지 양주프라자 1동 2302호","indutype":"레저업소 - 기타레져업소","category":"leisure"},{"name":"휘트니스w삼숭점","tel":"032-000-0000","addr":"경기도 양주시 삼숭동 685-1번지 양주자이프라자 2층","indutype":"레저업소 - 헬스클럽","category":"leisure"}]},{"lat":"37.808283741","long":"127.0982807","imageIndex":13,"items":[{"name":"고주내관광농원","tel":"031-000-0000","addr":"경기도 양주시 삼숭동 464번지 465. 466","indutype":"레저업소 - 기타레져업소","category":"leisure"}]},{"lat":"37.797424094","long":"127.10220657","imageIndex":13,"items":[{"name":"럭키PC","tel":"070-4856-8914","addr":"경기도 양주시 삼숭동 270번지 자이안상가 501,502호","indutype":"레저업소 - 기타레져업소","category":"leisure"},{"name":"점프윙스줄넘기클럽","tel":"031-846-8848","addr":"경기도 양주시 삼숭동 270번지 402호","indutype":"레저업소 - 기타레져업소","category":"leisure"}]},{"lat":"37.79572632","long":"127.10683661","imageIndex":13,"items":[{"name":"런닝짐","tel":"031-821-5011","addr":"경기도 양주시 삼숭동 202-37번지 양주프라자4 6003,6004,6005,6006호","indutype":"레저업소 - 헬스클럽","category":"leisure"}]},{"lat":"37.795816684","long":"127.10653019","imageIndex":13,"items":[{"name":"삼숭아이방방","tel":"070-7539-5655","addr":"경기도 양주시 삼숭동 202-35번지 5층","indutype":"레저업소 - 기타레져업소","category":"leisure"}]},{"lat":"37.806421014","long":"127.09548489","imageIndex":13,"items":[{"name":"선영볼링장","tel":"031-841-0900","addr":"경기도 양주시 삼숭동 565-1번지 3층","indutype":"레저업소 - 볼 링 장","category":"leisure"}]},{"lat":"37.801232067","long":"127.09484255","imageIndex":13,"items":[{"name":"양주베이스볼파크","tel":"031-348-1105","addr":"경기도 양주시 삼숭동 580-2번지 (581-2,581-4.584-4)","indutype":"레저업소 - 기타레져업소","category":"leisure"}]},{"lat":"37.805974817","long":"127.08987481","imageIndex":13,"items":[{"name":"오렌지 노래연습장","tel":"031-821-0543","addr":"경기도 양주시 삼숭동 653-10번지","indutype":"레저업소 - 노 래 방","category":"leisure"}]},{"lat":"37.80561438","long":"127.08995388","imageIndex":13,"items":[{"name":"오렌지당구장","tel":"031-821-3310","addr":"경기도 양주시 삼숭동 653-9번지","indutype":"레저업소 - 당 구 장","category":"leisure"},{"name":"크리스탈 골프클럽","tel":"031-848-1238","addr":"경기도 양주시 삼숭동 653-9번지","indutype":"레저업소 - 골프연습장","category":"leisure"}]},{"lat":"37.796619451","long":"127.1054754","imageIndex":13,"items":[{"name":"이사랑 기구필라테스","tel":"","addr":"경기도 양주시 삼숭동 683-3번지 1동 3층 302호","indutype":"레저업소 - 헬스클럽","category":"leisure"},{"name":"퍼스트특공무술","tel":"031-846-7757","addr":"경기도 양주시 삼숭동 683-3번지 1동 301호","indutype":"레저업소 - 헬스클럽","category":"leisure"}]},{"lat":"37.801258294","long":"127.0958645","imageIndex":13,"items":[{"name":"코리아에어돔","tel":"070-4898-4099","addr":"경기도 양주시 삼숭동 584번지","indutype":"레저업소 - 기타레져업소","category":"leisure"}]},{"lat":"37.796982516","long":"127.10234222","imageIndex":13,"items":[{"name":"킹노래연습장","tel":"031-845-0774","addr":"경기도 양주시 삼숭동 267-11번지","indutype":"레저업소 - 노 래 방","category":"leisure"}]}]