[{"lat":"37.913492768","long":"127.06042321","imageIndex":7,"items":[{"name":"경원축산유통2호점","tel":"031-866-9940","addr":"경기도 동두천시 보산동 407-49번지","indutype":"음료식품 - 정육점","category":"food"}]},{"lat":"37.920630047","long":"127.0563459","imageIndex":7,"items":[{"name":"달공작업실","tel":"031-861-9210","addr":"경기도 동두천시 보산동 448-37번지","indutype":"음료식품 - 기타음료식품","category":"food"}]},{"lat":"37.914908808","long":"127.05709231","imageIndex":7,"items":[{"name":"마차산건강원","tel":"031-862-8693","addr":"경기도 동두천시 보산동 422번지","indutype":"건강식품 - 기타건강식품","category":"food"}]},{"lat":"37.913295643","long":"127.05817145","imageIndex":7,"items":[{"name":"반찬공방","tel":"070-7571-0232","addr":"경기도 동두천시 보산동 412-46번지","indutype":"음료식품 - 기타음료식품","category":"food"}]},{"lat":"37.9177109","long":"127.05665084","imageIndex":7,"items":[{"name":"사보리","tel":"031-859-3730","addr":"경기도 동두천시 보산동 437-3번지","indutype":"음료식품 - 기타음료식품","category":"food"}]},{"lat":"37.915548273","long":"127.05751355","imageIndex":7,"items":[{"name":"수키(SUKEY)","tel":"031-866-5984","addr":"경기도 동두천시 보산동 416-9번지 2층","indutype":"음료식품 - 기타음료식품","category":"food"}]},{"lat":"37.914881958","long":"127.05670564","imageIndex":7,"items":[{"name":"스위트로빈","tel":"","addr":"경기도 동두천시 보산동 426-6번지","indutype":"음료식품 - 제과점","category":"food"}]},{"lat":"37.914825661","long":"127.06140224","imageIndex":7,"items":[{"name":"우리농산물","tel":"031-856-7795","addr":"경기도 동두천시 보산동 400-13번지","indutype":"음료식품 - 농·축·수산품","category":"food"}]},{"lat":"37.914691368","long":"127.05967359","imageIndex":7,"items":[{"name":"일오상사","tel":"031-865-4695","addr":"경기도 동두천시 보산동 370-2번지 101호","indutype":"음료식품 - 기타음료식품","category":"food"}]},{"lat":"37.91746784","long":"127.05622989","imageIndex":7,"items":[{"name":"킹덤","tel":"031-863-1240","addr":"경기도 동두천시 보산동 436-18번지 1층","indutype":"음료식품 - 기타음료식품","category":"food"}]}]