[{"lat":"37.854337626","long":"127.1451657","imageIndex":17,"items":[{"name":"(주)세양침대","tel":"031-544-1147","addr":"경기도 포천시 설운동 359-2번지","indutype":"가구 - 일반가구","category":"other"}]},{"lat":"37.846920314","long":"127.16130759","imageIndex":17,"items":[{"name":"(주)칠만공사칠만표방수제","tel":"063-111-1111","addr":"경기도 포천시 설운동 16-13번지","indutype":"용역 서비스 - 기타용역서비스","category":"other"},{"name":"대진앵글유니온","tel":"031-544-5377","addr":"경기도 포천시 설운동 16-13번지 명성빌딩가동101,102호","indutype":"건축자재 - 목재·석재·철물","category":"other"}]},{"lat":"37.845445738","long":"127.15908897","imageIndex":17,"items":[{"name":"GS25포천설운점","tel":"031-533-8040","addr":"경기도 포천시 설운동 78-4번지","indutype":"편의점 - 편의점","category":"other"},{"name":"GS25포천설운점","tel":"02-2006-2485","addr":"경기도 포천시 설운동 78-4번지","indutype":"유통업 영리 - 편 의 점","category":"other"},{"name":"다예종합악기","tel":"031-533-8040","addr":"경기도 포천시 설운동 78-4번지","indutype":"레져용품 - 악기점","category":"other"}]},{"lat":"37.844364614","long":"127.15908669","imageIndex":17,"items":[{"name":"J.M테크","tel":"031-544-4437","addr":"경기도 포천시 설운동 74-3번지","indutype":"건축자재 - 기타건축자재","category":"other"},{"name":"가야벤딩","tel":"031-541-3030","addr":"경기도 포천시 설운동 74-3번지","indutype":"기타 - 기타 전문점","category":"other"}]},{"lat":"37.845751724","long":"127.15933957","imageIndex":17,"items":[{"name":"K·J 헬스케어","tel":"541-7295","addr":"경기도 포천시 설운동 78-1번지","indutype":"서비스 - 스포츠","category":"other"}]},{"lat":"37.857081862","long":"127.14063709","imageIndex":17,"items":[{"name":"가미안 퍼니쳐","tel":"031-541-1438","addr":"경기도 포천시 설운동 561-22번지","indutype":"가구 - 일반가구","category":"other"}]},{"lat":"37.846444796","long":"127.15982958","imageIndex":17,"items":[{"name":"강성기계","tel":"031-542-1518","addr":"경기도 포천시 설운동 11번지","indutype":"기타 - 기계공구","category":"other"},{"name":"코오롱천막","tel":"031-543-8882","addr":"경기도 포천시 설운동 11번지","indutype":"직물 - 카페트,커튼,천막,지물","category":"other"}]},{"lat":"37.84594368","long":"127.15724948","imageIndex":17,"items":[{"name":"골프스페이스","tel":"544-7437","addr":"경기도 포천시 설운동 80-11번지","indutype":"도소매 - 골프용품","category":"other"},{"name":"골프스페이스","tel":"031-544-7437","addr":"경기도 포천시 설운동 80-11번지","indutype":"레져용품 - 골프용품 전문점","category":"other"},{"name":"대해코리아","tel":"031-541-5024","addr":"경기도 포천시 설운동 80-11번지","indutype":"레져용품 - 스포츠·레져용품","category":"other"},{"name":"메트로G.C","tel":"543-5800","addr":"경기도 포천시 설운동 80-11","indutype":"서비스 - 골프연습장","category":"other"},{"name":"메트로G.C","tel":"031-543-5800","addr":"경기도 포천시 설운동 80-11번지","indutype":"회원제형태 - 레져업소","category":"other"},{"name":"메트로골프존","tel":"031-542-9996","addr":"경기도 포천시 설운동 80-11번지","indutype":"회원제형태 - 레져업소","category":"other"}]},{"lat":"37.854559719","long":"127.14022334","imageIndex":17,"items":[{"name":"광창섬유","tel":"031-543-9747","addr":"경기도 포천시 설운동 584-1번지 1층","indutype":"의류 - 정장","category":"other"}]},{"lat":"37.846335697","long":"127.14647962","imageIndex":17,"items":[{"name":"나을디자인","tel":"031-544-4579","addr":"경기도 포천시 설운동 261-3번지","indutype":"가구 - 일반가구","category":"other"}]},{"lat":"37.848666233","long":"127.14883604","imageIndex":17,"items":[{"name":"미르가열시스템 주식회사(MIR HEATING SYST","tel":"031-541-4751","addr":"경기도 포천시 설운동 160-2번지","indutype":"기타 - 기계공구","category":"other"}]},{"lat":"37.864142714","long":"127.14275261","imageIndex":17,"items":[{"name":"보원물산","tel":"031-879-7751","addr":"경기도 포천시 설운동 478-5","indutype":"기타 - 기계공구","category":"other"}]},{"lat":"37.851087883","long":"127.15034062","imageIndex":17,"items":[{"name":"부강창호","tel":"031-536-7093","addr":"경기도 포천시 설운동 148-1번지","indutype":"건축자재 - 유리","category":"other"}]},{"lat":"37.844257133","long":"127.1586093","imageIndex":17,"items":[{"name":"삼양마대","tel":"031-542-9529","addr":"경기도 포천시 설운동 72-8번지","indutype":"기타 - 기타 전문점","category":"other"},{"name":"송우함석닥트","tel":"031-542-7900","addr":"경기도 포천시 설운동 72-8번지","indutype":"기타 - 기타 전문점","category":"other"},{"name":"포천화공약품상사","tel":"031-542-6637","addr":"경기도 포천시 설운동 72-8번지","indutype":"기타 - 기타 전문점","category":"other"}]},{"lat":"37.845088511","long":"127.14963564","imageIndex":17,"items":[{"name":"삼원가구","tel":"031-542-0937","addr":"경기도 포천시 설운동 189-2번지","indutype":"가구 - 일반가구","category":"other"}]},{"lat":"37.845003917","long":"127.15936071","imageIndex":17,"items":[{"name":"삼일콤프","tel":"031-542-0931","addr":"경기도 포천시 설운동 72-12번지","indutype":"수리서비스 - 기타수리서비스","category":"other"},{"name":"진영공사","tel":"031-542-5382","addr":"경기도 포천시 설운동 72-12번지","indutype":"건축자재 - 보일러·펌프·샷시","category":"other"}]},{"lat":"37.857199633","long":"127.14008052","imageIndex":17,"items":[{"name":"삼호보일러","tel":"031-544-6466","addr":"경기도 포천시 설운동 560-24번지","indutype":"건축자재 - 보일러·펌프·샷시","category":"other"}]},{"lat":"37.849277626","long":"127.14983709","imageIndex":17,"items":[{"name":"샤론화원","tel":"543-1063","addr":"경기도 포천시 설운동 159-2","indutype":"소매업 - 꽃,생화","category":"other"}]},{"lat":"37.846281397","long":"127.16074951","imageIndex":17,"items":[{"name":"성지건축사사무소","tel":"031-532-4121","addr":"경기도 포천시 설운동 13-8번지","indutype":"용역 서비스 - 사무서비스","category":"other"},{"name":"원우리건설인테리어","tel":"031-543-9044","addr":"경기도 포천시 설운동 13-8번지 2.3호","indutype":"회원제형태 - 기타4","category":"other"}]},{"lat":"37.860782686","long":"127.14235989","imageIndex":17,"items":[{"name":"싱크미","tel":"02-1661-1406","addr":"경기도 포천시 설운동 553번지","indutype":"주방용구 - 주방용구","category":"other"}]},{"lat":"37.849892097","long":"127.14836125","imageIndex":17,"items":[{"name":"예원레깅스","tel":"031-542-0184","addr":"경기도 포천시 설운동 152-14번지","indutype":"의류 - 정장","category":"other"}]},{"lat":"37.865413826","long":"127.14208451","imageIndex":17,"items":[{"name":"우리집쇼파만들기","tel":"","addr":"경기도 포천시 설운동 474-8번지 가동","indutype":"가구 - 일반가구","category":"other"},{"name":"주식회사 우리집꾸미기","tel":"031-1588-2110","addr":"경기도 포천시 설운동 474-8번지 나동","indutype":"용역 서비스 - 종합용역","category":"other"}]},{"lat":"37.84619971","long":"127.1471724","imageIndex":17,"items":[{"name":"유원아이스","tel":"031-541-3369","addr":"경기도 포천시 설운동 264-1번지","indutype":"유통업 영리 - 기타유통업","category":"other"}]},{"lat":"37.849834635","long":"127.15808701","imageIndex":17,"items":[{"name":"임경옥피부이야기","tel":"031-543-8205","addr":"경기도 포천시 설운동 105-3번지 은성빌라 1층 101호","indutype":"회원제형태 - 기타4","category":"other"}]},{"lat":"37.847670478","long":"127.14533468","imageIndex":17,"items":[{"name":"장갑이네","tel":"031-533-5782","addr":"경기도 포천시 설운동 314-1번지 B동","indutype":"의류 - 기타의류","category":"other"}]},{"lat":"37.848226269","long":"127.15477737","imageIndex":17,"items":[{"name":"주식회사 다원포장","tel":"031-8893-3052","addr":"경기도 포천시 설운동 95-9번지","indutype":"유통업 영리 - 기타유통업","category":"other"}]},{"lat":"37.851088961","long":"127.14947709","imageIndex":17,"items":[{"name":"주식회사 오븐애치킨","tel":"031-543-6494","addr":"경기도 포천시 설운동 149-4번지","indutype":"회원제형태 - 기타4","category":"other"}]},{"lat":"37.859782702","long":"127.14231256","imageIndex":17,"items":[{"name":"주식회사 유영물류","tel":"","addr":"경기도 포천시 설운동 555번지","indutype":"용역 서비스 - 보관및 창고업","category":"other"}]},{"lat":"37.850811707","long":"127.15497583","imageIndex":17,"items":[{"name":"주식회사 이앤에스테크","tel":"031-544-3207","addr":"경기도 포천시 설운동 112번지 가동2층,나동","indutype":"레져용품 - 스포츠·레져용품","category":"other"}]},{"lat":"37.850894215","long":"127.14667025","imageIndex":17,"items":[{"name":"주식회사화신양행","tel":"031-543-3078","addr":"경기도 포천시 설운동 293번지","indutype":"직물 - 옷감·직물","category":"other"}]},{"lat":"37.845309752","long":"127.15972492","imageIndex":17,"items":[{"name":"포천로컬푸드주식회사농업회사법인","tel":"070-8848-6478","addr":"경기도 포천시 설운동 72-2번지","indutype":"도소매 - 농산물","category":"other"}]},{"lat":"37.850116469","long":"127.15614469","imageIndex":17,"items":[{"name":"프렌즈바운스","tel":"031-542-6668","addr":"경기도 포천시 설운동 98","indutype":"서적문구 - 완구점","category":"other"}]},{"lat":"37.84597723","long":"127.15913554","imageIndex":17,"items":[{"name":"프로웰","tel":"031-541-9667","addr":"경기도 포천시 설운동 79-14번지","indutype":"기타 - 기계공구","category":"other"}]},{"lat":"37.844779887","long":"127.15845134","imageIndex":17,"items":[{"name":"하임스포츠","tel":"031-544-2735","addr":"경기도 포천시 설운동 70-11 후정빌딩 A-102","indutype":"레져용품 - 골프용품 전문점","category":"other"}]},{"lat":"37.847336966","long":"127.14547038","imageIndex":17,"items":[{"name":"한일기업","tel":"02-997-0334","addr":"경기도 포천시 설운동 252번지","indutype":"가구 - 기타가구","category":"other"}]},{"lat":"37.84756169","long":"127.14589119","imageIndex":17,"items":[{"name":"해정산업","tel":"031-544-6152","addr":"경기도 포천시 설운동 256번지","indutype":"서적문구 - 출판 및 인쇄물","category":"other"}]},{"lat":"37.85514039","long":"127.14439457","imageIndex":17,"items":[{"name":"화평성구사","tel":"031-543-7185","addr":"경기도 포천시 설운동 352-7번지","indutype":"신변잡화 - 기념품점","category":"other"}]},{"lat":"37.844779887","long":"127.15845134","imageIndex":4,"items":[{"name":"8요일치킨","tel":"031-534-8385","addr":"경기도 포천시 설운동 70-11번지 B동","indutype":"일반휴게음식 - 서양음식","category":"restaurant"},{"name":"8요일키친","tel":"543-4005","addr":"경기도 포천시 설운동 70-11번지","indutype":"음식 - 양식","category":"restaurant"},{"name":"옥의야해장국","tel":"544-4144","addr":"경기도 포천시 설운동 70-11번지","indutype":"음식 - 한식","category":"restaurant"}]},{"lat":"37.845751724","long":"127.15933957","imageIndex":4,"items":[{"name":"가리반점","tel":"031-534-4121","addr":"경기도 포천시 설운동 78-1번지 1층","indutype":"일반휴게음식 - 중국식","category":"restaurant"},{"name":"가리반점","tel":"543-4121","addr":"경기도 포천시 설운동 78-1번지","indutype":"음식 - 중식","category":"restaurant"},{"name":"수랏간양평해장국(송우점)","tel":"031-543-0779","addr":"경기도 포천시 설운동 78-1번지","indutype":"일반휴게음식 - 일반한식","category":"restaurant"}]},{"lat":"37.857974887","long":"127.1396956","imageIndex":4,"items":[{"name":"공원가든","tel":"542-8600","addr":"경기도 포천시 설운동 561-20번지","indutype":"음식 - 한식","category":"restaurant"},{"name":"공원가든","tel":"031-542-8600","addr":"경기도 포천시 설운동 561-20번지","indutype":"일반휴게음식 - 일반한식","category":"restaurant"}]},{"lat":"37.865413826","long":"127.14208451","imageIndex":4,"items":[{"name":"드리","tel":"031-542-2173","addr":"경기도 포천시 설운동 474-8번지 라동 1층","indutype":"일반휴게음식 - 일반한식","category":"restaurant"},{"name":"드리","tel":"542-2173","addr":"경기도 포천시 설운동 474-8번지 다동 1층","indutype":"음식 - 한식","category":"restaurant"}]},{"lat":"37.845309752","long":"127.15972492","imageIndex":4,"items":[{"name":"로컬아이(Locali)","tel":"070-8848-6478","addr":"경기도 포천시 설운동 72-2번지","indutype":"일반휴게음식 - 일반한식","category":"restaurant"}]},{"lat":"37.84674932","long":"127.16117088","imageIndex":4,"items":[{"name":"보우칼국수","tel":"031-544-2427","addr":"경기도 포천시 설운동 16-3번지 1층","indutype":"일반휴게음식 - 일반한식","category":"restaurant"},{"name":"칼뽕","tel":"031-544-1122","addr":"경기도 포천시 설운동 16-3번지 A동","indutype":"일반휴게음식 - 중국식","category":"restaurant"}]},{"lat":"37.846281397","long":"127.16074951","imageIndex":4,"items":[{"name":"삼천리손짜장","tel":"031-543-6633","addr":"경기도 포천시 설운동 13-8번지","indutype":"일반휴게음식 - 중국식","category":"restaurant"}]},{"lat":"37.861944326","long":"127.14283937","imageIndex":4,"items":[{"name":"아미고스","tel":"541-9456","addr":"경기도 포천시 설운동 530-5번지","indutype":"음식 - 커피 등","category":"restaurant"},{"name":"아미고스 (Amigos)","tel":"031-535-0825","addr":"경기도 포천시 설운동 530-5번지","indutype":"일반휴게음식 - 서양음식","category":"restaurant"}]},{"lat":"37.845445738","long":"127.15908897","imageIndex":4,"items":[{"name":"여단정","tel":"031-541-6733","addr":"경기도 포천시 설운동 78-4번지 1층","indutype":"일반휴게음식 - 일반한식","category":"restaurant"},{"name":"여단정","tel":"541-6733","addr":"경기도 포천시 설운동 78-4번지","indutype":"음식 - 한식","category":"restaurant"}]},{"lat":"37.845615555","long":"127.16011185","imageIndex":4,"items":[{"name":"한국맥도날드(유)포천점","tel":"070-7017-0674","addr":"경기도 포천시 설운동 13-7번지","indutype":"일반휴게음식 - 서양음식","category":"restaurant"}]},{"lat":"37.856559545","long":"127.14044295","imageIndex":4,"items":[{"name":"한누리","tel":"541-5258","addr":"경기도 포천시 설운동 560-25번지","indutype":"음식 - 한식","category":"restaurant"},{"name":"한누리","tel":"031-541-5258","addr":"경기도 포천시 설운동 560-25번지 1층","indutype":"일반휴게음식 - 일반한식","category":"restaurant"}]},{"lat":"37.845751724","long":"127.15933957","imageIndex":7,"items":[{"name":"K.J헬스케어","tel":"031-541-7295","addr":"경기도 포천시 설운동 78-1번지 3호","indutype":"건강식품 - 기타건강식품","category":"food"}]},{"lat":"37.847117141","long":"127.16233055","imageIndex":7,"items":[{"name":"구매매점","tel":"031-541-4143","addr":"경기도 포천시 설운동 19-4번지","indutype":"음료식품 - 기타음료식품","category":"food"}]},{"lat":"37.849971319","long":"127.14986119","imageIndex":7,"items":[{"name":"농업회사법인 아람농산 주식회사","tel":"031-543-3688","addr":"경기도 포천시 설운동 156-6번지","indutype":"음료식품 - 농·축·수산품","category":"food"}]},{"lat":"37.847895","long":"127.16005989","imageIndex":7,"items":[{"name":"던킨도넛(포천E-Mart점)","tel":"","addr":"경기도 포천시 설운동 2번지 1층","indutype":"음료식품 - 제과점","category":"food"},{"name":"미스터도넛(포천E-Mart점)","tel":"031-544-8814","addr":"경기도 포천시 설운동 2번지 1층","indutype":"음료식품 - 제과점","category":"food"},{"name":"배스킨라빈스 포천 이마트점","tel":"031-859-7882","addr":"경기도 포천시 설운동 2번지 1층 이마트포천점내","indutype":"음료식품 - 제과점","category":"food"}]},{"lat":"37.861336795","long":"127.13847453","imageIndex":7,"items":[{"name":"덴마크우유포천대리점","tel":"031-542-2103","addr":"경기도 포천시 설운동 519-2번지","indutype":"음료식품 - 기타음료식품","category":"food"}]},{"lat":"37.855032597","long":"127.15145067","imageIndex":7,"items":[{"name":"영원농산","tel":"031-541-7087","addr":"경기도 포천시 설운동 415-5번지","indutype":"음료식품 - 기타음료식품","category":"food"}]},{"lat":"37.845640655","long":"127.1475576","imageIndex":7,"items":[{"name":"용아마트","tel":"542-0550","addr":"경기도 포천시 설운동 267-5번지","indutype":"소매업 - 식품","category":"food"}]},{"lat":"37.847086641","long":"127.15119613","imageIndex":7,"items":[{"name":"제1291부대","tel":"031-000-0000","addr":"경기도 포천시 설운동 198-7번지 사서함118-10","indutype":"음료식품 - 기타음료식품","category":"food"}]},{"lat":"37.853249256","long":"127.14369784","imageIndex":7,"items":[{"name":"주식회사 페어리드림","tel":"070-8880-7669","addr":"경기도 포천시 설운동 347번지","indutype":"음료식품 - 기타음료식품","category":"food"}]},{"lat":"37.862476739","long":"127.14211308","imageIndex":7,"items":[{"name":"태화농산","tel":"031-853-3155","addr":"경기도 포천시 설운동 482-2","indutype":"음료식품 - 농·축·수산품","category":"food"}]},{"lat":"37.853360917","long":"127.14069834","imageIndex":7,"items":[{"name":"포천테라피팜","tel":"000-0000-0000","addr":"경기도 포천시 설운동 569번지","indutype":"음료식품 - 농·축·수산품","category":"food"},{"name":"포천테라피팜","tel":"031-000-0000","addr":"경기도 포천시 설운동 569번지","indutype":"음료식품 - 농·축·수산품","category":"food"}]},{"lat":"37.856559545","long":"127.14044295","imageIndex":7,"items":[{"name":"한누리","tel":"031-541-5258","addr":"경기도 포천시 설운동 560-25번지 다동 1층","indutype":"음료식품 - 기타음료식품","category":"food"}]},{"lat":"37.851000463","long":"127.14069395","imageIndex":7,"items":[{"name":"호남청과","tel":"","addr":"경기도 포천시 설운동 588-13번지","indutype":"음료식품 - 농·축·수산품","category":"food"}]},{"lat":"37.849311892","long":"127.14391759","imageIndex":9,"items":[{"name":"경기에너지","tel":"031-838-9204","addr":"경기도 포천시 설운동 320-7번지","indutype":"연료판매점 - 유류판매","category":"oil"},{"name":"은영에너지","tel":"","addr":"경기도 포천시 설운동 320-7번지","indutype":"연료판매점 - 유류판매","category":"oil"}]},{"lat":"37.846056528","long":"127.16047636","imageIndex":9,"items":[{"name":"선단IC주유소","tel":"031-543-8281","addr":"경기도 포천시 설운동 13-1번지","indutype":"연료판매점 - 쌍용S-OIL","category":"oil"}]},{"lat":"37.849476766","long":"127.1490876","imageIndex":9,"items":[{"name":"한일가스상사","tel":"031-541-5885","addr":"경기도 포천시 설운동 158-4번지","indutype":"연료판매점 - LPG 취급점","category":"oil"}]},{"lat":"37.846444796","long":"127.15982958","imageIndex":0,"items":[{"name":"만도에어콘","tel":"031-543-8953","addr":"경기도 포천시 설운동 11번지","indutype":"자동차정비 유지 - 자동차부품","category":"car"}]},{"lat":"37.847283513","long":"127.1591951","imageIndex":0,"items":[{"name":"서원산업(주)","tel":"031-541-7700","addr":"경기도 포천시 설운동 83번지","indutype":"자동차정비 유지 - 가타자동차서비스","category":"car"}]},{"lat":"37.847895","long":"127.16005989","imageIndex":0,"items":[{"name":"스피드메이트 이마트포천점","tel":"031-544-9021","addr":"경기도 포천시 설운동 2번지","indutype":"자동차정비 유지 - 자동차정비","category":"car"}]},{"lat":"37.855640643","long":"127.14039579","imageIndex":0,"items":[{"name":"애디쉬 (Addish)","tel":"070-8865-5858","addr":"경기도 포천시 설운동 560-43번지 가동 1층","indutype":"자동차정비 유지 - 자동차부품","category":"car"},{"name":"오닉스","tel":"070-4149-9179","addr":"경기도 포천시 설운동 560-43번지","indutype":"자동차정비 유지 - 자동차부품","category":"car"}]},{"lat":"37.845752658","long":"127.15863517","imageIndex":0,"items":[{"name":"창대만물","tel":"070-8638-1245","addr":"경기도 포천시 설운동 79-6번지 301호","indutype":"자동차정비 유지 - 자동차부품","category":"car"}]},{"lat":"37.846111736","long":"127.159613","imageIndex":0,"items":[{"name":"포천센타","tel":"031-541-7805","addr":"경기도 포천시 설운동 82번지 GM대우포천센터","indutype":"자동차정비 유지 - 자동차정비","category":"car"}]},{"lat":"37.86283016","long":"127.14036369","imageIndex":13,"items":[{"name":"신과함께(무신당)","tel":"","addr":"경기도 포천시 설운동 489-3번지","indutype":"보건위생 - 기타대인서비스","category":"beauty"}]},{"lat":"37.847895","long":"127.16005989","imageIndex":13,"items":[{"name":"아이포커스안경원","tel":"031-541-0793","addr":"경기도 포천시 설운동 2번지 1층","indutype":"보건위생 - 안경","category":"beauty"}]},{"lat":"37.845751724","long":"127.15933957","imageIndex":13,"items":[{"name":"인정미용실","tel":"","addr":"경기도 포천시 설운동 78-1","indutype":"서비스 - 미용","category":"beauty"}]},{"lat":"37.846777581","long":"127.16025066","imageIndex":13,"items":[{"name":"아이언짐","tel":"031-543-4585","addr":"경기도 포천시 설운동 10번지","indutype":"레저업소 - 헬스클럽","category":"leisure"}]},{"lat":"37.845640655","long":"127.1475576","imageIndex":7,"items":[{"name":"용아마트","tel":"031-542-0550","addr":"경기도 포천시 설운동 267-5번지","indutype":"유통업 영리 - 슈퍼마켓","category":"mart"}]},{"lat":"37.862277279","long":"127.14316955","imageIndex":7,"items":[{"name":"해룡슈퍼","tel":"031-541-1746","addr":"경기도 포천시 설운동 471-3번지","indutype":"유통업 영리 - 슈퍼마켓","category":"mart"}]},{"lat":"37.850421886","long":"127.14978255","imageIndex":16,"items":[{"name":"짐랜드어린이집[아이행복]","tel":"02-905-3387","addr":"경기도 포천시 설운동 154-3번지","indutype":"학원 - 유아원","category":"study"}]},{"lat":"37.847895","long":"127.16005989","imageIndex":8,"items":[{"name":"쿨펫 동물병원","tel":"031-541-7585","addr":"경기도 포천시 설운동 2번지 2층 이마트포천점","indutype":"기타의료기관 - 동물병원","category":"medical"}]}]