[{"lat":"37.286954208","long":"127.0576987","imageIndex":4,"items":[{"name":"(주)델리커리 광교엘포트몰점","tel":"031-214-1984","addr":"경기도 수원시 영통구 이의동 1336-1번지 광교엘포트아이파크 지하1층","indutype":"일반휴게음식 - 서양음식","category":"restaurant"},{"name":"(주)크레이지 후라이 광교엘포트점","tel":"031-211-0600","addr":"경기도 수원시 영통구 이의동 1336-1번지 광교엘포트아이파크 지하1층","indutype":"일반휴게음식 - 일반한식","category":"restaurant"},{"name":"11시45분","tel":"","addr":"경기도 수원시 영통구 이의동 1336-1번지 광교엘포트아이파크 G동 1층","indutype":"일반휴게음식 - 서양음식","category":"restaurant"},{"name":"건강밥상심마니","tel":"031-212-5200","addr":"경기도 수원시 영통구 이의동 1336-1번지 광교엠포트아이파크 3층 일부호","indutype":"일반휴게음식 - 일반한식","category":"restaurant"},{"name":"대독장","tel":"070-7529-8843","addr":"경기도 수원시 영통구 이의동 1336-1번지 광교엘포트아이파크 G동 1층","indutype":"일반휴게음식 - 일반한식","category":"restaurant"},{"name":"더브라운베이커리 광교교보엘포트점","tel":"031-217-1806","addr":"경기도 수원시 영통구 이의동 1336-1번지 지하1층 26-27호","indutype":"일반휴게음식 - 서양음식","category":"restaurant"},{"name":"마키노차야 광교점","tel":"031-216-7603","addr":"경기도 수원시 영통구 이의동 1336-1번지 광교엘포트아이파크","indutype":"일반휴게음식 - 서양음식","category":"restaurant"},{"name":"몽슈슈카페광교점","tel":"031-212-5260","addr":"경기도 수원시 영통구 이의동 1336-1번지 광교엘포트아이파크","indutype":"일반휴게음식 - 서양음식","category":"restaurant"},{"name":"오사카여행 광교엘포트점","tel":"070-2445-4700","addr":"경기도 수원시 영통구 이의동 1336-1번지 아이파크 지하1층 광교엘포트","indutype":"일반휴게음식 - 일식·회집","category":"restaurant"},{"name":"칸지고고 광교엘포트점","tel":"031-212-5988","addr":"경기도 수원시 영통구 이의동 1336-1번지 광교엘포트아이파크 지하1층","indutype":"일반휴게음식 - 중국식","category":"restaurant"},{"name":"토닭토닭","tel":"031-546-8205","addr":"경기도 수원시 영통구 이의동 1336-1번지 엘포트몰 지하1층","indutype":"일반휴게음식 - 일반한식","category":"restaurant"}]},{"lat":"37.290597476","long":"127.05047254","imageIndex":4,"items":[{"name":"(주)생어거스틴 아브뉴프랑광교","tel":"031-214-8284","addr":"경기도 수원시 영통구 이의동 1332번지 Summit place 광교 A201동 2호","indutype":"일반휴게음식 - 서양음식","category":"restaurant"},{"name":"경성함바그 아브뉴프랑 광교점","tel":"031-212-4614","addr":"경기도 수원시 영통구 이의동 1332번지 Summit place 광교 2층 B204-1,2호","indutype":"일반휴게음식 - 서양음식","category":"restaurant"},{"name":"교촌치킨 광교1호점","tel":"031-212-1998","addr":"경기도 수원시 영통구 이의동 1332번지 광교호반베르디움 cb04,05호","indutype":"일반휴게음식 - 스넥","category":"restaurant"},{"name":"나따오비까 광교아브뉴프랑점","tel":"031-212-1384","addr":"경기도 수원시 영통구 이의동 1332번지 Summit place 광교 CB 38-2호","indutype":"일반휴게음식 - 서양음식","category":"restaurant"},{"name":"달을담다 달담빵","tel":"070-8844-1889","addr":"경기도 수원시 영통구 이의동 1332번지 Summit place 광교 203동 BC6,7호","indutype":"일반휴게음식 - 서양음식","category":"restaurant"},{"name":"돈돈정 광교점","tel":"031-304-0333","addr":"경기도 수원시 영통구 이의동 1332번지 2층 B206-1,206-2호 광교아비뉴프랑","indutype":"일반휴게음식 - 일반한식","category":"restaurant"},{"name":"두끼 광교점","tel":"031-212-2771","addr":"경기도 수원시 영통구 이의동 1332번지 SUMMITPLACE 2층 203동 B221,222호","indutype":"일반휴게음식 - 스넥","category":"restaurant"},{"name":"드로잉","tel":"031-213-5129","addr":"경기도 수원시 영통구 이의동 1332번지 Summit place 광교 203동 B128,B129","indutype":"일반휴게음식 - 서양음식","category":"restaurant"},{"name":"라빌드팡","tel":"031-214-8383","addr":"경기도 수원시 영통구 이의동 1332번지 호반베르디움 203동 2층 B219,220호","indutype":"일반휴게음식 - 서양음식","category":"restaurant"},{"name":"롤링핀 광교점","tel":"031-211-0988","addr":"경기도 수원시 영통구 이의동 1332번지 아브뉴프랑 A115,A116호","indutype":"일반휴게음식 - 서양음식","category":"restaurant"},{"name":"메콩타이","tel":"031-211-7511","addr":"경기도 수원시 영통구 이의동 1332번지 호반베르디움 지하1층 cb23,24호 광교C1","indutype":"일반휴게음식 - 일반한식","category":"restaurant"},{"name":"본죽앤비빔밥","tel":"031-212-6277","addr":"경기도 수원시 영통구 이의동 1332번지 광교호반베르디움 203동 CB31호","indutype":"일반휴게음식 - 일반한식","category":"restaurant"},{"name":"북촌손만두광교점","tel":"031-211-7005","addr":"경기도 수원시 영통구 이의동 1332번지 A동 223호 아브뉴프랑","indutype":"일반휴게음식 - 일반한식","category":"restaurant"},{"name":"빌리엔젤","tel":"031-212-4205","addr":"경기도 수원시 영통구 이의동 1332번지 Summit place 광교 203동 CB30호","indutype":"일반휴게음식 - 서양음식","category":"restaurant"},{"name":"삼백돈 돈가츠(광교점)","tel":"","addr":"경기도 수원시 영통구 이의동 1332번지 써밋플레이스광교 203동 2층 A217호","indutype":"일반휴게음식 - 일반한식","category":"restaurant"},{"name":"수누리감자탕 광교아브뉴프랑점","tel":"031-214-7979","addr":"경기도 수원시 영통구 이의동 1332번지 Summit place 광교 1층 Cb17-18호","indutype":"일반휴게음식 - 일반한식","category":"restaurant"},{"name":"스트릿츄러스","tel":"031-211-5874","addr":"경기도 수원시 영통구 이의동 1332번지 Summit place 광교 1층 B112호","indutype":"일반휴게음식 - 일반한식","category":"restaurant"},{"name":"씨푸드리안","tel":"031-0000-0000","addr":"경기도 수원시 영통구 이의동 1332번지 아브뉴프랑 상가동 2층 A203~A205호","indutype":"일반휴게음식 - 일반한식","category":"restaurant"},{"name":"아날로그키친","tel":"031-212-1265","addr":"경기도 수원시 영통구 이의동 1332번지 Summit place 광교 A222호","indutype":"일반휴게음식 - 서양음식","category":"restaurant"},{"name":"아비꼬","tel":"031-214-0728","addr":"경기도 수원시 영통구 이의동 1332번지 광교C1호반베르디움203동207-1호","indutype":"일반휴게음식 - 일식·회집","category":"restaurant"},{"name":"아재곱창","tel":"031-213-2678","addr":"경기도 수원시 영통구 이의동 1332번지 광교아브뉴프랑 1층 Cb40-1호","indutype":"일반휴게음식 - 일반한식","category":"restaurant"},{"name":"연안식당 광교아비뉴프랑점","tel":"031-211-0218","addr":"경기도 수원시 영통구 이의동 1332번지 Summit place 광교 비1 씨비37-1,2호","indutype":"일반휴게음식 - 일반한식","category":"restaurant"},{"name":"오 이탈리안","tel":"070-8256-3491","addr":"경기도 수원시 영통구 이의동 1332번지 Summit place 광교 지하1층 CB39호","indutype":"일반휴게음식 - 서양음식","category":"restaurant"},{"name":"오리지널시카고피자","tel":"031-211-6036","addr":"경기도 수원시 영통구 이의동 1332번지 Summit place 광교 203동 B119호","indutype":"일반휴게음식 - 서양음식","category":"restaurant"},{"name":"옥루몽광교점","tel":"031-211-1434","addr":"경기도 수원시 영통구 이의동 1332번지 Summit place 광교 CB 35동1,2호","indutype":"일반휴게음식 - 서양음식","category":"restaurant"},{"name":"우주","tel":"02-2051-7091","addr":"경기도 수원시 영통구 이의동 1332번지 CB36-1,2호 아브뉴프랑","indutype":"일반휴게음식 - 일식·회집","category":"restaurant"},{"name":"전주현대옥 광교점","tel":"031-248-1000","addr":"경기도 수원시 영통구 이의동 1332번지 203동 1층cb-40-2호","indutype":"일반휴게음식 - 일반한식","category":"restaurant"},{"name":"주식회사몬스터푸드","tel":"055-282-1210","addr":"경기도 수원시 영통구 이의동 1332번지 써밋플레이스 광교 cb33,34호","indutype":"일반휴게음식 - 일반한식","category":"restaurant"},{"name":"직화한상(광교아브뉴프랑)","tel":"","addr":"경기도 수원시 영통구 이의동 1332번지 203동 2층 B225,226호 SUMMITPLACE 광교","indutype":"일반휴게음식 - 일반한식","category":"restaurant"},{"name":"카마타케 제면소 광교 아브뉴프랑점","tel":"031-213-0418","addr":"경기도 수원시 영통구 이의동 1332번지 203동 2층 B205-1호","indutype":"일반휴게음식 - 일반한식","category":"restaurant"},{"name":"클럽에스프레소 광교점","tel":"031-213-2520","addr":"경기도 수원시 영통구 이의동 1332번지 써밋플레이스 광교 203동 B130,131,132호","indutype":"일반휴게음식 - 서양음식","category":"restaurant"},{"name":"하남돼지집 광교아브뉴프랑점","tel":"031-211-8284","addr":"경기도 수원시 영통구 이의동 1332번지 Summit place 광교 1층 121호 C","indutype":"일반휴게음식 - 일반한식","category":"restaurant"},{"name":"후라토식당 아브뉴프랑 광교점","tel":"031-8031-7090","addr":"경기도 수원시 영통구 이의동 1332번지 Summit place광교 지1층 cb19,20호","indutype":"일반휴게음식 - 일식·회집","category":"restaurant"},{"name":"히노아지 광교아브뉴프랑점","tel":"031-215-9568","addr":"경기도 수원시 영통구 이의동 1332번지 광교아브뉴프랑 203동 2층 A208,209호","indutype":"일반휴게음식 - 일식·회집","category":"restaurant"}]},{"lat":"37.296016063","long":"127.04100227","imageIndex":4,"items":[{"name":"(주)신손","tel":"031-5186-6020","addr":"경기도 수원시 영통구 이의동 1286번지 에이스광교타워3차 1층 104,105호","indutype":"일반휴게음식 - 일반한식","category":"restaurant"},{"name":"고수의한끼","tel":"","addr":"경기도 수원시 영통구 이의동 1286번지 B107,B108,B109,B110호","indutype":"일반휴게음식 - 일반한식","category":"restaurant"},{"name":"라크리마 커피(lacryma coffee)","tel":"02-111-1111","addr":"경기도 수원시 영통구 이의동 1286번지 1층 108-111호","indutype":"일반휴게음식 - 서양음식","category":"restaurant"},{"name":"쉐프가만든떡볶이","tel":"02-598-2958","addr":"경기도 수원시 영통구 이의동 1286번지 에이스광교타워3 1층 111호","indutype":"일반휴게음식 - 스넥","category":"restaurant"}]},{"lat":"37.288622711","long":"127.05411379","imageIndex":4,"items":[{"name":"(주)휴먼에코푸드 광교지점","tel":"","addr":"경기도 수원시 영통구 이의동 184번지","indutype":"일반휴게음식 - 일반한식","category":"restaurant"}]},{"lat":"37.293956651","long":"127.05441063","imageIndex":4,"items":[{"name":"127살롱","tel":"070-8260-0127","addr":"경기도 수원시 영통구 이의동 1312-4번지 해솔빌딩 1층 105호","indutype":"일반휴게음식 - 서양음식","category":"restaurant"}]},{"lat":"37.284875455","long":"127.05172063","imageIndex":4,"items":[{"name":"2참외사과세요","tel":"031-204-5865","addr":"경기도 수원시 영통구 이의동 1369번지 명품프라자 104호","indutype":"일반휴게음식 - 스넥","category":"restaurant"},{"name":"고니지니 광교점","tel":"031-214-5117","addr":"경기도 수원시 영통구 이의동 1369번지 명품프라자 1층 105호","indutype":"일반휴게음식 - 일반한식","category":"restaurant"},{"name":"쏭스핫도그","tel":"","addr":"경기도 수원시 영통구 이의동 1369번지 명품프라자 106호","indutype":"일반휴게음식 - 스넥","category":"restaurant"}]},{"lat":"37.309374349","long":"127.05161238","imageIndex":4,"items":[{"name":"5월정원","tel":"031-211-6764","addr":"경기도 수원시 영통구 이의동 1216-2번지 1층 101호","indutype":"일반휴게음식 - 서양음식","category":"restaurant"}]},{"lat":"37.292066488","long":"127.04961636","imageIndex":4,"items":[{"name":"60계치킨 수원광교점","tel":"031-212-6025","addr":"경기도 수원시 영통구 이의동 1330-1번지 1층 105, 106호","indutype":"일반휴게음식 - 스넥","category":"restaurant"},{"name":"마들렌","tel":"031-212-1917","addr":"경기도 수원시 영통구 이의동 1330-1번지 더블유타워 119호,120호,121호","indutype":"일반휴게음식 - 서양음식","category":"restaurant"},{"name":"바른마음족발","tel":"031-212-7272","addr":"경기도 수원시 영통구 이의동 1330-1번지 103호","indutype":"일반휴게음식 - 일반한식","category":"restaurant"},{"name":"부드러운마늘보쌈족발19842","tel":"031-000-0000","addr":"경기도 수원시 영통구 이의동 1330-1번지 117,118호","indutype":"일반휴게음식 - 일반한식","category":"restaurant"},{"name":"성모식당","tel":"031-245-1000","addr":"경기도 수원시 영통구 이의동 1330-1번지 더블유타워 209호","indutype":"일반휴게음식 - 일반한식","category":"restaurant"},{"name":"소문난떡볶이","tel":"031-273-1616","addr":"경기도 수원시 영통구 이의동 1330-1번지 더블유타워 111호","indutype":"일반휴게음식 - 스넥","category":"restaurant"},{"name":"엘에이 (LA)북창동순두부","tel":"031-215-1868","addr":"경기도 수원시 영통구 이의동 1330-1번지 더블유타워 123호, 124호","indutype":"일반휴게음식 - 일반한식","category":"restaurant"},{"name":"이디야커피 광교중앙점","tel":"031-215-1700","addr":"경기도 수원시 영통구 이의동 1330-1번지 W타워 107,108,109호","indutype":"일반휴게음식 - 서양음식","category":"restaurant"},{"name":"커피에반하다","tel":"031-214-5565","addr":"경기도 수원시 영통구 이의동 1330-1번지 1층 122호","indutype":"일반휴게음식 - 서양음식","category":"restaurant"}]},{"lat":"37.28576664","long":"127.05369462","imageIndex":4,"items":[{"name":"7번가피자광교신도시점","tel":"031-214-7477","addr":"경기도 수원시 영통구 이의동 1340-1번지 107호","indutype":"일반휴게음식 - 서양음식","category":"restaurant"}]},{"lat":"37.293956024","long":"127.05583165","imageIndex":4,"items":[{"name":"BREAD&TREATS","tel":"070-4110-6789","addr":"경기도 수원시 영통구 이의동 1319-10번지 1층상가,지하상가","indutype":"일반휴게음식 - 서양음식","category":"restaurant"}]},{"lat":"37.297456309","long":"127.04510833","imageIndex":4,"items":[{"name":"KOFFISIX COFFEE 경기대점","tel":"031-217-2440","addr":"경기도 수원시 영통구 이의동 1268-7번지","indutype":"일반휴게음식 - 서양음식","category":"restaurant"}]},{"lat":"37.294370781","long":"127.05518909","imageIndex":4,"items":[{"name":"La benci(라벤치)","tel":"031-217-9761","addr":"경기도 수원시 영통구 이의동 1318-1번지 1층","indutype":"일반휴게음식 - 서양음식","category":"restaurant"}]},{"lat":"37.291850743","long":"127.04833059","imageIndex":4,"items":[{"name":"가띠앤씨엘로","tel":"070-4241-8596","addr":"경기도 수원시 영통구 이의동 1331번지 광교푸르지오월드마크 204동 B1층 49호","indutype":"일반휴게음식 - 서양음식","category":"restaurant"},{"name":"계경순대국 광교월드마크점","tel":"031-217-7545","addr":"경기도 수원시 영통구 이의동 1331번지 광교푸르지오 월드마크, 월드스퀘어 204동 지층 B-31호 1층","indutype":"일반휴게음식 - 일반한식","category":"restaurant"},{"name":"고래난다","tel":"031-211-4319","addr":"경기도 수원시 영통구 이의동 1331번지 광교푸르지오 월드마크, 월드스퀘어 B22,23호","indutype":"일반휴게음식 - 일식·회집","category":"restaurant"},{"name":"고반식당 광교월드스퀘어점","tel":"031-217-8771","addr":"경기도 수원시 영통구 이의동 1331번지 광교푸르지오월드스퀘어 204동 1층 005,006호","indutype":"일반휴게음식 - 일반한식","category":"restaurant"},{"name":"고양이부엌","tel":"031-213-8876","addr":"경기도 수원시 영통구 이의동 1331번지 광교푸르지오 월드마크 월드스퀘어 204동 64호","indutype":"일반휴게음식 - 스넥","category":"restaurant"},{"name":"광교국수와돈까스","tel":"031-213-0828","addr":"경기도 수원시 영통구 이의동 1331번지 광교푸르지오 월드마크, 월드스퀘어 204동 B64호","indutype":"일반휴게음식 - 일반한식","category":"restaurant"},{"name":"광교황소곱창(아나바)","tel":"031-111-1111","addr":"경기도 수원시 영통구 이의동 1331번지 광교푸르지오월드스퀘어 204동 1층 B-69호","indutype":"일반휴게음식 - 일반한식","category":"restaurant"},{"name":"뉴욕핫도그앤커피 광교월드스퀘어점/(주)비","tel":"031-320-7848","addr":"경기도 수원시 영통구 이의동 1331번지 광교월드스퀘어 B47호","indutype":"일반휴게음식 - 일반한식","category":"restaurant"},{"name":"더담 숯불돈까스","tel":"031-212-7474","addr":"경기도 수원시 영통구 이의동 1331번지 광교푸르지오 월드마크, 월드스퀘어 204동 1층 B19,B20호","indutype":"일반휴게음식 - 일반한식","category":"restaurant"},{"name":"더힐링라운지","tel":"031-212-4456","addr":"경기도 수원시 영통구 이의동 1331번지 광교푸르지오 월드마크, 월드스퀘어 204동 1층 74호","indutype":"일반휴게음식 - 서양음식","category":"restaurant"},{"name":"돈미가","tel":"031-111-1111","addr":"경기도 수원시 영통구 이의동 1331번지 광교푸르지오 월드마크 204동 1-110호","indutype":"일반휴게음식 - 일반한식","category":"restaurant"},{"name":"두찜(수원광교1호점)","tel":"031-215-0905","addr":"경기도 수원시 영통구 이의동 1331번지 광교푸르지오월드마크,월드스퀘어 204동 1층 D73호","indutype":"일반휴게음식 - 일반한식","category":"restaurant"},{"name":"뜰","tel":"031-216-4523","addr":"경기도 수원시 영통구 이의동 1331번지 광교푸르지오 월드마크, 월드스퀘어 204동 844호","indutype":"일반휴게음식 - 서양음식","category":"restaurant"},{"name":"릴리펏 광교점","tel":"031-214-3337","addr":"경기도 수원시 영통구 이의동 1331번지 광교푸르지오 월드마크, 월드스퀘어 204동 B-76,77,78호","indutype":"일반휴게음식 - 서양음식","category":"restaurant"},{"name":"마라신china with THE LAMB","tel":"031-309-5212","addr":"경기도 수원시 영통구 이의동 1331번지 광교푸르지오 월드마크 204동 1-124,1-125호","indutype":"일반휴게음식 - 일반한식","category":"restaurant"},{"name":"미소공장","tel":"031-217-3363","addr":"경기도 수원시 영통구 이의동 1331번지 광교푸르지오 월드마크 204동 제비1층 13호,14호,15호","indutype":"일반휴게음식 - 일반한식","category":"restaurant"},{"name":"바닐라비스트로","tel":"031-231-7800","addr":"경기도 수원시 영통구 이의동 1331번지 광교푸르지오 월드마크, 월드스퀘어 지하1층 B50호","indutype":"일반휴게음식 - 서양음식","category":"restaurant"},{"name":"바르다김선생","tel":"031-211-2877","addr":"경기도 수원시 영통구 이의동 1331번지 광교푸르지오 월드마크, 월드스퀘어 1층 128호","indutype":"일반휴게음식 - 스넥","category":"restaurant"},{"name":"백씨부엌","tel":"031-304-8358","addr":"경기도 수원시 영통구 이의동 1331번지 광교푸르지오 월드마크, 월드스퀘어 204동 B-04호","indutype":"일반휴게음식 - 일반한식","category":"restaurant"},{"name":"본도시락 광교중앙점","tel":"031-212-4282","addr":"경기도 수원시 영통구 이의동 1331번지 광교푸르지오 월드마크, 월드스퀘어 204동 제비25호","indutype":"일반휴게음식 - 일반한식","category":"restaurant"},{"name":"빽다방 광교월드스퀘어점","tel":"031-211-9772","addr":"경기도 수원시 영통구 이의동 1331번지 광교푸르지오 월드마크, 월드스퀘어 1동 097호","indutype":"일반휴게음식 - 서양음식","category":"restaurant"},{"name":"삼포집 광교점","tel":"031-212-7755","addr":"경기도 수원시 영통구 이의동 1331번지 광교푸르지오 월드마크, 월드스퀘어 204동 제비 66호","indutype":"일반휴게음식 - 일반한식","category":"restaurant"},{"name":"샤이바나 광교월드마크점","tel":"031-211-4281","addr":"경기도 수원시 영통구 이의동 1331번지 광교푸르지오 월드마크 204동 1층 40호,41호,42호","indutype":"일반휴게음식 - 서양음식","category":"restaurant"},{"name":"셀렉스토어","tel":"","addr":"경기도 수원시 영통구 이의동 1331번지 광교푸르지오월드마크,월드스퀘어 204동 1층 052호","indutype":"일반휴게음식 - 서양음식","category":"restaurant"},{"name":"소금다방","tel":"031-213-0103","addr":"경기도 수원시 영통구 이의동 1331번지 광교푸르지오월드마크,월드스퀘어 1층 32호","indutype":"일반휴게음식 - 서양음식","category":"restaurant"},{"name":"신복관","tel":"031-214-9076","addr":"경기도 수원시 영통구 이의동 1331번지 광교푸르지오 월드스퀘어 1-7,8호","indutype":"일반휴게음식 - 일반한식","category":"restaurant"},{"name":"심야식당 후라후라","tel":"031-255-1400","addr":"경기도 수원시 영통구 이의동 1331번지 광교푸르지오 월드마크, 월드스퀘어 204동 1-120호","indutype":"일반휴게음식 - 일반한식","category":"restaurant"},{"name":"써브웨이 광교중앙점","tel":"031-211-8886","addr":"경기도 수원시 영통구 이의동 1331번지 광교푸르지오 월드마크, 월드스퀘어 204동 1층 1-017호","indutype":"일반휴게음식 - 서양음식","category":"restaurant"},{"name":"알리시아 티 앤 스콘(ALICIA TEA & SCONE)","tel":"031-212-9480","addr":"경기도 수원시 영통구 이의동 1331번지 광교푸르지오 월드마크, 월드스퀘어 204동 1-066호","indutype":"일반휴게음식 - 서양음식","category":"restaurant"},{"name":"양선생","tel":"031-302-9402","addr":"경기도 수원시 영통구 이의동 1331번지 광교푸르지오 월드마크, 월드스퀘어 204동 1-107호","indutype":"일반휴게음식 - 일반한식","category":"restaurant"},{"name":"연어로만","tel":"","addr":"경기도 수원시 영통구 이의동 1331번지 광교푸르지오 월드마크, 월드스퀘어 204동 126호","indutype":"일반휴게음식 - 일반한식","category":"restaurant"},{"name":"오비베어(수원광교점)","tel":"031-261-5007","addr":"경기도 수원시 영통구 이의동 1331번지 광교푸르지오월드마크 B24호","indutype":"일반휴게음식 - 주점","category":"restaurant"},{"name":"오와스시 광교점","tel":"031-213-5551","addr":"경기도 수원시 영통구 이의동 1331번지 광교푸르지오월드마크 204동 제비45호, 제비46호","indutype":"일반휴게음식 - 일식·회집","category":"restaurant"},{"name":"오잉크","tel":"031-212-2127","addr":"경기도 수원시 영통구 이의동 1331번지 광교푸르지오월드마크 204동 B1층 75호","indutype":"일반휴게음식 - 서양음식","category":"restaurant"},{"name":"유가배","tel":"","addr":"경기도 수원시 영통구 이의동 1331번지 광교푸르지오 월드마크월드스퀘어 1층 59호","indutype":"일반휴게음식 - 서양음식","category":"restaurant"},{"name":"유나보네","tel":"","addr":"경기도 수원시 영통구 이의동 1331번지 광교푸르지오 월드마크,월드스퀘어 B42호","indutype":"일반휴게음식 - 서양음식","category":"restaurant"},{"name":"인기명(광교점)","tel":"031-215-8222","addr":"경기도 수원시 영통구 이의동 1331번지 광교푸르지오월드마크,월드스퀘어 1층 1-9호,1-10호","indutype":"일반휴게음식 - 일반한식","category":"restaurant"},{"name":"전&포차","tel":"031-111-1111","addr":"경기도 수원시 영통구 이의동 1331번지 광교푸르지오 월드마크, 월드스퀘어 204동 1-014호","indutype":"일반휴게음식 - 일반한식","category":"restaurant"},{"name":"전사랑","tel":"031-212-9459","addr":"경기도 수원시 영통구 이의동 1331번지 광교푸르지오월드스퀘어 204동 지하1층 21호","indutype":"일반휴게음식 - 일반한식","category":"restaurant"},{"name":"쥬씨광교중앙역점","tel":"070-4115-1028","addr":"경기도 수원시 영통구 이의동 1331번지 광교푸르지오 월드마크,월드스퀘어 204동 1-015호","indutype":"일반휴게음식 - 서양음식","category":"restaurant"},{"name":"짝태가","tel":"031-422-2584","addr":"경기도 수원시 영통구 이의동 1331번지 광교푸르지오월드파크 204동 1층 B63호","indutype":"일반휴게음식 - 일반한식","category":"restaurant"},{"name":"찰떡쿵","tel":"031-214-0615","addr":"경기도 수원시 영통구 이의동 1331번지 광교푸르지오 월드마크, 월드스퀘어 B26호","indutype":"일반휴게음식 - 일반한식","category":"restaurant"},{"name":"참큰곤드레순대국(이의동)","tel":"070-8666-4178","addr":"경기도 수원시 영통구 이의동 1331번지 광교푸르지오 월드마크, 월드스퀘어 205동 비18호 17호","indutype":"일반휴게음식 - 일반한식","category":"restaurant"},{"name":"청담이상광교점","tel":"031-216-1515","addr":"경기도 수원시 영통구 이의동 1331번지 광교푸르지오월드마크 204동 1층 1-109호","indutype":"일반휴게음식 - 일식·회집","category":"restaurant"},{"name":"카렌 세이로무시","tel":"031-212-8256","addr":"경기도 수원시 영통구 이의동 1331번지 광교푸르지오 월드마크,월드스퀘어 B1층 비-66,67호","indutype":"일반휴게음식 - 일반한식","category":"restaurant"},{"name":"카페리붐","tel":"031-8006-7268","addr":"경기도 수원시 영통구 이의동 1331번지 광교푸르지오월드마크 1층 858호","indutype":"일반휴게음식 - 서양음식","category":"restaurant"},{"name":"칼레오영어카페","tel":"031-543-6678","addr":"경기도 수원시 영통구 이의동 1331번지 광교푸르지오 월드마크, 월드스퀘어 제1 204동 1층 123호","indutype":"일반휴게음식 - 서양음식","category":"restaurant"},{"name":"커피베이 광교월드마크점","tel":"031-215-0340","addr":"경기도 수원시 영통구 이의동 1331번지 광교푸르지오 월드마크,월드스퀘어 204동 1층 B65호","indutype":"일반휴게음식 - 서양음식","category":"restaurant"},{"name":"커피인더스트리그라운드제로","tel":"","addr":"경기도 수원시 영통구 이의동 1331번지 광교푸르지오월드스퀘어 204동 비1층 1-48호","indutype":"일반휴게음식 - 서양음식","category":"restaurant"},{"name":"컬렉션커피","tel":"","addr":"경기도 수원시 영통구 이의동 1331번지 광교푸르지오 월드마크, 월드스퀘어 204동 B1층 39호","indutype":"일반휴게음식 - 서양음식","category":"restaurant"},{"name":"켈리마마","tel":"070-4242-8654","addr":"경기도 수원시 영통구 이의동 1331번지 광교푸르지오 월드마크, 월드스퀘어 B-47호","indutype":"일반휴게음식 - 서양음식","category":"restaurant"},{"name":"쿠시야끼하루","tel":"031-211-6231","addr":"경기도 수원시 영통구 이의동 1331번지 광교푸르지오 월드마크, 월드스퀘어 204동 B 68호 1층","indutype":"일반휴게음식 - 일식·회집","category":"restaurant"},{"name":"키유스테이크","tel":"031-8002-7474","addr":"경기도 수원시 영통구 이의동 1331번지 광교푸르지오월드마크 204동 116,117호","indutype":"일반휴게음식 - 서양음식","category":"restaurant"},{"name":"티엠비바베큐","tel":"031-214-9288","addr":"경기도 수원시 영통구 이의동 1331번지 광교푸르지오월드마크,월드스퀘어 제204동 제B03호","indutype":"일반휴게음식 - 일반한식","category":"restaurant"},{"name":"티오피/주식회사 디투에스","tel":"","addr":"경기도 수원시 영통구 이의동 1331번지 광교푸르지오월드마크 101동 4603호","indutype":"일반휴게음식 - 서양음식","category":"restaurant"},{"name":"파파존스피자 광교점","tel":"031-217-4419","addr":"경기도 수원시 영통구 이의동 1331번지 광교푸르지오 월드마크, 월드스퀘어 204동 1층 1-1호","indutype":"일반휴게음식 - 서양음식","category":"restaurant"},{"name":"펀비어킹 수원광교월드파크점","tel":"03-100-0000","addr":"경기도 수원시 영통구 이의동 1331번지 광교푸르지오월드마크 118,119호","indutype":"일반휴게음식 - 주점","category":"restaurant"},{"name":"해뜰","tel":"02-111-1111","addr":"경기도 수원시 영통구 이의동 1331번지 광교푸르지오월드마크,월드스퀘어 204동 1층 1-103호","indutype":"일반휴게음식 - 서양음식","category":"restaurant"},{"name":"호접몽","tel":"031-214-9987","addr":"경기도 수원시 영통구 이의동 1331번지 광교푸르지오 월드마크,월드스퀘어 204동 105호,106호","indutype":"일반휴게음식 - 중국식","category":"restaurant"},{"name":"황소갈비","tel":"031-251-9284","addr":"경기도 수원시 영통구 이의동 1331번지 광교푸르지오 월드마크, 월드스퀘어 204호","indutype":"일반휴게음식 - 일반한식","category":"restaurant"}]},{"lat":"37.292925389","long":"127.04149693","imageIndex":4,"items":[{"name":"가람푸드써비스 (주)나노기술원지점","tel":"031-546-6366","addr":"경기도 수원시 영통구 이의동 906-10번지","indutype":"일반휴게음식 - 위탁급식업","category":"restaurant"}]},{"lat":"37.294649888","long":"127.05566296","imageIndex":4,"items":[{"name":"가장맛있는족발","tel":"031-212-5849","addr":"경기도 수원시 영통구 이의동 1317-1번지 1층","indutype":"일반휴게음식 - 일반한식","category":"restaurant"}]},{"lat":"37.298591894","long":"127.04427435","imageIndex":4,"items":[{"name":"가제트술집 광교점","tel":"031-212-8018","addr":"경기도 수원시 영통구 이의동 1271-3번지 1층","indutype":"일반휴게음식 - 주점","category":"restaurant"}]},{"lat":"37.309509297","long":"127.0521088","imageIndex":4,"items":[{"name":"각시쭈꾸미","tel":"031-212-0090","addr":"경기도 수원시 영통구 이의동 1216번지 1층","indutype":"일반휴게음식 - 일반한식","category":"restaurant"}]},{"lat":"37.297925498","long":"127.04322509","imageIndex":4,"items":[{"name":"갈비포차 광교역 직영점","tel":"031-223-5213","addr":"경기도 수원시 영통구 이의동 1274-3번지 1층","indutype":"일반휴게음식 - 일반한식","category":"restaurant"}]},{"lat":"37.297987662","long":"127.0458079","imageIndex":4,"items":[{"name":"갈풍집","tel":"031-217-1301","addr":"경기도 수원시 영통구 이의동 1266-7번지","indutype":"일반휴게음식 - 일반한식","category":"restaurant"}]},{"lat":"37.304988136","long":"127.04710902","imageIndex":4,"items":[{"name":"감탄 떡볶이","tel":"031-211-0648","addr":"경기도 수원시 영통구 이의동 1202번지 골드클래스5 1층 101호","indutype":"일반휴게음식 - 스넥","category":"restaurant"},{"name":"매드후라이","tel":"070-8785-7142","addr":"경기도 수원시 영통구 이의동 1202번지 1층 105호","indutype":"일반휴게음식 - 스넥","category":"restaurant"},{"name":"플라츠","tel":"031-214-0726","addr":"경기도 수원시 영통구 이의동 1202번지 109호","indutype":"일반휴게음식 - 서양음식","category":"restaurant"}]},{"lat":"37.298898064","long":"127.04478206","imageIndex":4,"items":[{"name":"감투상회","tel":"031-217-7830","addr":"경기도 수원시 영통구 이의동 1261-6번지 1층","indutype":"일반휴게음식 - 일반한식","category":"restaurant"}]},{"lat":"37.294461911","long":"127.05280951","imageIndex":4,"items":[{"name":"갠지스","tel":"031-211-9575","addr":"경기도 수원시 영통구 이의동 1306-4번지","indutype":"일반휴게음식 - 서양음식","category":"restaurant"}]},{"lat":"37.298843655","long":"127.04575199","imageIndex":4,"items":[{"name":"갯마을","tel":"031-216-1148","addr":"경기도 수원시 영통구 이의동 1263-11번지 1층 101호","indutype":"일반휴게음식 - 일반한식","category":"restaurant"}]},{"lat":"37.299204809","long":"127.04364308","imageIndex":4,"items":[{"name":"겐코경기대점","tel":"","addr":"경기도 수원시 영통구 이의동 1258-4번지 1층 112호","indutype":"일반휴게음식 - 일식·회집","category":"restaurant"},{"name":"고씨떡볶이","tel":"02-1111-1111","addr":"경기도 수원시 영통구 이의동 1258-4번지 1층 103호","indutype":"일반휴게음식 - 스넥","category":"restaurant"},{"name":"공간보드 게임카페","tel":"070-8810-2727","addr":"경기도 수원시 영통구 이의동 1258-4번지 경기캠퍼스프라자 501호","indutype":"일반휴게음식 - 서양음식","category":"restaurant"},{"name":"도노키친","tel":"031-214-3438","addr":"경기도 수원시 영통구 이의동 1258-4번지 캠퍼스프라자 1층 104호","indutype":"일반휴게음식 - 서양음식","category":"restaurant"},{"name":"석기정돌솥부대찌개경기대점","tel":"031-211-5545","addr":"경기도 수원시 영통구 이의동 1258-4번지","indutype":"일반휴게음식 - 일반한식","category":"restaurant"},{"name":"써브웨이광교경기후문점","tel":"031-217-2040","addr":"경기도 수원시 영통구 이의동 1258-4번지 경기캠퍼스프라자 107,108호","indutype":"일반휴게음식 - 일반한식","category":"restaurant"},{"name":"역전우동 광교역경기대점","tel":"031-212-0417","addr":"경기도 수원시 영통구 이의동 1258-4번지 경기캠퍼스프라자 105호","indutype":"일반휴게음식 - 일반한식","category":"restaurant"},{"name":"우주라이크앤 광교신도시점","tel":"","addr":"경기도 수원시 영통구 이의동 1258-4번지 1층 110호","indutype":"일반휴게음식 - 서양음식","category":"restaurant"},{"name":"이찌방 회전초밥","tel":"031-211-5211","addr":"경기도 수원시 영통구 이의동 1258-4번지 1층 113호","indutype":"일반휴게음식 - 일식·회집","category":"restaurant"}]},{"lat":"37.298232018","long":"127.04271772","imageIndex":4,"items":[{"name":"경기대닭발","tel":"031-217-9655","addr":"경기도 수원시 영통구 이의동 1275-4번지","indutype":"일반휴게음식 - 일반한식","category":"restaurant"},{"name":"마실","tel":"031-215-3933","addr":"경기도 수원시 영통구 이의동 1275-4번지 1층 102호","indutype":"일반휴게음식 - 서양음식","category":"restaurant"},{"name":"짬뽕타임","tel":"031-212-7739","addr":"경기도 수원시 영통구 이의동 1275-4번지","indutype":"일반휴게음식 - 중국식","category":"restaurant"}]},{"lat":"37.292651957","long":"127.05011294","imageIndex":4,"items":[{"name":"경성쌍화/주식회사 피앤와이컴퍼니","tel":"031-216-2090","addr":"경기도 수원시 영통구 이의동 1322-5번지 센트럴프라자 146~152,155,156,162,163호","indutype":"일반휴게음식 - 서양음식","category":"restaurant"},{"name":"백채김치찌개","tel":"031-212-6581","addr":"경기도 수원시 영통구 이의동 1322-5번지 센트럴프라자 115호","indutype":"일반휴게음식 - 일반한식","category":"restaurant"},{"name":"베를린치킨호프","tel":"031-211-4996","addr":"경기도 수원시 영통구 이의동 1322-5번지 센트럴프라자 1층 142호","indutype":"일반휴게음식 - 일반한식","category":"restaurant"},{"name":"보드게임카페 프리스콜레","tel":"031-304-4115","addr":"경기도 수원시 영통구 이의동 1322-5번지 센트럴프라자 214호","indutype":"일반휴게음식 - 서양음식","category":"restaurant"},{"name":"삼삼오오(회)","tel":"031-211-3356","addr":"경기도 수원시 영통구 이의동 1322-5번지 센트럴프라자 1층 124호","indutype":"일반휴게음식 - 일반한식","category":"restaurant"},{"name":"스웨르떼","tel":"02-1111-1111","addr":"경기도 수원시 영통구 이의동 1322-5번지 광교센트럴프라자 1층 133호","indutype":"일반휴게음식 - 서양음식","category":"restaurant"},{"name":"엇모스트","tel":"070-7570-0816","addr":"경기도 수원시 영통구 이의동 1322-5번지 센트럴프라자 141호","indutype":"일반휴게음식 - 서양음식","category":"restaurant"},{"name":"와이낫 (WHY NOT)","tel":"","addr":"경기도 수원시 영통구 이의동 1322-5번지 센트럴프라자 1층 102호","indutype":"일반휴게음식 - 서양음식","category":"restaurant"},{"name":"이차돌 광교중앙역점","tel":"031-891-4465","addr":"경기도 수원시 영통구 이의동 1322-5번지 108호. 109호. 110호","indutype":"일반휴게음식 - 일반한식","category":"restaurant"},{"name":"청년다방","tel":"031-307-5505","addr":"경기도 수원시 영통구 이의동 1322-5번지 센트럴프라자 122호","indutype":"일반휴게음식 - 일반한식","category":"restaurant"},{"name":"청담한우/(주)피앤와이컴퍼니","tel":"","addr":"경기도 수원시 영통구 이의동 1322-5번지 센트럴프라자 146-152 ,155,156,162,163","indutype":"일반휴게음식 - 일반한식","category":"restaurant"},{"name":"컴포즈커피 광교중앙역점","tel":"031-000-0000","addr":"경기도 수원시 영통구 이의동 1322-5번지 센트럴프라자 1층 111호","indutype":"일반휴게음식 - 서양음식","category":"restaurant"},{"name":"포메인","tel":"031-212-1972","addr":"경기도 수원시 영통구 이의동 1322-5번지 센트럴프라자 2층 208호,209호","indutype":"일반휴게음식 - 일반한식","category":"restaurant"},{"name":"행복식당","tel":"031-216-5455","addr":"경기도 수원시 영통구 이의동 1322-5번지 센트럴프라자 1층 118호, 119호","indutype":"일반휴게음식 - 일반한식","category":"restaurant"}]},{"lat":"37.292570419","long":"127.05121811","imageIndex":4,"items":[{"name":"고래식당밥도둑 광교점","tel":"031-216-6092","addr":"경기도 수원시 영통구 이의동 1325-1번지 1층 104호 103","indutype":"일반휴게음식 - 일반한식","category":"restaurant"}]},{"lat":"37.299258126","long":"127.04575223","imageIndex":4,"items":[{"name":"고베맨숀","tel":"031-215-4695","addr":"경기도 수원시 영통구 이의동 1262-1번지","indutype":"일반휴게음식 - 일반한식","category":"restaurant"}]},{"lat":"37.288733564","long":"127.04735888","imageIndex":4,"items":[{"name":"고봉민김밥","tel":"031-211-8893","addr":"경기도 수원시 영통구 이의동 1347-5번지 세븐스퀘어 105동 1347-5호","indutype":"일반휴게음식 - 스넥","category":"restaurant"},{"name":"광교장설렁탕별관","tel":"031-215-5205","addr":"경기도 수원시 영통구 이의동 세븐스퀘어 202","indutype":"일반휴게음식 - 일반한식","category":"restaurant"},{"name":"하누향","tel":"031-215-5412","addr":"경기도 수원시 영통구 이의동 1347-5번지 세븐스퀘어 201호","indutype":"일반휴게음식 - 일반한식","category":"restaurant"}]},{"lat":"37.304042163","long":"127.04683776","imageIndex":4,"items":[{"name":"고봉민김밥 인 수원광교웰빙타운점","tel":"031-217-8581","addr":"경기도 수원시 영통구 이의동 1204-7번지 광교웰빙프라자 101호","indutype":"일반휴게음식 - 스넥","category":"restaurant"},{"name":"웰빙밥상","tel":"070-8884-8295","addr":"경기도 수원시 영통구 이의동 1204-7번지 104,105","indutype":"일반휴게음식 - 일반한식","category":"restaurant"}]},{"lat":"37.28957136","long":"127.04777663","imageIndex":4,"items":[{"name":"고수수타짬뽕","tel":"031-217-1003","addr":"경기도 수원시 영통구 이의동 1347-1번지 월드프라자 106호,107호","indutype":"일반휴게음식 - 중국식","category":"restaurant"},{"name":"닭장수 후라이드 광교점","tel":"031-211-0789","addr":"경기도 수원시 영통구 이의동 1347-1번지 1층 104호","indutype":"일반휴게음식 - 스넥","category":"restaurant"},{"name":"용인토종순대국","tel":"031-214-7242","addr":"경기도 수원시 영통구 이의동 1347-1번지 203,204호","indutype":"일반휴게음식 - 일반한식","category":"restaurant"},{"name":"육회도둑","tel":"031-211-8006","addr":"경기도 수원시 영통구 이의동 1347-1번지 월드프라자 101,102호","indutype":"일반휴게음식 - 일반한식","category":"restaurant"}]},{"lat":"37.295649848","long":"127.0560584","imageIndex":4,"items":[{"name":"곰지락","tel":"02-502-4939","addr":"경기도 수원시 영통구 이의동 1294-2번지","indutype":"일반휴게음식 - 일반한식","category":"restaurant"}]},{"lat":"37.289184098","long":"127.04730276","imageIndex":4,"items":[{"name":"곱창고","tel":"031-212-9289","addr":"경기도 수원시 영통구 이의동 1347-3번지 에듀프라자 1층 105호","indutype":"일반휴게음식 - 일반한식","category":"restaurant"},{"name":"깐부치킨 광교도청역점","tel":"031-212-8922","addr":"경기도 수원시 영통구 이의동 1347-3번지 에듀프라자","indutype":"일반휴게음식 - 스넥","category":"restaurant"},{"name":"롯데리아 광교점","tel":"031-212-2205","addr":"경기도 수원시 영통구 이의동 1347-3번지 에듀프라자 1층 112,113호","indutype":"일반휴게음식 - 서양음식","category":"restaurant"},{"name":"이디야커피 수원광교고교점","tel":"031-213-1939","addr":"경기도 수원시 영통구 이의동 1347-3번지 에듀프라자 114호","indutype":"일반휴게음식 - 서양음식","category":"restaurant"},{"name":"청담에는닭발","tel":"031-212-8250","addr":"경기도 수원시 영통구 이의동 1347-3번지 에듀프라자 111호","indutype":"일반휴게음식 - 일반한식","category":"restaurant"}]},{"lat":"37.298654739","long":"127.04491727","imageIndex":4,"items":[{"name":"곱창마왕","tel":"031-8019-8888","addr":"경기도 수원시 영통구 이의동 1262-10번지 102호","indutype":"일반휴게음식 - 일반한식","category":"restaurant"}]},{"lat":"37.302897657","long":"127.04738978","imageIndex":4,"items":[{"name":"공감","tel":"070-4110-1182","addr":"경기도 수원시 영통구 이의동 1209번지 1층","indutype":"일반휴게음식 - 서양음식","category":"restaurant"}]},{"lat":"37.298266807","long":"127.04628175","imageIndex":4,"items":[{"name":"공방술집","tel":"031-225-7118","addr":"경기도 수원시 영통구 이의동 1266-10번지","indutype":"일반휴게음식 - 주점","category":"restaurant"}]},{"lat":"37.299844614","long":"127.04341785","imageIndex":4,"items":[{"name":"공차 경기대후문점","tel":"031-308-8020","addr":"경기도 수원시 영통구 이의동 1257-3번지 105호","indutype":"일반휴게음식 - 서양음식","category":"restaurant"},{"name":"공차 경기대후문점","tel":"031-308-8020","addr":"경기도 수원시 영통구 이의동 1257-3번지 105호","indutype":"일반휴게음식 - 서양음식","category":"restaurant"},{"name":"김밥천국","tel":"031-217-1478","addr":"경기도 수원시 영통구 이의동 1257-3번지 이스턴타워 101호","indutype":"일반휴게음식 - 일반한식","category":"restaurant"},{"name":"돈부리가게","tel":"031-891-0580","addr":"경기도 수원시 영통구 이의동 1257-3번지 이스턴타워 103호","indutype":"일반휴게음식 - 일식·회집","category":"restaurant"},{"name":"맨술포차","tel":"031-233-4633","addr":"경기도 수원시 영통구 이의동 1257-3번지 1층 110호","indutype":"일반휴게음식 - 일반한식","category":"restaurant"},{"name":"탐앤탐스 광교역 경기대점","tel":"031-213-9350","addr":"경기도 수원시 영통구 이의동 1257-3번지 108호 205호","indutype":"일반휴게음식 - 서양음식","category":"restaurant"},{"name":"황금입은동까스","tel":"031-203-7768","addr":"경기도 수원시 영통구 이의동 1257-3번지 이스턴타워 104호","indutype":"일반휴게음식 - 일반한식","category":"restaurant"}]},{"lat":"37.288044605","long":"127.05736118","imageIndex":4,"items":[{"name":"광교 차돌","tel":"","addr":"경기도 수원시 영통구 이의동 1335번지 아이플렉스 1층 117호","indutype":"일반휴게음식 - 일반한식","category":"restaurant"},{"name":"광교부추곱창","tel":"031-364-8859","addr":"경기도 수원시 영통구 이의동 1335번지 아이플렉스 121호","indutype":"일반휴게음식 - 일반한식","category":"restaurant"},{"name":"김가네 광교점","tel":"031-211-6054","addr":"경기도 수원시 영통구 이의동 1335번지 아이플렉스 1층","indutype":"일반휴게음식 - 스넥","category":"restaurant"},{"name":"땡큐꼬마김밥(광교도청점)","tel":"031-215-6780","addr":"경기도 수원시 영통구 이의동 1335번지 아이플렉스 141호","indutype":"일반휴게음식 - 스넥","category":"restaurant"},{"name":"마늘은약이다보쌈족발 (광교점)","tel":"031-213-9110","addr":"경기도 수원시 영통구 이의동 1335번지 116호 115호, 116호","indutype":"일반휴게음식 - 일반한식","category":"restaurant"},{"name":"보림돼지갈비","tel":"031-211-0637","addr":"경기도 수원시 영통구 이의동 1335번지 아이플렉스 1층 112호 113 114호 115호116호119호","indutype":"일반휴게음식 - 일반한식","category":"restaurant"},{"name":"블랙스미스수원광교점","tel":"031-215-1335","addr":"경기도 수원시 영통구 이의동 1335번지 202호 아이플렉스202~206호","indutype":"일반휴게음식 - 서양음식","category":"restaurant"},{"name":"수유리 우동집","tel":"031-211-5554","addr":"경기도 수원시 영통구 이의동 1335번지 아이플렉스 1층 102호","indutype":"일반휴게음식 - 일반한식","category":"restaurant"},{"name":"스시호","tel":"031-548-4050","addr":"경기도 수원시 영통구 이의동 1335번지 아이플렉스 113호","indutype":"일반휴게음식 - 일식·회집","category":"restaurant"},{"name":"오뚝푸드","tel":"031-211-5511","addr":"경기도 수원시 영통구 이의동 1335번지 아이플렉스 208,209","indutype":"일반휴게음식 - 일반한식","category":"restaurant"},{"name":"채선당플러스 광교도청점","tel":"031-214-7822","addr":"경기도 수원시 영통구 이의동 1335번지 아이플렉스 2층 213-215호","indutype":"일반휴게음식 - 일반한식","category":"restaurant"},{"name":"컬투치킨광교사랑점","tel":"031-211-6761","addr":"경기도 수원시 영통구 이의동 1335번지 아이플렉스 122,123호","indutype":"일반휴게음식 - 스넥","category":"restaurant"},{"name":"함바라지","tel":"031-211-3782","addr":"경기도 수원시 영통구 이의동 1335번지 아이플렉스 202호 203호","indutype":"일반휴게음식 - 일반한식","category":"restaurant"}]},{"lat":"37.298762501","long":"127.04592112","imageIndex":4,"items":[{"name":"광교면옥","tel":"031-215-2226","addr":"경기도 수원시 영통구 이의동 1263-4번지 1층","indutype":"일반휴게음식 - 일반한식","category":"restaurant"}]},{"lat":"37.297457367","long":"127.04202933","imageIndex":4,"items":[{"name":"광교반점","tel":"031-214-8255","addr":"경기도 수원시 영통구 이의동 1275-11번지 1층 103,105호","indutype":"일반휴게음식 - 중국식","category":"restaurant"},{"name":"키친토리노","tel":"","addr":"경기도 수원시 영통구 이의동 1275-11번지 1층 101호","indutype":"일반휴게음식 - 서양음식","category":"restaurant"},{"name":"티지이","tel":"070-5089-9333","addr":"경기도 수원시 영통구 이의동 1275-11번지 102호","indutype":"일반휴게음식 - 일반한식","category":"restaurant"}]},{"lat":"37.300483599","long":"127.04552734","imageIndex":4,"items":[{"name":"광교부페식당","tel":"031-217-1127","addr":"경기도 수원시 영통구 이의동 1250번지 101호,102호","indutype":"일반휴게음식 - 일반한식","category":"restaurant"},{"name":"롯데리아 경기대역점/주식회사 행복푸드","tel":"031-217-0026","addr":"경기도 수원시 영통구 이의동 1250번지 리치프라자2 101,102호","indutype":"일반휴게음식 - 서양음식","category":"restaurant"},{"name":"셀렉토커피 광교경기대역점","tel":"031-000-0000","addr":"경기도 수원시 영통구 이의동 1250번지 1층 115호","indutype":"일반휴게음식 - 서양음식","category":"restaurant"}]},{"lat":"37.297654935","long":"127.04396932","imageIndex":4,"items":[{"name":"광교연탄불고기","tel":"070-7862-1697","addr":"경기도 수원시 영통구 이의동 1270-5번지 1층","indutype":"일반휴게음식 - 일반한식","category":"restaurant"}]},{"lat":"37.292454128","long":"127.04910911","imageIndex":4,"items":[{"name":"광교정원집","tel":"031-215-8850","addr":"경기도 수원시 영통구 이의동 1330번지 광교스타힐스오피스텔 제114호,제115호","indutype":"일반휴게음식 - 일반한식","category":"restaurant"},{"name":"대한샐러드","tel":"070-4249-7479","addr":"경기도 수원시 영통구 이의동 1330번지 광교서희스타힐스오피스텔 102호","indutype":"일반휴게음식 - 서양음식","category":"restaurant"},{"name":"명륜진사갈비 광교점","tel":"031-213-9295","addr":"경기도 수원시 영통구 이의동 1330번지 광교스타필드오피스텔 2층 201,202호","indutype":"일반휴게음식 - 일반한식","category":"restaurant"},{"name":"새마을식당 광교스타점","tel":"031-204-0778","addr":"경기도 수원시 영통구 이의동 1330번지 광교스타힐스오피스텔 116,117,118호","indutype":"일반휴게음식 - 일반한식","category":"restaurant"},{"name":"에이미스","tel":"031-548-1655","addr":"경기도 수원시 영통구 이의동 1330번지 광교스타힐스오피스텔 110호","indutype":"일반휴게음식 - 서양음식","category":"restaurant"},{"name":"영심이광교2호점","tel":"031-213-3033","addr":"경기도 수원시 영통구 이의동 1330번지 광교스타힐스오피스텔 105호","indutype":"일반휴게음식 - 일반한식","category":"restaurant"},{"name":"오징어청춘 광교점","tel":"031-221-8007","addr":"경기도 수원시 영통구 이의동 1330번지 1층 119-120호","indutype":"일반휴게음식 - 일반한식","category":"restaurant"},{"name":"일미리 금계찜닭 광교점","tel":"031-213-2220","addr":"경기도 수원시 영통구 이의동 1330번지 광교스타힐스오피스텔 112호","indutype":"일반휴게음식 - 일반한식","category":"restaurant"},{"name":"전주콩뿌리콩나물국밥","tel":"031-212-2306","addr":"경기도 수원시 영통구 이의동 1330번지 광교스타힐스오피스텔 121호","indutype":"일반휴게음식 - 일반한식","category":"restaurant"},{"name":"청기와감자탕","tel":"0507-1355-0456","addr":"경기도 수원시 영통구 이의동 1330번지 광교서희스타힐스 1층 107-109호","indutype":"일반휴게음식 - 일반한식","category":"restaurant"},{"name":"카페203","tel":"031-000-0000","addr":"경기도 수원시 영통구 이의동 1330번지 광교스타힐스오피스텔 207호","indutype":"일반휴게음식 - 서양음식","category":"restaurant"},{"name":"한솥도시락 광교서희스타힐스점","tel":"031-216-9898","addr":"경기도 수원시 영통구 이의동 1330번지 광교스타힐스오피스텔 103호","indutype":"일반휴게음식 - 일반한식","category":"restaurant"}]},{"lat":"37.309203145","long":"127.05163483","imageIndex":4,"items":[{"name":"광교추어정","tel":"031-212-0093","addr":"경기도 수원시 영통구 이의동 1216-3번지","indutype":"일반휴게음식 - 일반한식","category":"restaurant"}]},{"lat":"37.298510751","long":"127.04442093","imageIndex":4,"items":[{"name":"광교포차","tel":"031-213-7666","addr":"경기도 수원시 영통구 이의동 1271-4번지 101호","indutype":"일반휴게음식 - 주점","category":"restaurant"}]},{"lat":"37.298572341","long":"127.04844742","imageIndex":4,"items":[{"name":"광교풍천민물장어","tel":"031-211-9779","addr":"경기도 수원시 영통구 이의동 1242번지 1층","indutype":"일반휴게음식 - 일반한식","category":"restaurant"}]},{"lat":"37.297988021","long":"127.04480411","imageIndex":4,"items":[{"name":"교동반점교동짬뽕","tel":"031-212-1128","addr":"경기도 수원시 영통구 이의동 1266-2번지","indutype":"일반휴게음식 - 중국식","category":"restaurant"}]},{"lat":"37.294426676","long":"127.0508584","imageIndex":4,"items":[{"name":"구구스트리트","tel":"031-211-9916","addr":"경기도 수원시 영통구 이의동 1305-1번지 1층","indutype":"일반휴게음식 - 일반한식","category":"restaurant"},{"name":"비다벨로","tel":"031-214-2454","addr":"경기도 수원시 영통구 이의동 1305-1번지 1층 101호","indutype":"일반휴게음식 - 서양음식","category":"restaurant"},{"name":"착한식당","tel":"031-213-8285","addr":"경기도 수원시 영통구 이의동 1305-1번지 1층 102호","indutype":"일반휴게음식 - 일반한식","category":"restaurant"}]},{"lat":"37.300816876","long":"127.0458095","imageIndex":4,"items":[{"name":"국군 부대찌개","tel":"031-553-0455","addr":"경기도 수원시 영통구 이의동 1248-2번지 109,110호","indutype":"일반휴게음식 - 일반한식","category":"restaurant"},{"name":"돈블랑수원광교역점 신화푸드 (주)","tel":"031-215-8295","addr":"경기도 수원시 영통구 이의동 1248-2번지 1층 119호~124호","indutype":"일반휴게음식 - 일반한식","category":"restaurant"},{"name":"모스그린 (moss green)","tel":"031-212-3417","addr":"경기도 수원시 영통구 이의동 1248-2번지 1층 111호","indutype":"일반휴게음식 - 일반한식","category":"restaurant"},{"name":"뭉클푸드","tel":"031-212-0118","addr":"경기도 수원시 영통구 이의동 1248-2번지 2층 213호","indutype":"일반휴게음식 - 일반한식","category":"restaurant"},{"name":"샹델","tel":"031-788-9961","addr":"경기도 수원시 영통구 이의동 1248-2번지 리치프라자3 134호","indutype":"일반휴게음식 - 서양음식","category":"restaurant"},{"name":"왕빈자삼파전 (광교점)","tel":"031-213-4646","addr":"경기도 수원시 영통구 이의동 1248-2번지 리치프라자3 1층 121호","indutype":"일반휴게음식 - 일반한식","category":"restaurant"},{"name":"요미일식","tel":"031-214-0030","addr":"경기도 수원시 영통구 이의동 1248-2번지 126호 ,127,128호","indutype":"일반휴게음식 - 일식·회집","category":"restaurant"},{"name":"장수본가 해장국","tel":"031-212-4620","addr":"경기도 수원시 영통구 이의동 1248-2번지 리치프라자3 1층 118호","indutype":"일반휴게음식 - 일반한식","category":"restaurant"},{"name":"토속추어탕","tel":"031-213-8006","addr":"경기도 수원시 영통구 이의동 1248-2번지 206,207호","indutype":"일반휴게음식 - 일반한식","category":"restaurant"},{"name":"화천골","tel":"031-588-1852","addr":"경기도 수원시 영통구 이의동 1248-2번지 101,102,103,137,138호","indutype":"일반휴게음식 - 일반한식","category":"restaurant"},{"name":"황가네짬뽕","tel":"031-217-7333","addr":"경기도 수원시 영통구 이의동 1248-2번지 129호","indutype":"일반휴게음식 - 중국식","category":"restaurant"},{"name":"훌랄라숯불바베큐치킨 광교점","tel":"031-212-6300","addr":"경기도 수원시 영통구 이의동 1248-2번지 리치프라자3 125호","indutype":"일반휴게음식 - 스넥","category":"restaurant"}]},{"lat":"37.298735791","long":"127.0450301","imageIndex":4,"items":[{"name":"국민불고기","tel":"031-215-3599","addr":"경기도 수원시 영통구 이의동 1262-11번지","indutype":"일반휴게음식 - 일반한식","category":"restaurant"}]},{"lat":"37.283956362","long":"127.0518328","imageIndex":4,"items":[{"name":"국수나무 광교에듀타운점","tel":"031-216-9453","addr":"경기도 수원시 영통구 이의동 1369-4번지","indutype":"일반휴게음식 - 일반한식","category":"restaurant"},{"name":"원할머니보쌈 수원광교배달점","tel":"","addr":"경기도 수원시 영통구 이의동 1369-4번지 104호","indutype":"일반휴게음식 - 일반한식","category":"restaurant"}]},{"lat":"37.300177888","long":"127.04372256","imageIndex":4,"items":[{"name":"국수나무경기대학로점","tel":"031-214-0560","addr":"경기도 수원시 영통구 이의동 1257-1번지 107호","indutype":"일반휴게음식 - 일반한식","category":"restaurant"},{"name":"내리다","tel":"031-212-0766","addr":"경기도 수원시 영통구 이의동 1257-1번지 광교에코프리지오시티 B동 104호","indutype":"일반휴게음식 - 서양음식","category":"restaurant"},{"name":"전목수가배","tel":"031-215-1770","addr":"경기도 수원시 영통구 이의동 1257-1번지 광교에코푸르지오시티 B동 1층 109호","indutype":"일반휴게음식 - 일반한식","category":"restaurant"}]},{"lat":"37.294343944","long":"127.05474924","imageIndex":4,"items":[{"name":"군산오징어리틀광교점","tel":"031-213-7388","addr":"경기도 수원시 영통구 이의동 1313-3번지","indutype":"일반휴게음식 - 일반한식","category":"restaurant"}]},{"lat":"37.290787808","long":"127.04760819","imageIndex":4,"items":[{"name":"규당분식","tel":"031-211-8628","addr":"경기도 수원시 영통구 이의동 1351-6번지 유니코어 1층 217호","indutype":"일반휴게음식 - 스넥","category":"restaurant"},{"name":"덕꾼오리바베큐 광교점","tel":"031-212-5279","addr":"경기도 수원시 영통구 이의동 1351-6번지 유니코어 101동 1층 1-111호","indutype":"일반휴게음식 - 일반한식","category":"restaurant"},{"name":"또또와분식","tel":"031-217-8249","addr":"경기도 수원시 영통구 이의동 1351-6번지 101동 B1-105호","indutype":"일반휴게음식 - 스넥","category":"restaurant"},{"name":"요거트 산토커피","tel":"02-1899-7728","addr":"경기도 수원시 영통구 이의동 1351-6번지 B1층 109호","indutype":"일반휴게음식 - 서양음식","category":"restaurant"}]},{"lat":"37.301675738","long":"127.03692211","imageIndex":4,"items":[{"name":"그라찌에경기대학교 기숙사점","tel":"031-000-0000","addr":"경기도 수원시 영통구 이의동 산94-6번지 경기대학교","indutype":"일반휴게음식 - 서양음식","category":"restaurant"},{"name":"마이츄","tel":"","addr":"경기도 수원시 영통구 이의동 산94-6번지 경기대학교","indutype":"일반휴게음식 - 일반한식","category":"restaurant"},{"name":"오아시스","tel":"","addr":"경기도 수원시 영통구 이의동 산94-6번지 경기대학교 1층 학교법인경기학원홍보관","indutype":"일반휴게음식 - 서양음식","category":"restaurant"},{"name":"플랜비","tel":"","addr":"경기도 수원시 영통구 이의동 산94-6번지 경기대학교 종합연구동 5층","indutype":"일반휴게음식 - 서양음식","category":"restaurant"}]},{"lat":"37.295460271","long":"127.05685901","imageIndex":4,"items":[{"name":"그린게이블스","tel":"031-214-1297","addr":"경기도 수원시 영통구 이의동 1297번지 1층 상가전부","indutype":"일반휴게음식 - 일반한식","category":"restaurant"}]},{"lat":"37.298149727","long":"127.04613507","imageIndex":4,"items":[{"name":"그집양푼이","tel":"","addr":"경기도 수원시 영통구 이의동 1266-9번지 1층 101호","indutype":"일반휴게음식 - 일반한식","category":"restaurant"}]},{"lat":"37.289337883","long":"127.0456451","imageIndex":4,"items":[{"name":"길","tel":"031-891-8191","addr":"경기도 수원시 영통구 이의동 1352번지 에듀하임1309오피스텔 103동 123호","indutype":"일반휴게음식 - 서양음식","category":"restaurant"},{"name":"동명카츠","tel":"070-7543-2237","addr":"경기도 수원시 영통구 이의동 1352번지 에듀하임1309오피스텔 103동 108호","indutype":"일반휴게음식 - 일반한식","category":"restaurant"},{"name":"하이브런치","tel":"031-222-2222","addr":"경기도 수원시 영통구 이의동 1352번지 에듀하임1309오피스텔 103동 209호","indutype":"일반휴게음식 - 일반한식","category":"restaurant"},{"name":"홍군튀떡","tel":"031-306-2002","addr":"경기도 수원시 영통구 이의동 1352번지 에듀하임1309오피스텔 103동 118호","indutype":"일반휴게음식 - 스넥","category":"restaurant"}]},{"lat":"37.28957246","long":"127.04477689","imageIndex":4,"items":[{"name":"김밥나라","tel":"031-215-3634","addr":"경기도 수원시 영통구 이의동 1352번지 115호 외1필지에듀하임1309오피스텔","indutype":"일반휴게음식 - 스넥","category":"restaurant"},{"name":"뜰안에카페","tel":"031-223-5214","addr":"경기도 수원시 영통구 이의동 1352번지 에듀하임1309오피스텔","indutype":"일반휴게음식 - 서양음식","category":"restaurant"},{"name":"카페열한시","tel":"031-217-1753","addr":"경기도 수원시 영통구 이의동 1352번지 105호 B104","indutype":"일반휴게음식 - 서양음식","category":"restaurant"},{"name":"퍼스트크랙","tel":"031-246-6017","addr":"경기도 수원시 영통구 이의동 1352번지 에듀하임1309오피스텔 102동 108,201,202호","indutype":"일반휴게음식 - 서양음식","category":"restaurant"}]},{"lat":"37.290815404","long":"127.04608576","imageIndex":4,"items":[{"name":"김밥천국","tel":"031-211-1040","addr":"경기도 수원시 영통구 이의동 1351-2번지 112호 광교코아루S","indutype":"일반휴게음식 - 스넥","category":"restaurant"},{"name":"더착한커피","tel":"031-213-3392","addr":"경기도 수원시 영통구 이의동 1351-2번지 1층 108호","indutype":"일반휴게음식 - 서양음식","category":"restaurant"},{"name":"샘라 파스타 광교점","tel":"070-4649-1101","addr":"경기도 수원시 영통구 이의동 1351-2번지 1층 111호","indutype":"일반휴게음식 - 서양음식","category":"restaurant"}]},{"lat":"37.291876777","long":"127.05085678","imageIndex":4,"items":[{"name":"김밥킹 광교점","tel":"031-214-7725","addr":"경기도 수원시 영통구 이의동 1325-5번지 앤에스코어빌딩 102호","indutype":"일반휴게음식 - 스넥","category":"restaurant"}]},{"lat":"37.294372078","long":"127.05216661","imageIndex":4,"items":[{"name":"깐부치킨","tel":"031-216-9205","addr":"경기도 수원시 영통구 이의동 1306번지","indutype":"일반휴게음식 - 스넥","category":"restaurant"}]},{"lat":"37.294236502","long":"127.05317025","imageIndex":4,"items":[{"name":"꼬뎅마루","tel":"031-215-4777","addr":"경기도 수원시 영통구 이의동 1310번지 101호","indutype":"일반휴게음식 - 주점","category":"restaurant"}]},{"lat":"37.297898742","long":"127.04241303","imageIndex":4,"items":[{"name":"꼬쳤닭","tel":"031-215-7422","addr":"경기도 수원시 영통구 이의동 1275-8번지 1층 105호","indutype":"일반휴게음식 - 일반한식","category":"restaurant"},{"name":"서울감자탕","tel":"031-213-2002","addr":"경기도 수원시 영통구 이의동 1275-8번지 1층 103호 ,104,106호","indutype":"일반휴게음식 - 일반한식","category":"restaurant"},{"name":"포크포크","tel":"031-261-0548","addr":"경기도 수원시 영통구 이의동 1275-8번지 1층 101,102호","indutype":"일반휴게음식 - 스넥","category":"restaurant"}]},{"lat":"37.294758704","long":"127.05408412","imageIndex":4,"items":[{"name":"끌로끌로","tel":"","addr":"경기도 수원시 영통구 이의동 1306-12번지 101호","indutype":"일반휴게음식 - 일반한식","category":"restaurant"}]},{"lat":"37.295064319","long":"127.05575348","imageIndex":4,"items":[{"name":"남자피자 광교점","tel":"031-747-3133","addr":"경기도 수원시 영통구 이의동 1315-1번지 101호","indutype":"일반휴게음식 - 일반한식","category":"restaurant"}]},{"lat":"37.284704157","long":"127.0519686","imageIndex":4,"items":[{"name":"내이름은 커피","tel":"031-212-6566","addr":"경기도 수원시 영통구 이의동 1369-1번지 광교프라자 105호","indutype":"일반휴게음식 - 서양음식","category":"restaurant"},{"name":"맘스터치 광교중앙점","tel":"031-216-6555","addr":"경기도 수원시 영통구 이의동 1369-1번지 광교프라자 106,107호","indutype":"일반휴게음식 - 서양음식","category":"restaurant"},{"name":"베러댄와플 광교에듀타운점","tel":"031-215-3886","addr":"경기도 수원시 영통구 이의동 1369-1번지 광교프라자 1층 104호","indutype":"일반휴게음식 - 서양음식","category":"restaurant"}]},{"lat":"37.299375458","long":"127.04519964","imageIndex":4,"items":[{"name":"냥푼부대찌개","tel":"031-486-9708","addr":"경기도 수원시 영통구 이의동 1261-2번지","indutype":"일반휴게음식 - 일반한식","category":"restaurant"}]},{"lat":"37.290427648","long":"127.04694262","imageIndex":4,"items":[{"name":"높은갈비","tel":"031-215-3942","addr":"경기도 수원시 영통구 이의동 1349번지 광교더로프트 101호","indutype":"일반휴게음식 - 일반한식","category":"restaurant"},{"name":"맛있다","tel":"070-9381-4503","addr":"경기도 수원시 영통구 이의동 1349번지 광교더로프트 117호","indutype":"일반휴게음식 - 일반한식","category":"restaurant"},{"name":"문어스토리해천광교직영점","tel":"031-214-4440","addr":"경기도 수원시 영통구 이의동 1349번지 광교 더로프트 120호 121호","indutype":"일반휴게음식 - 일반한식","category":"restaurant"},{"name":"얍주먹고기","tel":"031-213-3392","addr":"경기도 수원시 영통구 이의동 1349번지 광교더로프트 122호","indutype":"일반휴게음식 - 일반한식","category":"restaurant"},{"name":"족발중심 수원광교점","tel":"031-217-0955","addr":"경기도 수원시 영통구 이의동 1349번지 114~115호","indutype":"일반휴게음식 - 일반한식","category":"restaurant"},{"name":"툭툭치킨 수원광교점","tel":"031-212-5392","addr":"경기도 수원시 영통구 이의동 1349번지 112(112호~113호)","indutype":"일반휴게음식 - 일반한식","category":"restaurant"}]},{"lat":"37.299952936","long":"127.04283142","imageIndex":4,"items":[{"name":"다도미향","tel":"031-306-9969","addr":"경기도 수원시 영통구 이의동 1256-3번지 U-city 지1층 L01~03호","indutype":"일반휴게음식 - 일반한식","category":"restaurant"}]},{"lat":"37.29865428","long":"127.04619175","imageIndex":4,"items":[{"name":"다이닝떡볶이","tel":"031-246-3985","addr":"경기도 수원시 영통구 이의동 1264-2번지 1층 전체","indutype":"일반휴게음식 - 일반한식","category":"restaurant"}]},{"lat":"37.28448777","long":"127.05230675","imageIndex":4,"items":[{"name":"단아한브런치","tel":"031-214-6066","addr":"경기도 수원시 영통구 이의동 1369-2번지 국제프라자 1층 104호","indutype":"일반휴게음식 - 일반한식","category":"restaurant"},{"name":"레드게코스","tel":"031-214-8273","addr":"경기도 수원시 영통구 이의동 1369-2번지 국제프라자 102호","indutype":"일반휴게음식 - 주점","category":"restaurant"}]},{"lat":"37.298843797","long":"127.04535724","imageIndex":4,"items":[{"name":"달그락","tel":"031-214-3940","addr":"경기도 수원시 영통구 이의동 1262-4번지","indutype":"일반휴게음식 - 서양음식","category":"restaurant"}]},{"lat":"37.29829437","long":"127.04480428","imageIndex":4,"items":[{"name":"달달데이 경기대","tel":"031-246-8080","addr":"경기도 수원시 영통구 이의동 1265-1번지 1층","indutype":"일반휴게음식 - 주점","category":"restaurant"},{"name":"이자카야 신이","tel":"031-211-0528","addr":"경기도 수원시 영통구 이의동 1265-1번지 1층","indutype":"일반휴게음식 - 일식·회집","category":"restaurant"}]},{"lat":"37.29026602","long":"127.04542008","imageIndex":4,"items":[{"name":"달리는커피 광교중앙점","tel":"","addr":"경기도 수원시 영통구 이의동 1351번지","indutype":"일반휴게음식 - 서양음식","category":"restaurant"},{"name":"할리스","tel":"031-217-8022","addr":"경기도 수원시 영통구 이의동 1351번지","indutype":"일반휴게음식 - 서양음식","category":"restaurant"}]},{"lat":"37.29951135","long":"127.04307931","imageIndex":4,"items":[{"name":"달봉감자","tel":"031-1670-3541","addr":"경기도 수원시 영통구 이의동 1257-4번지 광교파인렉스2차 104호","indutype":"일반휴게음식 - 주점","category":"restaurant"},{"name":"더 몽키","tel":"031-800-4036","addr":"경기도 수원시 영통구 이의동 1257-4번지 105호","indutype":"일반휴게음식 - 서양음식","category":"restaurant"},{"name":"몽뜨레셰프 수원광교점","tel":"031-215-9099","addr":"경기도 수원시 영통구 이의동 1257-4번지 301-302호","indutype":"일반휴게음식 - 서양음식","category":"restaurant"}]},{"lat":"37.298790225","long":"127.04396994","imageIndex":4,"items":[{"name":"달콤한나의시간","tel":"02-111-1111","addr":"경기도 수원시 영통구 이의동 1271-1번지 102호","indutype":"일반휴게음식 - 서양음식","category":"restaurant"}]},{"lat":"37.295037722","long":"127.05477227","imageIndex":4,"items":[{"name":"대훈생고기","tel":"031-214-9181","addr":"경기도 수원시 영통구 이의동 1306-17번지 1층","indutype":"일반휴게음식 - 일반한식","category":"restaurant"}]},{"lat":"37.295820931","long":"127.05630664","imageIndex":4,"items":[{"name":"더 돈까스","tel":"03-1211-1612","addr":"경기도 수원시 영통구 이의동 1294번지 1층 101호","indutype":"일반휴게음식 - 서양음식","category":"restaurant"}]},{"lat":"37.289905811","long":"127.04485601","imageIndex":4,"items":[{"name":"더 마스터커피(수원광교점)","tel":"031-212-1866","addr":"경기도 수원시 영통구 이의동 1352번지 에듀하임 101동 115호,116호","indutype":"일반휴게음식 - 서양음식","category":"restaurant"},{"name":"수유리우동","tel":"031-251-0084","addr":"경기도 수원시 영통구 이의동 1352번지 에듀하임1309오피스텔 101동 112호,113호","indutype":"일반휴게음식 - 일반한식","category":"restaurant"},{"name":"에그토스트","tel":"031-891-3100","addr":"경기도 수원시 영통구 이의동 1352번지 에듀하임1309오피스텔 101동 105호","indutype":"일반휴게음식 - 서양음식","category":"restaurant"},{"name":"통영인충무김밥","tel":"031-212-2012","addr":"경기도 수원시 영통구 이의동 1352번지 에듀하임1309오피스텔 101동 103호","indutype":"일반휴게음식 - 스넥","category":"restaurant"}]},{"lat":"37.298655197","long":"127.04360895","imageIndex":4,"items":[{"name":"더 부엌","tel":"031-211-6674","addr":"경기도 수원시 영통구 이의동 1272번지 1층 101호","indutype":"일반휴게음식 - 일반한식","category":"restaurant"}]},{"lat":"37.298655366","long":"127.04311269","imageIndex":4,"items":[{"name":"더먹소","tel":"031-216-4570","addr":"경기도 수원시 영통구 이의동 1275-1번지 201호","indutype":"일반휴게음식 - 서양음식","category":"restaurant"},{"name":"라튜피나","tel":"031-211-5221","addr":"경기도 수원시 영통구 이의동 1275-1번지 5층 501호","indutype":"일반휴게음식 - 일반한식","category":"restaurant"}]},{"lat":"37.297924882","long":"127.04499581","imageIndex":4,"items":[{"name":"더핫플","tel":"031-216-5806","addr":"경기도 수원시 영통구 이의동 1266-3번지 지하1층","indutype":"일반휴게음식 - 일반한식","category":"restaurant"},{"name":"비엠피","tel":"","addr":"경기도 수원시 영통구 이의동 1266-3번지 1층","indutype":"일반휴게음식 - 일반한식","category":"restaurant"}]},{"lat":"37.297736341","long":"127.04305581","imageIndex":4,"items":[{"name":"도기","tel":"031-217-7741","addr":"경기도 수원시 영통구 이의동 1276-1번지 1층","indutype":"일반휴게음식 - 서양음식","category":"restaurant"}]},{"lat":"37.294704701","long":"127.05394875","imageIndex":4,"items":[{"name":"도미닉커피랩","tel":"02-157-7000","addr":"경기도 수원시 영통구 이의동 1306-11번지 1층 상가동","indutype":"일반휴게음식 - 서양음식","category":"restaurant"}]},{"lat":"37.299456602","long":"127.04505306","imageIndex":4,"items":[{"name":"돈가네 옛날김치돼지찌개","tel":"031-214-6165","addr":"경기도 수원시 영통구 이의동 1261-15번지 101호","indutype":"일반휴게음식 - 일반한식","category":"restaurant"}]},{"lat":"37.298482282","long":"127.04833458","imageIndex":4,"items":[{"name":"돈사돈","tel":"031-214-3443","addr":"경기도 수원시 영통구 이의동 1242-1번지","indutype":"일반휴게음식 - 일반한식","category":"restaurant"}]},{"lat":"37.299096084","long":"127.04535738","imageIndex":4,"items":[{"name":"동경당","tel":"031-214-3121","addr":"경기도 수원시 영통구 이의동 1262-14번지 1층","indutype":"일반휴게음식 - 일반한식","category":"restaurant"}]},{"lat":"37.29859145","long":"127.04552628","imageIndex":4,"items":[{"name":"동진참치","tel":"031-212-3423","addr":"경기도 수원시 영통구 이의동 1263-9번지","indutype":"일반휴게음식 - 일식·회집","category":"restaurant"}]},{"lat":"37.294128288","long":"127.05338446","imageIndex":4,"items":[{"name":"두껍삼","tel":"031-213-3592","addr":"경기도 수원시 영통구 이의동 1310-2번지 1층","indutype":"일반휴게음식 - 일반한식","category":"restaurant"}]},{"lat":"37.294181541","long":"127.05524535","imageIndex":4,"items":[{"name":"디어스윗랩","tel":"070-8777-0514","addr":"경기도 수원시 영통구 이의동 1318-2번지 1층","indutype":"일반휴게음식 - 서양음식","category":"restaurant"}]},{"lat":"37.292877855","long":"127.04847782","imageIndex":4,"items":[{"name":"디어커피","tel":"031-240-3688","addr":"경기도 수원시 영통구 이의동 1329번지 1층 105호","indutype":"일반휴게음식 - 서양음식","category":"restaurant"}]},{"lat":"37.293849228","long":"127.05277527","imageIndex":4,"items":[{"name":"떡가게종춘광교점","tel":"031-216-8821","addr":"경기도 수원시 영통구 이의동 1309-4번지","indutype":"일반휴게음식 - 서양음식","category":"restaurant"}]},{"lat":"37.303897907","long":"127.04708582","imageIndex":4,"items":[{"name":"떡볶이디자이너","tel":"031-212-5395","addr":"경기도 수원시 영통구 이의동 1204-8번지 1층 105,105-2호","indutype":"일반휴게음식 - 일반한식","category":"restaurant"},{"name":"이디야커피 수원광교웰빙점","tel":"031-215-0876","addr":"경기도 수원시 영통구 이의동 1204-8번지 1층 106-1,107호","indutype":"일반휴게음식 - 서양음식","category":"restaurant"}]},{"lat":"37.299538083","long":"127.04394779","imageIndex":4,"items":[{"name":"뚱띠소곱창","tel":"031-217-3878","addr":"경기도 수원시 영통구 이의동 1258-3번지 오피스텔 110호","indutype":"일반휴게음식 - 일반한식","category":"restaurant"},{"name":"백채 김치찌개","tel":"031-212-4084","addr":"경기도 수원시 영통구 이의동 1258-3번지 광교파인렉스 1동 107호","indutype":"일반휴게음식 - 일반한식","category":"restaurant"},{"name":"빙플","tel":"031-213-1357","addr":"경기도 수원시 영통구 이의동 1258-3번지 광교파인렉스1 1층 108호","indutype":"일반휴게음식 - 서양음식","category":"restaurant"},{"name":"일락 경기대후문점","tel":"031-212-5914","addr":"경기도 수원시 영통구 이의동 1258-3번지 광교파인렉스1 1층 109호","indutype":"일반휴게음식 - 일식·회집","category":"restaurant"},{"name":"전티마이베트남쌀국수","tel":"031-256-9686","addr":"경기도 수원시 영통구 이의동 1258-3번지 오피스텔 1층 106호","indutype":"일반휴게음식 - 서양음식","category":"restaurant"}]},{"lat":"37.28937322","long":"127.04755097","imageIndex":4,"items":[{"name":"뚱스밥버거광교점","tel":"031-217-2253","addr":"경기도 수원시 영통구 이의동 1347-2번지 지타워 104호","indutype":"일반휴게음식 - 일반한식","category":"restaurant"},{"name":"비비큐프리미엄카페","tel":"031-213-9991","addr":"경기도 수원시 영통구 이의동 1347-2번지 지타워 203호,204호","indutype":"일반휴게음식 - 일반한식","category":"restaurant"},{"name":"옥이네 한식뷔페","tel":"","addr":"경기도 수원시 영통구 이의동 1347-2번지 지타워 2층 201,202호","indutype":"일반휴게음식 - 일반한식","category":"restaurant"}]},{"lat":"37.284929041","long":"127.05285959","imageIndex":4,"items":[{"name":"뜰11","tel":"031-214-4521","addr":"경기도 수원시 영통구 이의동 1341-2번지 104호","indutype":"일반휴게음식 - 서양음식","category":"restaurant"},{"name":"락앤웍","tel":"031-212-9553","addr":"경기도 수원시 영통구 이의동 1341-2번지 112,113,114호","indutype":"일반휴게음식 - 중국식","category":"restaurant"},{"name":"이삭토스트광교에듀타운점","tel":"031-217-2492","addr":"경기도 수원시 영통구 이의동 1341-2번지 101호","indutype":"일반휴게음식 - 서양음식","category":"restaurant"},{"name":"카페세인트폴","tel":"070-4471-6654","addr":"경기도 수원시 영통구 이의동 1341-2번지 2층 203호","indutype":"일반휴게음식 - 서양음식","category":"restaurant"}]},{"lat":"37.300429205","long":"127.0464409","imageIndex":4,"items":[{"name":"뜰24커피","tel":"031-215-4522","addr":"경기도 수원시 영통구 이의동 1248-3번지 외2필지 에이스광교타워1 1층 101호","indutype":"일반휴게음식 - 서양음식","category":"restaurant"},{"name":"라운지밥","tel":"031-899-8699","addr":"경기도 수원시 영통구 이의동 1248-3번지 지층 107,108,109호","indutype":"일반휴게음식 - 일반한식","category":"restaurant"},{"name":"장수미역","tel":"02-1111-1111","addr":"경기도 수원시 영통구 이의동 1248-3번지 103호","indutype":"일반휴게음식 - 일반한식","category":"restaurant"},{"name":"커피에이스","tel":"031-899-8622","addr":"경기도 수원시 영통구 이의동 1248-3번지 에이스광교타워1 1층 105호","indutype":"일반휴게음식 - 서양음식","category":"restaurant"}]},{"lat":"37.308788652","long":"127.05169097","imageIndex":4,"items":[{"name":"라고","tel":"031-216-3401","addr":"경기도 수원시 영통구 이의동 1216-6번지 105호","indutype":"일반휴게음식 - 서양음식","category":"restaurant"}]},{"lat":"37.300736016","long":"127.04516656","imageIndex":4,"items":[{"name":"라멘휴","tel":"","addr":"경기도 수원시 영통구 이의동 1248번지 1층 106호","indutype":"일반휴게음식 - 일식·회집","category":"restaurant"},{"name":"마라도 해물탕 앤 찜","tel":"031-212-7156","addr":"경기도 수원시 영통구 이의동 1248번지 1층 110~113호","indutype":"일반휴게음식 - 일반한식","category":"restaurant"},{"name":"올리베떼","tel":"031-214-5284","addr":"경기도 수원시 영통구 이의동 1248번지 105호","indutype":"일반휴게음식 - 서양음식","category":"restaurant"},{"name":"유릿","tel":"","addr":"경기도 수원시 영통구 이의동 1248번지 리치프라자1 1층 101호","indutype":"일반휴게음식 - 서양음식","category":"restaurant"},{"name":"홍콩조개","tel":"031-000-0000","addr":"경기도 수원시 영통구 이의동 1248번지 리치프라자 201호","indutype":"일반휴게음식 - 일반한식","category":"restaurant"}]},{"lat":"37.292237196","long":"127.05083445","imageIndex":4,"items":[{"name":"라무진","tel":"031-213-1224","addr":"경기도 수원시 영통구 이의동 1325-3번지 1층 101호","indutype":"일반휴게음식 - 일반한식","category":"restaurant"},{"name":"웰돈제주생고기","tel":"031-216-5892","addr":"경기도 수원시 영통구 이의동 1325-3번지 102-104호","indutype":"일반휴게음식 - 일반한식","category":"restaurant"},{"name":"코카브라운","tel":"070-4215-9808","addr":"경기도 수원시 영통구 이의동 1325-3번지 에이타워 105호","indutype":"일반휴게음식 - 서양음식","category":"restaurant"}]},{"lat":"37.304538045","long":"127.04596953","imageIndex":4,"items":[{"name":"라벨로","tel":"070-4111-0517","addr":"경기도 수원시 영통구 이의동 1204-3번지 1층","indutype":"일반휴게음식 - 서양음식","category":"restaurant"},{"name":"페니레인","tel":"00-0000-0000","addr":"경기도 수원시 영통구 이의동 1204-3번지 1층","indutype":"일반휴게음식 - 일반한식","category":"restaurant"}]},{"lat":"37.293956084","long":"127.05569631","imageIndex":4,"items":[{"name":"라파즈","tel":"031-000-0000","addr":"경기도 수원시 영통구 이의동 1319-9번지 1층 101호","indutype":"일반휴게음식 - 서양음식","category":"restaurant"},{"name":"쭌차이나","tel":"031-217-7370","addr":"경기도 수원시 영통구 이의동 1319-9번지","indutype":"일반휴게음식 - 중국식","category":"restaurant"}]},{"lat":"37.298068692","long":"127.04597712","imageIndex":4,"items":[{"name":"램플러스 광교점","tel":"031-217-7737","addr":"경기도 수원시 영통구 이의동 1266-8번지","indutype":"일반휴게음식 - 일반한식","category":"restaurant"}]},{"lat":"37.297844072","long":"127.04419499","imageIndex":4,"items":[{"name":"럽씩","tel":"031-211-9983","addr":"경기도 수원시 영통구 이의동 1270-7번지 101호","indutype":"일반휴게음식 - 일반한식","category":"restaurant"},{"name":"비에스(BS)","tel":"031-215-6668","addr":"경기도 수원시 영통구 이의동 1270-7번지 1층 102호","indutype":"일반휴게음식 - 일반한식","category":"restaurant"}]},{"lat":"37.29054522","long":"127.04574728","imageIndex":4,"items":[{"name":"레드","tel":"031-212-9980","addr":"경기도 수원시 영통구 이의동 1351-1번지 광교데시앙루브 107호","indutype":"일반휴게음식 - 일반한식","category":"restaurant"},{"name":"블랑","tel":"031-212-5262","addr":"경기도 수원시 영통구 이의동 1351-1번지 광교데시앙루브 1층상가동101,102호","indutype":"일반휴게음식 - 스넥","category":"restaurant"},{"name":"이여사나무김밥(광교점)","tel":"031-214-2177","addr":"경기도 수원시 영통구 이의동 1351-1번지 광교데시앙루브 113호","indutype":"일반휴게음식 - 스넥","category":"restaurant"}]},{"lat":"37.311959141","long":"127.05431011","imageIndex":4,"items":[{"name":"로시","tel":"031-217-3355","addr":"경기도 수원시 영통구 이의동 1222-5","indutype":"일반휴게음식 - 서양음식","category":"restaurant"},{"name":"버들치","tel":"031-212-8989","addr":"경기도 수원시 영통구 이의동 1222-5번지","indutype":"일반휴게음식 - 일반한식","category":"restaurant"}]},{"lat":"37.291510262","long":"127.0430525","imageIndex":4,"items":[{"name":"롯데리아엔제리너스경기알앤디비센터점","tel":"031-888-5503","addr":"경기도 수원시 영통구 이의동 906-5경기중소기업종합지원센타R&DB1층","indutype":"일반휴게음식 - 서양음식","category":"restaurant"},{"name":"비포","tel":"","addr":"경기도 수원시 영통구 이의동 906-5번지 경기도중소기업지원센터","indutype":"일반휴게음식 - 일반한식","category":"restaurant"},{"name":"에프터(AFTER)","tel":"","addr":"경기도 수원시 영통구 이의동 906-5번지 경기도중소기업지원센터","indutype":"일반휴게음식 - 일반한식","category":"restaurant"}]},{"lat":"37.294569775","long":"127.05341859","imageIndex":4,"items":[{"name":"루지면관","tel":"031-111-1111","addr":"경기도 수원시 영통구 이의동 1306-8번지 1층 103호","indutype":"일반휴게음식 - 일반한식","category":"restaurant"}]},{"lat":"37.299817128","long":"127.04472618","imageIndex":4,"items":[{"name":"리얼펍광교경기대점","tel":"031-213-5347","addr":"경기도 수원시 영통구 이의동 1260번지 1층","indutype":"일반휴게음식 - 주점","category":"restaurant"}]},{"lat":"37.293929129","long":"127.05552713","imageIndex":4,"items":[{"name":"리프패럿","tel":"031-111-1111","addr":"경기도 수원시 영통구 이의동 1319-8번지 1층","indutype":"일반휴게음식 - 일반한식","category":"restaurant"}]},{"lat":"37.299627566","long":"127.04569604","imageIndex":4,"items":[{"name":"마룬","tel":"070-4158-0114","addr":"경기도 수원시 영통구 이의동 1259-2번지 1층","indutype":"일반휴게음식 - 일반한식","category":"restaurant"}]},{"lat":"37.298708542","long":"127.04563913","imageIndex":4,"items":[{"name":"마리나그란데","tel":"031-212-3902","addr":"경기도 수원시 영통구 이의동 1263-10번지 1층 101호","indutype":"일반휴게음식 - 서양음식","category":"restaurant"}]},{"lat":"37.298511248","long":"127.04297727","imageIndex":4,"items":[{"name":"마리스코(MARISCOS)","tel":"","addr":"경기도 수원시 영통구 이의동 1275-2번지 1층","indutype":"일반휴게음식 - 일반한식","category":"restaurant"}]},{"lat":"37.29415457","long":"127.05511","imageIndex":4,"items":[{"name":"마이올/Y테라스","tel":"070-4412-1288","addr":"경기도 수원시 영통구 이의동 1318-3번지","indutype":"일반휴게음식 - 일반한식","category":"restaurant"}]},{"lat":"37.293291761","long":"127.04992162","imageIndex":4,"items":[{"name":"마이쥬스 광교점","tel":"","addr":"경기도 수원시 영통구 이의동 1322-6번지 에이씨티 광교 R&D센터 102호","indutype":"일반휴게음식 - 서양음식","category":"restaurant"}]},{"lat":"37.304402821","long":"127.04616121","imageIndex":4,"items":[{"name":"마피아쥬스","tel":"02-1666-1383","addr":"경기도 수원시 영통구 이의동 1204-4번지 서광프라자 104호","indutype":"일반휴게음식 - 서양음식","category":"restaurant"},{"name":"카츠젠 광교웰빙타운점","tel":"031-215-0104","addr":"경기도 수원시 영통구 이의동 1204-4번지 1층 101,105호","indutype":"일반휴게음식 - 일반한식","category":"restaurant"}]},{"lat":"37.297375157","long":"127.04527746","imageIndex":4,"items":[{"name":"만월","tel":"0507-1404-4160","addr":"경기도 수원시 영통구 이의동 1268-2번지 B101호","indutype":"일반휴게음식 - 서양음식","category":"restaurant"}]},{"lat":"37.298042593","long":"127.04333794","imageIndex":4,"items":[{"name":"만지작","tel":"031-546-0906","addr":"경기도 수원시 영통구 이의동 1274-2번지 101호","indutype":"일반휴게음식 - 서양음식","category":"restaurant"}]},{"lat":"37.29437239","long":"127.05141098","imageIndex":4,"items":[{"name":"매드퀸(광교카페거리점)","tel":"031-212-0712","addr":"경기도 수원시 영통구 이의동 1305-4번지","indutype":"일반휴게음식 - 서양음식","category":"restaurant"}]},{"lat":"37.308923805","long":"127.05169105","imageIndex":4,"items":[{"name":"먹고보리","tel":"031-214-9952","addr":"경기도 수원시 영통구 이의동 1216-5번지 101","indutype":"일반휴게음식 - 일반한식","category":"restaurant"}]},{"lat":"37.295568507","long":"127.05661097","imageIndex":4,"items":[{"name":"메종11","tel":"031-735-9709","addr":"경기도 수원시 영통구 이의동 1295번지","indutype":"일반휴게음식 - 일반한식","category":"restaurant"}]},{"lat":"37.297430179","long":"127.04250301","imageIndex":4,"items":[{"name":"모노치즈 경기대점","tel":"031-266-2074","addr":"경기도 수원시 영통구 이의동 1276-8번지 1층 101호","indutype":"일반휴게음식 - 일반한식","category":"restaurant"}]},{"lat":"37.294650737","long":"127.05372315","imageIndex":4,"items":[{"name":"모로미쿠시광교점","tel":"031-215-4222","addr":"경기도 수원시 영통구 이의동 1306-10번지","indutype":"일반휴게음식 - 일식·회집","category":"restaurant"}]},{"lat":"37.289662398","long":"127.04523931","imageIndex":4,"items":[{"name":"모브","tel":"","addr":"경기도 수원시 영통구 이의동 1352번지 에듀하임1309오피스텔 102동 1층 106호","indutype":"일반휴게음식 - 서양음식","category":"restaurant"},{"name":"미뜨레피자 광교점","tel":"031-216-5533","addr":"경기도 수원시 영통구 이의동 1352번지 에듀하임1309오피스텔 102동 105호","indutype":"일반휴게음식 - 일반한식","category":"restaurant"},{"name":"소노야(광교에듀타임점)","tel":"031-212-1838","addr":"경기도 수원시 영통구 이의동 1352번지 에듀하임1309오피스텔 102동 112호","indutype":"일반휴게음식 - 스넥","category":"restaurant"},{"name":"커버트(covert)","tel":"031-309-7991","addr":"경기도 수원시 영통구 이의동 1352번지 에듀하임1309오피스텔 102동 1층 101호","indutype":"일반휴게음식 - 서양음식","category":"restaurant"}]},{"lat":"37.294119767","long":"127.05222283","imageIndex":4,"items":[{"name":"모찌이야기 광교점","tel":"031-216-1424","addr":"경기도 수원시 영통구 이의동 1308번지 103호","indutype":"일반휴게음식 - 일반한식","category":"restaurant"}]},{"lat":"37.294038595","long":"127.0524145","imageIndex":4,"items":[{"name":"못토","tel":"","addr":"경기도 수원시 영통구 이의동 1308-2번지","indutype":"일반휴게음식 - 일식·회집","category":"restaurant"}]},{"lat":"37.294092328","long":"127.05319271","imageIndex":4,"items":[{"name":"몽까이 광교점","tel":"031-281-5705","addr":"경기도 수원시 영통구 이의동 1310-7번지 1층","indutype":"일반휴게음식 - 서양음식","category":"restaurant"},{"name":"몽까이 광교점","tel":"031-215-3636","addr":"경기도 수원시 영통구 이의동 1310-7번지 1층","indutype":"일반휴게음식 - 서양음식","category":"restaurant"}]},{"lat":"37.295568807","long":"127.05594556","imageIndex":4,"items":[{"name":"문어스토리 해천","tel":"031-213-4440","addr":"경기도 수원시 영통구 이의동 1294-3번지 지하1~지상1","indutype":"일반휴게음식 - 일반한식","category":"restaurant"}]},{"lat":"37.29904172","long":"127.04619197","imageIndex":4,"items":[{"name":"물가에심기운카페","tel":"031-211-1708","addr":"경기도 수원시 영통구 이의동 1263-1번지 1층 101호","indutype":"일반휴게음식 - 서양음식","category":"restaurant"}]},{"lat":"37.298456866","long":"127.04391337","imageIndex":4,"items":[{"name":"미소돼지","tel":"031-217-8892","addr":"경기도 수원시 영통구 이의동 1272-2번지","indutype":"일반휴게음식 - 일반한식","category":"restaurant"}]},{"lat":"37.294091898","long":"127.05419645","imageIndex":4,"items":[{"name":"미스터코다리","tel":"031-216-7700","addr":"경기도 수원시 영통구 이의동 1312-6번지 1층","indutype":"일반휴게음식 - 일반한식","category":"restaurant"}]},{"lat":"37.293821925","long":"127.05341809","imageIndex":4,"items":[{"name":"바닐리","tel":"031-000-0000","addr":"경기도 수원시 영통구 이의동 1310-4번지 102호","indutype":"일반휴게음식 - 일반한식","category":"restaurant"}]},{"lat":"37.298376133","long":"127.04286442","imageIndex":4,"items":[{"name":"바다향 왕코다리(광교점)","tel":"031-216-1341","addr":"경기도 수원시 영통구 이의동 1275-3번지","indutype":"일반휴게음식 - 일반한식","category":"restaurant"}]},{"lat":"37.295619415","long":"127.04161109","imageIndex":4,"items":[{"name":"바른찌개","tel":"031-111-1111","addr":"경기도 수원시 영통구 이의동 1286-1번지 에이스광교타워2 1층 B203호","indutype":"일반휴게음식 - 일반한식","category":"restaurant"},{"name":"아름드리한식부페","tel":"031-8014-2975","addr":"경기도 수원시 영통구 이의동 1286-1번지 에이스광교타워2 지하3층 B303호","indutype":"일반휴게음식 - 일반한식","category":"restaurant"},{"name":"카페포레스트","tel":"031-8014-2739","addr":"경기도 수원시 영통구 이의동 1286-1번지 에이스광교타워2 1층 B204호","indutype":"일반휴게음식 - 서양음식","category":"restaurant"},{"name":"킹스빈광교에이스","tel":"031-8014-2739","addr":"경기도 수원시 영통구 이의동 1286-1번지 에이스광교타워2 1층 B204호","indutype":"일반휴게음식 - 서양음식","category":"restaurant"}]},{"lat":"37.294461381","long":"127.05405008","imageIndex":4,"items":[{"name":"박경규항아리보쌈","tel":"031-212-0101","addr":"경기도 수원시 영통구 이의동 1312번지","indutype":"일반휴게음식 - 일반한식","category":"restaurant"}]},{"lat":"37.294399052","long":"127.05230196","imageIndex":4,"items":[{"name":"반탄","tel":"031-211-9422","addr":"경기도 수원시 영통구 이의동 1306-1번지 102호","indutype":"일반휴게음식 - 서양음식","category":"restaurant"}]},{"lat":"37.298843565","long":"127.04600012","imageIndex":4,"items":[{"name":"반하다마카롱","tel":"070-4032-2037","addr":"경기도 수원시 영통구 이의동 1263-3번지 1층","indutype":"일반휴게음식 - 일반한식","category":"restaurant"}]},{"lat":"37.295377443","long":"127.03739295","imageIndex":4,"items":[{"name":"밥스","tel":"","addr":"경기도 수원시 영통구 이의동 1283번지 광교센트럴비즈타워 1층 109호","indutype":"일반휴게음식 - 일반한식","category":"restaurant"},{"name":"어울림한식부페","tel":"031-8066-7272","addr":"경기도 수원시 영통구 이의동 1283번지 광교센트럴비즈타워 1층 106-108호","indutype":"일반휴게음식 - 일반한식","category":"restaurant"},{"name":"커피베이 (광교센트럴파크)","tel":"031-8066-7477","addr":"경기도 수원시 영통구 이의동 1283번지 광교센트럴비즈타워 1층 105호","indutype":"일반휴게음식 - 서양음식","category":"restaurant"}]},{"lat":"37.298871364","long":"127.04383464","imageIndex":4,"items":[{"name":"방콕스토리","tel":"","addr":"경기도 수원시 영통구 이의동 1271번지 1층","indutype":"일반휴게음식 - 일반한식","category":"restaurant"}]},{"lat":"37.298707603","long":"127.04816553","imageIndex":4,"items":[{"name":"배대감 갈비촌","tel":"031-217-9588","addr":"경기도 수원시 영통구 이의동 1245-6번지 1층","indutype":"일반휴게음식 - 일반한식","category":"restaurant"}]},{"lat":"37.299096233","long":"127.04494007","imageIndex":4,"items":[{"name":"배부장찌개가","tel":"031-211-4049","addr":"경기도 수원시 영통구 이의동 1261-4번지 1층","indutype":"일반휴게음식 - 일반한식","category":"restaurant"}]},{"lat":"37.29503665","long":"127.05716321","imageIndex":4,"items":[{"name":"백금당","tel":"","addr":"경기도 수원시 영통구 이의동 1297-2번지","indutype":"일반휴게음식 - 서양음식","category":"restaurant"}]},{"lat":"37.297231954","long":"127.0425029","imageIndex":4,"items":[{"name":"백팔십일점삼","tel":"070-1478-1236","addr":"경기도 수원시 영통구 이의동 1276-6번지","indutype":"일반휴게음식 - 서양음식","category":"restaurant"},{"name":"부리또 정거장","tel":"031-1111-1111","addr":"경기도 수원시 영통구 이의동 1276-6번지 101호","indutype":"일반휴게음식 - 서양음식","category":"restaurant"}]},{"lat":"37.285154553","long":"127.05225081","imageIndex":4,"items":[{"name":"버무리떡볶이광교에듀타운점","tel":"031-212-1880","addr":"경기도 수원시 영통구 이의동 1341-4번지 그린메디칼 103호","indutype":"일반휴게음식 - 스넥","category":"restaurant"},{"name":"쿡1015광교에듀타운점","tel":"031-215-1055","addr":"경기도 수원시 영통구 이의동 1341-4번지 그린메디칼 107호","indutype":"일반휴게음식 - 스넥","category":"restaurant"}]},{"lat":"37.298600065","long":"127.04660902","imageIndex":4,"items":[{"name":"버찌울단팥집","tel":"070-8881-1688","addr":"경기도 수원시 영통구 이의동 1244-1번지","indutype":"일반휴게음식 - 일반한식","category":"restaurant"}]},{"lat":"37.294263451","long":"127.053362","imageIndex":4,"items":[{"name":"베이비기네스","tel":"031-211-3359","addr":"경기도 수원시 영통구 이의동 1310-1번지 1층 전체","indutype":"일반휴게음식 - 일반한식","category":"restaurant"}]},{"lat":"37.309067978","long":"127.05166859","imageIndex":4,"items":[{"name":"베이향","tel":"","addr":"경기도 수원시 영통구 이의동 1216-4번지","indutype":"일반휴게음식 - 서양음식","category":"restaurant"}]},{"lat":"37.289094495","long":"127.04594945","imageIndex":4,"items":[{"name":"베키롱","tel":"031-0000-0000","addr":"경기도 수원시 영통구 이의동 1352번지 에듀하임1309오피스텔 104동 103호","indutype":"일반휴게음식 - 서양음식","category":"restaurant"},{"name":"플로스케이크(FLOS CAKE)","tel":"031-202-1568","addr":"경기도 수원시 영통구 이의동 1352번지 에듀하임1309오피스텔 104동 1층 103호","indutype":"일반휴게음식 - 일반한식","category":"restaurant"}]},{"lat":"37.294120181","long":"127.0512191","imageIndex":4,"items":[{"name":"보돌미역 (광교서씨점)","tel":"031-211-6971","addr":"경기도 수원시 영통구 이의동 1307-1번지 1층","indutype":"일반휴게음식 - 일반한식","category":"restaurant"}]},{"lat":"37.298788759","long":"127.0479964","imageIndex":4,"items":[{"name":"본도시락 경기대점","tel":"031-216-4282","addr":"경기도 수원시 영통구 이의동 1245-5번지 1층 101호","indutype":"일반휴게음식 - 일반한식","category":"restaurant"}]},{"lat":"37.300123555","long":"127.04450077","imageIndex":4,"items":[{"name":"본죽(광교점)","tel":"031-216-6288","addr":"경기도 수원시 영통구 이의동 1258번지 A동 104호","indutype":"일반휴게음식 - 일반한식","category":"restaurant"},{"name":"브라더셰프","tel":"031-217-2123","addr":"경기도 수원시 영통구 이의동 1258번지 광교에코푸르지오 A동 112호","indutype":"일반휴게음식 - 일반한식","category":"restaurant"},{"name":"식겁라면","tel":"031-211-5559","addr":"경기도 수원시 영통구 이의동 1258번지 A동 101호","indutype":"일반휴게음식 - 일반한식","category":"restaurant"},{"name":"펀비어킹","tel":"031-212-6400","addr":"경기도 수원시 영통구 이의동 1258번지 광교에코푸르지오시티 A동 108,109호","indutype":"일반휴게음식 - 주점","category":"restaurant"}]},{"lat":"37.287750182","long":"127.05060607","imageIndex":4,"items":[{"name":"봉구비어수원광교점","tel":"031-212-4902","addr":"경기도 수원시 영통구 이의동 1344번지 자연앤힐스테이트상가1동지하2층 118호","indutype":"일반휴게음식 - 주점","category":"restaurant"},{"name":"커피가게 by 김진욱","tel":"02-0000-0000","addr":"경기도 수원시 영통구 이의동 1344번지 자연앤힐스테이트 상가 1동 132호","indutype":"일반휴게음식 - 서양음식","category":"restaurant"},{"name":"피자스쿨광교힐스테이트점","tel":"031-213-8228","addr":"경기도 수원시 영통구 이의동 1344번지 자연앤힐스테이트 125호","indutype":"일반휴게음식 - 서양음식","category":"restaurant"},{"name":"하이포차","tel":"031-111-1111","addr":"경기도 수원시 영통구 이의동 1344번지 자연앤힐스테이트 상가 1동 지하2층 119호","indutype":"일반휴게음식 - 일반한식","category":"restaurant"}]},{"lat":"37.299618883","long":"127.04478246","imageIndex":4,"items":[{"name":"부라보맥주","tel":"031-212-1898","addr":"경기도 수원시 영통구 이의동 1260-2번지 1층","indutype":"일반휴게음식 - 일반한식","category":"restaurant"}]},{"lat":"37.293542631","long":"127.05336151","imageIndex":4,"items":[{"name":"브라우니70광교점","tel":"031-217-2812","addr":"경기도 수원시 영통구 이의동 1321-8, 1층지층전체","indutype":"일반휴게음식 - 서양음식","category":"restaurant"}]},{"lat":"37.300286265","long":"127.04297822","imageIndex":4,"items":[{"name":"브라운돈까스 광교대학로점","tel":"031-8002-1255","addr":"경기도 수원시 영통구 이의동 1256-1번지 1동 115호","indutype":"일반휴게음식 - 일식·회집","category":"restaurant"},{"name":"오사카부르스 광교경기대점","tel":"031-214-2210","addr":"경기도 수원시 영통구 이의동 1256-1번지 엘층 117호","indutype":"일반휴게음식 - 일반한식","category":"restaurant"},{"name":"카페오르카","tel":"070-8777-5333","addr":"경기도 수원시 영통구 이의동 1256-1번지 B119,120호","indutype":"일반휴게음식 - 서양음식","category":"restaurant"}]},{"lat":"37.293759414","long":"127.05208726","imageIndex":4,"items":[{"name":"블레스롤 광교카페거리점","tel":"031-212-0818","addr":"경기도 수원시 영통구 이의동 1321번지 1층","indutype":"일반휴게음식 - 서양음식","category":"restaurant"}]},{"lat":"37.299151089","long":"127.04263925","imageIndex":4,"items":[{"name":"비비큐(BBQ)치킨 수원경기대점","tel":"031-215-6170","addr":"경기도 수원시 영통구 이의동 1254-2번지 광교K타워 1층 101,102호","indutype":"일반휴게음식 - 스넥","category":"restaurant"},{"name":"웨시커피(wesh coffee)","tel":"031-242-4708","addr":"경기도 수원시 영통구 이의동 1254-2번지 광교 K-TOWER 3층 304호","indutype":"일반휴게음식 - 서양음식","category":"restaurant"}]},{"lat":"37.307007655","long":"127.04369241","imageIndex":4,"items":[{"name":"비에이치씨","tel":"031-944-9935","addr":"경기도 수원시 영통구 이의동 1184번지 광교호반베르디움단지내상가 B동 112호","indutype":"일반휴게음식 - 일반한식","category":"restaurant"}]},{"lat":"37.284847306","long":"127.05435932","imageIndex":4,"items":[{"name":"비에이치씨 광교도청점","tel":"031-214-2229","addr":"경기도 수원시 영통구 이의동 1339번지 자연앤자이 상가동 104호","indutype":"일반휴게음식 - 스넥","category":"restaurant"},{"name":"제주꺼멍돈","tel":"070-7755-4569","addr":"경기도 수원시 영통구 이의동 1339번지 자연앤자이 상가 107호","indutype":"일반휴게음식 - 일반한식","category":"restaurant"}]},{"lat":"37.2938146","long":"127.04930166","imageIndex":4,"items":[{"name":"비타톡","tel":"031-217-3135","addr":"경기도 수원시 영통구 이의동 1322-1번지 광교비즈니스센터 1층 103호","indutype":"일반휴게음식 - 서양음식","category":"restaurant"}]},{"lat":"37.298042143","long":"127.04463496","imageIndex":4,"items":[{"name":"빅대디","tel":"","addr":"경기도 수원시 영통구 이의동 1266-1번지","indutype":"일반휴게음식 - 일반한식","category":"restaurant"},{"name":"페리카나 광교점","tel":"031-214-1688","addr":"경기도 수원시 영통구 이의동 1266-1번지 103호","indutype":"일반휴게음식 - 스넥","category":"restaurant"}]},{"lat":"37.294316779","long":"127.05505372","imageIndex":4,"items":[{"name":"빌라드 하노이","tel":"031-211-3843","addr":"경기도 수원시 영통구 이의동 1318번지 강가의숲 1층 102호","indutype":"일반휴게음식 - 서양음식","category":"restaurant"}]},{"lat":"37.29761933","long":"127.04269484","imageIndex":4,"items":[{"name":"빨간석쇠구이 경기대점","tel":"031-216-7111","addr":"경기도 수원시 영통구 이의동 1276-10번지 101호","indutype":"일반휴게음식 - 일반한식","category":"restaurant"}]},{"lat":"37.299871356","long":"127.0442525","imageIndex":4,"items":[{"name":"빽다방 광교경기대후문점","tel":"031-216-0936","addr":"경기도 수원시 영통구 이의동 1258-1번지 103호","indutype":"일반휴게음식 - 서양음식","category":"restaurant"},{"name":"유가네닭갈비","tel":"031-211-9992","addr":"경기도 수원시 영통구 이의동 1258-1번지 상가동 1층 107호 ,108,109,110호","indutype":"일반휴게음식 - 일반한식","category":"restaurant"}]},{"lat":"37.299014931","long":"127.04552651","imageIndex":4,"items":[{"name":"뽕똘","tel":"031-211-0065","addr":"경기도 수원시 영통구 이의동 1262-3번지 1층","indutype":"일반휴게음식 - 일반한식","category":"restaurant"}]},{"lat":"37.29507303","long":"127.05641889","imageIndex":4,"items":[{"name":"뽕쉐프","tel":"031-212-5333","addr":"경기도 수원시 영통구 이의동 1301번지","indutype":"일반휴게음식 - 중국식","category":"restaurant"}]},{"lat":"37.298042856","long":"127.04255972","imageIndex":4,"items":[{"name":"사쿠라","tel":"","addr":"경기도 수원시 영통구 이의동 1275-7번지 1층 105호","indutype":"일반휴게음식 - 주점","category":"restaurant"}]},{"lat":"37.297762785","long":"127.04474759","imageIndex":4,"items":[{"name":"산들해","tel":"031-212-7555","addr":"경기도 수원시 영통구 이의동 1269번지","indutype":"일반휴게음식 - 일반한식","category":"restaurant"}]},{"lat":"37.29934852","long":"127.04494021","imageIndex":4,"items":[{"name":"삼랭이집","tel":"031-215-1302","addr":"경기도 수원시 영통구 이의동 1261-14번지 1층","indutype":"일반휴게음식 - 일반한식","category":"restaurant"}]},{"lat":"37.298735177","long":"127.04672189","imageIndex":4,"items":[{"name":"삼청골명가 더수제비","tel":"031-212-1844","addr":"경기도 수원시 영통구 이의동 1244-2번지 1층","indutype":"일반휴게음식 - 일반한식","category":"restaurant"}]},{"lat":"37.306512034","long":"127.04386134","imageIndex":4,"items":[{"name":"삼형제오겹살 굴우렁쌈밥","tel":"031-216-9535","addr":"경기도 수원시 영통구 이의동 700-2 광교호반그린생활시설동지하110","indutype":"일반휴게음식 - 일반한식","category":"restaurant"}]},{"lat":"37.297511245","long":"127.042582","imageIndex":4,"items":[{"name":"상원회관","tel":"031-224-5675","addr":"경기도 수원시 영통구 이의동 1276-9번지 1층","indutype":"일반휴게음식 - 일반한식","category":"restaurant"}]},{"lat":"37.293794976","long":"127.05322635","imageIndex":4,"items":[{"name":"서빈","tel":"000-000-0000","addr":"경기도 수원시 영통구 이의동 1310-5번지 1층","indutype":"일반휴게음식 - 일반한식","category":"restaurant"}]},{"lat":"37.297322105","long":"127.04235633","imageIndex":4,"items":[{"name":"설맥","tel":"031-212-2426","addr":"경기도 수원시 영통구 이의동 1276-7번지","indutype":"일반휴게음식 - 일반한식","category":"restaurant"}]},{"lat":"37.294821377","long":"127.05499768","imageIndex":4,"items":[{"name":"세비야(스페인)식당","tel":"031-217-8305","addr":"경기도 수원시 영통구 이의동 1314-1번지","indutype":"일반휴게음식 - 서양음식","category":"restaurant"}]},{"lat":"37.29590167","long":"127.05708489","imageIndex":4,"items":[{"name":"솔라리스 주식회사","tel":"031-217-4999","addr":"경기도 수원시 영통구 이의동 1296-13번지 1층","indutype":"일반휴게음식 - 서양음식","category":"restaurant"}]},{"lat":"37.295208548","long":"127.05560696","imageIndex":4,"items":[{"name":"쇼유","tel":"070-4060-1954","addr":"경기도 수원시 영통구 이의동 1315번지 지층 1호","indutype":"일반휴게음식 - 일식·회집","category":"restaurant"}]},{"lat":"37.295044476","long":"127.03594921","imageIndex":4,"items":[{"name":"수원서서갈비","tel":"031-242-4492","addr":"경기도 수원시 영통구 이의동 1090-7번지","indutype":"일반휴게음식 - 일반한식","category":"restaurant"}]},{"lat":"37.297149981","long":"127.04505177","imageIndex":4,"items":[{"name":"술도둑","tel":"031-000-0000","addr":"경기도 수원시 영통구 이의동 1268-4번지 1층","indutype":"일반휴게음식 - 일반한식","category":"restaurant"}]},{"lat":"37.298789981","long":"127.04466921","imageIndex":4,"items":[{"name":"술집","tel":"","addr":"경기도 수원시 영통구 이의동 1261-7번지 1층 101호","indutype":"일반휴게음식 - 일반한식","category":"restaurant"}]},{"lat":"37.294791931","long":"127.03686262","imageIndex":4,"items":[{"name":"숨갤러리카페","tel":"","addr":"경기도 수원시 영통구 이의동 1284번지 따복하우스 상가 1층 103호","indutype":"일반휴게음식 - 서양음식","category":"restaurant"}]},{"lat":"37.298204147","long":"127.04514259","imageIndex":4,"items":[{"name":"슈퍼내츄럴(Supernatural)","tel":"031-225-5215","addr":"경기도 수원시 영통구 이의동 1265-3번지 1층 101호","indutype":"일반휴게음식 - 일반한식","category":"restaurant"}]},{"lat":"37.293903427","long":"127.05244825","imageIndex":4,"items":[{"name":"스시노백쉐프 광교점","tel":"031-111-1111","addr":"경기도 수원시 영통구 이의동 1308-3번지","indutype":"일반휴게음식 - 일식·회집","category":"restaurant"}]},{"lat":"37.294767182","long":"127.05530215","imageIndex":4,"items":[{"name":"스시화","tel":"031-241-9852","addr":"경기도 수원시 영통구 이의동 1314-7번지 1층","indutype":"일반휴게음식 - 일식·회집","category":"restaurant"}]},{"lat":"37.293767273","long":"127.05478267","imageIndex":4,"items":[{"name":"스윗르벤지","tel":"031-212-6562","addr":"경기도 수원시 영통구 이의동 1319-3번지 1층","indutype":"일반휴게음식 - 스넥","category":"restaurant"},{"name":"알단테","tel":"","addr":"경기도 수원시 영통구 이의동 1319-3번지 G동 1층","indutype":"일반휴게음식 - 서양음식","category":"restaurant"}]},{"lat":"37.295009171","long":"127.05813311","imageIndex":4,"items":[{"name":"스이렌","tel":"031-215-1141","addr":"경기도 수원시 영통구 이의동 1300-3번지 1층","indutype":"일반휴게음식 - 서양음식","category":"restaurant"}]},{"lat":"37.295072536","long":"127.05750158","imageIndex":4,"items":[{"name":"스페이스바이샤샤","tel":"031-212-7491","addr":"경기도 수원시 영통구 이의동 1298-4번지 1층","indutype":"일반휴게음식 - 서양음식","category":"restaurant"}]},{"lat":"37.293677309","long":"127.05446683","imageIndex":4,"items":[{"name":"슬팝","tel":"031-000-0000","addr":"경기도 수원시 영통구 이의동 1319-1번지 지하1층","indutype":"일반휴게음식 - 일반한식","category":"restaurant"}]},{"lat":"37.285235261","long":"127.05316426","imageIndex":4,"items":[{"name":"시스앤푸드(샤브엔)","tel":"031-212-5234","addr":"경기도 수원시 영통구 이의동 1341-1번지 에듀메디컬2층201,202,203,204호일부","indutype":"일반휴게음식 - 일반한식","category":"restaurant"},{"name":"아이슬라임 (광교점)","tel":"031-548-2041","addr":"경기도 수원시 영통구 이의동 1341-1번지 메듀메디컬 3층 302호","indutype":"일반휴게음식 - 서양음식","category":"restaurant"},{"name":"에듀","tel":"031-214-1156","addr":"경기도 수원시 영통구 이의동 1341-1번지 에듀메디컬 302호","indutype":"일반휴게음식 - 서양음식","category":"restaurant"},{"name":"커피에반하다 광교신풍초점","tel":"","addr":"경기도 수원시 영통구 이의동 1341-1번지 에듀메디컬 1층 105호","indutype":"일반휴게음식 - 서양음식","category":"restaurant"},{"name":"홍짜장 광교에듀타운점","tel":"055-111-1111","addr":"경기도 수원시 영통구 이의동 1341-1번지 에듀메디컬 102호","indutype":"일반휴게음식 - 중국식","category":"restaurant"}]},{"lat":"37.298150321","long":"127.04447713","imageIndex":4,"items":[{"name":"시장통 (광교점)","tel":"031-214-5843","addr":"경기도 수원시 영통구 이의동 1266번지 101호","indutype":"일반휴게음식 - 주점","category":"restaurant"},{"name":"신전떡볶이 경기대점","tel":"031-214-4300","addr":"경기도 수원시 영통구 이의동 1266번지 102호","indutype":"일반휴게음식 - 스넥","category":"restaurant"}]},{"lat":"37.296345743","long":"127.05114157","imageIndex":4,"items":[{"name":"시화연풍(수원시니어클럽)","tel":"031-202-1435","addr":"경기도 수원시 영통구 이의동 403-2번지","indutype":"일반휴게음식 - 스넥","category":"restaurant"}]},{"lat":"37.305042548","long":"127.04616157","imageIndex":4,"items":[{"name":"신 청춘통닭","tel":"031-215-9276","addr":"경기도 수원시 영통구 이의동 1201번지 1층 107,108호","indutype":"일반휴게음식 - 스넥","category":"restaurant"},{"name":"올레족발","tel":"031-216-6300","addr":"경기도 수원시 영통구 이의동 1201번지 골드클래스2 106호","indutype":"일반휴게음식 - 일반한식","category":"restaurant"}]},{"lat":"37.294317119","long":"127.05427554","imageIndex":4,"items":[{"name":"신전떡볶이","tel":"031-214-9113","addr":"경기도 수원시 영통구 이의동 1312-2번지 101호","indutype":"일반휴게음식 - 스넥","category":"restaurant"},{"name":"아이야끼","tel":"","addr":"경기도 수원시 영통구 이의동 1312-2번지 103호","indutype":"일반휴게음식 - 스넥","category":"restaurant"}]},{"lat":"37.297763633","long":"127.04227761","imageIndex":4,"items":[{"name":"신통치킨앤포차","tel":"031-212-0792","addr":"경기도 수원시 영통구 이의동 1275-9번지 101호 102호","indutype":"일반휴게음식 - 스넥","category":"restaurant"},{"name":"착한고기","tel":"031-217-9234","addr":"경기도 수원시 영통구 이의동 1275-9번지","indutype":"일반휴게음식 - 일반한식","category":"restaurant"}]},{"lat":"37.300430096","long":"127.04394827","imageIndex":4,"items":[{"name":"심봉사도로케 광교역점","tel":"031-213-1011","addr":"경기도 수원시 영통구 이의동 1257번지 1층 105호 스타씨제이3","indutype":"일반휴게음식 - 일반한식","category":"restaurant"}]},{"lat":"37.299015169","long":"127.04486107","imageIndex":4,"items":[{"name":"썽왠양꼬치","tel":"000-000-0000","addr":"경기도 수원시 영통구 이의동 1261-5번지","indutype":"일반휴게음식 - 일반한식","category":"restaurant"}]},{"lat":"37.295235774","long":"127.05516714","imageIndex":4,"items":[{"name":"씨클러치","tel":"031-214-0431","addr":"경기도 수원시 영통구 이의동 1306-20번지 1층","indutype":"일반휴게음식 - 일반한식","category":"restaurant"}]},{"lat":"37.294902235","long":"127.0555278","imageIndex":4,"items":[{"name":"아브뉴뱅","tel":"031-212-6912","addr":"경기도 수원시 영통구 이의동 1314-5번지 102호","indutype":"일반휴게음식 - 서양음식","category":"restaurant"}]},{"lat":"37.293569604","long":"127.05349687","imageIndex":4,"items":[{"name":"아임홈","tel":"070-7807-8217","addr":"경기도 수원시 영통구 이의동 1321-9번지 1층","indutype":"일반휴게음식 - 서양음식","category":"restaurant"}]},{"lat":"37.305042708","long":"127.04572167","imageIndex":4,"items":[{"name":"알보레스","tel":"","addr":"경기도 수원시 영통구 이의동 1204번지 골드클래스 1동 1층 107호","indutype":"일반휴게음식 - 서양음식","category":"restaurant"}]},{"lat":"37.299591716","long":"127.04516592","imageIndex":4,"items":[{"name":"압구정가마솥","tel":"031-211-0990","addr":"경기도 수원시 영통구 이의동 1261번지 1층","indutype":"일반휴게음식 - 일반한식","category":"restaurant"}]},{"lat":"37.293542703","long":"127.05319235","imageIndex":4,"items":[{"name":"양육점","tel":"031-217-2624","addr":"경기도 수원시 영통구 이의동 1321-7번지","indutype":"일반휴게음식 - 일반한식","category":"restaurant"},{"name":"예가찬","tel":"031-216-3771","addr":"경기도 수원시 영통구 이의동 1321-7번지 1층","indutype":"일반휴게음식 - 일반한식","category":"restaurant"}]},{"lat":"37.298123743","long":"127.0431688","imageIndex":4,"items":[{"name":"어랑다랑","tel":"031-211-8844","addr":"경기도 수원시 영통구 이의동 1274-5번지 1층 101호","indutype":"일반휴게음식 - 일반한식","category":"restaurant"}]},{"lat":"37.29490241","long":"127.05513307","imageIndex":4,"items":[{"name":"어린양 양꼬치 양갈비","tel":"031-232-2774","addr":"경기도 수원시 영통구 이의동 1314-2번지 1층 101호","indutype":"일반휴게음식 - 일반한식","category":"restaurant"}]},{"lat":"37.299258357","long":"127.04510934","imageIndex":4,"items":[{"name":"어뮤즈","tel":"070-4652-2867","addr":"경기도 수원시 영통구 이의동 1261-3번지 1층","indutype":"일반휴게음식 - 일반한식","category":"restaurant"}]},{"lat":"37.298897473","long":"127.04641746","imageIndex":4,"items":[{"name":"에린앤커피","tel":"070-7717-0170","addr":"경기도 수원시 영통구 이의동 1264번지 102호","indutype":"일반휴게음식 - 서양음식","category":"restaurant"}]},{"lat":"37.286153132","long":"127.05586001","imageIndex":4,"items":[{"name":"엔제리너스 롯데아울렛광교점","tel":"031-8064-2327","addr":"경기도 수원시 영통구 이의동 1338번지 롯데아울렛광교점 3층","indutype":"일반휴게음식 - 서양음식","category":"restaurant"},{"name":"트립아시아","tel":"031-111-1111","addr":"경기도 수원시 영통구 이의동 1338번지 3층","indutype":"일반휴게음식 - 서양음식","category":"restaurant"}]},{"lat":"37.297738769","long":"127.03511578","imageIndex":4,"items":[{"name":"여민동락(수원시니어클럽)","tel":"","addr":"경기도 수원시 영통구 이의동 1088-10번지 수원역사박물관","indutype":"일반휴게음식 - 스넥","category":"restaurant"}]},{"lat":"37.293794244","long":"127.05491803","imageIndex":4,"items":[{"name":"열매씨카페","tel":"070-4060-1954","addr":"경기도 수원시 영통구 이의동 1319-4번지 지하1층","indutype":"일반휴게음식 - 서양음식","category":"restaurant"}]},{"lat":"37.293875202","long":"127.05522259","imageIndex":4,"items":[{"name":"영스피제리아","tel":"031-215-9061","addr":"경기도 수원시 영통구 이의동 1319-6번지 여의동","indutype":"일반휴게음식 - 일반한식","category":"restaurant"},{"name":"테이스티1319","tel":"070-4158-1000","addr":"경기도 수원시 영통구 이의동 1319-6번지 지하1층","indutype":"일반휴게음식 - 일반한식","category":"restaurant"}]},{"lat":"37.29510073","long":"127.05491893","imageIndex":4,"items":[{"name":"영월한방토종삼계탕","tel":"031-215-2550","addr":"경기도 수원시 영통구 이의동 1306-18번지 1층 전체","indutype":"일반휴게음식 - 일반한식","category":"restaurant"}]},{"lat":"37.299348754","long":"127.04427477","imageIndex":4,"items":[{"name":"영일만 코다리 조림","tel":"031-217-7500","addr":"경기도 수원시 영통구 이의동 1260-7번지","indutype":"일반휴게음식 - 일반한식","category":"restaurant"}]},{"lat":"37.298375723","long":"127.04405994","imageIndex":4,"items":[{"name":"오여사네","tel":"031-212-1177","addr":"경기도 수원시 영통구 이의동 1272-3번지 102호","indutype":"일반휴게음식 - 일반한식","category":"restaurant"}]},{"lat":"37.298402295","long":"127.04535699","imageIndex":4,"items":[{"name":"오카방고","tel":"070-8771-0525","addr":"경기도 수원시 영통구 이의동 1263-7번지 1층 102호","indutype":"일반휴게음식 - 서양음식","category":"restaurant"}]},{"lat":"37.294596734","long":"127.05358778","imageIndex":4,"items":[{"name":"오투닭갈비","tel":"031-213-0201","addr":"경기도 수원시 영통구 이의동 1306-9번지 1층","indutype":"일반휴게음식 - 일반한식","category":"restaurant"}]},{"lat":"37.294426754","long":"127.05066667","imageIndex":4,"items":[{"name":"올리브1999","tel":"","addr":"경기도 수원시 영통구 이의동 1305번지 1층","indutype":"일반휴게음식 - 서양음식","category":"restaurant"}]},{"lat":"37.297961177","long":"127.04427401","imageIndex":4,"items":[{"name":"와블비프","tel":"031-214-9992","addr":"경기도 수원시 영통구 이의동 1270번지 1층","indutype":"일반휴게음식 - 일반한식","category":"restaurant"}]},{"lat":"37.289850958","long":"127.0470325","imageIndex":4,"items":[{"name":"월남선생 수원광교점","tel":"031-546-8229","addr":"경기도 수원시 영통구 이의동 1348-3번지 이루리타워 101호","indutype":"일반휴게음식 - 일반한식","category":"restaurant"},{"name":"투썸플레이스 광교이루리타워점","tel":"031-214-0262","addr":"경기도 수원시 영통구 이의동 1348-3번지 이루리타워 102호","indutype":"일반휴게음식 - 서양음식","category":"restaurant"}]},{"lat":"37.294425941","long":"127.05264031","imageIndex":4,"items":[{"name":"유루유루 스시","tel":"","addr":"경기도 수원시 영통구 이의동 1306-3번지 1층 101호","indutype":"일반휴게음식 - 일식·회집","category":"restaurant"},{"name":"포동 광교까페거리점","tel":"070-7868-3373","addr":"경기도 수원시 영통구 이의동 1306-3번지 102호","indutype":"일반휴게음식 - 일반한식","category":"restaurant"}]},{"lat":"37.299925122","long":"127.04508716","imageIndex":4,"items":[{"name":"이디야커피 수원광교역점","tel":"031-213-1939","addr":"경기도 수원시 영통구 이의동 1258-8번지 1층","indutype":"일반휴게음식 - 서양음식","category":"restaurant"}]},{"lat":"37.298988226","long":"127.04461293","imageIndex":4,"items":[{"name":"이래도","tel":"031-212-6690","addr":"경기도 수원시 영통구 이의동 1261-11번지 1층","indutype":"일반휴게음식 - 일반한식","category":"restaurant"}]},{"lat":"37.312175352","long":"127.05438922","imageIndex":4,"items":[{"name":"이빵","tel":"070-7011-9163","addr":"경기도 수원시 영통구 이의동 1222번지 2층 208호","indutype":"일반휴게음식 - 일반한식","category":"restaurant"}]},{"lat":"37.299709045","long":"127.04461333","imageIndex":4,"items":[{"name":"이한부대찌개","tel":"031-211-1189","addr":"경기도 수원시 영통구 이의동 1260-10번지","indutype":"일반휴게음식 - 일반한식","category":"restaurant"}]},{"lat":"37.299789872","long":"127.04535777","imageIndex":4,"items":[{"name":"이화수 광교 경기대점","tel":"031-211-8594","addr":"경기도 수원시 영통구 이의동 1259번지 1층","indutype":"일반휴게음식 - 일반한식","category":"restaurant"}]},{"lat":"37.294154778","long":"127.05463633","imageIndex":4,"items":[{"name":"장어명가/주식회사 용인수산","tel":"031-217-7775","addr":"경기도 수원시 영통구 이의동 1313-7번지 1층","indutype":"일반휴게음식 - 일반한식","category":"restaurant"}]},{"lat":"37.299231562","long":"127.04444388","imageIndex":4,"items":[{"name":"저래도","tel":"031-212-6691","addr":"경기도 수원시 영통구 이의동 1260-5번지","indutype":"일반휴게음식 - 일식·회집","category":"restaurant"}]},{"lat":"37.298762733","long":"127.04527824","imageIndex":4,"items":[{"name":"전주콩나물뚝배기","tel":"031-213-8111","addr":"경기도 수원시 영통구 이의동 1262-5번지 1층","indutype":"일반휴게음식 - 일반한식","category":"restaurant"}]},{"lat":"37.297736436","long":"127.04277385","imageIndex":4,"items":[{"name":"정성식당","tel":"","addr":"경기도 수원시 영통구 이의동 1276-11번지 1층","indutype":"일반휴게음식 - 일반한식","category":"restaurant"}]},{"lat":"37.298790068","long":"127.04442108","imageIndex":4,"items":[{"name":"정정아식당","tel":"031-211-1911","addr":"경기도 수원시 영통구 이의동 1261-9번지 1층","indutype":"일반휴게음식 - 일반한식","category":"restaurant"}]},{"lat":"37.295369889","long":"127.05746796","imageIndex":4,"items":[{"name":"제대로 생태한마리","tel":"031-217-8895","addr":"경기도 수원시 영통구 이의동 1296-8번지 1층","indutype":"일반휴게음식 - 일반한식","category":"restaurant"}]},{"lat":"37.293624077","long":"127.05252701","imageIndex":4,"items":[{"name":"제주백돈","tel":"031-766-0524","addr":"경기도 수원시 영통구 이의동 1321-3번지 지하1층","indutype":"일반휴게음식 - 일반한식","category":"restaurant"}]},{"lat":"37.294399485","long":"127.05125311","imageIndex":4,"items":[{"name":"제주어부","tel":"031-217-9259","addr":"경기도 수원시 영통구 이의동 1305-3번지 1층","indutype":"일반휴게음식 - 일반한식","category":"restaurant"}]},{"lat":"37.29753818","long":"127.04286397","imageIndex":4,"items":[{"name":"주.접","tel":"","addr":"경기도 수원시 영통구 이의동 1276-3번지 101호","indutype":"일반휴게음식 - 주점","category":"restaurant"}]},{"lat":"37.298510386","long":"127.04544728","imageIndex":4,"items":[{"name":"주커피 광교경기대역점","tel":"031-214-3711","addr":"경기도 수원시 영통구 이의동 1263-8번지 1층","indutype":"일반휴게음식 - 서양음식","category":"restaurant"}]},{"lat":"37.298231839","long":"127.04324781","imageIndex":4,"items":[{"name":"진미통닭","tel":"031-211-3800","addr":"경기도 수원시 영통구 이의동 1274-6번지 1층","indutype":"일반휴게음식 - 스넥","category":"restaurant"}]},{"lat":"37.299041811","long":"127.04594384","imageIndex":4,"items":[{"name":"진배기고깃간","tel":"031-2322-5351","addr":"경기도 수원시 영통구 이의동 1263-13번지","indutype":"일반휴게음식 - 일반한식","category":"restaurant"}]},{"lat":"37.298428799","long":"127.04680066","imageIndex":4,"items":[{"name":"징기스칸램","tel":"031-206-3365","addr":"경기도 수원시 영통구 이의동 1242-4번지 101호","indutype":"일반휴게음식 - 일반한식","category":"restaurant"}]},{"lat":"37.294515163","long":"127.05469296","imageIndex":4,"items":[{"name":"차폰팩토리","tel":"031-212-8890","addr":"경기도 수원시 영통구 이의동 1313-2번지 101호","indutype":"일반휴게음식 - 중국식","category":"restaurant"}]},{"lat":"37.297619514","long":"127.0421422","imageIndex":4,"items":[{"name":"춘천에서온숯닭","tel":"031-212-8122","addr":"경기도 수원시 영통구 이의동 1275-10번지 105,106호","indutype":"일반휴게음식 - 일반한식","category":"restaurant"}]},{"lat":"37.299096321","long":"127.04469194","imageIndex":4,"items":[{"name":"충만치킨 광교점","tel":"031-216-9277","addr":"경기도 수원시 영통구 이의동 1261-12번지","indutype":"일반휴게음식 - 스넥","category":"restaurant"}]},{"lat":"37.29395716","long":"127.05322646","imageIndex":4,"items":[{"name":"치쿠린","tel":"031-461-4705","addr":"경기도 수원시 영통구 이의동 1310-6번지 1층","indutype":"일반휴게음식 - 일반한식","category":"restaurant"}]},{"lat":"37.287075065","long":"127.04895922","imageIndex":4,"items":[{"name":"치킨마루(광교에듀타운점)","tel":"031-214-2366","addr":"경기도 수원시 영통구 이의동 1353번지 자연앤자이 상가 1동 104호","indutype":"일반휴게음식 - 스넥","category":"restaurant"},{"name":"후니피자","tel":"02-211-5988","addr":"경기도 수원시 영통구 이의동 1353번지 자연앤자이 상가 1동 105호","indutype":"일반휴게음식 - 서양음식","category":"restaurant"},{"name":"후니피자(HOONY PIZZA)","tel":"","addr":"경기도 수원시 영통구 이의동 1353번지 자연앤자이 상가동 105호","indutype":"일반휴게음식 - 일반한식","category":"restaurant"}]},{"lat":"37.297375827","long":"127.04336014","imageIndex":4,"items":[{"name":"치킨타운","tel":"031-214-3933","addr":"경기도 수원시 영통구 이의동 1277-4번지 101호","indutype":"일반휴게음식 - 일반한식","category":"restaurant"}]},{"lat":"37.29973598","long":"127.04488403","imageIndex":4,"items":[{"name":"치킨퐁 광교경기대점","tel":"031-213-2888","addr":"경기도 수원시 영통구 이의동 1260-1번지 지1층.1층","indutype":"일반휴게음식 - 스넥","category":"restaurant"}]},{"lat":"37.299204404","long":"127.04480479","imageIndex":4,"items":[{"name":"칠성집","tel":"031-212-0171","addr":"경기도 수원시 영통구 이의동 1261-13번지 1층","indutype":"일반휴게음식 - 일반한식","category":"restaurant"}]},{"lat":"37.297844521","long":"127.04288669","imageIndex":4,"items":[{"name":"카타르시스","tel":"","addr":"경기도 수원시 영통구 이의동 1276번지 102호","indutype":"일반휴게음식 - 주점","category":"restaurant"}]},{"lat":"37.293957093","long":"127.05338435","imageIndex":4,"items":[{"name":"카페 센트로","tel":"031-223-5214","addr":"경기도 수원시 영통구 이의동 1310-3번지 1층","indutype":"일반휴게음식 - 서양음식","category":"restaurant"}]},{"lat":"37.294317382","long":"127.05366654","imageIndex":4,"items":[{"name":"카페1311","tel":"031-211-7074","addr":"경기도 수원시 영통구 이의동 1311번지 1층","indutype":"일반휴게음식 - 서양음식","category":"restaurant"}]},{"lat":"37.298429094","long":"127.04599988","imageIndex":4,"items":[{"name":"카페라라","tel":"031-214-2340","addr":"경기도 수원시 영통구 이의동 1265-8번지 1층","indutype":"일반휴게음식 - 서양음식","category":"restaurant"}]},{"lat":"37.293843377","long":"127.04461009","imageIndex":4,"items":[{"name":"카페라미떼","tel":"","addr":"경기도 수원시 영통구 이의동 864-1번지 차세대융합기술연구원 1층","indutype":"일반휴게음식 - 서양음식","category":"restaurant"}]},{"lat":"37.297924651","long":"127.04563868","imageIndex":4,"items":[{"name":"카페치퐁","tel":"070-8616-2223","addr":"경기도 수원시 영통구 이의동 1266-6번지 온새미로하우스 102호","indutype":"일반휴게음식 - 서양음식","category":"restaurant"}]},{"lat":"37.293929689","long":"127.05425273","imageIndex":4,"items":[{"name":"카페호피폴라 (Cafe Hoppipolla)","tel":"031-000-0000","addr":"경기도 수원시 영통구 이의동 1312-5번지 한연빌딩 101호","indutype":"일반휴게음식 - 서양음식","category":"restaurant"}]},{"lat":"37.294956422","long":"127.05524589","imageIndex":4,"items":[{"name":"칼삼","tel":"031-214-1314","addr":"경기도 수원시 영통구 이의동 1314-3번지 1층","indutype":"일반휴게음식 - 일반한식","category":"restaurant"}]},{"lat":"37.293902158","long":"127.05539177","imageIndex":4,"items":[{"name":"커피그루비","tel":"031-214-1288","addr":"경기도 수원시 영통구 이의동 1319-7번지 지층","indutype":"일반휴게음식 - 서양음식","category":"restaurant"}]},{"lat":"37.298015658","long":"127.04305596","imageIndex":4,"items":[{"name":"커피에반하다","tel":"070-5089-3725","addr":"경기도 수원시 영통구 이의동 1274-4번지","indutype":"일반휴게음식 - 서양음식","category":"restaurant"},{"name":"해물떡찜 경기대점","tel":"031-212-0688","addr":"경기도 수원시 영통구 이의동 1274-4번지 101호","indutype":"일반휴게음식 - 일반한식","category":"restaurant"}]},{"lat":"37.293678195","long":"127.05239171","imageIndex":4,"items":[{"name":"커피오브커피스","tel":"031-214-2098","addr":"경기도 수원시 영통구 이의동 1321-2번지 지하층1층","indutype":"일반휴게음식 - 서양음식","category":"restaurant"}]},{"lat":"37.295370384","long":"127.05638526","imageIndex":4,"items":[{"name":"커피투어/(주)미성개발","tel":"02-111-1111","addr":"경기도 수원시 영통구 이의동 1295-2번지 1층","indutype":"일반휴게음식 - 서양음식","category":"restaurant"}]},{"lat":"37.293624987","long":"127.05030528","imageIndex":4,"items":[{"name":"커피팜","tel":"031-215-3765","addr":"경기도 수원시 영통구 이의동 1322-3번지","indutype":"일반휴게음식 - 서양음식","category":"restaurant"}]},{"lat":"37.299483769","long":"127.0446696","imageIndex":4,"items":[{"name":"큰맘할매순대국","tel":"031-213-9555","addr":"경기도 수원시 영통구 이의동 1260-3번지","indutype":"일반휴게음식 - 일반한식","category":"restaurant"}]},{"lat":"37.294596156","long":"127.05491858","imageIndex":4,"items":[{"name":"큰집","tel":"031-217-8808","addr":"경기도 수원시 영통구 이의동 1314-10번지 101호","indutype":"일반휴게음식 - 일반한식","category":"restaurant"}]},{"lat":"37.295316169","long":"127.05672357","imageIndex":4,"items":[{"name":"큰집추어탕","tel":"031-212-2822","addr":"경기도 수원시 영통구 이의동 1297-6번지 1층","indutype":"일반휴게음식 - 일반한식","category":"restaurant"}]},{"lat":"37.300042328","long":"127.0448842","imageIndex":4,"items":[{"name":"투썸플레이스 광교역점","tel":"031-212-2522","addr":"경기도 수원시 영통구 이의동 1258-7번지 (101호,B101호)","indutype":"일반휴게음식 - 서양음식","category":"restaurant"}]},{"lat":"37.29470417","long":"127.05516677","imageIndex":4,"items":[{"name":"팀","tel":"03-111-1111","addr":"경기도 수원시 영통구 이의동 1314-8번지","indutype":"일반휴게음식 - 서양음식","category":"restaurant"}]},{"lat":"37.294372181","long":"127.05191849","imageIndex":4,"items":[{"name":"팬케익팬트리","tel":"031-211-6161","addr":"경기도 수원시 영통구 이의동 1305-7번지","indutype":"일반휴게음식 - 서양음식","category":"restaurant"}]},{"lat":"37.29837551","long":"127.04466898","imageIndex":4,"items":[{"name":"포차천국","tel":"031-213-1909","addr":"경기도 수원시 영통구 이의동 1265번지 1층","indutype":"일반휴게음식 - 일반한식","category":"restaurant"}]},{"lat":"37.297429514","long":"127.04444289","imageIndex":4,"items":[{"name":"플라츠","tel":"","addr":"경기도 수원시 영통구 이의동 1269-5번지 1층","indutype":"일반휴게음식 - 서양음식","category":"restaurant"}]},{"lat":"37.297871016","long":"127.04444314","imageIndex":4,"items":[{"name":"플로르컵","tel":"","addr":"경기도 수원시 영통구 이의동 1270-1번지 1층 101호","indutype":"일반휴게음식 - 서양음식","category":"restaurant"}]},{"lat":"37.304537625","long":"127.04710876","imageIndex":4,"items":[{"name":"피자스쿨 광교웰빙타운점","tel":"031-211-9911","addr":"경기도 수원시 영통구 이의동 1202-2번지 골드클래스 102호","indutype":"일반휴게음식 - 서양음식","category":"restaurant"}]},{"lat":"37.297897722","long":"127.04535671","imageIndex":4,"items":[{"name":"한나식빵","tel":"070-8731-8586","addr":"경기도 수원시 영통구 이의동 1266-5번지","indutype":"일반휴게음식 - 서양음식","category":"restaurant"}]},{"lat":"37.29434361","long":"127.05550486","imageIndex":4,"items":[{"name":"한우갑 식당","tel":"031-211-6217","addr":"경기도 수원시 영통구 이의동 1317-6번지 1층","indutype":"일반휴게음식 - 일반한식","category":"restaurant"}]},{"lat":"37.294487789","long":"127.05547112","imageIndex":4,"items":[{"name":"한우갑정육식당","tel":"031-211-6217","addr":"경기도 수원시 영통구 이의동 1317-7번지 1층","indutype":"일반휴게음식 - 일반한식","category":"restaurant"}]},{"lat":"37.29170549","long":"127.05108222","imageIndex":4,"items":[{"name":"한입김밥꼬맹","tel":"","addr":"경기도 수원시 영통구 이의동 1325-6번지 대림프라자 1층 105호","indutype":"일반휴게음식 - 스넥","category":"restaurant"}]},{"lat":"37.295460054","long":"127.05733269","imageIndex":4,"items":[{"name":"한판한우","tel":"031-217-9005","addr":"경기도 수원시 영통구 이의동 1296-9번지 1층","indutype":"일반휴게음식 - 일반한식","category":"restaurant"}]},{"lat":"37.299231197","long":"127.04547024","imageIndex":4,"items":[{"name":"합정생고기 김치찌개","tel":"","addr":"경기도 수원시 영통구 이의동 1262-15번지 1층","indutype":"일반휴게음식 - 일반한식","category":"restaurant"},{"name":"합정생고기 김치찌개","tel":"031-1111-1111","addr":"경기도 수원시 영통구 이의동 1262-15번지","indutype":"일반휴게음식 - 일반한식","category":"restaurant"}]},{"lat":"37.298537634","long":"127.04483825","imageIndex":4,"items":[{"name":"회뜨는 킹콩","tel":"031-212-5557","addr":"경기도 수원시 영통구 이의동 1262-9번지 101호","indutype":"일반휴게음식 - 일식·회집","category":"restaurant"}]}]