[{"lat":"37.774594567","long":"126.90418939","imageIndex":4,"items":[{"name":"가송가든","tel":"031-948-2111","addr":"경기도 파주시 광탄면 영장리 276-2번지","indutype":"일반휴게음식 - 일반한식","category":"restaurant"}]},{"lat":"37.765063523","long":"126.9054164","imageIndex":4,"items":[{"name":"고령농원","tel":"031-948-3333","addr":"경기도 파주시 광탄면 영장리 183-2번지","indutype":"일반휴게음식 - 일반한식","category":"restaurant"}]},{"lat":"37.753123697","long":"126.91403325","imageIndex":4,"items":[{"name":"금호정","tel":"031-948-1025","addr":"경기도 파주시 광탄면 영장리 16-4번지","indutype":"일반휴게음식 - 일반한식","category":"restaurant"}]},{"lat":"37.775117422","long":"126.90455191","imageIndex":4,"items":[{"name":"길손","tel":"031-948-2640","addr":"경기도 파주시 광탄면 영장리 234-3","indutype":"일반휴게음식 - 일반한식","category":"restaurant"}]},{"lat":"37.753423108","long":"126.91685836","imageIndex":4,"items":[{"name":"꼭대기산장","tel":"031-948-7066","addr":"경기도 파주시 광탄면 영장리 16-16번지","indutype":"일반휴게음식 - 일반한식","category":"restaurant"}]},{"lat":"37.774757759","long":"126.90541503","imageIndex":4,"items":[{"name":"나주곰탕","tel":"031-943-1886","addr":"경기도 파주시 광탄면 영장리 233-1번지","indutype":"일반휴게음식 - 일반한식","category":"restaurant"},{"name":"호야","tel":"031-947-0995","addr":"경기도 파주시 광탄면 영장리 233-1번지","indutype":"일반휴게음식 - 일반한식","category":"restaurant"}]},{"lat":"37.77239456","long":"126.90219469","imageIndex":4,"items":[{"name":"너와집","tel":"031-949-1841","addr":"경기도 파주시 광탄면 영장리 301-5번지","indutype":"일반휴게음식 - 일반한식","category":"restaurant"}]},{"lat":"37.753150974","long":"126.91436229","imageIndex":4,"items":[{"name":"노송","tel":"031-943-1053","addr":"경기도 파주시 광탄면 영장리 16-5번지","indutype":"일반휴게음식 - 일반한식","category":"restaurant"}]},{"lat":"37.757227318","long":"126.9079686","imageIndex":4,"items":[{"name":"대고령식당","tel":"031-948-8282","addr":"경기도 파주시 광탄면 영장리 85-5번지","indutype":"일반휴게음식 - 일반한식","category":"restaurant"}]},{"lat":"37.753206389","long":"126.91618913","imageIndex":4,"items":[{"name":"도자기카페","tel":"","addr":"경기도 파주시 광탄면 영장리 16-13번지","indutype":"일반휴게음식 - 서양음식","category":"restaurant"}]},{"lat":"37.753151618","long":"126.91522468","imageIndex":4,"items":[{"name":"도토리집","tel":"031-948-1026","addr":"경기도 파주시 광탄면 영장리 16-18","indutype":"일반휴게음식 - 일반한식","category":"restaurant"}]},{"lat":"37.770698435","long":"126.89949571","imageIndex":4,"items":[{"name":"리치케터링","tel":"031-941-5370","addr":"경기도 파주시 광탄면 영장리 314-3번지","indutype":"일반휴게음식 - 일반한식","category":"restaurant"}]},{"lat":"37.775451377","long":"126.90527791","imageIndex":4,"items":[{"name":"명가람","tel":"031-948-3810","addr":"경기도 파주시 광탄면 영장리 261-6, -9","indutype":"일반휴게음식 - 일반한식","category":"restaurant"}]},{"lat":"37.775677957","long":"126.90691211","imageIndex":4,"items":[{"name":"목우촌마을파주광탄점","tel":"031-944-9744","addr":"경기도 파주시 광탄면 영장리 238-8번지","indutype":"일반휴게음식 - 일반한식","category":"restaurant"}]},{"lat":"37.770924692","long":"126.90066444","imageIndex":4,"items":[{"name":"몽쉘","tel":"031-947-5995","addr":"경기도 파주시 광탄면 영장리 313-9번지","indutype":"일반휴게음식 - 일반한식","category":"restaurant"},{"name":"행복한밥상","tel":"031-963-4181","addr":"경기도 파주시 광탄면 영장리 313-9번지","indutype":"일반휴게음식 - 일반한식","category":"restaurant"}]},{"lat":"37.77131268","long":"126.90133356","imageIndex":4,"items":[{"name":"베이징","tel":"031-945-9997","addr":"경기도 파주시 광탄면 영장리 312-1번지","indutype":"일반휴게음식 - 중국식","category":"restaurant"}]},{"lat":"37.752175691","long":"126.91141321","imageIndex":4,"items":[{"name":"부경골가든","tel":"031-941-8058","addr":"경기도 파주시 광탄면 영장리 35번지","indutype":"일반휴게음식 - 일반한식","category":"restaurant"}]},{"lat":"37.753233032","long":"126.91566712","imageIndex":4,"items":[{"name":"소나무집","tel":"031-948-1021","addr":"경기도 파주시 광탄면 영장리 16-9","indutype":"일반휴게음식 - 일반한식","category":"restaurant"}]},{"lat":"37.77944966","long":"126.90296835","imageIndex":4,"items":[{"name":"소령원숲속","tel":"031-948-0052","addr":"경기도 파주시 광탄면 영장리 268-42번지","indutype":"일반휴게음식 - 일반한식","category":"restaurant"}]},{"lat":"37.774260375","long":"126.903191","imageIndex":4,"items":[{"name":"소령원장단콩두부마을","tel":"031-957-6202","addr":"경기도 파주시 광탄면 영장리 277번지","indutype":"일반휴게음식 - 일반한식","category":"restaurant"}]},{"lat":"37.75347897","long":"126.9074968","imageIndex":4,"items":[{"name":"소문난밥집","tel":"031-941-9890","addr":"경기도 파주시 광탄면 영장리 60번지","indutype":"일반휴게음식 - 일반한식","category":"restaurant"}]},{"lat":"37.754651574","long":"126.90919741","imageIndex":4,"items":[{"name":"소문난카매트앤커피","tel":"","addr":"경기도 파주시 광탄면 영장리 79-3번지","indutype":"일반휴게음식 - 서양음식","category":"restaurant"}]},{"lat":"37.753205878","long":"126.91549695","imageIndex":4,"items":[{"name":"솔향기","tel":"031-942-3911","addr":"경기도 파주시 광탄면 영장리 16-8번지","indutype":"일반휴게음식 - 일반한식","category":"restaurant"}]},{"lat":"37.758678216","long":"126.90842067","imageIndex":4,"items":[{"name":"송도아구찜.탕","tel":"031-947-8059","addr":"경기도 파주시 광탄면 영장리 97번지","indutype":"일반휴게음식 - 일반한식","category":"restaurant"}]},{"lat":"37.772565361","long":"126.9017518","imageIndex":4,"items":[{"name":"스타닭스","tel":"031-943-4455","addr":"경기도 파주시 광탄면 영장리 295-15","indutype":"일반휴게음식 - 주점","category":"restaurant"}]},{"lat":"37.752400585","long":"126.9109704","imageIndex":4,"items":[{"name":"시골보리밥집","tel":"031-946-0173","addr":"경기도 파주시 광탄면 영장리 37번지 ***연번지,38","indutype":"일반휴게음식 - 일반한식","category":"restaurant"}]},{"lat":"37.770563928","long":"126.90022229","imageIndex":4,"items":[{"name":"연수네","tel":"031-941-8077","addr":"경기도 파주시 광탄면 영장리 314-9번지","indutype":"일반휴게음식 - 일반한식","category":"restaurant"},{"name":"진이네식당","tel":"031-946-4968","addr":"경기도 파주시 광탄면 영장리 314-9","indutype":"일반휴게음식 - 일반한식","category":"restaurant"}]},{"lat":"37.762342603","long":"126.90536323","imageIndex":4,"items":[{"name":"오복이네한식부페&선지해장국","tel":"031-949-1518","addr":"경기도 파주시 광탄면 영장리 166번지","indutype":"일반휴게음식 - 일반한식","category":"restaurant"}]},{"lat":"37.757371762","long":"126.90833155","imageIndex":4,"items":[{"name":"왕솥뚜껑삼겹살","tel":"031-947-2041","addr":"경기도 파주시 광탄면 영장리 85-4번지","indutype":"일반휴게음식 - 일반한식","category":"restaurant"}]},{"lat":"37.775559472","long":"126.90525507","imageIndex":4,"items":[{"name":"우연심","tel":"070-4307-1754","addr":"경기도 파주시 광탄면 영장리 261-2번지","indutype":"일반휴게음식 - 일반한식","category":"restaurant"}]},{"lat":"37.773754732","long":"126.90188638","imageIndex":4,"items":[{"name":"움터","tel":"031-967-1285","addr":"경기도 파주시 광탄면 영장리 287번지","indutype":"일반휴게음식 - 일반한식","category":"restaurant"}]},{"lat":"37.773142774","long":"126.90269308","imageIndex":4,"items":[{"name":"은진식당","tel":"031-948-5241","addr":"경기도 파주시 광탄면 영장리 304-6번지","indutype":"일반휴게음식 - 일반한식","category":"restaurant"}]},{"lat":"37.774921408","long":"126.90721955","imageIndex":4,"items":[{"name":"전주가든","tel":"031-947-6261","addr":"경기도 파주시 광탄면 영장리 243-1번지","indutype":"일반휴게음식 - 일반한식","category":"restaurant"}]},{"lat":"37.760479517","long":"126.90766939","imageIndex":4,"items":[{"name":"청수골","tel":"031-945-8540","addr":"경기도 파주시 광탄면 영장리 128-10번지","indutype":"일반휴게음식 - 일반한식","category":"restaurant"}]},{"lat":"37.754812811","long":"126.90802842","imageIndex":4,"items":[{"name":"통나무언덕길전통차커피","tel":"031-949-5251","addr":"경기도 파주시 광탄면 영장리 80-1번지","indutype":"일반휴게음식 - 일반한식","category":"restaurant"}]},{"lat":"37.757732216","long":"126.90842187","imageIndex":4,"items":[{"name":"평양막국수","tel":"031-948-4631","addr":"경기도 파주시 광탄면 영장리 102-7번지","indutype":"일반휴게음식 - 일반한식","category":"restaurant"}]},{"lat":"37.755398894","long":"126.9086064","imageIndex":4,"items":[{"name":"플레이랜드","tel":"031-941-0209","addr":"경기도 파주시 광탄면 영장리 90-4번지","indutype":"일반휴게음식 - 서양음식","category":"restaurant"}]},{"lat":"37.775398255","long":"126.90641304","imageIndex":4,"items":[{"name":"한자리찻집","tel":"031-947-7082","addr":"경기도 파주시 광탄면 영장리 238-1번지","indutype":"일반휴게음식 - 서양음식","category":"restaurant"}]},{"lat":"37.755651161","long":"126.90860608","imageIndex":4,"items":[{"name":"효자관","tel":"031-943-9966","addr":"경기도 파주시 광탄면 영장리 89-6번지","indutype":"일반휴게음식 - 중국식","category":"restaurant"}]}]