[{"lat":"37.215492954","long":"126.97159575","imageIndex":17,"items":[{"name":"GS25봉담그대가점","tel":"02-2006-2485","addr":"경기도 화성시 봉담읍 와우리 589 봉담그대가 101호","indutype":"유통업 영리 - 편 의 점","category":"other"},{"name":"베베룸","tel":"031-8007-3434","addr":"경기도 화성시 봉담읍 와우리 589번지 봉담그대가3단지 102호","indutype":"의류 - 아동의류","category":"other"},{"name":"베베토이공구","tel":"070-8758-8804","addr":"경기도 화성시 봉담읍 와우리 589번지 봉담그대가3단지제 2동 103호","indutype":"의류 - 아동의류","category":"other"},{"name":"임광세탁소","tel":"031-226-4626","addr":"경기도 화성시 봉담읍 와우리 589번지 봉담그대가3단지근린생활시설 2동 104호","indutype":"수리서비스 - 세탁소","category":"other"},{"name":"크린세탁","tel":"031-225-3030","addr":"경기도 화성시 봉담읍 와우리 589번지 1-105 봉담그대가3단지 3단지상가동","indutype":"수리서비스 - 세탁소","category":"other"}]},{"lat":"37.217188061","long":"126.97633823","imageIndex":17,"items":[{"name":"GS25봉담신일점","tel":"","addr":"경기도 화성시 봉담읍 와우리 87-1번지","indutype":"유통업 영리 - 편 의 점","category":"other"}]},{"lat":"37.214079268","long":"126.97539297","imageIndex":17,"items":[{"name":"GS25봉담토마토점","tel":"02-2006-2485","addr":"경기도 화성시 봉담읍 와우리 31-28번지 토마토오피스텔 B동 105호","indutype":"유통업 영리 - 편 의 점","category":"other"},{"name":"뚜러콜(화성점)","tel":"","addr":"경기도 화성시 봉담읍 와우리 31-28번지 토마토오피스텔1) 510호","indutype":"수리서비스 - 기타수리서비스","category":"other"}]},{"lat":"37.215266953","long":"126.96890323","imageIndex":17,"items":[{"name":"GS25봉담한신점","tel":"","addr":"경기도 화성시 봉담읍 와우리 220-75번지 101호","indutype":"유통업 영리 - 편 의 점","category":"other"}]},{"lat":"37.221188518","long":"126.97570587","imageIndex":17,"items":[{"name":"ITOFFICE","tel":"031-243-7020","addr":"경기도 화성시 봉담읍 와우리 128-4번지 아이티오피스 1층 102호","indutype":"사무통신 - 사무용 OA기기","category":"other"}]},{"lat":"37.220656753","long":"126.97504131","imageIndex":17,"items":[{"name":"M&N 스포츠","tel":"070-8172-4576","addr":"경기도 화성시 봉담읍 와우리 126번지","indutype":"레져용품 - 스포츠·레져용품","category":"other"}]},{"lat":"37.216771761","long":"126.96917295","imageIndex":17,"items":[{"name":"STCO 봉담상설점","tel":"031-222-8420","addr":"경기도 화성시 봉담읍 와우리 213-69번지","indutype":"레져용품 - 스포츠·레져용품","category":"other"},{"name":"에스티오(STCO)","tel":"031-222-8420","addr":"경기도 화성시 봉담읍 와우리 213-69번지","indutype":"의류 - 정장","category":"other"}]},{"lat":"37.220413238","long":"126.97406118","imageIndex":17,"items":[{"name":"가나산업개발(주)","tel":"031-224-7702","addr":"경기도 화성시 봉담읍 와우리 152-11번지 A동","indutype":"용역 서비스 - 기타용역서비스","category":"other"}]},{"lat":"37.212528249","long":"126.9705042","imageIndex":17,"items":[{"name":"갑천하한중번역","tel":"","addr":"경기도 화성시 봉담읍 와우리 590번지 봉담아이파크 107동 901호","indutype":"용역 서비스 - 사무서비스","category":"other"},{"name":"다인시스템","tel":"031-293-3173","addr":"경기도 화성시 봉담읍 와우리 590번지 봉담아이파크 107동 304호","indutype":"회원제형태 - 기타4","category":"other"}]},{"lat":"37.221107315","long":"126.97523268","imageIndex":17,"items":[{"name":"개미자원중고가전제품센터","tel":"031-225-4984","addr":"경기도 화성시 봉담읍 와우리 128-6번지 145동 10호","indutype":"전기제품 - 가전제품","category":"other"}]},{"lat":"37.220521864","long":"126.97620185","imageIndex":17,"items":[{"name":"개미자원중고가전제품센터","tel":"031-293-4984","addr":"경기도 화성시 봉담읍 와우리 130-12번지","indutype":"신변잡화 - 기타잡화","category":"other"}]},{"lat":"37.214718463","long":"126.97315079","imageIndex":17,"items":[{"name":"건동하우징","tel":"","addr":"경기도 화성시 봉담읍 와우리 26-6번지 스마트오피스텔 4층 422호","indutype":"건축자재 - 인테리어전문","category":"other"}]},{"lat":"37.216295598","long":"126.97445706","imageIndex":17,"items":[{"name":"겨자씨 스킨케어","tel":"031-222-9399","addr":"경기도 화성시 봉담읍 와우리 210-26 수성효성A상가동 204","indutype":"회원제형태 - 기타4","category":"other"}]},{"lat":"37.218990385","long":"126.9774868","imageIndex":17,"items":[{"name":"고래광고","tel":"031-222-1188","addr":"경기도 화성시 봉담읍 와우리 110번지","indutype":"건축자재 - 인테리어전문","category":"other"}]},{"lat":"37.216133812","long":"126.97618087","imageIndex":17,"items":[{"name":"골드샤인","tel":"031-222-3745","addr":"경기도 화성시 봉담읍 와우리 76-10","indutype":"신변잡화 - 귀금속","category":"other"},{"name":"구제나라","tel":"031-224-6785","addr":"경기도 화성시 봉담읍 와우리 76-10번지","indutype":"의류 - 정장","category":"other"},{"name":"다온인테리어","tel":"","addr":"경기도 화성시 봉담읍 와우리 76-10번지 2층","indutype":"건축자재 - 인테리어전문","category":"other"},{"name":"밀플레르","tel":"031-233-4247","addr":"경기도 화성시 봉담읍 와우리 76-10","indutype":"문화.취미 - 화원","category":"other"},{"name":"쉬즈스토리","tel":"031-225-2935","addr":"경기도 화성시 봉담읍 와우리 76-10번지","indutype":"의류 - 정장","category":"other"}]},{"lat":"37.21410613","long":"126.97467194","imageIndex":17,"items":[{"name":"공간인테리어","tel":"031-298-5830","addr":"경기도 화성시 봉담읍 와우리 31-13번지 104호","indutype":"건축자재 - 인테리어전문","category":"other"},{"name":"와우(WOW)프린터","tel":"031-233-4953","addr":"경기도 화성시 봉담읍 와우리 31-13번지 삼성빌라 103호","indutype":"사무통신 - 컴퓨터","category":"other"}]},{"lat":"37.213881554","long":"126.97770256","imageIndex":17,"items":[{"name":"공주님이야기","tel":"031-237-1787","addr":"경기도 화성시 봉담읍 와우리 41-5번지 2층","indutype":"신변잡화 - 액세서리","category":"other"}]},{"lat":"37.21469241","long":"126.97734178","imageIndex":17,"items":[{"name":"그린트리","tel":"","addr":"경기도 화성시 봉담읍 와우리 63-1번지","indutype":"가구 - 기타가구","category":"other"}]},{"lat":"37.219296108","long":"126.97470381","imageIndex":17,"items":[{"name":"그린펫클럽(Green pet club)","tel":"031-234-0975","addr":"경기도 화성시 봉담읍 와우리 157-1번지","indutype":"문화.취미 - 애완동물","category":"other"},{"name":"도그앤켓","tel":"031-234-0975","addr":"경기도 화성시 봉담읍 와우리 157-1번지","indutype":"문화.취미 - 애완동물","category":"other"}]},{"lat":"37.212880319","long":"126.97303885","imageIndex":17,"items":[{"name":"금강인테리어","tel":"031-236-8557","addr":"경기도 화성시 봉담읍 와우리 20번지","indutype":"건축자재 - 인테리어전문","category":"other"},{"name":"신명세탁","tel":"031-226-6799","addr":"경기도 화성시 봉담읍 와우리 20 신명상가2층 201","indutype":"수리서비스 - 세탁소","category":"other"}]},{"lat":"37.217548039","long":"126.97445659","imageIndex":17,"items":[{"name":"금성와우전자","tel":"031-222-8715","addr":"경기도 화성시 봉담읍 와우리 188-3번지","indutype":"전기제품 - 가전제품","category":"other"},{"name":"와우리농자재마트","tel":"031-230-1008","addr":"경기도 화성시 봉담읍 와우리 188-3번지","indutype":"농업 - 농기계","category":"other"}]},{"lat":"37.220602557","long":"126.97447798","imageIndex":17,"items":[{"name":"기전사","tel":"031-223-9467","addr":"경기도 화성시 봉담읍 와우리 153번지 1층 1호","indutype":"전기제품 - 기타전기제품","category":"other"}]},{"lat":"37.217241719","long":"126.97459191","imageIndex":17,"items":[{"name":"김싸롱 스토리 모두","tel":"031-222-8969","addr":"경기도 화성시 봉담읍 와우리 196-2번지","indutype":"의류 - 정장","category":"other"},{"name":"에스오엘 (SOL)149","tel":"031-223-4596","addr":"경기도 화성시 봉담읍 와우리 196-2번지 3호","indutype":"의류 - 정장","category":"other"}]},{"lat":"37.215214418","long":"126.97472786","imageIndex":17,"items":[{"name":"꼼지락","tel":"031-297-8609","addr":"경기도 화성시 봉담읍 와우리 239번지 해오름마을봉담그대가1단지 상가동 104호","indutype":"문화.취미 - 민예·공예품","category":"other"},{"name":"노래담는 도자기 작업실","tel":"070-8031-4038","addr":"경기도 화성시 봉담읍 와우리 239번지 해오름마을봉담그대가1단지 103호","indutype":"주방용구 - 주방용식기","category":"other"},{"name":"대성트로닉스(까사라피에)","tel":"031-898-9035","addr":"경기도 화성시 봉담읍 와우리 239번지 102(해오름마을봉담그대가1단지제상가동)","indutype":"신변잡화 - 기타잡화","category":"other"},{"name":"싸이스컴(Cyccom)","tel":"","addr":"경기도 화성시 봉담읍 와우리 239번지 해오름마을봉담그대가1단지 103호","indutype":"사무통신 - 컴퓨터","category":"other"}]},{"lat":"37.220657088","long":"126.97650601","imageIndex":17,"items":[{"name":"꽃향기","tel":"031-222-8009","addr":"경기도 화성시 봉담읍 와우리 130-1번지","indutype":"문화.취미 - 화원","category":"other"}]},{"lat":"37.213385736","long":"126.97656488","imageIndex":17,"items":[{"name":"대경기획","tel":"02-1111-1111","addr":"경기도 화성시 봉담읍 와우리 37-2번지","indutype":"용역 서비스 - 사무서비스","category":"other"}]},{"lat":"37.2141863","long":"126.97103299","imageIndex":17,"items":[{"name":"대신(    )에어컨","tel":"070-4028-0633","addr":"경기도 화성시 봉담읍 와우리 591번지 봉담휴먼빌 103동 402호","indutype":"용역 서비스 - 기타용역서비스","category":"other"}]},{"lat":"37.214214609","long":"126.97620408","imageIndex":17,"items":[{"name":"동양철물전기열쇠","tel":"031-224-7338","addr":"경기도 화성시 봉담읍 와우리 67 주신빌딩1층상가 4호 5호","indutype":"건축자재 - 목재·석재·철물","category":"other"},{"name":"크리닝하우스","tel":"031-221-2570","addr":"경기도 화성시 봉담읍 와우리 67번지","indutype":"수리서비스 - 세탁소","category":"other"}]},{"lat":"37.217962461","long":"126.97423111","imageIndex":17,"items":[{"name":"두손","tel":"031-222-1804","addr":"경기도 화성시 봉담읍 와우리 178-6번지","indutype":"직물 - 침구·수예점","category":"other"},{"name":"삼성사","tel":"031-223-0084","addr":"경기도 화성시 봉담읍 와우리 178-6번지","indutype":"용역 서비스 - 기타용역서비스","category":"other"},{"name":"유진냉열","tel":"031-757-6172","addr":"경기도 화성시 봉담읍 와우리 178-6번지","indutype":"용역 서비스 - 기타용역서비스","category":"other"}]},{"lat":"37.214691671","long":"126.97411968","imageIndex":17,"items":[{"name":"디디테크","tel":"070-4241-6219","addr":"경기도 화성시 봉담읍 와우리 240번지 해오름마을봉담그대가2단지 201동 602호","indutype":"서적문구 - 과학기자재","category":"other"}]},{"lat":"37.218601958","long":"126.97326193","imageIndex":17,"items":[{"name":"디어마이","tel":"02-000-0000","addr":"경기도 화성시 봉담읍 와우리 183번지 나동 104호","indutype":"문화.취미 - 화원","category":"other"}]},{"lat":"37.220963202","long":"126.97545808","imageIndex":17,"items":[{"name":"디자인 모은","tel":"031-295-2918","addr":"경기도 화성시 봉담읍 와우리 127번지 1동 101호","indutype":"용역 서비스 - 종합용역","category":"other"}]},{"lat":"37.216096568","long":"126.97129131","imageIndex":17,"items":[{"name":"디자인 보늬","tel":"","addr":"경기도 화성시 봉담읍 와우리 589번지 봉담그대가3단지 302동 904호","indutype":"용역 서비스 - 사무서비스","category":"other"},{"name":"은하쥬쥬","tel":"031-224-8342","addr":"경기도 화성시 봉담읍 와우리 589번지 봉담그대가3단지 302동 1304호","indutype":"의류 - 정장","category":"other"}]},{"lat":"37.213961803","long":"126.9740073","imageIndex":17,"items":[{"name":"레드 엑서사이즈","tel":"031-238-9331","addr":"경기도 화성시 봉담읍 와우리 26-12번지 태천센터빌딩 507호","indutype":"회원제형태 - 레져업소","category":"other"},{"name":"주식회사에스투트레이드","tel":"031-293-0015","addr":"경기도 화성시 봉담읍 와우리 26-12번지 태천센타 811호","indutype":"레져용품 - 스포츠·레져용품","category":"other"},{"name":"카이랩","tel":"070-7799-2750","addr":"경기도 화성시 봉담읍 와우리 26-12번지 태천오피스텔 609호","indutype":"서적문구 - 과학기자재","category":"other"},{"name":"피트니스 레드","tel":"031-238-9331","addr":"경기도 화성시 봉담읍 와우리 26-12번지 태천빌딩 504,505,506호","indutype":"회원제형태 - 레져업소","category":"other"}]},{"lat":"37.2140776","long":"126.96896009","imageIndex":17,"items":[{"name":"로얄바디 피트니스","tel":"","addr":"경기도 화성시 봉담읍 와우리 221-75번지 외 6필지 도원프라자 506호","indutype":"레져용품 - 스포츠·레져용품","category":"other"},{"name":"블럭키즈","tel":"031-8001-2552","addr":"경기도 화성시 봉담읍 와우리 221-75번지 4층 409호","indutype":"서적문구 - 완구점","category":"other"}]},{"lat":"37.21452046","long":"126.97406342","imageIndex":17,"items":[{"name":"마가나무","tel":"070-8631-2314","addr":"경기도 화성시 봉담읍 와우리 240번지 해오름마을봉담그대가2단지 1층 116호","indutype":"의류 - 정장","category":"other"}]},{"lat":"37.212906755","long":"126.97076315","imageIndex":17,"items":[{"name":"명인컨테이너","tel":"031-221-4689","addr":"경기도 화성시 봉담읍 와우리 590번지 봉담아이파크","indutype":"건축자재 - 기타건축자재","category":"other"},{"name":"미소에스테틱","tel":"031-237-8246","addr":"경기도 화성시 봉담읍 와우리 590번지 봉담아이파크 105호","indutype":"회원제형태 - 기타4","category":"other"},{"name":"바이주","tel":"02-1577-0000","addr":"경기도 화성시 봉담읍 와우리 590번지 봉담아이파크 2층 201호 상가동","indutype":"의류 - 정장","category":"other"},{"name":"봉담아이파크아파트입주자대표회의","tel":"031-222-8134","addr":"경기도 화성시 봉담읍 와우리 590번지 봉담아이파크","indutype":"용역 서비스 - 종합용역","category":"other"},{"name":"소호미술센터","tel":"031-231-9633","addr":"경기도 화성시 봉담읍 와우리 590번지 봉담아이파크 203호","indutype":"서적문구 - 전문서적","category":"other"},{"name":"은혜세탁소","tel":"031-239-4488","addr":"경기도 화성시 봉담읍 와우리 590번지 봉담아이파크 103호","indutype":"수리서비스 - 세탁소","category":"other"}]},{"lat":"37.213494764","long":"126.9810036","imageIndex":17,"items":[{"name":"몽키전자담배멀티샵","tel":"070-8289-3096","addr":"경기도 화성시 봉담읍 와우리 42-3번지","indutype":"기타 - 기타 전문점","category":"other"}]},{"lat":"37.215908596","long":"126.97637247","imageIndex":17,"items":[{"name":"무지개사진관","tel":"031-222-8597","addr":"경기도 화성시 봉담읍 와우리 75-3번지","indutype":"광학제품 - 사진관","category":"other"},{"name":"와우열쇠도장","tel":"031-222-7721","addr":"경기도 화성시 봉담읍 와우리 75-3","indutype":"건축자재 - 목재·석재·철물","category":"other"}]},{"lat":"37.212968893","long":"126.96748477","imageIndex":17,"items":[{"name":"미숲향기","tel":"","addr":"경기도 화성시 봉담읍 와우리 597번지 봉담센트럴푸르지오 107동 304호","indutype":"문화.취미 - 문화취미기타","category":"other"},{"name":"서로연","tel":"070-4388-1081","addr":"경기도 화성시 봉담읍 와우리 597번지 봉담센트럴푸르지오 1302호","indutype":"용역 서비스 - 종합용역","category":"other"},{"name":"푸르지오 세탁소","tel":"031-233-5133","addr":"경기도 화성시 봉담읍 와우리 597번지 봉담센트럴푸르지오 상가 101동 107호","indutype":"수리서비스 - 세탁소","category":"other"},{"name":"하이테크","tel":"070-4789-2381","addr":"경기도 화성시 봉담읍 와우리 597번지 봉담센트럴푸르지오 103동 202호","indutype":"수리서비스 - 기타수리서비스","category":"other"}]},{"lat":"37.214322392","long":"126.97472819","imageIndex":17,"items":[{"name":"미택스 세무회계","tel":"031-221-9096","addr":"경기도 화성시 봉담읍 와우리 31-16번지 리젠트프라자 1층 113호","indutype":"용역 서비스 - 법률회계서비스(개인)","category":"other"},{"name":"토즈멤버십라운지 봉담센터","tel":"031-223-0306","addr":"경기도 화성시 봉담읍 와우리 31-16번지 리젠트프라자 120호","indutype":"용역 서비스 - 사무서비스","category":"other"},{"name":"화심쑥좌훈방","tel":"031-222-8721","addr":"경기도 화성시 봉담읍 와우리 31-16번지 리젠트프라자 405호","indutype":"회원제형태 - 기타4","category":"other"}]},{"lat":"37.213501402","long":"126.97062771","imageIndex":17,"items":[{"name":"바스플랜 봉담점","tel":"031-893-8027","addr":"경기도 화성시 봉담읍 와우리 590번지 봉담아이파크 102동 304호","indutype":"건축자재 - 인테리어전문","category":"other"}]},{"lat":"37.218989623","long":"126.97415185","imageIndex":17,"items":[{"name":"박경희갤러리","tel":"031-254-7893","addr":"경기도 화성시 봉담읍 와우리 177-4번지","indutype":"건축자재 - 인테리어전문","category":"other"}]},{"lat":"37.215683825","long":"126.97864833","imageIndex":17,"items":[{"name":"백산전기소방(주)","tel":"","addr":"경기도 화성시 봉담읍 와우리 45-8번지 윤성빌딩","indutype":"용역 서비스 - 기타용역서비스","category":"other"}]},{"lat":"37.215663906","long":"126.97068312","imageIndex":17,"items":[{"name":"베스트엠디","tel":"","addr":"경기도 화성시 봉담읍 와우리 589번지 봉담그대가3단지 313동 1401호","indutype":"신변잡화 - 기타잡화","category":"other"}]},{"lat":"37.220160957","long":"126.97409507","imageIndex":17,"items":[{"name":"베이핑존","tel":"031-244-6626","addr":"경기도 화성시 봉담읍 와우리 152-3번지 1층","indutype":"기타 - 기타 전문점","category":"other"},{"name":"진아트","tel":"031-293-8074","addr":"경기도 화성시 봉담읍 와우리 152-3번지 외필지 1층 상가","indutype":"직물 - 카페트,커튼,천막,지물","category":"other"},{"name":"헬로우컴","tel":"031-222-7115","addr":"경기도 화성시 봉담읍 와우리 152-3번지 103호","indutype":"사무통신 - 컴퓨터","category":"other"}]},{"lat":"37.216683298","long":"126.97553849","imageIndex":17,"items":[{"name":"보석나라","tel":"031-224-3194","addr":"경기도 화성시 봉담읍 와우리 83-1번지 우측끝상가 1층","indutype":"신변잡화 - 귀금속","category":"other"},{"name":"컴닷컴","tel":"031-898-8297","addr":"경기도 화성시 봉담읍 와우리 83-1번지 1층","indutype":"사무통신 - 컴퓨터","category":"other"}]},{"lat":"37.218106993","long":"126.97578584","imageIndex":17,"items":[{"name":"비비마트(BB MART)","tel":"031-224-5011","addr":"경기도 화성시 봉담읍 와우리 168-1","indutype":"회원제형태 - 기타4","category":"other"}]},{"lat":"37.215303262","long":"126.96984957","imageIndex":17,"items":[{"name":"빛나 인테리어","tel":"","addr":"경기도 화성시 봉담읍 와우리 589번지 봉담그대가3단지 315동 602호","indutype":"건축자재 - 인테리어전문","category":"other"}]},{"lat":"37.219467178","long":"126.9741742","imageIndex":17,"items":[{"name":"사단법인경기재활봉사대","tel":"031-235-8155","addr":"경기도 화성시 봉담읍 와우리 156-97","indutype":"기타 - 비영리/비대상","category":"other"}]},{"lat":"37.219350598","long":"126.9765628","imageIndex":17,"items":[{"name":"세롬상사","tel":"031-293-9009","addr":"경기도 화성시 봉담읍 와우리 106 1층","indutype":"건축자재 - 보일러·펌프·샷시","category":"other"}]},{"lat":"37.214080129","long":"126.9793924","imageIndex":17,"items":[{"name":"수기획","tel":"031-221-4954","addr":"경기도 화성시 봉담읍 와우리 43-7번지","indutype":"용역 서비스 - 사무서비스","category":"other"}]},{"lat":"37.215881497","long":"126.97606829","imageIndex":17,"items":[{"name":"스펀지","tel":"02-1111-1111","addr":"경기도 화성시 봉담읍 와우리 74-1번지","indutype":"의류 - 정장","category":"other"}]},{"lat":"37.221296341","long":"126.97442139","imageIndex":17,"items":[{"name":"썬종합광고기획","tel":"031-221-7818","addr":"경기도 화성시 봉담읍 와우리 151번지 지하1층","indutype":"건축자재 - 인테리어전문","category":"other"}]},{"lat":"37.206411412","long":"126.97528311","imageIndex":17,"items":[{"name":"씨에이엔티","tel":"031-225-7472","addr":"경기도 화성시 봉담읍 와우리 1-2번지 수원대학교 9층 904호","indutype":"서적문구 - 과학기자재","category":"other"},{"name":"에이아이전자","tel":"070-4090-3845","addr":"경기도 화성시 봉담읍 와우리 1-2번지 수원대학교 1002호 수원대학교KITI","indutype":"전기제품 - 기타전기제품","category":"other"},{"name":"여류도예가협회본부","tel":"031-220-2286","addr":"경기도 화성시 봉담읍 와우리 1-2번지 수원대학교 미술대학 315호","indutype":"신변잡화 - 액세서리","category":"other"},{"name":"주식회사 아이앤비코퍼레이션","tel":"070-7501-7321","addr":"경기도 화성시 봉담읍 와우리 1-2번지 수원대학교 KITI 1016동 1019호","indutype":"전기제품 - 기타전기제품","category":"other"},{"name":"주식회사 일루미네이터","tel":"031-234-8820","addr":"경기도 화성시 봉담읍 와우리 1-2번지 수원대학교고운첨단과학기술연구원 1015호","indutype":"기타 - 기계공구","category":"other"},{"name":"티엠에스","tel":"031-222-3159","addr":"경기도 화성시 봉담읍 와우리 1-2번지 수원대학교 첨단과학기술원 1014호","indutype":"전기제품 - 기타전기제품","category":"other"}]},{"lat":"37.214161038","long":"126.97847983","imageIndex":17,"items":[{"name":"씨유수원대점","tel":"080-080-3663","addr":"경기도 화성시 봉담읍 와우리 42-25번지","indutype":"유통업 영리 - 편 의 점","category":"other"}]},{"lat":"37.214052328","long":"126.97578729","imageIndex":17,"items":[{"name":"씨유화성캠퍼스점","tel":"031-898-6103","addr":"경기도 화성시 봉담읍 와우리 31-3번지 106,107호","indutype":"유통업 영리 - 편 의 점","category":"other"}]},{"lat":"37.216521046","long":"126.97525689","imageIndex":17,"items":[{"name":"씨유화성효성점","tel":"031-224-5008","addr":"경기도 화성시 봉담읍 와우리 82-1","indutype":"유통업 영리 - 편 의 점","category":"other"},{"name":"타이마이더스","tel":"031-233-9949","addr":"경기도 화성시 봉담읍 와우리 82-1번지","indutype":"신변잡화 - 기타잡화","category":"other"}]},{"lat":"37.214106884","long":"126.97804047","imageIndex":17,"items":[{"name":"알파스톤사계","tel":"","addr":"경기도 화성시 봉담읍 와우리 42번지 402호","indutype":"신변잡화 - 기타잡화","category":"other"}]},{"lat":"37.213880838","long":"126.97453683","imageIndex":17,"items":[{"name":"예감스튜디오","tel":"031-221-4877","addr":"경기도 화성시 봉담읍 와우리 31-1번지 와우리상가 301호","indutype":"광학제품 - 사진관","category":"other"}]},{"lat":"37.220377681","long":"126.97612304","imageIndex":17,"items":[{"name":"우리건축건재","tel":"031-226-2252","addr":"경기도 화성시 봉담읍 와우리 121번지","indutype":"기타 - 기계공구","category":"other"}]},{"lat":"37.217656294","long":"126.97500861","imageIndex":17,"items":[{"name":"워시테리아 화성봉담점","tel":"","addr":"경기도 화성시 봉담읍 와우리 94-2번지 101호","indutype":"수리서비스 - 세탁소","category":"other"}]},{"lat":"37.20908808","long":"126.9779182","imageIndex":17,"items":[{"name":"유니텔주식회사","tel":"031-238-2706","addr":"경기도 화성시 봉담읍 와우리 산2-2 수원대차업보육센터907","indutype":"신변잡화 - 기타잡화","category":"other"}]},{"lat":"37.219016441","long":"126.9732843","imageIndex":17,"items":[{"name":"유일 (실내건축)","tel":"031-297-2622","addr":"경기도 화성시 봉담읍 와우리 213-3번지","indutype":"건축자재 - 인테리어전문","category":"other"}]},{"lat":"37.21574646","long":"126.97659785","imageIndex":17,"items":[{"name":"인더라인25","tel":"070-7012-8760","addr":"경기도 화성시 봉담읍 와우리 75-6번지","indutype":"유통업 영리 - 편 의 점","category":"other"}]},{"lat":"37.21871934","long":"126.97426462","imageIndex":17,"items":[{"name":"인더라인와우2호점","tel":"070-4044-8794","addr":"경기도 화성시 봉담읍 와우리 177-7번지","indutype":"유통업 영리 - 편 의 점","category":"other"}]},{"lat":"37.214213452","long":"126.97148362","imageIndex":17,"items":[{"name":"인테리어플러스","tel":"031-223-5375","addr":"경기도 화성시 봉담읍 와우리 591번지 봉담휴먼빌 상가동 B105호","indutype":"건축자재 - 인테리어전문","category":"other"}]},{"lat":"37.21393603","long":"126.97973042","imageIndex":17,"items":[{"name":"정문기획","tel":"031-234-4446","addr":"경기도 화성시 봉담읍 와우리 43-6번지","indutype":"용역 서비스 - 사무서비스","category":"other"},{"name":"정문기획","tel":"031-234-4446","addr":"경기도 화성시 봉담읍 와우리 43-6번지","indutype":"서적문구 - 출판 및 인쇄물","category":"other"}]},{"lat":"37.214107259","long":"126.97989936","imageIndex":17,"items":[{"name":"정문사","tel":"031-898-5433","addr":"경기도 화성시 봉담읍 와우리 44-41번지 102호","indutype":"용역 서비스 - 사무서비스","category":"other"}]},{"lat":"37.220080475","long":"126.97673155","imageIndex":17,"items":[{"name":"제일광고","tel":"031-294-9112","addr":"경기도 화성시 봉담읍 와우리 119-7번지","indutype":"용역 서비스 - 종합용역","category":"other"}]},{"lat":"37.218161132","long":"126.97612382","imageIndex":17,"items":[{"name":"좋은집만들기","tel":"031-235-7519","addr":"경기도 화성시 봉담읍 와우리 168-5번지 대광빌라 203호","indutype":"건축자재 - 인테리어전문","category":"other"}]},{"lat":"37.214267234","long":"126.97044712","imageIndex":17,"items":[{"name":"준카피","tel":"031-354-5112","addr":"경기도 화성시 봉담읍 와우리 591번지 봉담휴먼빌 102동 4층 4호","indutype":"용역 서비스 - 사무서비스","category":"other"}]},{"lat":"37.217828005","long":"126.97728439","imageIndex":17,"items":[{"name":"중앙상사","tel":"031-222-9996","addr":"경기도 화성시 봉담읍 와우리 100-5번지","indutype":"수리서비스 - 기타수리서비스","category":"other"}]},{"lat":"37.217719227","long":"126.97442273","imageIndex":17,"items":[{"name":"중앙장식","tel":"031-223-4520","addr":"경기도 화성시 봉담읍 와우리 179-7번지","indutype":"직물 - 카페트,커튼,천막,지물","category":"other"}]},{"lat":"37.215654685","long":"126.96991702","imageIndex":17,"items":[{"name":"즐겨찾기","tel":"031-8002-6545","addr":"경기도 화성시 봉담읍 와우리 589번지 봉담그대가3단지 314동 802호","indutype":"회원제형태 - 기타4","category":"other"}]},{"lat":"37.21548431","long":"126.97301529","imageIndex":17,"items":[{"name":"진영수도설비 누수방수종합설비","tel":"031-8013-9635","addr":"경기도 화성시 봉담읍 와우리 589번지 봉담그대가3단지 308동 1101호","indutype":"용역 서비스 - 기타용역서비스","category":"other"}]},{"lat":"37.215186236","long":"126.97024394","imageIndex":17,"items":[{"name":"진흥도서","tel":"031-233-1072","addr":"경기도 화성시 봉담읍 와우리 589번지 봉담그대가3단지 316동 602호","indutype":"서적문구 - 일반서적","category":"other"}]},{"lat":"37.21346642","long":"126.97478484","imageIndex":17,"items":[{"name":"크로스오버 봉담 수원대점","tel":"111-111-1111","addr":"경기도 화성시 봉담읍 와우리 34-6번지 1층 105호","indutype":"의류 - 정장","category":"other"}]},{"lat":"37.214322776","long":"126.97639556","imageIndex":17,"items":[{"name":"크리닝하우스 봉담수원대점","tel":"031-221-2570","addr":"경기도 화성시 봉담읍 와우리 67번지 4호 상가","indutype":"수리서비스 - 세탁소","category":"other"}]},{"lat":"37.213493576","long":"126.97531432","imageIndex":17,"items":[{"name":"크린토피아GS슈퍼봉담점","tel":"031-222-0209","addr":"경기도 화성시 봉담읍 와우리 31-6번지 외4필지 토마토쇼핑 117호","indutype":"수리서비스 - 세탁소","category":"other"}]},{"lat":"37.214114447","long":"126.9719005","imageIndex":17,"items":[{"name":"특수아동미술연구소","tel":"","addr":"경기도 화성시 봉담읍 와우리 591번지 봉담휴먼빌 104동 1201호","indutype":"서적문구 - 기타서적문구","category":"other"}]},{"lat":"37.218044033","long":"126.97628159","imageIndex":17,"items":[{"name":"펠리스디자인(FELIZ DESIGN)","tel":"031-225-8869","addr":"경기도 화성시 봉담읍 와우리 168번지 성현빌라 1동 102호","indutype":"회원제형태 - 기타4","category":"other"}]},{"lat":"37.215413064","long":"126.97654164","imageIndex":17,"items":[{"name":"풀잎문화센터 봉담지부","tel":"031-898-5579","addr":"경기도 화성시 봉담읍 와우리 72-3번지 시라빌딩 지하 101호","indutype":"문화.취미 - 문화취미기타","category":"other"}]},{"lat":"37.215151257","long":"126.9743561","imageIndex":17,"items":[{"name":"한빛건축디자인","tel":"070-8878-8350","addr":"경기도 화성시 봉담읍 와우리 239번지 해오름마을봉담그대가1단지 104동 102호","indutype":"회원제형태 - 기타4","category":"other"}]},{"lat":"37.215241909","long":"126.97673322","imageIndex":17,"items":[{"name":"화성명함.도장.고무인.열쇠","tel":"031-225-9889","addr":"경기도 화성시 봉담읍 와우리 69-4번지 1층","indutype":"건축자재 - 목재·석재·철물","category":"other"}]},{"lat":"37.217656254","long":"126.97483961","imageIndex":17,"items":[{"name":"휴대폰365아울렛/주식회사 본가제이씨","tel":"031-235-7020","addr":"경기도 화성시 봉담읍 와우리 93-4번지","indutype":"사무통신 - 통신기기","category":"other"}]}]