[{"lat":"37.011080583","long":"127.27420759","imageIndex":16,"items":[{"name":"(재)천주교수원교구유지재단 안법유치원[아","tel":"031-627-0703","addr":"경기도 안성시 구포동 80-1번지","indutype":"학원 - 유치원","category":"study"}]},{"lat":"37.008770207","long":"127.27185115","imageIndex":16,"items":[{"name":"경기주산암산학원","tel":"031-677-5735","addr":"경기도 안성시 구포동 118","indutype":"학원 - 기타 교육기관","category":"study"}]},{"lat":"37.008689112","long":"127.27185086","imageIndex":16,"items":[{"name":"나다운 공부습관 교습소","tel":"070-4401-0486","addr":"경기도 안성시 구포동 119-1번지 101호","indutype":"학원 - 기타 교육기관","category":"study"}]},{"lat":"37.009526103","long":"127.272292","imageIndex":16,"items":[{"name":"맥아카데미이화스학원","tel":"031-677-9595","addr":"경기도 안성시 구포동 71,72","indutype":"회원제형태 - 학원","category":"study"}]},{"lat":"37.010472163","long":"127.27231781","imageIndex":16,"items":[{"name":"블랙라이언스","tel":"031-677-0622","addr":"경기도 안성시 구포동 23-1번지 2층","indutype":"학원 - 예·체능계학원","category":"study"}]},{"lat":"37.010435866","long":"127.27243004","imageIndex":16,"items":[{"name":"상상마당미술창고미술학원","tel":"031-674-1545","addr":"경기도 안성시 구포동 22번지","indutype":"학원 - 예·체능계학원","category":"study"}]},{"lat":"37.010408527","long":"127.27256478","imageIndex":16,"items":[{"name":"새힘학원","tel":"031-677-3697","addr":"경기도 안성시 구포동 21번지 3층","indutype":"학원 - 보습학원","category":"study"},{"name":"혜윰독서실","tel":"031-675-0987","addr":"경기도 안성시 구포동 21번지","indutype":"학원 - 독서실","category":"study"},{"name":"혜윰독서실","tel":"031-675-0987","addr":"경기도 안성시 구포동 21번지 1층","indutype":"학원 - 독서실","category":"study"}]},{"lat":"37.010136625","long":"127.27326043","imageIndex":16,"items":[{"name":"시스템영어학원","tel":"031-672-0579","addr":"경기도 안성시 구포동 36번지","indutype":"회원제형태 - 학원","category":"study"}]},{"lat":"37.009833023","long":"127.2720459","imageIndex":16,"items":[{"name":"아이앤피아노학원","tel":"031-675-3501","addr":"경기도 안성시 구포동 48번지","indutype":"학원 - 예·체능계학원","category":"study"},{"name":"파스칼수학교습소","tel":"031-657-0988","addr":"경기도 안성시 구포동 48번지","indutype":"회원제형태 - 학원","category":"study"}]},{"lat":"37.012442001","long":"127.27385288","imageIndex":16,"items":[{"name":"안법고등학교","tel":"031-674-3413","addr":"경기도 안성시 구포동 176번지 안법고등학교","indutype":"학원 - 초중고교육기관","category":"study"}]},{"lat":"37.011941831","long":"127.27190727","imageIndex":16,"items":[{"name":"안성초등학교","tel":"031-674-5803","addr":"경기도 안성시 구포동 170번지 안성초등학교","indutype":"학원 - 초중고교육기관","category":"study"},{"name":"안성초병설유치원[아이행복]","tel":"031-672-2244","addr":"경기도 안성시 구포동 170번지 안성초등학교","indutype":"학원 - 유치원","category":"study"}]},{"lat":"37.010381164","long":"127.27271074","imageIndex":16,"items":[{"name":"탑독서실","tel":"","addr":"경기도 안성시 구포동 20번지 1-2호","indutype":"학원 - 독서실","category":"study"}]},{"lat":"37.01049945","long":"127.27220555","imageIndex":16,"items":[{"name":"토마스잉글리시","tel":"031-672-0979","addr":"경기도 안성시 구포동 23번지 2층","indutype":"학원 - 보습학원","category":"study"}]}]