[{"lat":"37.319849263","long":"127.44232771","imageIndex":4,"items":[{"name":"SAMO(사모)","tel":"031-632-7399","addr":"경기도 이천시 신둔면 도암리 347-18번지 1동 2층","indutype":"일반휴게음식 - 서양음식","category":"restaurant"}]},{"lat":"37.319242065","long":"127.44084628","imageIndex":4,"items":[{"name":"강남박생태찌개","tel":"031-632-7164","addr":"경기도 이천시 신둔면 도암리 343-3번지","indutype":"일반휴게음식 - 일반한식","category":"restaurant"},{"name":"꼬꼬C 참숯불닭갈비도암점","tel":"031-631-6315","addr":"경기도 이천시 신둔면 도암리 343-3번지","indutype":"일반휴게음식 - 일반한식","category":"restaurant"},{"name":"신영","tel":"031-633-1179","addr":"경기도 이천시 신둔면 도암리 343-3번지 1층","indutype":"일반휴게음식 - 일반한식","category":"restaurant"}]},{"lat":"37.320209804","long":"127.43741097","imageIndex":4,"items":[{"name":"거산산채정식","tel":"031-634-5937","addr":"경기도 이천시 신둔면 도암리 295-13번지","indutype":"일반휴게음식 - 일반한식","category":"restaurant"}]},{"lat":"37.319068495","long":"127.44148833","imageIndex":4,"items":[{"name":"굽네치킨(신둔점)","tel":"031-631-1696","addr":"경기도 이천시 신둔면 도암리 352-15","indutype":"일반휴게음식 - 스넥","category":"restaurant"}]},{"lat":"37.31932449","long":"127.44048575","imageIndex":4,"items":[{"name":"도암한식부페","tel":"031-633-5868","addr":"경기도 이천시 신둔면 도암리 320-17번지 1층","indutype":"일반휴게음식 - 일반한식","category":"restaurant"}]},{"lat":"37.319547986","long":"127.44096088","imageIndex":4,"items":[{"name":"바잉","tel":"031-634-0042","addr":"경기도 이천시 신둔면 도암리 346-11번지","indutype":"일반휴게음식 - 스넥","category":"restaurant"}]},{"lat":"37.319156628","long":"127.44201907","imageIndex":4,"items":[{"name":"우리집밥상","tel":"031-631-1696","addr":"경기도 이천시 신둔면 도암리 349-2번지","indutype":"일반휴게음식 - 일반한식","category":"restaurant"}]},{"lat":"37.319240812","long":"127.44118472","imageIndex":4,"items":[{"name":"커피맘","tel":"031-631-5195","addr":"경기도 이천시 신둔면 도암리 345-4번지 도암빌딩 1동 1층","indutype":"일반휴게음식 - 서양음식","category":"restaurant"}]}]