[{"lat":"36.986728375","long":"127.08303622","imageIndex":16,"items":[{"name":"곰돌이어린이집[아이행복]","tel":"031-618-6596","addr":"경기도 평택시 군문동 360번지 군문주공2단지 211동 101호","indutype":"학원 - 유아원","category":"study"}]},{"lat":"36.986133744","long":"127.08292327","imageIndex":16,"items":[{"name":"군문석사태권도장","tel":"031-618-6777","addr":"경기도 평택시 군문동 360-4번지 4층 402호","indutype":"학원 - 예·체능계학원","category":"study"},{"name":"군문잉글리쉬무무학원","tel":"031-653-9925","addr":"경기도 평택시 군문동 360-4번지 주공프라자 204호","indutype":"학원 - 외국어학원","category":"study"},{"name":"루체음악학원","tel":"031-657-2242","addr":"경기도 평택시 군문동 360-4번지 일부 401호","indutype":"학원 - 예·체능계학원","category":"study"},{"name":"뮤엠영어교습소","tel":"","addr":"경기도 평택시 군문동 360-4번지 302호","indutype":"학원 - 외국어학원","category":"study"},{"name":"윤선생영어숲평택원평학원","tel":"070-4366-0828","addr":"경기도 평택시 군문동 360-4번지","indutype":"학원 - 외국어학원","category":"study"}]},{"lat":"36.98777204","long":"127.08533998","imageIndex":16,"items":[{"name":"군문초등학교","tel":"031-618-5763","addr":"경기도 평택시 군문동 360-1번지 군문초등학교","indutype":"학원 - 초중고교육기관","category":"study"},{"name":"군문초등학교병설유치원[아이행복]","tel":"031-618-5763","addr":"경기도 평택시 군문동 360-1번지","indutype":"학원 - 유치원","category":"study"}]},{"lat":"36.987825208","long":"127.08662055","imageIndex":16,"items":[{"name":"명지아인스학원","tel":"031-654-1537","addr":"경기도 평택시 군문동 357-1번지","indutype":"학원 - 보습학원","category":"study"}]},{"lat":"36.985078466","long":"127.08442727","imageIndex":16,"items":[{"name":"재미난어린이집[아이행복]","tel":"031-653-0157","addr":"경기도 평택시 군문동 276-1번지","indutype":"학원 - 유아원","category":"study"}]},{"lat":"36.98449387","long":"127.08280923","imageIndex":16,"items":[{"name":"정민유치원","tel":"031-658-0000","addr":"경기도 평택시 군문동 270-7번지","indutype":"학원 - 유치원","category":"study"},{"name":"정민유치원[아이행복]","tel":"031-658-0000","addr":"경기도 평택시 군문동 270-7번지","indutype":"학원 - 유치원","category":"study"}]},{"lat":"36.986772217","long":"127.08481098","imageIndex":16,"items":[{"name":"크니크니어린이집[아이행복]","tel":"031-692-0877","addr":"경기도 평택시 군문동 360번지 군문주공2단지","indutype":"학원 - 유아원","category":"study"}]}]