[{"lat":"37.831116414","long":"127.1409523","imageIndex":7,"items":[{"name":"(LS)푸드","tel":"","addr":"경기도 포천시 소흘읍 송우리 726-35번지 2층","indutype":"음료식품 - 기타음료식품","category":"food"}]},{"lat":"37.835618376","long":"127.15063926","imageIndex":7,"items":[{"name":"EM코리아 송무","tel":"031-544-4504","addr":"경기도 포천시 소흘읍 송우리 47-1번지","indutype":"건강식품 - 기타건강식품","category":"food"}]},{"lat":"37.829782669","long":"127.14871932","imageIndex":7,"items":[{"name":"korea muslim food(코리아무슬림푸드)","tel":"031-544-6524","addr":"경기도 포천시 소흘읍 송우리 107-14번지","indutype":"음료식품 - 정육점","category":"food"}]},{"lat":"37.82847492","long":"127.14242401","imageIndex":7,"items":[{"name":"감성","tel":"","addr":"경기도 포천시 소흘읍 송우리 422-9번지","indutype":"음료식품 - 기타음료식품","category":"food"}]},{"lat":"37.832194766","long":"127.15066651","imageIndex":7,"items":[{"name":"강남스포렉스2층매점","tel":"070-8533-2200","addr":"경기도 포천시 소흘읍 송우리 87-3번지","indutype":"음료식품 - 기타음료식품","category":"food"},{"name":"스넥","tel":"031-544-6700","addr":"경기도 포천시 소흘읍 송우리 87-3번지 3층","indutype":"음료식품 - 기타음료식품","category":"food"}]},{"lat":"37.827920238","long":"127.1466711","imageIndex":7,"items":[{"name":"과일백화점","tel":"031-542-1097","addr":"경기도 포천시 소흘읍 송우리 176","indutype":"음료식품 - 농·축·수산품","category":"food"}]},{"lat":"37.828283774","long":"127.14405931","imageIndex":7,"items":[{"name":"궁중떡방","tel":"031-542-1412","addr":"경기도 포천시 소흘읍 송우리 160-10번지 1층","indutype":"음료식품 - 제과점","category":"food"}]},{"lat":"37.832780535","long":"127.1353893","imageIndex":7,"items":[{"name":"그린상사","tel":"031-528-6263","addr":"경기도 포천시 소흘읍 송우리 572-31번지","indutype":"음료식품 - 기타음료식품","category":"food"}]},{"lat":"37.822397112","long":"127.13939139","imageIndex":7,"items":[{"name":"농업회사법인 주식회사 포천늘푸른로컬푸드","tel":"031-544-0993","addr":"경기도 포천시 소흘읍 송우리 494-23번지","indutype":"음료식품 - 농·축·수산품","category":"food"},{"name":"농업회사법인 주식회사 포천늘푸른로컬푸드","tel":"031-544-0993","addr":"경기도 포천시 소흘읍 송우리 494-23번지","indutype":"음료식품 - 농·축·수산품","category":"food"}]},{"lat":"37.836807555","long":"127.13555554","imageIndex":7,"items":[{"name":"농업회사법인 주식회사 해파란","tel":"031-541-4755","addr":"경기도 포천시 소흘읍 송우리 588-6번지","indutype":"음료식품 - 기타음료식품","category":"food"},{"name":"주식회사다해랑","tel":"031-543-3688","addr":"경기도 포천시 소흘읍 송우리 588-6번지","indutype":"음료식품 - 농·축·수산품","category":"food"}]},{"lat":"37.829307213","long":"127.14705999","imageIndex":7,"items":[{"name":"능소호두과자","tel":"031-544-8494","addr":"경기도 포천시 소흘읍 송우리 196-13번지 1동1층103호 ,금용 상가","indutype":"음료식품 - 제과점","category":"food"},{"name":"능소호두과자","tel":"544-8494","addr":"경기도 포천시 소흘읍 송우리 196-13번지","indutype":"소매업 - 식품","category":"food"},{"name":"이삭토스토 포천송우점","tel":"542-9877","addr":"경기도 포천시 소흘읍 송우리 196-13번지","indutype":"소매업 - 식품","category":"food"}]},{"lat":"37.824648368","long":"127.14033827","imageIndex":7,"items":[{"name":"대현유통","tel":"","addr":"경기도 포천시 소흘읍 송우리 730-47번지","indutype":"음료식품 - 기타음료식품","category":"food"}]},{"lat":"37.828146826","long":"127.14555839","imageIndex":7,"items":[{"name":"던킨도너츠","tel":"","addr":"경기도 포천시 소흘읍 송우리 192-2번지 1층","indutype":"음료식품 - 제과점","category":"food"}]},{"lat":"37.827731248","long":"127.14650036","imageIndex":7,"items":[{"name":"동의약초","tel":"031-541-4792","addr":"경기도 포천시 소흘읍 송우리 175번지","indutype":"건강식품 - 기타건강식품","category":"food"}]},{"lat":"37.831781371","long":"127.14983646","imageIndex":7,"items":[{"name":"둥지 정육점","tel":"031-543-1296","addr":"경기도 포천시 소흘읍 송우리 94번지","indutype":"음료식품 - 정육점","category":"food"}]},{"lat":"37.828558485","long":"127.14783093","imageIndex":7,"items":[{"name":"드림양고기","tel":"031-541-2345","addr":"경기도 포천시 소흘읍 송우리 110-10번지","indutype":"음료식품 - 농·축·수산품","category":"food"}]},{"lat":"37.827003934","long":"127.14447713","imageIndex":7,"items":[{"name":"떡이랑두부랑","tel":"031-542-2223","addr":"경기도 포천시 소흘읍 송우리 146-2번지 103호","indutype":"음료식품 - 기타음료식품","category":"food"}]},{"lat":"37.828420513","long":"127.15011377","imageIndex":7,"items":[{"name":"로카담","tel":"070-4422-2412","addr":"경기도 포천시 소흘읍 송우리 110-16번지 107호","indutype":"음료식품 - 기타음료식품","category":"food"}]},{"lat":"37.8300622","long":"127.14852677","imageIndex":7,"items":[{"name":"모심산양유","tel":"","addr":"경기도 포천시 소흘읍 송우리 106-3번지 2층","indutype":"음료식품 - 기타음료식품","category":"food"}]},{"lat":"37.825752892","long":"127.14341842","imageIndex":7,"items":[{"name":"민속떡집","tel":"031-542-5393","addr":"경기도 포천시 소흘읍 송우리 150-4번지","indutype":"음료식품 - 제과점","category":"food"}]},{"lat":"37.835147175","long":"127.15278531","imageIndex":7,"items":[{"name":"백년제과뻥튀기공작소","tel":"031-541-4589","addr":"경기도 포천시 소흘읍 송우리 70-9번지 1층","indutype":"음료식품 - 기타음료식품","category":"food"},{"name":"환희제과뻥튀기공작소","tel":"031-541-2018","addr":"경기도 포천시 소흘읍 송우리 70-9번지","indutype":"음료식품 - 기타음료식품","category":"food"}]},{"lat":"37.826112276","long":"127.14424826","imageIndex":7,"items":[{"name":"보령건강원","tel":"031-542-9266","addr":"경기도 포천시 소흘읍 송우리 452-2번지","indutype":"건강식품 - 기타건강식품","category":"food"}]},{"lat":"37.826391295","long":"127.14447596","imageIndex":7,"items":[{"name":"복숙이네반찬이야기","tel":"031-876-2700","addr":"경기도 포천시 소흘읍 송우리 452-1번지 나동","indutype":"음료식품 - 기타음료식품","category":"food"}]},{"lat":"37.828505752","long":"127.14675175","imageIndex":7,"items":[{"name":"빵사부 식빵공방","tel":"031-503-8018","addr":"경기도 포천시 소흘읍 송우리 186번지 1층 101호","indutype":"음료식품 - 제과점","category":"food"},{"name":"조은축산","tel":"031-542-2236","addr":"경기도 포천시 소흘읍 송우리 186번지","indutype":"음료식품 - 정육점","category":"food"}]},{"lat":"37.831062823","long":"127.14055463","imageIndex":7,"items":[{"name":"삼시세끼찬찬찬","tel":"031-544-1253","addr":"경기도 포천시 소흘읍 송우리 726-55번지 1층","indutype":"음료식품 - 기타음료식품","category":"food"}]},{"lat":"37.827398205","long":"127.14624982","imageIndex":7,"items":[{"name":"상만정육점","tel":"031-542-7561","addr":"경기도 포천시 소흘읍 송우리 139-6번지 전체","indutype":"음료식품 - 정육점","category":"food"}]},{"lat":"37.829286825","long":"127.14152819","imageIndex":7,"items":[{"name":"솔브레드","tel":"031-544-3355","addr":"경기도 포천시 소흘읍 송우리 729-7번지","indutype":"음료식품 - 제과점","category":"food"},{"name":"유락구푸드","tel":"031-541-9235","addr":"경기도 포천시 소흘읍 송우리 729-7 메듀파크1층 109호~110호","indutype":"음료식품 - 기타음료식품","category":"food"},{"name":"찬을 담다","tel":"031-542-1009","addr":"경기도 포천시 소흘읍 송우리 729-7번지 메듀파크 107호","indutype":"음료식품 - 기타음료식품","category":"food"}]},{"lat":"37.827256102","long":"127.14455712","imageIndex":7,"items":[{"name":"송우밝은안과","tel":"031-541-7552","addr":"경기도 포천시 소흘읍 송우리 146-1번지 뉴스토리솔모루빌딩 4층","indutype":"건강식품 - 기타건강식품","category":"food"}]},{"lat":"37.828146689","long":"127.14567198","imageIndex":7,"items":[{"name":"송우아저씨축산","tel":"031-544-6664","addr":"경기도 포천시 소흘읍 송우리 192-1번지","indutype":"음료식품 - 정육점","category":"food"}]},{"lat":"37.827534146","long":"127.14559129","imageIndex":7,"items":[{"name":"송우이레식품","tel":"031-544-0669","addr":"경기도 포천시 소흘읍 송우리 141-11번지","indutype":"음료식품 - 기타음료식품","category":"food"}]},{"lat":"37.829115312","long":"127.14181184","imageIndex":7,"items":[{"name":"송우이룸프리미엄스터디센터","tel":"031-541-2025","addr":"경기도 포천시 소흘읍 송우리 729-8번지 802호","indutype":"음료식품 - 기타음료식품","category":"food"}]},{"lat":"37.827167463","long":"127.14334159","imageIndex":7,"items":[{"name":"송우인삼농장","tel":"031-542-7452","addr":"경기도 포천시 소흘읍 송우리 151-2번지","indutype":"건강식품 - 홍삼제품","category":"food"}]},{"lat":"37.831061933","long":"127.14877864","imageIndex":7,"items":[{"name":"순우리인삼","tel":"031-542-1543","addr":"경기도 포천시 소흘읍 송우리 223-1번지 1층","indutype":"건강식품 - 인삼제품","category":"food"}]},{"lat":"37.832474541","long":"127.15028085","imageIndex":7,"items":[{"name":"신일로드","tel":"031-535-3369","addr":"경기도 포천시 소흘읍 송우리 95-1","indutype":"회원제형태 - 건강식품","category":"food"}]},{"lat":"37.832258458","long":"127.15016683","imageIndex":7,"items":[{"name":"쌀눈쌀 현미누룽지 포천송우점","tel":"031-111-1111","addr":"경기도 포천시 소흘읍 송우리 94-4번지","indutype":"음료식품 - 기타음료식품","category":"food"}]},{"lat":"37.829143368","long":"127.14842274","imageIndex":7,"items":[{"name":"썬베이커리","tel":"031-541-0542","addr":"경기도 포천시 소흘읍 송우리 110-9번지","indutype":"음료식품 - 제과점","category":"food"}]},{"lat":"37.838862066","long":"127.13522977","imageIndex":7,"items":[{"name":"애경진주유통","tel":"031-544-7602","addr":"경기도 포천시 소흘읍 송우리 602-6","indutype":"음료식품 - 기타음료식품","category":"food"}]},{"lat":"37.834170277","long":"127.13333569","imageIndex":7,"items":[{"name":"연세우유","tel":"031-542-4370","addr":"경기도 포천시 소흘읍 송우리 575-11번지","indutype":"음료식품 - 기타음료식품","category":"food"}]},{"lat":"37.827753777","long":"127.14275205","imageIndex":7,"items":[{"name":"연화방제과","tel":"031-542-4053","addr":"경기도 포천시 소흘읍 송우리 155-12번지","indutype":"음료식품 - 제과점","category":"food"}]},{"lat":"37.824810987","long":"127.13995239","imageIndex":7,"items":[{"name":"영화 정육점","tel":"031-533-8736","addr":"경기도 포천시 소흘읍 송우리 730-30번지 1층","indutype":"음료식품 - 정육점","category":"food"}]},{"lat":"37.827532056","long":"127.14730643","imageIndex":7,"items":[{"name":"월드푸드","tel":"541-8866","addr":"경기도 포천시 소흘읍 송우리 132번지","indutype":"소매업 - 식품","category":"food"},{"name":"월드푸드","tel":"031-541-8866","addr":"경기도 포천시 소흘읍 송우리 132","indutype":"음료식품 - 기타음료식품","category":"food"}]},{"lat":"37.828037221","long":"127.14678492","imageIndex":7,"items":[{"name":"웰빙홀쇼핑","tel":"033-543-2566","addr":"경기도 포천시 소흘읍 송우리 180-2번지 3층","indutype":"음료식품 - 농·축·수산품","category":"food"}]},{"lat":"37.83117015","long":"127.14122502","imageIndex":7,"items":[{"name":"유노아야 커피","tel":"031-541-5142","addr":"경기도 포천시 소흘읍 송우리 726-26번지","indutype":"음료식품 - 기타음료식품","category":"food"}]},{"lat":"37.826391868","long":"127.14399891","imageIndex":7,"items":[{"name":"윤희네반찬","tel":"031-542-6030","addr":"경기도 포천시 소흘읍 송우리 146-3번지","indutype":"음료식품 - 기타음료식품","category":"food"}]},{"lat":"37.830224776","long":"127.14819768","imageIndex":7,"items":[{"name":"은혜농산","tel":"031-544-1238","addr":"경기도 포천시 소흘읍 송우리 221-2","indutype":"음료식품 - 기타음료식품","category":"food"}]},{"lat":"37.828898429","long":"127.14236802","imageIndex":7,"items":[{"name":"이삭토스트 송우주공점","tel":"544-0989","addr":"경기도 포천시 소흘읍 송우리 410-18번지 다산 상가 106호","indutype":"음식 - 식품","category":"food"}]},{"lat":"37.827584036","long":"127.14153636","imageIndex":7,"items":[{"name":"이웃집사과","tel":"02-111-1111","addr":"경기도 포천시 소흘읍 송우리 426-4번지 1층 104호","indutype":"음료식품 - 농·축·수산품","category":"food"}]},{"lat":"37.827812596","long":"127.1462847","imageIndex":7,"items":[{"name":"이임수제왕만두","tel":"031-541-1202","addr":"경기도 포천시 소흘읍 송우리 172-2번지 1층 A호","indutype":"음료식품 - 기타음료식품","category":"food"}]},{"lat":"37.828225141","long":"127.14031082","imageIndex":7,"items":[{"name":"장독대(송우점)","tel":"031-542-7707","addr":"경기도 포천시 소흘읍 송우리 729-11 주상가동101호내","indutype":"음료식품 - 기타음료식품","category":"food"}]},{"lat":"37.828591355","long":"127.14300353","imageIndex":7,"items":[{"name":"전통떡하는날","tel":"031-543-6601","addr":"경기도 포천시 소흘읍 송우리 159-3번지 우덕프라자 102호","indutype":"음료식품 - 제과점","category":"food"}]},{"lat":"37.83034219","long":"127.14045106","imageIndex":7,"items":[{"name":"점핑하이 송우점","tel":"","addr":"경기도 포천시 소흘읍 송우리 726-76번지 황금프라자 2층 202호","indutype":"건강식품 - 기타건강식품","category":"food"}]},{"lat":"37.827453967","long":"127.14484147","imageIndex":7,"items":[{"name":"정강축산축산물도매센터","tel":"031-544-6276","addr":"경기도 포천시 소흘읍 송우리 163-5번지","indutype":"음료식품 - 정육점","category":"food"}]},{"lat":"37.829892409","long":"127.13985956","imageIndex":7,"items":[{"name":"정훈미트","tel":"031-542-9410","addr":"경기도 포천시 소흘읍 송우리 729-1번지 희성RICH프라자 109호","indutype":"음료식품 - 정육점","category":"food"}]},{"lat":"37.830919393","long":"127.14747206","imageIndex":7,"items":[{"name":"조가네","tel":"031-572-4242","addr":"경기도 포천시 소흘읍 송우리 222-61번지 1층 108호","indutype":"음료식품 - 기타음료식품","category":"food"}]},{"lat":"37.830727994","long":"127.14925506","imageIndex":7,"items":[{"name":"주식회사 아이에스엠","tel":"-","addr":"경기도 포천시 소흘읍 송우리 104번지","indutype":"도소매 - 식품","category":"food"},{"name":"주식회사 아이에스엠","tel":"070-7786-9521","addr":"경기도 포천시 소흘읍 송우리 104번지 5호","indutype":"음료식품 - 기타음료식품","category":"food"}]},{"lat":"37.838555121","long":"127.15089504","imageIndex":7,"items":[{"name":"준","tel":"031-544-0660","addr":"경기도 포천시 소흘읍 송우리 23-6번지","indutype":"음료식품 - 농·축·수산품","category":"food"}]},{"lat":"37.828392525","long":"127.14352565","imageIndex":7,"items":[{"name":"카페블롱쉬","tel":"031-542-2442","addr":"경기도 포천시 소흘읍 송우리 158-2번지","indutype":"음료식품 - 제과점","category":"food"}]},{"lat":"37.824477903","long":"127.13972461","imageIndex":7,"items":[{"name":"큐(Q)수랏간","tel":"","addr":"경기도 포천시 소흘읍 송우리 730-33번지","indutype":"음료식품 - 기타음료식품","category":"food"}]},{"lat":"37.83619918","long":"127.15442327","imageIndex":7,"items":[{"name":"태평선식","tel":"031-543-7114","addr":"경기도 포천시 소흘읍 송우리 77-25번지 1층","indutype":"건강식품 - 기타건강식품","category":"food"}]},{"lat":"37.831341715","long":"127.14089592","imageIndex":7,"items":[{"name":"파리바게트포천송우점","tel":"031-543-4266","addr":"경기도 포천시 소흘읍 송우리 726-18번지 1층","indutype":"음료식품 - 제과점","category":"food"}]},{"lat":"37.834115603","long":"127.13389222","imageIndex":7,"items":[{"name":"포천구절초떡갈비","tel":"031-544-0000","addr":"경기도 포천시 소흘읍 송우리 575-13번지 1층","indutype":"음료식품 - 정육점","category":"food"}]},{"lat":"37.82580807","long":"127.14247578","imageIndex":7,"items":[{"name":"풍년방앗간","tel":"031-543-4487","addr":"경기도 포천시 소흘읍 송우리 430-15번지 101호","indutype":"음료식품 - 제과점","category":"food"}]},{"lat":"37.822945815","long":"127.14014203","imageIndex":7,"items":[{"name":"한국인삼공사정관장홍삼포천점","tel":"031-534-2304","addr":"경기도 포천시 소흘읍 송우리 494-1 정관장홍삼포천점","indutype":"건강식품 - 홍삼제품","category":"food"}]},{"lat":"37.822451812","long":"127.13883496","imageIndex":7,"items":[{"name":"한우마을 정육점","tel":"031-544-3392","addr":"경기도 포천시 소흘읍 송우리 494-31번지","indutype":"음료식품 - 정육점","category":"food"}]},{"lat":"37.838729769","long":"127.13267346","imageIndex":7,"items":[{"name":"형제식품","tel":"031-541-5951","addr":"경기도 포천시 소흘읍 송우리 606-2","indutype":"음료식품 - 기타음료식품","category":"food"}]}]