[{"lat":"37.571811216","long":"127.18092863","imageIndex":13,"items":[{"name":"꽃머리","tel":"031-792-8895","addr":"경기도 하남시 선동 445번지 상가동 1층 104호 미사강변리슈빌엔에이치에프","indutype":"보건위생 - 미용원","category":"beauty"},{"name":"뷰에스","tel":"02-2298-6621","addr":"경기도 하남시 선동 445번지 미사강변리슈빌엔에이치애프 408동 1004호","indutype":"보건위생 - 화장품","category":"beauty"}]},{"lat":"37.573731762","long":"127.18586869","imageIndex":13,"items":[{"name":"라비다 헤어(La Vida HAIR)","tel":"031-796-9008","addr":"경기도 하남시 선동 427번지 근린생활시설동 미사강변더샵리버포레 109호","indutype":"보건위생 - 미용원","category":"beauty"},{"name":"민's Hair","tel":"031-749-5733","addr":"경기도 하남시 선동 427번지 미사강변 더샵 리버포레 2층 203호","indutype":"보건위생 - 미용원","category":"beauty"}]},{"lat":"37.576171862","long":"127.18687084","imageIndex":13,"items":[{"name":"성주현헤어홀릭","tel":"031-792-9963","addr":"경기도 하남시 선동 423번지 102호 미사강변도시9단지상가동1층","indutype":"보건위생 - 미용원","category":"beauty"}]},{"lat":"37.574096039","long":"127.18334522","imageIndex":13,"items":[{"name":"아르고 뷰티(argo beauty)","tel":"070-7565-9881","addr":"경기도 하남시 선동 436번지 미사강변센트리버 707동 1602호","indutype":"보건위생 - 미용재료","category":"beauty"},{"name":"후네일","tel":"02-1111-1111","addr":"경기도 하남시 선동 436번지 202-8호","indutype":"보건위생 - 피부미용실","category":"beauty"},{"name":"후헤어","tel":"031-793-8628","addr":"경기도 하남시 선동 436번지 미사강변도시7단지 상가동 202호","indutype":"보건위생 - 미용원","category":"beauty"}]},{"lat":"37.577422753","long":"127.17592701","imageIndex":13,"items":[{"name":"콕스인터내셔날","tel":"02-2203-8144","addr":"경기도 하남시 선동 247-3","indutype":"보건위생 - 화장품","category":"beauty"}]},{"lat":"37.576394429","long":"127.18276211","imageIndex":13,"items":[{"name":"헤브론헤어","tel":"031-793-1612","addr":"경기도 하남시 선동 433번지 2상가동 108호","indutype":"보건위생 - 미용원","category":"beauty"}]}]