[{"lat":"37.013659444","long":"127.07170456","imageIndex":0,"items":[{"name":"(자)합동자동차매매상사","tel":"031-656-8881","addr":"경기도 평택시 지제동 565-2번지","indutype":"자동차판매 - 중고자동차판매","category":"car"}]},{"lat":"37.012938545","long":"127.07178256","imageIndex":0,"items":[{"name":"EED카케어","tel":"","addr":"경기도 평택시 지제동 565-4번지","indutype":"자동차정비 유지 - 세차장","category":"car"}]},{"lat":"37.014488556","long":"127.07148057","imageIndex":0,"items":[{"name":"K2카","tel":"","addr":"경기도 평택시 지제동 564-5번지","indutype":"서비스업 - 자동차정비","category":"car"},{"name":"동원카독크","tel":"031-655-7573","addr":"경기도 평택시 지제동 564-5번지","indutype":"자동차정비 유지 - 자동차정비","category":"car"},{"name":"동원카독크","tel":"031-651-9145","addr":"경기도 평택시 지제동 564-5번지","indutype":"서비스업 - 자동차수리","category":"car"}]},{"lat":"37.019574955","long":"127.06342807","imageIndex":0,"items":[{"name":"거성중기상사","tel":"031-656-0507","addr":"경기도 평택시 지제동 841-1번지","indutype":"자동차정비 유지 - 중장비수리","category":"car"},{"name":"평택중기공업(주)","tel":"031-656-8915","addr":"경기도 평택시 지제동 841-1번지","indutype":"자동차정비 유지 - 중장비수리","category":"car"}]},{"lat":"37.017299949","long":"127.07137073","imageIndex":0,"items":[{"name":"대성상사","tel":"031-655-1663","addr":"경기도 평택시 지제동 560-1번지","indutype":"자동차정비 유지 - 자동차부품","category":"car"},{"name":"맥가이버흠집제거","tel":"031-221-8881","addr":"경기도 평택시 지제동 560-1번지","indutype":"자동차정비 유지 - 가타자동차서비스","category":"car"}]},{"lat":"37.0193268","long":"127.07231647","imageIndex":0,"items":[{"name":"사운드밸리","tel":"031-651-9145","addr":"경기도 평택시 지제동 613","indutype":"자동차정비 유지 - 자동차부품","category":"car"},{"name":"서울광택","tel":"031-653-8388","addr":"경기도 평택시 지제동 613 D동","indutype":"자동차정비 유지 - 카인테리어","category":"car"}]},{"lat":"37.019827425","long":"127.06309115","imageIndex":0,"items":[{"name":"사운드홀릭","tel":"031-682-0883","addr":"경기도 평택시 지제동 844번지 A","indutype":"자동차정비 유지 - 자동차부품","category":"car"}]},{"lat":"37.021099839","long":"127.07575674","imageIndex":0,"items":[{"name":"스피드메이트이마트평택점","tel":"031-618-2366","addr":"경기도 평택시 지제동 50번지","indutype":"자동차정비 유지 - 자동차정비","category":"car"}]},{"lat":"37.024155233","long":"127.05753182","imageIndex":0,"items":[{"name":"주식회사 삼성모터스","tel":"031-684-0095","addr":"경기도 평택시 지제동 302-20번지","indutype":"자동차판매 - 중고자동차판매","category":"car"}]},{"lat":"37.023795771","long":"127.05539637","imageIndex":0,"items":[{"name":"주식회사 양지로드","tel":"031-651-1150","addr":"경기도 평택시 지제동 302-5번지 B동 3호","indutype":"자동차정비 유지 - 주차장","category":"car"}]},{"lat":"37.018272572","long":"127.0722818","imageIndex":0,"items":[{"name":"지제모터스","tel":"031-655-3581","addr":"경기도 평택시 지제동 615-6번지","indutype":"자동차정비 유지 - 자동차정비","category":"car"}]},{"lat":"37.017407338","long":"127.0726406","imageIndex":0,"items":[{"name":"평택센타","tel":"031-652-7460","addr":"경기도 평택시 지제동 633-4번지","indutype":"자동차정비 유지 - 자동차부품","category":"car"}]},{"lat":"37.020295352","long":"127.06431639","imageIndex":0,"items":[{"name":"현서유카랜드","tel":"031-652-3237","addr":"경기도 평택시 지제동 838-2번지","indutype":"자동차정비 유지 - 자동차정비","category":"car"}]}]