[{"lat":"37.295117038","long":"126.86084612","imageIndex":13,"items":[{"name":"(주)플레이타임그룹 LM상록점 똑똑블럭","tel":"031-409-0970","addr":"경기도 안산시 상록구 본오동 880번지 롯데마트상록점 3층 블럭교실코너","indutype":"레저업소 - 기타레져업소","category":"leisure"}]},{"lat":"37.302040339","long":"126.86374311","imageIndex":13,"items":[{"name":"(주)플레이탑스키즈랜드","tel":"02-1577-0000","addr":"경기도 안산시 상록구 본오동 874번지 뉴라성관광호텔 501호","indutype":"레저업소 - 기타레져업소","category":"leisure"}]},{"lat":"37.282316247","long":"126.85573954","imageIndex":13,"items":[{"name":"1004노래연습장","tel":"031-501-8595","addr":"경기도 안산시 상록구 본오동 971-9번지","indutype":"레저업소 - 노 래 방","category":"leisure"}]},{"lat":"37.296507563","long":"126.86332473","imageIndex":13,"items":[{"name":"3POP PC방(본오동점)","tel":"031-000-0000","addr":"경기도 안산시 상록구 본오동 871-1번지 유경빌딩 지하층101-,101-2,102,103,104호","indutype":"레저업소 - 기타레져업소","category":"leisure"}]},{"lat":"37.29031169","long":"126.86604273","imageIndex":13,"items":[{"name":"CJ당구클럽","tel":"031-509-4188","addr":"경기도 안산시 상록구 본오동 913-11번지 3층","indutype":"레저업소 - 당 구 장","category":"leisure"}]},{"lat":"37.294430117","long":"126.86668939","imageIndex":13,"items":[{"name":"DJ노래연습장","tel":"031-501-1017","addr":"경기도 안산시 상록구 본오동 822-12번지 지하층","indutype":"레저업소 - 노 래 방","category":"leisure"}]},{"lat":"37.302150045","long":"126.8650964","imageIndex":13,"items":[{"name":"DVD영화감상실","tel":"031-408-3323","addr":"경기도 안산시 상록구 본오동 874-4번지 우정빌딩 305호","indutype":"레저업소 - 기타레져업소","category":"leisure"},{"name":"강타노래연습장","tel":"031-414-4910","addr":"경기도 안산시 상록구 본오동 874-4번지 우정빌딩","indutype":"레저업소 - 노 래 방","category":"leisure"},{"name":"디데이(D-day)","tel":"031-415-1118","addr":"경기도 안산시 상록구 본오동 874-4번지 우정빌딩 3층 305호","indutype":"레저업소 - 기타레져업소","category":"leisure"}]},{"lat":"37.2959579","long":"126.86329191","imageIndex":13,"items":[{"name":"GYM808(짐808)","tel":"070-8824-0808","addr":"경기도 안산시 상록구 본오동 871-4번지 청록빌딩 지층 101호","indutype":"레저업소 - 헬스클럽","category":"leisure"},{"name":"환상노래연습장","tel":"031-416-9615","addr":"경기도 안산시 상록구 본오동 871-4청록빌딩지층103호,104호","indutype":"레저업소 - 노 래 방","category":"leisure"}]},{"lat":"37.298173894","long":"126.86284795","imageIndex":13,"items":[{"name":"MAX당구장","tel":"031-419-3391","addr":"경기도 안산시 상록구 본오동 879-8 201호~202호","indutype":"레저업소 - 당 구 장","category":"leisure"},{"name":"MAX당구클럽","tel":"031-419-3391","addr":"경기도 안산시 상록구 본오동 879-8번지 201호,202호","indutype":"레저업소 - 당 구 장","category":"leisure"},{"name":"갤러리PC","tel":"070-1618-4318","addr":"경기도 안산시 상록구 본오동 879-8번지 대한빌딩 지층 102호","indutype":"레저업소 - 기타레져업소","category":"leisure"}]},{"lat":"37.292953513","long":"126.85995925","imageIndex":13,"items":[{"name":"MBC노래연습장","tel":"031-409-4476","addr":"경기도 안산시 상록구 본오동 888-17번지 B01호","indutype":"레저업소 - 노 래 방","category":"leisure"}]},{"lat":"37.292985052","long":"126.87163164","imageIndex":13,"items":[{"name":"MBC당구장","tel":"032-468-5171","addr":"경기도 안산시 상록구 본오동 829-2번지 2층 201호","indutype":"레저업소 - 당 구 장","category":"leisure"},{"name":"MBC당구장","tel":"031-000-0000","addr":"경기도 안산시 상록구 본오동 829-2번지","indutype":"레저업소 - 당 구 장","category":"leisure"}]},{"lat":"37.301338191","long":"126.86429707","imageIndex":13,"items":[{"name":"M당구장","tel":"031-416-3999","addr":"경기도 안산시 상록구 본오동 873-1번지 401,402호","indutype":"레저업소 - 당 구 장","category":"leisure"},{"name":"엠(M)당구장","tel":"031-416-3999","addr":"경기도 안산시 상록구 본오동 873-1번지 401,402호 상가동","indutype":"레저업소 - 당 구 장","category":"leisure"}]},{"lat":"37.28997809","long":"126.86585162","imageIndex":13,"items":[{"name":"OK 노래연습장","tel":"031-409-7122","addr":"경기도 안산시 상록구 본오동 914번지","indutype":"레저업소 - 노 래 방","category":"leisure"},{"name":"OK노래연습장","tel":"031-409-7122","addr":"경기도 안산시 상록구 본오동 914번지","indutype":"레저업소 - 노 래 방","category":"leisure"},{"name":"오케이(OK)노래연습장","tel":"031-406-7584","addr":"경기도 안산시 상록구 본오동 914번지 2층","indutype":"레저업소 - 노 래 방","category":"leisure"}]},{"lat":"37.292840097","long":"126.86307211","imageIndex":13,"items":[{"name":"OK노래연습장","tel":"031-408-6569","addr":"경기도 안산시 상록구 본오동 870-14번지","indutype":"레저업소 - 노 래 방","category":"leisure"}]},{"lat":"37.290285206","long":"126.86651643","imageIndex":13,"items":[{"name":"PEAK PC방","tel":"070-7423-6603","addr":"경기도 안산시 상록구 본오동 854-16번지 2층","indutype":"레저업소 - 기타레져업소","category":"leisure"},{"name":"샤넬노래연습장","tel":"031-502-2160","addr":"경기도 안산시 상록구 본오동 854-16번지 지층","indutype":"레저업소 - 노 래 방","category":"leisure"},{"name":"쎄븐당구장","tel":"031-407-3377","addr":"경기도 안산시 상록구 본오동 854-16번지 3층","indutype":"레저업소 - 당 구 장","category":"leisure"}]},{"lat":"37.298372118","long":"126.86284758","imageIndex":13,"items":[{"name":"SBS노래연습장","tel":"031-406-9611","addr":"경기도 안산시 상록구 본오동 879-7번지 다산빌딩 지층 105호","indutype":"레저업소 - 노 래 방","category":"leisure"}]},{"lat":"37.29231429","long":"126.86806908","imageIndex":13,"items":[{"name":"irene_x_jackfit","tel":"","addr":"경기도 안산시 상록구 본오동 859-8번지 203호","indutype":"레저업소 - 헬스클럽","category":"leisure"}]},{"lat":"37.290681149","long":"126.86607589","imageIndex":13,"items":[{"name":"가이스노래연습장","tel":"031-406-7984","addr":"경기도 안산시 상록구 본오동 913-9번지 지층","indutype":"레저업소 - 노 래 방","category":"leisure"}]},{"lat":"37.299787481","long":"126.86348785","imageIndex":13,"items":[{"name":"가자노래연습장","tel":"031-502-9340","addr":"경기도 안산시 상록구 본오동 872-6번지","indutype":"레저업소 - 노 래 방","category":"leisure"},{"name":"수 노래연습장","tel":"031-408-6805","addr":"경기도 안산시 상록구 본오동 872-6번지 안산석천빌딩 지하1층 비1호","indutype":"레저업소 - 노 래 방","category":"leisure"}]},{"lat":"37.288400068","long":"126.86479444","imageIndex":13,"items":[{"name":"감초노래연습장","tel":"031-408-4236","addr":"경기도 안산시 상록구 본오동 667-2번지 지층","indutype":"레저업소 - 노 래 방","category":"leisure"}]},{"lat":"37.296344686","long":"126.86273856","imageIndex":13,"items":[{"name":"고래노래연습장","tel":"","addr":"경기도 안산시 상록구 본오동 880-2번지 제지층 비2호,비3호","indutype":"레저업소 - 노 래 방","category":"leisure"}]},{"lat":"37.300616487","long":"126.86354271","imageIndex":13,"items":[{"name":"국제","tel":"031-406-2682","addr":"경기도 안산시 상록구 본오동 872-2번지 국제프라자 지하 101호","indutype":"레저업소 - 헬스클럽","category":"leisure"},{"name":"피에스타PC 상록수역점","tel":"","addr":"경기도 안산시 상록구 본오동 872-2번지 국제프라자 지하1층 제비102,103호","indutype":"레저업소 - 기타레져업소","category":"leisure"}]},{"lat":"37.286734145","long":"126.86563197","imageIndex":13,"items":[{"name":"궁노래연습장","tel":"031-407-9415","addr":"경기도 안산시 상록구 본오동 673-4번지 지하","indutype":"레저업소 - 노 래 방","category":"leisure"}]},{"lat":"37.300978073","long":"126.86454587","imageIndex":13,"items":[{"name":"궁전노래연습장","tel":"031-407-7517","addr":"경기도 안산시 상록구 본오동 873-10번지 해동프라자 305호","indutype":"레저업소 - 노 래 방","category":"leisure"},{"name":"궁전노래연습장","tel":"031-502-4435","addr":"경기도 안산시 상록구 본오동 873-10번지 해동프라자 3층","indutype":"레저업소 - 노 래 방","category":"leisure"},{"name":"형제당구클럽","tel":"031-495-2337","addr":"경기도 안산시 상록구 본오동 873-10번지 해동프라자 301동 303호","indutype":"레저업소 - 당 구 장","category":"leisure"}]},{"lat":"37.297120284","long":"126.86334615","imageIndex":13,"items":[{"name":"궁전노래연습장","tel":"031-418-8901","addr":"경기도 안산시 상록구 본오동 872-18번지 동성빌딩 B02호","indutype":"레저업소 - 노 래 방","category":"leisure"}]},{"lat":"37.293704518","long":"126.86259684","imageIndex":13,"items":[{"name":"그레이PC방","tel":"","addr":"경기도 안산시 상록구 본오동 880-15번지 지하1층 103호,104호","indutype":"레저업소 - 기타레져업소","category":"leisure"}]},{"lat":"37.288203205","long":"126.86596761","imageIndex":13,"items":[{"name":"그린노래연습장","tel":"031-223-5214","addr":"경기도 안산시 상록구 본오동 667-11번지","indutype":"레저업소 - 노 래 방","category":"leisure"}]},{"lat":"37.290207099","long":"126.8691329","imageIndex":13,"items":[{"name":"그린존PC방","tel":"070-5020-5333","addr":"경기도 안산시 상록구 본오동 850-12번지 2층","indutype":"레저업소 - 기타레져업소","category":"leisure"}]},{"lat":"37.294818887","long":"126.87599305","imageIndex":13,"items":[{"name":"김재영 당구클럽","tel":"001-0000-0000","addr":"경기도 안산시 상록구 본오동 741-5번지 3층","indutype":"레저업소 - 당 구 장","category":"leisure"},{"name":"대한민국노래연습장","tel":"031-406-5195","addr":"경기도 안산시 상록구 본오동 741-5번지","indutype":"레저업소 - 노 래 방","category":"leisure"},{"name":"대한민국노래연습장","tel":"031-416-9559","addr":"경기도 안산시 상록구 본오동 741-5번지 2층","indutype":"레저업소 - 노 래 방","category":"leisure"}]},{"lat":"37.29776005","long":"126.8633788","imageIndex":13,"items":[{"name":"김탁구클럽","tel":"031-438-0099","addr":"경기도 안산시 상록구 본오동 872-15번지 화정빌딩 지하층 101,102호","indutype":"레저업소 - 기타레져업소","category":"leisure"}]},{"lat":"37.298255652","long":"126.86341172","imageIndex":13,"items":[{"name":"꿀짱노래연습장","tel":"031-502-2388","addr":"경기도 안산시 상록구 본오동 872-13번지 상록빌딩 지하 103호","indutype":"레저업소 - 노 래 방","category":"leisure"},{"name":"꿀짱노래연습장","tel":"","addr":"경기도 안산시 상록구 본오동 872-13번지 상록빌딩","indutype":"레저업소 - 노 래 방","category":"leisure"},{"name":"유나요가 앤 필라테스","tel":"031-406-9884","addr":"경기도 안산시 상록구 본오동 872-13번지 지하1층 비1호,비2호","indutype":"레저업소 - 헬스클럽","category":"leisure"}]},{"lat":"37.296343419","long":"126.86943783","imageIndex":13,"items":[{"name":"남프로 골프아카데미","tel":"031-403-8273","addr":"경기도 안산시 상록구 본오동 815-7번지 3층","indutype":"레저업소 - 골프연습장","category":"leisure"},{"name":"볼&큐 빌리어드클럽","tel":"031-494-3060","addr":"경기도 안산시 상록구 본오동 815-7번지 4층","indutype":"레저업소 - 당 구 장","category":"leisure"},{"name":"볼&큐빌리어드클럽","tel":"031-111-1111","addr":"경기도 안산시 상록구 본오동 815-7번지 4층","indutype":"레저업소 - 당 구 장","category":"leisure"},{"name":"왕노래연습장","tel":"031-408-6940","addr":"경기도 안산시 상록구 본오동 815-7번지","indutype":"레저업소 - 노 래 방","category":"leisure"}]},{"lat":"37.300482677","long":"126.87263371","imageIndex":13,"items":[{"name":"낭랑노래연습장","tel":"031-409-3680","addr":"경기도 안산시 상록구 본오동 1126번지","indutype":"레저업소 - 노 래 방","category":"leisure"}]},{"lat":"37.29273535","long":"126.8659594","imageIndex":13,"items":[{"name":"넘버원당구장","tel":"","addr":"경기도 안산시 상록구 본오동 862-14번지 4층","indutype":"레저업소 - 당 구 장","category":"leisure"}]},{"lat":"37.293926718","long":"126.87584793","imageIndex":13,"items":[{"name":"노다지노래연습장","tel":"031-406-0019","addr":"경기도 안산시 상록구 본오동 736-1번지 3층","indutype":"레저업소 - 노 래 방","category":"leisure"},{"name":"이스테이션 PC방","tel":"031-409-0270","addr":"경기도 안산시 상록구 본오동 736-1번지 1층","indutype":"레저업소 - 기타레져업소","category":"leisure"}]},{"lat":"37.294923756","long":"126.87299292","imageIndex":13,"items":[{"name":"노블레스PC","tel":"","addr":"경기도 안산시 상록구 본오동 769-19번지 3층","indutype":"레저업소 - 기타레져업소","category":"leisure"},{"name":"안산노래연습장","tel":"031-419-3926","addr":"경기도 안산시 상록구 본오동 769-19번지 2층","indutype":"레저업소 - 노 래 방","category":"leisure"},{"name":"안산노래연습장","tel":"031-419-3926","addr":"경기도 안산시 상록구 본오동 769-19번지","indutype":"레저업소 - 노 래 방","category":"leisure"}]},{"lat":"37.29789455","long":"126.86282591","imageIndex":13,"items":[{"name":"놀러와실내낚시 안산본오점","tel":"031-409-3674","addr":"경기도 안산시 상록구 본오동 879-9번지 창원빌딩 제지하층 제비2호,제비3호","indutype":"레저업소 - 기타레져업소","category":"leisure"},{"name":"상록수스크린골프아카데미","tel":"031-409-5430","addr":"경기도 안산시 상록구 본오동 879-9번지 창원빌딩 2층","indutype":"레저업소 - 스크린골프","category":"leisure"},{"name":"킹노래연습장","tel":"031-408-4044","addr":"경기도 안산시 상록구 본오동 879-9번지 창원빌딩 지하 1호","indutype":"레저업소 - 노 래 방","category":"leisure"}]},{"lat":"37.289924771","long":"126.86649452","imageIndex":13,"items":[{"name":"대박노래연습장","tel":"031-438-4567","addr":"경기도 안산시 상록구 본오동 722번지 301호","indutype":"레저업소 - 노 래 방","category":"leisure"},{"name":"본피씨(BORN PC)","tel":"","addr":"경기도 안산시 상록구 본오동 722번지 4층 401호","indutype":"레저업소 - 기타레져업소","category":"leisure"}]},{"lat":"37.295040814","long":"126.86496275","imageIndex":13,"items":[{"name":"더온필라테스 안산점","tel":"031-409-8257","addr":"경기도 안산시 상록구 본오동 871번지 신안프라자상가 126동 312호","indutype":"레저업소 - 헬스클럽","category":"leisure"},{"name":"브릴리언트 S.M.T","tel":"031-409-8257","addr":"경기도 안산시 상록구 본오동 871번지 126동 2층 229-234, 254-256,259,262,263,277-279","indutype":"레저업소 - 헬스클럽","category":"leisure"}]},{"lat":"37.294930015","long":"126.86268479","imageIndex":13,"items":[{"name":"더캠프PC방안산본오점","tel":"070-5020-5333","addr":"경기도 안산시 상록구 본오동 880-9번지 돈스쿨 B1호","indutype":"레저업소 - 기타레져업소","category":"leisure"},{"name":"스타노래연습장","tel":"031-502-5053","addr":"경기도 안산시 상록구 본오동 880-9번지 돈스쿨 지하층 102호","indutype":"레저업소 - 노 래 방","category":"leisure"}]},{"lat":"37.297705336","long":"126.86282626","imageIndex":13,"items":[{"name":"데일리PC","tel":"","addr":"경기도 안산시 상록구 본오동 879-10번지 초원빌딩 201호","indutype":"레저업소 - 기타레져업소","category":"leisure"},{"name":"호박노래연습장","tel":"031-501-1473","addr":"경기도 안산시 상록구 본오동 879-10번지","indutype":"레저업소 - 노 래 방","category":"leisure"}]},{"lat":"37.301817126","long":"126.86549177","imageIndex":13,"items":[{"name":"도널드노래연습장","tel":"031-407-6027","addr":"경기도 안산시 상록구 본오동 874-9번지 상록수 상가 304호","indutype":"레저업소 - 노 래 방","category":"leisure"},{"name":"도널드노래연습장","tel":"031-407-6027","addr":"경기도 안산시 상록구 본오동 874-9번지 상록수 304호","indutype":"레저업소 - 노 래 방","category":"leisure"},{"name":"리즈 플라잉&필라테스(상록수역점)","tel":"031-410-9682","addr":"경기도 안산시 상록구 본오동 874-9번지 상록수 501호","indutype":"레저업소 - 헬스클럽","category":"leisure"},{"name":"리즈플라잉요가","tel":"031-418-8687","addr":"경기도 안산시 상록구 본오동 874-9번지 상록수 상가 5층 501호","indutype":"레저업소 - 헬스클럽","category":"leisure"},{"name":"심쿵ll노래연습장","tel":"","addr":"경기도 안산시 상록구 본오동 874-9번지 상록수 상가 401호","indutype":"레저업소 - 노 래 방","category":"leisure"},{"name":"아이비스PC","tel":"","addr":"경기도 안산시 상록구 본오동 874-9번지 상록수 4층 404호","indutype":"레저업소 - 기타레져업소","category":"leisure"}]},{"lat":"37.301312069","long":"126.86507537","imageIndex":13,"items":[{"name":"디브이디 (DVD)노래연습장","tel":"031-415-7599","addr":"경기도 안산시 상록구 본오동 873-3번지 유니온프라자 3층 304,305호","indutype":"레저업소 - 노 래 방","category":"leisure"}]},{"lat":"37.296729029","long":"126.86782435","imageIndex":13,"items":[{"name":"딸기노래연습장","tel":"031-418-4151","addr":"경기도 안산시 상록구 본오동 805-18번지 지하 B01","indutype":"레저업소 - 노 래 방","category":"leisure"}]},{"lat":"37.299762313","long":"126.8650782","imageIndex":13,"items":[{"name":"땡벌노래연습장","tel":"031-407-1977","addr":"경기도 안산시 상록구 본오동 872번지 지층2~4,16~18호","indutype":"레저업소 - 노 래 방","category":"leisure"},{"name":"월드노래연습장","tel":"031-502-3195","addr":"경기도 안산시 상록구 본오동 872","indutype":"레저업소 - 노 래 방","category":"leisure"}]},{"lat":"37.297151359","long":"126.86681983","imageIndex":13,"items":[{"name":"땡큐노래연습장","tel":"031-438-5009","addr":"경기도 안산시 상록구 본오동 813-15번지","indutype":"레저업소 - 노 래 방","category":"leisure"},{"name":"땡큐노래연습장","tel":"031-438-5009","addr":"경기도 안산시 상록구 본오동 813-15번지 B101호","indutype":"레저업소 - 노 래 방","category":"leisure"}]},{"lat":"37.302176167","long":"126.86431809","imageIndex":13,"items":[{"name":"라반휘트니스","tel":"031-415-2022","addr":"경기도 안산시 상록구 본오동 874-2번지 송암빌딩 4층 404.405호","indutype":"레저업소 - 헬스클럽","category":"leisure"},{"name":"바나나짐 상록수역점","tel":"031-410-4104","addr":"경기도 안산시 상록구 본오동 874-2번지 301,302호","indutype":"레저업소 - 헬스클럽","category":"leisure"},{"name":"에스바디워크필라테스상록수점 평생교육원","tel":"031-406-9609","addr":"경기도 안산시 상록구 본오동 874-2번지 송암빌딩 2층 202,203호","indutype":"레저업소 - 헬스클럽","category":"leisure"},{"name":"차차차노래연습장","tel":"031-408-7727","addr":"경기도 안산시 상록구 본오동 874-2번지 송암빌딩 303호","indutype":"레저업소 - 노 래 방","category":"leisure"}]},{"lat":"37.294619358","long":"126.86671161","imageIndex":13,"items":[{"name":"라이브노래연습장","tel":"070-8816-1183","addr":"경기도 안산시 상록구 본오동 822-13번지 지하층","indutype":"레저업소 - 노 래 방","category":"leisure"}]},{"lat":"37.287203473","long":"126.866319","imageIndex":13,"items":[{"name":"러브노래연습장","tel":"031-407-6287","addr":"경기도 안산시 상록구 본오동 715번지 지하","indutype":"레저업소 - 노 래 방","category":"leisure"}]},{"lat":"37.301092561","long":"126.86230115","imageIndex":13,"items":[{"name":"럭셔리노래연습장","tel":"031-406-0168","addr":"경기도 안산시 상록구 본오동 878-8번지 상록빌딩 303호","indutype":"레저업소 - 노 래 방","category":"leisure"}]},{"lat":"37.295759675","long":"126.86329227","imageIndex":13,"items":[{"name":"만월","tel":"031-000-0000","addr":"경기도 안산시 상록구 본오동 871-5번지 우남빌딩 지하1층 101,102,103호","indutype":"레저업소 - 기타레져업소","category":"leisure"}]},{"lat":"37.292623852","long":"126.86307251","imageIndex":13,"items":[{"name":"매니아당구","tel":"","addr":"경기도 안산시 상록구 본오동 868번지 4층","indutype":"레저업소 - 당 구 장","category":"leisure"}]},{"lat":"37.296729222","long":"126.86799353","imageIndex":13,"items":[{"name":"메아리노래연습장","tel":"031-400-9545","addr":"경기도 안산시 상록구 본오동 805-17번지 지층","indutype":"레저업소 - 노 래 방","category":"leisure"}]},{"lat":"37.29334243","long":"126.86118779","imageIndex":13,"items":[{"name":"명품노래연습장","tel":"031-415-5827","addr":"경기도 안산시 상록구 본오동 889-9번지 2층","indutype":"레저업소 - 노 래 방","category":"leisure"}]},{"lat":"37.293398908","long":"126.87107831","imageIndex":13,"items":[{"name":"모아노래연습장","tel":"031-1111-1111","addr":"경기도 안산시 상록구 본오동 783-4번지 지하","indutype":"레저업소 - 노 래 방","category":"leisure"}]},{"lat":"37.293367724","long":"126.85974419","imageIndex":13,"items":[{"name":"물노래연습장(MOOL노래연습장)","tel":"031-362-6000","addr":"경기도 안산시 상록구 본오동 890번지 2층","indutype":"레저업소 - 노 래 방","category":"leisure"},{"name":"큐당구클럽","tel":"070-7007-0000","addr":"경기도 안산시 상록구 본오동 890번지 3층","indutype":"레저업소 - 당 구 장","category":"leisure"},{"name":"큐당구클럽","tel":"070-4254-0160","addr":"경기도 안산시 상록구 본오동 890번지 3층","indutype":"레저업소 - 당 구 장","category":"leisure"}]},{"lat":"37.300699467","long":"126.87312961","imageIndex":13,"items":[{"name":"미소노래연습장","tel":"","addr":"경기도 안산시 상록구 본오동 1129-8번지 지층","indutype":"레저업소 - 노 래 방","category":"leisure"}]},{"lat":"37.297926342","long":"126.86690866","imageIndex":13,"items":[{"name":"미엘요가 앤 필라테스","tel":"031-399-7444","addr":"경기도 안산시 상록구 본오동 810-2번지 기산빌딩 4층","indutype":"레저업소 - 헬스클럽","category":"leisure"}]},{"lat":"37.297317857","long":"126.86279314","imageIndex":13,"items":[{"name":"미인노래연습장","tel":"031-502-1131","addr":"경기도 안산시 상록구 본오동 879-12번지 유창빌딩 B101호","indutype":"레저업소 - 노 래 방","category":"leisure"}]},{"lat":"37.29429025","long":"126.86265215","imageIndex":13,"items":[{"name":"보라카이짐(본오점)","tel":"031-000-0000","addr":"경기도 안산시 상록구 본오동 880-12번지 굿모닝리빙프라자 II 203호","indutype":"레저업소 - 헬스클럽","category":"leisure"}]},{"lat":"37.300725378","long":"126.86419669","imageIndex":13,"items":[{"name":"복돼지노래연습장","tel":"031-408-2866","addr":"경기도 안산시 상록구 본오동 872월드상가3-201","indutype":"레저업소 - 노 래 방","category":"leisure"}]},{"lat":"37.290372279","long":"126.8639112","imageIndex":13,"items":[{"name":"본오가브리엘당구클럽","tel":"","addr":"경기도 안산시 상록구 본오동 909-9번지 한은빌딩 2층","indutype":"레저업소 - 당 구 장","category":"leisure"}]},{"lat":"37.295374143","long":"126.87287936","imageIndex":13,"items":[{"name":"본오노래연습장","tel":"070-7664-0314","addr":"경기도 안산시 상록구 본오동 769-1번지","indutype":"레저업소 - 노 래 방","category":"leisure"}]},{"lat":"37.295094789","long":"126.87284601","imageIndex":13,"items":[{"name":"본오노래연습장","tel":"031-419-1311","addr":"경기도 안산시 상록구 본오동 769-3번지","indutype":"레저업소 - 노 래 방","category":"leisure"}]},{"lat":"37.296421726","long":"126.86699031","imageIndex":13,"items":[{"name":"부름코인노래연습장","tel":"","addr":"경기도 안산시 상록구 본오동 814-1번지 2층 201호","indutype":"레저업소 - 노 래 방","category":"leisure"},{"name":"아임점핑","tel":"031-406-1217","addr":"경기도 안산시 상록구 본오동 814-1번지 3층 301호","indutype":"레저업소 - 헬스클럽","category":"leisure"}]},{"lat":"37.297119632","long":"126.86279351","imageIndex":13,"items":[{"name":"브라보노래연습장","tel":"031-415-7399","addr":"경기도 안산시 상록구 본오동 879-13번지 녹원빌딩 지하층","indutype":"레저업소 - 노 래 방","category":"leisure"},{"name":"즐거운다락방","tel":"070-4131-0960","addr":"경기도 안산시 상록구 본오동 879-13번지 녹원빌딩 2층 201호 ,202,203,204호","indutype":"레저업소 - 기타레져업소","category":"leisure"}]},{"lat":"37.300979595","long":"126.86585422","imageIndex":13,"items":[{"name":"빌포츠당구클럽","tel":"02-111-1111","addr":"경기도 안산시 상록구 본오동 873-7번지 리치스빌딩 501호","indutype":"레저업소 - 당 구 장","category":"leisure"},{"name":"클릭만화방","tel":"031-418-8225","addr":"경기도 안산시 상록구 본오동 873-7번지 리치스빌딩 401호","indutype":"레저업소 - 기타레져업소","category":"leisure"}]},{"lat":"37.301337609","long":"126.8638008","imageIndex":13,"items":[{"name":"빙고노래연습장","tel":"031-418-3335","addr":"경기도 안산시 상록구 본오동 873번지 본오3동주민센터 2층 202호","indutype":"레저업소 - 노 래 방","category":"leisure"}]},{"lat":"37.301338639","long":"126.86468056","imageIndex":13,"items":[{"name":"빙고노래연습장","tel":"031-505-3854","addr":"경기도 안산시 상록구 본오동 873-2번지 본오프라자 202호","indutype":"레저업소 - 노 래 방","category":"leisure"}]},{"lat":"37.291204288","long":"126.8665486","imageIndex":13,"items":[{"name":"뽀빠이 헬스크럽","tel":"","addr":"경기도 안산시 상록구 본오동 855-17번지 401호","indutype":"레저업소 - 헬스클럽","category":"leisure"}]},{"lat":"37.286759229","long":"126.86396295","imageIndex":13,"items":[{"name":"사라노래연습장","tel":"031-409-5147","addr":"경기도 안산시 상록구 본오동 674번지","indutype":"레저업소 - 노 래 방","category":"leisure"},{"name":"이수당구클럽","tel":"031-405-4404","addr":"경기도 안산시 상록구 본오동 674번지","indutype":"레저업소 - 당 구 장","category":"leisure"}]},{"lat":"37.302039381","long":"126.86293102","imageIndex":13,"items":[{"name":"사이버리아인터넷노래연습장","tel":"031-409-8491","addr":"경기도 안산시 상록구 본오동 877-8번지 올림포스보노피아 3층 330호","indutype":"레저업소 - 노 래 방","category":"leisure"},{"name":"아인스스크린","tel":"031-418-6677","addr":"경기도 안산시 상록구 본오동 877-8번지 4층","indutype":"레저업소 - 스크린골프","category":"leisure"},{"name":"큐당구장","tel":"","addr":"경기도 안산시 상록구 본오동 877-8번지 올림포스보노피아 403호","indutype":"레저업소 - 당 구 장","category":"leisure"}]},{"lat":"37.290955419","long":"126.86954884","imageIndex":13,"items":[{"name":"사이버캐슬피시방","tel":"031-635-4856","addr":"경기도 안산시 상록구 본오동 839-9번지","indutype":"레저업소 - 기타레져업소","category":"leisure"}]},{"lat":"37.29328966","long":"126.86227056","imageIndex":13,"items":[{"name":"상록수노래연습장","tel":"031-407-6609","addr":"경기도 안산시 상록구 본오동 882-6번지 지하","indutype":"레저업소 - 노 래 방","category":"leisure"}]},{"lat":"37.30186982","long":"126.86431865","imageIndex":13,"items":[{"name":"상록수당구장","tel":"031-483-3060","addr":"경기도 안산시 상록구 본오동 874-12번지 신영빌딩 302호","indutype":"레저업소 - 당 구 장","category":"leisure"},{"name":"안산락클라이밍","tel":"031-501-8848","addr":"경기도 안산시 상록구 본오동 874-12번지","indutype":"레저업소 - 기타레져업소","category":"leisure"},{"name":"탑툰 만화방","tel":"070-4900-5343","addr":"경기도 안산시 상록구 본오동 874-12번지 신영빌딩 5층 501-504호","indutype":"레저업소 - 기타레져업소","category":"leisure"}]},{"lat":"37.295506709","long":"126.86271756","imageIndex":13,"items":[{"name":"소리골노래연습장","tel":"031-419-8223","addr":"경기도 안산시 상록구 본오동 880-6 지하103,104,105호","indutype":"레저업소 - 노 래 방","category":"leisure"},{"name":"소리골노래연습장","tel":"031-419-8223","addr":"경기도 안산시 상록구 본오동 880-6번지","indutype":"레저업소 - 노 래 방","category":"leisure"},{"name":"필당구클럽","tel":"070-4224-0929","addr":"경기도 안산시 상록구 본오동 880-6번지 202호,203호","indutype":"레저업소 - 당 구 장","category":"leisure"}]},{"lat":"37.288924571","long":"126.86643994","imageIndex":13,"items":[{"name":"수노래연습장","tel":"031-407-6357","addr":"경기도 안산시 상록구 본오동 720-10번지 2층 201호","indutype":"레저업소 - 노 래 방","category":"leisure"}]},{"lat":"37.295317495","long":"126.86271791","imageIndex":13,"items":[{"name":"수앤지줄넘기GX전문클럽","tel":"031-407-0288","addr":"경기도 안산시 상록구 본오동 880-7번지 강동빌딩 2층 201,203호","indutype":"레저업소 - 헬스클럽","category":"leisure"},{"name":"아쉬탕가 살린요가 상록수점","tel":"031-407-0288","addr":"경기도 안산시 상록구 본오동 880-7번지 201,203호","indutype":"레저업소 - 헬스클럽","category":"leisure"}]},{"lat":"37.295123995","long":"126.86676709","imageIndex":13,"items":[{"name":"스마일키즈카페","tel":"031-501-8700","addr":"경기도 안산시 상록구 본오동 819-14번지 301호","indutype":"레저업소 - 기타레져업소","category":"leisure"}]},{"lat":"37.287902839","long":"126.86337445","imageIndex":13,"items":[{"name":"스위티PC방","tel":"","addr":"경기도 안산시 상록구 본오동 948-15번지 2층","indutype":"레저업소 - 기타레져업소","category":"leisure"}]},{"lat":"37.302123957","long":"126.86590854","imageIndex":13,"items":[{"name":"스카이노래연습장","tel":"","addr":"경기도 안산시 상록구 본오동 874-6번지 대동빌딩 5층 501호","indutype":"레저업소 - 노 래 방","category":"leisure"},{"name":"스카이노래연습장","tel":"031-418-2522","addr":"경기도 안산시 상록구 본오동 874-6번지 대동빌딩 501호","indutype":"레저업소 - 노 래 방","category":"leisure"},{"name":"주식회사 다나한요가 상록수점","tel":"031-111-1111","addr":"경기도 안산시 상록구 본오동 874-6번지 대동빌딩 2층 202호","indutype":"레저업소 - 헬스클럽","category":"leisure"}]},{"lat":"37.297701216","long":"126.86702185","imageIndex":13,"items":[{"name":"스타노래연습장","tel":"031-417-8577","addr":"경기도 안산시 상록구 본오동 813-1번지 지층","indutype":"레저업소 - 노 래 방","category":"leisure"}]},{"lat":"37.28678577","long":"126.86354566","imageIndex":13,"items":[{"name":"스토리PC","tel":"","addr":"경기도 안산시 상록구 본오동 949-5번지 2층","indutype":"레저업소 - 기타레져업소","category":"leisure"}]},{"lat":"37.29672881","long":"126.86763262","imageIndex":13,"items":[{"name":"스토리pc방","tel":"031-000-0000","addr":"경기도 안산시 상록구 본오동 805-19번지 2층","indutype":"레저업소 - 기타레져업소","category":"leisure"}]},{"lat":"37.300400215","long":"126.86352055","imageIndex":13,"items":[{"name":"스트라이크존 상록수역 구장","tel":"031-409-0972","addr":"경기도 안산시 상록구 본오동 872-3번지 안산송촌빌딩 2층 201호","indutype":"레저업소 - 기타레져업소","category":"leisure"}]},{"lat":"37.287903105","long":"126.86359999","imageIndex":13,"items":[{"name":"스틸시리즈PC","tel":"070-3326-5047","addr":"경기도 안산시 상록구 본오동 948-22번지 201호","indutype":"레저업소 - 기타레져업소","category":"leisure"}]},{"lat":"37.30184325","long":"126.86471347","imageIndex":13,"items":[{"name":"스페이스핏","tel":"031-407-8226","addr":"경기도 안산시 상록구 본오동 874-11번지 삼우프라자 501-1, 502호","indutype":"레저업소 - 헬스클럽","category":"leisure"},{"name":"지코당구클럽","tel":"070-4191-4700","addr":"경기도 안산시 상록구 본오동 874-11번지 삼우프라자 503동 504호","indutype":"레저업소 - 당 구 장","category":"leisure"},{"name":"하모니노래연습장","tel":"031-416-6766","addr":"경기도 안산시 상록구 본오동 874-11번지 삼우프라자 303호","indutype":"레저업소 - 노 래 방","category":"leisure"}]},{"lat":"37.285959514","long":"126.86584763","imageIndex":13,"items":[{"name":"신나는88노래연습장","tel":"031-407-4947","addr":"경기도 안산시 상록구 본오동 677-5번지","indutype":"레저업소 - 노 래 방","category":"leisure"}]},{"lat":"37.295957247","long":"126.86273928","imageIndex":13,"items":[{"name":"신한노래방","tel":"031-417-0818","addr":"경기도 안산시 상록구 본오동 880-4번지 혜연빌딩 지하층 101호","indutype":"레저업소 - 노 래 방","category":"leisure"}]},{"lat":"37.299976735","long":"126.86352133","imageIndex":13,"items":[{"name":"쌍쌍노래연습장","tel":"02-000-0000","addr":"경기도 안산시 상록구 본오동 872-5번지 뉴경남빌딩","indutype":"레저업소 - 노 래 방","category":"leisure"},{"name":"오투(O2)노래연습장","tel":"","addr":"경기도 안산시 상록구 본오동 872-5번지 뉴경남빌딩","indutype":"레저업소 - 노 래 방","category":"leisure"}]},{"lat":"37.301095458","long":"126.87271161","imageIndex":13,"items":[{"name":"써니노래연습장","tel":"031-416-5226","addr":"경기도 안산시 상록구 본오동 1118-8번지","indutype":"레저업소 - 노 래 방","category":"leisure"}]},{"lat":"37.296677038","long":"126.86965153","imageIndex":13,"items":[{"name":"썬노래연습장","tel":"031-409-6357","addr":"경기도 안산시 상록구 본오동 804-16번지","indutype":"레저업소 - 노 래 방","category":"leisure"}]},{"lat":"37.292124204","long":"126.85965632","imageIndex":13,"items":[{"name":"아미띠에당구클럽","tel":"070-4086-4965","addr":"경기도 안산시 상록구 본오동 893-10번지","indutype":"레저업소 - 당 구 장","category":"leisure"}]},{"lat":"37.290311403","long":"126.86579463","imageIndex":13,"items":[{"name":"아이비스PC","tel":"","addr":"경기도 안산시 상록구 본오동 913-12번지 3층","indutype":"레저업소 - 기타레져업소","category":"leisure"},{"name":"필노래연습장","tel":"031-406-1818","addr":"경기도 안산시 상록구 본오동 913-12번지 1동 401호","indutype":"레저업소 - 노 래 방","category":"leisure"}]},{"lat":"37.299951582","long":"126.87309706","imageIndex":13,"items":[{"name":"아지트당구장","tel":"031-407-7289","addr":"경기도 안산시 상록구 본오동 1142-4번지 3층","indutype":"레저업소 - 당 구 장","category":"leisure"},{"name":"아지트당구장","tel":"","addr":"경기도 안산시 상록구 본오동 1142-4번지 3층","indutype":"레저업소 - 당 구 장","category":"leisure"},{"name":"얼짱노래연습장","tel":"031-111-1111","addr":"경기도 안산시 상록구 본오동 1142-4번지","indutype":"레저업소 - 노 래 방","category":"leisure"},{"name":"이츠PC","tel":"070-9898-6393","addr":"경기도 안산시 상록구 본오동 1142-4번지 2층","indutype":"레저업소 - 기타레져업소","category":"leisure"}]},{"lat":"37.286706778","long":"126.85779464","imageIndex":13,"items":[{"name":"안산동산고등학교","tel":"031-490-3362","addr":"경기도 안산시 상록구 본오동 968-1번지","indutype":"레저업소 - 수 영 장","category":"leisure"}]},{"lat":"37.293368228","long":"126.86016147","imageIndex":13,"items":[{"name":"안산탁구클럽","tel":"031-409-8972","addr":"경기도 안산시 상록구 본오동 889-1번지 지하","indutype":"레저업소 - 기타레져업소","category":"leisure"},{"name":"키즈앤팡팡 안산본오점","tel":"031-406-4060","addr":"경기도 안산시 상록구 본오동 889-1번지 301호","indutype":"레저업소 - 기타레져업소","category":"leisure"}]},{"lat":"37.293263911","long":"126.86335327","imageIndex":13,"items":[{"name":"안산특공무술","tel":"031-437-7780","addr":"경기도 안산시 상록구 본오동 870-2번지 3층","indutype":"레저업소 - 헬스클럽","category":"leisure"}]},{"lat":"37.293341754","long":"126.8606239","imageIndex":13,"items":[{"name":"애창노래연습장","tel":"031-416-6001","addr":"경기도 안산시 상록구 본오동 889-5번지 지층","indutype":"레저업소 - 노 래 방","category":"leisure"}]},{"lat":"37.292984261","long":"126.86307185","imageIndex":13,"items":[{"name":"에스비에스 (SBS) 당구클럽","tel":"031-409-4109","addr":"경기도 안산시 상록구 본오동 870-15번지 3층","indutype":"레저업소 - 당 구 장","category":"leisure"},{"name":"요요노래연습장","tel":"031-406-9039","addr":"경기도 안산시 상록구 본오동 870-15번지 2층","indutype":"레저업소 - 노 래 방","category":"leisure"}]},{"lat":"37.301040814","long":"126.86426378","imageIndex":13,"items":[{"name":"에스비에스(SBS)당구장","tel":"031-409-8653","addr":"경기도 안산시 상록구 본오동 873-11번지 501,502호","indutype":"레저업소 - 당 구 장","category":"leisure"},{"name":"잇츠피씨존","tel":"","addr":"경기도 안산시 상록구 본오동 873-11번지 인제빌딩 4층","indutype":"레저업소 - 기타레져업소","category":"leisure"}]},{"lat":"37.294652194","long":"126.87185431","imageIndex":13,"items":[{"name":"엘림탁구클럽","tel":"031-408-8979","addr":"경기도 안산시 상록구 본오동 780-1번지 3층 302호","indutype":"레저업소 - 기타레져업소","category":"leisure"}]},{"lat":"37.294949955","long":"126.87223724","imageIndex":13,"items":[{"name":"연지노래연습장","tel":"031-409-3289","addr":"경기도 안산시 상록구 본오동 791-5번지","indutype":"레저업소 - 노 래 방","category":"leisure"}]},{"lat":"37.293315656","long":"126.86140212","imageIndex":13,"items":[{"name":"열노래연습장","tel":"031-408-9826","addr":"경기도 안산시 상록구 본오동 882번지 지층","indutype":"레저업소 - 노 래 방","category":"leisure"}]},{"lat":"37.292701199","long":"126.85993717","imageIndex":13,"items":[{"name":"오디션노래연습장","tel":"031-417-4703","addr":"경기도 안산시 상록구 본오동 887번지 2층","indutype":"레저업소 - 노 래 방","category":"leisure"}]},{"lat":"37.289374894","long":"126.85868042","imageIndex":13,"items":[{"name":"오페라노래연습장","tel":"","addr":"경기도 안산시 상록구 본오동 936-5번지 2층","indutype":"레저업소 - 노 래 방","category":"leisure"}]},{"lat":"37.29642192","long":"126.86715949","imageIndex":13,"items":[{"name":"와바노래연습장","tel":"031-501-7142","addr":"경기도 안산시 상록구 본오동 814-2번지","indutype":"레저업소 - 노 래 방","category":"leisure"},{"name":"이너스pc방","tel":"031-000-0000","addr":"경기도 안산시 상록구 본오동 814-2번지 2층","indutype":"레저업소 - 기타레져업소","category":"leisure"}]},{"lat":"37.286597045","long":"126.86396325","imageIndex":13,"items":[{"name":"용노래연습장","tel":"031-406-3219","addr":"경기도 안산시 상록구 본오동 674-13번지 지하","indutype":"레저업소 - 노 래 방","category":"leisure"}]},{"lat":"37.300426594","long":"126.86296784","imageIndex":13,"items":[{"name":"원투쓰리노래연습장","tel":"031-407-1330","addr":"경기도 안산시 상록구 본오동 879-2번지 동서빌딩 B101호","indutype":"레저업소 - 노 래 방","category":"leisure"}]},{"lat":"37.294589608","long":"126.87229426","imageIndex":13,"items":[{"name":"웰빙노래연습장","tel":"031-501-7525","addr":"경기도 안산시 상록구 본오동 779연지프라자206호~207호","indutype":"레저업소 - 노 래 방","category":"leisure"},{"name":"웰빙당구장","tel":"031-502-0575","addr":"경기도 안산시 상록구 본오동 779번지 연지프라자 210,211","indutype":"레저업소 - 당 구 장","category":"leisure"},{"name":"프로 스포츠","tel":"031-409-8884","addr":"경기도 안산시 상록구 본오동 779번지 연지프라자 201~203호","indutype":"레저업소 - 헬스클럽","category":"leisure"},{"name":"휘트니스링크","tel":"031-409-8884","addr":"경기도 안산시 상록구 본오동 779번지 연지프라자 201동 203호","indutype":"레저업소 - 헬스클럽","category":"leisure"}]},{"lat":"37.299646878","long":"126.86654464","imageIndex":13,"items":[{"name":"유산소핏40","tel":"031-407-2912","addr":"경기도 안산시 상록구 본오동 872-23번지 샘골빌딩 3층","indutype":"레저업소 - 헬스클럽","category":"leisure"}]},{"lat":"37.297701022","long":"126.86685267","imageIndex":13,"items":[{"name":"이브노래연습장","tel":"031-415-7399","addr":"경기도 안산시 상록구 본오동 813번지 지층","indutype":"레저업소 - 노 래 방","category":"leisure"}]},{"lat":"37.285348267","long":"126.85946619","imageIndex":13,"items":[{"name":"이호당구클럽","tel":"031-409-2881","addr":"경기도 안산시 상록구 본오동 965-4번지 2층","indutype":"레저업소 - 당 구 장","category":"leisure"}]},{"lat":"37.293290155","long":"126.86268784","imageIndex":13,"items":[{"name":"잉꼬노래연습장","tel":"031-898-7508","addr":"경기도 안산시 상록구 본오동 882-9번지 B01호","indutype":"레저업소 - 노 래 방","category":"leisure"},{"name":"파랑새노래방","tel":"031-416-7103","addr":"경기도 안산시 상록구 본오동 882-9번지","indutype":"레저업소 - 노 래 방","category":"leisure"}]},{"lat":"37.287590496","long":"126.86595744","imageIndex":13,"items":[{"name":"장미노래연습장","tel":"031-416-6377","addr":"경기도 안산시 상록구 본오동 669-6번지","indutype":"레저업소 - 노 래 방","category":"leisure"}]},{"lat":"37.287425403","long":"126.86346555","imageIndex":13,"items":[{"name":"제스트골프아카데미","tel":"031-409-0755","addr":"경기도 안산시 상록구 본오동 948-20번지 303,304호","indutype":"레저업소 - 스크린골프","category":"leisure"}]},{"lat":"37.290012675","long":"126.86459978","imageIndex":13,"items":[{"name":"짱노래연습장","tel":"","addr":"경기도 안산시 상록구 본오동 922-5번지 2층","indutype":"레저업소 - 노 래 방","category":"leisure"}]},{"lat":"37.288426254","long":"126.86407266","imageIndex":13,"items":[{"name":"짱노래연습장","tel":"031-417-6613","addr":"경기도 안산시 상록구 본오동 666-17번지 2층","indutype":"레저업소 - 노 래 방","category":"leisure"}]},{"lat":"37.297507111","long":"126.86282663","imageIndex":13,"items":[{"name":"째즈노래연습장","tel":"031-409-9088","addr":"경기도 안산시 상록구 본오동 879-11번지 극동프라자 B03호","indutype":"레저업소 - 노 래 방","category":"leisure"},{"name":"케이팝스타코인노래연습장","tel":"031-416-7537","addr":"경기도 안산시 상록구 본오동 879-11번지 극동프라자 지하1층, 비01호, 비02호","indutype":"레저업소 - 노 래 방","category":"leisure"}]},{"lat":"37.288815927","long":"126.86598905","imageIndex":13,"items":[{"name":"차차차노래연습장","tel":"031-409-5982","addr":"경기도 안산시 상록구 본오동 918-7번지 G동 1층","indutype":"레저업소 - 노 래 방","category":"leisure"},{"name":"프로당구장","tel":"02-0000-0000","addr":"경기도 안산시 상록구 본오동 918-7번지 2층","indutype":"레저업소 - 당 구 장","category":"leisure"}]},{"lat":"37.298895443","long":"126.86346694","imageIndex":13,"items":[{"name":"청송탁구장","tel":"031-417-8972","addr":"경기도 안산시 상록구 본오동 872-10번지 2층 201호","indutype":"레저업소 - 기타레져업소","category":"leisure"}]},{"lat":"37.296702781","long":"126.86851238","imageIndex":13,"items":[{"name":"체리노래연습장","tel":"02-000-0000","addr":"경기도 안산시 상록구 본오동 805-14번지 2층","indutype":"레저업소 - 노 래 방","category":"leisure"}]},{"lat":"37.289041183","long":"126.86598865","imageIndex":13,"items":[{"name":"첼로노래연습장","tel":"031-416-8366","addr":"경기도 안산시 상록구 본오동 914-8번지 지층","indutype":"레저업소 - 노 래 방","category":"leisure"}]},{"lat":"37.29034654","long":"126.86501643","imageIndex":13,"items":[{"name":"칸노래연습장","tel":"070-8699-0175","addr":"경기도 안산시 상록구 본오동 913-16번지 2층","indutype":"레저업소 - 노 래 방","category":"leisure"}]},{"lat":"37.296369812","long":"126.86887387","imageIndex":13,"items":[{"name":"코코노래연습장","tel":"","addr":"경기도 안산시 상록구 본오동 815-4번지 지층 B01호","indutype":"레저업소 - 노 래 방","category":"leisure"}]},{"lat":"37.29081681","long":"126.86651547","imageIndex":13,"items":[{"name":"큐노래방","tel":"031-407-3377","addr":"경기도 안산시 상록구 본오동 854번지","indutype":"레저업소 - 노 래 방","category":"leisure"}]},{"lat":"37.293316033","long":"126.8617179","imageIndex":13,"items":[{"name":"키스노래연습장","tel":"031-407-1155","addr":"경기도 안산시 상록구 본오동 882-2번지","indutype":"레저업소 - 노 래 방","category":"leisure"}]},{"lat":"37.288732536","long":"126.86401571","imageIndex":13,"items":[{"name":"키즈앤아이","tel":"031-4316-5757","addr":"경기도 안산시 상록구 본오동 919-8번지 4층 401호","indutype":"레저업소 - 기타레져업소","category":"leisure"}]},{"lat":"37.301005682","long":"126.86504209","imageIndex":13,"items":[{"name":"킴스요가&필라테스","tel":"031-486-3388","addr":"경기도 안산시 상록구 본오동 873-9번지 덕암빌딩 404호 ,405,406호","indutype":"레저업소 - 헬스클럽","category":"leisure"}]},{"lat":"37.294617433","long":"126.873016","imageIndex":13,"items":[{"name":"태진노래연습장","tel":"031-408-5137","addr":"경기도 안산시 상록구 본오동 770-1번지 2층","indutype":"레저업소 - 노 래 방","category":"leisure"}]},{"lat":"37.29020378","long":"126.85863373","imageIndex":13,"items":[{"name":"테소로 피씨방","tel":"","addr":"경기도 안산시 상록구 본오동 934-4번지 2층","indutype":"레저업소 - 기타레져업소","category":"leisure"}]},{"lat":"37.290483431","long":"126.86651607","imageIndex":13,"items":[{"name":"텔런트노래연습장","tel":"031-418-1550","addr":"경기도 안산시 상록구 본오동 854-17번지","indutype":"레저업소 - 노 래 방","category":"leisure"}]},{"lat":"37.293228917","long":"126.86424428","imageIndex":13,"items":[{"name":"투투노래연습장","tel":"031-415-4466","addr":"경기도 안산시 상록구 본오동 870-8번지","indutype":"레저업소 - 노 래 방","category":"leisure"}]},{"lat":"37.293425032","long":"126.87026627","imageIndex":13,"items":[{"name":"파브당구장","tel":"","addr":"경기도 안산시 상록구 본오동 784-6번지 2층","indutype":"레저업소 - 당 구 장","category":"leisure"}]},{"lat":"37.288867557","long":"126.86390269","imageIndex":13,"items":[{"name":"팡팡노래연습장","tel":"031-417-1116","addr":"경기도 안산시 상록구 본오동 919-9번지 지층","indutype":"레저업소 - 노 래 방","category":"leisure"},{"name":"팡팡노래연습장","tel":"031-417-1116","addr":"경기도 안산시 상록구 본오동 919-9번지","indutype":"레저업소 - 노 래 방","category":"leisure"}]},{"lat":"37.295480332","long":"126.86327023","imageIndex":13,"items":[{"name":"프롬빌리어드","tel":"031-406-3415","addr":"경기도 안산시 상록구 본오동 871-6번지 성문빌딩 1-3호","indutype":"레저업소 - 당 구 장","category":"leisure"}]},{"lat":"37.286617873","long":"126.86637645","imageIndex":13,"items":[{"name":"플레이영 점프파크","tel":"031-438-4850","addr":"경기도 안산시 상록구 본오동 681번지 본오빌딩 4층 401호","indutype":"레저업소 - 기타레져업소","category":"leisure"}]},{"lat":"37.288146421","long":"126.86363337","imageIndex":13,"items":[{"name":"하나당구장","tel":"","addr":"경기도 안산시 상록구 본오동 948-23번지 4층","indutype":"레저업소 - 당 구 장","category":"leisure"}]},{"lat":"37.302149624","long":"126.86473547","imageIndex":13,"items":[{"name":"하은노래연습장","tel":"031-418-9982","addr":"경기도 안산시 상록구 본오동 874-3번지 상림프라자 307호","indutype":"레저업소 - 노 래 방","category":"leisure"}]},{"lat":"37.296728513","long":"126.86737322","imageIndex":13,"items":[{"name":"하하노래연습장","tel":"031-487-3399","addr":"경기도 안산시 상록구 본오동 813-9번지 지층","indutype":"레저업소 - 노 래 방","category":"leisure"}]},{"lat":"37.290645615","long":"126.86651578","imageIndex":13,"items":[{"name":"한국체대라학균복싱클럽","tel":"031-415-1212","addr":"경기도 안산시 상록구 본오동 854-18번지 동양빌딩 3층","indutype":"레저업소 - 헬스클럽","category":"leisure"}]},{"lat":"37.293651006","long":"126.87090871","imageIndex":13,"items":[{"name":"한마음노래연습장","tel":"070-8181-3498","addr":"경기도 안산시 상록구 본오동 787-7번지 지하1층","indutype":"레저업소 - 노 래 방","category":"leisure"}]},{"lat":"37.292839577","long":"126.86263228","imageIndex":13,"items":[{"name":"한큐당구클럽","tel":"031-415-0028","addr":"경기도 안산시 상록구 본오동 882-12번지 3층","indutype":"레저업소 - 당 구 장","category":"leisure"}]},{"lat":"37.288203035","long":"126.86582101","imageIndex":13,"items":[{"name":"해피정 노래연습장","tel":"","addr":"경기도 안산시 상록구 본오동 667-12번지 지층","indutype":"레저업소 - 노 래 방","category":"leisure"}]},{"lat":"37.293263578","long":"126.86307133","imageIndex":13,"items":[{"name":"행운노래연습장","tel":"031-417-1019","addr":"경기도 안산시 상록구 본오동 870번지 지층","indutype":"레저업소 - 노 래 방","category":"leisure"}]},{"lat":"37.294175721","long":"126.87282503","imageIndex":13,"items":[{"name":"현당구클럽","tel":"031-405-4404","addr":"경기도 안산시 상록구 본오동 770-17번지 3층","indutype":"레저업소 - 당 구 장","category":"leisure"}]},{"lat":"37.293316355","long":"126.86198856","imageIndex":13,"items":[{"name":"호야노래연습장","tel":"031-419-7829","addr":"경기도 안산시 상록구 본오동 882-4번지","indutype":"레저업소 - 노 래 방","category":"leisure"}]},{"lat":"37.296369095","long":"126.86824229","imageIndex":13,"items":[{"name":"황실노래연습장","tel":"031-406-8353","addr":"경기도 안산시 상록구 본오동 815번지 지하","indutype":"레저업소 - 노 래 방","category":"leisure"}]},{"lat":"37.293011707","long":"126.87129327","imageIndex":13,"items":[{"name":"힐링노래연습장","tel":"031-417-7119","addr":"경기도 안산시 상록구 본오동 829번지 동수빌딩 3층","indutype":"레저업소 - 노 래 방","category":"leisure"}]}]