[{"lat":"37.310483","long":"126.99073303","imageIndex":17,"items":[{"name":"(사)경기도수의사회","tel":"031-216-0250","addr":"경기도 수원시 장안구 파장동 556-1번지 2층 경기도 건축사 회관","indutype":"기타 - 비영리/비대상","category":"other"},{"name":"(주)코리아미디어센터","tel":"031-258-5311","addr":"경기도 수원시 장안구 파장동 556-1번지","indutype":"용역 서비스 - 종합용역","category":"other"}]},{"lat":"37.306068242","long":"126.99350854","imageIndex":17,"items":[{"name":"(주)보디가드코리아","tel":"031-268-2848","addr":"경기도 수원시 장안구 파장동 582-18번지 4층","indutype":"용역 서비스 - 종합용역","category":"other"}]},{"lat":"37.308347882","long":"126.99419634","imageIndex":17,"items":[{"name":"(주)서진홀딩스","tel":"031-254-1094","addr":"경기도 수원시 장안구 파장동 577-2번지 영림프라자 101호","indutype":"레져용품 - 스포츠·레져용품","category":"other"},{"name":"주식회사이은","tel":"031-202-2142","addr":"경기도 수원시 장안구 파장동 577-2","indutype":"전기제품 - 기타전기제품","category":"other"}]},{"lat":"37.306762094","long":"126.99436572","imageIndex":17,"items":[{"name":"(주)신화환경엔지니어링","tel":"031-253-5201","addr":"경기도 수원시 장안구 파장동 588-30번지","indutype":"기타 - 기타 전문점","category":"other"}]},{"lat":"37.309456162","long":"126.99450078","imageIndex":17,"items":[{"name":"(주)아시아관광","tel":"031-241-4848","addr":"경기도 수원시 장안구 파장동 266-9번지","indutype":"여행 - 관광여행","category":"other"}]},{"lat":"37.307176831","long":"126.99978001","imageIndex":17,"items":[{"name":"(주)한국경매법인","tel":"031-242-5400","addr":"경기도 수원시 장안구 파장동 627-8번지 3층","indutype":"회원제형태 - 기타4","category":"other"},{"name":"알파북수원점","tel":"031-269-0070","addr":"경기도 수원시 장안구 파장동 627-8번지 수원빌딩 1층","indutype":"서적문구 - 문구용품","category":"other"},{"name":"지엠스코리아","tel":"031-243-1035","addr":"경기도 수원시 장안구 파장동 627-8번지 수원빌딩 601호","indutype":"기타 - 기계공구","category":"other"}]},{"lat":"37.308789331","long":"126.99350821","imageIndex":17,"items":[{"name":"3h코리아","tel":"031-462-3663","addr":"경기도 수원시 장안구 파장동 575-20번지 2층","indutype":"용역 서비스 - 기타용역서비스","category":"other"},{"name":"논노","tel":"031-245-3611","addr":"경기도 수원시 장안구 파장동 575-20번지 1층","indutype":"의류 - 정장","category":"other"},{"name":"하니펫","tel":"031-8001-6972","addr":"경기도 수원시 장안구 파장동 575-20번지 2층","indutype":"문화.취미 - 애완동물","category":"other"}]},{"lat":"37.310510443","long":"126.99580918","imageIndex":17,"items":[{"name":"DOU IMPEX Inc.","tel":"070-1111-1111","addr":"경기도 수원시 장안구 파장동 278-2번지","indutype":"용역 서비스 - 소프트웨어","category":"other"}]},{"lat":"37.309897653","long":"126.99436537","imageIndex":17,"items":[{"name":"G&I(지앤아이)","tel":"031-268-7677","addr":"경기도 수원시 장안구 파장동 209-1번지 대영프라자 101동 101호 , 104","indutype":"가구 - 일반가구","category":"other"}]},{"lat":"37.309978241","long":"126.98902979","imageIndex":17,"items":[{"name":"GD기획","tel":"02-554-9795","addr":"경기도 수원시 장안구 파장동 568-14번지 201호","indutype":"회원제형태 - 기타4","category":"other"}]},{"lat":"37.309761956","long":"126.9887027","imageIndex":17,"items":[{"name":"GMI(지엠아이)","tel":"031-251-0107","addr":"경기도 수원시 장안구 파장동 568-18 302 9/3","indutype":"유통업 영리 - 기타유통업","category":"other"}]},{"lat":"37.309068686","long":"126.9940045","imageIndex":17,"items":[{"name":"GS25수원장안점","tel":"031-243-1432","addr":"경기도 수원시 장안구 파장동 576번지","indutype":"유통업 영리 - 편 의 점","category":"other"},{"name":"침구스케치","tel":"031-268-1152","addr":"경기도 수원시 장안구 파장동 576번지","indutype":"직물 - 침구·수예점","category":"other"}]},{"lat":"37.310564497","long":"126.99567381","imageIndex":17,"items":[{"name":"GS25장안그린점","tel":"","addr":"경기도 수원시 장안구 파장동 279-2번지 1층","indutype":"유통업 영리 - 편 의 점","category":"other"}]},{"lat":"37.309375346","long":"127.00067105","imageIndex":17,"items":[{"name":"GS25장안수일로점","tel":"","addr":"경기도 수원시 장안구 파장동 525-1번지","indutype":"유통업 영리 - 편 의 점","category":"other"}]},{"lat":"37.303653721","long":"126.99692648","imageIndex":17,"items":[{"name":"IM(아이엠)","tel":"070-4153-3300","addr":"경기도 수원시 장안구 파장동 495-30번지 성모치과의원 1층 1호","indutype":"의류 - 정장","category":"other"},{"name":"씨유수원동신점","tel":"080-080-3663","addr":"경기도 수원시 장안구 파장동 495-30번지 1층","indutype":"유통업 영리 - 편 의 점","category":"other"}]},{"lat":"37.307843199","long":"126.99280897","imageIndex":17,"items":[{"name":"e.house(이.하우스)","tel":"031-243-5179","addr":"경기도 수원시 장안구 파장동 573-30번지","indutype":"의류 - 정장","category":"other"},{"name":"갤러리","tel":"031-269-0953","addr":"경기도 수원시 장안구 파장동 573-30번지 1층","indutype":"의류 - 정장","category":"other"}]},{"lat":"37.307591081","long":"126.99503114","imageIndex":17,"items":[{"name":"가람솔 수원","tel":"031-246-0316","addr":"경기도 수원시 장안구 파장동 588번지 생수빌딩 1층","indutype":"용역 서비스 - 종합용역","category":"other"}]},{"lat":"37.311284809","long":"126.98978534","imageIndex":17,"items":[{"name":"가람하우징","tel":"031-271-0014","addr":"경기도 수원시 장안구 파장동 555-2번지 대영빌딩 1층 101호","indutype":"건축자재 - 인테리어전문","category":"other"},{"name":"대우정보기술주식회사","tel":"031-248-0580","addr":"경기도 수원시 장안구 파장동 555-2번지 대영빌딩 2층","indutype":"회원제형태 - 기타2","category":"other"}]},{"lat":"37.308681223","long":"126.99369998","imageIndex":17,"items":[{"name":"건강한미래를여는사람들","tel":"031-271-1140","addr":"경기도 수원시 장안구 파장동 577번지","indutype":"회원제형태 - 기타4","category":"other"},{"name":"금능통신","tel":"031-269-3073","addr":"경기도 수원시 장안구 파장동 577번지","indutype":"사무통신 - 통신기기","category":"other"}]},{"lat":"37.308951301","long":"126.9911168","imageIndex":17,"items":[{"name":"경기가스검사기관 주식회사","tel":"031-251-0122","addr":"경기도 수원시 장안구 파장동 559번지 2층 201호","indutype":"용역 서비스 - 종합용역","category":"other"},{"name":"경기가스검사기관 주식회사","tel":"031-251-0122","addr":"경기도 수원시 장안구 파장동 559번지","indutype":"용역 서비스 - 종합용역","category":"other"}]},{"lat":"37.309510493","long":"127.00036648","imageIndex":17,"items":[{"name":"경기공조","tel":"031-269-3928","addr":"경기도 수원시 장안구 파장동 408-12번지 101호","indutype":"용역 서비스 - 기타용역서비스","category":"other"}]},{"lat":"37.309510265","long":"126.99512119","imageIndex":17,"items":[{"name":"경기도개별화물협회","tel":"031-251-6907","addr":"경기도 수원시 장안구 파장동 267-5번지","indutype":"기타 - 비영리/비대상","category":"other"}]},{"lat":"37.31561883","long":"126.99077732","imageIndex":17,"items":[{"name":"경기도인재개발원/교육컨설팅과","tel":"031-290-2155","addr":"경기도 수원시 장안구 파장동 184번지 지방행정연수원","indutype":"용역 서비스 - 사무서비스","category":"other"},{"name":"지방행정연수원후생복지회/삼원(담배)","tel":"031-250-5360","addr":"경기도 수원시 장안구 파장동 184번지","indutype":"기타 - 기타 전문점","category":"other"}]},{"lat":"37.30840213","long":"126.99728707","imageIndex":17,"items":[{"name":"경기도자동차대여사업조합","tel":"031-221-4551","addr":"경기도 수원시 장안구 파장동 486-1번지 유로빌딩 401호","indutype":"기타 - 비영리/비대상","category":"other"}]},{"lat":"37.307176844","long":"127.00033272","imageIndex":17,"items":[{"name":"경기문구상사","tel":"031-253-1233","addr":"경기도 수원시 장안구 파장동 627-5번지 덕성빌딩 1층","indutype":"서적문구 - 문구용품","category":"other"},{"name":"현대보석","tel":"031-251-5667","addr":"경기도 수원시 장안구 파장동 627-5번지","indutype":"신변잡화 - 시계","category":"other"}]},{"lat":"37.307284947","long":"126.99953185","imageIndex":17,"items":[{"name":"경기수원지역자활센터 푸른나무중고가구","tel":"031-207-0507","addr":"경기도 수원시 장안구 파장동 627-9번지 1층","indutype":"가구 - 일반가구","category":"other"}]},{"lat":"37.309969949","long":"126.99820065","imageIndex":17,"items":[{"name":"경기유통가맹점","tel":"031-247-1061","addr":"경기도 수원시 장안구 파장동 386-1번지 청수연립 나동 202호","indutype":"유통업 영리 - 기타유통업","category":"other"}]},{"lat":"37.309564473","long":"126.99780587","imageIndex":17,"items":[{"name":"경인상회","tel":"031-248-1477","addr":"경기도 수원시 장안구 파장동 385-7번지","indutype":"회원제형태 - 기타4","category":"other"}]},{"lat":"37.310257988","long":"126.99339522","imageIndex":17,"items":[{"name":"경인해피론","tel":"031-000-0000","addr":"경기도 수원시 장안구 파장동 212-21번지 1층 103호","indutype":"직물 - 침구·수예점","category":"other"}]},{"lat":"37.308482644","long":"126.98992119","imageIndex":17,"items":[{"name":"고려페인트","tel":"031-243-0500","addr":"경기도 수원시 장안구 파장동 571-10번지 1층","indutype":"건축자재 - 페인트","category":"other"}]},{"lat":"37.309897765","long":"126.99609125","imageIndex":17,"items":[{"name":"고운손요양원","tel":"031-271-3800","addr":"경기도 수원시 장안구 파장동 274번지","indutype":"기타의료기관 - 기타의료기관 및 기타","category":"other"}]},{"lat":"37.307870002","long":"126.99041761","imageIndex":17,"items":[{"name":"골드미에스테틱","tel":"070-5033-3553","addr":"경기도 수원시 장안구 파장동 571-5번지 1층","indutype":"회원제형태 - 기타4","category":"other"}]},{"lat":"37.306978523","long":"126.99747893","imageIndex":17,"items":[{"name":"광고프라자","tel":"031-242-0253","addr":"경기도 수원시 장안구 파장동 596번지","indutype":"건축자재 - 인테리어전문","category":"other"}]},{"lat":"37.308536838","long":"126.99119582","imageIndex":17,"items":[{"name":"국제신발","tel":"","addr":"경기도 수원시 장안구 파장동 559-4번지 현대공업사 203호","indutype":"신변잡화 - 신발","category":"other"},{"name":"성림건설","tel":"031-269-7308","addr":"경기도 수원시 장안구 파장동 559-4번지","indutype":"용역 서비스 - 종합용역","category":"other"}]},{"lat":"37.308564165","long":"126.99472648","imageIndex":17,"items":[{"name":"궁전통한지","tel":"031-245-3217","addr":"경기도 수원시 장안구 파장동 584-5번지","indutype":"유통업 영리 - 기타유통업","category":"other"}]},{"lat":"37.308618211","long":"126.99450087","imageIndex":17,"items":[{"name":"그리랑","tel":"","addr":"경기도 수원시 장안구 파장동 576-8번지 1층","indutype":"문화.취미 - 문화취미기타","category":"other"},{"name":"문화주방","tel":"031-245-7782","addr":"경기도 수원시 장안구 파장동 576-8","indutype":"주방용구 - 주방용구","category":"other"}]},{"lat":"37.305816038","long":"126.99461398","imageIndex":17,"items":[{"name":"금보석","tel":"031-245-7755","addr":"경기도 수원시 장안구 파장동 590-9","indutype":"신변잡화 - 귀금속","category":"other"},{"name":"이마트24 수원파장로점","tel":"","addr":"경기도 수원시 장안구 파장동 590-9번지 1층 101호","indutype":"유통업 영리 - 편 의 점","category":"other"}]},{"lat":"37.306284387","long":"126.99231287","imageIndex":17,"items":[{"name":"금보장","tel":"031-251-2500","addr":"경기도 수원시 장안구 파장동 580-5번지","indutype":"신변잡화 - 귀금속","category":"other"},{"name":"후(HOO)전자담배","tel":"031-271-7776","addr":"경기도 수원시 장안구 파장동 580-5번지","indutype":"기타 - 기타 전문점","category":"other"}]},{"lat":"37.305536867","long":"126.99706169","imageIndex":17,"items":[{"name":"금빛상사","tel":"070-8225-9529","addr":"경기도 수원시 장안구 파장동 598-25번지","indutype":"유통업 영리 - 기타유통업","category":"other"}]},{"lat":"37.307563887","long":"126.9928654","imageIndex":17,"items":[{"name":"꼬까방","tel":"031-251-0854","addr":"경기도 수원시 장안구 파장동 579-3번지","indutype":"의류 - 아동의류","category":"other"}]},{"lat":"37.311122612","long":"126.98967256","imageIndex":17,"items":[{"name":"꼬마앤맘","tel":"","addr":"경기도 수원시 장안구 파장동 555-9번지 삼익마에스트로 202동 302호","indutype":"의류 - 정장","category":"other"}]},{"lat":"37.310203487","long":"126.98895078","imageIndex":17,"items":[{"name":"꼬미몽","tel":"","addr":"경기도 수원시 장안구 파장동 567-2번지","indutype":"문화.취미 - 애완동물","category":"other"}]},{"lat":"37.30920382","long":"126.99375632","imageIndex":17,"items":[{"name":"꽃나라화원","tel":"031-247-0746","addr":"경기도 수원시 장안구 파장동 575-13번지","indutype":"문화.취미 - 화원","category":"other"},{"name":"더스타일(the style)","tel":"","addr":"경기도 수원시 장안구 파장동 575-13번지","indutype":"의류 - 정장","category":"other"},{"name":"에이원","tel":"031-268-2070","addr":"경기도 수원시 장안구 파장동 575-13번지 1층","indutype":"직물 - 침구·수예점","category":"other"}]},{"lat":"37.306708057","long":"126.99470412","imageIndex":17,"items":[{"name":"나모페인팅","tel":"","addr":"경기도 수원시 장안구 파장동 588-26번지 1층 2호","indutype":"용역 서비스 - 기타용역서비스","category":"other"}]},{"lat":"37.314096654","long":"126.99886597","imageIndex":17,"items":[{"name":"네모트레이딩","tel":"031-268-1369","addr":"경기도 수원시 장안구 파장동 322-5번지 외 1필지 1동","indutype":"문화.취미 - 수족관","category":"other"}]},{"lat":"37.304230414","long":"126.99772727","imageIndex":17,"items":[{"name":"눈누난나수원점","tel":"","addr":"경기도 수원시 장안구 파장동 461-40번지 할인백화점 1층","indutype":"의류 - 정장","category":"other"}]},{"lat":"37.305563858","long":"126.99630595","imageIndex":17,"items":[{"name":"뉴타임연구소","tel":"070-4794-1591","addr":"경기도 수원시 장안구 파장동 599-2번지 지층","indutype":"문화.취미 - 문화취미기타","category":"other"}]},{"lat":"37.307041157","long":"126.99136525","imageIndex":17,"items":[{"name":"다미통신","tel":"031-291-9002","addr":"경기도 수원시 장안구 파장동 572-53번지","indutype":"사무통신 - 통신기기","category":"other"},{"name":"페이지","tel":"031-268-6963","addr":"경기도 수원시 장안구 파장동 572-53번지","indutype":"의류 - 정장","category":"other"}]},{"lat":"37.310122939","long":"126.99480527","imageIndex":17,"items":[{"name":"다인 옷가게","tel":"031-268-0727","addr":"경기도 수원시 장안구 파장동 208-15번지 1층","indutype":"의류 - 정장","category":"other"}]},{"lat":"37.308230706","long":"126.99362107","imageIndex":17,"items":[{"name":"다인플라워","tel":"031-211-3488","addr":"경기도 수원시 장안구 파장동 578-7번지 경기도매유통 1층","indutype":"문화.취미 - 화원","category":"other"}]},{"lat":"37.30734803","long":"126.99997176","imageIndex":17,"items":[{"name":"달인세탁소","tel":"031-253-6300","addr":"경기도 수원시 장안구 파장동 627-3번지 멕시칸치킨호프 103호","indutype":"수리서비스 - 세탁소","category":"other"}]},{"lat":"37.309258207","long":"127.00036649","imageIndex":17,"items":[{"name":"대덕종합전기","tel":"031-254-3631","addr":"경기도 수원시 장안구 파장동 421-3번지","indutype":"전기제품 - 기타전기제품","category":"other"}]},{"lat":"37.309591319","long":"126.99455717","imageIndex":17,"items":[{"name":"대명정보통신","tel":"031-268-1142","addr":"경기도 수원시 장안구 파장동 266-1번지","indutype":"사무통신 - 통신기기","category":"other"}]},{"lat":"37.306257769","long":"126.99914838","imageIndex":17,"items":[{"name":"대산상사","tel":"031-242-6778","addr":"경기도 수원시 장안구 파장동 605-1번지","indutype":"건축자재 - 기타건축자재","category":"other"},{"name":"스마트전자","tel":"031-207-0506","addr":"경기도 수원시 장안구 파장동 605-1번지 2층","indutype":"전기제품 - 기타전기제품","category":"other"},{"name":"주식회사 영문서점","tel":"031-244-4605","addr":"경기도 수원시 장안구 파장동 605-1번지 1층 일부","indutype":"서적문구 - 일반서적","category":"other"}]},{"lat":"37.307284409","long":"126.99111706","imageIndex":17,"items":[{"name":"대운","tel":"031-268-1113","addr":"경기도 수원시 장안구 파장동 572-63번지 작은공간 101호","indutype":"건축자재 - 기타건축자재","category":"other"},{"name":"영 전자담배","tel":"031-000-0000","addr":"경기도 수원시 장안구 파장동 572-63번지","indutype":"기타 - 기타 전문점","category":"other"},{"name":"카라스킨케어","tel":"070-4685-9273","addr":"경기도 수원시 장안구 파장동 572-63번지 1층","indutype":"회원제형태 - 기타4","category":"other"},{"name":"희은세탁소","tel":"031-269-2004","addr":"경기도 수원시 장안구 파장동 572-63번지 1층","indutype":"수리서비스 - 세탁소","category":"other"}]},{"lat":"37.309483183","long":"126.99436541","imageIndex":17,"items":[{"name":"대한유리알미늄공사","tel":"031-252-1375","addr":"경기도 수원시 장안구 파장동 266-8번지","indutype":"건축자재 - 유리","category":"other"},{"name":"미니스톱수원삼익점","tel":"031-271-9958","addr":"경기도 수원시 장안구 파장동 266-8번지","indutype":"유통업 영리 - 편 의 점","category":"other"}]},{"lat":"37.305897349","long":"126.99881001","imageIndex":17,"items":[{"name":"동성인테리어","tel":"031-253-6854","addr":"경기도 수원시 장안구 파장동 604-8번지","indutype":"건축자재 - 인테리어전문","category":"other"}]},{"lat":"37.304014123","long":"126.99677982","imageIndex":17,"items":[{"name":"동신인테리어","tel":"032-255-2987","addr":"경기도 수원시 장안구 파장동 495-25번지 1층 5호","indutype":"건축자재 - 인테리어전문","category":"other"},{"name":"레베랑스","tel":"031-253-6424","addr":"경기도 수원시 장안구 파장동 495-25번지","indutype":"의류 - 정장","category":"other"},{"name":"베비라","tel":"031-45-1104","addr":"경기도 수원시 장안구 파장동 495-25번지","indutype":"의류 - 아동의류","category":"other"}]},{"lat":"37.308483191","long":"126.99666666","imageIndex":17,"items":[{"name":"동아","tel":"031-252-2003","addr":"경기도 수원시 장안구 파장동 484-1번지 1층","indutype":"신변잡화 - 기타잡화","category":"other"}]},{"lat":"37.309789474","long":"126.99362088","imageIndex":17,"items":[{"name":"동양쇼파","tel":"070-7420-5096","addr":"경기도 수원시 장안구 파장동 210-2번지","indutype":"수리서비스 - 신변잡화수리","category":"other"},{"name":"크린위드","tel":"070-7502-5783","addr":"경기도 수원시 장안구 파장동 210-2번지","indutype":"수리서비스 - 세탁소","category":"other"}]},{"lat":"37.309176887","long":"126.99512122","imageIndex":17,"items":[{"name":"동원농원","tel":"031-255-8555","addr":"경기도 수원시 장안구 파장동 266-17번지","indutype":"문화.취미 - 화원","category":"other"},{"name":"하나합판목재상사","tel":"031-258-3617","addr":"경기도 수원시 장안구 파장동 266-17번지","indutype":"건축자재 - 기타건축자재","category":"other"}]},{"lat":"37.309734922","long":"126.98866886","imageIndex":17,"items":[{"name":"드림81(dream81)","tel":"","addr":"경기도 수원시 장안구 파장동 568-6번지 503호","indutype":"용역 서비스 - 기타용역서비스","category":"other"}]},{"lat":"37.304816063","long":"126.99736629","imageIndex":17,"items":[{"name":"디지털도어락게이트맨보조키출장열쇠CCTV","tel":"031-256-2133","addr":"경기도 수원시 장안구 파장동 600-20번지 1층","indutype":"수리서비스 - 기타수리서비스","category":"other"},{"name":"탑 모바일","tel":"031-254-7767","addr":"경기도 수원시 장안구 파장동 600-20번지","indutype":"사무통신 - 통신기기","category":"other"},{"name":"평화주방가구","tel":"031-253-6627","addr":"경기도 수원시 장안구 파장동 600-20번지","indutype":"주방용구 - 주방용구","category":"other"}]},{"lat":"37.305870184","long":"126.99592242","imageIndex":17,"items":[{"name":"라온","tel":"031-256-8709","addr":"경기도 수원시 장안구 파장동 591-5번지","indutype":"서적문구 - 출판 및 인쇄물","category":"other"}]},{"lat":"37.311311991","long":"126.99122924","imageIndex":17,"items":[{"name":"럭키공인중개사사무소","tel":"031-258-8493","addr":"경기도 수원시 장안구 파장동 632번지 아이파크 상가 101호","indutype":"용역 서비스 - 부동산 중개·임대","category":"other"},{"name":"씨유수원아이파크점","tel":"031-258-1202","addr":"경기도 수원시 장안구 파장동 632번지 북수원아이파크상가동지층101호","indutype":"유통업 영리 - 편 의 점","category":"other"},{"name":"피오스","tel":"031-243-7809","addr":"경기도 수원시 장안구 파장동 632번지 북수원아이파크 상가 102호","indutype":"레져용품 - 스포츠·레져용품","category":"other"}]},{"lat":"37.306482584","long":"126.99200828","imageIndex":17,"items":[{"name":"루비보석","tel":"031-254-0049","addr":"경기도 수원시 장안구 파장동 580-8번지","indutype":"신변잡화 - 귀금속","category":"other"},{"name":"보스모바일","tel":"031-268-0106","addr":"경기도 수원시 장안구 파장동 580-8번지","indutype":"사무통신 - 통신기기","category":"other"},{"name":"파장쌈지","tel":"070-4140-8898","addr":"경기도 수원시 장안구 파장동 580-8번지 1층","indutype":"신변잡화 - 신발","category":"other"}]},{"lat":"37.307095327","long":"126.99253835","imageIndex":17,"items":[{"name":"마마샵","tel":"031-258-7585","addr":"경기도 수원시 장안구 파장동 580번지 동영빌딩 1층 111호","indutype":"의류 - 정장","category":"other"},{"name":"엔샵","tel":"031-269-9209","addr":"경기도 수원시 장안구 파장동 580번지 동영빌딩 103호","indutype":"의류 - 정장","category":"other"},{"name":"은혜요양원","tel":"031-253-7526","addr":"경기도 수원시 장안구 파장동 580번지","indutype":"기타의료기관 - 기타의료기관 및 기타","category":"other"},{"name":"장안요양센터","tel":"031-253-7526","addr":"경기도 수원시 장안구 파장동 580번지 외2필지 동영빌딩 2층 201호","indutype":"기타의료기관 - 기타의료기관 및 기타","category":"other"}]},{"lat":"37.31131226","long":"126.99439905","imageIndex":17,"items":[{"name":"마실나온꽃 (MASILNAON FLOWER)","tel":"031-000-0000","addr":"경기도 수원시 장안구 파장동 201-4번지 다담화이트빌 4층 2호","indutype":"문화.취미 - 화원","category":"other"}]},{"lat":"37.303734826","long":"126.99717462","imageIndex":17,"items":[{"name":"마실도예공방","tel":"","addr":"경기도 수원시 장안구 파장동 501-79번지 1층","indutype":"문화.취미 - 문화취미기타","category":"other"}]},{"lat":"37.305680938","long":"126.99542613","imageIndex":17,"items":[{"name":"만능전자","tel":"031-253-6886","addr":"경기도 수원시 장안구 파장동 591-9번지","indutype":"전기제품 - 가전제품","category":"other"}]},{"lat":"37.304734926","long":"126.99647522","imageIndex":17,"items":[{"name":"망고샵","tel":"031-252-6360","addr":"경기도 수원시 장안구 파장동 495-44번지","indutype":"의류 - 정장","category":"other"},{"name":"써니","tel":"031-241-0178","addr":"경기도 수원시 장안구 파장동 495-44번지 외1필지","indutype":"사무통신 - 통신기기","category":"other"}]},{"lat":"37.304401607","long":"126.9977047","imageIndex":17,"items":[{"name":"매직","tel":"031-247-9745","addr":"경기도 수원시 장안구 파장동 461-24번지","indutype":"의류 - 정장","category":"other"},{"name":"온누리패션","tel":"031-243-3558","addr":"경기도 수원시 장안구 파장동 461-24번지 일층1칸","indutype":"의류 - 기타의류","category":"other"}]},{"lat":"37.309591044","long":"126.9912859","imageIndex":17,"items":[{"name":"매트 코리아","tel":"031-1599-4668","addr":"경기도 수원시 장안구 파장동 558-3번지","indutype":"신변잡화 - 기타잡화","category":"other"}]},{"lat":"37.305320686","long":"126.99856189","imageIndex":17,"items":[{"name":"멜리플로우","tel":"","addr":"경기도 수원시 장안구 파장동 601-29번지 1층","indutype":"문화.취미 - 문화취미기타","category":"other"}]},{"lat":"37.310258139","long":"126.99550464","imageIndex":17,"items":[{"name":"명동문방구","tel":"031-251-7664","addr":"경기도 수원시 장안구 파장동 279-3번지","indutype":"서적문구 - 문구용품","category":"other"},{"name":"미공사3","tel":"031-269-2406","addr":"경기도 수원시 장안구 파장동 279-3번지 1층 세한상가 105호","indutype":"건축자재 - 인테리어전문","category":"other"},{"name":"세한세탁소","tel":"031-258-1607","addr":"경기도 수원시 장안구 파장동 279-3번지","indutype":"수리서비스 - 세탁소","category":"other"},{"name":"힐링포레스트","tel":"070-8113-2118","addr":"경기도 수원시 장안구 파장동 279-3번지 세한상가 103호","indutype":"건축자재 - 목재·석재·철물","category":"other"}]},{"lat":"37.307230563","long":"126.99353096","imageIndex":17,"items":[{"name":"명진씽크","tel":"031-258-2867","addr":"경기도 수원시 장안구 파장동 579-23번지","indutype":"주방용구 - 주방용구","category":"other"}]},{"lat":"37.303869964","long":"126.99687007","imageIndex":17,"items":[{"name":"명화사진관","tel":"031-246-7975","addr":"경기도 수원시 장안구 파장동 495-27번지","indutype":"광학제품 - 사진관","category":"other"},{"name":"미가","tel":"031-242-3550","addr":"경기도 수원시 장안구 파장동 495-27번지 2층","indutype":"회원제형태 - 기타1","category":"other"},{"name":"앨리스의 옷장","tel":"070-7018-5392","addr":"경기도 수원시 장안구 파장동 495-27번지 외1필지","indutype":"의류 - 정장","category":"other"},{"name":"오로라조명","tel":"031-257-3030","addr":"경기도 수원시 장안구 파장동 495-27번지","indutype":"건축자재 - 조명기구","category":"other"}]},{"lat":"37.308897483","long":"126.99389172","imageIndex":17,"items":[{"name":"모던센스","tel":"031-246-1013","addr":"경기도 수원시 장안구 파장동 576-6번지","indutype":"직물 - 침구·수예점","category":"other"},{"name":"산업재해장애인자립장열린디자인","tel":"031-269-8991","addr":"경기도 수원시 장안구 파장동 576-6번지","indutype":"용역 서비스 - 종합용역","category":"other"}]},{"lat":"37.306257657","long":"126.99650893","imageIndex":17,"items":[{"name":"문경클리닉","tel":"031-245-0258","addr":"경기도 수원시 장안구 파장동 598번지 PISHON빌리지 402호","indutype":"용역 서비스 - 종합용역","category":"other"}]},{"lat":"37.307230843","long":"126.99827978","imageIndex":17,"items":[{"name":"미래종합진열장","tel":"031-235-5277","addr":"경기도 수원시 장안구 파장동 595-2번지","indutype":"가구 - 일반가구","category":"other"},{"name":"일원하우징","tel":"031-232-3031","addr":"경기도 수원시 장안구 파장동 595-2번지","indutype":"직물 - 카페트,커튼,천막,지물","category":"other"}]},{"lat":"37.308590746","long":"126.98972941","imageIndex":17,"items":[{"name":"미래통신네트워크","tel":"031-268-5606","addr":"경기도 수원시 장안구 파장동 570-38번지 1층","indutype":"전기제품 - 기타전기제품","category":"other"}]},{"lat":"37.306374484","long":"126.99225645","imageIndex":17,"items":[{"name":"민이꽃방","tel":"031-244-4039","addr":"경기도 수원시 장안구 파장동 580-6번지","indutype":"문화.취미 - 화원","category":"other"}]},{"lat":"37.306401593","long":"126.99317011","imageIndex":17,"items":[{"name":"민트컴즈","tel":"02-567-9741","addr":"경기도 수원시 장안구 파장동 582-24번지 원조가마솥국밥 104호","indutype":"여행 - 관광여행","category":"other"},{"name":"백마니불","tel":"031-726-3574","addr":"경기도 수원시 장안구 파장동 582-24번지 1층","indutype":"신변잡화 - 기타잡화","category":"other"}]},{"lat":"37.308176741","long":"126.99495212","imageIndex":17,"items":[{"name":"반도인테리어필름","tel":"031-258-3380","addr":"경기도 수원시 장안구 파장동 584-13번지","indutype":"기타 - 기타 전문점","category":"other"}]},{"lat":"37.305203467","long":"126.99664437","imageIndex":17,"items":[{"name":"반도커텐","tel":"031-244-4073","addr":"경기도 수원시 장안구 파장동 599-23번지","indutype":"직물 - 카페트,커튼,천막,지물","category":"other"}]},{"lat":"37.310186203","long":"126.99842625","imageIndex":17,"items":[{"name":"반석유리샤시","tel":"031-546-2827","addr":"경기도 수원시 장안구 파장동 375-23번지 대도빌라 나동 102호","indutype":"회원제형태 - 기타4","category":"other"}]},{"lat":"37.310024093","long":"127.00130273","imageIndex":17,"items":[{"name":"반포피아노사","tel":"031-257-1939","addr":"경기도 수원시 장안구 파장동 413-10번지 선비마을모닝빌 610동 401호","indutype":"기타 - 기타 전문점","category":"other"}]},{"lat":"37.306897018","long":"126.99161343","imageIndex":17,"items":[{"name":"버디펫","tel":"031-269-8399","addr":"경기도 수원시 장안구 파장동 572-40번지","indutype":"문화.취미 - 애완동물","category":"other"}]},{"lat":"37.304987244","long":"126.99708429","imageIndex":17,"items":[{"name":"베스트원칼라","tel":"031-251-8023","addr":"경기도 수원시 장안구 파장동 600-27번지 2층","indutype":"광학제품 - 사진관","category":"other"}]},{"lat":"37.310807636","long":"126.99369972","imageIndex":17,"items":[{"name":"부민계측기기","tel":"031-257-6708","addr":"경기도 수원시 장안구 파장동 212-17번지 동방하이츠빌라 나동 101호","indutype":"전기제품 - 기타전기제품","category":"other"}]},{"lat":"37.304789088","long":"126.99873111","imageIndex":17,"items":[{"name":"부성공조","tel":"","addr":"경기도 수원시 장안구 파장동 602-31번지 203호","indutype":"용역 서비스 - 기타용역서비스","category":"other"}]},{"lat":"37.320646406","long":"126.98964833","imageIndex":17,"items":[{"name":"북수원요양원","tel":"031-271-0107","addr":"경기도 수원시 장안구 파장동 99번지","indutype":"기타의료기관 - 기타의료기관 및 기타","category":"other"}]},{"lat":"37.30820346","long":"126.99119588","imageIndex":17,"items":[{"name":"북수원재활용센터","tel":"031-000-0000","addr":"경기도 수원시 장안구 파장동 572번지 1층","indutype":"전기제품 - 가전제품","category":"other"}]},{"lat":"37.308401906","long":"126.99370001","imageIndex":17,"items":[{"name":"뷰티풀 레코즈","tel":"","addr":"경기도 수원시 장안구 파장동 577-5번지 2층","indutype":"문화.취미 - 화원","category":"other"}]},{"lat":"37.307014268","long":"126.99292187","imageIndex":17,"items":[{"name":"비와이씨 북수원전문점","tel":"031-268-5777","addr":"경기도 수원시 장안구 파장동 579-31번지 성지빌딩 102호","indutype":"의류 - 내의판매","category":"other"}]},{"lat":"37.30581607","long":"126.99508773","imageIndex":17,"items":[{"name":"빅창고아울렛","tel":"","addr":"경기도 수원시 장안구 파장동 591-13번지 1층","indutype":"의류 - 정장","category":"other"}]},{"lat":"37.309284693","long":"126.99125211","imageIndex":17,"items":[{"name":"삼원","tel":"031-308-4388","addr":"경기도 수원시 장안구 파장동 558-18 제마동호","indutype":"건축자재 - 조명기구","category":"other"},{"name":"세인","tel":"070-4062-9426","addr":"경기도 수원시 장안구 파장동 558-18번지","indutype":"신변잡화 - 기타잡화","category":"other"}]},{"lat":"37.307149558","long":"126.99470407","imageIndex":17,"items":[{"name":"삼원상사","tel":"031-242-8014","addr":"경기도 수원시 장안구 파장동 588-19","indutype":"건축자재 - 페인트","category":"other"}]},{"lat":"37.308762664","long":"127.0015058","imageIndex":17,"items":[{"name":"삼원종합공사","tel":"031-244-6749","addr":"경기도 수원시 장안구 파장동 628-1번지","indutype":"기타 - 기계공구","category":"other"},{"name":"제이엘에프","tel":"02-406-0189","addr":"경기도 수원시 장안구 파장동 628-1번지 남양유업 102호","indutype":"사무통신 - 기타 사무용품","category":"other"}]},{"lat":"37.307348012","long":"126.99930625","imageIndex":17,"items":[{"name":"삼천리스포츠북수원점","tel":"031-252-3006","addr":"경기도 수원시 장안구 파장동 627-10번지 오토헬스프라자","indutype":"레져용품 - 스포츠·레져용품","category":"other"}]},{"lat":"37.30801472","long":"126.99795262","imageIndex":17,"items":[{"name":"삼화종합중기","tel":"031-414-2057","addr":"경기도 수원시 장안구 파장동 469-39번지","indutype":"기타 - 기계공구","category":"other"},{"name":"삼화종합중기(주)","tel":"031-248-7515","addr":"경기도 수원시 장안구 파장동 469-39번지","indutype":"기타 - 기계공구","category":"other"}]},{"lat":"37.306590726","long":"126.99222258","imageIndex":17,"items":[{"name":"선영애견샵","tel":"031-271-3919","addr":"경기도 수원시 장안구 파장동 580-9번지","indutype":"문화.취미 - 애완동물","category":"other"},{"name":"폰마을","tel":"031-269-0020","addr":"경기도 수원시 장안구 파장동 580-9번지","indutype":"사무통신 - 통신기기","category":"other"}]},{"lat":"37.307068456","long":"126.99455744","imageIndex":17,"items":[{"name":"성진건축","tel":"","addr":"경기도 수원시 장안구 파장동 588-20번지 1층","indutype":"건축자재 - 기타건축자재","category":"other"}]},{"lat":"37.3034555","long":"126.99700545","imageIndex":17,"items":[{"name":"세모컴퓨터","tel":"031-251-7788","addr":"경기도 수원시 장안구 파장동 495-31번지 정면좌측1번째 1층","indutype":"사무통신 - 컴퓨터","category":"other"},{"name":"여성큰옷","tel":"031-247-0443","addr":"경기도 수원시 장안구 파장동 495-31번지 1층","indutype":"의류 - 정장","category":"other"},{"name":"티아라","tel":"031-257-3665","addr":"경기도 수원시 장안구 파장동 495-31번지 1층 일부","indutype":"신변잡화 - 액세서리","category":"other"},{"name":"플루토애견","tel":"031-241-3387","addr":"경기도 수원시 장안구 파장동 495-31번지 1층","indutype":"문화.취미 - 애완동물","category":"other"}]},{"lat":"37.30842907","long":"126.99561762","imageIndex":17,"items":[{"name":"세무법인 대길","tel":"031-257-5857","addr":"경기도 수원시 장안구 파장동 585번지 3층","indutype":"용역 서비스 - 법률회계서비스(법인)","category":"other"}]},{"lat":"37.310005691","long":"126.99325989","imageIndex":17,"items":[{"name":"세븐일레븐수원수일로점","tel":"031-1577-0711","addr":"경기도 수원시 장안구 파장동 212-23번지 1층","indutype":"유통업 영리 - 편 의 점","category":"other"},{"name":"아름다운상상","tel":"031-247-2282","addr":"경기도 수원시 장안구 파장동 212-23번지 2층","indutype":"서적문구 - 출판 및 인쇄물","category":"other"},{"name":"중부OA","tel":"031-221-4202","addr":"경기도 수원시 장안구 파장동 212-23번지","indutype":"사무통신 - 사무용 OA기기","category":"other"}]},{"lat":"37.309897945","long":"127.0009756","imageIndex":17,"items":[{"name":"세븐일레븐수원파장중앙점","tel":"","addr":"경기도 수원시 장안구 파장동 413-12번지 1층","indutype":"유통업 영리 - 편 의 점","category":"other"}]},{"lat":"37.305924264","long":"126.99624952","imageIndex":17,"items":[{"name":"세븐일레븐파장본점","tel":"031-241-2434","addr":"경기도 수원시 장안구 파장동 598-32번지","indutype":"유통업 영리 - 편 의 점","category":"other"}]},{"lat":"37.30881602","long":"126.98989857","imageIndex":17,"items":[{"name":"세븐일레븐희망점","tel":"031-1577-0711","addr":"경기도 수원시 장안구 파장동 570-34번지 1층","indutype":"유통업 영리 - 편 의 점","category":"other"},{"name":"푸른하늘","tel":"031-271-4001","addr":"경기도 수원시 장안구 파장동 570-34번지 2,지층","indutype":"사무통신 - 컴퓨터","category":"other"}]},{"lat":"37.308708338","long":"126.99486183","imageIndex":17,"items":[{"name":"세화통상","tel":"031-268-0081","addr":"경기도 수원시 장안구 파장동 584번지 일림빌딩 5층","indutype":"사무통신 - 통신기기","category":"other"},{"name":"이레요가","tel":"031-268-4888","addr":"경기도 수원시 장안구 파장동 584번지 1층","indutype":"회원제형태 - 레져업소","category":"other"}]},{"lat":"37.30823097","long":"126.9980654","imageIndex":17,"items":[{"name":"소명인테리어","tel":"031-245-4777","addr":"경기도 수원시 장안구 파장동 469-34번지 1층","indutype":"직물 - 카페트,커튼,천막,지물","category":"other"},{"name":"용수부동산","tel":"031-241-0929","addr":"경기도 수원시 장안구 파장동 469-34번지","indutype":"용역 서비스 - 부동산 중개·임대","category":"other"}]},{"lat":"37.306843023","long":"126.99233535","imageIndex":17,"items":[{"name":"속옷나라","tel":"031-246-9857","addr":"경기도 수원시 장안구 파장동 580-11번지","indutype":"의류 - 내의판매","category":"other"}]},{"lat":"37.306203576","long":"126.99617054","imageIndex":17,"items":[{"name":"송산철물건재","tel":"","addr":"경기도 수원시 장안구 파장동 592-44번지 에덴빌라 402호","indutype":"건축자재 - 기타건축자재","category":"other"}]},{"lat":"37.306311847","long":"126.99970109","imageIndex":17,"items":[{"name":"수농꽃식물원","tel":"031-255-3961","addr":"경기도 수원시 장안구 파장동 606-5번지","indutype":"문화.취미 - 화원","category":"other"},{"name":"투윤솔루션","tel":"031-242-8433","addr":"경기도 수원시 장안구 파장동 606-5번지 수농꽃식물원 가동 103호","indutype":"신변잡화 - 기타잡화","category":"other"}]},{"lat":"37.30851002","long":"126.9935872","imageIndex":17,"items":[{"name":"수원발가락","tel":"02-1544-2549","addr":"경기도 수원시 장안구 파장동 577-10번지","indutype":"레져용품 - 스포츠·레져용품","category":"other"},{"name":"옛적꺼랑 다육이랑","tel":"031-257-1697","addr":"경기도 수원시 장안구 파장동 577-10번지 1층","indutype":"문화.취미 - 민예·공예품","category":"other"},{"name":"파파","tel":"031-8645-8050","addr":"경기도 수원시 장안구 파장동 577-10번지","indutype":"의류 - 정장","category":"other"}]},{"lat":"37.304563767","long":"126.99717456","imageIndex":17,"items":[{"name":"수원우리요양원","tel":"031-255-2642","addr":"경기도 수원시 장안구 파장동 501-16번지 수원우리요양원","indutype":"기타의료기관 - 기타의료기관 및 기타","category":"other"}]},{"lat":"37.305852277","long":"126.99823475","imageIndex":17,"items":[{"name":"쉬레드닥터","tel":"031-269-8480","addr":"경기도 수원시 장안구 파장동 604-33번지 썬텍시티빌 B동 101호","indutype":"용역 서비스 - 사무서비스","category":"other"}]},{"lat":"37.307924299","long":"126.99289919","imageIndex":17,"items":[{"name":"슈와나","tel":"031-258-3923","addr":"경기도 수원시 장안구 파장동 573-27번지","indutype":"신변잡화 - 신발","category":"other"}]},{"lat":"37.307095299","long":"126.99222251","imageIndex":17,"items":[{"name":"슈즈타운","tel":"031-255-6573","addr":"경기도 수원시 장안구 파장동 572-34번지 1층","indutype":"신변잡화 - 신발","category":"other"}]},{"lat":"37.310546401","long":"126.9945345","imageIndex":17,"items":[{"name":"스마트냉동","tel":"031-857-7411","addr":"경기도 수원시 장안구 파장동 208-9번지 진주맨션 9동 B10호","indutype":"용역 서비스 - 기타용역서비스","category":"other"}]},{"lat":"37.305951406","long":"126.99867465","imageIndex":17,"items":[{"name":"스타일애드","tel":"031-892-5755","addr":"경기도 수원시 장안구 파장동 604-20번지 1층 101호","indutype":"건축자재 - 인테리어전문","category":"other"},{"name":"쿨에어컨","tel":"031-304-5210","addr":"경기도 수원시 장안구 파장동 604-20번지 무진고기직판장 1동 1층 101호","indutype":"용역 서비스 - 기타용역서비스","category":"other"}]},{"lat":"37.304257397","long":"126.9967234","imageIndex":17,"items":[{"name":"스피드텔레콤","tel":"031-248-8010","addr":"경기도 수원시 장안구 파장동 495-24번지","indutype":"사무통신 - 통신기기","category":"other"}]},{"lat":"37.303897025","long":"126.99750171","imageIndex":17,"items":[{"name":"승이네가게","tel":"031-247-3946","addr":"경기도 수원시 장안구 파장동 501-33번지","indutype":"의류 - 정장","category":"other"}]},{"lat":"37.305734924","long":"126.99430944","imageIndex":17,"items":[{"name":"승진종합인테리어","tel":"031-257-8554","addr":"경기도 수원시 장안구 파장동 590-10번지","indutype":"직물 - 카페트,커튼,천막,지물","category":"other"},{"name":"아이와이티","tel":"031-255-1559","addr":"경기도 수원시 장안구 파장동 590-10번지 3층","indutype":"직물 - 카페트,커튼,천막,지물","category":"other"},{"name":"이지텍컴/특별IBM","tel":"031-243-6661","addr":"경기도 수원시 장안구 파장동 590-10번지","indutype":"사무통신 - 컴퓨터","category":"other"}]},{"lat":"37.306095449","long":"126.99609159","imageIndex":17,"items":[{"name":"신성유리","tel":"031-271-7562","addr":"경기도 수원시 장안구 파장동 592-45번지 1층","indutype":"용역 서비스 - 기타용역서비스","category":"other"}]},{"lat":"37.307843225","long":"126.99311352","imageIndex":17,"items":[{"name":"신세계선물백화점","tel":"031-247-4777","addr":"경기도 수원시 장안구 파장동 579번지","indutype":"신변잡화 - 액세서리","category":"other"}]},{"lat":"37.308564119","long":"126.99408352","imageIndex":17,"items":[{"name":"신용지물장식","tel":"031-256-1274","addr":"경기도 수원시 장안구 파장동 577-6번지","indutype":"건축자재 - 인테리어전문","category":"other"}]},{"lat":"37.309924203","long":"126.98923284","imageIndex":17,"items":[{"name":"씨유수원파장중앙점","tel":"080-080-3663","addr":"경기도 수원시 장안구 파장동 568-1번지 1층","indutype":"유통업 영리 - 편 의 점","category":"other"}]},{"lat":"37.305924069","long":"126.99339576","imageIndex":17,"items":[{"name":"씨유파장사거리점","tel":"031-255-7591","addr":"경기도 수원시 장안구 파장동 582-30번지","indutype":"유통업 영리 - 편 의 점","category":"other"}]},{"lat":"37.310924852","long":"126.99483903","imageIndex":17,"items":[{"name":"씨유파장원투점","tel":"031-269-0884","addr":"경기도 수원시 장안구 파장동 204-13번지 유니빌 101호","indutype":"유통업 영리 - 편 의 점","category":"other"}]},{"lat":"37.310672101","long":"126.98967264","imageIndex":17,"items":[{"name":"아이모","tel":"031-222-5139","addr":"경기도 수원시 장안구 파장동 564-11번지 3층","indutype":"의류 - 정장","category":"other"}]},{"lat":"37.306374496","long":"126.99239181","imageIndex":17,"items":[{"name":"아이엘스튜디오","tel":"031-255-0442","addr":"경기도 수원시 장안구 파장동 580-4번지","indutype":"광학제품 - 사진관","category":"other"}]},{"lat":"37.305843291","long":"126.99892281","imageIndex":17,"items":[{"name":"아주상사","tel":"031-242-6564","addr":"경기도 수원시 장안구 파장동 604-9번지 경진부동산 102호","indutype":"주방용구 - 주방용식기","category":"other"},{"name":"어썸클로젯","tel":"070-8773-8877","addr":"경기도 수원시 장안구 파장동 604-9번지","indutype":"의류 - 정장","category":"other"}]},{"lat":"37.308708049","long":"126.991365","imageIndex":17,"items":[{"name":"애플편의점","tel":"031-271-2883","addr":"경기도 수원시 장안구 파장동 558-14번지","indutype":"유통업 영리 - 편 의 점","category":"other"}]},{"lat":"37.305870257","long":"126.99730981","imageIndex":17,"items":[{"name":"에스에이치창호","tel":"031-377-9815","addr":"경기도 수원시 장안구 파장동 598-6번지 대림설비 102호","indutype":"용역 서비스 - 기타용역서비스","category":"other"}]},{"lat":"37.310618697","long":"126.99850518","imageIndex":17,"items":[{"name":"에이치이(H.E)","tel":"031-258-1335","addr":"경기도 수원시 장안구 파장동 374-1번지","indutype":"수리서비스 - 가정용품수리","category":"other"}]},{"lat":"37.306284463","long":"126.99320396","imageIndex":17,"items":[{"name":"에포르","tel":"031-247-8974","addr":"경기도 수원시 장안구 파장동 582-25번지","indutype":"의류 - 정장","category":"other"}]},{"lat":"37.308761884","long":"126.98923305","imageIndex":17,"items":[{"name":"엑셀장안통신","tel":"031-271-5422","addr":"경기도 수원시 장안구 파장동 570-16번지 1층","indutype":"사무통신 - 통신기기","category":"other"},{"name":"영도 인테리어","tel":"031-223-9159","addr":"경기도 수원시 장안구 파장동 570-16번지","indutype":"건축자재 - 인테리어전문","category":"other"}]},{"lat":"37.305680911","long":"126.99500878","imageIndex":17,"items":[{"name":"엔투 스튜디오","tel":"031-000-0000","addr":"경기도 수원시 장안구 파장동 591-12번지 지하","indutype":"광학제품 - 사진관","category":"other"}]},{"lat":"37.305951422","long":"126.99917096","imageIndex":17,"items":[{"name":"엔티존","tel":"070-4417-2345","addr":"경기도 수원시 장안구 파장동 605-12번지 컴퓨터크리닝 103호","indutype":"신변잡화 - 기타잡화","category":"other"}]},{"lat":"37.306897478","long":"126.9986182","imageIndex":17,"items":[{"name":"영북클럽(Young Bookclub)","tel":"031-269-4949","addr":"경기도 수원시 장안구 파장동 595-16번지","indutype":"서적문구 - 일반서적","category":"other"}]},{"lat":"37.30864549","long":"126.99947539","imageIndex":17,"items":[{"name":"영선에어컨","tel":"031-8002-6202","addr":"경기도 수원시 장안구 파장동 422-16 1층 1-1호","indutype":"용역 서비스 - 기타용역서비스","category":"other"},{"name":"이파엘지종합특수방수","tel":"031-241-6920","addr":"경기도 수원시 장안구 파장동 422-16번지","indutype":"용역 서비스 - 기타용역서비스","category":"other"}]},{"lat":"37.3049872","long":"126.9962496","imageIndex":17,"items":[{"name":"영성타일","tel":"031-243-5901","addr":"경기도 수원시 장안구 파장동 495-19번지","indutype":"건축자재 - 건축용 요업제품","category":"other"},{"name":"현주컴퓨터정자점","tel":"031-258-8572","addr":"경기도 수원시 장안구 파장동 495-19번지","indutype":"사무통신 - 컴퓨터","category":"other"}]},{"lat":"37.306978157","long":"126.99212101","imageIndex":17,"items":[{"name":"영진가구","tel":"031-256-2370","addr":"경기도 수원시 장안구 파장동 572-35번지","indutype":"가구 - 일반가구","category":"other"}]},{"lat":"37.307095704","long":"126.99864075","imageIndex":17,"items":[{"name":"예원피에스디","tel":"031-254-3927","addr":"경기도 수원시 장안구 파장동 595-3번지 B동 104호","indutype":"용역 서비스 - 종합용역","category":"other"},{"name":"전인테리어","tel":"031-256-7277","addr":"경기도 수원시 장안구 파장동 595-3번지 1층","indutype":"건축자재 - 인테리어전문","category":"other"},{"name":"참샘유통","tel":"031-269-9052","addr":"경기도 수원시 장안구 파장동 595-3","indutype":"신변잡화 - 액세서리","category":"other"}]},{"lat":"37.308870493","long":"126.99444444","imageIndex":17,"items":[{"name":"오르라아웃도어","tel":"031-242-8856","addr":"경기도 수원시 장안구 파장동 576-2번지 A동 1,2층","indutype":"의류 - 스포츠의류","category":"other"}]},{"lat":"37.32008767","long":"126.98875717","imageIndex":17,"items":[{"name":"오성종합상사","tel":"031-271-4433","addr":"경기도 수원시 장안구 파장동 92-4번지 1층","indutype":"신변잡화 - 기타잡화","category":"other"}]},{"lat":"37.30720333","long":"126.99125243","imageIndex":17,"items":[{"name":"올아이티","tel":"031-269-1690","addr":"경기도 수원시 장안구 파장동 572-52번지 Buy the way 101호","indutype":"사무통신 - 컴퓨터","category":"other"}]},{"lat":"37.307230497","long":"126.99273009","imageIndex":17,"items":[{"name":"옷지갑열고(JIGA10GO)","tel":"","addr":"경기도 수원시 장안구 파장동 579-37번지 1층","indutype":"의류 - 정장","category":"other"}]},{"lat":"37.306041298","long":"126.99467035","imageIndex":17,"items":[{"name":"우리토탈","tel":"031-256-3350","addr":"경기도 수원시 장안구 파장동 590-14번지 1층","indutype":"사무통신 - 컴퓨터","category":"other"}]},{"lat":"37.306510008","long":"126.99786248","imageIndex":17,"items":[{"name":"우림과둠밈","tel":"031-895-5446","addr":"경기도 수원시 장안구 파장동 596-25번지 1층","indutype":"용역 서비스 - 종합용역","category":"other"}]},{"lat":"37.305924122","long":"126.99408382","imageIndex":17,"items":[{"name":"우분트","tel":"031-377-4223","addr":"경기도 수원시 장안구 파장동 589-4번지","indutype":"문화.취미 - 티켓","category":"other"}]},{"lat":"37.307482767","long":"126.9925383","imageIndex":17,"items":[{"name":"원더우먼","tel":"031-268-8198","addr":"경기도 수원시 장안구 파장동 573-40번지","indutype":"의류 - 기타의류","category":"other"}]},{"lat":"37.307483158","long":"126.99905808","imageIndex":17,"items":[{"name":"위니아서비스북수원점","tel":"031-241-8853","addr":"경기도 수원시 장안구 파장동 626-1번지","indutype":"전기제품 - 냉열기기","category":"other"}]},{"lat":"37.307455592","long":"126.99100423","imageIndex":17,"items":[{"name":"유라니 주식회사","tel":"031-111-1111","addr":"경기도 수원시 장안구 파장동 572-56번지 2층","indutype":"사무통신 - 컴퓨터","category":"other"}]},{"lat":"37.307680823","long":"126.99075604","imageIndex":17,"items":[{"name":"유성 공인중개사사무소","tel":"031-269-8338","addr":"경기도 수원시 장안구 파장동 572-6번지 1층","indutype":"용역 서비스 - 부동산 중개·임대","category":"other"}]},{"lat":"37.3089786","long":"126.99423011","imageIndex":17,"items":[{"name":"유일상사","tel":"031-241-7849","addr":"경기도 수원시 장안구 파장동 576-1번지","indutype":"건축자재 - 페인트","category":"other"}]},{"lat":"37.305401669","long":"126.99622701","imageIndex":17,"items":[{"name":"은유의꽃","tel":"031-309-0057","addr":"경기도 수원시 장안구 파장동 599-24번지","indutype":"문화.취미 - 화원","category":"other"},{"name":"크린토피아 수원정자벽산블루밍","tel":"031-207-7792","addr":"경기도 수원시 장안구 파장동 599-24번지","indutype":"수리서비스 - 세탁소","category":"other"}]},{"lat":"37.308455708","long":"126.99081231","imageIndex":17,"items":[{"name":"음악세계강서지사","tel":"02-2648-5597","addr":"경기도 수원시 장안구 파장동 559-12번지","indutype":"서적문구 - 일반서적","category":"other"}]},{"lat":"37.309591191","long":"126.99289897","imageIndex":17,"items":[{"name":"의료법인아성의료재단","tel":"031-248-1226","addr":"경기도 수원시 장안구 파장동 575-2번지","indutype":"기타 - 비영리/대상","category":"other"}]},{"lat":"37.3073119","long":"126.99744507","imageIndex":17,"items":[{"name":"이마트24 파장행복점","tel":"031-245-1824","addr":"경기도 수원시 장안구 파장동 594-3번지","indutype":"유통업 영리 - 편 의 점","category":"other"}]},{"lat":"37.309591568","long":"126.99964455","imageIndex":17,"items":[{"name":"이바하","tel":"","addr":"경기도 수원시 장안구 파장동 408-1번지 현대로얄하이츠빌라 201호","indutype":"레져용품 - 악기점","category":"other"}]},{"lat":"37.307762128","long":"126.99305713","imageIndex":17,"items":[{"name":"이뿐이","tel":"031-245-7985","addr":"경기도 수원시 장안구 파장동 579-1번지","indutype":"의류 - 정장","category":"other"},{"name":"파정종합장식","tel":"031-252-1869","addr":"경기도 수원시 장안구 파장동 579-1번지","indutype":"직물 - 카페트,커튼,천막,지물","category":"other"}]},{"lat":"37.310735633","long":"126.99478265","imageIndex":17,"items":[{"name":"일신세탁","tel":"031-245-2369","addr":"경기도 수원시 장안구 파장동 206-20번지 1층 101호","indutype":"수리서비스 - 세탁소","category":"other"}]},{"lat":"37.306762248","long":"126.99686984","imageIndex":17,"items":[{"name":"잇스토어 파장점","tel":"031-0000-0000","addr":"경기도 수원시 장안구 파장동 597번지 1층","indutype":"유통업 영리 - 편 의 점","category":"other"}]},{"lat":"37.307401851","long":"126.99480557","imageIndex":17,"items":[{"name":"장안알미늄샷시","tel":"031-246-2203","addr":"경기도 수원시 장안구 파장동 588-2번지","indutype":"건축자재 - 보일러·펌프·샷시","category":"other"}]},{"lat":"37.306681242","long":"126.99888893","imageIndex":17,"items":[{"name":"재다","tel":"031-244-2764","addr":"경기도 수원시 장안구 파장동 606-8번지 3층","indutype":"서적문구 - 과학기자재","category":"other"},{"name":"홍홍드럼","tel":"","addr":"경기도 수원시 장안구 파장동 606-8번지 지하층","indutype":"용역 서비스 - 사무서비스","category":"other"}]},{"lat":"37.306870199","long":"126.99411755","imageIndex":17,"items":[{"name":"전수상사","tel":"031-251-6748","addr":"경기도 수원시 장안구 파장동 583-32번지","indutype":"건축자재 - 보일러·펌프·샷시","category":"other"}]},{"lat":"37.307762101","long":"126.99273002","imageIndex":17,"items":[{"name":"제니위드리(Jenny with Lee)","tel":"031-5464-5246","addr":"경기도 수원시 장안구 파장동 573-31번지","indutype":"신변잡화 - 액세서리","category":"other"},{"name":"퍼스트올로수원파장점","tel":"031-244-4267","addr":"경기도 수원시 장안구 파장동 573-31번지","indutype":"의류 - 내의판매","category":"other"}]},{"lat":"37.30992417","long":"126.98895083","imageIndex":17,"items":[{"name":"제일컴퓨터","tel":"031-252-0620","addr":"경기도 수원시 장안구 파장동 568-15번지","indutype":"사무통신 - 컴퓨터","category":"other"}]},{"lat":"37.307230818","long":"126.99767067","imageIndex":17,"items":[{"name":"제일피알수원안양","tel":"031-225-2800","addr":"경기도 수원시 장안구 파장동 595-15번지","indutype":"용역 서비스 - 종합용역","category":"other"}]},{"lat":"37.307095745","long":"127.00000561","imageIndex":17,"items":[{"name":"주식회사 도안","tel":"031-242-7744","addr":"경기도 수원시 장안구 파장동 627-7번지 1층","indutype":"건축자재 - 인테리어전문","category":"other"}]},{"lat":"37.306482736","long":"126.99381305","imageIndex":17,"items":[{"name":"주식회사 리프레쉬트레블","tel":"031-548-2122","addr":"경기도 수원시 장안구 파장동 582-11번지 수석빌딩 3층 302호","indutype":"여행 - 관광여행","category":"other"},{"name":"코드.스타일리쉬(Code.Stylish)","tel":"","addr":"경기도 수원시 장안구 파장동 582-11번지 수석빌딩 3층 301호","indutype":"신변잡화 - 기타잡화","category":"other"}]},{"lat":"37.308708303","long":"126.9943655","imageIndex":17,"items":[{"name":"주식회사알에스케이","tel":"031-246-3301","addr":"경기도 수원시 장안구 파장동 576-4번지 2층","indutype":"기타 - 기계공구","category":"other"}]},{"lat":"37.306789303","long":"126.99736615","imageIndex":17,"items":[{"name":"주식회사트라이센","tel":"031-244-2149","addr":"경기도 수원시 장안구 파장동 596-15번지 105호","indutype":"사무통신 - 컴퓨터","category":"other"}]},{"lat":"37.307681066","long":"126.9934181","imageIndex":17,"items":[{"name":"주택종합설비공사","tel":"031-241-7804","addr":"경기도 수원시 장안구 파장동 579-11번지 1층","indutype":"용역 서비스 - 기타용역서비스","category":"other"}]},{"lat":"37.309285231","long":"127.00006193","imageIndex":17,"items":[{"name":"지니에듀","tel":"070-4141-1726","addr":"경기도 수원시 장안구 파장동 408-20번지","indutype":"서적문구 - 일반서적","category":"other"}]},{"lat":"37.305734958","long":"126.99478318","imageIndex":17,"items":[{"name":"진모바일","tel":"031-257-3011","addr":"경기도 수원시 장안구 파장동 590-8번지 1층","indutype":"사무통신 - 통신기기","category":"other"}]},{"lat":"37.311096033","long":"126.99464724","imageIndex":17,"items":[{"name":"진우공조","tel":"031-254-2271","addr":"경기도 수원시 장안구 파장동 203-16번지","indutype":"전기제품 - 냉열기기","category":"other"}]},{"lat":"37.308978911","long":"127.001675","imageIndex":17,"items":[{"name":"진흥교육","tel":"031-253-3344","addr":"경기도 수원시 장안구 파장동 417-11번지 인크리스빌 1층","indutype":"서적문구 - 일반서적","category":"other"}]},{"lat":"37.316151047","long":"127.00177641","imageIndex":17,"items":[{"name":"집시캠핑카","tel":"031-307-8825","addr":"경기도 수원시 장안구 파장동 351번지 1층","indutype":"레져용품 - 스포츠·레져용품","category":"other"}]},{"lat":"37.30597843","long":"126.99850545","imageIndex":17,"items":[{"name":"창솔루텍","tel":"031-482-1114","addr":"경기도 수원시 장안구 파장동 604-7번지 그레이스팰리스 501호","indutype":"기타 - 기계공구","category":"other"}]},{"lat":"37.304897122","long":"126.99670079","imageIndex":17,"items":[{"name":"챠밍토탈샵","tel":"031-257-1332","addr":"경기도 수원시 장안구 파장동 495-65번지","indutype":"의류 - 정장","category":"other"}]},{"lat":"37.305870116","long":"126.99486213","imageIndex":17,"items":[{"name":"청해누수탐지","tel":"070-8258-7345","addr":"경기도 수원시 장안구 파장동 590-7번지","indutype":"용역 서비스 - 기타용역서비스","category":"other"}]},{"lat":"37.309285039","long":"126.9955837","imageIndex":17,"items":[{"name":"코디#","tel":"","addr":"경기도 수원시 장안구 파장동 268-21번지 1층","indutype":"의류 - 정장","category":"other"}]},{"lat":"37.309816761","long":"126.99786226","imageIndex":17,"items":[{"name":"키맨","tel":"031-251-3117","addr":"경기도 수원시 장안구 파장동 385-4 청구빌라 가 11/2","indutype":"회원제형태 - 기타4","category":"other"}]},{"lat":"37.307789418","long":"126.99694871","imageIndex":17,"items":[{"name":"태양상사","tel":"031-252-3232","addr":"경기도 수원시 장안구 파장동 594-11번지","indutype":"건축자재 - 페인트","category":"other"}]},{"lat":"37.30465385","long":"126.99677977","imageIndex":17,"items":[{"name":"태일설비","tel":"031-256-9565","addr":"경기도 수원시 장안구 파장동 501-44번지 1층","indutype":"용역 서비스 - 기타용역서비스","category":"other"}]},{"lat":"37.307347834","long":"126.99548236","imageIndex":17,"items":[{"name":"티비사랑","tel":"","addr":"경기도 수원시 장안구 파장동 587번지 우미빌 203호","indutype":"용역 서비스 - 기타용역서비스","category":"other"}]},{"lat":"37.30931225","long":"126.99961072","imageIndex":17,"items":[{"name":"파이널사무용가구","tel":"031-242-4335","addr":"경기도 수원시 장안구 파장동 408-34번지 1층","indutype":"가구 - 기타가구","category":"other"}]},{"lat":"37.308347918","long":"126.99470394","imageIndex":17,"items":[{"name":"파장동주민자치위원회","tel":"031-228-5604","addr":"경기도 수원시 장안구 파장동 584-6번지","indutype":"문화.취미 - 문화취미기타","category":"other"}]},{"lat":"37.306870024","long":"126.99200823","imageIndex":17,"items":[{"name":"파장텔레콤","tel":"031-269-1555","addr":"경기도 수원시 장안구 파장동 572-37번지 1층","indutype":"사무통신 - 통신기기","category":"other"}]},{"lat":"37.306203377","long":"126.99328293","imageIndex":17,"items":[{"name":"패션디씨마트","tel":"031-255-9058","addr":"경기도 수원시 장안구 파장동 582-26번지 일부 1층","indutype":"의류 - 정장","category":"other"},{"name":"플로하","tel":"031-244-3104","addr":"경기도 수원시 장안구 파장동 582-26번지 1층","indutype":"문화.취미 - 화원","category":"other"}]},{"lat":"37.308375119","long":"126.99772699","imageIndex":17,"items":[{"name":"페이스스토리","tel":"031-254-2018","addr":"경기도 수원시 장안구 파장동 469-37번지 301호","indutype":"문화.취미 - 화랑","category":"other"}]},{"lat":"37.320258896","long":"126.9890279","imageIndex":17,"items":[{"name":"평강보훈요양센터","tel":"031-271-1113","addr":"경기도 수원시 장안구 파장동 89-2번지","indutype":"기타의료기관 - 기타의료기관 및 기타","category":"other"}]},{"lat":"37.308708231","long":"126.99341797","imageIndex":17,"items":[{"name":"평화철물","tel":"031-242-4512","addr":"경기도 수원시 장안구 파장동 575-21번지 1층","indutype":"건축자재 - 목재·석재·철물","category":"other"}]},{"lat":"37.313339792","long":"126.9987532","imageIndex":17,"items":[{"name":"푸른꽃농원","tel":"031-255-9666","addr":"경기도 수원시 장안구 파장동 318-1","indutype":"문화.취미 - 화원","category":"other"}]},{"lat":"37.305762057","long":"126.99586603","imageIndex":17,"items":[{"name":"풋테크","tel":"","addr":"경기도 수원시 장안구 파장동 591-22번지","indutype":"신변잡화 - 신발","category":"other"},{"name":"행복창고","tel":"","addr":"경기도 수원시 장안구 파장동 591-22번지 1층","indutype":"의류 - 정장","category":"other"}]},{"lat":"37.310122338","long":"126.98847703","imageIndex":17,"items":[{"name":"플랜트리","tel":"031-245-8646","addr":"경기도 수원시 장안구 파장동 567-10번지","indutype":"회원제형태 - 기타4","category":"other"}]},{"lat":"37.309429392","long":"126.99997168","imageIndex":17,"items":[{"name":"플러스에어컨","tel":"070-8245-2145","addr":"경기도 수원시 장안구 파장동 408-9, 301호","indutype":"용역 서비스 - 기타용역서비스","category":"other"}]},{"lat":"37.310311632","long":"126.98914253","imageIndex":17,"items":[{"name":"하나전기","tel":"","addr":"경기도 수원시 장안구 파장동 564-18번지 하나전기","indutype":"수리서비스 - 기타수리서비스","category":"other"}]},{"lat":"37.306455958","long":"126.99814447","imageIndex":17,"items":[{"name":"하늘필름","tel":"","addr":"경기도 수원시 장안구 파장동 596-9번지 대왕빌라 2층 201호","indutype":"용역 서비스 - 종합용역","category":"other"}]},{"lat":"37.310041323","long":"126.98912002","imageIndex":17,"items":[{"name":"하얀세탁소","tel":"031-0000-0000","addr":"경기도 수원시 장안구 파장동 568번지","indutype":"수리서비스 - 세탁소","category":"other"}]},{"lat":"37.308644769","long":"126.98939099","imageIndex":17,"items":[{"name":"행복씽크인테리어","tel":"031-258-4260","addr":"경기도 수원시 장안구 파장동 570-24번지 1층","indutype":"가구 - 기타가구","category":"other"}]},{"lat":"37.305788961","long":"126.99398232","imageIndex":17,"items":[{"name":"행운오토바이","tel":"031-246-9209","addr":"경기도 수원시 장안구 파장동 589-5번지","indutype":"수리서비스 - 레져용품수리","category":"other"}]},{"lat":"37.305680922","long":"126.9951667","imageIndex":17,"items":[{"name":"현대철물","tel":"031-256-5764","addr":"경기도 수원시 장안구 파장동 591-11번지","indutype":"건축자재 - 목재·석재·철물","category":"other"}]},{"lat":"37.307870145","long":"126.99186144","imageIndex":17,"items":[{"name":"혜성인테리어","tel":"031-244-3059","addr":"경기도 수원시 장안구 파장동 573-4번지 1층","indutype":"건축자재 - 인테리어전문","category":"other"}]},{"lat":"37.310095246","long":"126.9879807","imageIndex":17,"items":[{"name":"혼수방가구점","tel":"031-247-3218","addr":"경기도 수원시 장안구 파장동 566-17번지 명보정","indutype":"가구 - 일반가구","category":"other"}]},{"lat":"37.307536928","long":"126.99375652","imageIndex":17,"items":[{"name":"홍성세탁소","tel":"031-252-0332","addr":"경기도 수원시 장안구 파장동 579-14번지 1층","indutype":"수리서비스 - 세탁소","category":"other"}]},{"lat":"37.308014427","long":"126.99320374","imageIndex":17,"items":[{"name":"휴대폰가게 파장점","tel":"","addr":"경기도 수원시 장안구 파장동 578-1번지","indutype":"사무통신 - 통신기기","category":"other"}]},{"lat":"37.310680969","long":"126.98845436","imageIndex":4,"items":[{"name":"(주)나비스코","tel":"070-8667-7614","addr":"경기도 수원시 장안구 파장동 566번지 1층","indutype":"일반휴게음식 - 스넥","category":"restaurant"}]},{"lat":"37.308644849","long":"126.99011292","imageIndex":4,"items":[{"name":"가나식당","tel":"031-268-0944","addr":"경기도 수원시 장안구 파장동 571번지 1층","indutype":"일반휴게음식 - 일반한식","category":"restaurant"}]},{"lat":"37.308203632","long":"126.99309092","imageIndex":4,"items":[{"name":"가마솥통닭","tel":"031-269-1705","addr":"경기도 수원시 장안구 파장동 575-31번지 1층","indutype":"일반휴게음식 - 일반한식","category":"restaurant"}]},{"lat":"37.310204043","long":"126.99497447","imageIndex":4,"items":[{"name":"가보자","tel":"031-271-1616","addr":"경기도 수원시 장안구 파장동 208-16번지","indutype":"일반휴게음식 - 일반한식","category":"restaurant"}]},{"lat":"37.314844568","long":"127.00213742","imageIndex":4,"items":[{"name":"강릉초당두부마을","tel":"031-241-3556","addr":"경기도 수원시 장안구 파장동 342-1번지","indutype":"일반휴게음식 - 일반한식","category":"restaurant"}]},{"lat":"37.313844397","long":"126.99983614","imageIndex":4,"items":[{"name":"강원도메밀막국수","tel":"031-226-8800","addr":"경기도 수원시 장안구 파장동 331-6번지","indutype":"일반휴게음식 - 일반한식","category":"restaurant"}]},{"lat":"37.315898764","long":"127.00217126","imageIndex":4,"items":[{"name":"개성집","tel":"031-223-8484","addr":"경기도 수원시 장안구 파장동 349-1번지 1층","indutype":"일반휴게음식 - 일반한식","category":"restaurant"}]},{"lat":"37.308762355","long":"126.99423013","imageIndex":4,"items":[{"name":"개코네막걸리","tel":"031-254-6012","addr":"경기도 수원시 장안구 파장동 576-7번지","indutype":"일반휴게음식 - 일반한식","category":"restaurant"},{"name":"전주명가","tel":"031-243-2234","addr":"경기도 수원시 장안구 파장동 576-7번지 1층","indutype":"일반휴게음식 - 일반한식","category":"restaurant"}]},{"lat":"37.305203467","long":"126.99664437","imageIndex":4,"items":[{"name":"고기명가","tel":"070-8261-0435","addr":"경기도 수원시 장안구 파장동 599-23번지 청도주택 102호","indutype":"일반휴게음식 - 일반한식","category":"restaurant"},{"name":"무등산이짐","tel":"031-258-8882","addr":"경기도 수원시 장안구 파장동 599-23번지 청도주택 101호","indutype":"일반휴게음식 - 일반한식","category":"restaurant"},{"name":"어부고집","tel":"","addr":"경기도 수원시 장안구 파장동 599-23번지 청도주택 1층 103호","indutype":"일반휴게음식 - 일반한식","category":"restaurant"},{"name":"오늘도그집","tel":"031-241-7197","addr":"경기도 수원시 장안구 파장동 599-23번지 청도주택 1층 104호","indutype":"일반휴게음식 - 일반한식","category":"restaurant"},{"name":"오땅비어 파장점","tel":"031-244-9425","addr":"경기도 수원시 장안구 파장동 599-23번지 청도주택 105호","indutype":"일반휴게음식 - 일반한식","category":"restaurant"}]},{"lat":"37.309924506","long":"126.99217699","imageIndex":4,"items":[{"name":"곤지암소머리국밥","tel":"031-243-1357","addr":"경기도 수원시 장안구 파장동 575번지","indutype":"일반휴게음식 - 일반한식","category":"restaurant"},{"name":"소머리국밥","tel":"031-43-1357","addr":"경기도 수원시 장안구 파장동 575번지","indutype":"일반휴게음식 - 일반한식","category":"restaurant"}]},{"lat":"37.307095327","long":"126.99253835","imageIndex":4,"items":[{"name":"공릉동원조멸치국수","tel":"031-268-9933","addr":"경기도 수원시 장안구 파장동 580번지 동영빌딩 1층 104호","indutype":"일반휴게음식 - 일반한식","category":"restaurant"},{"name":"독산성족발순대국","tel":"031-271-3773","addr":"경기도 수원시 장안구 파장동 580외2필지 동여빌딩106호","indutype":"일반휴게음식 - 일반한식","category":"restaurant"},{"name":"이모네분식","tel":"031-245-8100","addr":"경기도 수원시 장안구 파장동 580번지 동영빌딩 109호","indutype":"일반휴게음식 - 스넥","category":"restaurant"}]},{"lat":"37.306870199","long":"126.99411755","imageIndex":4,"items":[{"name":"공주식당","tel":"031-244-5657","addr":"경기도 수원시 장안구 파장동 583-32번지","indutype":"일반휴게음식 - 주점","category":"restaurant"},{"name":"미네르바","tel":"031-244-2147","addr":"경기도 수원시 장안구 파장동 583-32번지","indutype":"일반휴게음식 - 칵테일바","category":"restaurant"}]},{"lat":"37.316673644","long":"127.00291581","imageIndex":4,"items":[{"name":"광교산생고기","tel":"031-269-8200","addr":"경기도 수원시 장안구 파장동 361번지","indutype":"일반휴게음식 - 일반한식","category":"restaurant"}]},{"lat":"37.30676188","long":"126.99178265","imageIndex":4,"items":[{"name":"광어두마리회전문점","tel":"031-271-9090","addr":"경기도 수원시 장안구 파장동 572-39번지 1층","indutype":"일반휴게음식 - 일식·회집","category":"restaurant"},{"name":"소문난순대","tel":"031-244-7026","addr":"경기도 수원시 장안구 파장동 572-39번지","indutype":"일반휴게음식 - 일반한식","category":"restaurant"},{"name":"투다리파장점","tel":"031-268-2543","addr":"경기도 수원시 장안구 파장동 572-39번지","indutype":"일반휴게음식 - 일반한식","category":"restaurant"}]},{"lat":"37.310510534","long":"126.99753508","imageIndex":4,"items":[{"name":"교동짬뽕","tel":"031-248-2288","addr":"경기도 수원시 장안구 파장동 378-1번지 [파장동]","indutype":"일반휴게음식 - 중국식","category":"restaurant"}]},{"lat":"37.307374663","long":"126.99275263","imageIndex":4,"items":[{"name":"구구식당","tel":"031-247-9556","addr":"경기도 수원시 장안구 파장동 579-35번지","indutype":"일반휴게음식 - 스넥","category":"restaurant"}]},{"lat":"37.306762094","long":"126.99436572","imageIndex":4,"items":[{"name":"궁","tel":"031-255-3450","addr":"경기도 수원시 장안구 파장동 588-30번지 1층","indutype":"일반휴게음식 - 일반한식","category":"restaurant"},{"name":"수잔식당","tel":"031-257-7591","addr":"경기도 수원시 장안구 파장동 588-30번지","indutype":"일반휴게음식 - 일반한식","category":"restaurant"}]},{"lat":"37.310122939","long":"126.99480527","imageIndex":4,"items":[{"name":"그집곱창","tel":"031-241-9251","addr":"경기도 수원시 장안구 파장동 208-15번지","indutype":"일반휴게음식 - 일반한식","category":"restaurant"}]},{"lat":"37.307870283","long":"126.99345192","imageIndex":4,"items":[{"name":"그집해물","tel":"031-000-0000","addr":"경기도 수원시 장안구 파장동 578-4번지 1층 101호","indutype":"일반휴게음식 - 일반한식","category":"restaurant"},{"name":"동방양꼬치","tel":"031-253-0690","addr":"경기도 수원시 장안구 파장동 578-4번지 1층","indutype":"일반휴게음식 - 일반한식","category":"restaurant"},{"name":"시골집","tel":"031-255-3124","addr":"경기도 수원시 장안구 파장동 578-4번지","indutype":"일반휴게음식 - 일반한식","category":"restaurant"}]},{"lat":"37.306590726","long":"126.99222258","imageIndex":4,"items":[{"name":"금동회집","tel":"031-245-4057","addr":"경기도 수원시 장안구 파장동 580-9번지","indutype":"일반휴게음식 - 일식·회집","category":"restaurant"},{"name":"북촌삼대갈비","tel":"031-268-3463","addr":"경기도 수원시 장안구 파장동 580-9번지 연세이비인후과 202호","indutype":"일반휴게음식 - 일반한식","category":"restaurant"}]},{"lat":"37.308564119","long":"126.99408352","imageIndex":4,"items":[{"name":"금치미김치찌개전문점","tel":"031-224-7514","addr":"경기도 수원시 장안구 파장동 577-6번지 1층","indutype":"일반휴게음식 - 일반한식","category":"restaurant"}]},{"lat":"37.309897653","long":"126.99436537","imageIndex":4,"items":[{"name":"김밥&국수","tel":"031-269-0701","addr":"경기도 수원시 장안구 파장동 209-1번지 대영프라자 1층 113호","indutype":"일반휴게음식 - 일반한식","category":"restaurant"},{"name":"빅타임","tel":"031-268-2831","addr":"경기도 수원시 장안구 파장동 209-1번지 대영프라자 119호","indutype":"일반휴게음식 - 주점","category":"restaurant"},{"name":"소담","tel":"031-271-3670","addr":"경기도 수원시 장안구 파장동 209-1번지 대영프라자 121호","indutype":"일반휴게음식 - 일반한식","category":"restaurant"},{"name":"이만세삼겹살","tel":"031-256-3013","addr":"경기도 수원시 장안구 파장동 209-1번지 대영프라자 116~117호","indutype":"일반휴게음식 - 일반한식","category":"restaurant"},{"name":"이어도수산","tel":"031-269-8808","addr":"경기도 수원시 장안구 파장동 209-1번지 대영프라자 120호","indutype":"일반휴게음식 - 일반한식","category":"restaurant"},{"name":"청진동해장국","tel":"031-269-6604","addr":"경기도 수원시 장안구 파장동 209-1번지 대영프라자 114호","indutype":"일반휴게음식 - 일반한식","category":"restaurant"}]},{"lat":"37.305734958","long":"126.99478318","imageIndex":4,"items":[{"name":"김밥마을","tel":"031-244-1003","addr":"경기도 수원시 장안구 파장동 590-8번지","indutype":"일반휴게음식 - 스넥","category":"restaurant"},{"name":"포장마차","tel":"070-8180-3665","addr":"경기도 수원시 장안구 파장동 590-8번지","indutype":"일반휴게음식 - 주점","category":"restaurant"}]},{"lat":"37.309041629","long":"126.9936661","imageIndex":4,"items":[{"name":"깡돈","tel":"031-269-5922","addr":"경기도 수원시 장안구 파장동 575-15번지 1층","indutype":"일반휴게음식 - 일반한식","category":"restaurant"}]},{"lat":"37.309068686","long":"126.9940045","imageIndex":4,"items":[{"name":"꼬꼬랑호프랑","tel":"031-268-2460","addr":"경기도 수원시 장안구 파장동 576번지 2층","indutype":"일반휴게음식 - 주점","category":"restaurant"}]},{"lat":"37.304230414","long":"126.99772727","imageIndex":4,"items":[{"name":"꼴통포차","tel":"031-258-7133","addr":"경기도 수원시 장안구 파장동 461-40번지 할인백화점 1층","indutype":"일반휴게음식 - 일반한식","category":"restaurant"},{"name":"엔조이락","tel":"031-258-2170","addr":"경기도 수원시 장안구 파장동 461-40번지 할인백화점","indutype":"일반휴게음식 - 주점","category":"restaurant"}]},{"lat":"37.304095256","long":"126.99761449","imageIndex":4,"items":[{"name":"꽁술","tel":"031-253-6741","addr":"경기도 수원시 장안구 파장동 501-20번지","indutype":"일반휴게음식 - 주점","category":"restaurant"},{"name":"오늘도옴서감서","tel":"031-255-1089","addr":"경기도 수원시 장안구 파장동 501-20번지 1층","indutype":"일반휴게음식 - 일반한식","category":"restaurant"},{"name":"힐링","tel":"031-255-6331","addr":"경기도 수원시 장안구 파장동 501-20번지 1층","indutype":"일반휴게음식 - 일반한식","category":"restaurant"}]},{"lat":"37.305951133","long":"126.99381311","imageIndex":4,"items":[{"name":"꽃보다 남자","tel":"","addr":"경기도 수원시 장안구 파장동 589-7번지 1층","indutype":"일반휴게음식 - 서양음식","category":"restaurant"},{"name":"나그랑","tel":"","addr":"경기도 수원시 장안구 파장동 589-7번지 1층","indutype":"일반휴게음식 - 주점","category":"restaurant"},{"name":"러브데이","tel":"031-246-8289","addr":"경기도 수원시 장안구 파장동 589-7번지","indutype":"일반휴게음식 - 일반한식","category":"restaurant"},{"name":"투인","tel":"031-246-2335","addr":"경기도 수원시 장안구 파장동 589-7번지","indutype":"일반휴게음식 - 주점","category":"restaurant"}]},{"lat":"37.309095809","long":"126.99533555","imageIndex":4,"items":[{"name":"나드리칼국수","tel":"031-254-7265","addr":"경기도 수원시 장안구 파장동 266-2번지 1층","indutype":"일반휴게음식 - 스넥","category":"restaurant"},{"name":"명가수육국밥","tel":"031-206-2929","addr":"경기도 수원시 장안구 파장동 266-2번지 1층","indutype":"일반휴게음식 - 일반한식","category":"restaurant"}]},{"lat":"37.30959082","long":"126.98919906","imageIndex":4,"items":[{"name":"남경식당","tel":"031-242-9247","addr":"경기도 수원시 장안구 파장동 569-7번지","indutype":"일반휴게음식 - 일반한식","category":"restaurant"}]},{"lat":"37.308068551","long":"126.99400461","imageIndex":4,"items":[{"name":"내커피","tel":"070-8202-2623","addr":"경기도 수원시 장안구 파장동 578-17번지","indutype":"일반휴게음식 - 서양음식","category":"restaurant"}]},{"lat":"37.306482765","long":"126.99419656","imageIndex":4,"items":[{"name":"노빠꾸 (북수원점)","tel":"031-244-9269","addr":"경기도 수원시 장안구 파장동 589-17번지","indutype":"일반휴게음식 - 일반한식","category":"restaurant"}]},{"lat":"37.306978157","long":"126.99212101","imageIndex":4,"items":[{"name":"놀부한방족발","tel":"031-255-9991","addr":"경기도 수원시 장안구 파장동 572-35번지 1층","indutype":"일반휴게음식 - 일반한식","category":"restaurant"}]},{"lat":"37.308761884","long":"126.98923305","imageIndex":4,"items":[{"name":"농장통닭파장본점","tel":"031-252-3174","addr":"경기도 수원시 장안구 파장동 570-16번지","indutype":"일반휴게음식 - 일반한식","category":"restaurant"}]},{"lat":"37.307203594","long":"126.99434311","imageIndex":4,"items":[{"name":"느낌","tel":"031-241-7865","addr":"경기도 수원시 장안구 파장동 583-28번지","indutype":"일반휴게음식 - 일반한식","category":"restaurant"},{"name":"물망초","tel":"031-257-4332","addr":"경기도 수원시 장안구 파장동 583-28번지","indutype":"일반휴게음식 - 일반한식","category":"restaurant"}]},{"lat":"37.307149528","long":"126.99428672","imageIndex":4,"items":[{"name":"늘봄","tel":"031-268-7982","addr":"경기도 수원시 장안구 파장동 583-29번지 1층","indutype":"일반휴게음식 - 일반한식","category":"restaurant"},{"name":"루비","tel":"031-111-1111","addr":"경기도 수원시 장안구 파장동 583-29번지 1층","indutype":"일반휴게음식 - 주점","category":"restaurant"}]},{"lat":"37.307041174","long":"126.99153445","imageIndex":4,"items":[{"name":"다원호프","tel":"","addr":"경기도 수원시 장안구 파장동 572-41번지 1층","indutype":"일반휴게음식 - 일반한식","category":"restaurant"}]},{"lat":"37.306590892","long":"126.99425294","imageIndex":4,"items":[{"name":"단비","tel":"031-254-5889","addr":"경기도 수원시 장안구 파장동 589번지 1층","indutype":"일반휴게음식 - 일반한식","category":"restaurant"},{"name":"쉼터","tel":"031-252-1541","addr":"경기도 수원시 장안구 파장동 589번지 1층","indutype":"일반휴게음식 - 주점","category":"restaurant"},{"name":"우연","tel":"031-244-0961","addr":"경기도 수원시 장안구 파장동 589번지","indutype":"일반휴게음식 - 일반한식","category":"restaurant"}]},{"lat":"37.306203402","long":"126.99358748","imageIndex":4,"items":[{"name":"달의연인","tel":"","addr":"경기도 수원시 장안구 파장동 582-16번지","indutype":"일반휴게음식 - 일반한식","category":"restaurant"},{"name":"더끌림","tel":"","addr":"경기도 수원시 장안구 파장동 582-16번지","indutype":"일반휴게음식 - 일반한식","category":"restaurant"},{"name":"밤안개","tel":"031-271-3369","addr":"경기도 수원시 장안구 파장동 582-16번지","indutype":"일반휴게음식 - 주점","category":"restaurant"},{"name":"별","tel":"031-268-0182","addr":"경기도 수원시 장안구 파장동 582-16번지","indutype":"일반휴게음식 - 일반한식","category":"restaurant"}]},{"lat":"37.309672425","long":"126.9947602","imageIndex":4,"items":[{"name":"대관령장칼국수","tel":"031-269-5776","addr":"경기도 수원시 장안구 파장동 267-6번지 1층","indutype":"일반휴게음식 - 일반한식","category":"restaurant"}]},{"lat":"37.30664486","long":"126.99305728","imageIndex":4,"items":[{"name":"대관령정육식당","tel":"031-269-1790","addr":"경기도 수원시 장안구 파장동 582번지 1층","indutype":"일반휴게음식 - 일반한식","category":"restaurant"}]},{"lat":"37.30459083","long":"126.99789644","imageIndex":4,"items":[{"name":"대구뽈찜","tel":"031-247-7772","addr":"경기도 수원시 장안구 파장동 600-16번지","indutype":"일반휴게음식 - 일반한식","category":"restaurant"}]},{"lat":"37.305788961","long":"126.99398232","imageIndex":4,"items":[{"name":"대전순대24시","tel":"031-256-0120","addr":"경기도 수원시 장안구 파장동 589-5번지","indutype":"일반휴게음식 - 일반한식","category":"restaurant"},{"name":"짬뽕달인24시","tel":"031-254-9777","addr":"경기도 수원시 장안구 파장동 589-5번지","indutype":"일반휴게음식 - 중국식","category":"restaurant"},{"name":"코리안숯불바베큐","tel":"031-248-9298","addr":"경기도 수원시 장안구 파장동 589-5번지","indutype":"일반휴게음식 - 스넥","category":"restaurant"}]},{"lat":"37.307951474","long":"126.99478295","imageIndex":4,"items":[{"name":"동하네 정육식당","tel":"031-223-5214","addr":"경기도 수원시 장안구 파장동 584-7번지 1층","indutype":"일반휴게음식 - 일반한식","category":"restaurant"},{"name":"선복집","tel":"031-242-8302","addr":"경기도 수원시 장안구 파장동 584-7번지","indutype":"일반휴게음식 - 일반한식","category":"restaurant"}]},{"lat":"37.306374484","long":"126.99225645","imageIndex":4,"items":[{"name":"돼만족","tel":"031-271-5848","addr":"경기도 수원시 장안구 파장동 580-6번지","indutype":"일반휴게음식 - 일반한식","category":"restaurant"},{"name":"호프한잔더","tel":"031-256-5736","addr":"경기도 수원시 장안구 파장동 580-6번지","indutype":"일반휴게음식 - 주점","category":"restaurant"}]},{"lat":"37.30981671","long":"126.99677935","imageIndex":4,"items":[{"name":"두리아치킨","tel":"031-269-9288","addr":"경기도 수원시 장안구 파장동 476-1번지 1층","indutype":"일반휴게음식 - 일반한식","category":"restaurant"}]},{"lat":"37.306203377","long":"126.99328293","imageIndex":4,"items":[{"name":"떡싸롱파장점","tel":"031-268-9797","addr":"경기도 수원시 장안구 파장동 582-26번지","indutype":"일반휴게음식 - 스넥","category":"restaurant"},{"name":"커피콩","tel":"070-8114-1614","addr":"경기도 수원시 장안구 파장동 582-26번지 1층","indutype":"일반휴게음식 - 서양음식","category":"restaurant"}]},{"lat":"37.303734826","long":"126.99717462","imageIndex":4,"items":[{"name":"또래오래치킨","tel":"031-241-9993","addr":"경기도 수원시 장안구 파장동 501-79번지","indutype":"일반휴게음식 - 스넥","category":"restaurant"}]},{"lat":"37.304734926","long":"126.99647522","imageIndex":4,"items":[{"name":"뜰17","tel":"031-258-4521","addr":"경기도 수원시 장안구 파장동 495-44번지 1층","indutype":"일반휴게음식 - 서양음식","category":"restaurant"}]},{"lat":"37.304014123","long":"126.99677982","imageIndex":4,"items":[{"name":"락","tel":"031-244-4189","addr":"경기도 수원시 장안구 파장동 495-25번지","indutype":"일반휴게음식 - 주점","category":"restaurant"},{"name":"육수가 맛있는 우동집","tel":"031-248-9919","addr":"경기도 수원시 장안구 파장동 495-25번지 1층","indutype":"일반휴게음식 - 일반한식","category":"restaurant"}]},{"lat":"37.307428861","long":"126.99450101","imageIndex":4,"items":[{"name":"로즈마리","tel":"031-241-7192","addr":"경기도 수원시 장안구 파장동 583-15번지","indutype":"일반휴게음식 - 주점","category":"restaurant"}]},{"lat":"37.305734924","long":"126.99430944","imageIndex":4,"items":[{"name":"류가","tel":"031-244-1238","addr":"경기도 수원시 장안구 파장동 590-10번지 2층","indutype":"일반휴게음식 - 일식·회집","category":"restaurant"},{"name":"해피홈 (피자.치킨)","tel":"031-207-1959","addr":"경기도 수원시 장안구 파장동 590-10번지 1층","indutype":"일반휴게음식 - 서양음식","category":"restaurant"}]},{"lat":"37.307564018","long":"126.99455739","imageIndex":4,"items":[{"name":"리치","tel":"031-269-2508","addr":"경기도 수원시 장안구 파장동 583-14번지","indutype":"일반휴게음식 - 주점","category":"restaurant"},{"name":"카라","tel":"031-243-3459","addr":"경기도 수원시 장안구 파장동 583-14번지 1층","indutype":"일반휴게음식 - 주점","category":"restaurant"},{"name":"카라","tel":"031-243-3459","addr":"경기도 수원시 장안구 파장동 583-14번지","indutype":"일반휴게음식 - 일반한식","category":"restaurant"}]},{"lat":"37.30851002","long":"126.9935872","imageIndex":4,"items":[{"name":"마성의초밥&참치","tel":"031-269-1377","addr":"경기도 수원시 장안구 파장동 577-10번지 1층","indutype":"일반휴게음식 - 일식·회집","category":"restaurant"},{"name":"엄마손꼬마김밥","tel":"031-893-5329","addr":"경기도 수원시 장안구 파장동 577-10번지 1층","indutype":"일반휴게음식 - 일반한식","category":"restaurant"}]},{"lat":"37.307482767","long":"126.9925383","imageIndex":4,"items":[{"name":"만두나라","tel":"031-252-2440","addr":"경기도 수원시 장안구 파장동 573-40번지","indutype":"일반휴게음식 - 스넥","category":"restaurant"}]},{"lat":"37.322034102","long":"126.99081014","imageIndex":4,"items":[{"name":"만상","tel":"031-246-9779","addr":"경기도 수원시 장안구 파장동 22번지","indutype":"일반휴게음식 - 일반한식","category":"restaurant"}]},{"lat":"37.30756369","long":"126.99075606","imageIndex":4,"items":[{"name":"맛나통닭","tel":"031-255-4260","addr":"경기도 수원시 장안구 파장동 572-58번지","indutype":"일반휴게음식 - 스넥","category":"restaurant"}]},{"lat":"37.315259037","long":"127.00194564","imageIndex":4,"items":[{"name":"명문가천안생태찌개전문","tel":"031-258-8899","addr":"경기도 수원시 장안구 파장동 343-7번지","indutype":"일반휴게음식 - 일반한식","category":"restaurant"},{"name":"화이트스톤(WHITE STONE)","tel":"031-268-7822","addr":"경기도 수원시 장안구 파장동 343-7번지","indutype":"일반휴게음식 - 서양음식","category":"restaurant"}]},{"lat":"37.312790166","long":"126.99867427","imageIndex":4,"items":[{"name":"명원","tel":"031-268-8277","addr":"경기도 수원시 장안구 파장동 318-3번지","indutype":"일반휴게음식 - 일반한식","category":"restaurant"}]},{"lat":"37.308645197","long":"126.99389175","imageIndex":4,"items":[{"name":"무송식당","tel":"031-251-7198","addr":"경기도 수원시 장안구 파장동 577-1번지","indutype":"일반휴게음식 - 일반한식","category":"restaurant"}]},{"lat":"37.310735657","long":"126.99514362","imageIndex":4,"items":[{"name":"박스","tel":"031-269-5181","addr":"경기도 수원시 장안구 파장동 206-11번지 1층","indutype":"일반휴게음식 - 주점","category":"restaurant"}]},{"lat":"37.316006884","long":"127.00188922","imageIndex":4,"items":[{"name":"밤나무집","tel":"031-254-5238","addr":"경기도 수원시 장안구 파장동 350번지","indutype":"일반휴게음식 - 일반한식","category":"restaurant"}]},{"lat":"37.318006308","long":"126.98872371","imageIndex":4,"items":[{"name":"백세삼계탕","tel":"031-111-1111","addr":"경기도 수원시 장안구 파장동 110-5번지 1층 102호","indutype":"일반휴게음식 - 일반한식","category":"restaurant"}]},{"lat":"37.31779006","long":"126.98870119","imageIndex":4,"items":[{"name":"백세짬뽕","tel":"031-111-1111","addr":"경기도 수원시 장안구 파장동 110-2번지 1층","indutype":"일반휴게음식 - 중국식","category":"restaurant"}]},{"lat":"37.311284755","long":"126.98931156","imageIndex":4,"items":[{"name":"번라이스 영계 북수원점","tel":"031-268-3063","addr":"경기도 수원시 장안구 파장동 555-11번지","indutype":"일반휴게음식 - 일반한식","category":"restaurant"}]},{"lat":"37.307374506","long":"126.99106064","imageIndex":4,"items":[{"name":"보드람치킨","tel":"031-253-9993","addr":"경기도 수원시 장안구 파장동 572-55번지","indutype":"일반휴게음식 - 주점","category":"restaurant"}]},{"lat":"37.309312029","long":"126.994952","imageIndex":4,"items":[{"name":"봉달이설렁탕","tel":"031-269-2210","addr":"경기도 수원시 장안구 파장동 266-12번지 1층","indutype":"일반휴게음식 - 일반한식","category":"restaurant"}]},{"lat":"37.305987118","long":"126.99311376","imageIndex":4,"items":[{"name":"부엉이주점","tel":"070-8202-0503","addr":"경기도 수원시 장안구 파장동 581-4번지 2층","indutype":"일반휴게음식 - 주점","category":"restaurant"}]},{"lat":"37.303509573","long":"126.99723103","imageIndex":4,"items":[{"name":"북경루","tel":"031-242-1580","addr":"경기도 수원시 장안구 파장동 495-32번지 1층","indutype":"일반휴게음식 - 중국식","category":"restaurant"},{"name":"페리카나(동신점)","tel":"031-244-0776","addr":"경기도 수원시 장안구 파장동 495-32번지","indutype":"일반휴게음식 - 스넥","category":"restaurant"}]},{"lat":"37.309374984","long":"126.99336149","imageIndex":4,"items":[{"name":"북촌냉면","tel":"031-205-2241","addr":"경기도 수원시 장안구 파장동 575-8번지 1층","indutype":"일반휴게음식 - 일반한식","category":"restaurant"}]},{"lat":"37.308924035","long":"126.98895102","imageIndex":4,"items":[{"name":"브라운시티","tel":"031-256-4247","addr":"경기도 수원시 장안구 파장동 570-12번지 청운대중탕 102호","indutype":"일반휴게음식 - 주점","category":"restaurant"}]},{"lat":"37.306068242","long":"126.99350854","imageIndex":4,"items":[{"name":"브루네손칼국수","tel":"031-268-1291","addr":"경기도 수원시 장안구 파장동 582-18번지 1층","indutype":"일반휴게음식 - 일반한식","category":"restaurant"}]},{"lat":"37.31131208","long":"126.9921768","imageIndex":4,"items":[{"name":"블랙디타이거","tel":"","addr":"경기도 수원시 장안구 파장동 218-13번지 1층","indutype":"일반휴게음식 - 서양음식","category":"restaurant"}]},{"lat":"37.304951171","long":"126.9964752","imageIndex":4,"items":[{"name":"비다벨로","tel":"031-246-7066","addr":"경기도 수원시 장안구 파장동 495-38번지 1층","indutype":"일반휴게음식 - 서양음식","category":"restaurant"},{"name":"빵구네닭발","tel":"","addr":"경기도 수원시 장안구 파장동 495-38번지 1층","indutype":"일반휴게음식 - 일반한식","category":"restaurant"}]},{"lat":"37.307591081","long":"126.99503114","imageIndex":4,"items":[{"name":"비비큐앤치킨","tel":"031-258-2350","addr":"경기도 수원시 장안구 파장동 588번지","indutype":"일반휴게음식 - 서양음식","category":"restaurant"}]},{"lat":"37.305068328","long":"126.99692637","imageIndex":4,"items":[{"name":"빨강돼지","tel":"031-256-9233","addr":"경기도 수원시 장안구 파장동 599-15번지","indutype":"일반휴게음식 - 일반한식","category":"restaurant"}]},{"lat":"37.310068563","long":"126.99106022","imageIndex":4,"items":[{"name":"뺑골집","tel":"031-257-5337","addr":"경기도 수원시 장안구 파장동 556-5번지","indutype":"일반휴게음식 - 일반한식","category":"restaurant"}]},{"lat":"37.308095643","long":"126.99486189","imageIndex":4,"items":[{"name":"산골짜기쌈밥마을","tel":"031-242-8279","addr":"경기도 수원시 장안구 파장동 584-12번지","indutype":"일반휴게음식 - 일반한식","category":"restaurant"}]},{"lat":"37.312150458","long":"126.99919321","imageIndex":4,"items":[{"name":"산촌","tel":"031-269-1266","addr":"경기도 수원시 장안구 파장동 369-1번지","indutype":"일반휴게음식 - 일반한식","category":"restaurant"}]},{"lat":"37.308536672","long":"126.98961661","imageIndex":4,"items":[{"name":"상하이용","tel":"031-255-5896","addr":"경기도 수원시 장안구 파장동 570-26번지 1층","indutype":"일반휴게음식 - 중국식","category":"restaurant"}]},{"lat":"37.306870109","long":"126.99297829","imageIndex":4,"items":[{"name":"서박사곱창집","tel":"031-248-0068","addr":"경기도 수원시 장안구 파장동 579-29번지","indutype":"일반휴게음식 - 일반한식","category":"restaurant"},{"name":"초원정","tel":"","addr":"경기도 수원시 장안구 파장동 579-29번지","indutype":"일반휴게음식 - 일반한식","category":"restaurant"}]},{"lat":"37.309816594","long":"126.99483915","imageIndex":4,"items":[{"name":"설맥(북수원점)","tel":"070-7848-4869","addr":"경기도 수원시 장안구 파장동 267-3번지 1층","indutype":"일반휴게음식 - 일반한식","category":"restaurant"}]},{"lat":"37.306068272","long":"126.99389205","imageIndex":4,"items":[{"name":"센스오","tel":"031-257-0555","addr":"경기도 수원시 장안구 파장동 589-8번지","indutype":"일반휴게음식 - 주점","category":"restaurant"},{"name":"총장","tel":"031-242-4794","addr":"경기도 수원시 장안구 파장동 589-8번지 1층","indutype":"일반휴게음식 - 주점","category":"restaurant"},{"name":"향기","tel":"031-255-8522","addr":"경기도 수원시 장안구 파장동 589-8번지","indutype":"일반휴게음식 - 서양음식","category":"restaurant"}]},{"lat":"37.308564061","long":"126.99333903","imageIndex":4,"items":[{"name":"소문난부침개","tel":"","addr":"경기도 수원시 장안구 파장동 575-25번지 1층","indutype":"일반휴게음식 - 일반한식","category":"restaurant"}]},{"lat":"37.32275499","long":"126.99153209","imageIndex":4,"items":[{"name":"솔가","tel":"031-269-2008","addr":"경기도 수원시 장안구 파장동 21-5번지 1층","indutype":"일반휴게음식 - 일반한식","category":"restaurant"}]},{"lat":"37.311375171","long":"126.99239112","imageIndex":4,"items":[{"name":"송정각","tel":"031-268-8284","addr":"경기도 수원시 장안구 파장동 218-10번지 1층","indutype":"일반휴게음식 - 중국식","category":"restaurant"}]},{"lat":"37.308374837","long":"126.99322626","imageIndex":4,"items":[{"name":"솥뚜껑 매운오뎅","tel":"","addr":"경기도 수원시 장안구 파장동 575-27번지","indutype":"일반휴게음식 - 스넥","category":"restaurant"}]},{"lat":"37.305041269","long":"126.99639623","imageIndex":4,"items":[{"name":"수원수산물센타","tel":"031-245-4359","addr":"경기도 수원시 장안구 파장동 495-37번지","indutype":"일반휴게음식 - 일식·회집","category":"restaurant"},{"name":"엄마닭","tel":"031-257-0138","addr":"경기도 수원시 장안구 파장동 495-37번지","indutype":"일반휴게음식 - 주점","category":"restaurant"}]},{"lat":"37.30465385","long":"126.99677977","imageIndex":4,"items":[{"name":"슈퍼맵짱떡볶이","tel":"031-242-1253","addr":"경기도 수원시 장안구 파장동 501-44번지","indutype":"일반휴게음식 - 스넥","category":"restaurant"}]},{"lat":"37.31364618","long":"127.00014073","imageIndex":4,"items":[{"name":"시골고향청국장","tel":"031-256-1950","addr":"경기도 수원시 장안구 파장동 330-1번지","indutype":"일반휴게음식 - 일반한식","category":"restaurant"}]},{"lat":"37.307068359","long":"126.99328282","imageIndex":4,"items":[{"name":"시골밥집","tel":"031-257-6717","addr":"경기도 수원시 장안구 파장동 579-26번지","indutype":"일반휴게음식 - 일반한식","category":"restaurant"},{"name":"시골밥집","tel":"031-257-6717","addr":"경기도 수원시 장안구 파장동 579-26번지","indutype":"일반휴게음식 - 일반한식","category":"restaurant"}]},{"lat":"37.30328431","long":"126.99708442","imageIndex":4,"items":[{"name":"시카고닭빨","tel":"031-243-3080","addr":"경기도 수원시 장안구 파장동 495-49번지 1층","indutype":"일반휴게음식 - 일반한식","category":"restaurant"}]},{"lat":"37.309951755","long":"126.99495194","imageIndex":4,"items":[{"name":"식당친구","tel":"031-269-9520","addr":"경기도 수원시 장안구 파장동 267-1번지 1층","indutype":"일반휴게음식 - 일반한식","category":"restaurant"},{"name":"평양식당","tel":"031-269-2415","addr":"경기도 수원시 장안구 파장동 267-1번지","indutype":"일반휴게음식 - 일반한식","category":"restaurant"},{"name":"피자꽁떼","tel":"031-268-8286","addr":"경기도 수원시 장안구 파장동 267-1번지 1층","indutype":"일반휴게음식 - 스넥","category":"restaurant"}]},{"lat":"37.307789418","long":"126.99694871","imageIndex":4,"items":[{"name":"신나는대게파티","tel":"031-256-3433","addr":"경기도 수원시 장안구 파장동 594-11번지 양평해장국 가동 1층","indutype":"일반휴게음식 - 일반한식","category":"restaurant"}]},{"lat":"37.304680869","long":"126.99656546","imageIndex":4,"items":[{"name":"신만리장성","tel":"031-254-2826","addr":"경기도 수원시 장안구 파장동 495-43번지","indutype":"일반휴게음식 - 중국식","category":"restaurant"}]},{"lat":"37.307455592","long":"126.99100423","imageIndex":4,"items":[{"name":"썬","tel":"031-242-8656","addr":"경기도 수원시 장안구 파장동 572-56번지","indutype":"일반휴게음식 - 칵테일바","category":"restaurant"}]},{"lat":"37.320898682","long":"126.98955803","imageIndex":4,"items":[{"name":"쏘모스(SOMOS)","tel":"031-268-1040","addr":"경기도 수원시 장안구 파장동 100-2번지 1층","indutype":"일반휴게음식 - 서양음식","category":"restaurant"}]},{"lat":"37.307536815","long":"126.99239165","imageIndex":4,"items":[{"name":"씨씨존","tel":"031-248-2805","addr":"경기도 수원시 장안구 파장동 573-39번지","indutype":"일반휴게음식 - 일반한식","category":"restaurant"}]},{"lat":"37.309843428","long":"126.99233493","imageIndex":4,"items":[{"name":"아리랑수산","tel":"031-268-7753","addr":"경기도 수원시 장안구 파장동 575-34번지 1층","indutype":"일반휴게음식 - 일반한식","category":"restaurant"}]},{"lat":"37.310483","long":"126.99073303","imageIndex":4,"items":[{"name":"아주편한건강카페샘","tel":"031-242-0877","addr":"경기도 수원시 장안구 파장동 556-1번지 1층","indutype":"일반휴게음식 - 서양음식","category":"restaurant"}]},{"lat":"37.309591319","long":"126.99455717","imageIndex":4,"items":[{"name":"알콩달콩","tel":"031-111-1111","addr":"경기도 수원시 장안구 파장동 266-1번지","indutype":"일반휴게음식 - 서양음식","category":"restaurant"},{"name":"조한준의 준참치&스시","tel":"031-268-8088","addr":"경기도 수원시 장안구 파장동 266-1번지 1층 3호","indutype":"일반휴게음식 - 일식·회집","category":"restaurant"}]},{"lat":"37.309672534","long":"126.9965312","imageIndex":4,"items":[{"name":"얼씨구절씨구","tel":"031-257-8050","addr":"경기도 수원시 장안구 파장동 476-3번지","indutype":"일반휴게음식 - 일반한식","category":"restaurant"}]},{"lat":"37.312096384","long":"126.99880967","imageIndex":4,"items":[{"name":"얼큰이찌게마을파장점","tel":"031-271-6978","addr":"경기도 수원시 장안구 파장동 327-1번지 1층","indutype":"일반휴게음식 - 일반한식","category":"restaurant"}]},{"lat":"37.31561883","long":"126.99077732","imageIndex":4,"items":[{"name":"에이미스커피","tel":"031-548-2745","addr":"경기도 수원시 장안구 파장동 184번지 경기도인재개발원","indutype":"일반휴게음식 - 서양음식","category":"restaurant"}]},{"lat":"37.308176457","long":"126.99147788","imageIndex":4,"items":[{"name":"에이치에스식품","tel":"031-241-7674","addr":"경기도 수원시 장안구 파장동 573번지 1층","indutype":"일반휴게음식 - 일반한식","category":"restaurant"}]},{"lat":"37.308951755","long":"126.99730959","imageIndex":4,"items":[{"name":"예뜨랑","tel":"031-247-1254","addr":"경기도 수원시 장안구 파장동 472-5번지","indutype":"일반휴게음식 - 스넥","category":"restaurant"}]},{"lat":"37.305680911","long":"126.99500878","imageIndex":4,"items":[{"name":"옛날통닭","tel":"031-207-3600","addr":"경기도 수원시 장안구 파장동 591-12번지","indutype":"일반휴게음식 - 일반한식","category":"restaurant"},{"name":"파장벽산블루밍점피자마루","tel":"031-246-1082","addr":"경기도 수원시 장안구 파장동 591-12번지 1층","indutype":"일반휴게음식 - 서양음식","category":"restaurant"}]},{"lat":"37.30656383","long":"126.99383559","imageIndex":4,"items":[{"name":"오렌지","tel":"","addr":"경기도 수원시 장안구 파장동 582-10번지","indutype":"일반휴게음식 - 주점","category":"restaurant"}]},{"lat":"37.307284689","long":"126.99438822","imageIndex":4,"items":[{"name":"올레","tel":"031-0000-0000","addr":"경기도 수원시 장안구 파장동 583-27번지","indutype":"일반휴게음식 - 일반한식","category":"restaurant"},{"name":"켓츠","tel":"031-268-0619","addr":"경기도 수원시 장안구 파장동 583-27번지","indutype":"일반휴게음식 - 주점","category":"restaurant"}]},{"lat":"37.308897483","long":"126.99389172","imageIndex":4,"items":[{"name":"왕십리곱창","tel":"031-243-8889","addr":"경기도 수원시 장안구 파장동 576-6번지","indutype":"일반휴게음식 - 일반한식","category":"restaurant"}]},{"lat":"37.307429048","long":"126.99778346","imageIndex":4,"items":[{"name":"요거프레소","tel":"070-7404-1468","addr":"경기도 수원시 장안구 파장동 595번지 1층","indutype":"일반휴게음식 - 서양음식","category":"restaurant"}]},{"lat":"37.30614925","long":"126.99250464","imageIndex":4,"items":[{"name":"요거프레소 파장점","tel":"031-252-0090","addr":"경기도 수원시 장안구 파장동 581-1번지 1층 2호","indutype":"일반휴게음식 - 서양음식","category":"restaurant"}]},{"lat":"37.30465391","long":"126.99808819","imageIndex":4,"items":[{"name":"요기 (YOGI)국물떡볶이","tel":"","addr":"경기도 수원시 장안구 파장동 600-14번지 1층","indutype":"일반휴게음식 - 일반한식","category":"restaurant"}]},{"lat":"37.306843113","long":"126.99339565","imageIndex":4,"items":[{"name":"요즘집밥","tel":"031-268-7181","addr":"경기도 수원시 장안구 파장동 582-2번지 1층","indutype":"일반휴게음식 - 일반한식","category":"restaurant"}]},{"lat":"37.307951363","long":"126.99330527","imageIndex":4,"items":[{"name":"우박사칡냉면","tel":"031-255-1083","addr":"경기도 수원시 장안구 파장동 578-2번지","indutype":"일반휴게음식 - 일반한식","category":"restaurant"},{"name":"참숯불에서소갈비살맛","tel":"031-241-2605","addr":"경기도 수원시 장안구 파장동 578-2번지","indutype":"일반휴게음식 - 일반한식","category":"restaurant"}]},{"lat":"37.308014291","long":"126.99166966","imageIndex":4,"items":[{"name":"원조박사왕족발","tel":"031-257-6378","addr":"경기도 수원시 장안구 파장동 573-2번지","indutype":"일반휴게음식 - 일반한식","category":"restaurant"}]},{"lat":"37.311069094","long":"126.99609114","imageIndex":4,"items":[{"name":"위트러스트커피 북수원점","tel":"031-000-0000","addr":"경기도 수원시 장안구 파장동 280번지","indutype":"일반휴게음식 - 서양음식","category":"restaurant"}]},{"lat":"37.30734803","long":"126.99997176","imageIndex":4,"items":[{"name":"윤가네","tel":"031-253-4337","addr":"경기도 수원시 장안구 파장동 627-3번지 멕시칸치킨호프 101호","indutype":"일반휴게음식 - 일반한식","category":"restaurant"}]},{"lat":"37.307815956","long":"126.99056426","imageIndex":4,"items":[{"name":"윤박사짜글이","tel":"031-253-3223","addr":"경기도 수원시 장안구 파장동 571-4번지","indutype":"일반휴게음식 - 일반한식","category":"restaurant"}]},{"lat":"37.308347971","long":"126.99550483","imageIndex":4,"items":[{"name":"이박사순대국","tel":"031-253-1995","addr":"경기도 수원시 장안구 파장동 585-1번지","indutype":"일반휴게음식 - 일반한식","category":"restaurant"}]},{"lat":"37.314952681","long":"127.00116725","imageIndex":4,"items":[{"name":"이영철청정생오리","tel":"031-473-8896","addr":"경기도 수원시 장안구 파장동 343-23번지","indutype":"일반휴게음식 - 일반한식","category":"restaurant"}]},{"lat":"37.303374414","long":"126.99711825","imageIndex":4,"items":[{"name":"인생푸드(장안점)","tel":"031-242-1625","addr":"경기도 수원시 장안구 파장동 495-48번지 1층","indutype":"일반휴게음식 - 일반한식","category":"restaurant"}]},{"lat":"37.305401669","long":"126.99622701","imageIndex":4,"items":[{"name":"일공공구커피(1009 COFFEE)","tel":"031-244-1009","addr":"경기도 수원시 장안구 파장동 599-24번지 1층","indutype":"일반휴게음식 - 서양음식","category":"restaurant"},{"name":"훌랄라치킨","tel":"031-246-3278","addr":"경기도 수원시 장안구 파장동 599-24번지","indutype":"일반휴게음식 - 주점","category":"restaurant"}]},{"lat":"37.309041171","long":"126.98897356","imageIndex":4,"items":[{"name":"일엽","tel":"031-242-0424","addr":"경기도 수원시 장안구 파장동 570-10번지","indutype":"일반휴게음식 - 일반한식","category":"restaurant"}]},{"lat":"37.306401593","long":"126.99317011","imageIndex":4,"items":[{"name":"자매손칼국수","tel":"031-268-6999","addr":"경기도 수원시 장안구 파장동 582-24번지 1층","indutype":"일반휴게음식 - 일반한식","category":"restaurant"}]},{"lat":"37.303842961","long":"126.99744532","imageIndex":4,"items":[{"name":"작은술집","tel":"031-245-7872","addr":"경기도 수원시 장안구 파장동 501-76번지 1층","indutype":"일반휴게음식 - 주점","category":"restaurant"}]},{"lat":"37.3096448","long":"126.98851096","imageIndex":4,"items":[{"name":"장독대","tel":"031-246-4225","addr":"경기도 수원시 장안구 파장동 568-8번지","indutype":"일반휴게음식 - 일반한식","category":"restaurant"}]},{"lat":"37.304482689","long":"126.99747911","imageIndex":4,"items":[{"name":"장모님식당","tel":"031-244-8507","addr":"경기도 수원시 장안구 파장동 501-18번지","indutype":"일반휴게음식 - 일반한식","category":"restaurant"}]},{"lat":"37.303455509","long":"126.99717464","imageIndex":4,"items":[{"name":"장안문순대국","tel":"031-252-9700","addr":"경기도 수원시 장안구 파장동 495-47번지 1층","indutype":"일반휴게음식 - 일반한식","category":"restaurant"}]},{"lat":"37.306311561","long":"126.99406122","imageIndex":4,"items":[{"name":"장안부대찌개","tel":"031-252-9282","addr":"경기도 수원시 장안구 파장동 589-15번지","indutype":"일반휴게음식 - 일반한식","category":"restaurant"}]},{"lat":"37.305897166","long":"126.99514412","imageIndex":4,"items":[{"name":"장안오로라","tel":"031-253-2270","addr":"경기도 수원시 장안구 파장동 591-14번지","indutype":"일반휴게음식 - 주점","category":"restaurant"}]},{"lat":"37.308203657","long":"126.99339548","imageIndex":4,"items":[{"name":"장안족발","tel":"031-271-5118","addr":"경기도 수원시 장안구 파장동 578번지","indutype":"일반휴게음식 - 일반한식","category":"restaurant"}]},{"lat":"37.308482644","long":"126.98992119","imageIndex":4,"items":[{"name":"장충동왕족발보쌈 장안점","tel":"","addr":"경기도 수원시 장안구 파장동 571-10번지 1층","indutype":"일반휴게음식 - 일반한식","category":"restaurant"}]},{"lat":"37.307645114","long":"126.99461378","imageIndex":4,"items":[{"name":"쟈스민","tel":"031-268-9749","addr":"경기도 수원시 장안구 파장동 583-13번지","indutype":"일반휴게음식 - 서양음식","category":"restaurant"},{"name":"퀸","tel":"031-269-8289","addr":"경기도 수원시 장안구 파장동 583-13번지 1층","indutype":"일반휴게음식 - 주점","category":"restaurant"}]},{"lat":"37.310095246","long":"126.9879807","imageIndex":4,"items":[{"name":"존슨부대찌개 수원정자점","tel":"070-7778-2210","addr":"경기도 수원시 장안구 파장동 566-17번지 1층","indutype":"일반휴게음식 - 일반한식","category":"restaurant"}]},{"lat":"37.306284387","long":"126.99231287","imageIndex":4,"items":[{"name":"주당모임","tel":"031-245-3318","addr":"경기도 수원시 장안구 파장동 580-5번지","indutype":"일반휴게음식 - 일반한식","category":"restaurant"}]},{"lat":"37.322727555","long":"126.98789923","imageIndex":4,"items":[{"name":"주식회사 이학순제빵소","tel":"031-271-2991","addr":"경기도 수원시 장안구 파장동 43-3번지 1,2층","indutype":"일반휴게음식 - 일반한식","category":"restaurant"}]},{"lat":"37.309428551","long":"126.98847716","imageIndex":4,"items":[{"name":"쥬씨(수원파장점)","tel":"070-4115-1028","addr":"경기도 수원시 장안구 파장동 568-11번지 홍미빌딩 1층 5호","indutype":"일반휴게음식 - 서양음식","category":"restaurant"},{"name":"춘천명품닭갈비","tel":"031-271-1577","addr":"경기도 수원시 장안구 파장동 568-11번지 홍미빌딩 2층 201,202호","indutype":"일반휴게음식 - 일반한식","category":"restaurant"}]},{"lat":"37.304816014","long":"126.99639625","imageIndex":4,"items":[{"name":"지리산엄마밥상","tel":"","addr":"경기도 수원시 장안구 파장동 495-39번지 1층","indutype":"일반휴게음식 - 일반한식","category":"restaurant"}]},{"lat":"37.319790407","long":"126.989389","imageIndex":4,"items":[{"name":"지지대식당","tel":"031-243-9094","addr":"경기도 수원시 장안구 파장동 107-1번지","indutype":"일반휴게음식 - 일반한식","category":"restaurant"}]},{"lat":"37.310258139","long":"126.99550464","imageIndex":4,"items":[{"name":"지혜 민물매운탕","tel":"070-4002-5156","addr":"경기도 수원시 장안구 파장동 279-3번지","indutype":"일반휴게음식 - 일반한식","category":"restaurant"},{"name":"청아식당","tel":"031-268-8667","addr":"경기도 수원시 장안구 파장동 279-3번지 세한상가 102호","indutype":"일반휴게음식 - 일반한식","category":"restaurant"}]},{"lat":"37.315700539","long":"127.00217126","imageIndex":4,"items":[{"name":"진떼배기(파장점)","tel":"031-258-0208","addr":"경기도 수원시 장안구 파장동 349-7번지","indutype":"일반휴게음식 - 일반한식","category":"restaurant"}]},{"lat":"37.307816378","long":"126.99567408","imageIndex":4,"items":[{"name":"진사골손칼국수","tel":"070-7529-0334","addr":"경기도 수원시 장안구 파장동 586-3번지 101호","indutype":"일반휴게음식 - 일반한식","category":"restaurant"},{"name":"카페티나","tel":"070-7529-0334","addr":"경기도 수원시 장안구 파장동 586-3번지 101호","indutype":"일반휴게음식 - 서양음식","category":"restaurant"}]},{"lat":"37.30561789","long":"126.99580964","imageIndex":4,"items":[{"name":"쭈구미색시 낙지서방","tel":"031-253-4640","addr":"경기도 수원시 장안구 파장동 591-6번지 1층","indutype":"일반휴게음식 - 일반한식","category":"restaurant"}]},{"lat":"37.305987256","long":"126.99495235","imageIndex":4,"items":[{"name":"쭈토피아","tel":"031-466-6577","addr":"경기도 수원시 장안구 파장동 590-6번지 1층","indutype":"일반휴게음식 - 서양음식","category":"restaurant"}]},{"lat":"37.30892449","long":"126.99358715","imageIndex":4,"items":[{"name":"쭌s 치킨","tel":"","addr":"경기도 수원시 장안구 파장동 575-16번지 1층 2,3호","indutype":"일반휴게음식 - 일반한식","category":"restaurant"}]},{"lat":"37.316124019","long":"127.00217125","imageIndex":4,"items":[{"name":"참맛고을","tel":"031-252-5756","addr":"경기도 수원시 장안구 파장동 353-2번지","indutype":"일반휴게음식 - 일반한식","category":"restaurant"}]},{"lat":"37.306203429","long":"126.99394844","imageIndex":4,"items":[{"name":"처갓집양념치킨파장점","tel":"031-245-8818","addr":"경기도 수원시 장안구 파장동 589-14번지","indutype":"일반휴게음식 - 스넥","category":"restaurant"}]},{"lat":"37.309870028","long":"126.98828531","imageIndex":4,"items":[{"name":"천지인한식부페","tel":"031-351-1412","addr":"경기도 수원시 장안구 파장동 567-12번지 노송카써비스 1층 2호","indutype":"일반휴게음식 - 일반한식","category":"restaurant"}]},{"lat":"37.309672265","long":"126.99269592","imageIndex":4,"items":[{"name":"청해반점북수원점","tel":"031-271-6868","addr":"경기도 수원시 장안구 파장동 575-37번지","indutype":"일반휴게음식 - 중국식","category":"restaurant"}]},{"lat":"37.306843192","long":"126.99444467","imageIndex":4,"items":[{"name":"체리","tel":"031-243-3934","addr":"경기도 수원시 장안구 파장동 588-23번지 1층","indutype":"일반휴게음식 - 서양음식","category":"restaurant"},{"name":"폭스","tel":"","addr":"경기도 수원시 장안구 파장동 588-23번지 1층 일부","indutype":"일반휴게음식 - 일반한식","category":"restaurant"}]},{"lat":"37.307068392","long":"126.99370018","imageIndex":4,"items":[{"name":"초우","tel":"031-251-0352","addr":"경기도 수원시 장안구 파장동 583-38번지","indutype":"일반휴게음식 - 칵테일바","category":"restaurant"}]},{"lat":"37.314871592","long":"127.00141544","imageIndex":4,"items":[{"name":"추미정남원추어탕","tel":"031-271-6400","addr":"경기도 수원시 장안구 파장동 343-2번지","indutype":"일반휴게음식 - 일반한식","category":"restaurant"}]},{"lat":"37.320258807","long":"126.9882833","imageIndex":4,"items":[{"name":"춘천닭갈비막국수","tel":"031-207-2227","addr":"경기도 수원시 장안구 파장동 79-1번지","indutype":"일반휴게음식 - 일반한식","category":"restaurant"}]},{"lat":"37.307563887","long":"126.9928654","imageIndex":4,"items":[{"name":"치킨달인","tel":"031-235-8979","addr":"경기도 수원시 장안구 파장동 579-3번지 1층","indutype":"일반휴게음식 - 일반한식","category":"restaurant"}]},{"lat":"37.310762441","long":"126.99200767","imageIndex":4,"items":[{"name":"카페 비온","tel":"","addr":"경기도 수원시 장안구 파장동 219-1번지","indutype":"일반휴게음식 - 서양음식","category":"restaurant"}]},{"lat":"37.308401543","long":"126.98984224","imageIndex":4,"items":[{"name":"카페랩하나씨","tel":"031-000-0000","addr":"경기도 수원시 장안구 파장동 571-11번지 1층","indutype":"일반휴게음식 - 서양음식","category":"restaurant"}]},{"lat":"37.311311991","long":"126.99122924","imageIndex":4,"items":[{"name":"카페몬테라스(monterrace)","tel":"","addr":"경기도 수원시 장안구 파장동 632번지 북수원아이파크 상가동 1층 103호","indutype":"일반휴게음식 - 서양음식","category":"restaurant"}]},{"lat":"37.308149362","long":"126.99083492","imageIndex":4,"items":[{"name":"카페소소한","tel":"031-268-5305","addr":"경기도 수원시 장안구 파장동 571-1번지 1층","indutype":"일반휴게음식 - 서양음식","category":"restaurant"}]},{"lat":"37.308429036","long":"126.99508746","imageIndex":4,"items":[{"name":"카페인","tel":"02-111-1111","addr":"경기도 수원시 장안구 파장동 584-3번지 1층","indutype":"일반휴게음식 - 서양음식","category":"restaurant"}]},{"lat":"37.306401943","long":"126.99947549","imageIndex":4,"items":[{"name":"카페한(cafe HAN)","tel":"031-111-1111","addr":"경기도 수원시 장안구 파장동 606-6번지 1층 102호","indutype":"일반휴게음식 - 서양음식","category":"restaurant"}]},{"lat":"37.306014354","long":"126.9960352","imageIndex":4,"items":[{"name":"칼국수마당","tel":"031-246-1002","addr":"경기도 수원시 장안구 파장동 592-46번지 1층","indutype":"일반휴게음식 - 일반한식","category":"restaurant"}]},{"lat":"37.312312637","long":"126.99903528","imageIndex":4,"items":[{"name":"캐빈하우스","tel":"031-281-5058","addr":"경기도 수원시 장안구 파장동 327번지 1층","indutype":"일반휴게음식 - 서양음식","category":"restaurant"}]},{"lat":"37.3034555","long":"126.99700545","imageIndex":4,"items":[{"name":"커피나무","tel":"070-7567-5447","addr":"경기도 수원시 장안구 파장동 495-31번지 중앙빌딩","indutype":"일반휴게음식 - 서양음식","category":"restaurant"}]},{"lat":"37.31104144","long":"126.98897319","imageIndex":4,"items":[{"name":"커피밀","tel":"031-241-2332","addr":"경기도 수원시 장안구 파장동 565-5번지 1층","indutype":"일반휴게음식 - 서양음식","category":"restaurant"}]},{"lat":"37.31242977","long":"126.99905783","imageIndex":4,"items":[{"name":"콩마당","tel":"031-254-2827","addr":"경기도 수원시 장안구 파장동 328-1번지","indutype":"일반휴게음식 - 일반한식","category":"restaurant"}]},{"lat":"37.309951422","long":"126.99098128","imageIndex":4,"items":[{"name":"투고로스터스","tel":"031-269-4558","addr":"경기도 수원시 장안구 파장동 556-6번지","indutype":"일반휴게음식 - 서양음식","category":"restaurant"}]},{"lat":"37.304897147","long":"126.99719709","imageIndex":4,"items":[{"name":"투령(TWO RYEONG)","tel":"031-000-0000","addr":"경기도 수원시 장안구 파장동 600-25번지 동네독서 102호","indutype":"일반휴게음식 - 서양음식","category":"restaurant"}]},{"lat":"37.307924299","long":"126.99289919","imageIndex":4,"items":[{"name":"파파도나스","tel":"031-268-2147","addr":"경기도 수원시 장안구 파장동 573-27번지 1층","indutype":"일반휴게음식 - 일반한식","category":"restaurant"}]},{"lat":"37.307257932","long":"127.00014096","imageIndex":4,"items":[{"name":"페리카나","tel":"031-251-8944","addr":"경기도 수원시 장안구 파장동 627-4번지","indutype":"일반휴게음식 - 스넥","category":"restaurant"},{"name":"현대숯불갈비","tel":"031-251-0434","addr":"경기도 수원시 장안구 파장동 627-4번지","indutype":"일반휴게음식 - 일반한식","category":"restaurant"}]},{"lat":"37.306482584","long":"126.99200828","imageIndex":4,"items":[{"name":"푸드맘","tel":"031-271-5500","addr":"경기도 수원시 장안구 파장동 580-8번지","indutype":"일반휴게음식 - 일반한식","category":"restaurant"}]},{"lat":"37.313006443","long":"126.99966696","imageIndex":4,"items":[{"name":"프레소커피","tel":"070-4603-1060","addr":"경기도 수원시 장안구 파장동 328-5번지","indutype":"일반휴게음식 - 서양음식","category":"restaurant"}]},{"lat":"37.307762101","long":"126.99273002","imageIndex":4,"items":[{"name":"피자애 (파장점)","tel":"031-271-5252","addr":"경기도 수원시 장안구 파장동 573-31번지","indutype":"일반휴게음식 - 서양음식","category":"restaurant"}]},{"lat":"37.316979992","long":"127.00291581","imageIndex":4,"items":[{"name":"하늘아래","tel":"031-257-0204","addr":"경기도 수원시 장안구 파장동 360번지","indutype":"일반휴게음식 - 일반한식","category":"restaurant"}]},{"lat":"37.30750998","long":"126.99489579","imageIndex":4,"items":[{"name":"하늘정원","tel":"031-244-2650","addr":"경기도 수원시 장안구 파장동 588-1번지","indutype":"일반휴게음식 - 일반한식","category":"restaurant"}]},{"lat":"37.308176592","long":"126.99297812","imageIndex":4,"items":[{"name":"한일떡볶이","tel":"031-241-0223","addr":"경기도 수원시 장안구 파장동 575-32,1층","indutype":"일반휴게음식 - 스넥","category":"restaurant"}]},{"lat":"37.304653896","long":"126.9977498","imageIndex":4,"items":[{"name":"할매보쌈족발","tel":"031-251-9371","addr":"경기도 수원시 장안구 파장동 600-17번지 1층","indutype":"일반휴게음식 - 일반한식","category":"restaurant"}]},{"lat":"37.316178081","long":"127.00344603","imageIndex":4,"items":[{"name":"항아리집","tel":"031-271-0099","addr":"경기도 수원시 장안구 파장동 362번지","indutype":"일반휴게음식 - 일반한식","category":"restaurant"}]},{"lat":"37.305815972","long":"126.99372289","imageIndex":4,"items":[{"name":"해물콩나물국밥","tel":"031-255-7661","addr":"경기도 수원시 장안구 파장동 589-6번지","indutype":"일반휴게음식 - 일반한식","category":"restaurant"}]},{"lat":"37.30820346","long":"126.99119588","imageIndex":4,"items":[{"name":"해바라기","tel":"031-248-5335","addr":"경기도 수원시 장안구 파장동 572번지","indutype":"일반휴게음식 - 주점","category":"restaurant"}]},{"lat":"37.310311632","long":"126.98914253","imageIndex":4,"items":[{"name":"현정이네 식당","tel":"031-245-7558","addr":"경기도 수원시 장안구 파장동 564-18번지 1층","indutype":"일반휴게음식 - 일반한식","category":"restaurant"}]},{"lat":"37.307870355","long":"126.99439944","imageIndex":4,"items":[{"name":"황토식당","tel":"031-253-8215","addr":"경기도 수원시 장안구 파장동 583-8번지","indutype":"일반휴게음식 - 일반한식","category":"restaurant"}]},{"lat":"37.306374609","long":"126.99375666","imageIndex":4,"items":[{"name":"회뜰날","tel":"031-243-3004","addr":"경기도 수원시 장안구 파장동 582-12번지 1층","indutype":"일반휴게음식 - 일반한식","category":"restaurant"}]},{"lat":"37.306978246","long":"126.99314748","imageIndex":4,"items":[{"name":"희래원","tel":"031-111-1111","addr":"경기도 수원시 장안구 파장동 579-27번지 장수숯불갈비 B동 1층","indutype":"일반휴게음식 - 중국식","category":"restaurant"}]},{"lat":"37.306311561","long":"126.99406122","imageIndex":7,"items":[{"name":"(주)담원인터내셔널","tel":"070-8884-9774","addr":"경기도 수원시 장안구 파장동 589-15번지 3층","indutype":"건강식품 - 기타건강식품","category":"food"}]},{"lat":"37.306978157","long":"126.99212101","imageIndex":7,"items":[{"name":"(주)파장전통시장 각시밥상","tel":"031-268-7526","addr":"경기도 수원시 장안구 파장동 572-35번지 2층","indutype":"음료식품 - 기타음료식품","category":"food"},{"name":"솔나무떡집","tel":"031-255-1151","addr":"경기도 수원시 장안구 파장동 572-35","indutype":"음료식품 - 제과점","category":"food"},{"name":"예스(YES)닭강정 수원점","tel":"","addr":"경기도 수원시 장안구 파장동 572-35번지 1층","indutype":"음료식품 - 기타음료식품","category":"food"},{"name":"토박이축산","tel":"031-271-1137","addr":"경기도 수원시 장안구 파장동 572-35번지","indutype":"음료식품 - 정육점","category":"food"}]},{"lat":"37.308564401","long":"126.99958819","imageIndex":7,"items":[{"name":"경희건강원","tel":"031-243-1528","addr":"경기도 수원시 장안구 파장동 422-23번지","indutype":"건강식품 - 기타건강식품","category":"food"}]},{"lat":"37.307536815","long":"126.99239165","imageIndex":7,"items":[{"name":"고루고루반찬","tel":"","addr":"경기도 수원시 장안구 파장동 573-39번지 1층","indutype":"음료식품 - 기타음료식품","category":"food"},{"name":"우리한우","tel":"031-269-5041","addr":"경기도 수원시 장안구 파장동 573-39번지","indutype":"음료식품 - 정육점","category":"food"}]},{"lat":"37.306590726","long":"126.99222258","imageIndex":7,"items":[{"name":"과일나라","tel":"031-245-8171","addr":"경기도 수원시 장안구 파장동 580-9번지","indutype":"음료식품 - 농·축·수산품","category":"food"},{"name":"서해수산","tel":"031-251-9805","addr":"경기도 수원시 장안구 파장동 580-9번지","indutype":"음료식품 - 농·축·수산품","category":"food"}]},{"lat":"37.307563866","long":"126.99261724","imageIndex":7,"items":[{"name":"궁전떡방아간","tel":"031-257-0680","addr":"경기도 수원시 장안구 파장동 573-35번지","indutype":"음료식품 - 제과점","category":"food"},{"name":"우리집반찬","tel":"031-254-2737","addr":"경기도 수원시 장안구 파장동 573-35번지 1층","indutype":"음료식품 - 기타음료식품","category":"food"}]},{"lat":"37.305951406","long":"126.99867465","imageIndex":7,"items":[{"name":"글로벌건강","tel":"031-252-8481","addr":"경기도 수원시 장안구 파장동 604-20번지 1층 2호","indutype":"음료식품 - 기타음료식품","category":"food"}]},{"lat":"37.307563887","long":"126.9928654","imageIndex":7,"items":[{"name":"금산인삼사","tel":"031-245-3435","addr":"경기도 수원시 장안구 파장동 579-3번지","indutype":"건강식품 - 인삼제품","category":"food"},{"name":"청명식품","tel":"","addr":"경기도 수원시 장안구 파장동 579-3번지 1층","indutype":"음료식품 - 기타음료식품","category":"food"}]},{"lat":"37.305041269","long":"126.99639623","imageIndex":7,"items":[{"name":"김아이사랑웰빙샵","tel":"031-246-7067","addr":"경기도 수원시 장안구 파장동 495-37번지","indutype":"회원제형태 - 건강식품","category":"food"}]},{"lat":"37.304509682","long":"126.99670082","imageIndex":7,"items":[{"name":"김정문알로에파정대리점","tel":"031-44-1364","addr":"경기도 수원시 장안구 파장동 495-22번지","indutype":"건강식품 - 기타건강식품","category":"food"}]},{"lat":"37.306978246","long":"126.99314748","imageIndex":7,"items":[{"name":"남노명가집에서","tel":"031-296-1369","addr":"경기도 수원시 장안구 파장동 579-27번지 장수숯불갈비 A동 1층","indutype":"음료식품 - 정육점","category":"food"},{"name":"천연수제담배","tel":"031-268-9884","addr":"경기도 수원시 장안구 파장동 579-27번지 장수숯불갈비 A동","indutype":"음료식품 - 기타음료식품","category":"food"}]},{"lat":"37.307230463","long":"126.99233529","imageIndex":7,"items":[{"name":"남해수산","tel":"031-246-8865","addr":"경기도 수원시 장안구 파장동 572-33번지 1층","indutype":"음료식품 - 농·축·수산품","category":"food"},{"name":"미감찬원","tel":"031-256-7668","addr":"경기도 수원시 장안구 파장동 572-33번지 1층","indutype":"음료식품 - 기타음료식품","category":"food"},{"name":"화산농장","tel":"031-255-8548","addr":"경기도 수원시 장안구 파장동 572-33번지 1층","indutype":"음료식품 - 정육점","category":"food"}]},{"lat":"37.304536774","long":"126.99800924","imageIndex":7,"items":[{"name":"내고향떡방앗간","tel":"031-242-4683","addr":"경기도 수원시 장안구 파장동 600-15번지 1층","indutype":"음료식품 - 제과점","category":"food"},{"name":"우리네반찬","tel":"031-243-7016","addr":"경기도 수원시 장안구 파장동 600-15번지","indutype":"음료식품 - 기타음료식품","category":"food"},{"name":"진흥건강원","tel":"031-247-5010","addr":"경기도 수원시 장안구 파장동 600-15번지","indutype":"건강식품 - 기타건강식품","category":"food"}]},{"lat":"37.304897122","long":"126.99670079","imageIndex":7,"items":[{"name":"네츄럴","tel":"031-000-0000","addr":"경기도 수원시 장안구 파장동 495-65번지 1층 101호","indutype":"음료식품 - 농·축·수산품","category":"food"}]},{"lat":"37.309816594","long":"126.99483915","imageIndex":7,"items":[{"name":"노송건강원","tel":"031-252-0079","addr":"경기도 수원시 장안구 파장동 267-3번지","indutype":"건강식품 - 기타건강식품","category":"food"}]},{"lat":"37.31131226","long":"126.99439905","imageIndex":7,"items":[{"name":"농산물유통","tel":"","addr":"경기도 수원시 장안구 파장동 201-4번지 다담화이트빌 203호","indutype":"음료식품 - 농·축·수산품","category":"food"}]},{"lat":"37.322727555","long":"126.98789923","imageIndex":7,"items":[{"name":"농업회사법인 솔마당주식회사","tel":"031-271-2991","addr":"경기도 수원시 장안구 파장동 43-3번지","indutype":"음료식품 - 주류 판매점","category":"food"}]},{"lat":"37.309897653","long":"126.99436537","imageIndex":7,"items":[{"name":"누리상사","tel":"031-271-8802","addr":"경기도 수원시 장안구 파장동 209-1번지 대영프라자 123호","indutype":"건강식품 - 기타건강식품","category":"food"}]},{"lat":"37.307843225","long":"126.99311352","imageIndex":7,"items":[{"name":"늘푸른축산","tel":"031-1111-1111","addr":"경기도 수원시 장안구 파장동 579번지","indutype":"음료식품 - 정육점","category":"food"}]},{"lat":"37.308681223","long":"126.99369998","imageIndex":7,"items":[{"name":"다솜건강원","tel":"070-7570-0019","addr":"경기도 수원시 장안구 파장동 577번지 미광빌딩 105호","indutype":"건강식품 - 기타건강식품","category":"food"},{"name":"땅스부대찌개 파장동점","tel":"031-269-8599","addr":"경기도 수원시 장안구 파장동 577번지 미광빌딩 1층 104호","indutype":"음료식품 - 기타음료식품","category":"food"}]},{"lat":"37.30664486","long":"126.99305728","imageIndex":7,"items":[{"name":"대관령축산","tel":"031-269-3122","addr":"경기도 수원시 장안구 파장동 582번지","indutype":"음료식품 - 정육점","category":"food"}]},{"lat":"37.304761978","long":"126.99689256","imageIndex":7,"items":[{"name":"대성축산","tel":"031-269-0766","addr":"경기도 수원시 장안구 파장동 501-14번지 1층","indutype":"음료식품 - 정육점","category":"food"}]},{"lat":"37.306681242","long":"126.99888893","imageIndex":7,"items":[{"name":"덕산유통","tel":"031-257-3822","addr":"경기도 수원시 장안구 파장동 606-8호 1층","indutype":"음료식품 - 기타음료식품","category":"food"}]},{"lat":"37.303897025","long":"126.99750171","imageIndex":7,"items":[{"name":"두부명가","tel":"031-245-8230","addr":"경기도 수원시 장안구 파장동 501-33번지 1층","indutype":"음료식품 - 기타음료식품","category":"food"}]},{"lat":"37.307374663","long":"126.99275263","imageIndex":7,"items":[{"name":"두부촌","tel":"031-257-4681","addr":"경기도 수원시 장안구 파장동 579-35","indutype":"음료식품 - 기타음료식품","category":"food"}]},{"lat":"37.30920382","long":"126.99375632","imageIndex":7,"items":[{"name":"땅콩볶는집","tel":"031-271-1191","addr":"경기도 수원시 장안구 파장동 575-13번지","indutype":"음료식품 - 농·축·수산품","category":"food"}]},{"lat":"37.307311581","long":"126.99263984","imageIndex":7,"items":[{"name":"뜨레모아과자점","tel":"031-241-3286","addr":"경기도 수원시 장안구 파장동 579-36번지","indutype":"음료식품 - 제과점","category":"food"}]},{"lat":"37.307644986","long":"126.99294435","imageIndex":7,"items":[{"name":"맛고을떡집","tel":"031-268-3777","addr":"경기도 수원시 장안구 파장동 579-2번지","indutype":"음료식품 - 제과점","category":"food"}]},{"lat":"37.306843023","long":"126.99233535","imageIndex":7,"items":[{"name":"맷돌수제두부","tel":"031-461-3623","addr":"경기도 수원시 장안구 파장동 580-11번지 1층","indutype":"음료식품 - 기타음료식품","category":"food"},{"name":"연포상회","tel":"031-251-3999","addr":"경기도 수원시 장안구 파장동 580-11번지","indutype":"음료식품 - 농·축·수산품","category":"food"}]},{"lat":"37.307455689","long":"126.99200814","imageIndex":7,"items":[{"name":"머슴네푸줏간","tel":"031-269-1917","addr":"경기도 수원시 장안구 파장동 572-29번지 엄마손쌀 103호","indutype":"음료식품 - 정육점","category":"food"},{"name":"햇쌀마을","tel":"031-257-0545","addr":"경기도 수원시 장안구 파장동 572-29번지","indutype":"음료식품 - 미곡상","category":"food"}]},{"lat":"37.307455758","long":"126.99278646","imageIndex":7,"items":[{"name":"명가축산","tel":"031-271-2018","addr":"경기도 수원시 장안구 파장동 579-4번지 1층","indutype":"음료식품 - 정육점","category":"food"},{"name":"파장닭집","tel":"031-256-7393","addr":"경기도 수원시 장안구 파장동 579-4번지","indutype":"음료식품 - 정육점","category":"food"}]},{"lat":"37.307095704","long":"126.99864075","imageIndex":7,"items":[{"name":"명기수산","tel":"031-248-4201","addr":"경기도 수원시 장안구 파장동 595-3번지 지층","indutype":"음료식품 - 농·축·수산품","category":"food"},{"name":"한주유통","tel":"031-233-5250","addr":"경기도 수원시 장안구 파장동 595-3 제비동1층1호.2호","indutype":"음료식품 - 기타음료식품","category":"food"}]},{"lat":"37.307483158","long":"126.99905808","imageIndex":7,"items":[{"name":"미장원(mijangone)","tel":"031-215-8533","addr":"경기도 수원시 장안구 파장동 626-1번지 2층","indutype":"음료식품 - 기타음료식품","category":"food"}]},{"lat":"37.308014427","long":"126.99320374","imageIndex":7,"items":[{"name":"보성녹돈","tel":"031-242-1991","addr":"경기도 수원시 장안구 파장동 578-1번지 1층","indutype":"음료식품 - 정육점","category":"food"}]},{"lat":"37.308897483","long":"126.99389172","imageIndex":7,"items":[{"name":"복꼬짜네방앗간","tel":"031-271-6661","addr":"경기도 수원시 장안구 파장동 576-6번지 1층","indutype":"음료식품 - 미곡상","category":"food"}]},{"lat":"37.30459083","long":"126.99789644","imageIndex":7,"items":[{"name":"부강정육점","tel":"031-242-8519","addr":"경기도 수원시 장안구 파장동 600-16번지","indutype":"음료식품 - 정육점","category":"food"}]},{"lat":"37.308374837","long":"126.99322626","imageIndex":7,"items":[{"name":"부경오리","tel":"031-244-9570","addr":"경기도 수원시 장안구 파장동 575-27","indutype":"음료식품 - 농·축·수산품","category":"food"},{"name":"착한정육점","tel":"031-268-7001","addr":"경기도 수원시 장안구 파장동 575-27번지 1층","indutype":"음료식품 - 정육점","category":"food"}]},{"lat":"37.307230497","long":"126.99273009","imageIndex":7,"items":[{"name":"부원농산","tel":"031-247-3450","addr":"경기도 수원시 장안구 파장동 579-37번지","indutype":"음료식품 - 농·축·수산품","category":"food"},{"name":"파장과일야채","tel":"031-803-9569","addr":"경기도 수원시 장안구 파장동 579-37번지 또또식당 101호","indutype":"음료식품 - 농·축·수산품","category":"food"}]},{"lat":"37.305987118","long":"126.99311376","imageIndex":7,"items":[{"name":"브레페제과점","tel":"031-246-5474","addr":"경기도 수원시 장안구 파장동 581-4번지","indutype":"음료식품 - 제과점","category":"food"}]},{"lat":"37.31009593","long":"126.99512113","imageIndex":7,"items":[{"name":"빈즈케이크","tel":"","addr":"경기도 수원시 장안구 파장동 268번지 1층 4호","indutype":"음료식품 - 제과점","category":"food"}]},{"lat":"37.307095327","long":"126.99253835","imageIndex":7,"items":[{"name":"선미네생선가게","tel":"031-243-3026","addr":"경기도 수원시 장안구 파장동 580번지 동영빌딩 101호","indutype":"음료식품 - 농·축·수산품","category":"food"},{"name":"심봉사도로케","tel":"031-269-7463","addr":"경기도 수원시 장안구 파장동 580번지 동영빌딩 108호","indutype":"음료식품 - 기타음료식품","category":"food"},{"name":"유황축산","tel":"031-271-0251","addr":"경기도 수원시 장안구 파장동 580번지 동영빌딩 102호","indutype":"음료식품 - 정육점","category":"food"},{"name":"파장동축산물도매센터","tel":"031-244-1425","addr":"경기도 수원시 장안구 파장동 580번지 동영빌딩 112호","indutype":"음료식품 - 정육점","category":"food"},{"name":"현미곳간","tel":"031-236-9607","addr":"경기도 수원시 장안구 파장동 580번지 동영빌딩 1층 112호","indutype":"음료식품 - 기타음료식품","category":"food"}]},{"lat":"37.309095809","long":"126.99533555","imageIndex":7,"items":[{"name":"선어4호동남수산","tel":"031-424-5200","addr":"경기도 수원시 장안구 파장동 266-2번지 3층","indutype":"음료식품 - 농·축·수산품","category":"food"}]},{"lat":"37.304257397","long":"126.9967234","imageIndex":7,"items":[{"name":"선진프라자송죽점","tel":"031-245-4259","addr":"경기도 수원시 장안구 파장동 495-24번지 105호 106","indutype":"음료식품 - 정육점","category":"food"},{"name":"파리바게트 정자블루밍점","tel":"031-255-9498","addr":"경기도 수원시 장안구 파장동 495-24번지","indutype":"음료식품 - 제과점","category":"food"}]},{"lat":"37.32275499","long":"126.99153209","imageIndex":7,"items":[{"name":"솔가정육","tel":"031-269-2008","addr":"경기도 수원시 장안구 파장동 21-5번지","indutype":"음료식품 - 정육점","category":"food"}]},{"lat":"37.30851002","long":"126.9935872","imageIndex":7,"items":[{"name":"수랏간반찬","tel":"","addr":"경기도 수원시 장안구 파장동 577-10번지 1층","indutype":"음료식품 - 기타음료식품","category":"food"},{"name":"오세요맛있어요","tel":"031-254-3157","addr":"경기도 수원시 장안구 파장동 577-10번지","indutype":"음료식품 - 기타음료식품","category":"food"}]},{"lat":"37.30842889","long":"126.99311345","imageIndex":7,"items":[{"name":"수원바자회","tel":"031-268-2216","addr":"경기도 수원시 장안구 파장동 575-28번지 102호","indutype":"음료식품 - 농·축·수산품","category":"food"}]},{"lat":"37.307347578","long":"126.99214352","imageIndex":7,"items":[{"name":"숯나라","tel":"031-268-1377","addr":"경기도 수원시 장안구 파장동 572-64번지 2층","indutype":"건강식품 - 기타건강식품","category":"food"}]},{"lat":"37.308375191","long":"126.9997574","imageIndex":7,"items":[{"name":"신현대떡방앗간","tel":"031-258-3074","addr":"경기도 수원시 장안구 파장동 422-26번지","indutype":"음료식품 - 제과점","category":"food"}]},{"lat":"37.307816546","long":"126.99936262","imageIndex":7,"items":[{"name":"싱싱농수산물","tel":"031-246-8604","addr":"경기도 수원시 장안구 파장동 625-1번지 1층 점포","indutype":"음료식품 - 농·축·수산품","category":"food"}]},{"lat":"37.307735296","long":"126.99584328","imageIndex":7,"items":[{"name":"에이지엠","tel":"031-241-0939","addr":"경기도 수원시 장안구 파장동 586-5번지","indutype":"음료식품 - 기타음료식품","category":"food"}]},{"lat":"37.305951179","long":"126.99444477","imageIndex":7,"items":[{"name":"옥이유통","tel":"031-227-5284","addr":"경기도 수원시 장안구 파장동 590-12번지 골든빌라 B102호","indutype":"음료식품 - 농·축·수산품","category":"food"}]},{"lat":"37.308708231","long":"126.99341797","imageIndex":7,"items":[{"name":"우리농산물","tel":"031-269-3878","addr":"경기도 수원시 장안구 파장동 575-21번지 1층","indutype":"음료식품 - 농·축·수산품","category":"food"}]},{"lat":"37.308068837","long":"126.99953181","imageIndex":7,"items":[{"name":"원과일","tel":"031-252-2481","addr":"경기도 수원시 장안구 파장동 422-33번지","indutype":"음료식품 - 농·축·수산품","category":"food"}]},{"lat":"37.310149538","long":"126.98994346","imageIndex":7,"items":[{"name":"이룸 파워핵산","tel":"070-5022-6586","addr":"경기도 수원시 장안구 파장동 562-1번지 진주빌라 1동 303호","indutype":"회원제형태 - 건강식품","category":"food"}]},{"lat":"37.309041171","long":"126.98897356","imageIndex":7,"items":[{"name":"일엽","tel":"031-242-0424","addr":"경기도 수원시 장안구 파장동 570-10번지","indutype":"음료식품 - 기타음료식품","category":"food"}]},{"lat":"37.307095299","long":"126.99222251","imageIndex":7,"items":[{"name":"정현상회","tel":"031-268-1996","addr":"경기도 수원시 장안구 파장동 572-34번지","indutype":"음료식품 - 농·축·수산품","category":"food"}]},{"lat":"37.305897166","long":"126.99514412","imageIndex":7,"items":[{"name":"좋은가게","tel":"","addr":"경기도 수원시 장안구 파장동 591-14번지 1층","indutype":"음료식품 - 기타음료식품","category":"food"}]},{"lat":"37.312231099","long":"126.99191721","imageIndex":7,"items":[{"name":"주식회사 올렌스","tel":"031-888-4619","addr":"경기도 수원시 장안구 파장동 216-1번지 중보지방국세청지하1층매점","indutype":"음료식품 - 기타음료식품","category":"food"}]},{"lat":"37.312312637","long":"126.99903528","imageIndex":7,"items":[{"name":"주식회사월드원무역","tel":"031-281-5058","addr":"경기도 수원시 장안구 파장동 327번지 1층","indutype":"음료식품 - 기타음료식품","category":"food"}]},{"lat":"37.307428701","long":"126.9924819","imageIndex":7,"items":[{"name":"참 밥도둑","tel":"","addr":"경기도 수원시 장안구 파장동 573-41번지","indutype":"음료식품 - 기타음료식품","category":"food"},{"name":"천일청과","tel":"031-271-5454","addr":"경기도 수원시 장안구 파장동 573-41번지","indutype":"음료식품 - 농·축·수산품","category":"food"}]},{"lat":"37.305149441","long":"126.99736627","imageIndex":7,"items":[{"name":"천년만년","tel":"070-8274-7678","addr":"경기도 수원시 장안구 파장동 600-1번지 현대빌라 101호","indutype":"음료식품 - 농·축·수산품","category":"food"}]},{"lat":"37.307924299","long":"126.99289919","imageIndex":7,"items":[{"name":"청운청과","tel":"031-248-2435","addr":"경기도 수원시 장안구 파장동 573-27번지","indutype":"음료식품 - 농·축·수산품","category":"food"}]},{"lat":"37.307870002","long":"126.99041761","imageIndex":7,"items":[{"name":"친절상회","tel":"","addr":"경기도 수원시 장안구 파장동 571-5번지","indutype":"음료식품 - 농·축·수산품","category":"food"}]},{"lat":"37.31078973","long":"126.99531282","imageIndex":7,"items":[{"name":"카마트","tel":"","addr":"경기도 수원시 장안구 파장동 206-12번지 2층","indutype":"음료식품 - 농·축·수산품","category":"food"}]},{"lat":"37.308482963","long":"126.99326008","imageIndex":7,"items":[{"name":"콩이랑맷돌","tel":"031-269-9532","addr":"경기도 수원시 장안구 파장동 575-26번지 1층","indutype":"음료식품 - 기타음료식품","category":"food"}]},{"lat":"37.306924295","long":"126.9945913","imageIndex":7,"items":[{"name":"평생건강원","tel":"031-242-6364","addr":"경기도 수원시 장안구 파장동 588-24번지","indutype":"건강식품 - 기타건강식품","category":"food"}]},{"lat":"37.306509711","long":"126.9931137","imageIndex":7,"items":[{"name":"풍년떡방앗간","tel":"031-245-8189","addr":"경기도 수원시 장안구 파장동 582-31번지 1층","indutype":"음료식품 - 기타음료식품","category":"food"}]},{"lat":"37.307951474","long":"126.99478295","imageIndex":7,"items":[{"name":"하나로축산","tel":"031-268-8629","addr":"경기도 수원시 장안구 파장동 584-7번지 1층","indutype":"음료식품 - 정육점","category":"food"}]},{"lat":"37.307681004","long":"126.99267363","imageIndex":7,"items":[{"name":"한누리축산도매","tel":"031-247-4097","addr":"경기도 수원시 장안구 파장동 573-34번지","indutype":"음료식품 - 정육점","category":"food"}]},{"lat":"37.307176844","long":"127.00033272","imageIndex":7,"items":[{"name":"한얼식품","tel":"031-247-3389","addr":"경기도 수원시 장안구 파장동 627-5번지","indutype":"건강식품 - 홍삼제품","category":"food"}]},{"lat":"37.311312352","long":"126.99578655","imageIndex":7,"items":[{"name":"햇살푸드","tel":"031-2678-7789","addr":"경기도 수원시 장안구 파장동 204-7번지 지층 B01호","indutype":"음료식품 - 농·축·수산품","category":"food"}]},{"lat":"37.307311925","long":"126.99800906","imageIndex":13,"items":[{"name":"(주)메디덤코스메틱","tel":"031-252-2115","addr":"경기도 수원시 장안구 파장동 595-1번지 엔에스빌딩 3층","indutype":"보건위생 - 화장품","category":"beauty"}]},{"lat":"37.307176831","long":"126.99978001","imageIndex":13,"items":[{"name":"(주)힐스템건강","tel":"031-244-5767","addr":"경기도 수원시 장안구 파장동 627-8번지 수원빌딩 2층","indutype":"보건위생 - 의료용품","category":"beauty"},{"name":"뽀샤C피부토탈케어","tel":"031-251-2888","addr":"경기도 수원시 장안구 파장동 627-8번지 수원빌딩 4층 401호","indutype":"보건위생 - 피부미용실","category":"beauty"}]},{"lat":"37.306068242","long":"126.99350854","imageIndex":13,"items":[{"name":"e덴쳐치과기공소","tel":"031-269-2803","addr":"경기도 수원시 장안구 파장동 582-18번지 3층","indutype":"보건위생 - 의료용품","category":"beauty"},{"name":"희망","tel":"031-268-5595","addr":"경기도 수원시 장안구 파장동 582-18번지 2층","indutype":"보건위생 - 화장품","category":"beauty"}]},{"lat":"37.309428551","long":"126.98847716","imageIndex":13,"items":[{"name":"글로벌안경원","tel":"031-271-8008","addr":"경기도 수원시 장안구 파장동 568-11번지 홍미빌딩 103호,104호","indutype":"보건위생 - 안경","category":"beauty"}]},{"lat":"37.30851002","long":"126.9935872","imageIndex":13,"items":[{"name":"금발헤어샵","tel":"031-269-3533","addr":"경기도 수원시 장안구 파장동 577-10번지","indutype":"보건위생 - 미용원","category":"beauty"}]},{"lat":"37.309951422","long":"126.99098128","imageIndex":13,"items":[{"name":"나이트헤어샵","tel":"070-8616-3480","addr":"경기도 수원시 장안구 파장동 556-6번지","indutype":"보건위생 - 미용원","category":"beauty"}]},{"lat":"37.30892449","long":"126.99358715","imageIndex":13,"items":[{"name":"남성컷트","tel":"031-000-0000","addr":"경기도 수원시 장안구 파장동 575-16번지","indutype":"보건위생 - 미용원","category":"beauty"}]},{"lat":"37.304816063","long":"126.99736629","imageIndex":13,"items":[{"name":"남자는머리빨","tel":"02-1111-1111","addr":"경기도 수원시 장안구 파장동 600-20번지","indutype":"보건위생 - 미용원","category":"beauty"}]},{"lat":"37.308095326","long":"126.99108309","imageIndex":13,"items":[{"name":"네일몬스터_수원장안점","tel":"","addr":"경기도 수원시 장안구 파장동 572-1번지 유영빌딩 501호","indutype":"보건위생 - 미용재료","category":"beauty"},{"name":"다연스킨케어","tel":"031-302-6712","addr":"경기도 수원시 장안구 파장동 572-1번지 유영빌딩 1층 102호","indutype":"보건위생 - 피부미용실","category":"beauty"}]},{"lat":"37.305068328","long":"126.99692637","imageIndex":13,"items":[{"name":"다모심헤어샵","tel":"031-244-3443","addr":"경기도 수원시 장안구 파장동 599-15번지 1층","indutype":"보건위생 - 미용원","category":"beauty"}]},{"lat":"37.305870116","long":"126.99486213","imageIndex":13,"items":[{"name":"단발머리헤어샵","tel":"031-258-2598","addr":"경기도 수원시 장안구 파장동 590-7번지 1층","indutype":"보건위생 - 미용원","category":"beauty"},{"name":"제이블링네일","tel":"031-258-3010","addr":"경기도 수원시 장안구 파장동 590-7번지 1층","indutype":"보건위생 - 피부미용실","category":"beauty"}]},{"lat":"37.30881602","long":"126.98989857","imageIndex":13,"items":[{"name":"댕기머리","tel":"031-232-6799","addr":"경기도 수원시 장안구 파장동 570-34번지","indutype":"보건위생 - 미용원","category":"beauty"}]},{"lat":"37.303653721","long":"126.99692648","imageIndex":13,"items":[{"name":"더제이헤어","tel":"031-268-3364","addr":"경기도 수원시 장안구 파장동 495-30번지 1층","indutype":"보건위생 - 미용원","category":"beauty"}]},{"lat":"37.30742877","long":"126.99330534","imageIndex":13,"items":[{"name":"더파인무역(ThePineTrading)","tel":"031-0000-0000","addr":"경기도 수원시 장안구 파장동 579-18번지","indutype":"보건위생 - 안경","category":"beauty"}]},{"lat":"37.303509573","long":"126.99723103","imageIndex":13,"items":[{"name":"동안피부","tel":"031-246-7088","addr":"경기도 수원시 장안구 파장동 495-32번지 1층","indutype":"보건위생 - 피부미용실","category":"beauty"}]},{"lat":"37.304509682","long":"126.99670082","imageIndex":13,"items":[{"name":"두손끌림","tel":"031-256-0816","addr":"경기도 수원시 장안구 파장동 495-22번지","indutype":"보건위생 - 화장품","category":"beauty"},{"name":"한국다이어트코칭협회","tel":"","addr":"경기도 수원시 장안구 파장동 495-22번지 1층","indutype":"보건위생 - 기타대인서비스","category":"beauty"}]},{"lat":"37.310428819","long":"126.98961628","imageIndex":13,"items":[{"name":"라이콜비즈","tel":"070-4086-3365","addr":"경기도 수원시 장안구 파장동 563-7번지","indutype":"보건위생 - 화장품","category":"beauty"}]},{"lat":"37.306041198","long":"126.99333935","imageIndex":13,"items":[{"name":"러블리헤어","tel":"031-271-2104","addr":"경기도 수원시 장안구 파장동 582-29번지 1층","indutype":"보건위생 - 미용원","category":"beauty"},{"name":"성심","tel":"070-4922-1261","addr":"경기도 수원시 장안구 파장동 582-29번지 2층","indutype":"보건위생 - 기타대인서비스","category":"beauty"},{"name":"앤나라","tel":"031-271-4144","addr":"경기도 수원시 장안구 파장동 582-29번지 파장분식 101호","indutype":"보건위생 - 미용원","category":"beauty"}]},{"lat":"37.306257564","long":"126.99497488","imageIndex":13,"items":[{"name":"렌느제이 광명과천점","tel":"","addr":"경기도 수원시 장안구 파장동 590-2번지 303호","indutype":"보건위생 - 기타대인서비스","category":"beauty"}]},{"lat":"37.304401607","long":"126.9977047","imageIndex":13,"items":[{"name":"머리가예쁜집","tel":"031-252-7433","addr":"경기도 수원시 장안구 파장동 461-24번지","indutype":"보건위생 - 미용원","category":"beauty"},{"name":"진텍바이오","tel":"070-8244-1969","addr":"경기도 수원시 장안구 파장동 461-24번지 지하1층,지상2층","indutype":"보건위생 - 의료용품","category":"beauty"}]},{"lat":"37.309591319","long":"126.99455717","imageIndex":13,"items":[{"name":"머리이야기","tel":"031-268-3677","addr":"경기도 수원시 장안구 파장동 266-1번지","indutype":"보건위생 - 미용원","category":"beauty"}]},{"lat":"37.308681223","long":"126.99369998","imageIndex":13,"items":[{"name":"머릿결사랑","tel":"031-254-8144","addr":"경기도 수원시 장안구 파장동 577번지 미광빌딩 102호","indutype":"보건위생 - 미용원","category":"beauty"}]},{"lat":"37.307978454","long":"126.99408358","imageIndex":13,"items":[{"name":"멀티 패밀리(부월당)","tel":"","addr":"경기도 수원시 장안구 파장동 578-18번지 2층","indutype":"보건위생 - 기타대인서비스","category":"beauty"}]},{"lat":"37.304897122","long":"126.99670079","imageIndex":13,"items":[{"name":"명품수기명가","tel":"","addr":"경기도 수원시 장안구 파장동 495-65번지 1층","indutype":"보건위생 - 피부미용실","category":"beauty"}]},{"lat":"37.310204043","long":"126.99497447","imageIndex":13,"items":[{"name":"모나리자헤어샵","tel":"031-254-4256","addr":"경기도 수원시 장안구 파장동 208-16번지","indutype":"보건위생 - 미용원","category":"beauty"}]},{"lat":"37.308401906","long":"126.99370001","imageIndex":13,"items":[{"name":"민미용실","tel":"031-256-7191","addr":"경기도 수원시 장안구 파장동 577-5번지","indutype":"보건위생 - 미용원","category":"beauty"},{"name":"얀","tel":"031-269-4666","addr":"경기도 수원시 장안구 파장동 577-5번지","indutype":"보건위생 - 화장품","category":"beauty"}]},{"lat":"37.309339315","long":"127.00122378","imageIndex":13,"items":[{"name":"민민사랑방","tel":"","addr":"경기도 수원시 장안구 파장동 414-11번지 기준빌라 A동 401호","indutype":"보건위생 - 화장품","category":"beauty"}]},{"lat":"37.305762207","long":"126.99914841","imageIndex":13,"items":[{"name":"민헤어","tel":"","addr":"경기도 수원시 장안구 파장동 603번지","indutype":"보건위생 - 미용원","category":"beauty"}]},{"lat":"37.307095327","long":"126.99253835","imageIndex":13,"items":[{"name":"밝은눈안경","tel":"031-269-4559","addr":"경기도 수원시 장안구 파장동 580번지 동영빌딩 1층 112호 일부","indutype":"보건위생 - 안경","category":"beauty"}]},{"lat":"37.304734926","long":"126.99647522","imageIndex":13,"items":[{"name":"벨르","tel":"031-252-0776","addr":"경기도 수원시 장안구 파장동 495-44번지","indutype":"보건위생 - 미용원","category":"beauty"}]},{"lat":"37.306978157","long":"126.99212101","imageIndex":13,"items":[{"name":"뷰티크레딧(북수원점)","tel":"031-269-1744","addr":"경기도 수원시 장안구 파장동 572-35","indutype":"보건위생 - 화장품","category":"beauty"}]},{"lat":"37.307735118","long":"126.9933053","imageIndex":13,"items":[{"name":"뷰티플머리방","tel":"031-268-9155","addr":"경기도 수원시 장안구 파장동 579-10번지","indutype":"보건위생 - 미용원","category":"beauty"}]},{"lat":"37.307762128","long":"126.99305713","imageIndex":13,"items":[{"name":"비비추헤어파장점","tel":"031-893-9115","addr":"경기도 수원시 장안구 파장동 579-1번지","indutype":"보건위생 - 미용원","category":"beauty"}]},{"lat":"37.30509535","long":"126.99675717","imageIndex":13,"items":[{"name":"빈헤어비즈(민교점)","tel":"031-258-1300","addr":"경기도 수원시 장안구 파장동 599-19번지","indutype":"보건위생 - 미용원","category":"beauty"}]},{"lat":"37.307014268","long":"126.99292187","imageIndex":13,"items":[{"name":"세라젬나비엘 파장갤러리","tel":"031-271-4455","addr":"경기도 수원시 장안구 파장동 579-31번지 성지빌딩 2층 202호","indutype":"보건위생 - 의료용품","category":"beauty"}]},{"lat":"37.306347657","long":"126.99483952","imageIndex":13,"items":[{"name":"송원헤어샵","tel":"","addr":"경기도 수원시 장안구 파장동 590-1번지","indutype":"보건위생 - 미용원","category":"beauty"}]},{"lat":"37.306482584","long":"126.99200828","imageIndex":13,"items":[{"name":"수원 독일보청기","tel":"031-891-9275","addr":"경기도 수원시 장안구 파장동 580-8번지","indutype":"보건위생 - 의료용품","category":"beauty"}]},{"lat":"37.306978616","long":"127.00019737","imageIndex":13,"items":[{"name":"수원아동발달문화센터","tel":"031-253-9098","addr":"경기도 수원시 장안구 파장동 627-6번지 2층","indutype":"보건위생 - 기타대인서비스","category":"beauty"}]},{"lat":"37.30831214","long":"127.00069364","imageIndex":13,"items":[{"name":"수일","tel":"031-256-4683","addr":"경기도 수원시 장안구 파장동 631-6번지","indutype":"보건위생 - 미용원","category":"beauty"}]},{"lat":"37.308176457","long":"126.99147788","imageIndex":13,"items":[{"name":"스타미용실","tel":"031-244-0778","addr":"경기도 수원시 장안구 파장동 573번지","indutype":"보건위생 - 미용원","category":"beauty"}]},{"lat":"37.307429048","long":"126.99778346","imageIndex":13,"items":[{"name":"스타일리스트제이","tel":"070-7607-1255","addr":"경기도 수원시 장안구 파장동 595번지 1층","indutype":"보건위생 - 미용원","category":"beauty"}]},{"lat":"37.304536821","long":"126.99934022","imageIndex":13,"items":[{"name":"시월헤어","tel":"031-223-5214","addr":"경기도 수원시 장안구 파장동 602-13번지 101호","indutype":"보건위생 - 미용원","category":"beauty"}]},{"lat":"37.307348012","long":"126.99930625","imageIndex":13,"items":[{"name":"씨앤아이(c&i)hair","tel":"031-255-2293","addr":"경기도 수원시 장안구 파장동 627-10번지 1층","indutype":"보건위생 - 미용원","category":"beauty"}]},{"lat":"37.30750964","long":"126.99086887","imageIndex":13,"items":[{"name":"아리아네일","tel":"070-8888-0907","addr":"경기도 수원시 장안구 파장동 572-57번지","indutype":"보건위생 - 피부미용실","category":"beauty"}]},{"lat":"37.310041557","long":"126.99130839","imageIndex":13,"items":[{"name":"에이스 뷰티","tel":"031-000-0000","addr":"경기도 수원시 장안구 파장동 557-9번지","indutype":"보건위생 - 미용재료","category":"beauty"}]},{"lat":"37.306590726","long":"126.99222258","imageIndex":13,"items":[{"name":"연세보청기","tel":"031-244-8001","addr":"경기도 수원시 장안구 파장동 580-9번지 2층 연세이비인후과","indutype":"보건위생 - 의료용품","category":"beauty"},{"name":"하얀2","tel":"031-247-6855","addr":"경기도 수원시 장안구 파장동 580-9번지","indutype":"보건위생 - 화장품","category":"beauty"},{"name":"휴먼의료기","tel":"031-253-7589","addr":"경기도 수원시 장안구 파장동 580-9번지 2층","indutype":"보건위생 - 의료용품","category":"beauty"}]},{"lat":"37.308455708","long":"126.99081231","imageIndex":13,"items":[{"name":"염색전문헤어샵","tel":"031-256-8974","addr":"경기도 수원시 장안구 파장동 559-12번지 1층 좌측","indutype":"보건위생 - 미용원","category":"beauty"}]},{"lat":"37.308708303","long":"126.9943655","imageIndex":13,"items":[{"name":"예빈상사","tel":"031-271-4005","addr":"경기도 수원시 장안구 파장동 576-4번지","indutype":"보건위생 - 화장품","category":"beauty"}]},{"lat":"37.309816594","long":"126.99483915","imageIndex":13,"items":[{"name":"예스","tel":"031-269-0485","addr":"경기도 수원시 장안구 파장동 267-3번지 104호","indutype":"보건위생 - 화장품","category":"beauty"},{"name":"헤어라피네","tel":"031-269-3243","addr":"경기도 수원시 장안구 파장동 267-3번지 1층 102호","indutype":"보건위생 - 미용원","category":"beauty"}]},{"lat":"37.309068686","long":"126.9940045","imageIndex":13,"items":[{"name":"예스 염색","tel":"031-305-6960","addr":"경기도 수원시 장안구 파장동 576번지","indutype":"보건위생 - 미용원","category":"beauty"}]},{"lat":"37.307176844","long":"127.00033272","imageIndex":13,"items":[{"name":"올스본코리아 수원지점","tel":"031-243-7001","addr":"경기도 수원시 장안구 파장동 627-5번지 덕성빌딩 201호","indutype":"보건위생 - 의료용품","category":"beauty"},{"name":"제이와이디헤어 (JYD HAIR)","tel":"031-241-5587","addr":"경기도 수원시 장안구 파장동 627-5번지 1층 105호","indutype":"보건위생 - 미용원","category":"beauty"}]},{"lat":"37.307311581","long":"126.99263984","imageIndex":13,"items":[{"name":"이넬화장품","tel":"031-269-8236","addr":"경기도 수원시 장안구 파장동 579-36번지 1층","indutype":"보건위생 - 화장품","category":"beauty"}]},{"lat":"37.308401543","long":"126.98984224","imageIndex":13,"items":[{"name":"이인자헤어","tel":"031-245-5626","addr":"경기도 수원시 장안구 파장동 571-11번지","indutype":"보건위생 - 미용원","category":"beauty"}]},{"lat":"37.30365374","long":"126.99730998","imageIndex":13,"items":[{"name":"일월사","tel":"070-7808-7575","addr":"경기도 수원시 장안구 파장동 501-34번지 2층","indutype":"보건위생 - 기타대인서비스","category":"beauty"}]},{"lat":"37.305734958","long":"126.99478318","imageIndex":13,"items":[{"name":"잠언의료기 장안점","tel":"031-281-1583","addr":"경기도 수원시 장안구 파장동 590-8번지 2층","indutype":"보건위생 - 의료용품","category":"beauty"}]},{"lat":"37.30720333","long":"126.99125243","imageIndex":13,"items":[{"name":"정관숙헤어샵","tel":"031-258-0050","addr":"경기도 수원시 장안구 파장동 572-52번지","indutype":"보건위생 - 미용원","category":"beauty"}]},{"lat":"37.305680911","long":"126.99500878","imageIndex":13,"items":[{"name":"제노헤어","tel":"031-242-2426","addr":"경기도 수원시 장안구 파장동 591-12번지","indutype":"보건위생 - 미용원","category":"beauty"}]},{"lat":"37.304761978","long":"126.99689256","imageIndex":13,"items":[{"name":"채림헤어","tel":"031-242-1117","addr":"경기도 수원시 장안구 파장동 501-14번지","indutype":"보건위생 - 미용원","category":"beauty"}]},{"lat":"37.305870184","long":"126.99592242","imageIndex":13,"items":[{"name":"태후사랑파장점","tel":"031-244-3749","addr":"경기도 수원시 장안구 파장동 591-5번지","indutype":"보건위생 - 미용원","category":"beauty"}]},{"lat":"37.306762007","long":"126.99322646","imageIndex":13,"items":[{"name":"해피수원파장시장대리점","tel":"031-271-1491","addr":"경기도 수원시 장안구 파장동 582-1번지","indutype":"보건위생 - 의료용품","category":"beauty"}]},{"lat":"37.307870355","long":"126.99439944","imageIndex":13,"items":[{"name":"헤어디자인클럽","tel":"031-246-7798","addr":"경기도 수원시 장안구 파장동 583-8번지","indutype":"보건위생 - 미용원","category":"beauty"}]},{"lat":"37.304014123","long":"126.99677982","imageIndex":13,"items":[{"name":"헤어몰아하","tel":"031-254-6888","addr":"경기도 수원시 장안구 파장동 495-25번지","indutype":"보건위생 - 미용원","category":"beauty"}]},{"lat":"37.305788961","long":"126.99398232","imageIndex":13,"items":[{"name":"헤어베이직","tel":"031-241-4744","addr":"경기도 수원시 장안구 파장동 589-5번지","indutype":"보건위생 - 미용원","category":"beauty"}]},{"lat":"37.30664486","long":"126.99305728","imageIndex":13,"items":[{"name":"헤어프로렌스","tel":"031-271-1941","addr":"경기도 수원시 장안구 파장동 582번지","indutype":"보건위생 - 미용원","category":"beauty"}]},{"lat":"37.306401593","long":"126.99317011","imageIndex":13,"items":[{"name":"현대미용실","tel":"031-252-9986","addr":"경기도 수원시 장안구 파장동 582-24번지","indutype":"보건위생 - 미용원","category":"beauty"}]},{"lat":"37.310897742","long":"126.99375611","imageIndex":13,"items":[{"name":"호암사","tel":"031-271-2587","addr":"경기도 수원시 장안구 파장동 212-13번지","indutype":"보건위생 - 기타대인서비스","category":"beauty"}]},{"lat":"37.309095809","long":"126.99533555","imageIndex":13,"items":[{"name":"황금손","tel":"031-269-7101","addr":"경기도 수원시 장안구 파장동 266-2번지 2층","indutype":"보건위생 - 피부미용실","category":"beauty"}]},{"lat":"37.309041629","long":"126.9936661","imageIndex":13,"items":[{"name":"힐링헤어","tel":"031-257-9872","addr":"경기도 수원시 장안구 파장동 575-15번지","indutype":"보건위생 - 미용원","category":"beauty"}]},{"lat":"37.323232635","long":"126.99267152","imageIndex":8,"items":[{"name":"(주)지브이티에스","tel":"031-216-0254","addr":"경기도 수원시 장안구 파장동 19-4번지","indutype":"기타의료기관 - 동물병원","category":"medical"}]},{"lat":"37.307149412","long":"126.99280906","imageIndex":8,"items":[{"name":"경희소나무한의원","tel":"031-257-7501","addr":"경기도 수원시 장안구 파장동 579-38번지","indutype":"의원 - 한의원","category":"medical"}]},{"lat":"37.309230356","long":"126.98872536","imageIndex":8,"items":[{"name":"경희운송한의원","tel":"031-271-0011","addr":"경기도 수원시 장안구 파장동 570-8번지 4층 401호","indutype":"의원 - 한의원","category":"medical"},{"name":"나종완치과의원","tel":"031-271-0003","addr":"경기도 수원시 장안구 파장동 570-8번지 덕원빌딩 302호","indutype":"의원 - 치과의원","category":"medical"}]},{"lat":"37.3089786","long":"126.99423011","imageIndex":8,"items":[{"name":"그린팜중앙약국","tel":"031-251-3411","addr":"경기도 수원시 장안구 파장동 576-1번지","indutype":"약국 - 약국","category":"medical"},{"name":"자올치과의원","tel":"031-268-7528","addr":"경기도 수원시 장안구 파장동 576-1번지","indutype":"의원 - 치과의원","category":"medical"},{"name":"장안경희한의원","tel":"031-268-7511","addr":"경기도 수원시 장안구 파장동 576-1번지 광이빌딩 2층","indutype":"의원 - 한의원","category":"medical"}]},{"lat":"37.305041269","long":"126.99639623","imageIndex":8,"items":[{"name":"김경신소아청소년과의원","tel":"031-246-7067","addr":"경기도 수원시 장안구 파장동 495-37번지","indutype":"의원 - 의원","category":"medical"},{"name":"성모약국","tel":"031-245-4264","addr":"경기도 수원시 장안구 파장동 495-37번지","indutype":"약국 - 약국","category":"medical"}]},{"lat":"37.306482584","long":"126.99200828","imageIndex":8,"items":[{"name":"대호약국","tel":"031-241-5358","addr":"경기도 수원시 장안구 파장동 580-8번지","indutype":"약국 - 약국","category":"medical"},{"name":"미소드림치과의원","tel":"031-247-7528","addr":"경기도 수원시 장안구 파장동 580-8번지 2층","indutype":"의원 - 치과의원","category":"medical"},{"name":"태양당한의원","tel":"031-252-0257","addr":"경기도 수원시 장안구 파장동 580-8번지 외4필지 3층","indutype":"의원 - 한의원","category":"medical"}]},{"lat":"37.305924069","long":"126.99339576","imageIndex":8,"items":[{"name":"명진한의원","tel":"031-253-8433","addr":"경기도 수원시 장안구 파장동 582-30번지","indutype":"의원 - 한의원","category":"medical"}]},{"lat":"37.304509682","long":"126.99670082","imageIndex":8,"items":[{"name":"민제한의원","tel":"031-248-1275","addr":"경기도 수원시 장안구 파장동 495-22번지","indutype":"의원 - 한의원","category":"medical"}]},{"lat":"37.31581767","long":"127.00194563","imageIndex":8,"items":[{"name":"삼대약손한약국","tel":"031-252-7467","addr":"경기도 수원시 장안구 파장동 349-5번지 1층","indutype":"약국 - 한약방","category":"medical"}]},{"lat":"37.303653721","long":"126.99692648","imageIndex":8,"items":[{"name":"성모치과의원","tel":"031-256-2808","addr":"경기도 수원시 장안구 파장동 495-30번지 2층","indutype":"의원 - 치과의원","category":"medical"}]},{"lat":"37.305617904","long":"126.99603524","imageIndex":8,"items":[{"name":"세원정형외과","tel":"031-254-7582","addr":"경기도 수원시 장안구 파장동 599번지 상신빌딩 2층","indutype":"의원 - 의원","category":"medical"}]},{"lat":"37.304014123","long":"126.99677982","imageIndex":8,"items":[{"name":"솔약국","tel":"031-245-5462","addr":"경기도 수원시 장안구 파장동 495-25번지","indutype":"약국 - 약국","category":"medical"},{"name":"푸른내과","tel":"031-241-1296","addr":"경기도 수원시 장안구 파장동 495-25번지","indutype":"의원 - 의원","category":"medical"}]},{"lat":"37.307311581","long":"126.99263984","imageIndex":8,"items":[{"name":"아산참조은의원","tel":"031-258-3630","addr":"경기도 수원시 장안구 파장동 579-36번지 2층","indutype":"의원 - 의원","category":"medical"}]},{"lat":"37.306374484","long":"126.99225645","imageIndex":8,"items":[{"name":"어진한의원","tel":"031-251-7582","addr":"경기도 수원시 장안구 파장동 580-6번지 2층","indutype":"의원 - 한의원","category":"medical"}]},{"lat":"37.30614925","long":"126.99250464","imageIndex":8,"items":[{"name":"연세 엘 의원","tel":"031-269-5656","addr":"경기도 수원시 장안구 파장동 581-1번지 2층 205호","indutype":"의원 - 의원","category":"medical"}]},{"lat":"37.306590726","long":"126.99222258","imageIndex":8,"items":[{"name":"연세이비인후과","tel":"031-244-8001","addr":"경기도 수원시 장안구 파장동 580-9번지 2층","indutype":"의원 - 의원","category":"medical"},{"name":"이정신경과의원","tel":"031-245-8275","addr":"경기도 수원시 장안구 파장동 580-9번지 이정신경과의원","indutype":"의원 - 의원","category":"medical"}]},{"lat":"37.306284387","long":"126.99231287","imageIndex":8,"items":[{"name":"이편한치과의원","tel":"031-244-6411","addr":"경기도 수원시 장안구 파장동 580-5번지 2층","indutype":"의원 - 치과의원","category":"medical"}]},{"lat":"37.307095327","long":"126.99253835","imageIndex":8,"items":[{"name":"종합약국","tel":"031-245-6213","addr":"경기도 수원시 장안구 파장동 580번지","indutype":"약국 - 약국","category":"medical"}]},{"lat":"37.309068686","long":"126.9940045","imageIndex":8,"items":[{"name":"참길한의원","tel":"031-271-5625","addr":"경기도 수원시 장안구 파장동 576번지 재성빌딩 3층","indutype":"의원 - 한의원","category":"medical"}]},{"lat":"37.304230414","long":"126.99772727","imageIndex":13,"items":[{"name":"21세기노래연습장","tel":"031-207-0449","addr":"경기도 수원시 장안구 파장동 461-40번지 할인백화점 지하층","indutype":"레저업소 - 노 래 방","category":"leisure"}]},{"lat":"37.308924035","long":"126.98895102","imageIndex":13,"items":[{"name":"K.S.M.P 무술학교(정자관)","tel":"031-248-0113","addr":"경기도 수원시 장안구 파장동 570-12번지 2층","indutype":"레저업소 - 헬스클럽","category":"leisure"}]},{"lat":"37.305401669","long":"126.99622701","imageIndex":13,"items":[{"name":"LEGEND PC방","tel":"","addr":"경기도 수원시 장안구 파장동 599-24번지 2층","indutype":"레저업소 - 기타레져업소","category":"leisure"},{"name":"주식회사 참스포츠씨엘키즈","tel":"031-241-6758","addr":"경기도 수원시 장안구 파장동 599-24번지 지하","indutype":"레저업소 - 수 영 장","category":"leisure"},{"name":"현피트니스","tel":"070-7786-8017","addr":"경기도 수원시 장안구 파장동 599-24번지 2층 202호","indutype":"레저업소 - 헬스클럽","category":"leisure"}]},{"lat":"37.308203657","long":"126.99339548","imageIndex":13,"items":[{"name":"OK당구장 파장점","tel":"031-268-1505","addr":"경기도 수원시 장안구 파장동 578번지","indutype":"레저업소 - 당 구 장","category":"leisure"}]},{"lat":"37.305203467","long":"126.99664437","imageIndex":13,"items":[{"name":"가비노래연습장","tel":"031-241-6784","addr":"경기도 수원시 장안구 파장동 599-23번지 지하층","indutype":"레저업소 - 노 래 방","category":"leisure"}]},{"lat":"37.309230356","long":"126.98872536","imageIndex":13,"items":[{"name":"가온요가 1호점","tel":"031-268-7778","addr":"경기도 수원시 장안구 파장동 570-8번지 4층 402호","indutype":"레저업소 - 헬스클럽","category":"leisure"}]},{"lat":"37.30561789","long":"126.99580964","imageIndex":13,"items":[{"name":"데일리요가","tel":"031-257-0129","addr":"경기도 수원시 장안구 파장동 591-6번지 2층","indutype":"레저업소 - 헬스클럽","category":"leisure"}]},{"lat":"37.306897018","long":"126.99161343","imageIndex":13,"items":[{"name":"럭셔리노래연습장","tel":"031-271-3347","addr":"경기도 수원시 장안구 파장동 572-40번지 2층","indutype":"레저업소 - 노 래 방","category":"leisure"}]},{"lat":"37.30614925","long":"126.99250464","imageIndex":13,"items":[{"name":"반 필라테스","tel":"02-0000-0000","addr":"경기도 수원시 장안구 파장동 581-1번지 5층 2호","indutype":"레저업소 - 헬스클럽","category":"leisure"}]},{"lat":"37.305617904","long":"126.99603524","imageIndex":13,"items":[{"name":"버디골프아카데미","tel":"070-8966-1143","addr":"경기도 수원시 장안구 파장동 599번지 지하1층","indutype":"레저업소 - 골프연습장","category":"leisure"}]},{"lat":"37.310374714","long":"126.98923276","imageIndex":13,"items":[{"name":"비에이티(BAT)","tel":"","addr":"경기도 수원시 장안구 파장동 564-17번지","indutype":"레저업소 - 헬스클럽","category":"leisure"}]},{"lat":"37.308789331","long":"126.99350821","imageIndex":13,"items":[{"name":"산울림노래연습장","tel":"031-269-1441","addr":"경기도 수원시 장안구 파장동 575-20번지 지하1층","indutype":"레저업소 - 노 래 방","category":"leisure"}]},{"lat":"37.305816038","long":"126.99461398","imageIndex":13,"items":[{"name":"세롬당구장","tel":"031-258-2355","addr":"경기도 수원시 장안구 파장동 590-9번지 2층","indutype":"레저업소 - 당 구 장","category":"leisure"}]},{"lat":"37.3034555","long":"126.99700545","imageIndex":13,"items":[{"name":"수노래연습장","tel":"031-245-7776","addr":"경기도 수원시 장안구 파장동 495-31번지 중앙빌딩 지층","indutype":"레저업소 - 노 래 방","category":"leisure"}]},{"lat":"37.309510265","long":"126.99512119","imageIndex":13,"items":[{"name":"스카이스크린골프연습장","tel":"031-268-3332","addr":"경기도 수원시 장안구 파장동 267-5번지 301호","indutype":"레저업소 - 스크린골프","category":"leisure"},{"name":"우리골프학교","tel":"031-268-3332","addr":"경기도 수원시 장안구 파장동 267-5번지 3층","indutype":"레저업소 - 스크린골프","category":"leisure"},{"name":"주식회사 우리골프","tel":"031-268-3337","addr":"경기도 수원시 장안구 파장동 267-5번지 세화빌딩 3층 301호","indutype":"레저업소 - 골프연습장","category":"leisure"}]},{"lat":"37.307735223","long":"126.99470401","imageIndex":13,"items":[{"name":"신나는노래연습장","tel":"031-253-6653","addr":"경기도 수원시 장안구 파장동 583-12번지 지층","indutype":"레저업소 - 노 래 방","category":"leisure"}]},{"lat":"37.308897483","long":"126.99389172","imageIndex":13,"items":[{"name":"쌍쌍노래연습장","tel":"031-257-2506","addr":"경기도 수원시 장안구 파장동 576-6번지 지하층","indutype":"레저업소 - 노 래 방","category":"leisure"}]},{"lat":"37.304257397","long":"126.9967234","imageIndex":13,"items":[{"name":"아이비스pc","tel":"070-7997-4037","addr":"경기도 수원시 장안구 파장동 495-24번지 2층","indutype":"레저업소 - 기타레져업소","category":"leisure"},{"name":"이레당구클럽","tel":"031-248-8010","addr":"경기도 수원시 장안구 파장동 495-24번지","indutype":"레저업소 - 당 구 장","category":"leisure"}]},{"lat":"37.307591081","long":"126.99503114","imageIndex":13,"items":[{"name":"에이스 노래연습장","tel":"031-246-3467","addr":"경기도 수원시 장안구 파장동 588번지 생수빌딩","indutype":"레저업소 - 노 래 방","category":"leisure"}]},{"lat":"37.306978246","long":"126.99314748","imageIndex":13,"items":[{"name":"연꽃노래연습장","tel":"031-271-7756","addr":"경기도 수원시 장안구 파장동 579-27번지 장수숯불갈비 B동 2층","indutype":"레저업소 - 노 래 방","category":"leisure"}]},{"lat":"37.307348012","long":"126.99930625","imageIndex":13,"items":[{"name":"용당구클럽","tel":"070-7576-2948","addr":"경기도 수원시 장안구 파장동 627-10번지 오토헬스프라자 2층","indutype":"레저업소 - 당 구 장","category":"leisure"}]},{"lat":"37.304789042","long":"126.99759188","imageIndex":13,"items":[{"name":"웰빙당구클럽","tel":"031-241-0793","addr":"경기도 수원시 장안구 파장동 600-18번지 3층","indutype":"레저업소 - 당 구 장","category":"leisure"}]},{"lat":"37.308681223","long":"126.99369998","imageIndex":13,"items":[{"name":"장안S복싱","tel":"031-254-6312","addr":"경기도 수원시 장안구 파장동 577번지 미광빌딩 지하층","indutype":"레저업소 - 헬스클럽","category":"leisure"}]},{"lat":"37.304680869","long":"126.99656546","imageIndex":13,"items":[{"name":"쟁반노래연습장","tel":"031-252-6658","addr":"경기도 수원시 장안구 파장동 495-43번지","indutype":"레저업소 - 노 래 방","category":"leisure"}]},{"lat":"37.308347882","long":"126.99419634","imageIndex":13,"items":[{"name":"제이에스(JS)골프클럽","tel":"031-269-7718","addr":"경기도 수원시 장안구 파장동 577-2번지 영림프라자 201호","indutype":"레저업소 - 골프연습장","category":"leisure"}]},{"lat":"37.304761978","long":"126.99689256","imageIndex":13,"items":[{"name":"짱 노래연습장","tel":"031-241-0709","addr":"경기도 수원시 장안구 파장동 501-14번지 순복음열림교회 지하1층","indutype":"레저업소 - 노 래 방","category":"leisure"}]},{"lat":"37.306978616","long":"127.00019737","imageIndex":13,"items":[{"name":"톱스타노래연습장","tel":"031-255-3205","addr":"경기도 수원시 장안구 파장동 627-6번지 지하","indutype":"레저업소 - 노 래 방","category":"leisure"}]},{"lat":"37.30365374","long":"126.99730998","imageIndex":13,"items":[{"name":"투투노래연습장","tel":"031-247-6001","addr":"경기도 수원시 장안구 파장동 501-34번지","indutype":"레저업소 - 노 래 방","category":"leisure"}]},{"lat":"37.304536774","long":"126.99800924","imageIndex":13,"items":[{"name":"판코리아 노래연습장","tel":"031-256-6177","addr":"경기도 수원시 장안구 파장동 600-15번지","indutype":"레저업소 - 노 래 방","category":"leisure"}]},{"lat":"37.305870116","long":"126.99486213","imageIndex":13,"items":[{"name":"팡팡노래연습장","tel":"031-254-1755","addr":"경기도 수원시 장안구 파장동 590-7번지","indutype":"레저업소 - 노 래 방","category":"leisure"}]},{"lat":"37.307095327","long":"126.99253835","imageIndex":13,"items":[{"name":"한성볼링센터","tel":"031-241-6642","addr":"경기도 수원시 장안구 파장동 580번지","indutype":"레저업소 - 볼 링 장","category":"leisure"}]},{"lat":"37.307284947","long":"126.99953185","imageIndex":13,"items":[{"name":"헬스원","tel":"031-253-0605","addr":"경기도 수원시 장안구 파장동 627-9번지 2층","indutype":"레저업소 - 헬스클럽","category":"leisure"}]},{"lat":"37.304455629","long":"126.99687002","imageIndex":0,"items":[{"name":"21세기자동차정비공업사","tel":"031-252-5231","addr":"경기도 수원시 장안구 파장동 501-25번지","indutype":"자동차정비 유지 - 자동차정비","category":"car"}]},{"lat":"37.3202318","long":"126.9884751","imageIndex":0,"items":[{"name":"HJ모터스","tel":"031-246-8531","addr":"경기도 수원시 장안구 파장동 80-2번지","indutype":"자동차정비 유지 - 자동차정비","category":"car"}]},{"lat":"37.316979164","long":"126.98889313","imageIndex":0,"items":[{"name":"건우자동차공업사","tel":"031-268-4971","addr":"경기도 수원시 장안구 파장동 130-2번지","indutype":"자동차정비 유지 - 자동차정비","category":"car"}]},{"lat":"37.308870493","long":"126.99444444","imageIndex":0,"items":[{"name":"공임나라수원파장점","tel":"031-268-1253","addr":"경기도 수원시 장안구 파장동 576-2번지","indutype":"자동차정비 유지 - 자동차정비","category":"car"}]},{"lat":"37.309870028","long":"126.98828531","imageIndex":0,"items":[{"name":"금호타이어노송대리점","tel":"031-255-2995","addr":"경기도 수원시 장안구 파장동 567-12번지","indutype":"자동차정비 유지 - 자동차정비","category":"car"},{"name":"노송카프라자","tel":"031-247-5701","addr":"경기도 수원시 장안구 파장동 567-12번지 노송카써비스","indutype":"자동차정비 유지 - 세차장","category":"car"},{"name":"뉴노송카프라자","tel":"031-255-2995","addr":"경기도 수원시 장안구 파장동 567-12번지","indutype":"자동차정비 유지 - 자동차정비","category":"car"}]},{"lat":"37.308230837","long":"126.99548228","imageIndex":0,"items":[{"name":"네비인","tel":"031-248-9799","addr":"경기도 수원시 장안구 파장동 585-6번지","indutype":"자동차정비 유지 - 자동차부품","category":"car"}]},{"lat":"37.308483191","long":"126.99666666","imageIndex":0,"items":[{"name":"대진시트카바","tel":"031-253-2698","addr":"경기도 수원시 장안구 파장동 484-1번지","indutype":"자동차정비 유지 - 자동차부품","category":"car"}]},{"lat":"37.307564018","long":"126.99455739","imageIndex":0,"items":[{"name":"동신카독크","tel":"031-294-9080","addr":"경기도 수원시 장안구 파장동 583-14번지","indutype":"자동차정비 유지 - 자동차정비","category":"car"}]},{"lat":"37.308149302","long":"126.99025964","imageIndex":0,"items":[{"name":"부성자동차정비","tel":"031-252-4102","addr":"경기도 수원시 장안구 파장동 571-8번지","indutype":"자동차정비 유지 - 자동차정비","category":"car"}]},{"lat":"37.310347634","long":"126.98881539","imageIndex":0,"items":[{"name":"북수원자동차유리","tel":"031-269-7935","addr":"경기도 수원시 장안구 파장동 567번지","indutype":"자동차정비 유지 - 자동차부품","category":"car"}]},{"lat":"37.321979728","long":"126.98805732","imageIndex":0,"items":[{"name":"수안오토오아시스","tel":"031-246-9055","addr":"경기도 수원시 장안구 파장동 43-1번지","indutype":"자동차정비 유지 - 자동차정비","category":"car"}]},{"lat":"37.311284809","long":"126.98978534","imageIndex":0,"items":[{"name":"수원배터리할인마트","tel":"031-271-3601","addr":"경기도 수원시 장안구 파장동 555-2번지 대영빌딩 102호","indutype":"자동차정비 유지 - 자동차부품","category":"car"}]},{"lat":"37.306537087","long":"126.99917093","imageIndex":0,"items":[{"name":"수일부분정비공업사","tel":"031-253-0576","addr":"경기도 수원시 장안구 파장동 606-7번지","indutype":"자동차정비 유지 - 자동차정비","category":"car"}]},{"lat":"37.311203637","long":"126.98908596","imageIndex":0,"items":[{"name":"신세계카센타","tel":"031-000-0000","addr":"경기도 수원시 장안구 파장동 565번지","indutype":"자동차정비 유지 - 자동차정비","category":"car"}]},{"lat":"37.312312637","long":"126.99903528","imageIndex":0,"items":[{"name":"신용카크리닉","tel":"031-252-8979","addr":"경기도 수원시 장안구 파장동 327번지","indutype":"자동차정비 유지 - 자동차정비","category":"car"},{"name":"현대카센타","tel":"031-252-8979","addr":"경기도 수원시 장안구 파장동 327번지","indutype":"자동차정비 유지 - 자동차정비","category":"car"}]},{"lat":"37.308735474","long":"126.99661024","imageIndex":0,"items":[{"name":"애니카랜드 파장점","tel":"031-243-0000","addr":"경기도 수원시 장안구 파장동 474-3번지","indutype":"자동차정비 유지 - 자동차정비","category":"car"},{"name":"해피카랜드","tel":"031-243-0000","addr":"경기도 수원시 장안구 파장동 474-3번지","indutype":"자동차정비 유지 - 자동차정비","category":"car"},{"name":"해피타이어","tel":"031-248-2991","addr":"경기도 수원시 장안구 파장동 474-3번지","indutype":"자동차정비 유지 - 자동차시트·타이어","category":"car"}]},{"lat":"37.320258871","long":"126.98881354","imageIndex":0,"items":[{"name":"이지오일","tel":"031-269-9909","addr":"경기도 수원시 장안구 파장동 91-1번지","indutype":"자동차정비 유지 - 윤활유 전문 판매","category":"car"}]},{"lat":"37.311204332","long":"126.9977832","imageIndex":0,"items":[{"name":"자동차마을","tel":"031-269-2600","addr":"경기도 수원시 장안구 파장동 295-1번지","indutype":"자동차정비 유지 - 자동차정비","category":"car"}]},{"lat":"37.309428551","long":"126.98847716","imageIndex":0,"items":[{"name":"장안중고타이어","tel":"031-251-4309","addr":"경기도 수원시 장안구 파장동 568-11번지","indutype":"자동차정비 유지 - 자동차시트·타이어","category":"car"}]},{"lat":"37.30833857","long":"126.99076721","imageIndex":0,"items":[{"name":"준영상사","tel":"031-375-0463","addr":"경기도 수원시 장안구 파장동 571-17번지 궁전빌라 가동 502호","indutype":"자동차정비 유지 - 자동차부품","category":"car"}]},{"lat":"37.3125379","long":"126.99928344","imageIndex":0,"items":[{"name":"차사랑사이드미러","tel":"031-269-7811","addr":"경기도 수원시 장안구 파장동 328-14번지","indutype":"자동차정비 유지 - 자동차부품","category":"car"}]},{"lat":"37.305590899","long":"126.99650898","imageIndex":0,"items":[{"name":"천일카광택","tel":"","addr":"경기도 수원시 장안구 파장동 599-4번지 성우주택 401호","indutype":"자동차정비 유지 - 카인테리어","category":"car"}]},{"lat":"37.310149709","long":"126.99161294","imageIndex":0,"items":[{"name":"카이즈(CARIS)","tel":"031-271-1177","addr":"경기도 수원시 장안구 파장동 557번지 1층","indutype":"자동차정비 유지 - 자동차부품","category":"car"}]},{"lat":"37.308761884","long":"126.98923305","imageIndex":0,"items":[{"name":"탑카","tel":"031-307-1277","addr":"경기도 수원시 장안구 파장동 570-16번지","indutype":"자동차정비 유지 - 자동차부품","category":"car"}]},{"lat":"37.310005569","long":"126.99186113","imageIndex":0,"items":[{"name":"파장점기아오토큐","tel":"031-246-8585","addr":"경기도 수원시 장안구 파장동 557-14번지","indutype":"자동차정비 유지 - 자동차정비","category":"car"}]},{"lat":"37.310149696","long":"126.99147758","imageIndex":0,"items":[{"name":"파장점현대자동차","tel":"031-256-5056","addr":"경기도 수원시 장안구 파장동 557-16번지","indutype":"자동차정비 유지 - 자동차정비","category":"car"}]},{"lat":"37.307348012","long":"126.99930625","imageIndex":0,"items":[{"name":"하모니카","tel":"031-244-7331","addr":"경기도 수원시 장안구 파장동 627-10번지 오토헬스프라자 1층","indutype":"자동차정비 유지 - 카인테리어","category":"car"}]},{"lat":"37.310680969","long":"126.98845436","imageIndex":0,"items":[{"name":"한스카멀티샵","tel":"031-0000-0000","addr":"경기도 수원시 장안구 파장동 566번지","indutype":"자동차정비 유지 - 자동차부품","category":"car"}]},{"lat":"37.308897642","long":"126.99630566","imageIndex":0,"items":[{"name":"해피카크리닝","tel":"031-243-3388","addr":"경기도 수원시 장안구 파장동 474-5번지","indutype":"자동차정비 유지 - 세차장","category":"car"}]},{"lat":"37.321205114","long":"126.99033643","imageIndex":9,"items":[{"name":"경인선아가스","tel":"031-248-0015","addr":"경기도 수원시 장안구 파장동 102-3번지","indutype":"연료판매점 - LPG 취급점","category":"oil"},{"name":"경인선아가스","tel":"031-245-8887","addr":"경기도 수원시 장안구 파장동 102-3번지","indutype":"연료판매점 - LPG 취급점","category":"oil"},{"name":"경인선아종합가스","tel":"031-292-8282","addr":"경기도 수원시 장안구 파장동 102-3번지","indutype":"연료판매점 - 기타연료","category":"oil"},{"name":"롯데에너지","tel":"031-248-0095","addr":"경기도 수원시 장안구 파장동 102-3번지","indutype":"연료판매점 - LPG 취급점","category":"oil"},{"name":"태양에너지","tel":"031-294-1560","addr":"경기도 수원시 장안구 파장동 102-3번지 2층","indutype":"연료판매점 - LPG 취급점","category":"oil"}]},{"lat":"37.317429631","long":"126.98853204","imageIndex":9,"items":[{"name":"그린에너지","tel":"031-253-7715","addr":"경기도 수원시 장안구 파장동 130번지","indutype":"연료판매점 - SK가스충전소","category":"oil"}]},{"lat":"37.307735118","long":"126.9933053","imageIndex":16,"items":[{"name":"관인푸른내음악학원","tel":"031-322-6621","addr":"경기도 수원시 장안구 파장동 579-10번지 2층","indutype":"학원 - 예·체능계학원","category":"study"}]},{"lat":"37.307311581","long":"126.99263984","imageIndex":16,"items":[{"name":"그림방미술학원","tel":"031-241-5008","addr":"경기도 수원시 장안구 파장동 579-36번지 3층","indutype":"학원 - 예·체능계학원","category":"study"}]},{"lat":"37.310708738","long":"126.99708385","imageIndex":16,"items":[{"name":"꾸러기동산어린이집[아이행복]","tel":"031-271-4599","addr":"경기도 수원시 장안구 파장동 291번지","indutype":"학원 - 유아원","category":"study"},{"name":"꾸러기숲어린이집[아이행복]","tel":"031-271-4599","addr":"경기도 수원시 장안구 파장동 291번지","indutype":"학원 - 유아원","category":"study"},{"name":"꾸러기숲유치원[아이행복]","tel":"031-271-4599","addr":"경기도 수원시 장안구 파장동 291번지","indutype":"학원 - 유치원","category":"study"}]},{"lat":"37.305591014","long":"126.99919353","imageIndex":16,"items":[{"name":"꾸러기세상어린이집[아이행복]","tel":"031-246-2518","addr":"경기도 수원시 장안구 파장동 603-5번지","indutype":"학원 - 유아원","category":"study"},{"name":"꾸러기세상어린이집[아이행복]","tel":"031-256-4599","addr":"경기도 수원시 장안구 파장동 603-5번지","indutype":"학원 - 유아원","category":"study"}]},{"lat":"37.306455624","long":"126.99280915","imageIndex":16,"items":[{"name":"뉴홍익학원","tel":"031-246-4861","addr":"경기도 수원시 장안구 파장동 581번지","indutype":"학원 - 기타 교육기관","category":"study"}]},{"lat":"37.3082851","long":"127.00025372","imageIndex":16,"items":[{"name":"단비학원","tel":"031-8002-5840","addr":"경기도 수원시 장안구 파장동 422-38번지","indutype":"학원 - 보습학원","category":"study"}]},{"lat":"37.305680911","long":"126.99500878","imageIndex":16,"items":[{"name":"로고스영어학원","tel":"031-241-0579","addr":"경기도 수원시 장안구 파장동 591-12번지 3층","indutype":"학원 - 외국어학원","category":"study"}]},{"lat":"37.304257397","long":"126.9967234","imageIndex":16,"items":[{"name":"마루스터디센터마루독서실","tel":"031-000-0000","addr":"경기도 수원시 장안구 파장동 495-24번지 4층및 5층 전체","indutype":"학원 - 독서실","category":"study"},{"name":"한국인재개발평생교육원","tel":"031-244-6062","addr":"경기도 수원시 장안구 파장동 495-24번지","indutype":"회원제형태 - 학원","category":"study"}]},{"lat":"37.309924203","long":"126.98923284","imageIndex":16,"items":[{"name":"명지어린이집[아이행복]","tel":"031-269-5771","addr":"경기도 수원시 장안구 파장동 568-1번지 122-104호 이목로 24SK스카이뷰","indutype":"학원 - 유아원","category":"study"}]},{"lat":"37.308374892","long":"126.99392562","imageIndex":16,"items":[{"name":"미래클어린이집[아이행복]","tel":"031-247-2290","addr":"경기도 수원시 장안구 파장동 577-8번지","indutype":"학원 - 유아원","category":"study"}]},{"lat":"37.309897945","long":"127.0009756","imageIndex":16,"items":[{"name":"박종진태권도장","tel":"031-246-5606","addr":"경기도 수원시 장안구 파장동 413-12번지 2층","indutype":"학원 - 예·체능계학원","category":"study"},{"name":"수일이레음악학원","tel":"031-255-6758","addr":"경기도 수원시 장안구 파장동 413-12번지 1층","indutype":"학원 - 예·체능계학원","category":"study"}]},{"lat":"37.309177119","long":"127.00055826","imageIndex":16,"items":[{"name":"별사탕어린이집[아이행복]","tel":"031-242-0124","addr":"경기도 수원시 장안구 파장동 422-8번지","indutype":"학원 - 유아원","category":"study"},{"name":"별사탕어린이집[아이행복]","tel":"031-242-0124","addr":"경기도 수원시 장안구 파장동 422-8번지","indutype":"학원 - 유아원","category":"study"}]},{"lat":"37.306897018","long":"126.99161343","imageIndex":16,"items":[{"name":"보석고시원","tel":"031-241-6561","addr":"경기도 수원시 장안구 파장동 572-40번지 3층","indutype":"학원 - 독서실","category":"study"}]},{"lat":"37.307762128","long":"126.99305713","imageIndex":16,"items":[{"name":"본음악학원","tel":"031-241-0885","addr":"경기도 수원시 장안구 파장동 579-1번지","indutype":"학원 - 예·체능계학원","category":"study"},{"name":"재현경희태권도장","tel":"031-246-4178","addr":"경기도 수원시 장안구 파장동 579-1번지 3층","indutype":"학원 - 예·체능계학원","category":"study"}]},{"lat":"37.308618247","long":"126.99503104","imageIndex":16,"items":[{"name":"사단법인 보듬자리","tel":"031-892-9587","addr":"경기도 수원시 장안구 파장동 584-1 101","indutype":"학원 - 기타 교육기관","category":"study"}]},{"lat":"37.307284803","long":"126.99614788","imageIndex":16,"items":[{"name":"사람과자연협동조합","tel":"031-271-6778","addr":"경기도 수원시 장안구 파장동 593-2번지 대흥빌 301호","indutype":"학원 - 기능학원","category":"study"}]},{"lat":"37.307563887","long":"126.9928654","imageIndex":16,"items":[{"name":"새은파음악학원","tel":"031-256-9301","addr":"경기도 수원시 장안구 파장동 579-3번지 2층","indutype":"학원 - 예·체능계학원","category":"study"}]},{"lat":"37.308014262","long":"126.9913651","imageIndex":16,"items":[{"name":"센트럴피아노학원","tel":"031-243-3764","addr":"경기도 수원시 장안구 파장동 572-13번지 1층","indutype":"학원 - 예·체능계학원","category":"study"}]},{"lat":"37.309717732","long":"127.00050184","imageIndex":16,"items":[{"name":"송샘의해법논술교습소","tel":"031-247-7355","addr":"경기도 수원시 장안구 파장동 409-6번지 장원빌라 3동 402호","indutype":"학원 - 보습학원","category":"study"}]},{"lat":"37.309843682","long":"126.99573029","imageIndex":16,"items":[{"name":"수원공동육아달팽이어린이집[아이행복]","tel":"031-251-3210","addr":"경기도 수원시 장안구 파장동 269-1번지","indutype":"학원 - 유아원","category":"study"}]},{"lat":"37.309843897","long":"127.00219387","imageIndex":16,"items":[{"name":"수일중학교","tel":"031-246-6112","addr":"경기도 수원시 장안구 파장동 414-1번지 수원수일중학교","indutype":"학원 - 초중고교육기관","category":"study"}]},{"lat":"37.310645787","long":"127.00061461","imageIndex":16,"items":[{"name":"수일초등학교","tel":"031-242-5932","addr":"경기도 수원시 장안구 파장동 411번지 수일초등학교","indutype":"학원 - 초중고교육기관","category":"study"}]},{"lat":"37.310150048","long":"126.99603482","imageIndex":16,"items":[{"name":"아랑어린이집[아이행복]","tel":"031-252-0641","addr":"경기도 수원시 장안구 파장동 275-2번지","indutype":"학원 - 유아원","category":"study"}]},{"lat":"37.308564061","long":"126.99333903","imageIndex":16,"items":[{"name":"영수공감교습소","tel":"031-271-5301","addr":"경기도 수원시 장안구 파장동 575-25번지 2층","indutype":"학원 - 보습학원","category":"study"}]},{"lat":"37.307149412","long":"126.99280906","imageIndex":16,"items":[{"name":"유타스학원","tel":"031-246-7230","addr":"경기도 수원시 장안구 파장동 579-38번지 3층","indutype":"학원 - 보습학원","category":"study"}]},{"lat":"37.307816407","long":"126.9961704","imageIndex":16,"items":[{"name":"이해법셀파수학곡선초점교습소","tel":"","addr":"경기도 수원시 장안구 파장동 585-9번지 착한빌 201호","indutype":"학원 - 보습학원","category":"study"}]},{"lat":"37.315177949","long":"127.00281428","imageIndex":16,"items":[{"name":"인영아동상담소","tel":"031-271-2019","addr":"경기도 수원시 장안구 파장동 342-7번지","indutype":"학원 - 기타 교육기관","category":"study"}]},{"lat":"37.307537157","long":"126.99747889","imageIndex":16,"items":[{"name":"주식회사데우스","tel":"031-269-3939","addr":"경기도 수원시 장안구 파장동 594-2번지 에스씨씨빌딩 6층","indutype":"회원제형태 - 학원","category":"study"}]},{"lat":"37.308564119","long":"126.99408352","imageIndex":16,"items":[{"name":"즐거운음악학원","tel":"031-245-1356","addr":"경기도 수원시 장안구 파장동 577-6번지","indutype":"학원 - 예·체능계학원","category":"study"}]},{"lat":"37.30884375","long":"127.00108843","imageIndex":16,"items":[{"name":"차일드푸드 아동요리교실","tel":"","addr":"경기도 수원시 장안구 파장동 418-5번지","indutype":"학원 - 기타 교육기관","category":"study"}]},{"lat":"37.306708215","long":"126.99744511","imageIndex":16,"items":[{"name":"참빛어린이집[아이행복]","tel":"031-245-7495","addr":"경기도 수원시 장안구 파장동 596-14번지","indutype":"학원 - 유아원","category":"study"}]},{"lat":"37.303869964","long":"126.99687007","imageIndex":16,"items":[{"name":"콕콕수학학원","tel":"031-242-9016","addr":"경기도 수원시 장안구 파장동 495-27번지 2층","indutype":"학원 - 보습학원","category":"study"}]},{"lat":"37.308068458","long":"126.99284278","imageIndex":16,"items":[{"name":"튼튼영어마스터클럽장안파장학원","tel":"031-269-5605","addr":"경기도 수원시 장안구 파장동 573-26번지 1,2층","indutype":"학원 - 외국어학원","category":"study"}]},{"lat":"37.308816262","long":"126.99233507","imageIndex":16,"items":[{"name":"파장유치원[아이행복]","tel":"031-269-1932","addr":"경기도 수원시 장안구 파장동 574번지 파장초등학교","indutype":"학원 - 유치원","category":"study"},{"name":"파장초등학교","tel":"031-244-6901","addr":"경기도 수원시 장안구 파장동 574번지 파장초등학교","indutype":"학원 - 초중고교육기관","category":"study"}]},{"lat":"37.307176844","long":"127.00033272","imageIndex":16,"items":[{"name":"플레이더피아노","tel":"031-251-6227","addr":"경기도 수원시 장안구 파장동 627-5번지 4층","indutype":"학원 - 예·체능계학원","category":"study"}]},{"lat":"37.30734803","long":"126.99997176","imageIndex":16,"items":[{"name":"하얀음악학원","tel":"031-255-5758","addr":"경기도 수원시 장안구 파장동 627-3번지 3층","indutype":"학원 - 예·체능계학원","category":"study"}]},{"lat":"37.320258896","long":"126.9890279","imageIndex":16,"items":[{"name":"한국보건복지평생교육원","tel":"031-254-2691","addr":"경기도 수원시 장안구 파장동 89-2번지","indutype":"학원 - 기타 교육기관","category":"study"}]},{"lat":"37.30895111","long":"126.98933454","imageIndex":16,"items":[{"name":"한국체육사관학교교육원","tel":"031-269-1504","addr":"경기도 수원시 장안구 파장동 570-22번지 102호","indutype":"회원제형태 - 학원","category":"study"}]},{"lat":"37.304509713","long":"126.99733247","imageIndex":16,"items":[{"name":"한빛어린이집[아이행복]","tel":"031-251-0888","addr":"경기도 수원시 장안구 파장동 501-17번지","indutype":"학원 - 유아원","category":"study"}]},{"lat":"37.307843225","long":"126.99311352","imageIndex":16,"items":[{"name":"해법영어수학파장탑학원","tel":"031-269-0841","addr":"경기도 수원시 장안구 파장동 579번지 2층","indutype":"학원 - 보습학원","category":"study"}]},{"lat":"37.305618051","long":"126.99941912","imageIndex":16,"items":[{"name":"행복한피아노","tel":"031-251-6227","addr":"경기도 수원시 장안구 파장동 603-3번지 수원성 101호","indutype":"학원 - 예·체능계학원","category":"study"}]},{"lat":"37.308347882","long":"126.99419634","imageIndex":16,"items":[{"name":"헬스플러스","tel":"031-252-5995","addr":"경기도 수원시 장안구 파장동 577-2번지 영림프라자 3층 301호","indutype":"회원제형태 - 학원","category":"study"}]},{"lat":"37.307680823","long":"126.99075604","imageIndex":5,"items":[{"name":"녹원장여관","tel":"031-242-9509","addr":"경기도 수원시 장안구 파장동 572-6번지","indutype":"숙박업 - 여관/기타숙박업","category":"hotel"}]},{"lat":"37.306320526","long":"126.99347467","imageIndex":5,"items":[{"name":"삼성파크","tel":"031-243-3788","addr":"경기도 수원시 장안구 파장동 582-20번지","indutype":"숙박업 - 여관/기타숙박업","category":"hotel"}]},{"lat":"37.307149489","long":"126.99375657","imageIndex":5,"items":[{"name":"삼오장파크","tel":"031-256-0841","addr":"경기도 수원시 장안구 파장동 583-39번지","indutype":"숙박업 - 여관/기타숙박업","category":"hotel"}]},{"lat":"37.30720333","long":"126.99125243","imageIndex":5,"items":[{"name":"성원모텔","tel":"031-244-1580","addr":"경기도 수원시 장안구 파장동 572-52번지 ,4-5층","indutype":"숙박업 - 여관/기타숙박업","category":"hotel"},{"name":"성원장여관","tel":"031-258-7372","addr":"경기도 수원시 장안구 파장동 572-52번지","indutype":"숙박업 - 여관/기타숙박업","category":"hotel"}]},{"lat":"37.306708001","long":"126.99392582","imageIndex":5,"items":[{"name":"에쿠스모텔","tel":"031-207-6606","addr":"경기도 수원시 장안구 파장동 582-9번지","indutype":"숙박업 - 여관/기타숙박업","category":"hotel"}]},{"lat":"37.307122485","long":"126.99411752","imageIndex":5,"items":[{"name":"테마모텔","tel":"031-271-6926","addr":"경기도 수원시 장안구 파장동 583-30번지","indutype":"숙박업 - 여관/기타숙박업","category":"hotel"},{"name":"테마모텔","tel":"031-663-0447","addr":"경기도 수원시 장안구 파장동 583-30번지","indutype":"숙박업 - 여관/기타숙박업","category":"hotel"}]},{"lat":"37.306762007","long":"126.99322646","imageIndex":5,"items":[{"name":"파스텔","tel":"031-257-3388","addr":"경기도 수원시 장안구 파장동 582-1번지 1층","indutype":"숙박업 - 여관/기타숙박업","category":"hotel"}]},{"lat":"37.307347578","long":"126.99214352","imageIndex":7,"items":[{"name":"농민유통","tel":"031-257-1400","addr":"경기도 수원시 장안구 파장동 572-64번지 1층","indutype":"유통업 영리 - 슈퍼마켓","category":"mart"}]},{"lat":"37.30365374","long":"126.99730998","imageIndex":7,"items":[{"name":"농수산물마트","tel":"031-247-0543","addr":"경기도 수원시 장안구 파장동 501-34번지","indutype":"유통업 영리 - 슈퍼마켓","category":"mart"}]},{"lat":"37.306401713","long":"126.99476055","imageIndex":7,"items":[{"name":"레몬슈퍼","tel":"031-241-5550","addr":"경기도 수원시 장안구 파장동 590번지","indutype":"유통업 영리 - 슈퍼마켓","category":"mart"}]},{"lat":"37.306590726","long":"126.99222258","imageIndex":7,"items":[{"name":"맘스할인마트북수원점","tel":"031-248-5353","addr":"경기도 수원시 장안구 파장동 580-9번지","indutype":"유통업 영리 - 슈퍼마켓","category":"mart"}]},{"lat":"37.308401906","long":"126.99370001","imageIndex":7,"items":[{"name":"민호식품점","tel":"031-269-8688","addr":"경기도 수원시 장안구 파장동 577-5번지 민미용실 1층 3호","indutype":"유통업 영리 - 슈퍼마켓","category":"mart"}]},{"lat":"37.305816038","long":"126.99461398","imageIndex":7,"items":[{"name":"삼육오유통","tel":"031-254-3041","addr":"경기도 수원시 장안구 파장동 590-9번지 1층","indutype":"유통업 영리 - 슈퍼마켓","category":"mart"}]},{"lat":"37.309897653","long":"126.99436537","imageIndex":7,"items":[{"name":"수원시온마트","tel":"070-4441-5397","addr":"경기도 수원시 장안구 파장동 209-1번지 대영프라자 1층 107,108호","indutype":"유통업 영리 - 슈퍼마켓","category":"mart"}]},{"lat":"37.305455843","long":"126.99867468","imageIndex":7,"items":[{"name":"신광슈퍼","tel":"031-257-4719","addr":"경기도 수원시 장안구 파장동 604-17번지","indutype":"유통업 영리 - 슈퍼마켓","category":"mart"}]},{"lat":"37.308536788","long":"126.9906995","imageIndex":7,"items":[{"name":"싼마트","tel":"070-7012-1329","addr":"경기도 수원시 장안구 파장동 559-11번지 1층","indutype":"유통업 영리 - 슈퍼마켓","category":"mart"}]},{"lat":"37.308203657","long":"126.99339548","imageIndex":7,"items":[{"name":"에브리데이마트","tel":"031-255-6501","addr":"경기도 수원시 장안구 파장동 578번지 1층","indutype":"유통업 영리 - 슈퍼마켓","category":"mart"}]},{"lat":"37.307483175","long":"126.99964464","imageIndex":7,"items":[{"name":"왕발이할인마트","tel":"031-252-1800","addr":"경기도 수원시 장안구 파장동 627-1번지","indutype":"유통업 영리 - 슈퍼마켓","category":"mart"}]},{"lat":"37.308564061","long":"126.99333903","imageIndex":7,"items":[{"name":"원주유통","tel":"031-271-7765","addr":"경기도 수원시 장안구 파장동 575-25번지 1층","indutype":"유통업 영리 - 슈퍼마켓","category":"mart"}]},{"lat":"37.307068392","long":"126.99370018","imageIndex":7,"items":[{"name":"원진슈퍼","tel":"031-252-0850","addr":"경기도 수원시 장안구 파장동 583-38번지","indutype":"유통업 영리 - 슈퍼마켓","category":"mart"}]},{"lat":"37.306374873","long":"126.99831367","imageIndex":7,"items":[{"name":"장안할인마트","tel":"031-252-8111","addr":"경기도 수원시 장안구 파장동 596-8번지 썬택씨티빌 1층","indutype":"유통업 영리 - 슈퍼마켓","category":"mart"}]},{"lat":"37.307735223","long":"126.99470401","imageIndex":7,"items":[{"name":"타임스토어","tel":"031-268-3638","addr":"경기도 수원시 장안구 파장동 583-12번지","indutype":"유통업 영리 - 슈퍼마켓","category":"mart"}]},{"lat":"37.306482584","long":"126.99200828","imageIndex":7,"items":[{"name":"판다팜(파장점)","tel":"031-253-8456","addr":"경기도 수원시 장안구 파장동 580-8번지","indutype":"유통업 영리 - 슈퍼마켓","category":"mart"}]},{"lat":"37.309375346","long":"127.00067105","imageIndex":7,"items":[{"name":"하나로마트","tel":"031-247-1072","addr":"경기도 수원시 장안구 파장동 525-1번지","indutype":"유통업 영리 - 슈퍼마켓","category":"mart"}]},{"lat":"37.308258085","long":"127.00105461","imageIndex":7,"items":[{"name":"한양홈마트","tel":"031-258-0048","addr":"경기도 수원시 장안구 파장동 630번지","indutype":"유통업 영리 - 슈퍼마켓","category":"mart"}]}]