[{"lat":"37.484259757","long":"126.80624066","imageIndex":0,"items":[{"name":"OK카써비스","tel":"032-344-5795","addr":"경기도 부천시 역곡동 45-32번지","indutype":"자동차정비 유지 - 자동차정비","category":"car"}]},{"lat":"37.484655175","long":"126.80562907","imageIndex":0,"items":[{"name":"건영상사","tel":"032-344-6974","addr":"경기도 부천시 역곡동 46-1번지 은성아파트","indutype":"자동차정비 유지 - 자동차부품","category":"car"}]},{"lat":"37.489183783","long":"126.81459505","imageIndex":0,"items":[{"name":"네바퀴자동차정비","tel":"032-341-2129","addr":"경기도 부천시 역곡동 201-5번지 (1층제3호~제5호)","indutype":"자동차정비 유지 - 자동차정비","category":"car"}]},{"lat":"37.488304039","long":"126.81663252","imageIndex":0,"items":[{"name":"동서카센타","tel":"032-341-8798","addr":"경기도 부천시 역곡동 221-6번지 중앙하이츠빌 라동 101호","indutype":"자동차정비 유지 - 자동차정비","category":"car"}]},{"lat":"37.487681159","long":"126.8158765","imageIndex":0,"items":[{"name":"동우실업","tel":"032-279-9920","addr":"경기도 부천시 역곡동 221-13번지 강남빌라 1층 101호","indutype":"자동차정비 유지 - 자동차부품","category":"car"}]},{"lat":"37.488816314","long":"126.81020882","imageIndex":0,"items":[{"name":"명성카센타","tel":"032-345-4675","addr":"경기도 부천시 역곡동 86-11번지","indutype":"자동차정비 유지 - 자동차정비","category":"car"}]},{"lat":"37.488370541","long":"126.81312717","imageIndex":0,"items":[{"name":"반석자동차정비공업사","tel":"032-342-1150","addr":"경기도 부천시 역곡동 108-7번지","indutype":"자동차정비 유지 - 자동차정비","category":"car"}]},{"lat":"37.483484294","long":"126.80054432","imageIndex":0,"items":[{"name":"부천세차와 광택 디테일워시","tel":"032-343-8678","addr":"경기도 부천시 역곡동 20번지 1층","indutype":"자동차정비 유지 - 세차장","category":"car"}]},{"lat":"37.487317307","long":"126.81370649","imageIndex":0,"items":[{"name":"붕붕자동차정비공업사","tel":"032-342-3101","addr":"경기도 부천시 역곡동 110-8번지 1층 일부","indutype":"자동차정비 유지 - 자동차정비","category":"car"}]},{"lat":"37.485122953","long":"126.80518689","imageIndex":0,"items":[{"name":"붕붕출장세차","tel":"02-2696-1112","addr":"경기도 부천시 역곡동 35-6번지 사호연립 가동 B102호","indutype":"자동차정비 유지 - 세차장","category":"car"}]},{"lat":"37.485230921","long":"126.80509615","imageIndex":0,"items":[{"name":"삐까뻔쩍","tel":"070-4282-2467","addr":"경기도 부천시 역곡동 35-12번지 1층","indutype":"자동차정비 유지 - 세차장","category":"car"}]},{"lat":"37.487293787","long":"126.81591139","imageIndex":0,"items":[{"name":"삼원개발","tel":"032-342-3399","addr":"경기도 부천시 역곡동 221번지 새론예이제 302호","indutype":"자동차정비 유지 - 자동차시트·타이어","category":"car"}]},{"lat":"37.489542063","long":"126.8132712","imageIndex":0,"items":[{"name":"서일윤활유","tel":"032-223-9180","addr":"경기도 부천시 역곡동 202번지 우림루미아트 101동 503호","indutype":"자동차정비 유지 - 윤활유 전문 판매","category":"car"}]},{"lat":"37.492734331","long":"126.81499321","imageIndex":0,"items":[{"name":"성일초경","tel":"02-2617-4661","addr":"경기도 부천시 역곡동 24-72번지","indutype":"자동차정비 유지 - 자동차부품","category":"car"}]},{"lat":"37.483319608","long":"126.80437759","imageIndex":0,"items":[{"name":"성현자동차공업사","tel":"032-351-0711","addr":"경기도 부천시 역곡동 26-1번지 하이카프라자 1층","indutype":"자동차정비 유지 - 자동차정비","category":"car"}]},{"lat":"37.489565461","long":"126.816652","imageIndex":0,"items":[{"name":"스마트샵","tel":"032-344-7950","addr":"경기도 부천시 역곡동 225-6번지 1층","indutype":"자동차정비 유지 - 자동차부품","category":"car"}]},{"lat":"37.488711168","long":"126.81204083","imageIndex":0,"items":[{"name":"신일자동차공업사","tel":"032-342-3312","addr":"경기도 부천시 역곡동 107-7번지","indutype":"자동차정비 유지 - 자동차정비","category":"car"}]},{"lat":"37.48853791","long":"126.81076358","imageIndex":0,"items":[{"name":"양지세차","tel":"032-341-3671","addr":"경기도 부천시 역곡동 86-2번지 혜성연립 나동 201호","indutype":"자동차정비 유지 - 세차장","category":"car"}]},{"lat":"37.483403534","long":"126.80073675","imageIndex":0,"items":[{"name":"역곡자동차공업사","tel":"032-349-0158","addr":"경기도 부천시 역곡동 20-2번지 현진리더빌","indutype":"자동차정비 유지 - 세차장","category":"car"}]},{"lat":"37.490181536","long":"126.81882147","imageIndex":0,"items":[{"name":"역곡한일자동차","tel":"032-344-3686","addr":"경기도 부천시 역곡동 246-2번지","indutype":"자동차정비 유지 - 자동차정비","category":"car"}]},{"lat":"37.485765894","long":"126.80712994","imageIndex":0,"items":[{"name":"워시박스(wash box)","tel":"032-343-0551","addr":"경기도 부천시 역곡동 52-6번지 묵산엠씨티 101호","indutype":"자동차정비 유지 - 카인테리어","category":"car"}]},{"lat":"37.489679823","long":"126.80932463","imageIndex":0,"items":[{"name":"제이엠씨일렉트로닉스","tel":"","addr":"경기도 부천시 역곡동 66-16번지 103호","indutype":"자동차정비 유지 - 자동차부품","category":"car"}]},{"lat":"37.490480759","long":"126.82004193","imageIndex":0,"items":[{"name":"종근카","tel":"032-349-5691","addr":"경기도 부천시 역곡동 4-10번지","indutype":"자동차정비 유지 - 자동차정비","category":"car"}]},{"lat":"37.488845772","long":"126.81735483","imageIndex":0,"items":[{"name":"청원타이어","tel":"032-348-0951","addr":"경기도 부천시 역곡동 224-8번지 1층","indutype":"자동차정비 유지 - 자동차시트·타이어","category":"car"}]},{"lat":"37.486876183","long":"126.81393374","imageIndex":0,"items":[{"name":"태영자동차정비써비스","tel":"032-346-0853","addr":"경기도 부천시 역곡동 111-5번지 1층","indutype":"자동차정비 유지 - 자동차정비","category":"car"}]},{"lat":"37.483870387","long":"126.80507713","imageIndex":0,"items":[{"name":"태진차유리","tel":"032-662-2895","addr":"경기도 부천시 역곡동 27-38번지","indutype":"자동차정비 유지 - 자동차정비","category":"car"},{"name":"태평양사","tel":"032-348-7730","addr":"경기도 부천시 역곡동 27-38번지","indutype":"자동차정비 유지 - 카인테리어","category":"car"}]}]