[{"lat":"37.674157615","long":"126.76168087","imageIndex":7,"items":[{"name":"(주) 센텀헬스케어","tel":"031-994-8765","addr":"경기도 고양시 일산서구 주엽동 29번지","indutype":"건강식품 - 기타건강식품","category":"food"}]},{"lat":"37.668543152","long":"126.76540535","imageIndex":7,"items":[{"name":"(주)파인렉스","tel":"070-8680-9898","addr":"경기도 고양시 일산서구 주엽동 73번지 강선마을11단지아파트","indutype":"건강식품 - 기타건강식품","category":"food"},{"name":"소망기업","tel":"031-8523-0701","addr":"경기도 고양시 일산서구 주엽동 73번지 강선마을11단지아파트","indutype":"음료식품 - 기타음료식품","category":"food"},{"name":"해피엔","tel":"070-8236-1141","addr":"경기도 고양시 일산서구 주엽동","indutype":"회원제형태 - 건강식품","category":"food"}]},{"lat":"37.671408421","long":"126.75671382","imageIndex":7,"items":[{"name":"가가헌","tel":"031-0000-0000","addr":"경기도 고양시 일산서구 주엽동 136번지 문촌마을13단지아파트","indutype":"음료식품 - 제과점","category":"food"},{"name":"창융","tel":"02-858-8768","addr":"경기도 고양시 일산서구 주엽동 136번지 문촌마을13단지아파트","indutype":"음료식품 - 농·축·수산품","category":"food"},{"name":"플로이","tel":"031-2857-4685","addr":"경기도 고양시 일산서구 주엽동 136번지 문촌마을13단지아파트","indutype":"음료식품 - 제과점","category":"food"}]},{"lat":"37.66974366","long":"126.76651231","imageIndex":7,"items":[{"name":"강선낙원떡방앗간","tel":"031-912-1775","addr":"경기도 고양시 일산서구 주엽동 63번지","indutype":"음료식품 - 제과점","category":"food"},{"name":"다락방케이크","tel":"031-912-6703","addr":"경기도 고양시 일산서구 주엽동 63번지","indutype":"음료식품 - 제과점","category":"food"}]},{"lat":"37.668097109","long":"126.75875358","imageIndex":7,"items":[{"name":"건강한 다이어트","tel":"","addr":"경기도 고양시 일산서구 주엽동 117번지 문촌마을16단지아파트","indutype":"건강식품 - 기타건강식품","category":"food"}]},{"lat":"37.666625316","long":"126.76601216","imageIndex":7,"items":[{"name":"곡산식품","tel":"031-911-9666","addr":"경기도 고양시 일산서구 주엽동 81번지 강선마을13단지아파트","indutype":"건강식품 - 기타건강식품","category":"food"}]},{"lat":"37.665211555","long":"126.76193649","imageIndex":7,"items":[{"name":"광진","tel":"031-752-7977","addr":"경기도 고양시 일산서구 주엽동 95번지","indutype":"음료식품 - 기타음료식품","category":"food"}]},{"lat":"37.670903948","long":"126.76110199","imageIndex":7,"items":[{"name":"그랜드 프로방스","tel":"031-556-5188","addr":"경기도 고양시 일산서구 주엽동 22번지","indutype":"음료식품 - 제과점","category":"food"},{"name":"뚜레쥬르 일산그랜드백화점","tel":"031-924-0808","addr":"경기도 고양시 일산서구 주엽동 22번지","indutype":"음료식품 - 제과점","category":"food"},{"name":"주엽과일","tel":"031-967-4604","addr":"경기도 고양시 일산서구 주엽동","indutype":"음료식품 - 농·축·수산품","category":"food"}]},{"lat":"37.67229607","long":"126.75465927","imageIndex":7,"items":[{"name":"그린식품","tel":"031-904-9858","addr":"경기도 고양시 일산서구 주엽동 138번지 문촌마을12단지아파트","indutype":"음료식품 - 농·축·수산품","category":"food"},{"name":"썬라이더가맹점 벧엘주엽점","tel":"031-925-2332","addr":"경기도 고양시 일산서구 주엽동 138번지 문촌마을12단지아파트","indutype":"건강식품 - 기타건강식품","category":"food"}]},{"lat":"37.670466092","long":"126.75848512","imageIndex":7,"items":[{"name":"기억에남는빵","tel":"","addr":"경기도 고양시 일산서구 주엽동 115-2번지","indutype":"음료식품 - 제과점","category":"food"},{"name":"칠첩반상","tel":"031-913-7001","addr":"경기도 고양시 일산서구 주엽동 115-2번지","indutype":"음료식품 - 기타음료식품","category":"food"}]},{"lat":"37.668431924","long":"126.76835262","imageIndex":7,"items":[{"name":"능력축산한우전문점","tel":"031-917-5222","addr":"경기도 고양시 일산서구 주엽동","indutype":"음료식품 - 정육점","category":"food"},{"name":"잇브레드","tel":"031-976-0255","addr":"경기도 고양시 일산서구 주엽동 60번지","indutype":"음료식품 - 제과점","category":"food"}]},{"lat":"37.667321077","long":"126.76701869","imageIndex":7,"items":[{"name":"대림수산","tel":"031-911-5880","addr":"경기도 고양시 일산서구 주엽동 75번지 한양상가","indutype":"음료식품 - 농·축·수산품","category":"food"},{"name":"수랏상찬방","tel":"031-923-7292","addr":"경기도 고양시 일산서구 주엽동 75번지 한양상가","indutype":"음료식품 - 기타음료식품","category":"food"},{"name":"여탕 매점","tel":"031-922-7337","addr":"경기도 고양시 일산서구 주엽동 75번지 한양상가","indutype":"음료식품 - 기타음료식품","category":"food"},{"name":"여탕매점","tel":"031-922-7336","addr":"경기도 고양시 일산서구 주엽동 75번지 한양상가","indutype":"음료식품 - 기타음료식품","category":"food"},{"name":"중앙홀탐라스낵","tel":"031-922-7336","addr":"경기도 고양시 일산서구 주엽동 75번지 한양상가","indutype":"음료식품 - 기타음료식품","category":"food"},{"name":"행복떡방","tel":"031-922-8111","addr":"경기도 고양시 일산서구 주엽동 75번지 한양상가","indutype":"음료식품 - 제과점","category":"food"}]},{"lat":"37.673243482","long":"126.75532488","imageIndex":7,"items":[{"name":"던킨도너츠 주엽롯데마트점","tel":"031-922-6863","addr":"경기도 고양시 일산서구 주엽동 15번지 문촌마을11단지아파트","indutype":"음료식품 - 제과점","category":"food"}]},{"lat":"37.674322976","long":"126.76324458","imageIndex":7,"items":[{"name":"도깨비 축산","tel":"031-911-6232","addr":"경기도 고양시 일산서구 주엽동 30번지","indutype":"음료식품 - 정육점","category":"food"}]},{"lat":"37.673406525","long":"126.7689944","imageIndex":7,"items":[{"name":"동부정육점","tel":"031-911-6117","addr":"경기도 고양시 일산서구 주엽동 38번지","indutype":"음료식품 - 정육점","category":"food"},{"name":"일산우리밀","tel":"031-916-6677","addr":"경기도 고양시 일산서구 주엽동","indutype":"음료식품 - 농·축·수산품","category":"food"}]},{"lat":"37.670738127","long":"126.76373217","imageIndex":7,"items":[{"name":"동원샘물일산대리점","tel":"031-925-2137","addr":"경기도 고양시 일산서구 주엽동 65번지 강선마을7단지아파트","indutype":"음료식품 - 기타음료식품","category":"food"}]},{"lat":"37.676211898","long":"126.7573554","imageIndex":7,"items":[{"name":"딜리쿡","tel":"031-921-3382","addr":"경기도 고양시 일산서구 주엽동 8번지","indutype":"음료식품 - 기타음료식품","category":"food"}]},{"lat":"37.670184828","long":"126.76190908","imageIndex":7,"items":[{"name":"뚜레주르","tel":"031-913-2033","addr":"경기도 고양시 일산서구 주엽동 66-1번지","indutype":"음료식품 - 제과점","category":"food"},{"name":"마미모미샵","tel":"031-916-9999","addr":"경기도 고양시 일산서구 주엽동 66-1번지","indutype":"건강식품 - 기타건강식품","category":"food"},{"name":"일맥다이어트센터","tel":"031-919-7275","addr":"경기도 고양시 일산서구 주엽동 66-1번지","indutype":"건강식품 - 기타건강식품","category":"food"},{"name":"일산중앙건강생활","tel":"031-921-6355","addr":"경기도 고양시 일산서구 주엽동 66-1번지","indutype":"건강식품 - 기타건강식품","category":"food"},{"name":"폴리어린이한의원","tel":"031-911-4855","addr":"경기도 고양시 일산서구 주엽동 66-1번지","indutype":"건강식품 - 기타건강식품","category":"food"}]},{"lat":"37.667739561","long":"126.76454652","imageIndex":7,"items":[{"name":"레이크떡방앗간","tel":"031-914-1193","addr":"경기도 고양시 일산서구 주엽동","indutype":"음료식품 - 기타음료식품","category":"food"},{"name":"레이크정육백화점","tel":"031-62-5895","addr":"경기도 고양시 일산서구 주엽동 83번지 강선마을12단지아파트","indutype":"음료식품 - 정육점","category":"food"},{"name":"메디인웰빙주식회사","tel":"070-4151-9333","addr":"경기도 고양시 일산서구 주엽동 83번지 강선마을12단지아파트","indutype":"회원제형태 - 건강식품","category":"food"},{"name":"신앙촌상회","tel":"031-921-3709","addr":"경기도 고양시 일산서구 주엽동 83번지 강선마을12단지아파트","indutype":"음료식품 - 기타음료식품","category":"food"}]},{"lat":"37.668683089","long":"126.76331939","imageIndex":7,"items":[{"name":"맘&찬","tel":"031-911-8244","addr":"경기도 고양시 일산서구 주엽동 102번지","indutype":"음료식품 - 기타음료식품","category":"food"},{"name":"주식회사에버밀","tel":"031-869-0458","addr":"경기도 고양시 일산서구 주엽동 102번지","indutype":"음료식품 - 기타음료식품","category":"food"}]},{"lat":"37.669459844","long":"126.76426899","imageIndex":7,"items":[{"name":"맛있는 과일 마트","tel":"070-7792-0156","addr":"경기도 고양시 일산서구 주엽동 72-1번지","indutype":"음료식품 - 농·축·수산품","category":"food"},{"name":"엉아네농수산물","tel":"","addr":"경기도 고양시 일산서구 주엽동 72-1번지","indutype":"음료식품 - 농·축·수산품","category":"food"}]},{"lat":"37.673500909","long":"126.76662507","imageIndex":7,"items":[{"name":"밀로","tel":"","addr":"경기도 고양시 일산서구 주엽동 36번지 강선마을1단지아파트","indutype":"음료식품 - 기타음료식품","category":"food"}]},{"lat":"37.670937937","long":"126.76010443","imageIndex":7,"items":[{"name":"배스킨라빈스일산주엽점","tel":"031-914-4064","addr":"경기도 고양시 일산서구 주엽동 21-2번지","indutype":"음료식품 - 제과점","category":"food"},{"name":"코비쑥쑥","tel":"031-921-7590","addr":"경기도 고양시 일산서구 주엽동 21-2번지","indutype":"건강식품 - 기타건강식품","category":"food"}]},{"lat":"37.674152462","long":"126.76357385","imageIndex":7,"items":[{"name":"버터비 베이킹스튜디오","tel":"031-000-0000","addr":"경기도 고양시 일산서구 주엽동 30-2번지","indutype":"음료식품 - 제과점","category":"food"}]},{"lat":"37.67387452","long":"126.76424352","imageIndex":7,"items":[{"name":"블랑제리 에비타숑","tel":"031-921-6822","addr":"경기도 고양시 일산서구 주엽동 51번지","indutype":"음료식품 - 제과점","category":"food"}]},{"lat":"37.671854553","long":"126.75895663","imageIndex":7,"items":[{"name":"빨강고기","tel":"031-919-9550","addr":"경기도 고양시 일산서구 주엽동 18번지","indutype":"음료식품 - 정육점","category":"food"},{"name":"잔치떡방앗간","tel":"031-911-0020","addr":"경기도 고양시 일산서구 주엽동 18번지","indutype":"음료식품 - 제과점","category":"food"},{"name":"점핑다이어트 (허브in건강)","tel":"","addr":"경기도 고양시 일산서구 주엽동 18번지","indutype":"건강식품 - 기타건강식품","category":"food"},{"name":"화니위니찰식빵","tel":"031-912-0045","addr":"경기도 고양시 일산서구 주엽동 18번지","indutype":"음료식품 - 제과점","category":"food"},{"name":"황성주생식이롬일산지국","tel":"031-975-2080","addr":"경기도 고양시 일산서구 주엽동 18번지","indutype":"음료식품 - 농·축·수산품","category":"food"}]},{"lat":"37.670491547","long":"126.76210078","imageIndex":7,"items":[{"name":"빵집(zip)","tel":"031-919-3888","addr":"경기도 고양시 일산서구 주엽동 66번지","indutype":"음료식품 - 제과점","category":"food"},{"name":"주엽점핑다이어트","tel":"","addr":"경기도 고양시 일산서구 주엽동 66번지","indutype":"건강식품 - 기타건강식품","category":"food"}]},{"lat":"37.66711975","long":"126.76546656","imageIndex":7,"items":[{"name":"성운푸드","tel":"","addr":"경기도 고양시 일산서구 주엽동 81번지 강선마을13단지아파트","indutype":"음료식품 - 기타음료식품","category":"food"}]},{"lat":"37.669657274","long":"126.76388298","imageIndex":7,"items":[{"name":"쓰리제이상사","tel":"031-911-8484","addr":"경기도 고양시 일산서구 주엽동 72번지","indutype":"음료식품 - 농·축·수산품","category":"food"}]},{"lat":"37.674325618","long":"126.76454812","imageIndex":7,"items":[{"name":"씨드앤너츠 주엽점","tel":"031-912-0509","addr":"경기도 고양시 일산서구 주엽동 35번지","indutype":"음료식품 - 농·축·수산품","category":"food"}]},{"lat":"37.674182128","long":"126.7648773","imageIndex":7,"items":[{"name":"엠에스지","tel":"070-7423-6603","addr":"경기도 고양시 일산서구 주엽동 35-2번지","indutype":"음료식품 - 기타음료식품","category":"food"}]},{"lat":"37.672779311","long":"126.76176467","imageIndex":7,"items":[{"name":"영화유통","tel":"","addr":"경기도 고양시 일산서구 주엽동 23번지 문촌마을9단지아파트","indutype":"음료식품 - 기타음료식품","category":"food"}]},{"lat":"37.669212393","long":"126.76220692","imageIndex":7,"items":[{"name":"우보상사","tel":"031-911-5570","addr":"경기도 고양시 일산서구 주엽동 106-1번지","indutype":"건강식품 - 기타건강식품","category":"food"}]},{"lat":"37.669269747","long":"126.76382755","imageIndex":7,"items":[{"name":"이든네이처일산주엽지사","tel":"070-4220-5884","addr":"경기도 고양시 일산서구 주엽동 72-2번지","indutype":"건강식품 - 기타건강식품","category":"food"},{"name":"힐링카페","tel":"031-913-1859","addr":"경기도 고양시 일산서구 주엽동 72-2번지","indutype":"음료식품 - 기타음료식품","category":"food"}]},{"lat":"37.669965625","long":"126.76045897","imageIndex":7,"items":[{"name":"일산코앤키","tel":"031-914-5774","addr":"경기도 고양시 일산서구 주엽동 109번지","indutype":"건강식품 - 기타건강식품","category":"food"}]},{"lat":"37.670627465","long":"126.75809922","imageIndex":7,"items":[{"name":"장수떡집","tel":"031-918-0030","addr":"경기도 고양시 일산서구 주엽동 115-1번지","indutype":"음료식품 - 제과점","category":"food"},{"name":"주)한국이나다","tel":"031-912-1957","addr":"경기도 고양시 일산서구 주엽동 115-1번지","indutype":"음료식품 - 기타음료식품","category":"food"},{"name":"프라임수입육직판장","tel":"031-916-3030","addr":"경기도 고양시 일산서구 주엽동 115-1번지","indutype":"음료식품 - 정육점","category":"food"}]},{"lat":"37.670575544","long":"126.75913084","imageIndex":7,"items":[{"name":"정관장 주엽역점","tel":"031-911-8008","addr":"경기도 고양시 일산서구 주엽동 110번지","indutype":"건강식품 - 홍삼제품","category":"food"},{"name":"정관장 주엽역점","tel":"031-911-8008","addr":"경기도 고양시 일산서구 주엽동 110번지","indutype":"건강식품 - 홍삼제품","category":"food"}]},{"lat":"37.670240573","long":"126.76273632","imageIndex":7,"items":[{"name":"종로떡집","tel":"031-906-3677","addr":"경기도 고양시 일산서구 주엽동 67번지","indutype":"음료식품 - 제과점","category":"food"},{"name":"행복한 식탁 장바구니","tel":"031-919-0891","addr":"경기도 고양시 일산서구 주엽동 67번지","indutype":"음료식품 - 기타음료식품","category":"food"}]},{"lat":"37.668511226","long":"126.76745696","imageIndex":7,"items":[{"name":"진로석수","tel":"031-907-8430","addr":"경기도 고양시 일산서구 주엽동 60번지 강선마을9단지아파트","indutype":"음료식품 - 기타음료식품","category":"food"}]},{"lat":"37.673793754","long":"126.76440247","imageIndex":7,"items":[{"name":"파리바게뜨 백마프라자점","tel":"031-911-8203","addr":"경기도 고양시 일산서구 주엽동 51-1번지","indutype":"음료식품 - 제과점","category":"food"}]},{"lat":"37.671458085","long":"126.75893526","imageIndex":7,"items":[{"name":"파리바게뜨 주엽역점","tel":"031-916-0085","addr":"경기도 고양시 일산서구 주엽동 18-2번지","indutype":"음료식품 - 제과점","category":"food"},{"name":"호수빵집(LAKE)/(주)레이크블랑제리","tel":"031-915-8433","addr":"경기도 고양시 일산서구 주엽동 18-2번지","indutype":"음료식품 - 제과점","category":"food"}]},{"lat":"37.669652432","long":"126.75285456","imageIndex":7,"items":[{"name":"파이만드는집","tel":"070-4025-2293","addr":"경기도 고양시 일산서구 주엽동 126번지","indutype":"음료식품 - 제과점","category":"food"}]},{"lat":"37.671084069","long":"126.77002181","imageIndex":7,"items":[{"name":"푸른바다비타민","tel":"","addr":"경기도 고양시 일산서구 주엽동 46번지 강선마을4단지아파트","indutype":"건강식품 - 기타건강식품","category":"food"}]},{"lat":"37.674738039","long":"126.7635493","imageIndex":7,"items":[{"name":"호호부엌","tel":"","addr":"경기도 고양시 일산서구 주엽동 31번지","indutype":"음료식품 - 기타음료식품","category":"food"}]}]