[{"lat":"37.903664437","long":"127.03445719","imageIndex":0,"items":[{"name":"RFC","tel":"031-863-5553","addr":"경기도 동두천시 상패동 376-2번지","indutype":"자동차정비 유지 - 카인테리어","category":"car"}]},{"lat":"37.906491266","long":"127.04148551","imageIndex":0,"items":[{"name":"TOP써비스","tel":"031-864-9090","addr":"경기도 동두천시 상패동 117번지","indutype":"자동차정비 유지 - 자동차정비","category":"car"},{"name":"탑정비1급공업사","tel":"031-864-9090","addr":"경기도 동두천시 상패동 117번지","indutype":"자동차정비 유지 - 자동차정비","category":"car"}]},{"lat":"37.901940065","long":"127.04581511","imageIndex":0,"items":[{"name":"남두천카센타","tel":"031-867-1240","addr":"경기도 동두천시 상패동 293-2번지","indutype":"자동차정비 유지 - 자동차정비","category":"car"}]},{"lat":"37.908524845","long":"127.04853661","imageIndex":0,"items":[{"name":"도원","tel":"031-535-0825","addr":"경기도 동두천시 상패동 51-6번지","indutype":"자동차정비 유지 - 자동차부품","category":"car"},{"name":"도원카오디오","tel":"031-864-5477","addr":"경기도 동두천시 상패동 51-6번지","indutype":"자동차정비 유지 - 자동차부품","category":"car"}]},{"lat":"37.910107864","long":"127.0269549","imageIndex":0,"items":[{"name":"드림모터스","tel":"070-7581-5775","addr":"경기도 동두천시 상패동 600-11번지","indutype":"자동차정비 유지 - 자동차정비","category":"car"}]},{"lat":"37.911911548","long":"127.0505401","imageIndex":0,"items":[{"name":"명성카센타","tel":"031-862-8754","addr":"경기도 동두천시 상패동 25-2번지","indutype":"자동차정비 유지 - 자동차정비","category":"car"}]},{"lat":"37.904192802","long":"127.04467938","imageIndex":0,"items":[{"name":"모션현대","tel":"031-868-0094","addr":"경기도 동두천시 상패동 77-4번지","indutype":"자동차정비 유지 - 자동차정비","category":"car"}]},{"lat":"37.90888512","long":"127.048787","imageIndex":0,"items":[{"name":"삼정카토탈서비스","tel":"031-864-0110","addr":"경기도 동두천시 상패동 51-14번지","indutype":"자동차정비 유지 - 자동차정비","category":"car"}]},{"lat":"37.905129464","long":"127.0455327","imageIndex":0,"items":[{"name":"상패점 현대자동차","tel":"031-868-4806","addr":"경기도 동두천시 상패동 79-4번지","indutype":"자동차정비 유지 - 세차장","category":"car"}]},{"lat":"37.903633194","long":"127.04748752","imageIndex":0,"items":[{"name":"상패점기아오토큐","tel":"031-865-3311","addr":"경기도 동두천시 상패동 66-6번지","indutype":"자동차정비 유지 - 자동차정비","category":"car"}]},{"lat":"37.905327796","long":"127.04518032","imageIndex":0,"items":[{"name":"상패카센타","tel":"031-862-3748","addr":"경기도 동두천시 상패동 126-7번지","indutype":"자동차정비 유지 - 자동차정비","category":"car"}]},{"lat":"37.904020702","long":"127.0472035","imageIndex":0,"items":[{"name":"영원자동차정비","tel":"031-866-8204","addr":"경기도 동두천시 상패동 65-25번지","indutype":"자동차정비 유지 - 자동차정비","category":"car"}]},{"lat":"37.897772443","long":"127.03409086","imageIndex":0,"items":[{"name":"제1급자동차공업사","tel":"031-864-0141","addr":"경기도 동두천시 상패동 351-4번지","indutype":"자동차정비 유지 - 자동차정비","category":"car"}]},{"lat":"37.918352691","long":"127.05176111","imageIndex":0,"items":[{"name":"제이서비스","tel":"070-7804-9926","addr":"경기도 동두천시 상패동 1-9번지 1층","indutype":"자동차정비 유지 - 자동차부품","category":"car"}]},{"lat":"37.906581496","long":"127.04106484","imageIndex":0,"items":[{"name":"중앙자동차공업사","tel":"031-861-7836","addr":"경기도 동두천시 상패동 114번지","indutype":"자동차정비 유지 - 자동차정비","category":"car"}]},{"lat":"37.908800456","long":"127.03167347","imageIndex":0,"items":[{"name":"중앙카","tel":"031-862-7161","addr":"경기도 동두천시 상패동 402-1번지","indutype":"자동차정비 유지 - 자동차정비","category":"car"}]},{"lat":"37.902354423","long":"127.04600864","imageIndex":0,"items":[{"name":"천지종합타이어","tel":"070-8888-8760","addr":"경기도 동두천시 상패동 69-20번지","indutype":"자동차정비 유지 - 자동차시트·타이어","category":"car"}]},{"lat":"37.904048152","long":"127.04606648","imageIndex":0,"items":[{"name":"타이어 카페 동두천점","tel":"031-857-0017","addr":"경기도 동두천시 상패동 69-22번지","indutype":"자동차정비 유지 - 자동차시트·타이어","category":"car"}]},{"lat":"37.903517862","long":"127.04248454","imageIndex":0,"items":[{"name":"한일공업사","tel":"031-862-9898","addr":"경기도 동두천시 상패동 90-2번지","indutype":"자동차정비 유지 - 자동차정비","category":"car"}]},{"lat":"37.905435838","long":"127.04537369","imageIndex":0,"items":[{"name":"해주부분정비공업사","tel":"031-865-6748","addr":"경기도 동두천시 상패동 126-4번지","indutype":"자동차정비 유지 - 자동차정비","category":"car"}]}]