[{"lat":"37.809027867","long":"126.84534348","imageIndex":17,"items":[{"name":"(주) 성광스틸","tel":"031-947-3886","addr":"경기도 파주시 광탄면 방축리 416-2번지","indutype":"가구 - 철제가구","category":"other"}]},{"lat":"37.807755757","long":"126.8734739","imageIndex":17,"items":[{"name":"(주)대원아스콘 지점 대원레미콘","tel":"031-850-7312","addr":"경기도 파주시 광탄면 방축리 5-6번지","indutype":"건축자재 - 기타건축자재","category":"other"}]},{"lat":"37.812168441","long":"126.86385882","imageIndex":17,"items":[{"name":"(주)시아테크놀로지","tel":"031-8071-3996","addr":"경기도 파주시 광탄면 방축리 209-6 가동,나동","indutype":"건축자재 - 목재·석재·철물","category":"other"}]},{"lat":"37.810280355","long":"126.85959253","imageIndex":17,"items":[{"name":"경진냉열","tel":"031-945-2157","addr":"경기도 파주시 광탄면 방축리 150-3번지","indutype":"전기제품 - 냉열기기","category":"other"}]},{"lat":"37.800811919","long":"126.86763845","imageIndex":17,"items":[{"name":"광탄레저타운","tel":"031-941-8513","addr":"경기도 파주시 광탄면 방축리 95번지","indutype":"레져용품 - 스포츠·레져용품","category":"other"}]},{"lat":"37.811555056","long":"126.84877902","imageIndex":17,"items":[{"name":"다온주방","tel":"031-8071-4985","addr":"경기도 파주시 광탄면 방축리 377-2번지","indutype":"주방용구 - 주방용식기","category":"other"}]},{"lat":"37.80783409","long":"126.84872998","imageIndex":17,"items":[{"name":"대일호스","tel":"031-943-8244","addr":"경기도 파주시 광탄면 방축리 386-33","indutype":"기타 - 기계공구","category":"other"}]},{"lat":"37.805895945","long":"126.87000243","imageIndex":17,"items":[{"name":"덕성개발주식회사","tel":"031-949-9151","addr":"경기도 파주시 광탄면 방축리 58-9","indutype":"건축자재 - 기타건축자재","category":"other"}]},{"lat":"37.811783351","long":"126.86583552","imageIndex":17,"items":[{"name":"미니스톱파주보광로점","tel":"031-1577-9621","addr":"경기도 파주시 광탄면 방축리 199-1번지","indutype":"유통업 영리 - 편 의 점","category":"other"},{"name":"유일통상","tel":"031-906-8858","addr":"경기도 파주시 광탄면 방축리 199-1번지","indutype":"의류 - 스포츠의류","category":"other"}]},{"lat":"37.805781624","long":"126.86460889","imageIndex":17,"items":[{"name":"반석데코","tel":"031-8071-0537","addr":"경기도 파주시 광탄면 방축리 123-12번지","indutype":"건축자재 - 목재·석재·철물","category":"other"}]},{"lat":"37.809616285","long":"126.84745442","imageIndex":17,"items":[{"name":"보아스 (BOAZ)","tel":"070-7758-0670","addr":"경기도 파주시 광탄면 방축리 407-12번지","indutype":"신변잡화 - 기타잡화","category":"other"}]},{"lat":"37.810972303","long":"126.85813762","imageIndex":17,"items":[{"name":"서울코퍼레이션","tel":"031-941-1114","addr":"경기도 파주시 광탄면 방축리 145-3번지","indutype":"신변잡화 - 기타잡화","category":"other"}]},{"lat":"37.81095074","long":"126.8482579","imageIndex":17,"items":[{"name":"성진오일","tel":"031-941-7060","addr":"경기도 파주시 광탄면 방축리 370-1번지","indutype":"용역 서비스 - 기타용역서비스","category":"other"}]},{"lat":"37.80702888","long":"126.84617668","imageIndex":17,"items":[{"name":"수유리","tel":"031-942-2779","addr":"경기도 파주시 광탄면 방축리 446-39번지","indutype":"건축자재 - 유리","category":"other"}]},{"lat":"37.80166994","long":"126.86949905","imageIndex":17,"items":[{"name":"신기목재소","tel":"031-941-0377","addr":"경기도 파주시 광탄면 방축리 101번지","indutype":"건축자재 - 목재·석재·철물","category":"other"}]},{"lat":"37.811059612","long":"126.84883683","imageIndex":17,"items":[{"name":"신흥기계공업","tel":"031-953-5490","addr":"경기도 파주시 광탄면 방축리 372-1","indutype":"기타 - 기계공구","category":"other"}]},{"lat":"37.806312044","long":"126.8636427","imageIndex":17,"items":[{"name":"씨유파주부흥로점","tel":"070-7574-2780","addr":"경기도 파주시 광탄면 방축리 123-1번지","indutype":"유통업 영리 - 편 의 점","category":"other"}]},{"lat":"37.806861847","long":"126.86383471","imageIndex":17,"items":[{"name":"이미지프로","tel":"02-1111-1111","addr":"경기도 파주시 광탄면 방축리 126-6번지","indutype":"사무통신 - 기타 사무용품","category":"other"}]},{"lat":"37.814081514","long":"126.85891515","imageIndex":17,"items":[{"name":"주식회사 손텍","tel":"031-957-4865","addr":"경기도 파주시 광탄면 방축리 233번지","indutype":"건축자재 - 기타건축자재","category":"other"}]},{"lat":"37.813137073","long":"126.86783174","imageIndex":17,"items":[{"name":"주식회사 제이엔씨코리아","tel":"070-4659-2564","addr":"경기도 파주시 광탄면 방축리 202-11번지","indutype":"신변잡화 - 기타잡화","category":"other"}]},{"lat":"37.807835246","long":"126.84961571","imageIndex":17,"items":[{"name":"팜스 편의점","tel":"031-957-4565","addr":"경기도 파주시 광탄면 방축리 386-39번지","indutype":"유통업 영리 - 편 의 점","category":"other"}]},{"lat":"37.809476316","long":"126.86530606","imageIndex":17,"items":[{"name":"한누리 편의점","tel":"031-957-5674","addr":"경기도 파주시 광탄면 방축리 36-3번지","indutype":"유통업 영리 - 편 의 점","category":"other"}]},{"lat":"37.813171935","long":"126.8668096","imageIndex":17,"items":[{"name":"휴그린보드","tel":"031-948-3784","addr":"경기도 파주시 광탄면 방축리 193-6번지","indutype":"사무통신 - 기타 사무용품","category":"other"}]}]