[{"lat":"36.992685624","long":"127.13267094","imageIndex":17,"items":[{"name":"(주)라임","tel":"031-618-3561","addr":"경기도 평택시 소사동 4-4번지","indutype":"가구 - 일반가구","category":"other"},{"name":"청소백화점","tel":"031-653-8686","addr":"경기도 평택시 소사동 4-4번지","indutype":"신변잡화 - 기타잡화","category":"other"},{"name":"평택문화사","tel":"031-653-3579","addr":"경기도 평택시 소사동 4-4번지","indutype":"용역 서비스 - 사무서비스","category":"other"}]},{"lat":"36.992857378","long":"127.13216574","imageIndex":17,"items":[{"name":"GS25평택대정문점","tel":"","addr":"경기도 평택시 소사동 4-3번지","indutype":"유통업 영리 - 편 의 점","category":"other"}]},{"lat":"36.987855919","long":"127.12411478","imageIndex":17,"items":[{"name":"꿈은 이루어진다","tel":"","addr":"경기도 평택시 소사동 137-36번지 1층","indutype":"소매업 - 카페","category":"other"},{"name":"꿈은 이루어진다 카페","tel":"031-655-1640","addr":"경기도 평택시 소사동 137-36번지 1층","indutype":"소매업 - 카페","category":"other"}]},{"lat":"36.981247705","long":"127.12736145","imageIndex":17,"items":[{"name":"다초원","tel":"031-692-0760","addr":"경기도 평택시 소사동 369번지","indutype":"문화.취미 - 화원","category":"other"}]},{"lat":"36.989831961","long":"127.12144451","imageIndex":17,"items":[{"name":"단한복","tel":"031-653-0040","addr":"경기도 평택시 소사동 515번지","indutype":"의류 - 맞춤복점","category":"other"},{"name":"블랙야크 평택점","tel":"031-651-7701","addr":"경기도 평택시 소사동 515번지","indutype":"도소매업 - 등산용품, 스포츠의류","category":"other"},{"name":"제이진옴므평택점","tel":"031-654-1130","addr":"경기도 평택시 소사동 515번지","indutype":"의류 - 정장","category":"other"}]},{"lat":"36.991664689","long":"127.13514049","imageIndex":17,"items":[{"name":"동성갤러리골프","tel":"031-657-8257","addr":"경기도 평택시 소사동 2-2번지","indutype":"레져용품 - 골프용품 전문점","category":"other"},{"name":"서브포유","tel":"031-652-2557","addr":"경기도 평택시 소사동 2-2번지 1층","indutype":"레져용품 - 스포츠·레져용품","category":"other"}]},{"lat":"36.977383353","long":"127.12616467","imageIndex":17,"items":[{"name":"동원샘물","tel":"031-651-1515","addr":"경기도 평택시 소사동 403-1","indutype":"도소매업 - 생수","category":"other"},{"name":"동원샘물","tel":"031-653-1049","addr":"경기도 평택시 소사동 403-1","indutype":"유통업 영리 - 기타유통업","category":"other"}]},{"lat":"36.988161743","long":"127.1246432","imageIndex":17,"items":[{"name":"리치컴","tel":"031-618-3200","addr":"경기도 평택시 소사동 137-14번지","indutype":"수리서비스 - 사무·통신기기수리","category":"other"}]},{"lat":"36.990801887","long":"127.12463617","imageIndex":17,"items":[{"name":"미래천막산업","tel":"031-618-5688","addr":"경기도 평택시 소사동 119-8","indutype":"직물 - 카페트,커튼,천막,지물","category":"other"}]},{"lat":"36.991664413","long":"127.13538762","imageIndex":17,"items":[{"name":"서브포유","tel":"031-651-8272","addr":"경기도 평택시 소사동 2-4번지 1층","indutype":"소매업 - 스포츠용품","category":"other"}]},{"lat":"36.989909078","long":"127.12536488","imageIndex":17,"items":[{"name":"이마트24 평택해링턴점","tel":"","addr":"경기도 평택시 소사동 110-3번지 평택효성해링턴플레이스 A1블럭단지 상가 1층 106호","indutype":"유통업 영리 - 편 의 점","category":"other"}]},{"lat":"36.99243927","long":"127.13544513","imageIndex":17,"items":[{"name":"팡가팡가","tel":"031-618-8590","addr":"경기도 평택시 소사동 1-5번지 1층전체","indutype":"가구 - 일반가구","category":"other"}]},{"lat":"36.977608225","long":"127.134914","imageIndex":17,"items":[{"name":"평택성공물류","tel":"031-651-1557","addr":"경기도 평택시 소사동 215-1번지","indutype":"유통업 영리 - 기타유통업","category":"other"}]}]