[{"lat":"37.842033781","long":"127.50585789","imageIndex":4,"items":[{"name":"계량촌","tel":"031-582-4612","addr":"경기도 가평군 가평읍 승안리 60-3번지","indutype":"일반휴게음식 - 일반한식","category":"restaurant"}]},{"lat":"37.842486174","long":"127.50540653","imageIndex":4,"items":[{"name":"단오선","tel":"031-582-3826","addr":"경기도 가평군 가평읍 승안리 50-1번지","indutype":"일반휴게음식 - 일반한식","category":"restaurant"}]},{"lat":"37.845451391","long":"127.4879417","imageIndex":4,"items":[{"name":"들밥","tel":"031-581-2016","addr":"경기도 가평군 가평읍 승안리 280-1번지","indutype":"일반휴게음식 - 일반한식","category":"restaurant"}]},{"lat":"37.846812931","long":"127.48766658","imageIndex":4,"items":[{"name":"마마밥","tel":"031-581-6801","addr":"경기도 가평군 가평읍 승안리 284-2번지","indutype":"일반휴게음식 - 일반한식","category":"restaurant"}]},{"lat":"37.860255867","long":"127.47183432","imageIndex":4,"items":[{"name":"민경식당","tel":"031-581-7010","addr":"경기도 가평군 가평읍 승안리 629번지","indutype":"일반휴게음식 - 일반한식","category":"restaurant"}]},{"lat":"37.869509275","long":"127.46477851","imageIndex":4,"items":[{"name":"쉘부르식당","tel":"031-581-8868","addr":"경기도 가평군 가평읍 승안리 687번지 1층","indutype":"일반휴게음식 - 일반한식","category":"restaurant"}]},{"lat":"37.859036541","long":"127.48155361","imageIndex":4,"items":[{"name":"용추계곡 뜰","tel":"031-581-6689","addr":"경기도 가평군 가평읍 승안리 402번지","indutype":"일반휴게음식 - 일반한식","category":"restaurant"}]},{"lat":"37.851262545","long":"127.48129883","imageIndex":4,"items":[{"name":"용추계곡유원지","tel":"031-581-4858","addr":"경기도 가평군 가평읍 승안리 409번지","indutype":"일반휴게음식 - 일반한식","category":"restaurant"}]},{"lat":"37.839066748","long":"127.50019169","imageIndex":4,"items":[{"name":"용추숯불닭갈비","tel":"031-581-1292","addr":"경기도 가평군 가평읍 승안리 66-4번지","indutype":"일반휴게음식 - 일반한식","category":"restaurant"},{"name":"용추숯불닭갈비","tel":"031-581-1292","addr":"경기도 가평군 가평읍 승안리 66-4번지","indutype":"일반휴게음식 - 일반한식","category":"restaurant"}]},{"lat":"37.859007712","long":"127.48199659","imageIndex":4,"items":[{"name":"용추스케치","tel":"031-582-5820","addr":"경기도 가평군 가평읍 승안리 402-3번지","indutype":"일반휴게음식 - 일반한식","category":"restaurant"}]},{"lat":"37.842506663","long":"127.50482727","imageIndex":4,"items":[{"name":"종가집곰탕순대국","tel":"031-585-4985","addr":"경기도 가평군 가평읍 승안리 49-3번지","indutype":"일반휴게음식 - 일반한식","category":"restaurant"}]},{"lat":"37.858900297","long":"127.48182545","imageIndex":4,"items":[{"name":"털보네쉼터","tel":"031-582-4400","addr":"경기도 가평군 가평읍 승안리 402-1번지","indutype":"일반휴게음식 - 일반한식","category":"restaurant"}]},{"lat":"37.839341663","long":"127.49479739","imageIndex":4,"items":[{"name":"횃불식당","tel":"031-582-8933","addr":"경기도 가평군 가평읍 승안리 216-1번지","indutype":"일반휴게음식 - 일반한식","category":"restaurant"}]}]