[{"lat":"37.133141438","long":"127.06880778","imageIndex":8,"items":[{"name":"경희오산한의원","tel":"031-372-8875","addr":"경기도 오산시 갈곶동 126-4번지 파리바케트 (갈곶동2층)","indutype":"의원 - 한의원","category":"medical"},{"name":"한사랑치과의원","tel":"031-372-2875","addr":"경기도 오산시 갈곶동 126-4번지 4층","indutype":"의원 - 치과의원","category":"medical"}]},{"lat":"37.13269966","long":"127.06928006","imageIndex":8,"items":[{"name":"김성우의원","tel":"031-374-2509","addr":"경기도 오산시 갈곶동 126-23번지","indutype":"의원 - 의원","category":"medical"}]},{"lat":"37.132861881","long":"127.06922394","imageIndex":8,"items":[{"name":"다나약국","tel":"031-374-2878","addr":"경기도 오산시 갈곶동 126-21번지","indutype":"약국 - 약국","category":"medical"},{"name":"장인치과의원","tel":"031-373-2879","addr":"경기도 오산시 갈곶동 126-21번지 2층","indutype":"의원 - 치과의원","category":"medical"}]},{"lat":"37.133925382","long":"127.06875219","imageIndex":8,"items":[{"name":"라임치과","tel":"031-376-2868","addr":"경기도 오산시 갈곶동 675번지 리치플라자 305호","indutype":"의원 - 치과의원","category":"medical"},{"name":"사랑약국","tel":"031-375-6535","addr":"경기도 오산시 갈곶동 675번지 리치빌타워 106호","indutype":"약국 - 약국","category":"medical"},{"name":"새봄연합의원","tel":"031-375-5321","addr":"경기도 오산시 갈곶동 675번지 리치빌타워 301호","indutype":"의원 - 의원","category":"medical"}]},{"lat":"37.127537807","long":"127.06717122","imageIndex":8,"items":[{"name":"오산세종병원","tel":"031-1670-8971","addr":"경기도 오산시 갈곶동 190-3번지","indutype":"병원 - 병원","category":"medical"}]},{"lat":"37.130585377","long":"127.07897882","imageIndex":8,"items":[{"name":"오산영원동물병원","tel":"031-377-8875","addr":"경기도 오산시 갈곶동 347번지","indutype":"기타의료기관 - 동물병원","category":"medical"}]},{"lat":"37.13350241","long":"127.06780649","imageIndex":8,"items":[{"name":"온누리한의원","tel":"031-376-2846","addr":"경기도 오산시 갈곶동 110-5우방힐타운상가201호","indutype":"의원 - 한의원","category":"medical"}]},{"lat":"37.132168105","long":"127.06916706","imageIndex":8,"items":[{"name":"지혜약국","tel":"031-375-9882","addr":"경기도 오산시 갈곶동 150-2번지 101호","indutype":"약국 - 약국","category":"medical"}]},{"lat":"37.135313072","long":"127.06861834","imageIndex":8,"items":[{"name":"찬동물병원","tel":"031-374-1275","addr":"경기도 오산시 갈곶동 659-1번지 광성빌딩 101호","indutype":"기타의료기관 - 동물병원","category":"medical"}]},{"lat":"37.127925198","long":"127.06728408","imageIndex":8,"items":[{"name":"참소망약국","tel":"031-378-6354","addr":"경기도 오산시 갈곶동 192-3번지 1,층 3,4호","indutype":"약국 - 약국","category":"medical"}]}]