[{"lat":"37.010329191","long":"127.27178922","imageIndex":16,"items":[{"name":"YBM ECC 안성 외국어 보습학원","tel":"031-677-9595","addr":"경기도 안성시 연지동 29번지","indutype":"학원 - 외국어학원","category":"study"}]},{"lat":"37.010690428","long":"127.27143095","imageIndex":16,"items":[{"name":"가우스수학학원","tel":"031-673-0279","addr":"경기도 안성시 연지동 19번지 2층","indutype":"학원 - 기타 교육기관","category":"study"},{"name":"예작음악학원","tel":"031-672-2014","addr":"경기도 안성시 연지동 19번지 1층","indutype":"학원 - 예·체능계학원","category":"study"}]},{"lat":"37.009437703","long":"127.2715389","imageIndex":16,"items":[{"name":"금빛어린이집[아이행복]","tel":"031-671-1238","addr":"경기도 안성시 연지동 69번지","indutype":"학원 - 유아원","category":"study"}]},{"lat":"37.010747003","long":"127.2703188","imageIndex":16,"items":[{"name":"김샘독서논술교습소","tel":"031-673-1293","addr":"경기도 안성시 연지동 126-1번지 2층","indutype":"학원 - 보습학원","category":"study"}]},{"lat":"37.010663905","long":"127.27120614","imageIndex":16,"items":[{"name":"리더스잉글리시학원","tel":"031-677-0991","addr":"경기도 안성시 연지동 20번지 1층","indutype":"학원 - 보습학원","category":"study"}]},{"lat":"37.010608824","long":"127.27165538","imageIndex":16,"items":[{"name":"바짝독서실","tel":"02-3997-0278","addr":"경기도 안성시 연지동 18-2번지","indutype":"학원 - 독서실","category":"study"},{"name":"성운스터디학원","tel":"031-676-3380","addr":"경기도 안성시 연지동 18-2번지","indutype":"학원 - 보습학원","category":"study"}]},{"lat":"37.011106312","long":"127.27081444","imageIndex":16,"items":[{"name":"박성란무용학원","tel":"031-671-6116","addr":"경기도 안성시 연지동 6번지","indutype":"학원 - 예·체능계학원","category":"study"}]},{"lat":"37.01077254","long":"127.2709818","imageIndex":16,"items":[{"name":"베토벤피아노학원","tel":"031-674-0786","addr":"경기도 안성시 연지동 91-1번지","indutype":"학원 - 예·체능계학원","category":"study"}]},{"lat":"37.010358991","long":"127.27056463","imageIndex":16,"items":[{"name":"에이블독서실","tel":"031-672-8033","addr":"경기도 안성시 연지동 102번지 1층","indutype":"학원 - 독서실","category":"study"},{"name":"에이블독서실","tel":"031-672-8033","addr":"경기도 안성시 연지동 102번지","indutype":"학원 - 독서실","category":"study"}]},{"lat":"37.011078646","long":"127.27109524","imageIndex":16,"items":[{"name":"유레카보습학원","tel":"031-672-6891","addr":"경기도 안성시 연지동 9번지","indutype":"학원 - 기타 교육기관","category":"study"},{"name":"재능스스로센터 안성연지점","tel":"070-8257-0548","addr":"경기도 안성시 연지동 9번지","indutype":"회원제형태 - 학원","category":"study"}]},{"lat":"37.010548087","long":"127.27062147","imageIndex":16,"items":[{"name":"이엠(EM)영어전문학원","tel":"031-676-0582","addr":"경기도 안성시 연지동 97번지 2층","indutype":"학원 - 외국어학원","category":"study"}]},{"lat":"37.009186956","long":"127.27085264","imageIndex":16,"items":[{"name":"이화색채마을","tel":"031-677-9996","addr":"경기도 안성시 연지동 89번지","indutype":"학원 - 예·체능계학원","category":"study"}]},{"lat":"37.010360484","long":"127.26990172","imageIndex":16,"items":[{"name":"준ENGLISH","tel":"031-675-2390","addr":"경기도 안성시 연지동 140번지","indutype":"회원제형태 - 학원","category":"study"}]},{"lat":"37.009662332","long":"127.27182058","imageIndex":16,"items":[{"name":"퍼스트원보습학원","tel":"031-674-7468","addr":"경기도 안성시 연지동 52번지 2층","indutype":"회원제형태 - 학원","category":"study"}]},{"lat":"37.010603264","long":"127.27012728","imageIndex":16,"items":[{"name":"해냄보습학원","tel":"031-677-9544","addr":"경기도 안성시 연지동 129번지 2층","indutype":"학원 - 보습학원","category":"study"}]}]