[{"lat":"37.177555097","long":"127.11525111","imageIndex":13,"items":[{"name":"RaRa (라라헤어살롱)","tel":"031-223-3715","addr":"경기도 화성시 산척동 48번지 동탄호수공원금강펜테리움센트럴파크II 지하3층,106호","indutype":"보건위생 - 미용원","category":"beauty"},{"name":"제니스 아뜰리에 (JENNES ATELIER)","tel":"","addr":"경기도 화성시 산척동 48번지 동탄호수공원금강펜테리움센트럴파크II G동 2층 120호","indutype":"보건위생 - 미용원","category":"beauty"},{"name":"홍안경","tel":"031-372-1001","addr":"경기도 화성시 산척동 48번지 동탄호수공원금강펜테리움센트럴파크II 122호","indutype":"보건위생 - 안경","category":"beauty"}]},{"lat":"37.171858327","long":"127.1078","imageIndex":13,"items":[{"name":"W더블유헤어","tel":"","addr":"경기도 화성시 산척동 717-1번지 201호","indutype":"보건위생 - 미용원","category":"beauty"},{"name":"메이킹뷰티 동탄호수점","tel":"031-374-7611","addr":"경기도 화성시 산척동 717-1번지 드림타워 2층 202호","indutype":"보건위생 - 피부미용실","category":"beauty"},{"name":"호수안경","tel":"","addr":"경기도 화성시 산척동 717-1번지 드림타워 105호","indutype":"보건위생 - 안경","category":"beauty"}]},{"lat":"37.173665556","long":"127.11208129","imageIndex":13,"items":[{"name":"골드스킨앤바디","tel":"","addr":"경기도 화성시 산척동 712-1번지 지하","indutype":"보건위생 - 화장품","category":"beauty"}]},{"lat":"37.174000944","long":"127.10988607","imageIndex":13,"items":[{"name":"까치머리헤어샵","tel":"031-217-6163","addr":"경기도 화성시 산척동 699번지 동탄더샵레이크에듀타운 지1층 B06호","indutype":"보건위생 - 미용원","category":"beauty"}]},{"lat":"37.166171016","long":"127.12813691","imageIndex":13,"items":[{"name":"나이스가이","tel":"","addr":"경기도 화성시 산척동 745번지 레이크힐 반도유보라 아이비파크 10.2 지1층 B122호","indutype":"보건위생 - 이용원","category":"beauty"},{"name":"루아헤어터치","tel":"","addr":"경기도 화성시 산척동 745번지 레이크힐반도유보라아이비파크10.2 3625동 1층 114호","indutype":"보건위생 - 미용원","category":"beauty"},{"name":"시공간헤어","tel":"031-374-9872","addr":"경기도 화성시 산척동 745번지 레이크힐반도유보라아이비파크10.2 3628동 1층 144~146호","indutype":"보건위생 - 미용원","category":"beauty"},{"name":"엘리아","tel":"031-373-6667","addr":"경기도 화성시 산척동 745번지 레이크힐반도유보라아이비파크10.2 3627동 1층 113호","indutype":"보건위생 - 피부미용실","category":"beauty"},{"name":"오땡큐동탄카림3차점","tel":"031-377-9138","addr":"경기도 화성시 산척동 745번지 레이크힐 반도유보라 아이비파크 10.2 3627동 지1층 B137호","indutype":"보건위생 - 미용원","category":"beauty"},{"name":"유니헤어","tel":"031-000-0000","addr":"경기도 화성시 산척동 745번지 레이크힐반도유보라아이비파크10.2 3628동 1층 153,154,155호","indutype":"보건위생 - 미용원","category":"beauty"},{"name":"제이앤뷰(J&View)","tel":"031-375-5833","addr":"경기도 화성시 산척동 745번지 레이크힐반도유보라아이비파크10.2 3627동 1층 132호","indutype":"보건위생 - 피부미용실","category":"beauty"},{"name":"트윈네일","tel":"","addr":"경기도 화성시 산척동 745번지 레이크힐 반도유보라 아이비파크 10.2 3625동 1층 113호","indutype":"보건위생 - 피부미용실","category":"beauty"}]},{"lat":"37.169893356","long":"127.11824603","imageIndex":13,"items":[{"name":"남동탄심리언어발달센터","tel":"031-831-8306","addr":"경기도 화성시 산척동 724-3번지 601호","indutype":"보건위생 - 기타대인서비스","category":"beauty"},{"name":"리안헤어 동탄산척점","tel":"031-374-7567","addr":"경기도 화성시 산척동 724-3번지 3층 301호","indutype":"보건위생 - 미용원","category":"beauty"},{"name":"보네르헤어카페(남동탄점)","tel":"031-8077-2032","addr":"경기도 화성시 산척동 724-2번지 202호","indutype":"보건위생 - 미용원","category":"beauty"},{"name":"플레이 센소리(Play Sensory)감각통합발달","tel":"031-8500-0555","addr":"경기도 화성시 산척동 724-3번지 효천프라자 8층 602호","indutype":"보건위생 - 기타대인서비스","category":"beauty"}]},{"lat":"37.17386227","long":"127.11371428","imageIndex":13,"items":[{"name":"네일 드 라라라(Nail de LaLaLa)","tel":"031-000-0000","addr":"경기도 화성시 산척동 714-6번지 1층 101호","indutype":"보건위생 - 피부미용실","category":"beauty"},{"name":"네일도,예뻐","tel":"070-8736-3644","addr":"경기도 화성시 산척동 711-4번지 1층 102호","indutype":"보건위생 - 피부미용실","category":"beauty"},{"name":"메이크유(MAKE YOU)","tel":"","addr":"경기도 화성시 산척동 712-5번지 1층 103호","indutype":"보건위생 - 피부미용실","category":"beauty"}]},{"lat":"37.166642046","long":"127.10693711","imageIndex":13,"items":[{"name":"더레이크스파","tel":"","addr":"경기도 화성시 산척동 728-5번지 우성애비뉴타워 713호,714호","indutype":"보건위생 - 피부미용실","category":"beauty"},{"name":"더에비뉴헤어","tel":"","addr":"경기도 화성시 산척동 728-5번지 우성애비뉴타워 3층 309호","indutype":"보건위생 - 미용원","category":"beauty"},{"name":"레하마인드","tel":"","addr":"경기도 화성시 산척동 728-5번지 813,814호","indutype":"보건위생 - 기타대인서비스","category":"beauty"},{"name":"피아트 음악치료센터","tel":"","addr":"경기도 화성시 산척동 728-5번지 우성애비뉴타워 810호","indutype":"보건위생 - 기타대인서비스","category":"beauty"},{"name":"희망나무 심리상담센터 경기지부","tel":"031-377-7504","addr":"경기도 화성시 산척동 728-5번지 우성에비뉴타워 10층 1003호","indutype":"보건위생 - 기타대인서비스","category":"beauty"}]},{"lat":"37.167029395","long":"127.10705024","imageIndex":13,"items":[{"name":"로데오 헤어","tel":"031-378-3798","addr":"경기도 화성시 산척동 728-4번지 204호","indutype":"보건위생 - 미용원","category":"beauty"},{"name":"루나안경","tel":"031-376-8399","addr":"경기도 화성시 산척동 728-4번지 우성메디피아 507호","indutype":"보건위생 - 안경","category":"beauty"},{"name":"벨류헤어","tel":"031-374-7224","addr":"경기도 화성시 산척동 728-4번지 2층 215호","indutype":"보건위생 - 미용원","category":"beauty"},{"name":"조이스토리 상담발달 연구소","tel":"031-8055-7977","addr":"경기도 화성시 산척동 728-4번지 우성메디피아 9층 14호","indutype":"보건위생 - 기타대인서비스","category":"beauty"}]},{"lat":"37.167060136","long":"127.11291622","imageIndex":13,"items":[{"name":"리앤구 헤어","tel":"","addr":"경기도 화성시 산척동 730번지 더레이크시티부영5단지 상가동 2층 202호의 일부호","indutype":"보건위생 - 미용원","category":"beauty"},{"name":"인셀덤 고고","tel":"","addr":"경기도 화성시 산척동 730번지 더레이크시티부영5단지 3037동 504호","indutype":"보건위생 - 화장품","category":"beauty"}]},{"lat":"37.168695908","long":"127.10752541","imageIndex":13,"items":[{"name":"바라보다안경 동탄호수공원점","tel":"031-111-1111","addr":"경기도 화성시 산척동 584번지 1층 118호","indutype":"보건위생 - 안경","category":"beauty"}]},{"lat":"37.168749252","long":"127.10833615","imageIndex":13,"items":[{"name":"바비가 하는 미용실","tel":"031-374-9363","addr":"경기도 화성시 산척동 727-5번지 레이크스카이 2층 205호","indutype":"보건위생 - 미용원","category":"beauty"}]},{"lat":"37.174139034","long":"127.11641709","imageIndex":13,"items":[{"name":"블루클럽","tel":"031-373-4504","addr":"경기도 화성시 산척동 279번지 중흥에스클래스에듀하이 상가2동 지1층 117호","indutype":"보건위생 - 미용원","category":"beauty"}]},{"lat":"37.16864016","long":"127.10941689","imageIndex":13,"items":[{"name":"살롱드봄","tel":"031-224-6974","addr":"경기도 화성시 산척동 727-8번지 2층 203호","indutype":"보건위생 - 미용원","category":"beauty"}]},{"lat":"37.170804158","long":"127.10774225","imageIndex":13,"items":[{"name":"아미 아동발달센터 동탄호수점","tel":"031-8077-4782","addr":"경기도 화성시 산척동 717-5번지 레이크파로스 406호","indutype":"보건위생 - 기타대인서비스","category":"beauty"}]},{"lat":"37.170533391","long":"127.11794299","imageIndex":13,"items":[{"name":"엠유에스헤어(MUS)","tel":"031-377-6955","addr":"경기도 화성시 산척동 722번지 더레이크시티부영1단지 2층 202호","indutype":"보건위생 - 미용원","category":"beauty"},{"name":"오손도손네일","tel":"","addr":"경기도 화성시 산척동 723번지 1층 111호 일부","indutype":"보건위생 - 피부미용실","category":"beauty"},{"name":"토리헤어","tel":"031-376-7660","addr":"경기도 화성시 산척동 723번지 3층 304,305호","indutype":"보건위생 - 미용원","category":"beauty"},{"name":"헤어 미&U","tel":"031-1111-1111","addr":"경기도 화성시 산척동 723번지 풍산리치안타워 6층 609호","indutype":"보건위생 - 미용원","category":"beauty"}]},{"lat":"37.165920666","long":"127.10755536","imageIndex":13,"items":[{"name":"우성의료기","tel":"031-374-1003","addr":"경기도 화성시 산척동 728-6번지 우성센트럴타워 4층 409일부호","indutype":"보건위생 - 의료용품","category":"beauty"},{"name":"호수J속눈썹","tel":"031-000-0000","addr":"경기도 화성시 산척동 728-6번지 우성센트럴타워 7층 713호","indutype":"보건위생 - 피부미용실","category":"beauty"}]},{"lat":"37.167533732","long":"127.1073324","imageIndex":13,"items":[{"name":"클럽밸런스5","tel":"031-372-5332","addr":"경기도 화성시 산척동 728-2번지 5층 502호","indutype":"보건위생 - 의료용품","category":"beauty"},{"name":"포맨","tel":"031-378-2312","addr":"경기도 화성시 산척동 728-1번지 우성메디피아 상가 101호","indutype":"보건위생 - 미용원","category":"beauty"},{"name":"플로라헤어","tel":"031-373-4288","addr":"경기도 화성시 산척동 728-2번지 우성에듀파크 205호","indutype":"보건위생 - 미용원","category":"beauty"},{"name":"호수스킨바디","tel":"031-377-9599","addr":"경기도 화성시 산척동 728-2번지 10층 1004호","indutype":"보건위생 - 피부미용실","category":"beauty"}]},{"lat":"37.167558096","long":"127.1286346","imageIndex":13,"items":[{"name":"헤어바이준(Hair by Jun)","tel":"","addr":"경기도 화성시 산척동 744번지 그린힐 반도유보라 아이비파크 10 3653동 1층 1F01,1F02,1F03호","indutype":"보건위생 - 미용원","category":"beauty"}]},{"lat":"37.173114867","long":"127.11321775","imageIndex":13,"items":[{"name":"헤어살롱U:NEED","tel":"031-111-1111","addr":"경기도 화성시 산척동 714-8번지 1층","indutype":"보건위생 - 미용원","category":"beauty"}]},{"lat":"37.173056264","long":"127.11799186","imageIndex":13,"items":[{"name":"헤어퀸","tel":"031-373-0052","addr":"경기도 화성시 산척동 642번지 스타힐스24단지 상가동 204호","indutype":"보건위생 - 미용원","category":"beauty"}]}]