[{"lat":"37.074073184","long":"127.49327414","imageIndex":7,"items":[{"name":"(주)도드람푸드","tel":"031-791-0235","addr":"경기도 안성시 일죽면 금산리 596번지 1층(.596)","indutype":"음료식품 - 정육점","category":"food"},{"name":"(주)도드람푸드","tel":"031-786-0231","addr":"경기도 안성시 일죽면 금산리 596번지 1층","indutype":"음료식품 - 정육점","category":"food"}]},{"lat":"37.069662157","long":"127.50093696","imageIndex":7,"items":[{"name":"경기제과","tel":"031-674-4744","addr":"경기도 안성시 일죽면 금산리 227-1","indutype":"음료식품 - 제과점","category":"food"}]},{"lat":"37.074911126","long":"127.51252016","imageIndex":7,"items":[{"name":"안성상회","tel":"031-674-7355","addr":"경기도 안성시 일죽면 금산리 41번지","indutype":"음료식품 - 미곡상","category":"food"}]},{"lat":"37.07399491","long":"127.49476924","imageIndex":7,"items":[{"name":"주식회사도드람푸드시스템","tel":"031-8057-0160","addr":"경기도 안성시 일죽면 금산리 598번지","indutype":"음료식품 - 정육점","category":"food"}]},{"lat":"37.074550771","long":"127.51040365","imageIndex":7,"items":[{"name":"준선농원(유황포도)","tel":"031-672-5734","addr":"경기도 안성시 일죽면 금산리 50-7번지","indutype":"음료식품 - 농·축·수산품","category":"food"}]},{"lat":"37.070408961","long":"127.49688255","imageIndex":17,"items":[{"name":"(주)에스제이글로벌","tel":"02-499-1755","addr":"경기도 안성시 일죽면 금산리 443-8번지","indutype":"기타 - 기타 전문점","category":"other"}]},{"lat":"37.073823631","long":"127.50340436","imageIndex":17,"items":[{"name":"PONEF","tel":"031-674-6734","addr":"경기도 안성시 일죽면 금산리 200-3","indutype":"광학제품 - 사진관","category":"other"}]},{"lat":"37.066269766","long":"127.5019942","imageIndex":17,"items":[{"name":"금산공구철물잡화","tel":"031-672-2187","addr":"경기도 안성시 일죽면 금산리 271-4번지","indutype":"건축자재 - 목재·석재·철물","category":"other"}]},{"lat":"37.068906597","long":"127.50276485","imageIndex":17,"items":[{"name":"세븐일레븐안성일죽로드점","tel":"031-1577-0711","addr":"경기도 안성시 일죽면 금산리 233-5번지","indutype":"유통업 영리 - 편 의 점","category":"other"}]},{"lat":"37.065102638","long":"127.50098586","imageIndex":17,"items":[{"name":"효성전기모터","tel":"031-673-2580","addr":"경기도 안성시 일죽면 금산리 268-3번지","indutype":"수리서비스 - 기타수리서비스","category":"other"}]},{"lat":"37.06998958","long":"127.50235591","imageIndex":16,"items":[{"name":"금다래산머루","tel":"031-673-4474","addr":"경기도 안성시 일죽면 금산리 232-1번지","indutype":"학원 - 기타 교육기관","category":"study"}]},{"lat":"37.064134541","long":"127.49762892","imageIndex":5,"items":[{"name":"농업회사법인(주)라성관광농원","tel":"031-672-5770","addr":"경기도 안성시 일죽면 금산리 397-1번지","indutype":"숙박업 - 여관/기타숙박업","category":"hotel"}]},{"lat":"37.072688883","long":"127.49681862","imageIndex":4,"items":[{"name":"동막골","tel":"031-672-9954","addr":"경기도 안성시 일죽면 금산리 507-1번지","indutype":"일반휴게음식 - 일반한식","category":"restaurant"}]},{"lat":"37.066102582","long":"127.50954904","imageIndex":9,"items":[{"name":"신정오일 주식회사","tel":"031-676-5922","addr":"경기도 안성시 일죽면 금산리 84-2번지","indutype":"연료판매점 - 현대정유(오일뱅크)","category":"oil"},{"name":"주식회사 현경석유","tel":"031-2207-7852","addr":"경기도 안성시 일죽면 금산리 84-2번지","indutype":"연료판매점 - 쌍용S-OIL","category":"oil"},{"name":"주식회사 현경석유","tel":"031-2207-7852","addr":"경기도 안성시 일죽면 금산리 84-2번지","indutype":"연료판매점 - 쌍용S-OIL","category":"oil"},{"name":"현경주유소","tel":"031-676-5922","addr":"경기도 안성시 일죽면 금산리 84-2번지","indutype":"연료판매점 - 쌍용S-OIL","category":"oil"}]}]