[{"lat":"37.85360394","long":"126.80222994","imageIndex":16,"items":[{"name":"꿈드론교육센터","tel":"","addr":"경기도 파주시 파주읍 향양리 704-3번지","indutype":"학원 - 기능학원","category":"study"}]},{"lat":"37.855691465","long":"126.81708695","imageIndex":16,"items":[{"name":"농업회사법인 디엠제트드림푸드 (주)","tel":"031-954-1236","addr":"경기도 파주시 파주읍 향양리 108-2번지","indutype":"학원 - 기타 교육기관","category":"study"},{"name":"농업회사법인디엠제트드림푸드주식회사","tel":"031-954-1236","addr":"경기도 파주시 파주읍 향양리 108-2번지","indutype":"학원 - 기타 교육기관","category":"study"}]},{"lat":"37.854855733","long":"126.81278256","imageIndex":16,"items":[{"name":"예림어린이집","tel":"031-952-1095","addr":"경기도 파주시 파주읍 향양리 390-2번지","indutype":"학원 - 유치원","category":"study"},{"name":"예림어린이집[아이행복]","tel":"031-952-1095","addr":"경기도 파주시 파주읍 향양리 390-2번지","indutype":"학원 - 유아원","category":"study"}]},{"lat":"37.852190216","long":"126.80803994","imageIndex":16,"items":[{"name":"오션빌 레지던스","tel":"031-953-7084","addr":"경기도 파주시 파주읍 향양리 706-7번지","indutype":"학원 - 독서실","category":"study"}]},{"lat":"37.848941688","long":"126.81597907","imageIndex":16,"items":[{"name":"이화어린이집","tel":"031-953-1970","addr":"경기도 파주시 파주읍 향양리 188-3번지","indutype":"학원 - 유치원","category":"study"},{"name":"이화어린이집[아이행복]","tel":"031-953-1970","addr":"경기도 파주시 파주읍 향양리 188-3번지","indutype":"학원 - 유아원","category":"study"},{"name":"이화유치원[아이행복]","tel":"031-953-1970","addr":"경기도 파주시 파주읍 향양리 188-3번지","indutype":"학원 - 유치원","category":"study"}]}]