[{"lat":"37.3965637","long":"127.2693909","imageIndex":16,"items":[{"name":"강남젭스홈스쿨","tel":"","addr":"경기도 광주시 쌍령동 503번지 광주센트럴푸르지오","indutype":"학원 - 기타 교육기관","category":"study"},{"name":"경희   아이탑 태권도장","tel":"031-767-0307","addr":"경기도 광주시 쌍령동 503번지 광주센트럴푸르지오","indutype":"학원 - 예·체능계학원","category":"study"},{"name":"뮤엠보스턴영어학원","tel":"031-765-2887","addr":"경기도 광주시 쌍령동 503번지 광주센트럴푸르지오 209,210호","indutype":"학원 - 외국어학원","category":"study"},{"name":"뮤직하임음악학원","tel":"031-764-0366","addr":"경기도 광주시 쌍령동 503번지 광주센트럴푸르지오 202,203호","indutype":"학원 - 예·체능계학원","category":"study"},{"name":"색채아트미술교습소","tel":"031-766-1366","addr":"경기도 광주시 쌍령동 503번지 광주센트럴푸르지오 상가 204호","indutype":"학원 - 예·체능계학원","category":"study"},{"name":"이선영 교실","tel":"","addr":"경기도 광주시 쌍령동 503번지 광주센트럴푸르지오","indutype":"학원 - 기타 교육기관","category":"study"},{"name":"푸르지오 피아노","tel":"","addr":"경기도 광주시 쌍령동 503번지 광주센트럴푸르지오","indutype":"학원 - 기타 교육기관","category":"study"}]},{"lat":"37.39741638","long":"127.2786771","imageIndex":16,"items":[{"name":"개인과외교습소","tel":"031-769-9235","addr":"경기도 광주시 쌍령동 349번지 쌍령2차동성아파트","indutype":"학원 - 예·체능계학원","category":"study"}]},{"lat":"37.39975767","long":"127.2714238","imageIndex":16,"items":[{"name":"꿈꾸는 멜로디 음악학원","tel":"031-764-0046","addr":"경기도 광주시 쌍령동 148-1번지 포도나무빌딩 401호","indutype":"학원 - 예·체능계학원","category":"study"},{"name":"내가하는미술학원","tel":"031-761-8675","addr":"경기도 광주시 쌍령동 148-1번지 4층","indutype":"학원 - 예·체능계학원","category":"study"},{"name":"솔로몬학원","tel":"031-766-9902","addr":"경기도 광주시 쌍령동 148-1번지 4층 402호","indutype":"학원 - 보습학원","category":"study"}]},{"lat":"37.39675591","long":"127.2759756","imageIndex":16,"items":[{"name":"더원 합기도","tel":"031-765-1612","addr":"경기도 광주시 쌍령동 371-2번지 제일빌딩 2층","indutype":"학원 - 예·체능계학원","category":"study"},{"name":"흥나는범쌤학원","tel":"031-797-5252","addr":"경기도 광주시 쌍령동 371-2번지 외5필지","indutype":"회원제형태 - 학원","category":"study"}]},{"lat":"37.39817279","long":"127.2749756","imageIndex":16,"items":[{"name":"삼성영어 쌍령일학원","tel":"031-764-3405","addr":"경기도 광주시 쌍령동 413-30번지 외1필지","indutype":"회원제형태 - 학원","category":"study"}]},{"lat":"37.40236329","long":"127.274618","imageIndex":16,"items":[{"name":"세종영재교육회","tel":"031-761-4181","addr":"경기도 광주시 쌍령동 222 9/","indutype":"회원제형태 - 학원","category":"study"}]},{"lat":"37.39728569","long":"127.2767567","imageIndex":16,"items":[{"name":"소리숲음악학원","tel":"031-768-9449","addr":"경기도 광주시 쌍령동 368-12번지 301호","indutype":"학원 - 예·체능계학원","category":"study"},{"name":"어린화가미술교습소","tel":"031-768-5533","addr":"경기도 광주시 쌍령동 368-12번지 204호","indutype":"학원 - 예·체능계학원","category":"study"}]},{"lat":"37.39758483","long":"127.2759786","imageIndex":16,"items":[{"name":"숙명애플음악학원","tel":"070-8755-5617","addr":"경기도 광주시 쌍령동 347-1번지 3층","indutype":"학원 - 예·체능계학원","category":"study"}]},{"lat":"37.40700195","long":"127.2713367","imageIndex":16,"items":[{"name":"숲소리 교육","tel":"031-761-2214","addr":"경기도 광주시 쌍령동 78-18번지 2층","indutype":"학원 - 기타 교육기관","category":"study"}]},{"lat":"37.39780992","long":"127.2799208","imageIndex":16,"items":[{"name":"시원수학교습소","tel":"031-8832-0927","addr":"경기도 광주시 쌍령동 360-1번지 현대2차모닝사이드 상가 107호","indutype":"회원제형태 - 학원","category":"study"},{"name":"토마스잉글리시","tel":"","addr":"경기도 광주시 쌍령동 360-1번지 쌍령2차현대모닝사이드 상가동 2층 209,210호","indutype":"학원 - 외국어학원","category":"study"},{"name":"호산나피아노","tel":"031-769-5947","addr":"경기도 광주시 쌍령동 360-1 모닝사이드상가2층 207","indutype":"학원 - 예·체능계학원","category":"study"}]},{"lat":"37.39755826","long":"127.2757752","imageIndex":16,"items":[{"name":"쌍령독서실","tel":"070-4110-4110","addr":"경기도 광주시 쌍령동 347-2번지 4층","indutype":"학원 - 독서실","category":"study"}]},{"lat":"37.39797847","long":"127.2771884","imageIndex":16,"items":[{"name":"아이플레이","tel":"","addr":"경기도 광주시 쌍령동 337번지 동성1차아파트","indutype":"학원 - 기타 교육기관","category":"study"}]},{"lat":"37.40283173","long":"127.2746536","imageIndex":16,"items":[{"name":"예그리나 미술교습소","tel":"031-797-8027","addr":"경기도 광주시 쌍령동 219번지 쌍령낙원타운하우스 (27동B01호)","indutype":"학원 - 예·체능계학원","category":"study"}]},{"lat":"37.39722309","long":"127.2765532","imageIndex":16,"items":[{"name":"와이에스(YS)수학논술학원","tel":"031-761-5950","addr":"경기도 광주시 쌍령동 368-9번지 301호","indutype":"학원 - 보습학원","category":"study"},{"name":"와이에스(YS)수학논술학원","tel":"031-765-6729","addr":"경기도 광주시 쌍령동 368-9번지 301호","indutype":"학원 - 보습학원","category":"study"}]},{"lat":"37.39956789","long":"127.2794868","imageIndex":16,"items":[{"name":"이화미술","tel":"","addr":"경기도 광주시 쌍령동 353-9번지 쌍령현대아파트","indutype":"학원 - 기타 교육기관","category":"study"}]},{"lat":"37.4122552","long":"127.2671648","imageIndex":16,"items":[{"name":"청석연기학원","tel":"031-798-7585","addr":"경기도 광주시 쌍령동 15-8번지 청석씨어터 102호","indutype":"회원제형태 - 학원","category":"study"}]},{"lat":"37.39703477","long":"127.2761686","imageIndex":16,"items":[{"name":"태성태권도","tel":"031-767-1311","addr":"경기도 광주시 쌍령동 353-34번지 제일빌딩 2층","indutype":"학원 - 예·체능계학원","category":"study"}]}]