[{"lat":"37.913430756","long":"126.89544124","imageIndex":4,"items":[{"name":"돌가마집","tel":"031-958-1617","addr":"경기도 파주시 법원읍 웅담리 387-6번지","indutype":"일반휴게음식 - 일반한식","category":"restaurant"}]},{"lat":"37.911213199","long":"126.89405715","imageIndex":4,"items":[{"name":"두리두리식당","tel":"031-959-8088","addr":"경기도 파주시 법원읍 웅담리 347-3번지","indutype":"일반휴게음식 - 일반한식","category":"restaurant"}]},{"lat":"37.918242753","long":"126.89658286","imageIndex":4,"items":[{"name":"바베큐하우스","tel":"031-958-4740","addr":"경기도 파주시 법원읍 웅담리 109-43번지","indutype":"일반휴게음식 - 일반한식","category":"restaurant"}]},{"lat":"37.919323257","long":"126.89591032","imageIndex":4,"items":[{"name":"삼색보양 전골","tel":"031-959-6330","addr":"경기도 파주시 법원읍 웅담리 126-3번지","indutype":"일반휴게음식 - 일반한식","category":"restaurant"}]},{"lat":"37.922684353","long":"126.89661059","imageIndex":4,"items":[{"name":"소문 타이거CC점","tel":"02-3785-2567","addr":"경기도 파주시 법원읍 웅담리 산121-6번지","indutype":"일반휴게음식 - 일반한식","category":"restaurant"}]},{"lat":"37.911014995","long":"126.89405744","imageIndex":4,"items":[{"name":"아이벗치킨","tel":"031-959-9998","addr":"경기도 파주시 법원읍 웅담리 347-4번지","indutype":"일반휴게음식 - 스넥","category":"restaurant"},{"name":"장수냉면","tel":"031-958-7190","addr":"경기도 파주시 법원읍 웅담리 347-4번지","indutype":"일반휴게음식 - 일반한식","category":"restaurant"}]},{"lat":"37.912520819","long":"126.89544256","imageIndex":4,"items":[{"name":"웅담반점","tel":"031-959-0505","addr":"경기도 파주시 법원읍 웅담리 355-1번지","indutype":"일반휴게음식 - 일반한식","category":"restaurant"}]},{"lat":"37.910852775","long":"126.89400082","imageIndex":4,"items":[{"name":"웅당분식","tel":"031-959-1555","addr":"경기도 파주시 법원읍 웅담리 347-5번지","indutype":"일반휴게음식 - 일반한식","category":"restaurant"}]},{"lat":"37.91149256","long":"126.89413634","imageIndex":4,"items":[{"name":"전주식당","tel":"031-958-7474","addr":"경기도 파주시 법원읍 웅담리 346","indutype":"일반휴게음식 - 일반한식","category":"restaurant"}]},{"lat":"37.909071245","long":"126.89652783","imageIndex":4,"items":[{"name":"카페201","tel":"031-959-9560","addr":"경기도 파주시 법원읍 웅담리 328-3번지","indutype":"일반휴게음식 - 서양음식","category":"restaurant"}]},{"lat":"37.918124058","long":"126.89485441","imageIndex":4,"items":[{"name":"통나무집","tel":"031-958-4740","addr":"경기도 파주시 법원읍 웅담리 산 119","indutype":"일반휴게음식 - 일반한식","category":"restaurant"}]},{"lat":"37.911132524","long":"126.89450075","imageIndex":4,"items":[{"name":"한아름식당","tel":"031-959-9292","addr":"경기도 파주시 법원읍 웅담리 354-13번지","indutype":"일반휴게음식 - 일반한식","category":"restaurant"}]}]