[{"lat":"37.747071051","long":"127.21669126","imageIndex":17,"items":[{"name":"(주)대광코퍼레이션","tel":"02-472-8950","addr":"경기도 남양주시 진접읍 팔야리 499-3","indutype":"신변잡화 - 가방","category":"other"}]},{"lat":"37.751845777","long":"127.22657688","imageIndex":17,"items":[{"name":"(주)와이제이케어시스템","tel":"031-593-6090","addr":"경기도 남양주시 진접읍 팔야리 370번지","indutype":"용역 서비스 - 종합용역","category":"other"}]},{"lat":"37.747848329","long":"127.21533193","imageIndex":17,"items":[{"name":"(주)천태이엔지","tel":"031-575-0792","addr":"경기도 남양주시 진접읍 팔야리 543번지","indutype":"건축자재 - 기타건축자재","category":"other"},{"name":"천태이엔지","tel":"031-575-0792","addr":"경기도 남양주시 진접읍 팔야리 543번지","indutype":"기타 - 기계공구","category":"other"},{"name":"한솔퍼니처","tel":"031-529-0931","addr":"경기도 남양주시 진접읍 팔야리 543번지 2동","indutype":"가구 - 기타가구","category":"other"}]},{"lat":"37.756237377","long":"127.21963398","imageIndex":17,"items":[{"name":"ACOM(에이콤)","tel":"031-529-9217","addr":"경기도 남양주시 진접읍 팔야리 431-3","indutype":"기타 - 기계공구","category":"other"},{"name":"대명정밀","tel":"031-573-7609","addr":"경기도 남양주시 진접읍 팔야리 431-3번지","indutype":"기타 - 기타 전문점","category":"other"}]},{"lat":"37.749601065","long":"127.23655518","imageIndex":17,"items":[{"name":"DY상사","tel":"031-533-7617","addr":"경기도 남양주시 진접읍 팔야리 233-3","indutype":"신변잡화 - 기타잡화","category":"other"}]},{"lat":"37.749069962","long":"127.21735511","imageIndex":17,"items":[{"name":"JK컴퍼니","tel":"070-7610-7145","addr":"경기도 남양주시 진접읍 팔야리 478-15번지 1동 102층","indutype":"주방용구 - 주방용구","category":"other"}]},{"lat":"37.745929655","long":"127.21513356","imageIndex":17,"items":[{"name":"T.T.N","tel":"031-527-0126","addr":"경기도 남양주시 진접읍 팔야리 521-12번지","indutype":"가구 - 일반가구","category":"other"}]},{"lat":"37.748240834","long":"127.2073565","imageIndex":17,"items":[{"name":"가산정밀조각","tel":"031-573-7651","addr":"경기도 남양주시 진접읍 팔야리 732-9번지","indutype":"기타 - 기계공구","category":"other"},{"name":"동성레이저","tel":"031-575-5603","addr":"경기도 남양주시 진접읍 팔야리 732-9","indutype":"용역 서비스 - 기타용역서비스","category":"other"},{"name":"상우금속","tel":"031-528-2558","addr":"경기도 남양주시 진접읍 팔야리 732-9번지","indutype":"건축자재 - 기타건축자재","category":"other"}]},{"lat":"37.747130189","long":"127.20355244","imageIndex":17,"items":[{"name":"갈대상자이야기","tel":"031-111-1111","addr":"경기도 남양주시 진접읍 팔야리 812번지 가동 2층","indutype":"신변잡화 - 가방","category":"other"},{"name":"나오스아트갤러리","tel":"032-652-0304","addr":"경기도 남양주시 진접읍 팔야리 812번지 2층 일부","indutype":"신변잡화 - 기타잡화","category":"other"},{"name":"설리쇼룸","tel":"03-111-1111","addr":"경기도 남양주시 진접읍 팔야리 812번지 2층","indutype":"신변잡화 - 가방","category":"other"}]},{"lat":"37.749625152","long":"127.20916443","imageIndex":17,"items":[{"name":"강원중고재활용센타","tel":"031-528-5949","addr":"경기도 남양주시 진접읍 팔야리 716-11번지","indutype":"전기제품 - 가전제품","category":"other"}]},{"lat":"37.750880011","long":"127.22271605","imageIndex":17,"items":[{"name":"건강농원","tel":"031-527-7089","addr":"경기도 남양주시 진접읍 팔야리 376-2번지","indutype":"회원제형태 - 기타1","category":"other"}]},{"lat":"37.744572378","long":"127.20302362","imageIndex":17,"items":[{"name":"광릉건재종합문구","tel":"031-527-7066","addr":"경기도 남양주시 진접읍 팔야리 785-4번지","indutype":"기타 - 기계공구","category":"other"}]},{"lat":"37.744849722","long":"127.20417031","imageIndex":17,"items":[{"name":"광릉내애견","tel":"","addr":"경기도 남양주시 진접읍 팔야리 797-23번지","indutype":"문화.취미 - 애완동물","category":"other"}]},{"lat":"37.749374792","long":"127.23707641","imageIndex":17,"items":[{"name":"광릉숲속 단식원","tel":"031-527-6795","addr":"경기도 남양주시 진접읍 팔야리 234-3번지","indutype":"회원제형태 - 기타4","category":"other"}]},{"lat":"37.745570249","long":"127.20430841","imageIndex":17,"items":[{"name":"광릉열쇠","tel":"031-528-1110","addr":"경기도 남양주시 진접읍 팔야리 797-15번지","indutype":"기타 - 기계공구","category":"other"}]},{"lat":"37.746293758","long":"127.20794114","imageIndex":17,"items":[{"name":"그린스퀘어협동조합","tel":"031-8079-0419","addr":"경기도 남양주시 진접읍 팔야리 767번지 101호","indutype":"가구 - 일반가구","category":"other"},{"name":"선경볼트","tel":"031-529-2233","addr":"경기도 남양주시 진접읍 팔야리 767번지 106호","indutype":"기타 - 기계공구","category":"other"},{"name":"크드르","tel":"","addr":"경기도 남양주시 진접읍 팔야리 767번지","indutype":"가구 - 일반가구","category":"other"},{"name":"탐구생활연구소","tel":"031-575-4860","addr":"경기도 남양주시 진접읍 팔야리 767번지 102호","indutype":"건축자재 - 인테리어전문","category":"other"}]},{"lat":"37.749041377","long":"127.20810757","imageIndex":17,"items":[{"name":"나래종합배관","tel":"031-571-9733","addr":"경기도 남양주시 진접읍 팔야리 732-11번지 가동 101호","indutype":"건축자재 - 기타건축자재","category":"other"},{"name":"일신볼트","tel":"031-529-6543","addr":"경기도 남양주시 진접읍 팔야리 732-11번지 나-1호","indutype":"전기제품 - 기타전기제품","category":"other"}]},{"lat":"37.750824285","long":"127.21874449","imageIndex":17,"items":[{"name":"나전사랑","tel":"031-528-5592","addr":"경기도 남양주시 진접읍 팔야리 474번지","indutype":"문화.취미 - 민예·공예품","category":"other"}]},{"lat":"37.74510191","long":"127.20421637","imageIndex":17,"items":[{"name":"남양주호남도민회","tel":"070-4095-3100","addr":"경기도 남양주시 진접읍 팔야리 783-8","indutype":"기타 - 비영리/비대상","category":"other"}]},{"lat":"37.749267039","long":"127.22285878","imageIndex":17,"items":[{"name":"대광스텐","tel":"031-528-2037","addr":"경기도 남양주시 진접읍 팔야리 329-3번지","indutype":"기타 - 기계공구","category":"other"}]},{"lat":"37.746431457","long":"127.20646652","imageIndex":17,"items":[{"name":"대동안전물산","tel":"031-574-7646","addr":"경기도 남양주시 진접읍 팔야리 765-6번지 호","indutype":"기타 - 기계공구","category":"other"},{"name":"성신콤프레샤","tel":"031-528-8480","addr":"경기도 남양주시 진접읍 팔야리 765-6번지 이플러스 라동 5호","indutype":"기타 - 기계공구","category":"other"},{"name":"아주방전","tel":"031-574-8622","addr":"경기도 남양주시 진접읍 팔야리 765","indutype":"기타 - 기계공구","category":"other"},{"name":"제일정공","tel":"031-575-0064","addr":"경기도 남양주시 진접읍 팔야리 765-6번지 이플러스 라동 1호","indutype":"기타 - 기계공구","category":"other"}]},{"lat":"37.750321579","long":"127.22741196","imageIndex":17,"items":[{"name":"대성산업","tel":"031-573-1261","addr":"경기도 남양주시 진접읍 팔야리 348-1","indutype":"기타 - 기타 전문점","category":"other"}]},{"lat":"37.744796902","long":"127.20344403","imageIndex":17,"items":[{"name":"대성철물점","tel":"031-527-7750","addr":"경기도 남양주시 진접읍 팔야리 784","indutype":"건축자재 - 목재·석재·철물","category":"other"}]},{"lat":"37.757155466","long":"127.22011327","imageIndex":17,"items":[{"name":"대일하우징","tel":"031-528-0416","addr":"경기도 남양주시 진접읍 팔야리 430번지","indutype":"건축자재 - 기타건축자재","category":"other"}]},{"lat":"37.747432787","long":"127.21594344","imageIndex":17,"items":[{"name":"대한석재.앙카","tel":"02-496-0004","addr":"경기도 남양주시 진접읍 팔야리 541-8","indutype":"건축자재 - 목재·석재·철물","category":"other"}]},{"lat":"37.755817588","long":"127.21763558","imageIndex":17,"items":[{"name":"동부케스타","tel":"070-4567-4444","addr":"경기도 남양주시 진접읍 팔야리 426-3번지","indutype":"기타 - 기계공구","category":"other"}]},{"lat":"37.744323428","long":"127.20106012","imageIndex":17,"items":[{"name":"레인보우모바일","tel":"031-575-7357","addr":"경기도 남양주시 진접읍 팔야리 786-1번지","indutype":"사무통신 - 통신기기","category":"other"}]},{"lat":"37.745181307","long":"127.22993793","imageIndex":17,"items":[{"name":"로뎀성구사","tel":"031-528-3004","addr":"경기도 남양주시 진접읍 팔야리 266번지","indutype":"신변잡화 - 기념품점","category":"other"}]},{"lat":"37.748491106","long":"127.20850318","imageIndex":17,"items":[{"name":"명성전기(광릉)","tel":"031-575-7377","addr":"경기도 남양주시 진접읍 팔야리 745-9번지","indutype":"전기제품 - 기타전기제품","category":"other"}]},{"lat":"37.754237253","long":"127.20960843","imageIndex":17,"items":[{"name":"문수암","tel":"031-527-6470","addr":"경기도 남양주시 진접읍 팔야리 669번지","indutype":"신변잡화 - 기념품점","category":"other"}]},{"lat":"37.747492554","long":"127.2076381","imageIndex":17,"items":[{"name":"미리맘","tel":"031-528-3080","addr":"경기도 남양주시 진접읍 팔야리 751-9번지","indutype":"가구 - 일반가구","category":"other"}]},{"lat":"37.745013613","long":"127.20316096","imageIndex":17,"items":[{"name":"밀레니엄C&P","tel":"031-575-3040","addr":"경기도 남양주시 진접읍 팔야리 797-12번지","indutype":"수리서비스 - 사무·통신기기수리","category":"other"}]},{"lat":"37.750796247","long":"127.2092471","imageIndex":17,"items":[{"name":"보니하니의 소품창고","tel":"","addr":"경기도 남양주시 진접읍 팔야리 716-4번지 1층","indutype":"가구 - 기타가구","category":"other"}]},{"lat":"37.746297352","long":"127.20586481","imageIndex":17,"items":[{"name":"복진케미칼","tel":"031-529-7474","addr":"경기도 남양주시 진접읍 팔야리 758-4번지 1층","indutype":"건축자재 - 페인트","category":"other"}]},{"lat":"37.748708736","long":"127.20769818","imageIndex":17,"items":[{"name":"삼영볼트","tel":"031-528-2441","addr":"경기도 남양주시 진접읍 팔야리 732-13번지 가동 101호","indutype":"건축자재 - 목재·석재·철물","category":"other"},{"name":"영진지하수개발","tel":"031-529-0846","addr":"경기도 남양주시 진접읍 팔야리 732-13번지 전체 가동 101호","indutype":"용역 서비스 - 기타용역서비스","category":"other"}]},{"lat":"37.74565319","long":"127.21355567","imageIndex":17,"items":[{"name":"삼진ENG","tel":"031-527-0451","addr":"경기도 남양주시 진접읍 팔야리 527-4번지","indutype":"기타 - 기계공구","category":"other"}]},{"lat":"37.75501838","long":"127.23524456","imageIndex":17,"items":[{"name":"삼화 팩토리","tel":"031-529-7383","addr":"경기도 남양주시 진접읍 팔야리 95번지","indutype":"가구 - 일반가구","category":"other"}]},{"lat":"37.75204187","long":"127.22768948","imageIndex":17,"items":[{"name":"샐리라이프","tel":"031-527-6301","addr":"경기도 남양주시 진접읍 팔야리 129번지","indutype":"가구 - 일반가구","category":"other"}]},{"lat":"37.741792654","long":"127.23963929","imageIndex":17,"items":[{"name":"석본사","tel":"031-573-4848","addr":"경기도 남양주시 진접읍 팔야리 240-1번지 석본사","indutype":"기타 - 비영리/대상","category":"other"}]},{"lat":"37.756706579","long":"127.21924953","imageIndex":17,"items":[{"name":"선진레이저","tel":"031-528-3356","addr":"경기도 남양주시 진접읍 팔야리 429-12번지","indutype":"기타 - 기계공구","category":"other"}]},{"lat":"37.752096149","long":"127.21291581","imageIndex":17,"items":[{"name":"선한큐비클","tel":"031-574-9304","addr":"경기도 남양주시 진접읍 팔야리 576-3번지","indutype":"건축자재 - 기타건축자재","category":"other"}]},{"lat":"37.750235806","long":"127.2103008","imageIndex":17,"items":[{"name":"성동농자재","tel":"031-571-4542","addr":"경기도 남양주시 진접읍 팔야리 743-1번지","indutype":"농업 - 기타농업관련","category":"other"}]},{"lat":"37.747351287","long":"127.2059698","imageIndex":17,"items":[{"name":"성원코리아","tel":"031-1111-1111","addr":"경기도 남양주시 진접읍 팔야리 729-3번지","indutype":"의류 - 스포츠의류","category":"other"}]},{"lat":"37.756402189","long":"127.21819331","imageIndex":17,"items":[{"name":"세븐일레븐베어스타운점","tel":"031-1577-0711","addr":"경기도 남양주시 진접읍 팔야리 427-1번지","indutype":"유통업 영리 - 편 의 점","category":"other"},{"name":"실크로드","tel":"031-575-4535","addr":"경기도 남양주시 진접읍 팔야리 427-1번지","indutype":"레져용품 - 스포츠·레져용품","category":"other"}]},{"lat":"37.748016389","long":"127.21705706","imageIndex":17,"items":[{"name":"세븐일레븐진접팔야리점","tel":"","addr":"경기도 남양주시 진접읍 팔야리 497번지","indutype":"유통업 영리 - 편 의 점","category":"other"},{"name":"주식회사 라임몬스터","tel":"","addr":"경기도 남양주시 진접읍 팔야리 497번지","indutype":"용역 서비스 - 종합용역","category":"other"}]},{"lat":"37.754956238","long":"127.21566998","imageIndex":17,"items":[{"name":"세화차유리","tel":"031-528-7737","addr":"경기도 남양주시 진접읍 팔야리 629-1번지","indutype":"건축자재 - 유리","category":"other"}]},{"lat":"37.747128408","long":"127.21486467","imageIndex":17,"items":[{"name":"송우특장","tel":"031-575-5524","addr":"경기도 남양주시 진접읍 팔야리 539번지","indutype":"기타 - 기계공구","category":"other"}]},{"lat":"37.744797789","long":"127.20292212","imageIndex":17,"items":[{"name":"슈랜드","tel":"031-527-7270","addr":"경기도 남양주시 진접읍 팔야리 692-30번지","indutype":"신변잡화 - 신발","category":"other"}]},{"lat":"37.74490573","long":"127.20302452","imageIndex":17,"items":[{"name":"슈랜드아동복","tel":"031-527-9931","addr":"경기도 남양주시 진접읍 팔야리 692-27","indutype":"의류 - 기타의류","category":"other"}]},{"lat":"37.747210888","long":"127.23332532","imageIndex":17,"items":[{"name":"신믿사","tel":"031-575-0536","addr":"경기도 남양주시 진접읍 팔야리 232-16번지 232-27의 3필지","indutype":"가구 - 일반가구","category":"other"}]},{"lat":"37.751903687","long":"127.22927764","imageIndex":17,"items":[{"name":"씨유진접팔야리점","tel":"031-528-2925","addr":"경기도 남양주시 진접읍 팔야리 137번지","indutype":"유통업 영리 - 편 의 점","category":"other"},{"name":"현대스피드캅남양주지사","tel":"031-571-8288","addr":"경기도 남양주시 진접읍 팔야리 137번지","indutype":"전기제품 - 기타전기제품","category":"other"}]},{"lat":"37.748403142","long":"127.20727752","imageIndex":17,"items":[{"name":"아성모타","tel":"031-574-7202","addr":"경기도 남양주시 진접읍 팔야리 732-14번지 수덕빌라 나층 4호","indutype":"기타 - 기계공구","category":"other"}]},{"lat":"37.745517372","long":"127.20361616","imageIndex":17,"items":[{"name":"에덴화원","tel":"031-527-7765","addr":"경기도 남양주시 진접읍 팔야리 797-1번지","indutype":"문화.취미 - 화원","category":"other"}]},{"lat":"37.746325726","long":"127.205082","imageIndex":17,"items":[{"name":"에이씨티그레이스(ACT-GRACE)","tel":"031-571-2500","addr":"경기도 남양주시 진접읍 팔야리 728-1번지 1층 107,108호","indutype":"사무통신 - 통신기기","category":"other"}]},{"lat":"37.749100344","long":"127.22044147","imageIndex":17,"items":[{"name":"영림 베이크웨어","tel":"031-571-9371","addr":"경기도 남양주시 진접읍 팔야리 589-4번지","indutype":"주방용구 - 주방용구","category":"other"}]},{"lat":"37.745127502","long":"127.20505605","imageIndex":17,"items":[{"name":"예쁜걸","tel":"031-573-8335","addr":"경기도 남양주시 진접읍 팔야리 781-19번지 1층","indutype":"의류 - 정장","category":"other"}]},{"lat":"37.749463998","long":"127.21866111","imageIndex":17,"items":[{"name":"오성임업","tel":"031-529-3244","addr":"경기도 남양주시 진접읍 팔야리 483-2번지","indutype":"건축자재 - 목재·석재·철물","category":"other"}]},{"lat":"37.744934449","long":"127.20202615","imageIndex":17,"items":[{"name":"오케이","tel":"031-000-0000","addr":"경기도 남양주시 진접읍 팔야리 788-6번지","indutype":"주방용구 - 정수기","category":"other"}]},{"lat":"37.749597767","long":"127.21941038","imageIndex":17,"items":[{"name":"용덕정밀기계공업","tel":"031-527-9798","addr":"경기도 남양주시 진접읍 팔야리 485-2번지","indutype":"기타 - 기계공구","category":"other"}]},{"lat":"37.745880408","long":"127.20205138","imageIndex":17,"items":[{"name":"우림특수무늬목","tel":"031-791-9182","addr":"경기도 남양주시 진접읍 팔야리 793","indutype":"건축자재 - 목재·석재·철물","category":"other"}]},{"lat":"37.748491679","long":"127.21827251","imageIndex":17,"items":[{"name":"운성산업","tel":"031-524-9970","addr":"경기도 남양주시 진접읍 팔야리 495번지 다동","indutype":"신변잡화 - 기타잡화","category":"other"}]},{"lat":"37.745570463","long":"127.20939144","imageIndex":17,"items":[{"name":"원창건설.원창공구백화점","tel":"031-529-0550","addr":"경기도 남양주시 진접읍 팔야리 774-1번지 (팔야774-1,789-6번지)","indutype":"기타 - 기계공구","category":"other"},{"name":"쟁이","tel":"031-575-4860","addr":"경기도 남양주시 진접읍 팔야리 774-1","indutype":"가구 - 일반가구","category":"other"}]},{"lat":"37.752846956","long":"127.21121586","imageIndex":17,"items":[{"name":"유성기업","tel":"031-571-5758","addr":"경기도 남양주시 진접읍 팔야리 597-1번지","indutype":"의류 - 기타의류","category":"other"}]},{"lat":"37.749957489","long":"127.20974403","imageIndex":17,"items":[{"name":"윤성목재","tel":"031-528-5280","addr":"경기도 남양주시 진접읍 팔야리 741-1번지","indutype":"건축자재 - 기타건축자재","category":"other"},{"name":"은조부화기","tel":"031-575-0759","addr":"경기도 남양주시 진접읍 팔야리 741-1","indutype":"기타 - 기타 전문점","category":"other"}]},{"lat":"37.745768769","long":"127.2144183","imageIndex":17,"items":[{"name":"이구합판목재","tel":"031-528-2929","addr":"경기도 남양주시 진접읍 팔야리 521-2","indutype":"건축자재 - 기타건축자재","category":"other"}]},{"lat":"37.751682118","long":"127.22735933","imageIndex":17,"items":[{"name":"일현 DESIGN","tel":"031-571-1298","addr":"경기도 남양주시 진접읍 팔야리 364번지","indutype":"건축자재 - 인테리어전문","category":"other"}]},{"lat":"37.754818104","long":"127.22221706","imageIndex":17,"items":[{"name":"자연공예","tel":"031-529-3117","addr":"경기도 남양주시 진접읍 팔야리 393-4번지 코아디라인 1호","indutype":"주방용구 - 주방용구","category":"other"}]},{"lat":"37.744710894","long":"127.20102711","imageIndex":17,"items":[{"name":"잡스폰마트","tel":"031-573-0881","addr":"경기도 남양주시 진접읍 팔야리 789-6번지 신축빌딩 1층","indutype":"사무통신 - 통신기기","category":"other"}]},{"lat":"37.748404287","long":"127.23580255","imageIndex":17,"items":[{"name":"주식회사 대한스포츠","tel":"031-1899-7715","addr":"경기도 남양주시 진접읍 팔야리 산64-19번지","indutype":"레져용품 - 스포츠·레져용품","category":"other"}]},{"lat":"37.744796671","long":"127.20358018","imageIndex":17,"items":[{"name":"주식회사새빛넷","tel":"031-527-7297","addr":"경기도 남양주시 진접읍 팔야리 784-1","indutype":"용역 서비스 - CATV","category":"other"}]},{"lat":"37.746182526","long":"127.20452565","imageIndex":17,"items":[{"name":"진접제일요양병원 편의점","tel":"031-528-2580","addr":"경기도 남양주시 진접읍 팔야리 728-8번지 1층","indutype":"유통업 영리 - 편 의 점","category":"other"}]},{"lat":"37.74632248","long":"127.2220218","imageIndex":17,"items":[{"name":"참물음료(주)","tel":"02-501-3232","addr":"경기도 남양주시 진접읍 팔야리 285-1번지","indutype":"유통업 영리 - 기타유통업","category":"other"}]},{"lat":"37.750039836","long":"127.21908261","imageIndex":17,"items":[{"name":"천일정밀기계","tel":"","addr":"경기도 남양주시 진접읍 팔야리 484-1번지 1호","indutype":"기타 - 기계공구","category":"other"}]},{"lat":"37.744735857","long":"127.20225254","imageIndex":17,"items":[{"name":"청실홍실","tel":"070-4789-2382","addr":"경기도 남양주시 진접읍 팔야리 788-16번지","indutype":"신변잡화 - 기타잡화","category":"other"}]},{"lat":"37.7517976","long":"127.21360713","imageIndex":17,"items":[{"name":"콤프에어21","tel":"031-571-0922","addr":"경기도 남양주시 진접읍 팔야리 559번지","indutype":"기타 - 기계공구","category":"other"}]},{"lat":"37.74718546","long":"127.20283777","imageIndex":17,"items":[{"name":"크로바오피스","tel":"07-0420-9490","addr":"경기도 남양주시 진접읍 팔야리 816-1번지","indutype":"서적문구 - 문구용품","category":"other"},{"name":"튼튼지붕공사","tel":"031-574-0142","addr":"경기도 남양주시 진접읍 팔야리 816-1번지 (0동일부)","indutype":"용역 서비스 - 기타용역서비스","category":"other"}]},{"lat":"37.756463677","long":"127.21905591","imageIndex":17,"items":[{"name":"태성공구철물","tel":"031-571-0099","addr":"경기도 남양주시 진접읍 팔야리 428-14번지","indutype":"기타 - 기계공구","category":"other"}]},{"lat":"37.755097573","long":"127.21722499","imageIndex":17,"items":[{"name":"태성산업","tel":"031-575-0624","addr":"경기도 남양주시 진접읍 팔야리 414-1번지","indutype":"가구 - 철제가구","category":"other"}]},{"lat":"37.757075008","long":"127.2197726","imageIndex":17,"items":[{"name":"태성열처리","tel":"031-575-2167","addr":"경기도 남양주시 진접읍 팔야리 430-5번지","indutype":"기타 - 기계공구","category":"other"}]},{"lat":"37.746013832","long":"127.20830344","imageIndex":17,"items":[{"name":"태홍산업","tel":"031-527-6638","addr":"경기도 남양주시 진접읍 팔야리 770-1번지","indutype":"신변잡화 - 기타잡화","category":"other"}]},{"lat":"37.752985939","long":"127.23335458","imageIndex":17,"items":[{"name":"팬시버닝연합회","tel":"070-4202-4628","addr":"경기도 남양주시 진접읍 팔야리 43번지","indutype":"가구 - 기타가구","category":"other"}]},{"lat":"37.752126979","long":"127.2107713","imageIndex":17,"items":[{"name":"하나 환경","tel":"031-567-8929","addr":"경기도 남양주시 진접읍 팔야리 595-1번지","indutype":"용역 서비스 - 종합용역","category":"other"}]},{"lat":"37.745211204","long":"127.20352457","imageIndex":17,"items":[{"name":"하나정보통신","tel":"031-528-1150","addr":"경기도 남양주시 진접읍 팔야리 797-10번지","indutype":"사무통신 - 통신기기","category":"other"}]},{"lat":"37.751572727","long":"127.22802847","imageIndex":17,"items":[{"name":"하우페이퍼 (HOWPAPER)","tel":"050-5893-7942","addr":"경기도 남양주시 진접읍 팔야리 131-3번지 1층","indutype":"문화.취미 - 민예·공예품","category":"other"}]},{"lat":"37.746651679","long":"127.20414115","imageIndex":17,"items":[{"name":"한국시멘트","tel":"031-528-3433","addr":"경기도 남양주시 진접읍 팔야리 805번지 1층","indutype":"건축자재 - 기타건축자재","category":"other"}]},{"lat":"37.74574077","long":"127.20469464","imageIndex":17,"items":[{"name":"해피데이","tel":"070-7572-7273","addr":"경기도 남양주시 진접읍 팔야리 798-2번지","indutype":"의류 - 정장","category":"other"}]},{"lat":"37.746763016","long":"127.22252233","imageIndex":17,"items":[{"name":"현대불상","tel":"031-7864-1177","addr":"경기도 남양주시 진접읍 팔야리 288번지","indutype":"신변잡화 - 기념품점","category":"other"}]},{"lat":"37.748375681","long":"127.20752707","imageIndex":17,"items":[{"name":"현대상사","tel":"031-528-5223","addr":"경기도 남양주시 진접읍 팔야리 732-18번지","indutype":"건축자재 - 조명기구","category":"other"}]},{"lat":"37.753545778","long":"127.22327995","imageIndex":17,"items":[{"name":"현대전기","tel":"031-527-6910","addr":"경기도 남양주시 진접읍 팔야리 388-1번지 외1필지","indutype":"전기제품 - 기타전기제품","category":"other"}]},{"lat":"37.752651916","long":"127.21449463","imageIndex":17,"items":[{"name":"현성정밀","tel":"031-528-9174","addr":"경기도 남양주시 진접읍 팔야리 580","indutype":"기타 - 기계공구","category":"other"}]},{"lat":"37.753407467","long":"127.21518896","imageIndex":17,"items":[{"name":"화인유공압","tel":"031-528-3840","addr":"경기도 남양주시 진접읍 팔야리 583","indutype":"기타 - 기계공구","category":"other"}]},{"lat":"37.749069962","long":"127.21735511","imageIndex":4,"items":[{"name":"478커피로스터(CoffeeRoasters)","tel":"070-7758-0478","addr":"경기도 남양주시 진접읍 팔야리 478-15번지","indutype":"일반휴게음식 - 서양음식","category":"restaurant"}]},{"lat":"37.744629102","long":"127.20144669","imageIndex":4,"items":[{"name":"가보자포차","tel":"031-528-3334","addr":"경기도 남양주시 진접읍 팔야리 789-17번지 외1필지","indutype":"일반휴게음식 - 일반한식","category":"restaurant"}]},{"lat":"37.746325726","long":"127.205082","imageIndex":4,"items":[{"name":"감탄광릉점","tel":"031-527-5889","addr":"경기도 남양주시 진접읍 팔야리 728-1번지 1호","indutype":"일반휴게음식 - 스넥","category":"restaurant"}]},{"lat":"37.753019239","long":"127.23475038","imageIndex":4,"items":[{"name":"검단골","tel":"031-527-1805","addr":"경기도 남양주시 진접읍 팔야리 49-1번지 나동 1층","indutype":"일반휴게음식 - 일반한식","category":"restaurant"}]},{"lat":"37.749517951","long":"127.20864218","imageIndex":4,"items":[{"name":"광릉돌솥밥","tel":"031-527-3334","addr":"경기도 남양주시 진접읍 팔야리 732-6번지","indutype":"일반휴게음식 - 일반한식","category":"restaurant"}]},{"lat":"37.744350037","long":"127.2013098","imageIndex":4,"items":[{"name":"광릉분식","tel":"031-529-4230","addr":"경기도 남양주시 진접읍 팔야리 787-21번지","indutype":"일반휴게음식 - 스넥","category":"restaurant"},{"name":"썸호프","tel":"031-510-9122","addr":"경기도 남양주시 진접읍 팔야리 787-21번지 1층1칸","indutype":"일반휴게음식 - 주점","category":"restaurant"}]},{"lat":"37.744933364","long":"127.2079147","imageIndex":4,"items":[{"name":"광릉불고기","tel":"031-527-6631","addr":"경기도 남양주시 진접읍 팔야리 778-9,13","indutype":"일반휴게음식 - 일반한식","category":"restaurant"}]},{"lat":"37.745570463","long":"127.20939144","imageIndex":4,"items":[{"name":"구비구비돌아서","tel":"031-571-4223","addr":"경기도 남양주시 진접읍 팔야리 774-1번지 104호","indutype":"일반휴게음식 - 일반한식","category":"restaurant"}]},{"lat":"37.750796247","long":"127.2092471","imageIndex":4,"items":[{"name":"기쁨가득우리집밥","tel":"031-573-7981","addr":"경기도 남양주시 진접읍 팔야리 716-4번지 1층","indutype":"일반휴게음식 - 일반한식","category":"restaurant"}]},{"lat":"37.74510191","long":"127.20421637","imageIndex":4,"items":[{"name":"김밥나라","tel":"031-527-3767","addr":"경기도 남양주시 진접읍 팔야리 783-8번지 1층","indutype":"일반휴게음식 - 스넥","category":"restaurant"},{"name":"발렌타인","tel":"031-527-9169","addr":"경기도 남양주시 진접읍 팔야리 783-8번지 2층","indutype":"일반휴게음식 - 서양음식","category":"restaurant"}]},{"lat":"37.752656696","long":"127.23124299","imageIndex":4,"items":[{"name":"꾸이네","tel":"","addr":"경기도 남양주시 진접읍 팔야리 143번지 1층","indutype":"일반휴게음식 - 일반한식","category":"restaurant"}]},{"lat":"37.745156761","long":"127.20897049","imageIndex":4,"items":[{"name":"남양주연경반점","tel":"031-527-8686","addr":"경기도 남양주시 진접읍 팔야리 770-26번지","indutype":"일반휴게음식 - 중국식","category":"restaurant"}]},{"lat":"37.745295967","long":"127.2066336","imageIndex":4,"items":[{"name":"더치브루","tel":"031-514-5587","addr":"경기도 남양주시 진접읍 팔야리 761-4번지 1층","indutype":"일반휴게음식 - 서양음식","category":"restaurant"}]},{"lat":"37.753125648","long":"127.21155705","imageIndex":4,"items":[{"name":"독점말식당","tel":"031-529-7678","addr":"경기도 남양주시 진접읍 팔야리 600-2번지","indutype":"일반휴게음식 - 일반한식","category":"restaurant"}]},{"lat":"37.745211204","long":"127.20352457","imageIndex":4,"items":[{"name":"둘리","tel":"031-528-7515","addr":"경기도 남양주시 진접읍 팔야리 797-10 외1필지","indutype":"일반휴게음식 - 주점","category":"restaurant"}]},{"lat":"37.755959749","long":"127.21872536","imageIndex":4,"items":[{"name":"뚜가리","tel":"031-528-2744","addr":"경기도 남양주시 진접읍 팔야리 428-2번지","indutype":"일반휴게음식 - 일반한식","category":"restaurant"}]},{"lat":"37.745345767","long":"127.20386531","imageIndex":4,"items":[{"name":"마실포차","tel":"031-574-3426","addr":"경기도 남양주시 진접읍 팔야리 797-14번지","indutype":"일반휴게음식 - 일반한식","category":"restaurant"},{"name":"옛날보신탕","tel":"031-527-6542","addr":"경기도 남양주시 진접읍 팔야리 797-14번지","indutype":"일반휴게음식 - 일반한식","category":"restaurant"}]},{"lat":"37.748240834","long":"127.2073565","imageIndex":4,"items":[{"name":"맛있는 닭닭","tel":"031-572-8555","addr":"경기도 남양주시 진접읍 팔야리 732-9번지 수덕빌딩 1층 103호","indutype":"일반휴게음식 - 일반한식","category":"restaurant"}]},{"lat":"37.747737775","long":"127.20650414","imageIndex":4,"items":[{"name":"맛집코다리네","tel":"031-573-9592","addr":"경기도 남양주시 진접읍 팔야리 731-6번지","indutype":"일반휴게음식 - 일반한식","category":"restaurant"}]},{"lat":"37.744572705","long":"127.20283074","imageIndex":4,"items":[{"name":"머니마니","tel":"031-527-7972","addr":"경기도 남양주시 진접읍 팔야리 786-16번지 7,8번지","indutype":"일반휴게음식 - 주점","category":"restaurant"}]},{"lat":"37.7509633","long":"127.22633594","imageIndex":4,"items":[{"name":"미담식당","tel":"031-527-7425","addr":"경기도 남양주시 진접읍 팔야리 353 외1필지","indutype":"일반휴게음식 - 일반한식","category":"restaurant"}]},{"lat":"37.746045418","long":"127.20567123","imageIndex":4,"items":[{"name":"미소정육식당","tel":"031-572-8550","addr":"경기도 남양주시 진접읍 팔야리 761-2번지 1층","indutype":"일반휴게음식 - 일반한식","category":"restaurant"}]},{"lat":"37.747379978","long":"127.21019071","imageIndex":4,"items":[{"name":"백년 삼색쌈밥","tel":"","addr":"경기도 남양주시 진접읍 팔야리 산88번지 C동","indutype":"일반휴게음식 - 일반한식","category":"restaurant"}]},{"lat":"37.747130189","long":"127.20355244","imageIndex":4,"items":[{"name":"버스터(BUSTER)","tel":"031-571-1791","addr":"경기도 남양주시 진접읍 팔야리 812번지 가동1층, 나동1층","indutype":"일반휴게음식 - 서양음식","category":"restaurant"}]},{"lat":"37.744709403","long":"127.20191209","imageIndex":4,"items":[{"name":"별","tel":"031-572-6644","addr":"경기도 남양주시 진접읍 팔야리 788-8번지","indutype":"일반휴게음식 - 주점","category":"restaurant"}]},{"lat":"37.749904546","long":"127.20910847","imageIndex":4,"items":[{"name":"봉평산골메밀촌","tel":"031-529-8173","addr":"경기도 남양주시 진접읍 팔야리 740-1번지","indutype":"일반휴게음식 - 일반한식","category":"restaurant"}]},{"lat":"37.748016389","long":"127.21705706","imageIndex":4,"items":[{"name":"분당식당","tel":"031-575-3577","addr":"경기도 남양주시 진접읍 팔야리 497번지","indutype":"일반휴게음식 - 일반한식","category":"restaurant"}]},{"lat":"37.744710894","long":"127.20102711","imageIndex":4,"items":[{"name":"블링블링","tel":"031-000-0000","addr":"경기도 남양주시 진접읍 팔야리 789-6번지 4층","indutype":"일반휴게음식 - 일반한식","category":"restaurant"}]},{"lat":"37.744492408","long":"127.20236535","imageIndex":4,"items":[{"name":"비에이치씨 (BHC) 진접광릉내점","tel":"031-527-9977","addr":"경기도 남양주시 진접읍 팔야리 787-1번지 1층","indutype":"일반휴게음식 - 스넥","category":"restaurant"},{"name":"자매커피호프","tel":"031-111-1111","addr":"경기도 남양주시 진접읍 팔야리 787-1번지 1층","indutype":"일반휴게음식 - 주점","category":"restaurant"},{"name":"탑호프","tel":"031-572-7976","addr":"경기도 남양주시 진접읍 팔야리 787-1번지 1층 일부 (주2)","indutype":"일반휴게음식 - 일반한식","category":"restaurant"}]},{"lat":"37.7546839","long":"127.21680394","imageIndex":4,"items":[{"name":"삼정식당","tel":"031-528-6584","addr":"경기도 남양주시 진접읍 팔야리 416-7번지 우리자동차공업사","indutype":"일반휴게음식 - 일반한식","category":"restaurant"}]},{"lat":"37.744403023","long":"127.20194531","imageIndex":4,"items":[{"name":"상진푸드 진접점","tel":"031-527-9925","addr":"경기도 남양주시 진접읍 팔야리 786-9번지 1층 일부","indutype":"일반휴게음식 - 일반한식","category":"restaurant"}]},{"lat":"37.749906776","long":"127.22282664","imageIndex":4,"items":[{"name":"새샘식당","tel":"031-527-9188","addr":"경기도 남양주시 진접읍 팔야리 330-10번지","indutype":"일반휴게음식 - 일반한식","category":"restaurant"}]},{"lat":"37.752488929","long":"127.21494805","imageIndex":4,"items":[{"name":"소나무와초가집","tel":"031-573-0347","addr":"경기도 남양주시 진접읍 팔야리 557번지","indutype":"일반휴게음식 - 일반한식","category":"restaurant"}]},{"lat":"37.753517009","long":"127.23360586","imageIndex":4,"items":[{"name":"시골밥상1","tel":"031-575-3790","addr":"경기도 남양주시 진접읍 팔야리 158번지","indutype":"일반휴게음식 - 일반한식","category":"restaurant"}]},{"lat":"37.744430185","long":"127.20186596","imageIndex":4,"items":[{"name":"신돈","tel":"031-573-1979","addr":"경기도 남양주시 진접읍 팔야리 787-25번지 1층","indutype":"일반휴게음식 - 일반한식","category":"restaurant"}]},{"lat":"37.747512695","long":"127.20641275","imageIndex":4,"items":[{"name":"신민철전통재래식황토숯가마3초삼겹살구이","tel":"031-528-3353","addr":"경기도 남양주시 진접읍 팔야리 729-4번지 1층 1호","indutype":"일반휴게음식 - 일반한식","category":"restaurant"}]},{"lat":"37.756402189","long":"127.21819331","imageIndex":4,"items":[{"name":"아리팥칼국시","tel":"031-573-0608","addr":"경기도 남양주시 진접읍 팔야리 427-1번지","indutype":"일반휴게음식 - 일반한식","category":"restaurant"}]},{"lat":"37.744518841","long":"127.20271714","imageIndex":4,"items":[{"name":"약속커피호프","tel":"","addr":"경기도 남양주시 진접읍 팔야리 786-15번지","indutype":"일반휴게음식 - 주점","category":"restaurant"}]},{"lat":"37.744376607","long":"127.20158217","imageIndex":4,"items":[{"name":"어수리","tel":"031-574-5413","addr":"경기도 남양주시 진접읍 팔야리 787-18번지 1층","indutype":"일반휴게음식 - 일반한식","category":"restaurant"}]},{"lat":"37.744736183","long":"127.20205966","imageIndex":4,"items":[{"name":"언니네 포장마차","tel":"031-528-6263","addr":"경기도 남양주시 진접읍 팔야리 788-18번지 1층 101호","indutype":"일반휴게음식 - 일반한식","category":"restaurant"}]},{"lat":"37.749739976","long":"127.22046603","imageIndex":4,"items":[{"name":"오거리식당","tel":"031-592-3414","addr":"경기도 남양주시 진접읍 팔야리 489-4번지","indutype":"일반휴게음식 - 일반한식","category":"restaurant"}]},{"lat":"37.744491985","long":"127.20261495","imageIndex":4,"items":[{"name":"오빠포차","tel":"031-3392-0859","addr":"경기도 남양주시 진접읍 팔야리 786-14번지 오빠포차","indutype":"일반휴게음식 - 일반한식","category":"restaurant"}]},{"lat":"37.746431457","long":"127.20646652","imageIndex":4,"items":[{"name":"올인숯불구이","tel":"031-528-9302","addr":"경기도 남양주시 진접읍 팔야리 765-6번지 이플러스 나동 1호","indutype":"일반휴게음식 - 일반한식","category":"restaurant"},{"name":"풍년감자탕","tel":"031-528-6357","addr":"경기도 남양주시 진접읍 팔야리 765-6번지 주3동 1층 일부","indutype":"일반휴게음식 - 일반한식","category":"restaurant"}]},{"lat":"37.74442986","long":"127.20205884","imageIndex":4,"items":[{"name":"왕자커피호프","tel":"031-572-9663","addr":"경기도 남양주시 진접읍 팔야리 786-10번지 1층 일부","indutype":"일반휴게음식 - 서양음식","category":"restaurant"}]},{"lat":"37.745048279","long":"127.20396662","imageIndex":4,"items":[{"name":"전설의치킨 (광릉내점)","tel":"031-572-2017","addr":"경기도 남양주시 진접읍 팔야리 783-3번지","indutype":"일반휴게음식 - 스넥","category":"restaurant"},{"name":"행복한 날","tel":"031-527-8424","addr":"경기도 남양주시 진접읍 팔야리 783-3번지","indutype":"일반휴게음식 - 일반한식","category":"restaurant"}]},{"lat":"37.749597767","long":"127.21941038","imageIndex":4,"items":[{"name":"정이네식당","tel":"031-527-2153","addr":"경기도 남양주시 진접읍 팔야리 485-2번지 6호","indutype":"일반휴게음식 - 일반한식","category":"restaurant"}]},{"lat":"37.744456658","long":"127.20219506","imageIndex":4,"items":[{"name":"천안문","tel":"031-527-5071","addr":"경기도 남양주시 진접읍 팔야리 787-23번지","indutype":"일반휴게음식 - 중국식","category":"restaurant"}]},{"lat":"37.748325269","long":"127.20541648","imageIndex":4,"items":[{"name":"초가뜰","tel":"031-554-8833","addr":"경기도 남양주시 진접읍 팔야리 725-1번지","indutype":"일반휴게음식 - 일반한식","category":"restaurant"}]},{"lat":"37.748375681","long":"127.20752707","imageIndex":4,"items":[{"name":"추억의7080","tel":"031-575-1761","addr":"경기도 남양주시 진접읍 팔야리 732-18번지 2층","indutype":"일반휴게음식 - 주점","category":"restaurant"}]},{"lat":"37.744572378","long":"127.20302362","imageIndex":4,"items":[{"name":"춘천닭갈비막국수","tel":"031-528-8765","addr":"경기도 남양주시 진접읍 팔야리 785-4번지 외1필지","indutype":"일반휴게음식 - 일반한식","category":"restaurant"}]},{"lat":"37.746293758","long":"127.20794114","imageIndex":4,"items":[{"name":"카페그린비","tel":"031-575-4860","addr":"경기도 남양주시 진접읍 팔야리 767번지 1동 1층 101호","indutype":"일반휴게음식 - 서양음식","category":"restaurant"}]},{"lat":"37.745849383","long":"127.21963773","imageIndex":4,"items":[{"name":"키다리아저씨정원","tel":"031-575-6534","addr":"경기도 남양주시 진접읍 팔야리 517-6번지 1층","indutype":"일반휴게음식 - 일반한식","category":"restaurant"}]},{"lat":"37.744323428","long":"127.20106012","imageIndex":4,"items":[{"name":"토스트카페 틈","tel":"02-1111-1111","addr":"경기도 남양주시 진접읍 팔야리 786-1번지","indutype":"일반휴게음식 - 서양음식","category":"restaurant"}]},{"lat":"37.745353555","long":"127.20458013","imageIndex":4,"items":[{"name":"파랑새 황태해장국","tel":"031-574-1145","addr":"경기도 남양주시 진접읍 팔야리 781-3번지 101호","indutype":"일반휴게음식 - 일반한식","category":"restaurant"}]},{"lat":"37.749876842","long":"127.20949418","imageIndex":4,"items":[{"name":"팔당냉면 진접점","tel":"031-529-9595","addr":"경기도 남양주시 진접읍 팔야리 716-11번지 종합재활용센터 가동 1층","indutype":"일반휴게음식 - 일반한식","category":"restaurant"}]},{"lat":"37.747850822","long":"127.21891739","imageIndex":4,"items":[{"name":"팔야식당","tel":"031-527-7370","addr":"경기도 남양주시 진접읍 팔야리 498-1번지","indutype":"일반휴게음식 - 일반한식","category":"restaurant"}]},{"lat":"37.756824867","long":"127.2186144","imageIndex":4,"items":[{"name":"포천순대국","tel":"031-574-2448","addr":"경기도 남양주시 진접읍 팔야리 404-2번지","indutype":"일반휴게음식 - 일반한식","category":"restaurant"}]},{"lat":"37.751212268","long":"127.21344661","imageIndex":4,"items":[{"name":"풍천장어마을","tel":"031-575-5002","addr":"경기도 남양주시 진접읍 팔야리 562-1번지 1층","indutype":"일반휴게음식 - 일반한식","category":"restaurant"}]},{"lat":"37.749991612","long":"127.22080717","imageIndex":4,"items":[{"name":"한밭식당","tel":"031-527-2843","addr":"경기도 남양주시 진접읍 팔야리 489-6","indutype":"일반휴게음식 - 일반한식","category":"restaurant"}]},{"lat":"37.749100344","long":"127.22044147","imageIndex":4,"items":[{"name":"한상가득","tel":"031-572-4491","addr":"경기도 남양주시 진접읍 팔야리 589-4번지 1층","indutype":"일반휴게음식 - 일반한식","category":"restaurant"}]},{"lat":"37.744709767","long":"127.20169652","imageIndex":4,"items":[{"name":"황금","tel":"031-573-3938","addr":"경기도 남양주시 진접읍 팔야리 788-19번지","indutype":"일반휴게음식 - 주점","category":"restaurant"}]},{"lat":"37.751679626","long":"127.22866423","imageIndex":4,"items":[{"name":"훈민식당","tel":"031-527-3773","addr":"경기도 남양주시 진접읍 팔야리 131-10번지","indutype":"일반휴게음식 - 일반한식","category":"restaurant"}]},{"lat":"37.747514717","long":"127.22041413","imageIndex":0,"items":[{"name":"CJ상사","tel":"031-574-0886","addr":"경기도 남양주시 진접읍 팔야리 514번지","indutype":"자동차정비 유지 - 자동차부품","category":"car"}]},{"lat":"37.757075008","long":"127.2197726","imageIndex":0,"items":[{"name":"고려상사","tel":"031-534-4110","addr":"경기도 남양주시 진접읍 팔야리 430-5번지 외1필지","indutype":"자동차정비 유지 - 자동차부품","category":"car"},{"name":"진모터스","tel":"031-574-3534","addr":"경기도 남양주시 진접읍 팔야리 430-5번지","indutype":"자동차정비 유지 - 자동차정비","category":"car"}]},{"lat":"37.755682446","long":"127.21763519","imageIndex":0,"items":[{"name":"대진자동차공업사","tel":"031-527-7373","addr":"경기도 남양주시 진접읍 팔야리 422-2번지","indutype":"자동차정비 유지 - 자동차정비","category":"car"}]},{"lat":"37.745071627","long":"127.21127348","imageIndex":0,"items":[{"name":"명진자동차공업사","tel":"031-527-1163","addr":"경기도 남양주시 진접읍 팔야리 528-10번지","indutype":"자동차정비 유지 - 자동차정비","category":"car"}]},{"lat":"37.749041377","long":"127.20810757","imageIndex":0,"items":[{"name":"수인전자","tel":"031-528-3560","addr":"경기도 남양주시 진접읍 팔야리 732-11번지 나동 102호","indutype":"자동차정비 유지 - 자동차부품","category":"car"}]},{"lat":"37.753600045","long":"127.23260756","imageIndex":0,"items":[{"name":"아우토니드","tel":"031-529-3391","addr":"경기도 남양주시 진접읍 팔야리 121번지 나동","indutype":"자동차판매 - 수입자동차","category":"car"}]},{"lat":"37.747818351","long":"127.20679936","imageIndex":0,"items":[{"name":"오토오아시스진접점","tel":"031-528-5554","addr":"경기도 남양주시 진접읍 팔야리 731-4번지","indutype":"자동차정비 유지 - 자동차정비","category":"car"}]},{"lat":"37.75489988","long":"127.21694073","imageIndex":0,"items":[{"name":"우리자동차공업사","tel":"031-575-8309","addr":"경기도 남양주시 진접읍 팔야리 415-8","indutype":"자동차정비 유지 - 자동차정비","category":"car"}]},{"lat":"37.747209046","long":"127.20485747","imageIndex":0,"items":[{"name":"제이에스카모터스","tel":"031-527-4036","addr":"경기도 남양주시 진접읍 팔야리 806-3번지","indutype":"자동차정비 유지 - 카인테리어","category":"car"}]},{"lat":"37.750736948","long":"127.21221981","imageIndex":0,"items":[{"name":"중고타이어 플러스","tel":"031-529-7455","addr":"경기도 남양주시 진접읍 팔야리 563-1번지","indutype":"자동차정비 유지 - 자동차시트·타이어","category":"car"}]},{"lat":"37.756734689","long":"127.21865953","imageIndex":0,"items":[{"name":"채빈전자","tel":"031-527-8246","addr":"경기도 남양주시 진접읍 팔야리 404-6번지","indutype":"자동차정비 유지 - 자동차부품","category":"car"}]},{"lat":"37.751544685","long":"127.21396951","imageIndex":0,"items":[{"name":"카젠(진승차사랑)","tel":"031-528-1141","addr":"경기도 남양주시 진접읍 팔야리 558-7","indutype":"자동차정비 유지 - 자동차정비","category":"car"}]},{"lat":"37.747351287","long":"127.2059698","imageIndex":0,"items":[{"name":"타이어스토리 (진접점)","tel":"031-574-0660","addr":"경기도 남양주시 진접읍 팔야리 729-3번지","indutype":"자동차정비 유지 - 자동차시트·타이어","category":"car"}]},{"lat":"37.750931578","long":"127.22879812","imageIndex":0,"items":[{"name":"현대컨버터","tel":"031-000-0000","addr":"경기도 남양주시 진접읍 팔야리 134-5번지","indutype":"자동차정비 유지 - 자동차부품","category":"car"}]},{"lat":"37.754458869","long":"127.21668982","imageIndex":7,"items":[{"name":"경기마트","tel":"","addr":"경기도 남양주시 진접읍 팔야리 416-10번지 내전부","indutype":"유통업 영리 - 슈퍼마켓","category":"mart"}]},{"lat":"37.745019193","long":"127.20516921","imageIndex":7,"items":[{"name":"블링블링마트","tel":"031-574-2870","addr":"경기도 남양주시 진접읍 팔야리 780번지","indutype":"유통업 영리 - 슈퍼마켓","category":"mart"}]},{"lat":"37.746297352","long":"127.20586481","imageIndex":7,"items":[{"name":"월드마트","tel":"","addr":"경기도 남양주시 진접읍 팔야리 758-4번지","indutype":"유통업 영리 - 슈퍼마켓","category":"mart"}]},{"lat":"37.746325726","long":"127.205082","imageIndex":8,"items":[{"name":"고려의원","tel":"031-527-0933","addr":"경기도 남양주시 진접읍 팔야리 728-1","indutype":"의원 - 의원","category":"medical"},{"name":"광릉내열린약국","tel":"031-573-3421","addr":"경기도 남양주시 진접읍 팔야리 728-1번지","indutype":"약국 - 약국","category":"medical"}]},{"lat":"37.745794593","long":"127.20483094","imageIndex":8,"items":[{"name":"광릉한의원","tel":"031-529-3375","addr":"경기도 남양주시 진접읍 팔야리 798-3번지 1층","indutype":"의원 - 한의원","category":"medical"}]},{"lat":"37.746297352","long":"127.20586481","imageIndex":8,"items":[{"name":"서울의원","tel":"031-528-2297","addr":"경기도 남양주시 진접읍 팔야리 758-4","indutype":"의원 - 의원","category":"medical"}]},{"lat":"37.745211204","long":"127.20352457","imageIndex":8,"items":[{"name":"주치과의원","tel":"031-527-2875","addr":"경기도 남양주시 진접읍 팔야리 797-10 2층","indutype":"의원 - 치과의원","category":"medical"}]},{"lat":"37.746712179","long":"127.20563901","imageIndex":7,"items":[{"name":"광릉내파리바게트","tel":"031-574-4027","addr":"경기도 남양주시 진접읍 팔야리 728-5","indutype":"음료식품 - 제과점","category":"food"}]},{"lat":"37.744492408","long":"127.20236535","imageIndex":7,"items":[{"name":"광릉닭집","tel":"031-527-7604","addr":"경기도 남양주시 진접읍 팔야리 787-1번지","indutype":"음료식품 - 정육점","category":"food"}]},{"lat":"37.752126979","long":"127.2107713","imageIndex":7,"items":[{"name":"국찬푸드","tel":"031-571-2907","addr":"경기도 남양주시 진접읍 팔야리 595-1번지","indutype":"음료식품 - 기타음료식품","category":"food"}]},{"lat":"37.745235674","long":"127.2050223","imageIndex":7,"items":[{"name":"네이팜스","tel":"031-542-0206","addr":"경기도 남양주시 진접읍 팔야리 781-18번지","indutype":"음료식품 - 기타음료식품","category":"food"}]},{"lat":"37.744682605","long":"127.20177587","imageIndex":7,"items":[{"name":"담배잎","tel":"031-000-0000","addr":"경기도 남양주시 진접읍 팔야리 789-11번지 1층 외1필지","indutype":"음료식품 - 기타음료식품","category":"food"}]},{"lat":"37.744683579","long":"127.20119723","imageIndex":7,"items":[{"name":"대보탕제원","tel":"031-527-5484","addr":"경기도 남양주시 진접읍 팔야리 787-10번지 1층 4호 좌측","indutype":"건강식품 - 기타건강식품","category":"food"},{"name":"주식회사 지에스벤자민","tel":"031-574-7825","addr":"경기도 남양주시 진접읍 팔야리 787-10번지","indutype":"음료식품 - 기타음료식품","category":"food"},{"name":"한우지기정육점","tel":"031-527-7162","addr":"경기도 남양주시 진접읍 팔야리 787-10번지","indutype":"음료식품 - 정육점","category":"food"}]},{"lat":"37.747379978","long":"127.21019071","imageIndex":7,"items":[{"name":"동이참숯생오리&장어","tel":"031-529-5260","addr":"경기도 남양주시 진접읍 팔야리 산 88","indutype":"음료식품 - 정육점","category":"food"}]},{"lat":"37.746045418","long":"127.20567123","imageIndex":7,"items":[{"name":"미소정육점","tel":"031-528-6263","addr":"경기도 남양주시 진접읍 팔야리 761-2번지","indutype":"음료식품 - 정육점","category":"food"}]},{"lat":"37.744626011","long":"127.20327338","imageIndex":7,"items":[{"name":"밀레니엄 푸드","tel":"031-528-0141","addr":"경기도 남양주시 진접읍 팔야리 785-1","indutype":"음료식품 - 기타음료식품","category":"food"}]},{"lat":"37.75112273","long":"127.22777748","imageIndex":7,"items":[{"name":"봇뜰","tel":"031-528-3150","addr":"경기도 남양주시 진접읍 팔야리 132-8","indutype":"음료식품 - 기타음료식품","category":"food"}]},{"lat":"37.74490573","long":"127.20302452","imageIndex":7,"items":[{"name":"사계절맛나","tel":"031-527-9931","addr":"경기도 남양주시 진접읍 팔야리 692-27","indutype":"음료식품 - 기타음료식품","category":"food"}]},{"lat":"37.749957489","long":"127.20974403","imageIndex":7,"items":[{"name":"수빈유통","tel":"031-573-4253","addr":"경기도 남양주시 진접읍 팔야리 741-1번지","indutype":"음료식품 - 기타음료식품","category":"food"}]},{"lat":"37.745739816","long":"127.20525059","imageIndex":7,"items":[{"name":"싱싱과일 정가네","tel":"","addr":"경기도 남양주시 진접읍 팔야리 759-1번지","indutype":"음료식품 - 농·축·수산품","category":"food"}]},{"lat":"37.745127502","long":"127.20505605","imageIndex":7,"items":[{"name":"예쁜걸","tel":"031-573-8335","addr":"경기도 남양주시 진접읍 팔야리 781-19번지","indutype":"음료식품 - 기타음료식품","category":"food"}]},{"lat":"37.746431457","long":"127.20646652","imageIndex":7,"items":[{"name":"와싸다푸드","tel":"031-572-7747","addr":"경기도 남양주시 진접읍 팔야리 765-6번지 이플러스 나동 1호","indutype":"음료식품 - 농·축·수산품","category":"food"}]},{"lat":"37.745017338","long":"127.20624707","imageIndex":7,"items":[{"name":"인어아가씨 남양주점","tel":"","addr":"경기도 남양주시 진접읍 팔야리 780-24번지 한양빌딩","indutype":"음료식품 - 농·축·수산품","category":"food"}]},{"lat":"37.750347965","long":"127.22297545","imageIndex":7,"items":[{"name":"주식회사 예주인터내셔널","tel":"070-4705-0650","addr":"경기도 남양주시 진접읍 팔야리 332번지","indutype":"음료식품 - 농·축·수산품","category":"food"}]},{"lat":"37.753319106","long":"127.21422419","imageIndex":7,"items":[{"name":"주식회사 태양의맛","tel":"031-571-8032","addr":"경기도 남양주시 진접읍 팔야리 584번지","indutype":"음료식품 - 기타음료식품","category":"food"}]},{"lat":"37.750099965","long":"127.21069755","imageIndex":7,"items":[{"name":"천안당호두과자남양주점","tel":"031-573-3698","addr":"경기도 남양주시 진접읍 팔야리 550-1","indutype":"음료식품 - 제과점","category":"food"}]},{"lat":"37.746628331","long":"127.20197396","imageIndex":7,"items":[{"name":"푸른해(  )유통","tel":"070-8281-6756","addr":"경기도 남양주시 진접읍 팔야리 815-2번지 푸른해유통","indutype":"음료식품 - 농·축·수산품","category":"food"}]},{"lat":"37.744849295","long":"127.20441992","imageIndex":7,"items":[{"name":"하지.글로벌푸드","tel":"031-572-9141","addr":"경기도 남양주시 진접읍 팔야리 780-28번지","indutype":"음료식품 - 기타음료식품","category":"food"}]},{"lat":"37.747850388","long":"127.20388343","imageIndex":7,"items":[{"name":"한림유통","tel":"","addr":"경기도 남양주시 진접읍 팔야리 818번지 그린아트빌","indutype":"음료식품 - 농·축·수산품","category":"food"}]},{"lat":"37.745628454","long":"127.20713374","imageIndex":16,"items":[{"name":"광릉초등학교병설유치원[아이행복]","tel":"031-527-3396","addr":"경기도 남양주시 진접읍 팔야리 762번지","indutype":"학원 - 유치원","category":"study"}]},{"lat":"37.746655685","long":"127.20178115","imageIndex":16,"items":[{"name":"맘앤파파어린이집[아이행복]","tel":"031-575-9911","addr":"경기도 남양주시 진접읍 팔야리 816-9","indutype":"학원 - 유아원","category":"study"}]},{"lat":"37.744821606","long":"127.2048056","imageIndex":16,"items":[{"name":"선도어린이집[아이행복]","tel":"031-527-0305","addr":"경기도 남양주시 진접읍 팔야리 780-1번지","indutype":"학원 - 유아원","category":"study"}]},{"lat":"37.753039802","long":"127.22405006","imageIndex":16,"items":[{"name":"시립진접어린이집[아이행복]","tel":"031-528-1279","addr":"경기도 남양주시 진접읍 팔야리 387-5번지","indutype":"학원 - 유아원","category":"study"}]},{"lat":"37.746045418","long":"127.20567123","imageIndex":16,"items":[{"name":"이지보습학원","tel":"031-574-6695","addr":"경기도 남양주시 진접읍 팔야리 761-2번지 세안빌딩","indutype":"학원 - 보습학원","category":"study"}]},{"lat":"37.757319577","long":"127.2190584","imageIndex":16,"items":[{"name":"좋은열매어린이집[아이행복]","tel":"031-574-4343","addr":"경기도 남양주시 진접읍 팔야리 402-2","indutype":"학원 - 유아원","category":"study"}]},{"lat":"37.745017338","long":"127.20624707","imageIndex":16,"items":[{"name":"홍룡속셈학원","tel":"031-527-7631","addr":"경기도 남양주시 진접읍 팔야리 780-24번지","indutype":"학원 - 예·체능계학원","category":"study"}]},{"lat":"37.745986031","long":"127.20874587","imageIndex":16,"items":[{"name":"화랑체육관","tel":"031-528-3988","addr":"경기도 남양주시 진접읍 팔야리 772-1번지 3층","indutype":"학원 - 예·체능계학원","category":"study"}]},{"lat":"37.745235674","long":"127.2050223","imageIndex":5,"items":[{"name":"광산장여관","tel":"031-573-7062","addr":"경기도 남양주시 진접읍 팔야리 781-18번지","indutype":"숙박업 - 여관/기타숙박업","category":"hotel"}]},{"lat":"37.744518841","long":"127.20271714","imageIndex":13,"items":[{"name":"넘버원 남성컷 머리염색","tel":"031-573-7587","addr":"경기도 남양주시 진접읍 팔야리 786-15번지 1층","indutype":"보건위생 - 미용원","category":"beauty"}]},{"lat":"37.744825782","long":"127.20760806","imageIndex":13,"items":[{"name":"대한불교조계종용수사","tel":"031-527-2725","addr":"경기도 남양주시 진접읍 팔야리 778-14","indutype":"보건위생 - 기타대인서비스","category":"beauty"}]},{"lat":"37.745570249","long":"127.20430841","imageIndex":13,"items":[{"name":"류헤어샵","tel":"031-529-3083","addr":"경기도 남양주시 진접읍 팔야리 797-15번지 1층","indutype":"보건위생 - 미용원","category":"beauty"}]},{"lat":"37.745352973","long":"127.20492051","imageIndex":13,"items":[{"name":"머리하는","tel":"031-527-1175","addr":"경기도 남양주시 진접읍 팔야리 781-13번지 외1필지","indutype":"보건위생 - 미용원","category":"beauty"}]},{"lat":"37.744796902","long":"127.20344403","imageIndex":13,"items":[{"name":"머리하는날","tel":"031-573-9155","addr":"경기도 남양주시 진접읍 팔야리 784번지","indutype":"보건위생 - 미용원","category":"beauty"}]},{"lat":"37.744629102","long":"127.20144669","imageIndex":13,"items":[{"name":"스타미용실","tel":"031-528-3384","addr":"경기도 남양주시 진접읍 팔야리 789-17번지","indutype":"보건위생 - 미용원","category":"beauty"}]},{"lat":"37.745076235","long":"127.20342209","imageIndex":13,"items":[{"name":"양지미용실","tel":"031-527-7640","addr":"경기도 남양주시 진접읍 팔야리 797-9번지","indutype":"보건위생 - 미용원","category":"beauty"}]},{"lat":"37.745461242","long":"127.20483003","imageIndex":13,"items":[{"name":"연헤어","tel":"031-573-1363","addr":"경기도 남양주시 진접읍 팔야리 781-12번지 1층","indutype":"보건위생 - 미용원","category":"beauty"}]},{"lat":"37.752379923","long":"127.22993723","imageIndex":13,"items":[{"name":"유원에이앤씨","tel":"031-521-3372","addr":"경기도 남양주시 진접읍 팔야리 140번지","indutype":"보건위생 - 의료용품","category":"beauty"}]},{"lat":"37.746879568","long":"127.22760579","imageIndex":13,"items":[{"name":"주식회사 제이디트렉션","tel":"031-529-0953","addr":"경기도 남양주시 진접읍 팔야리 299-5번지 다동","indutype":"보건위생 - 의료용품","category":"beauty"}]},{"lat":"37.748430132","long":"127.20730029","imageIndex":13,"items":[{"name":"천궁사","tel":"031-575-8930","addr":"경기도 남양주시 진접읍 팔야리 732-14번지 수덕빌라 가동 401호","indutype":"보건위생 - 기타대인서비스","category":"beauty"}]},{"lat":"37.75007253","long":"127.22089818","imageIndex":13,"items":[{"name":"천화당 설화애기씨","tel":"","addr":"경기도 남양주시 진접읍 팔야리 489-6번지 삼성주택 라동 301호","indutype":"보건위생 - 기타대인서비스","category":"beauty"}]},{"lat":"37.747512695","long":"127.20641275","imageIndex":13,"items":[{"name":"늘봄 노래연습장","tel":"031-571-9514","addr":"경기도 남양주시 진접읍 팔야리 729-4번지 지하1층","indutype":"레저업소 - 노 래 방","category":"leisure"}]},{"lat":"37.745076235","long":"127.20342209","imageIndex":13,"items":[{"name":"다크 노래연습장","tel":"031-571-1111","addr":"경기도 남양주시 진접읍 팔야리 797-9번지 2층","indutype":"레저업소 - 노 래 방","category":"leisure"}]},{"lat":"37.745570249","long":"127.20430841","imageIndex":13,"items":[{"name":"독수리 당구클럽","tel":"031-865-8735","addr":"경기도 남양주시 진접읍 팔야리 797-15번지 2층","indutype":"레저업소 - 당 구 장","category":"leisure"},{"name":"파랑새 노래연습장","tel":"031-529-1246","addr":"경기도 남양주시 진접읍 팔야리 797-15번지 지층","indutype":"레저업소 - 노 래 방","category":"leisure"}]},{"lat":"37.74442986","long":"127.20205884","imageIndex":13,"items":[{"name":"베어스당구장","tel":"031-571-8649","addr":"경기도 남양주시 진접읍 팔야리 786-10번지","indutype":"레저업소 - 당 구 장","category":"leisure"}]},{"lat":"37.746325726","long":"127.205082","imageIndex":13,"items":[{"name":"종점당구클럽","tel":"031-528-4268","addr":"경기도 남양주시 진접읍 팔야리 728-1번지 2층","indutype":"레저업소 - 당 구 장","category":"leisure"}]},{"lat":"37.74510191","long":"127.20421637","imageIndex":13,"items":[{"name":"킹당구장","tel":"031-529-9189","addr":"경기도 남양주시 진접읍 팔야리 783-8번지 수정빌딩 3층","indutype":"레저업소 - 당 구 장","category":"leisure"}]}]