[{"lat":"37.293900213","long":"127.12071322","imageIndex":13,"items":[{"name":"JL골프아카데미","tel":"031-275-3107","addr":"경기도 용인시 기흥구 언남동 336-7번지 멀티프라자 310호","indutype":"레저업소 - 골프연습장","category":"leisure"},{"name":"점프북","tel":"","addr":"경기도 용인시 기흥구 언남동 336-7번지 멀티프라자 209,210호","indutype":"레저업소 - 기타레져업소","category":"leisure"},{"name":"점프스쿨","tel":"031-285-8883","addr":"경기도 용인시 기흥구 언남동 336-7번지 멀티프라자 2층 211호","indutype":"레저업소 - 기타레져업소","category":"leisure"},{"name":"피디에스(PDS)PC CAFE","tel":"","addr":"경기도 용인시 기흥구 언남동 336-7번지 201,202호","indutype":"레저업소 - 기타레져업소","category":"leisure"}]},{"lat":"37.29409902","long":"127.12012708","imageIndex":13,"items":[{"name":"MY운동본부","tel":"031-283-1753","addr":"경기도 용인시 기흥구 언남동 336-5번지 타임빌딩 4층","indutype":"레저업소 - 헬스클럽","category":"leisure"}]},{"lat":"37.2913788","long":"127.12807349","imageIndex":13,"items":[{"name":"O.K당구장","tel":"031-284-1120","addr":"경기도 용인시 기흥구 언남동 166-1번지","indutype":"레저업소 - 당 구 장","category":"leisure"}]},{"lat":"37.29501566","long":"127.12253073","imageIndex":13,"items":[{"name":"김병호프로아카데미","tel":"031-259-2171","addr":"경기도 용인시 기흥구 언남동 493번지 하마비마을동부센트레빌 107동 1301호","indutype":"레저업소 - 골프연습장","category":"leisure"}]},{"lat":"37.293902569","long":"127.11832232","imageIndex":13,"items":[{"name":"뉴존노래연습장","tel":"031-287-8296","addr":"경기도 용인시 기흥구 언남동 408외3필지삼성리지프라자201,202호","indutype":"레저업소 - 노 래 방","category":"leisure"}]},{"lat":"37.293017064","long":"127.12085846","imageIndex":13,"items":[{"name":"동일당구장","tel":"031-285-9909","addr":"경기도 용인시 기흥구 언남동 416-1번지 용구프라자 3층 301호","indutype":"레저업소 - 당 구 장","category":"leisure"},{"name":"미유필라테스","tel":"","addr":"경기도 용인시 기흥구 언남동 416-1번지 용구프라자 2층 201호","indutype":"레저업소 - 헬스클럽","category":"leisure"},{"name":"훼밀리스크린골프","tel":"031-283-0759","addr":"경기도 용인시 기흥구 언남동 416-1번지 용구프라자 302호","indutype":"레저업소 - 스크린골프","category":"leisure"}]},{"lat":"37.294513681","long":"127.119936","imageIndex":13,"items":[{"name":"로얄당구장","tel":"02-000-0000","addr":"경기도 용인시 기흥구 언남동 336-3번지 언남프라자 307호,308호","indutype":"레저업소 - 당 구 장","category":"leisure"},{"name":"엔큐브 PC","tel":"070-7299-1098","addr":"경기도 용인시 기흥구 언남동 336-3번지 언남프라자 305,306호","indutype":"레저업소 - 기타레져업소","category":"leisure"},{"name":"채플린 노래연습장","tel":"031-284-9905","addr":"경기도 용인시 기흥구 언남동 336-3번지 언남프라자 302,303호","indutype":"레저업소 - 노 래 방","category":"leisure"}]},{"lat":"37.295290758","long":"127.11769287","imageIndex":13,"items":[{"name":"아리랑노래연습장","tel":"031-285-8971","addr":"경기도 용인시 기흥구 언남동 371-10번지","indutype":"레저업소 - 노 래 방","category":"leisure"}]},{"lat":"37.29410022","long":"127.11890907","imageIndex":13,"items":[{"name":"아이디스튜디오","tel":"","addr":"경기도 용인시 기흥구 언남동 412-2번지 B101-2호","indutype":"레저업소 - 헬스클럽","category":"leisure"},{"name":"용인대 YP 복싱짐","tel":"","addr":"경기도 용인시 기흥구 언남동 412-2번지 4층 403-1호","indutype":"레저업소 - 헬스클럽","category":"leisure"},{"name":"키득키득만화카페","tel":"031-282-7989","addr":"경기도 용인시 기흥구 언남동 412-2번지 시간과공간 501호 일부","indutype":"레저업소 - 기타레져업소","category":"leisure"},{"name":"킹콩점프 구성점","tel":"031-283-1579","addr":"경기도 용인시 기흥구 언남동 412-2번지 국민은행 303호","indutype":"레저업소 - 기타레져업소","category":"leisure"}]},{"lat":"37.29182042","long":"127.12796145","imageIndex":13,"items":[{"name":"언남짐머퍼스널트레이닝헬스피티","tel":"031-286-2994","addr":"경기도 용인시 기흥구 언남동 147-8번지","indutype":"레저업소 - 헬스클럽","category":"leisure"}]},{"lat":"37.291766941","long":"127.12740876","imageIndex":13,"items":[{"name":"엔오엔짐","tel":"031-287-5559","addr":"경기도 용인시 기흥구 언남동 163-7번지 2,3층","indutype":"레저업소 - 헬스클럽","category":"leisure"}]},{"lat":"37.294794658","long":"127.11824473","imageIndex":13,"items":[{"name":"와와노래방","tel":"031-283-7080","addr":"경기도 용인시 기흥구 언남동 361번지 지하1층","indutype":"레저업소 - 노 래 방","category":"leisure"},{"name":"와와노래연습장","tel":"031-283-7080","addr":"경기도 용인시 기흥구 언남동 361번지","indutype":"레저업소 - 노 래 방","category":"leisure"}]},{"lat":"37.289239816","long":"127.12280351","imageIndex":13,"items":[{"name":"초원마을성원상떼빌입주자대표회의","tel":"031-275-5656","addr":"경기도 용인시 기흥구 언남동 500번지 초원마을성원상떼빌","indutype":"레저업소 - 헬스클럽","category":"leisure"}]},{"lat":"37.293378001","long":"127.12032896","imageIndex":13,"items":[{"name":"탑플레이스 용인언남점","tel":"070-5399-3244","addr":"경기도 용인시 기흥구 언남동 416-7번지 푸른 종합상가 301호,302호","indutype":"레저업소 - 기타레져업소","category":"leisure"}]},{"lat":"37.292428487","long":"127.12374462","imageIndex":13,"items":[{"name":"홀인원스크린골프장","tel":"031-283-9997","addr":"경기도 용인시 기흥구 언남동 255-1번지 202호","indutype":"레저업소 - 스크린골프","category":"leisure"}]}]