[{"lat":"37.848939971","long":"126.87544709","imageIndex":13,"items":[{"name":"V라인S라인","tel":"070-2699-0807","addr":"경기도 파주시 법원읍 대능리 81-30번지","indutype":"보건위생 - 피부미용실","category":"beauty"}]},{"lat":"37.849270925","long":"126.87325367","imageIndex":13,"items":[{"name":"강남스타일","tel":"070-8956-2561","addr":"경기도 파주시 법원읍 대능리 86-24번지","indutype":"보건위생 - 미용원","category":"beauty"}]},{"lat":"37.848801635","long":"126.87252734","imageIndex":13,"items":[{"name":"경희헤어샵","tel":"031-958-9983","addr":"경기도 파주시 법원읍 대능리 97-8번지 2층","indutype":"보건위생 - 미용원","category":"beauty"}]},{"lat":"37.850190853","long":"126.8741383","imageIndex":13,"items":[{"name":"김혜수헤어","tel":"031-959-6977","addr":"경기도 파주시 법원읍 대능리 89-17번지","indutype":"보건위생 - 미용원","category":"beauty"}]},{"lat":"37.849997778","long":"126.87063913","imageIndex":13,"items":[{"name":"루나헤어","tel":"031-959-8487","addr":"경기도 파주시 법원읍 대능리 94-96번지","indutype":"보건위생 - 미용원","category":"beauty"}]},{"lat":"37.848999715","long":"126.87241337","imageIndex":13,"items":[{"name":"미미미용실","tel":"031-958-2393","addr":"경기도 파주시 법원읍 대능리 94-105번지","indutype":"보건위생 - 미용원","category":"beauty"},{"name":"미미안경원","tel":"031-958-4542","addr":"경기도 파주시 법원읍 대능리 94-105번지","indutype":"보건위생 - 안경","category":"beauty"}]},{"lat":"37.849163324","long":"126.8737197","imageIndex":13,"items":[{"name":"미소헤어","tel":"","addr":"경기도 파주시 법원읍 대능리 87-7번지","indutype":"보건위생 - 미용원","category":"beauty"}]},{"lat":"37.848939848","long":"126.87533348","imageIndex":13,"items":[{"name":"미용실","tel":"031-958-9972","addr":"경기도 파주시 법원읍 대능리 81-31","indutype":"보건위생 - 미용원","category":"beauty"}]},{"lat":"37.850606286","long":"126.87505791","imageIndex":13,"items":[{"name":"백유리헤어","tel":"031-959-6889","addr":"경기도 파주시 법원읍 대능리 91-11번지","indutype":"보건위생 - 미용원","category":"beauty"}]},{"lat":"37.84897389","long":"126.87350415","imageIndex":13,"items":[{"name":"솔리드헤어뱅크","tel":"031-958-8294","addr":"경기도 파주시 법원읍 대능리 85-9번지","indutype":"보건위생 - 미용원","category":"beauty"}]},{"lat":"37.849251372","long":"126.87186755","imageIndex":13,"items":[{"name":"수피부이야기","tel":"031-959-1013","addr":"경기도 파주시 법원읍 대능리 94-20번지","indutype":"보건위생 - 피부미용실","category":"beauty"}]},{"lat":"37.850054977","long":"126.87346818","imageIndex":13,"items":[{"name":"엣지머리방","tel":"031-959-9137","addr":"경기도 파주시 법원읍 대능리 92-46","indutype":"보건위생 - 미용원","category":"beauty"}]},{"lat":"37.849244682","long":"126.87396952","imageIndex":13,"items":[{"name":"조금옥헤어칼라","tel":"031-958-5258","addr":"경기도 파주시 법원읍 대능리 87-16번지","indutype":"보건위생 - 미용원","category":"beauty"}]},{"lat":"37.849334987","long":"126.87416252","imageIndex":13,"items":[{"name":"조금옥헤어칼라","tel":"031-959-3761","addr":"경기도 파주시 법원읍 대능리 87-11번지","indutype":"보건위생 - 미용재료","category":"beauty"}]},{"lat":"37.849523424","long":"126.87346911","imageIndex":13,"items":[{"name":"퍼플헤어샵","tel":"070-8887-3731","addr":"경기도 파주시 법원읍 대능리 86-17번지","indutype":"보건위생 - 미용원","category":"beauty"}]}]