[{"lat":"37.643309803","long":"127.29532153","imageIndex":17,"items":[{"name":"(사)경중연 남양주진흥회","tel":"070-7435-3993","addr":"경기도 남양주시 화도읍 녹촌리 91-1번지","indutype":"기타 - 비영리/비대상","category":"other"}]},{"lat":"37.64399823","long":"127.27882693","imageIndex":17,"items":[{"name":"(주)광전테크","tel":"031-511-0143","addr":"경기도 남양주시 화도읍 녹촌리 515-2번지","indutype":"신변잡화 - 기타잡화","category":"other"}]},{"lat":"37.651969534","long":"127.28360444","imageIndex":17,"items":[{"name":"(주)대성침대","tel":"070-8156-8989","addr":"경기도 남양주시 화도읍 녹촌리 489-1번지 1층","indutype":"가구 - 일반가구","category":"other"},{"name":"리바트키즈마석점","tel":"031-205-5309","addr":"경기도 남양주시 화도읍 녹촌리 489-1번지","indutype":"가구 - 일반가구","category":"other"}]},{"lat":"37.652222395","long":"127.28335609","imageIndex":17,"items":[{"name":"(주)더 퍼스트 중앙점","tel":"031-593-2550","addr":"경기도 남양주시 화도읍 녹촌리 492-9번지","indutype":"가구 - 일반가구","category":"other"}]},{"lat":"37.646972383","long":"127.28224857","imageIndex":17,"items":[{"name":"(주)수호시그널","tel":"02-493-4488","addr":"경기도 남양주시 화도읍 녹촌리 465-13번지","indutype":"건축자재 - 기타건축자재","category":"other"},{"name":"팀버크라프트","tel":"070-8804-7973","addr":"경기도 남양주시 화도읍 녹촌리 465-13번지","indutype":"가구 - 일반가구","category":"other"}]},{"lat":"37.643477842","long":"127.28552132","imageIndex":17,"items":[{"name":"(주)에이티라이팅","tel":"031-1111-1111","addr":"경기도 남양주시 화도읍 녹촌리 338번지","indutype":"건축자재 - 조명기구","category":"other"}]},{"lat":"37.646169528","long":"127.29016585","imageIndex":17,"items":[{"name":"(주)에프엠가구","tel":"031-559-3348","addr":"경기도 남양주시 화도읍 녹촌리 198-8번지","indutype":"가구 - 일반가구","category":"other"}]},{"lat":"37.651803166","long":"127.2890997","imageIndex":17,"items":[{"name":"(주)을지가구공업사","tel":"031-592-1702","addr":"경기도 남양주시 화도읍 녹촌리 산24-6","indutype":"가구 - 일반가구","category":"other"}]},{"lat":"37.653643481","long":"127.28813221","imageIndex":17,"items":[{"name":"(주)진영씨엔엘","tel":"031-511-9236","addr":"경기도 남양주시 화도읍 녹촌리 262번지","indutype":"기타 - 기계공구","category":"other"}]},{"lat":"37.654554449","long":"127.28396546","imageIndex":17,"items":[{"name":"(주)해든바이엔","tel":"031-576-7924","addr":"경기도 남양주시 화도읍 녹촌리 산32-7번지","indutype":"레져용품 - 스포츠·레져용품","category":"other"}]},{"lat":"37.644359842","long":"127.29696858","imageIndex":17,"items":[{"name":"GS25화도위브점","tel":"02-2006-2485","addr":"경기도 남양주시 화도읍 녹촌리 83번지 기인상가 102동 103호","indutype":"유통업 영리 - 편 의 점","category":"other"},{"name":"두산세탁소","tel":"031-591-7338","addr":"경기도 남양주시 화도읍 녹촌리 83번지 203호","indutype":"수리서비스 - 세탁소","category":"other"}]},{"lat":"37.637783764","long":"127.28171566","imageIndex":17,"items":[{"name":"K2모던디자인","tel":"031-8086-7164","addr":"경기도 남양주시 화도읍 녹촌리 383-1번지","indutype":"가구 - 일반가구","category":"other"}]},{"lat":"37.651139255","long":"127.28038312","imageIndex":17,"items":[{"name":"가가건설","tel":"031-511-4854","addr":"경기도 남양주시 화도읍 녹촌리 488-141","indutype":"용역 서비스 - 기타용역서비스","category":"other"}]},{"lat":"37.652275396","long":"127.27999074","imageIndex":17,"items":[{"name":"가구 하이마트","tel":"031-594-9942","addr":"경기도 남양주시 화도읍 녹촌리 496-79번지 성생공단내 1층","indutype":"가구 - 일반가구","category":"other"},{"name":"로랑스","tel":"070-8851-7094","addr":"경기도 남양주시 화도읍 녹촌리 496-79","indutype":"가구 - 일반가구","category":"other"},{"name":"상일가구","tel":"031-511-4766","addr":"경기도 남양주시 화도읍 녹촌리 496-79번지","indutype":"가구 - 일반가구","category":"other"},{"name":"이글리빙","tel":"031-592-9902","addr":"경기도 남양주시 화도읍 녹촌리 496-79번지","indutype":"가구 - 일반가구","category":"other"}]},{"lat":"37.653781862","long":"127.28302199","imageIndex":17,"items":[{"name":"가구나라","tel":"070-8128-6448","addr":"경기도 남양주시 화도읍 녹촌리 495-8번지 1층","indutype":"가구 - 일반가구","category":"other"},{"name":"수갤러리","tel":"031-594-1092","addr":"경기도 남양주시 화도읍 녹촌리 495-8번지","indutype":"가구 - 일반가구","category":"other"}]},{"lat":"37.644304875","long":"127.2786921","imageIndex":17,"items":[{"name":"가구디스플레이","tel":"031-593-0225","addr":"경기도 남양주시 화도읍 녹촌리 515-1번지 4,5,6동","indutype":"가구 - 일반가구","category":"other"}]},{"lat":"37.653419025","long":"127.28405184","imageIndex":17,"items":[{"name":"가구명장","tel":"031-593-4570","addr":"경기도 남양주시 화도읍 녹촌리 269-24번지 1층","indutype":"가구 - 일반가구","category":"other"},{"name":"삼익가구","tel":"031-594-4422","addr":"경기도 남양주시 화도읍 녹촌리 269-24번지","indutype":"가구 - 일반가구","category":"other"},{"name":"이태리디자인가구","tel":"031-594-8571","addr":"경기도 남양주시 화도읍 녹촌리 269-24번지","indutype":"가구 - 일반가구","category":"other"}]},{"lat":"37.653200089","long":"127.28518421","imageIndex":17,"items":[{"name":"가구아울렛","tel":"031-595-5377","addr":"경기도 남양주시 화도읍 녹촌리 269-15번지","indutype":"가구 - 일반가구","category":"other"}]},{"lat":"37.654221472","long":"127.28380556","imageIndex":17,"items":[{"name":"가구아울렛","tel":"","addr":"경기도 남양주시 화도읍 녹촌리 497번지","indutype":"가구 - 일반가구","category":"other"}]},{"lat":"37.6522257","long":"127.28196229","imageIndex":17,"items":[{"name":"가구연금매장","tel":"031-593-8882","addr":"경기도 남양주시 화도읍 녹촌리 491-32번지","indutype":"가구 - 일반가구","category":"other"},{"name":"훈디자인","tel":"031-559-6544","addr":"경기도 남양주시 화도읍 녹촌리 491-32번지","indutype":"가구 - 일반가구","category":"other"}]},{"lat":"37.642222501","long":"127.29416158","imageIndex":17,"items":[{"name":"가인","tel":"031-559-1319","addr":"경기도 남양주시 화도읍 녹촌리 156번지","indutype":"가구 - 일반가구","category":"other"}]},{"lat":"37.652580689","long":"127.29896141","imageIndex":17,"items":[{"name":"갈돌세무회계사무소","tel":"031-594-9112","addr":"경기도 남양주시 화도읍 녹촌리 13-17번지 문성빌딩 B동 202호","indutype":"용역 서비스 - 법률회계서비스(개인)","category":"other"},{"name":"부광목재","tel":"031-594-5030","addr":"경기도 남양주시 화도읍 녹촌리 13-17번지","indutype":"건축자재 - 기타건축자재","category":"other"}]},{"lat":"37.652448333","long":"127.27924348","imageIndex":17,"items":[{"name":"갤러리가구","tel":"031-595-4367","addr":"경기도 남양주시 화도읍 녹촌리 496-83번지","indutype":"가구 - 일반가구","category":"other"},{"name":"아리지안(Arijian)","tel":"02-543-1248","addr":"경기도 남양주시 화도읍 녹촌리 496-83번지 3층","indutype":"직물 - 침구·수예점","category":"other"}]},{"lat":"37.654724576","long":"127.28815901","imageIndex":17,"items":[{"name":"거성침대","tel":"","addr":"경기도 남양주시 화도읍 녹촌리 산30번지 1층","indutype":"가구 - 일반가구","category":"other"}]},{"lat":"37.643923214","long":"127.29501801","imageIndex":17,"items":[{"name":"경기종합상사","tel":"031-593-5559","addr":"경기도 남양주시 화도읍 녹촌리 90-19","indutype":"건축자재 - 기타건축자재","category":"other"}]},{"lat":"37.651580745","long":"127.2952973","imageIndex":17,"items":[{"name":"골프에비뉴","tel":"","addr":"경기도 남양주시 화도읍 녹촌리 564번지 남양주라온프라이빗2단지 201동 503호","indutype":"레져용품 - 스포츠·레져용품","category":"other"},{"name":"씨유마석라온중앙점","tel":"080-080-3663","addr":"경기도 남양주시 화도읍 녹촌리 564번지 2단지 상가동 1층 105호","indutype":"유통업 영리 - 편 의 점","category":"other"}]},{"lat":"37.638756483","long":"127.28563939","imageIndex":17,"items":[{"name":"그린천막간판","tel":"031-511-0191","addr":"경기도 남양주시 화도읍 녹촌리 산79-91번지 나동","indutype":"직물 - 카페트,커튼,천막,지물","category":"other"}]},{"lat":"37.652724746","long":"127.28427586","imageIndex":17,"items":[{"name":"금성철물","tel":"031-511-2766","addr":"경기도 남양주시 화도읍 녹촌리 269-64","indutype":"기타 - 기계공구","category":"other"}]},{"lat":"37.63863882","long":"127.28208141","imageIndex":17,"items":[{"name":"까미가구(KKAMI FURNITURE)","tel":"031-592-2492","addr":"경기도 남양주시 화도읍 녹촌리 396-4번지","indutype":"가구 - 일반가구","category":"other"}]},{"lat":"37.651753438","long":"127.28354696","imageIndex":17,"items":[{"name":"까사데코","tel":"031-594-7251","addr":"경기도 남양주시 화도읍 녹촌리 489-2번지","indutype":"가구 - 일반가구","category":"other"}]},{"lat":"37.652502656","long":"127.27913036","imageIndex":17,"items":[{"name":"까사미아. 데일리까사미아 남양주점","tel":"031-595-4572","addr":"경기도 남양주시 화도읍 녹촌리 496-84번지 1층","indutype":"가구 - 일반가구","category":"other"},{"name":"이성용갤러리","tel":"031-594-5963","addr":"경기도 남양주시 화도읍 녹촌리 496-84번지","indutype":"가구 - 일반가구","category":"other"},{"name":"최용범아트갤러리","tel":"031-111-1111","addr":"경기도 남양주시 화도읍 녹촌리 496-84번지","indutype":"가구 - 일반가구","category":"other"}]},{"lat":"37.652973845","long":"127.28560263","imageIndex":17,"items":[{"name":"꾸밈터","tel":"070-8868-7625","addr":"경기도 남양주시 화도읍 녹촌리 산31-11번지","indutype":"신변잡화 - 기타잡화","category":"other"},{"name":"이벤트","tel":"031-6280-0037","addr":"경기도 남양주시 화도읍 녹촌리 산31-11번지","indutype":"가구 - 일반가구","category":"other"}]},{"lat":"37.641278089","long":"127.28982977","imageIndex":17,"items":[{"name":"나그네캠핑카","tel":"","addr":"경기도 남양주시 화도읍 녹촌리 356-1번지 2동","indutype":"레져용품 - 스포츠·레져용품","category":"other"}]},{"lat":"37.653086669","long":"127.2836313","imageIndex":17,"items":[{"name":"내당가구","tel":"031-594-4144","addr":"경기도 남양주시 화도읍 녹촌리 269-39번지","indutype":"가구 - 일반가구","category":"other"},{"name":"프리미럼 아울렛","tel":"031-511-8845","addr":"경기도 남양주시 화도읍 녹촌리 269-39번지","indutype":"가구 - 일반가구","category":"other"}]},{"lat":"37.652725287","long":"127.28404922","imageIndex":17,"items":[{"name":"다우닝가구","tel":"031-591-0242","addr":"경기도 남양주시 화도읍 녹촌리 269-45번지 성생공단","indutype":"가구 - 일반가구","category":"other"}]},{"lat":"37.651225019","long":"127.28221917","imageIndex":17,"items":[{"name":"다인","tel":"031-592-6720","addr":"경기도 남양주시 화도읍 녹촌리 488-36","indutype":"회원제형태 - 기타4","category":"other"}]},{"lat":"37.638448072","long":"127.27890837","imageIndex":17,"items":[{"name":"다인패브릭","tel":"031-593-5997","addr":"경기도 남양주시 화도읍 녹촌리 385-2번지 1동","indutype":"직물 - 카페트,커튼,천막,지물","category":"other"}]},{"lat":"37.639000062","long":"127.28172021","imageIndex":17,"items":[{"name":"대광스포지","tel":"031-595-1412","addr":"경기도 남양주시 화도읍 녹촌리 395-2번지","indutype":"기타 - 기타 전문점","category":"other"}]},{"lat":"37.653754605","long":"127.2942746","imageIndex":17,"items":[{"name":"대우특수무늬목","tel":"031-594-8555","addr":"경기도 남양주시 화도읍 녹촌리 247","indutype":"건축자재 - 목재·석재·철물","category":"other"},{"name":"우전전기조명","tel":"031-511-0745","addr":"경기도 남양주시 화도읍 녹촌리 247번지","indutype":"건축자재 - 조명기구","category":"other"},{"name":"홀인원스크린골프","tel":"031-594-8994","addr":"경기도 남양주시 화도읍 녹촌리 247번지 2층","indutype":"회원제형태 - 레져업소","category":"other"}]},{"lat":"37.640977651","long":"127.29110892","imageIndex":17,"items":[{"name":"대한IF","tel":"02-2245-7442","addr":"경기도 남양주시 화도읍 녹촌리 139번지","indutype":"가구 - 일반가구","category":"other"}]},{"lat":"37.642112806","long":"127.29113596","imageIndex":17,"items":[{"name":"대흥포장","tel":"031-591-3545","addr":"경기도 남양주시 화도읍 녹촌리 148-1","indutype":"유통업 영리 - 기타유통업","category":"other"}]},{"lat":"37.640950498","long":"127.2836876","imageIndex":17,"items":[{"name":"더광고기획","tel":"070-8834-3108","addr":"경기도 남양주시 화도읍 녹촌리 408-2번지","indutype":"건축자재 - 인테리어전문","category":"other"}]},{"lat":"37.653390672","long":"127.284607","imageIndex":17,"items":[{"name":"더필더디자인","tel":"031-593-4312","addr":"경기도 남양주시 화도읍 녹촌리 269-28번지","indutype":"가구 - 일반가구","category":"other"},{"name":"아씨방","tel":"031-592-7821","addr":"경기도 남양주시 화도읍 녹촌리 269-28번지","indutype":"가구 - 일반가구","category":"other"}]},{"lat":"37.653945163","long":"127.28254666","imageIndex":17,"items":[{"name":"동서가구","tel":"031-594-4166","addr":"경기도 남양주시 화도읍 녹촌리 495-25번지","indutype":"가구 - 일반가구","category":"other"},{"name":"마석동서가구","tel":"031-559-7172","addr":"경기도 남양주시 화도읍 녹촌리 495-25번지 성생공단","indutype":"가구 - 일반가구","category":"other"},{"name":"엘림가구","tel":"031-594-5758","addr":"경기도 남양주시 화도읍 녹촌리 495-25번지","indutype":"가구 - 일반가구","category":"other"}]},{"lat":"37.651970584","long":"127.2831625","imageIndex":17,"items":[{"name":"두남자의 가구","tel":"070-8879-0882","addr":"경기도 남양주시 화도읍 녹촌리 490-6","indutype":"가구 - 일반가구","category":"other"},{"name":"삼익가구","tel":"031-594-5057","addr":"경기도 남양주시 화도읍 녹촌리 490-6번지 삼익가구","indutype":"가구 - 일반가구","category":"other"},{"name":"지미엔코","tel":"070-4129-5667","addr":"경기도 남양주시 화도읍 녹촌리 490-6번지 1-3층","indutype":"가구 - 일반가구","category":"other"}]},{"lat":"37.651973941","long":"127.28174604","imageIndex":17,"items":[{"name":"드림메이드","tel":"031-593-8965","addr":"경기도 남양주시 화도읍 녹촌리 486-12번지","indutype":"가구 - 일반가구","category":"other"},{"name":"마석가구1번가","tel":"031-511-5904","addr":"경기도 남양주시 화도읍 녹촌리 486-12번지 1층 성생공단","indutype":"가구 - 일반가구","category":"other"},{"name":"마석인까사","tel":"031-593-8965","addr":"경기도 남양주시 화도읍 녹촌리 486-12번지","indutype":"가구 - 일반가구","category":"other"},{"name":"주식회사 편백촌 화도점","tel":"031-593-8965","addr":"경기도 남양주시 화도읍 녹촌리 486-12번지","indutype":"가구 - 일반가구","category":"other"}]},{"lat":"37.652583317","long":"127.28313081","imageIndex":17,"items":[{"name":"디자인view(디자인뷰)","tel":"031-511-8263","addr":"경기도 남양주시 화도읍 녹촌리 496-57번지","indutype":"가구 - 일반가구","category":"other"}]},{"lat":"37.652309862","long":"127.28065944","imageIndex":17,"items":[{"name":"디자인본","tel":"031-511-6768","addr":"경기도 남양주시 화도읍 녹촌리 491-2번지","indutype":"가구 - 일반가구","category":"other"},{"name":"소프라가구","tel":"070-5031-0327","addr":"경기도 남양주시 화도읍 녹촌리 491-2번지","indutype":"가구 - 일반가구","category":"other"}]},{"lat":"37.652581727","long":"127.28379938","imageIndex":17,"items":[{"name":"디자인에프","tel":"031-592-6551","addr":"경기도 남양주시 화도읍 녹촌리 494-18번지","indutype":"가구 - 일반가구","category":"other"}]},{"lat":"37.653636254","long":"127.28363337","imageIndex":17,"items":[{"name":"떼아모","tel":"031-593-7878","addr":"경기도 남양주시 화도읍 녹촌리 495-33번지","indutype":"가구 - 일반가구","category":"other"}]},{"lat":"37.654637584","long":"127.28310453","imageIndex":17,"items":[{"name":"라이프가구","tel":"031-591-9184","addr":"경기도 남양주시 화도읍 녹촌리 497-3번지","indutype":"가구 - 일반가구","category":"other"},{"name":"리히트(레이디가구)","tel":"031-595-7949","addr":"경기도 남양주시 화도읍 녹촌리 497-3번지","indutype":"가구 - 일반가구","category":"other"},{"name":"상장기업","tel":"031-594-7300","addr":"경기도 남양주시 화도읍 녹촌리 497-3번지","indutype":"가구 - 기타가구","category":"other"}]},{"lat":"37.651420676","long":"127.28329641","imageIndex":17,"items":[{"name":"라인필쇼파","tel":"031-595-5507","addr":"경기도 남양주시 화도읍 녹촌리 488-44번지","indutype":"가구 - 일반가구","category":"other"},{"name":"중소기업가구","tel":"031-591-5935","addr":"경기도 남양주시 화도읍 녹촌리 488-44번지","indutype":"가구 - 일반가구","category":"other"}]},{"lat":"37.652054304","long":"127.2820523","imageIndex":17,"items":[{"name":"라파엘가구","tel":"031-595-0477","addr":"경기도 남양주시 화도읍 녹촌리 486-13번지","indutype":"가구 - 일반가구","category":"other"}]},{"lat":"37.651753877","long":"127.27954686","imageIndex":17,"items":[{"name":"로얄이미지","tel":"031-591-8643","addr":"경기도 남양주시 화도읍 녹촌리 488-11번지","indutype":"가구 - 기타가구","category":"other"},{"name":"하나 디자인","tel":"02-514-1001","addr":"경기도 남양주시 화도읍 녹촌리 488-11번지","indutype":"건축자재 - 인테리어전문","category":"other"}]},{"lat":"37.652255217","long":"127.28090854","imageIndex":17,"items":[{"name":"루씨 디자인갤러리(Design gallery)","tel":"031-511-8686","addr":"경기도 남양주시 화도읍 녹촌리 491-11번지","indutype":"가구 - 일반가구","category":"other"},{"name":"오크프라자","tel":"031-711-0291","addr":"경기도 남양주시 화도읍 녹촌리 491-11번지","indutype":"가구 - 일반가구","category":"other"}]},{"lat":"37.642304147","long":"127.29393529","imageIndex":17,"items":[{"name":"리본팝","tel":"031-562-0902","addr":"경기도 남양주시 화도읍 녹촌리 156-4번지 (리본팝)","indutype":"신변잡화 - 기타잡화","category":"other"}]},{"lat":"37.654476686","long":"127.29374481","imageIndex":17,"items":[{"name":"마강공구철물","tel":"031-594-8131","addr":"경기도 남양주시 화도읍 녹촌리 248-1번지","indutype":"건축자재 - 목재·석재·철물","category":"other"},{"name":"마석아동복","tel":"031-591-9191","addr":"경기도 남양주시 화도읍 녹촌리 248-1번지","indutype":"의류 - 아동의류","category":"other"},{"name":"엘르마석점","tel":"031-593-5225","addr":"경기도 남양주시 화도읍 녹촌리 248-1번지 1층 2호","indutype":"직물 - 침구·수예점","category":"other"}]},{"lat":"37.651832866","long":"127.29896977","imageIndex":17,"items":[{"name":"마강상사","tel":"031-594-2000","addr":"경기도 남양주시 화도읍 녹촌리 13-5번지","indutype":"건축자재 - 건축용 요업제품","category":"other"}]},{"lat":"37.652143106","long":"127.29740721","imageIndex":17,"items":[{"name":"마강종합광고","tel":"031-594-1997","addr":"경기도 남양주시 화도읍 녹촌리 8-1번지","indutype":"건축자재 - 인테리어전문","category":"other"},{"name":"하주상사","tel":"031-594-8131","addr":"경기도 남양주시 화도읍 녹촌리 8-1","indutype":"기타 - 기계공구","category":"other"}]},{"lat":"37.651530029","long":"127.28277557","imageIndex":17,"items":[{"name":"마석가구백화점","tel":"031-511-5008","addr":"경기도 남양주시 화도읍 녹촌리 488-41번지","indutype":"가구 - 일반가구","category":"other"}]},{"lat":"37.651969894","long":"127.27963832","imageIndex":17,"items":[{"name":"마석신혼일기","tel":"031-594-7634","addr":"경기도 남양주시 화도읍 녹촌리 488-10번지 3층","indutype":"직물 - 침구·수예점","category":"other"}]},{"lat":"37.641979382","long":"127.29410397","imageIndex":17,"items":[{"name":"맑은하늘","tel":"031-593-1480","addr":"경기도 남양주시 화도읍 녹촌리 157-18번지","indutype":"유통업 영리 - 기타유통업","category":"other"}]},{"lat":"37.65283078","long":"127.28888834","imageIndex":17,"items":[{"name":"모두다(modooda) 인테리어","tel":"031-511-9504","addr":"경기도 남양주시 화도읍 녹촌리 274-10번지 우측 전체호","indutype":"건축자재 - 인테리어전문","category":"other"}]},{"lat":"37.653275142","long":"127.28393798","imageIndex":17,"items":[{"name":"미래행정사무소","tel":"031-593-4800","addr":"경기도 남양주시 화도읍 녹촌리 495-12번지","indutype":"용역 서비스 - 법률회계서비스(개인)","category":"other"},{"name":"애코 엔 까사","tel":"","addr":"경기도 남양주시 화도읍 녹촌리 495-12번지 1,2층","indutype":"가구 - 일반가구","category":"other"}]},{"lat":"37.645111315","long":"127.28438311","imageIndex":17,"items":[{"name":"바이오탭스","tel":"02-454-4437","addr":"경기도 남양주시 화도읍 녹촌리 329번지","indutype":"광학제품 - 기타광학제품","category":"other"}]},{"lat":"37.651887771","long":"127.28007995","imageIndex":17,"items":[{"name":"박중수예술가구","tel":"031-594-4473","addr":"경기도 남양주시 화도읍 녹촌리 488-13 성생공단","indutype":"가구 - 일반가구","category":"other"}]},{"lat":"37.649305964","long":"127.29704474","imageIndex":17,"items":[{"name":"백마크리닝 (남양주10호점)","tel":"","addr":"경기도 남양주시 화도읍 녹촌리 567번지 남양주라온프라이빗5단지 104호","indutype":"수리서비스 - 세탁소","category":"other"},{"name":"이마트24 편의점 마석라온점","tel":"","addr":"경기도 남양주시 화도읍 녹촌리 567번지 남양주라온프라이빗5단지 상가동 101호","indutype":"유통업 영리 - 편 의 점","category":"other"}]},{"lat":"37.65152593","long":"127.28449797","imageIndex":17,"items":[{"name":"벨로즈","tel":"031-592-1638","addr":"경기도 남양주시 화도읍 녹촌리 488-117번지","indutype":"가구 - 일반가구","category":"other"}]},{"lat":"37.651941429","long":"127.28025013","imageIndex":17,"items":[{"name":"보람기획","tel":"031-511-5411","addr":"경기도 남양주시 화도읍 녹촌리 486-4번지","indutype":"가구 - 기타가구","category":"other"}]},{"lat":"37.651859639","long":"127.29907186","imageIndex":17,"items":[{"name":"볼빅브이닷(마석점)","tel":"031-559-4095","addr":"경기도 남양주시 화도읍 녹촌리 13번지 써밋타운 106호","indutype":"의류 - 정장","category":"other"},{"name":"블랙야크 마석점","tel":"031-592-1010","addr":"경기도 남양주시 화도읍 녹촌리 13번지 102호","indutype":"레져용품 - 스포츠·레져용품","category":"other"},{"name":"와이드앵글마석점","tel":"031-591-5122","addr":"경기도 남양주시 화도읍 녹촌리 13번지","indutype":"의류 - 정장","category":"other"},{"name":"캘러웨이마석점","tel":"031-591-3338","addr":"경기도 남양주시 화도읍 녹촌리 13번지 103호","indutype":"의류 - 스포츠의류","category":"other"},{"name":"핑골프마석점","tel":"031-591-5195","addr":"경기도 남양주시 화도읍 녹촌리 13번지 씨앗타운 104호","indutype":"레져용품 - 스포츠·레져용품","category":"other"}]},{"lat":"37.651556783","long":"127.28666244","imageIndex":17,"items":[{"name":"부드러운가구","tel":"031-563-9689","addr":"경기도 남양주시 화도읍 녹촌리 488-130","indutype":"가구 - 일반가구","category":"other"},{"name":"은창가구","tel":"031-594-0294","addr":"경기도 남양주시 화도읍 녹촌리 488-130","indutype":"가구 - 일반가구","category":"other"}]},{"lat":"37.641276532","long":"127.26736209","imageIndex":17,"items":[{"name":"비전에스앤지","tel":"031-595-1712","addr":"경기도 남양주시 화도읍 녹촌리 산52-1번지","indutype":"레져용품 - 스포츠·레져용품","category":"other"}]},{"lat":"37.644221905","long":"127.27949627","imageIndex":17,"items":[{"name":"삼성프라콘","tel":"031-511-5121","addr":"경기도 남양주시 화도읍 녹촌리 515-6번지 1동","indutype":"유통업 영리 - 기타유통업","category":"other"}]},{"lat":"37.651803026","long":"127.28163209","imageIndex":17,"items":[{"name":"상록가구","tel":"031-592-5139","addr":"경기도 남양주시 화도읍 녹촌리 486-8번지 성생공단내","indutype":"가구 - 일반가구","category":"other"}]},{"lat":"37.644446626","long":"127.29829461","imageIndex":17,"items":[{"name":"서원인테리어","tel":"031-593-8424","addr":"경기도 남양주시 화도읍 녹촌리 82-6","indutype":"가구 - 일반가구","category":"other"}]},{"lat":"37.652669174","long":"127.28491023","imageIndex":17,"items":[{"name":"성덕가구","tel":"031-591-5607","addr":"경기도 남양주시 화도읍 녹촌리 269-3번지","indutype":"가구 - 일반가구","category":"other"},{"name":"한신공방","tel":"031-591-5607","addr":"경기도 남양주시 화도읍 녹촌리 269-3번지","indutype":"가구 - 일반가구","category":"other"}]},{"lat":"37.641667672","long":"127.29262983","imageIndex":17,"items":[{"name":"성원산업","tel":"031-511-3918","addr":"경기도 남양주시 화도읍 녹촌리 118번지","indutype":"가구 - 일반가구","category":"other"}]},{"lat":"37.653609587","long":"127.27966707","imageIndex":17,"items":[{"name":"세븐일레븐로지스밸리안산1층점","tel":"031-1577-0711","addr":"경기도 남양주시 화도읍 녹촌리 496-89번지","indutype":"유통업 영리 - 편 의 점","category":"other"},{"name":"세븐일레븐로지스밸리안산7층점","tel":"031-1577-0711","addr":"경기도 남양주시 화도읍 녹촌리 496-89번지","indutype":"유통업 영리 - 편 의 점","category":"other"}]},{"lat":"37.654168716","long":"127.29074061","imageIndex":17,"items":[{"name":"세창수출포장","tel":"02-368-3198","addr":"경기도 남양주시 화도읍 녹촌리 산25","indutype":"유통업 영리 - 기타유통업","category":"other"}]},{"lat":"37.654090586","long":"127.2932107","imageIndex":17,"items":[{"name":"솔로몬 매직","tel":"","addr":"경기도 남양주시 화도읍 녹촌리 244-14번지 비전힐하우스 104동 101호","indutype":"용역 서비스 - 종합용역","category":"other"}]},{"lat":"37.651722041","long":"127.29280487","imageIndex":17,"items":[{"name":"씨유마석라온1단지점","tel":"080-080-3663","addr":"경기도 남양주시 화도읍 녹촌리 563번지 102호((1-1블럭)상가)","indutype":"유통업 영리 - 편 의 점","category":"other"}]},{"lat":"37.651863868","long":"127.28257285","imageIndex":17,"items":[{"name":"아르누보엔틱갤러리","tel":"031-592-8557","addr":"경기도 남양주시 화도읍 녹촌리 488-27","indutype":"가구 - 일반가구","category":"other"}]},{"lat":"37.65058507","long":"127.28233009","imageIndex":17,"items":[{"name":"아름유리","tel":"031-593-5408","addr":"경기도 남양주시 화도읍 녹촌리 488-56번지","indutype":"건축자재 - 유리","category":"other"}]},{"lat":"37.65355916","long":"127.29315197","imageIndex":17,"items":[{"name":"아모르펫","tel":"","addr":"경기도 남양주시 화도읍 녹촌리 243-16번지 그린하이츠빌 101동 401호","indutype":"문화.취미 - 애완동물","category":"other"}]},{"lat":"37.651365486","long":"127.28377214","imageIndex":17,"items":[{"name":"아씨방","tel":"031-593-2437","addr":"경기도 남양주시 화도읍 녹촌리 488-75번지","indutype":"가구 - 일반가구","category":"other"}]},{"lat":"37.648698214","long":"127.29868538","imageIndex":17,"items":[{"name":"아틀리에 소피블레","tel":"031-111-1111","addr":"경기도 남양주시 화도읍 녹촌리 556번지 화도센트럴우방아이유쉘 114동 1003호","indutype":"신변잡화 - 기타잡화","category":"other"},{"name":"어클사운드","tel":"","addr":"경기도 남양주시 화도읍 녹촌리 556번지 화도센트럴우방아이유쉘 106동 903호","indutype":"전기제품 - 가전제품","category":"other"},{"name":"이마트24 화도우방점","tel":"031-111-1111","addr":"경기도 남양주시 화도읍 녹촌리 556번지 화도센트럴우방아이유쉘 107호","indutype":"유통업 영리 - 편 의 점","category":"other"},{"name":"이마트24 화도우방점","tel":"","addr":"경기도 남양주시 화도읍 녹촌리 556번지 마석역우방아이유쉘 상가 107호","indutype":"유통업 영리 - 편 의 점","category":"other"}]},{"lat":"37.653111564","long":"127.28452662","imageIndex":17,"items":[{"name":"아피나가구","tel":"031-511-1615","addr":"경기도 남양주시 화도읍 녹촌리 269-34번지 성생공단","indutype":"가구 - 일반가구","category":"other"}]},{"lat":"37.651699058","long":"127.29843665","imageIndex":17,"items":[{"name":"알레르망 화도점","tel":"031-555-0137","addr":"경기도 남양주시 화도읍 녹촌리 12번지 오월프라자 가동 107호","indutype":"직물 - 침구·수예점","category":"other"},{"name":"한결건물관리","tel":"031-515-9948","addr":"경기도 남양주시 화도읍 녹촌리 12번지 오월프라자 나동 204호","indutype":"용역 서비스 - 종합용역","category":"other"}]},{"lat":"37.650920336","long":"127.28905099","imageIndex":17,"items":[{"name":"에버그린","tel":"031-594-9455","addr":"경기도 남양주시 화도읍 녹촌리 산22-1번지","indutype":"건축자재 - 인테리어전문","category":"other"}]},{"lat":"37.63753045","long":"127.28215657","imageIndex":17,"items":[{"name":"에스티씨(STC)","tel":"031-513-1184","addr":"경기도 남양주시 화도읍 녹촌리 382-2번지","indutype":"기타 - 기계공구","category":"other"},{"name":"주식회사동성이엔지","tel":"031-511-0908","addr":"경기도 남양주시 화도읍 녹촌리 382-2","indutype":"기타 - 기계공구","category":"other"}]},{"lat":"37.64083542","long":"127.28282608","imageIndex":17,"items":[{"name":"에이스상사","tel":"031-594-0458","addr":"경기도 남양주시 화도읍 녹촌리 411-2","indutype":"신변잡화 - 가방","category":"other"}]},{"lat":"37.643915085","long":"127.29099563","imageIndex":17,"items":[{"name":"엘쓰리주식회사","tel":"02-478-0633","addr":"경기도 남양주시 화도읍 녹촌리 173-2","indutype":"건축자재 - 인테리어전문","category":"other"}]},{"lat":"37.638195988","long":"127.27882813","imageIndex":17,"items":[{"name":"엠폴리","tel":"031-555-8604","addr":"경기도 남양주시 화도읍 녹촌리 385-6번지 외 3필지","indutype":"가구 - 일반가구","category":"other"}]},{"lat":"37.650667781","long":"127.29285743","imageIndex":17,"items":[{"name":"엠플리디자인","tel":"031-554-2074","addr":"경기도 남양주시 화도읍 녹촌리 565번지 라온프라이빗 304동 803호","indutype":"가구 - 일반가구","category":"other"}]},{"lat":"37.653198406","long":"127.28588678","imageIndex":17,"items":[{"name":"영디자인","tel":"031-594-0282","addr":"경기도 남양주시 화도읍 녹촌리 267-4번지 1층","indutype":"가구 - 일반가구","category":"other"}]},{"lat":"37.653089211","long":"127.2937394","imageIndex":17,"items":[{"name":"영진설비","tel":"031-511-7366","addr":"경기도 남양주시 화도읍 녹촌리 239번지","indutype":"용역 서비스 - 기타용역서비스","category":"other"}]},{"lat":"37.65136045","long":"127.28587981","imageIndex":17,"items":[{"name":"우디하우스","tel":"031-595-7975","addr":"경기도 남양주시 화도읍 녹촌리 488-127번지 성생공단 1층 내","indutype":"가구 - 일반가구","category":"other"}]},{"lat":"37.651088505","long":"127.28279657","imageIndex":17,"items":[{"name":"우성냉동","tel":"031-593-8163","addr":"경기도 남양주시 화도읍 녹촌리 488-2번지","indutype":"전기제품 - 냉열기기","category":"other"}]},{"lat":"37.654252256","long":"127.29341531","imageIndex":17,"items":[{"name":"우수공조","tel":"031-562-5558","addr":"경기도 남양주시 화도읍 녹촌리 245-1번지 가이오빌라 401호","indutype":"전기제품 - 냉열기기","category":"other"}]},{"lat":"37.650858436","long":"127.28482407","imageIndex":17,"items":[{"name":"우창유리","tel":"031-5938-7669","addr":"경기도 남양주시 화도읍 녹촌리 488-109번지","indutype":"건축자재 - 유리","category":"other"}]},{"lat":"37.652442252","long":"127.28182712","imageIndex":17,"items":[{"name":"원목가구도매전시장","tel":"031-593-8375","addr":"경기도 남양주시 화도읍 녹촌리 494번지","indutype":"가구 - 일반가구","category":"other"}]},{"lat":"37.653860171","long":"127.28418949","imageIndex":17,"items":[{"name":"이노센트","tel":"031-511-1509","addr":"경기도 남양주시 화도읍 녹촌리 269-8번지 성생가구공단","indutype":"가구 - 일반가구","category":"other"}]},{"lat":"37.65339286","long":"127.28368912","imageIndex":17,"items":[{"name":"이레디자인가구","tel":"031-511-0145","addr":"경기도 남양주시 화도읍 녹촌리 495-11번지","indutype":"가구 - 일반가구","category":"other"}]},{"lat":"37.653775563","long":"127.28566233","imageIndex":17,"items":[{"name":"이레인테리어","tel":"031-594-7477","addr":"경기도 남양주시 화도읍 녹촌리 267","indutype":"가구 - 일반가구","category":"other"}]},{"lat":"37.651836397","long":"127.27893525","imageIndex":17,"items":[{"name":"이태리가구","tel":"031-593-1916","addr":"경기도 남양주시 화도읍 녹촌리 488-7번지","indutype":"가구 - 일반가구","category":"other"}]},{"lat":"37.651997853","long":"127.27924181","imageIndex":17,"items":[{"name":"이태리갤러리","tel":"031-593-1915","addr":"경기도 남양주시 화도읍 녹촌리 488-5번지","indutype":"가구 - 일반가구","category":"other"}]},{"lat":"37.652671634","long":"127.28387904","imageIndex":17,"items":[{"name":"이태리디자인","tel":"031-591-1917","addr":"경기도 남양주시 화도읍 녹촌리 494-17번지","indutype":"가구 - 일반가구","category":"other"}]},{"lat":"37.651724159","long":"127.28069126","imageIndex":17,"items":[{"name":"장수돌침대마석점.월드가구","tel":"031-594-7005","addr":"경기도 남양주시 화도읍 녹촌리 488-15번지","indutype":"가구 - 일반가구","category":"other"},{"name":"편백향","tel":"031-511-7774","addr":"경기도 남양주시 화도읍 녹촌리 488-15번지 1층","indutype":"가구 - 일반가구","category":"other"}]},{"lat":"37.642005002","long":"127.28729459","imageIndex":17,"items":[{"name":"재성강화도어/재성자동문","tel":"070-4201-9422","addr":"경기도 남양주시 화도읍 녹촌리 309-8번지","indutype":"용역 서비스 - 종합용역","category":"other"}]},{"lat":"37.654249175","long":"127.28352236","imageIndex":17,"items":[{"name":"재크와콩나무","tel":"031-591-6069","addr":"경기도 남양주시 화도읍 녹촌리 497-4번지","indutype":"가구 - 일반가구","category":"other"},{"name":"체리쉬마석점(제이엠가구)","tel":"070-4065-4925","addr":"경기도 남양주시 화도읍 녹촌리 497-4번지 2층","indutype":"가구 - 일반가구","category":"other"}]},{"lat":"37.654305415","long":"127.28637827","imageIndex":17,"items":[{"name":"제이디자인","tel":"","addr":"경기도 남양주시 화도읍 녹촌리 산31-23번지","indutype":"건축자재 - 인테리어전문","category":"other"}]},{"lat":"37.644337374","long":"127.29513293","imageIndex":17,"items":[{"name":"제이엠(JM)토탈인테리어","tel":"031-591-5735","addr":"경기도 남양주시 화도읍 녹촌리 90-9번지","indutype":"건축자재 - 인테리어전문","category":"other"}]},{"lat":"37.654169801","long":"127.29397026","imageIndex":17,"items":[{"name":"조명나라","tel":"031-593-9997","addr":"경기도 남양주시 화도읍 녹촌리 248-11번지 1층 102호 103호","indutype":"건축자재 - 조명기구","category":"other"}]},{"lat":"37.652196497","long":"127.28288005","imageIndex":17,"items":[{"name":"주식회사 나누리 남양주지점","tel":"031-511-3588","addr":"경기도 남양주시 화도읍 녹촌리 492-6번지 3층","indutype":"문화.취미 - 민예·공예품","category":"other"}]},{"lat":"37.653969069","long":"127.28386127","imageIndex":17,"items":[{"name":"주식회사 더퍼스트","tel":"031-559-6630","addr":"경기도 남양주시 화도읍 녹촌리 497-8번지","indutype":"가구 - 일반가구","category":"other"}]},{"lat":"37.650838953","long":"127.2854359","imageIndex":17,"items":[{"name":"주식회사 미래디자인","tel":"031-111-1111","addr":"경기도 남양주시 화도읍 녹촌리 488-113번지","indutype":"가구 - 일반가구","category":"other"}]},{"lat":"37.651497209","long":"127.28141564","imageIndex":17,"items":[{"name":"주식회사 미포컴퍼니","tel":"031-593-5697","addr":"경기도 남양주시 화도읍 녹촌리 488-19번지","indutype":"가구 - 일반가구","category":"other"}]},{"lat":"37.654086483","long":"127.28749931","imageIndex":17,"items":[{"name":"주식회사 선우아이디","tel":"031-559-9566","addr":"경기도 남양주시 화도읍 녹촌리 산31-28번지","indutype":"가구 - 기타가구","category":"other"}]},{"lat":"37.641361236","long":"127.28524138","imageIndex":17,"items":[{"name":"주식회사 와이엘이디","tel":"070-4231-8018","addr":"경기도 남양주시 화도읍 녹촌리 342-4번지","indutype":"건축자재 - 조명기구","category":"other"}]},{"lat":"37.652560234","long":"127.28146494","imageIndex":17,"items":[{"name":"주식회사 우리기업","tel":"031-593-1206","addr":"경기도 남양주시 화도읍 녹촌리 496-69번지","indutype":"건축자재 - 기타건축자재","category":"other"}]},{"lat":"37.653971297","long":"127.28669429","imageIndex":17,"items":[{"name":"주식회사 편백촌","tel":"031-593-0809","addr":"경기도 남양주시 화도읍 녹촌리 산31-26번지 2층","indutype":"가구 - 일반가구","category":"other"}]},{"lat":"37.65246927","long":"127.28935156","imageIndex":17,"items":[{"name":"주식회사 피노키오","tel":"031-591-6625","addr":"경기도 남양주시 화도읍 녹촌리 276번지","indutype":"가구 - 일반가구","category":"other"}]},{"lat":"37.640053945","long":"127.28182611","imageIndex":17,"items":[{"name":"주식회사신안과학","tel":"031-511-7426","addr":"경기도 남양주시 화도읍 녹촌리 391-24번지 1층","indutype":"서적문구 - 과학기자재","category":"other"}]},{"lat":"37.642471915","long":"127.29165855","imageIndex":17,"items":[{"name":"주식회사와스톤","tel":"031-595-8930","addr":"경기도 남양주시 화도읍 녹촌리 151-2번지","indutype":"가구 - 일반가구","category":"other"}]},{"lat":"37.643484017","long":"127.29772427","imageIndex":17,"items":[{"name":"주현상사","tel":"031-592-4962","addr":"경기도 남양주시 화도읍 녹촌리 555번지 신창현두산위브 102동 1601호","indutype":"건축자재 - 목재·석재·철물","category":"other"}]},{"lat":"37.647222651","long":"127.28686124","imageIndex":17,"items":[{"name":"중앙렌탈(주)","tel":"031-595-5825","addr":"경기도 남양주시 화도읍 녹촌리 290번지","indutype":"신변잡화 - 기타잡화","category":"other"}]},{"lat":"37.653057124","long":"127.28088886","imageIndex":17,"items":[{"name":"케이제이(KJ)우드","tel":"031-531-5212","addr":"경기도 남양주시 화도읍 녹촌리 496-34","indutype":"가구 - 일반가구","category":"other"}]},{"lat":"37.652474205","long":"127.28354968","imageIndex":17,"items":[{"name":"코럼","tel":"031-511-5885","addr":"경기도 남양주시 화도읍 녹촌리 496-52번지","indutype":"가구 - 일반가구","category":"other"}]},{"lat":"37.652941787","long":"127.28393672","imageIndex":17,"items":[{"name":"코모도(COMODO)","tel":"031-592-2188","addr":"경기도 남양주시 화도읍 녹촌리 269-43번지","indutype":"가구 - 일반가구","category":"other"},{"name":"홍대디자인","tel":"031-511-2448","addr":"경기도 남양주시 화도읍 녹촌리 269-43번지","indutype":"가구 - 일반가구","category":"other"}]},{"lat":"37.653616723","long":"127.28426789","imageIndex":17,"items":[{"name":"퍼스트레이디","tel":"031-511-2388","addr":"경기도 남양주시 화도읍 녹촌리 269-19번지","indutype":"가구 - 일반가구","category":"other"}]},{"lat":"37.654414781","long":"127.2858574","imageIndex":17,"items":[{"name":"편백촌","tel":"031-593-8965","addr":"경기도 남양주시 화도읍 녹촌리 산31-24번지","indutype":"가구 - 일반가구","category":"other"}]},{"lat":"37.652420606","long":"127.28335683","imageIndex":17,"items":[{"name":"풍경있는집","tel":"031-511-5991","addr":"경기도 남양주시 화도읍 녹촌리 496-55","indutype":"직물 - 카페트,커튼,천막,지물","category":"other"}]},{"lat":"37.652559511","long":"127.28177089","imageIndex":17,"items":[{"name":"하나도장","tel":"031-511-0366","addr":"경기도 남양주시 화도읍 녹촌리 496-65번지 성생공단","indutype":"건축자재 - 목재·석재·철물","category":"other"}]},{"lat":"37.651608206","long":"127.28399969","imageIndex":17,"items":[{"name":"하나씽크","tel":"031-511-7957","addr":"경기도 남양주시 화도읍 녹촌리 271-3번지","indutype":"주방용구 - 주방용구","category":"other"}]},{"lat":"37.644169977","long":"127.28619245","imageIndex":17,"items":[{"name":"한미합판 주식회사","tel":"070-4146-8737","addr":"경기도 남양주시 화도읍 녹촌리 323-8번지","indutype":"건축자재 - 목재·석재·철물","category":"other"}]},{"lat":"37.652610386","long":"127.28688176","imageIndex":17,"items":[{"name":"한신톱초경","tel":"031-593-7603","addr":"경기도 남양주시 화도읍 녹촌리 268-1번지 1층","indutype":"기타 - 기계공구","category":"other"}]},{"lat":"37.645395172","long":"127.28997025","imageIndex":17,"items":[{"name":"해드림","tel":"031-511-7277","addr":"경기도 남양주시 화도읍 녹촌리 185-6번지","indutype":"용역 서비스 - 기타용역서비스","category":"other"}]},{"lat":"37.652614746","long":"127.2812725","imageIndex":17,"items":[{"name":"현대유리","tel":"031-593-8346","addr":"경기도 남양주시 화도읍 녹촌리 496-70","indutype":"건축자재 - 유리","category":"other"}]},{"lat":"37.652947603","long":"127.28527391","imageIndex":17,"items":[{"name":"홍대디자인 가구","tel":"031-593-5876","addr":"경기도 남양주시 화도읍 녹촌리 269-17번지","indutype":"가구 - 일반가구","category":"other"}]},{"lat":"37.652671979","long":"127.28749391","imageIndex":17,"items":[{"name":"화도유리","tel":"031-559-8455","addr":"경기도 남양주시 화도읍 녹촌리 274-13","indutype":"건축자재 - 유리","category":"other"}]}]