[{"lat":"37.721762058","long":"126.85975187","imageIndex":7,"items":[{"name":"(주)한빛식품","tel":"031-964-5181","addr":"경기도 고양시 덕양구 내유동 62-10번지","indutype":"음료식품 - 기타음료식품","category":"food"}]},{"lat":"37.711322357","long":"126.85441908","imageIndex":7,"items":[{"name":"고양병원매점","tel":"031-975-2296","addr":"경기도 고양시 덕양구 내유동 294-2번지","indutype":"음료식품 - 기타음료식품","category":"food"}]},{"lat":"37.726594591","long":"126.84145741","imageIndex":7,"items":[{"name":"교하푸드","tel":"031-964-0001","addr":"경기도 고양시 덕양구 내유동 304번지","indutype":"음료식품 - 정육점","category":"food"}]},{"lat":"37.721987669","long":"126.86005768","imageIndex":7,"items":[{"name":"구산식품","tel":"031-968-7411","addr":"경기도 고양시 덕양구 내유동 62-1번지","indutype":"음료식품 - 미곡상","category":"food"}]},{"lat":"37.726791226","long":"126.84698111","imageIndex":7,"items":[{"name":"달빛떡사랑","tel":"031-966-9987","addr":"경기도 고양시 덕양구 내유동 649-3번지","indutype":"음료식품 - 제과점","category":"food"}]},{"lat":"37.710905704","long":"126.85267344","imageIndex":7,"items":[{"name":"대진식품","tel":"031-1111-1111","addr":"경기도 고양시 덕양구 내유동 297-23번지","indutype":"음료식품 - 기타음료식품","category":"food"}]},{"lat":"37.717731724","long":"126.85014178","imageIndex":7,"items":[{"name":"빵미","tel":"070-4763-5713","addr":"경기도 고양시 덕양구 내유동 427-1번지","indutype":"음료식품 - 제과점","category":"food"}]},{"lat":"37.725707332","long":"126.84491895","imageIndex":7,"items":[{"name":"뽕이네정육점","tel":"031-967-1817","addr":"경기도 고양시 덕양구 내유동 646-2번지","indutype":"음료식품 - 정육점","category":"food"},{"name":"언니네(반찬)","tel":"031-963-3378","addr":"경기도 고양시 덕양구 내유동 646-2번지","indutype":"음료식품 - 기타음료식품","category":"food"}]},{"lat":"37.724788069","long":"126.84470539","imageIndex":7,"items":[{"name":"서부특판","tel":"070-4306-3685","addr":"경기도 고양시 덕양구 내유동 545-21번지","indutype":"음료식품 - 기타음료식품","category":"food"}]},{"lat":"37.714625891","long":"126.85206484","imageIndex":7,"items":[{"name":"서울우유 벽제대리점","tel":"031-964-9753","addr":"경기도 고양시 덕양구 내유동 431-27번지","indutype":"음료식품 - 기타음료식품","category":"food"}]},{"lat":"37.729847719","long":"126.84194947","imageIndex":7,"items":[{"name":"성불사","tel":"02-304-8993","addr":"경기도 고양시 덕양구 내유동 699-15번지 클래식","indutype":"음료식품 - 농·축·수산품","category":"food"}]},{"lat":"37.725598746","long":"126.84456755","imageIndex":7,"items":[{"name":"송베이커리","tel":"031-969-7792","addr":"경기도 고양시 덕양구 내유동 646-49번지","indutype":"음료식품 - 제과점","category":"food"}]},{"lat":"37.72562235","long":"126.84203801","imageIndex":7,"items":[{"name":"원진수산","tel":"031-962-0637","addr":"경기도 고양시 덕양구 내유동 306-2번지","indutype":"음료식품 - 농·축·수산품","category":"food"}]},{"lat":"37.716401196","long":"126.85239014","imageIndex":7,"items":[{"name":"위드 종합식품","tel":"","addr":"경기도 고양시 덕양구 내유동 436-74번지 블루캐슬","indutype":"음료식품 - 기타음료식품","category":"food"}]},{"lat":"37.725264645","long":"126.84401246","imageIndex":7,"items":[{"name":"장수인삼건강원","tel":"031-963-5228","addr":"경기도 고양시 덕양구 내유동 646-24번지","indutype":"건강식품 - 기타건강식품","category":"food"}]},{"lat":"37.725011012","long":"126.84300348","imageIndex":7,"items":[{"name":"태백한우정육식당","tel":"031-962-8763","addr":"경기도 고양시 덕양구 내유동 543-15번지","indutype":"음료식품 - 정육점","category":"food"}]},{"lat":"37.709573382","long":"126.85353801","imageIndex":7,"items":[{"name":"파리바게트 내유럭키","tel":"031-963-1077","addr":"경기도 고양시 덕양구 내유동 294-7번지","indutype":"음료식품 - 제과점","category":"food"}]},{"lat":"37.725183253","long":"126.84378577","imageIndex":7,"items":[{"name":"파리바게트 내유점","tel":"031-969-8283","addr":"경기도 고양시 덕양구 내유동 646-23번지","indutype":"음료식품 - 제과점","category":"food"}]},{"lat":"37.718789843","long":"126.85325864","imageIndex":7,"items":[{"name":"풀무원샘물 양재가맹점","tel":"031-969-0057","addr":"경기도 고양시 덕양구 내유동","indutype":"음료식품 - 기타음료식품","category":"food"}]},{"lat":"37.725231235","long":"126.84597486","imageIndex":7,"items":[{"name":"하나농산","tel":"","addr":"경기도 고양시 덕양구 내유동 643-1번지 제이골드빌","indutype":"음료식품 - 농·축·수산품","category":"food"}]},{"lat":"37.717458477","long":"126.84787398","imageIndex":7,"items":[{"name":"한길수산","tel":"031-962-1516","addr":"경기도 고양시 덕양구 내유동","indutype":"음료식품 - 기타음료식품","category":"food"}]},{"lat":"37.726872821","long":"126.84736661","imageIndex":7,"items":[{"name":"형제정육","tel":"070-7784-4107","addr":"경기도 고양시 덕양구 내유동 653-52번지","indutype":"음료식품 - 정육점","category":"food"}]}]