[{"lat":"37.063715668","long":"127.28023039","imageIndex":17,"items":[{"name":"(주)태성건기","tel":"031-671-6664","addr":"경기도 안성시 대덕면 삼한리 24-1","indutype":"기타 - 기계공구","category":"other"},{"name":"태성건기","tel":"031-674-8885","addr":"경기도 안성시 대덕면 삼한리 24-1","indutype":"기타 - 기계공구","category":"other"},{"name":"황소중기","tel":"031-674-4437","addr":"경기도 안성시 대덕면 삼한리 24-1","indutype":"기타 - 기계공구","category":"other"}]},{"lat":"37.058603732","long":"127.27370213","imageIndex":17,"items":[{"name":"강남태양열미래쏠레이","tel":"031-671-2540","addr":"경기도 안성시 대덕면 삼한리 527-3번지","indutype":"건축자재 - 보일러·펌프·샷시","category":"other"}]},{"lat":"37.055961413","long":"127.28242819","imageIndex":17,"items":[{"name":"주식회사 비전포스텍","tel":"031-676-1273","addr":"경기도 안성시 대덕면 삼한리 169-2번지","indutype":"건축자재 - 기타건축자재","category":"other"}]},{"lat":"37.058070184","long":"127.27454345","imageIndex":17,"items":[{"name":"한새울육묘장","tel":"031-676-0787","addr":"경기도 안성시 대덕면 삼한리 716-5","indutype":"농업 - 비료,사료,종자","category":"other"}]},{"lat":"37.054601622","long":"127.27822981","imageIndex":17,"items":[{"name":"협동장의운송사","tel":"031-674-5552","addr":"경기도 안성시 대덕면 삼한리 294-1번지","indutype":"회원제형태 - 기타4","category":"other"}]},{"lat":"37.058798242","long":"127.27137553","imageIndex":4,"items":[{"name":"삼한식당","tel":"031-676-7939","addr":"경기도 안성시 대덕면 삼한리 549번지","indutype":"일반휴게음식 - 일반한식","category":"restaurant"}]},{"lat":"37.058736075","long":"127.26695683","imageIndex":9,"items":[{"name":"우리에너지","tel":"031-677-5557","addr":"경기도 안성시 대덕면 삼한리 637-3번지","indutype":"연료판매점 - LPG 취급점","category":"oil"}]}]