[{"lat":"37.254469182","long":"127.35083671","imageIndex":4,"items":[{"name":"가남통닭","tel":"031-632-2964","addr":"경기도 이천시 마장면 오천리 276-3번지 2층","indutype":"일반휴게음식 - 일반한식","category":"restaurant"},{"name":"신전떡볶이 이천마장점","tel":"031-633-7877","addr":"경기도 이천시 마장면 오천리 276-3번지 1층","indutype":"일반휴게음식 - 일반한식","category":"restaurant"},{"name":"오가네토종순대국","tel":"031-635-0209","addr":"경기도 이천시 마장면 오천리 276-3번지 1층","indutype":"일반휴게음식 - 일반한식","category":"restaurant"},{"name":"요거프레소 이천오천점","tel":"031-633-0739","addr":"경기도 이천시 마장면 오천리 276-3번지 1층(102호)","indutype":"일반휴게음식 - 서양음식","category":"restaurant"},{"name":"요기요!","tel":"031-633-1176","addr":"경기도 이천시 마장면 오천리 276-3번지","indutype":"일반휴게음식 - 일반한식","category":"restaurant"},{"name":"이지네닭갈비&다모아맥주","tel":"031-633-1135","addr":"경기도 이천시 마장면 오천리 276-3번지 2층","indutype":"일반휴게음식 - 일반한식","category":"restaurant"}]},{"lat":"37.251857204","long":"127.35355242","imageIndex":4,"items":[{"name":"고기광장","tel":"031-631-3314","addr":"경기도 이천시 마장면 오천리 249-10번지 2층","indutype":"일반휴게음식 - 일반한식","category":"restaurant"}]},{"lat":"37.253999196","long":"127.35133051","imageIndex":4,"items":[{"name":"김가네(이천마장점)","tel":"031-634-2118","addr":"경기도 이천시 마장면 오천리 278-4번지","indutype":"일반휴게음식 - 스넥","category":"restaurant"}]},{"lat":"37.253800973","long":"127.3513296","imageIndex":4,"items":[{"name":"김가네식당","tel":"031-634-6232","addr":"경기도 이천시 마장면 오천리 279-6","indutype":"일반휴게음식 - 일반한식","category":"restaurant"}]},{"lat":"37.253854536","long":"127.35149892","imageIndex":4,"items":[{"name":"늘봄매운닭발","tel":"02-1111-1111","addr":"경기도 이천시 마장면 오천리 278-5번지 2층","indutype":"일반휴게음식 - 일반한식","category":"restaurant"},{"name":"분식의신","tel":"031-637-7017","addr":"경기도 이천시 마장면 오천리 278-5번지 1층","indutype":"일반휴게음식 - 스넥","category":"restaurant"}]},{"lat":"37.248105774","long":"127.35763767","imageIndex":4,"items":[{"name":"다오래","tel":"031-636-7231","addr":"경기도 이천시 마장면 오천리 68-1번지 104호","indutype":"일반휴게음식 - 서양음식","category":"restaurant"},{"name":"별난버섯육계장","tel":"031-632-8660","addr":"경기도 이천시 마장면 오천리 68-1번지","indutype":"일반휴게음식 - 일반한식","category":"restaurant"}]},{"lat":"37.246334166","long":"127.35950031","imageIndex":4,"items":[{"name":"당거리보신탕","tel":"031-638-2319","addr":"경기도 이천시 마장면 오천리 87번지","indutype":"일반휴게음식 - 일반한식","category":"restaurant"}]},{"lat":"37.254161611","long":"127.35125236","imageIndex":4,"items":[{"name":"도깨비왕만두","tel":"031-631-4395","addr":"경기도 이천시 마장면 오천리 278-3번지","indutype":"일반휴게음식 - 일반한식","category":"restaurant"}]},{"lat":"37.248611681","long":"127.35416856","imageIndex":4,"items":[{"name":"도원 알토란","tel":"031-636-8597","addr":"경기도 이천시 마장면 오천리 243","indutype":"일반휴게음식 - 일반한식","category":"restaurant"}]},{"lat":"37.254243299","long":"127.35104984","imageIndex":4,"items":[{"name":"돼지주막","tel":"031-631-9836","addr":"경기도 이천시 마장면 오천리 277-3번지","indutype":"일반휴게음식 - 주점","category":"restaurant"}]},{"lat":"37.252833099","long":"127.35261012","imageIndex":4,"items":[{"name":"러브레터,멕시칸","tel":"031-634-5882","addr":"경기도 이천시 마장면 오천리 281-10번지","indutype":"일반휴게음식 - 스넥","category":"restaurant"},{"name":"심여사네","tel":"031-635-2000","addr":"경기도 이천시 마장면 오천리 281-10번지","indutype":"일반휴게음식 - 스넥","category":"restaurant"}]},{"lat":"37.25091503","long":"127.35527258","imageIndex":4,"items":[{"name":"롯데리아/디앤디플레이스 (주)","tel":"031-662-1228","addr":"경기도 이천시 마장면 오천리 56-52번지","indutype":"일반휴게음식 - 서양음식","category":"restaurant"}]},{"lat":"37.25324873","long":"127.35221753","imageIndex":4,"items":[{"name":"밥먹을래 술먹을래","tel":"031-338-1101","addr":"경기도 이천시 마장면 오천리 281-9번지 1층","indutype":"일반휴게음식 - 일반한식","category":"restaurant"}]},{"lat":"37.253492802","long":"127.35194813","imageIndex":4,"items":[{"name":"벧엘분식","tel":"031-633-3786","addr":"경기도 이천시 마장면 오천리 280-3","indutype":"일반휴게음식 - 스넥","category":"restaurant"},{"name":"알콜","tel":"031-637-8270","addr":"경기도 이천시 마장면 오천리 280-3","indutype":"일반휴게음식 - 주점","category":"restaurant"}]},{"lat":"37.252941554","long":"127.3524979","imageIndex":4,"items":[{"name":"보리수","tel":"031-632-2076","addr":"경기도 이천시 마장면 오천리 281-14","indutype":"일반휴게음식 - 일반한식","category":"restaurant"}]},{"lat":"37.25102553","long":"127.35447282","imageIndex":4,"items":[{"name":"복꾸미","tel":"031-631-6566","addr":"경기도 이천시 마장면 오천리 251-4번지 2동 1층","indutype":"일반휴게음식 - 일반한식","category":"restaurant"}]},{"lat":"37.252083425","long":"127.35322659","imageIndex":4,"items":[{"name":"봉일천 돼지부속구이","tel":"031-633-5788","addr":"경기도 이천시 마장면 오천리 269-9번지","indutype":"일반휴게음식 - 일반한식","category":"restaurant"}]},{"lat":"37.249660673","long":"127.35592047","imageIndex":4,"items":[{"name":"부뚜막","tel":"031-631-7762","addr":"경기도 이천시 마장면 오천리 64-2번지","indutype":"일반휴게음식 - 일반한식","category":"restaurant"},{"name":"어촌","tel":"031-635-6720","addr":"경기도 이천시 마장면 오천리 64-2번지 1층","indutype":"일반휴게음식 - 일반한식","category":"restaurant"}]},{"lat":"37.25513046","long":"127.34963364","imageIndex":4,"items":[{"name":"불닭발","tel":"031-631-5916","addr":"경기도 이천시 마장면 오천리 298-5번지","indutype":"일반휴게음식 - 일반한식","category":"restaurant"}]},{"lat":"37.255074681","long":"127.35021953","imageIndex":4,"items":[{"name":"비비큐펀앤정한마리반치킨","tel":"031-631-9958","addr":"경기도 이천시 마장면 오천리 298-4번지","indutype":"일반휴게음식 - 스넥","category":"restaurant"},{"name":"하오란양꼬치","tel":"031-637-6889","addr":"경기도 이천시 마장면 오천리 298-4번지","indutype":"일반휴게음식 - 일반한식","category":"restaurant"}]},{"lat":"37.245556677","long":"127.36036448","imageIndex":4,"items":[{"name":"삼순이 족발 보쌈 도시락","tel":"031-634-5325","addr":"경기도 이천시 마장면 오천리 82-3번지","indutype":"일반휴게음식 - 일반한식","category":"restaurant"}]},{"lat":"37.253745916","long":"127.3516675","imageIndex":4,"items":[{"name":"소나기카페","tel":"031-634-5458","addr":"경기도 이천시 마장면 오천리 280-2번지 2층","indutype":"일반휴게음식 - 서양음식","category":"restaurant"},{"name":"해야","tel":"031-633-5082","addr":"경기도 이천시 마장면 오천리 280-2번지","indutype":"일반휴게음식 - 일반한식","category":"restaurant"}]},{"lat":"37.248413469","long":"127.35718828","imageIndex":4,"items":[{"name":"아우성","tel":"031-634-9420","addr":"경기도 이천시 마장면 오천리 67-1번지","indutype":"일반휴게음식 - 일반한식","category":"restaurant"},{"name":"영길이네 돈가스 포차","tel":"031-636-1199","addr":"경기도 이천시 마장면 오천리 67-1번지 1동 103호","indutype":"일반휴게음식 - 일반한식","category":"restaurant"}]},{"lat":"37.254136469","long":"127.35060974","imageIndex":4,"items":[{"name":"연다방","tel":"031-632-8238","addr":"경기도 이천시 마장면 오천리 274-6번지","indutype":"일반휴게음식 - 서양음식","category":"restaurant"}]},{"lat":"37.254686352","long":"127.35052209","imageIndex":4,"items":[{"name":"영심이치킨&호프","tel":"031-633-3997","addr":"경기도 이천시 마장면 오천리 275-2번지","indutype":"일반휴게음식 - 주점","category":"restaurant"}]},{"lat":"37.253692685","long":"127.35138546","imageIndex":4,"items":[{"name":"오천 진 소머리국밥","tel":"031-631-5359","addr":"경기도 이천시 마장면 오천리 270-6번지 1층 3호","indutype":"일반휴게음식 - 일반한식","category":"restaurant"}]},{"lat":"37.244997708","long":"127.36047455","imageIndex":4,"items":[{"name":"으뜸순대국","tel":"031-638-7400","addr":"경기도 이천시 마장면 오천리 116번지 1층","indutype":"일반휴게음식 - 일반한식","category":"restaurant"}]},{"lat":"37.254107881","long":"127.35113939","imageIndex":4,"items":[{"name":"장터 포장마차","tel":"031-636-5457","addr":"경기도 이천시 마장면 오천리 278-8번지","indutype":"일반휴게음식 - 일반한식","category":"restaurant"},{"name":"장터포장마차","tel":"031-636-5457","addr":"경기도 이천시 마장면 오천리 278-8번지 1층","indutype":"일반휴게음식 - 일반한식","category":"restaurant"},{"name":"호식이두마리치킨오천점","tel":"031-635-9922","addr":"경기도 이천시 마장면 오천리 278-8번지","indutype":"일반휴게음식 - 스넥","category":"restaurant"}]},{"lat":"37.25240839","long":"127.3530252","imageIndex":4,"items":[{"name":"청송부대찌개","tel":"031-634-3476","addr":"경기도 이천시 마장면 오천리 281-17번지 외2필지 1층","indutype":"일반휴게음식 - 일반한식","category":"restaurant"}]},{"lat":"37.254967122","long":"127.35002742","imageIndex":4,"items":[{"name":"초밥&","tel":"031-634-9004","addr":"경기도 이천시 마장면 오천리 298-7번지","indutype":"일반휴게음식 - 일반한식","category":"restaurant"}]},{"lat":"37.244605975","long":"127.36189278","imageIndex":4,"items":[{"name":"커피베이 덕평점","tel":"031-638-6004","addr":"경기도 이천시 마장면 오천리 114-9번지 1층","indutype":"일반휴게음식 - 서양음식","category":"restaurant"}]},{"lat":"37.253382219","long":"127.35278173","imageIndex":4,"items":[{"name":"커피아뜰리에 마장농협점","tel":"031-631-6310","addr":"경기도 이천시 마장면 오천리 282번지 1층","indutype":"일반휴게음식 - 서양음식","category":"restaurant"}]},{"lat":"37.254803947","long":"127.35036483","imageIndex":4,"items":[{"name":"큰맘할매순대국.뼈감자탕(마장점)","tel":"031-633-2144","addr":"경기도 이천시 마장면 오천리 275-1번지","indutype":"일반휴게음식 - 일반한식","category":"restaurant"}]},{"lat":"37.254297492","long":"127.351005","imageIndex":4,"items":[{"name":"피자스쿨(이천마장점)","tel":"031-633-7774","addr":"경기도 이천시 마장면 오천리 277-5번지 1층","indutype":"일반휴게음식 - 서양음식","category":"restaurant"}]}]