[{"lat":"38.149105684","long":"127.23670585","imageIndex":4,"items":[{"name":"관인약수터막국수","tel":"531-7766","addr":"경기도 포천시 관인면 초과리 227-3번지","indutype":"음식 - 한식","category":"restaurant"},{"name":"관인약수터막국수,비빔국수","tel":"031-531-7766","addr":"경기도 포천시 관인면 초과리 227-3","indutype":"일반휴게음식 - 일반한식","category":"restaurant"}]},{"lat":"38.158776221","long":"127.24800957","imageIndex":4,"items":[{"name":"몽마르지","tel":"534-7095","addr":"경기도 포천시 관인면 초과리 1-3번지","indutype":"음식 -","category":"restaurant"},{"name":"몽마르지","tel":"031-534-7095","addr":"경기도 포천시 관인면 초과리 1-3","indutype":"일반휴게음식 - 주점","category":"restaurant"},{"name":"진성정","tel":"531-9504","addr":"경기도 포천시 관인면 초과리 1-3번지","indutype":"음식 - 한식","category":"restaurant"}]},{"lat":"38.146242438","long":"127.24040425","imageIndex":4,"items":[{"name":"섭섭이네 식당","tel":"031-531-5629","addr":"경기도 포천시 관인면 초과리 237-1번지","indutype":"일반휴게음식 - 일반한식","category":"restaurant"},{"name":"섭섭이네식당","tel":"541-5639","addr":"경기도 포천시 관인면 초과리 237-1번지","indutype":"음식 - 한식","category":"restaurant"}]},{"lat":"38.138744286","long":"127.2233156","imageIndex":4,"items":[{"name":"소망쌈밥","tel":"031-531-7635","addr":"경기도 포천시 관인면 초과리 547번지","indutype":"일반휴게음식 - 일반한식","category":"restaurant"}]},{"lat":"38.152270698","long":"127.23976209","imageIndex":4,"items":[{"name":"양지마을","tel":"031-532-7297","addr":"경기도 포천시 관인면 초과리 74번지","indutype":"일반휴게음식 - 일반한식","category":"restaurant"}]},{"lat":"38.150910959","long":"127.23946107","imageIndex":4,"items":[{"name":"중원","tel":"031-533-3359","addr":"경기도 포천시 관인면 초과리 87-2","indutype":"일반휴게음식 - 중국식","category":"restaurant"}]}]