[{"lat":"37.656187534","long":"126.8372583","imageIndex":7,"items":[{"name":"(주)정강푸드 정강축산","tel":"031-969-8070","addr":"경기도 고양시 덕양구 성사동 697-14번지","indutype":"음료식품 - 정육점","category":"food"},{"name":"건강백화점 천기초","tel":"031-962-0688","addr":"경기도 고양시 덕양구 성사동 697-14번지","indutype":"음료식품 - 농·축·수산품","category":"food"},{"name":"우리안과건강지킴이","tel":"031-965-1331","addr":"경기도 고양시 덕양구 성사동 697-14번지","indutype":"건강식품 - 기타건강식품","category":"food"}]},{"lat":"37.661629582","long":"126.8439555","imageIndex":7,"items":[{"name":"365매점","tel":"02-6340-5385","addr":"경기도 고양시 덕양구 성사동 552-1번지","indutype":"음료식품 - 기타음료식품","category":"food"}]},{"lat":"37.653191745","long":"126.84044924","imageIndex":7,"items":[{"name":"가나안 농장","tel":"","addr":"경기도 고양시 덕양구 성사동","indutype":"음료식품 - 농·축·수산품","category":"food"}]},{"lat":"37.651635531","long":"126.83576129","imageIndex":7,"items":[{"name":"강원종합건강식품","tel":"031-968-6616","addr":"경기도 고양시 덕양구 성사동 730번지","indutype":"건강식품 - 기타건강식품","category":"food"},{"name":"진시루떡방","tel":"031-966-5902","addr":"경기도 고양시 덕양구 성사동 730번지","indutype":"음료식품 - 제과점","category":"food"}]},{"lat":"37.652703721","long":"126.83936244","imageIndex":7,"items":[{"name":"개미농수산물","tel":"","addr":"경기도 고양시 덕양구 성사동 719번지 어울림마을1단지아파트","indutype":"음료식품 - 농·축·수산품","category":"food"}]},{"lat":"37.657052349","long":"126.83717705","imageIndex":7,"items":[{"name":"건강백세","tel":"070-7501-5902","addr":"경기도 고양시 덕양구 성사동 696번지","indutype":"건강식품 - 기타건강식품","category":"food"},{"name":"우리축산","tel":"031-967-3801","addr":"경기도 고양시 덕양구 성사동 696번지","indutype":"음료식품 - 정육점","category":"food"}]},{"lat":"37.656800238","long":"126.83729094","imageIndex":7,"items":[{"name":"경기상회","tel":"031-965-3521","addr":"경기도 고양시 덕양구 성사동 696-1번지 원당상가연립","indutype":"음료식품 - 농·축·수산품","category":"food"},{"name":"신원당식품","tel":"031-963-3433","addr":"경기도 고양시 덕양구 성사동 696-1번지 원당상가연립","indutype":"음료식품 - 기타음료식품","category":"food"},{"name":"어사또 원당수산","tel":"","addr":"경기도 고양시 덕양구 성사동 696-1번지 원당상가연립","indutype":"음료식품 - 농·축·수산품","category":"food"},{"name":"원당고기백화점","tel":"031-969-6577","addr":"경기도 고양시 덕양구 성사동 696-1번지 원당상가연립","indutype":"음료식품 - 정육점","category":"food"},{"name":"원당반찬백화점","tel":"031-963-4973","addr":"경기도 고양시 덕양구 성사동 696-1번지 원당상가연립","indutype":"음료식품 - 기타음료식품","category":"food"},{"name":"원당수산","tel":"031-963-1397","addr":"경기도 고양시 덕양구 성사동 696-1번지 원당상가연립","indutype":"음료식품 - 농·축·수산품","category":"food"},{"name":"즉석빵할인매장","tel":"031-967-1111","addr":"경기도 고양시 덕양구 성사동 696-1번지 원당상가연립","indutype":"음료식품 - 제과점","category":"food"}]},{"lat":"37.656683494","long":"126.83756318","imageIndex":7,"items":[{"name":"경진떡방아간","tel":"031-962-6401","addr":"경기도 고양시 덕양구 성사동 697-8번지","indutype":"음료식품 - 제과점","category":"food"},{"name":"보광축산","tel":"031-964-2701","addr":"경기도 고양시 덕양구 성사동 697-8번지","indutype":"음료식품 - 정육점","category":"food"},{"name":"서울청과","tel":"031-969-7141","addr":"경기도 고양시 덕양구 성사동 697-8번지","indutype":"음료식품 - 농·축·수산품","category":"food"},{"name":"원당닭집","tel":"031-962-5602","addr":"경기도 고양시 덕양구 성사동 697-8번지","indutype":"음료식품 - 정육점","category":"food"},{"name":"한우정육점","tel":"031-964-2701","addr":"경기도 고양시 덕양구 성사동 697-8번지","indutype":"음료식품 - 정육점","category":"food"}]},{"lat":"37.657658166","long":"126.83872828","imageIndex":7,"items":[{"name":"계성상회","tel":"031-967-1694","addr":"경기도 고양시 덕양구 성사동 504-3번지","indutype":"음료식품 - 농·축·수산품","category":"food"}]},{"lat":"37.656466323","long":"126.83689504","imageIndex":7,"items":[{"name":"고씨네 정육점","tel":"031-966-6210","addr":"경기도 고양시 덕양구 성사동 696-2번지","indutype":"음료식품 - 정육점","category":"food"}]},{"lat":"37.656017128","long":"126.83781397","imageIndex":7,"items":[{"name":"과일나라","tel":"","addr":"경기도 고양시 덕양구 성사동 368-2번지","indutype":"음료식품 - 농·축·수산품","category":"food"}]},{"lat":"37.654495193","long":"126.83831595","imageIndex":7,"items":[{"name":"나우미","tel":"031-970-1080","addr":"경기도 고양시 덕양구 성사동 704-4번지","indutype":"회원제형태 - 건강식품","category":"food"},{"name":"장살림","tel":"031-977-9190","addr":"경기도 고양시 덕양구 성사동 704-4번지","indutype":"음료식품 - 기타음료식품","category":"food"}]},{"lat":"37.656774335","long":"126.8380956","imageIndex":7,"items":[{"name":"남도맛김치","tel":"031-969-8889","addr":"경기도 고양시 덕양구 성사동 367-17번지","indutype":"음료식품 - 기타음료식품","category":"food"},{"name":"한라농산","tel":"","addr":"경기도 고양시 덕양구 성사동 367-17번지","indutype":"음료식품 - 농·축·수산품","category":"food"},{"name":"한라농산","tel":"053-781-5953","addr":"경기도 고양시 덕양구 성사동 367-17번지","indutype":"음료식품 - 농·축·수산품","category":"food"},{"name":"한라농산","tel":"","addr":"경기도 고양시 덕양구 성사동 367-17번지","indutype":"음료식품 - 농·축·수산품","category":"food"}]},{"lat":"37.654521176","long":"126.83756797","imageIndex":7,"items":[{"name":"농수산물","tel":"","addr":"경기도 고양시 덕양구 성사동 703-8번지","indutype":"음료식품 - 농·축·수산품","category":"food"},{"name":"조조떡집","tel":"031-966-2441","addr":"경기도 고양시 덕양구 성사동 703-8번지","indutype":"음료식품 - 제과점","category":"food"}]},{"lat":"37.664436727","long":"126.8478143","imageIndex":7,"items":[{"name":"농자천영농조합법인","tel":"031-966-0782","addr":"경기도 고양시 덕양구 성사동","indutype":"음료식품 - 농·축·수산품","category":"food"}]},{"lat":"37.656629943","long":"126.83792593","imageIndex":7,"items":[{"name":"농장유통","tel":"031-965-0234","addr":"경기도 고양시 덕양구 성사동 697-2번지","indutype":"음료식품 - 정육점","category":"food"}]},{"lat":"37.653937956","long":"126.83292311","imageIndex":7,"items":[{"name":"다한유통","tel":"031-966-0063","addr":"경기도 고양시 덕양구 성사동","indutype":"음료식품 - 기타음료식품","category":"food"}]},{"lat":"37.659849677","long":"126.84028741","imageIndex":7,"items":[{"name":"달콤샵","tel":"03-111-1111","addr":"경기도 고양시 덕양구 성사동 519-63번지","indutype":"음료식품 - 기타음료식품","category":"food"},{"name":"만나항아리","tel":"031-966-6487","addr":"경기도 고양시 덕양구 성사동 519-63번지","indutype":"음료식품 - 기타음료식품","category":"food"}]},{"lat":"37.653630219","long":"126.83828386","imageIndex":7,"items":[{"name":"대박점핑다이어트","tel":"070-7856-4343","addr":"경기도 고양시 덕양구 성사동 720-1번지","indutype":"건강식품 - 기타건강식품","category":"food"}]},{"lat":"37.658325966","long":"126.83950877","imageIndex":7,"items":[{"name":"대성건강원","tel":"031-965-5581","addr":"경기도 고양시 덕양구 성사동 499번지","indutype":"건강식품 - 기타건강식품","category":"food"},{"name":"행주치마","tel":"031-970-8729","addr":"경기도 고양시 덕양구 성사동 499번지","indutype":"음료식품 - 기타음료식품","category":"food"}]},{"lat":"37.657183316","long":"126.84734209","imageIndex":7,"items":[{"name":"두메토종닭","tel":"031-968-1918","addr":"경기도 고양시 덕양구 성사동 산46번지","indutype":"음료식품 - 정육점","category":"food"}]},{"lat":"37.65671084","long":"126.83778977","imageIndex":7,"items":[{"name":"두빈상회","tel":"031-966-6011","addr":"경기도 고양시 덕양구 성사동 697-1번지","indutype":"음료식품 - 미곡상","category":"food"}]},{"lat":"37.656547027","long":"126.83662288","imageIndex":7,"items":[{"name":"뚜레쥬르 고양성사","tel":"031-967-0401","addr":"경기도 고양시 덕양구 성사동 696-3번지","indutype":"음료식품 - 제과점","category":"food"},{"name":"베스킨라빈스","tel":"031-967-3100","addr":"경기도 고양시 덕양구 성사동 696-3번지","indutype":"음료식품 - 제과점","category":"food"},{"name":"장독대원당시장점","tel":"031-967-5289","addr":"경기도 고양시 덕양구 성사동 696-3번지","indutype":"음료식품 - 기타음료식품","category":"food"}]},{"lat":"37.656384454","long":"126.83633993","imageIndex":7,"items":[{"name":"레스쁘아","tel":"031-963-6160","addr":"경기도 고양시 덕양구 성사동 698번지","indutype":"음료식품 - 제과점","category":"food"}]},{"lat":"37.654965976","long":"126.83995809","imageIndex":7,"items":[{"name":"로봇식빵","tel":"031-963-7652","addr":"경기도 고양시 덕양구 성사동 406-5번지","indutype":"음료식품 - 제과점","category":"food"}]},{"lat":"37.658496804","long":"126.83925907","imageIndex":7,"items":[{"name":"만나떡방앗간","tel":"031-969-3511","addr":"경기도 고양시 덕양구 성사동 500-23번지","indutype":"음료식품 - 제과점","category":"food"}]},{"lat":"37.655080203","long":"126.8378727","imageIndex":7,"items":[{"name":"만복건강원","tel":"031-966-6380","addr":"경기도 고양시 덕양구 성사동 702-28번지","indutype":"건강식품 - 기타건강식품","category":"food"}]},{"lat":"37.657941229","long":"126.84817913","imageIndex":7,"items":[{"name":"멋진과일","tel":"031-813-6311","addr":"경기도 고양시 덕양구 성사동 470-4번지","indutype":"음료식품 - 농·축·수산품","category":"food"}]},{"lat":"37.660796081","long":"126.84056867","imageIndex":7,"items":[{"name":"몰랑몰랑식빵","tel":"031-963-1012","addr":"경기도 고양시 덕양구 성사동 714번지","indutype":"음료식품 - 제과점","category":"food"}]},{"lat":"37.656439963","long":"126.83737106","imageIndex":7,"items":[{"name":"민속두부","tel":"031-964-5357","addr":"경기도 고양시 덕양구 성사동 697-12번지","indutype":"음료식품 - 기타음료식품","category":"food"},{"name":"민속복떡집","tel":"031-965-5357","addr":"경기도 고양시 덕양구 성사동 697-12번지","indutype":"음료식품 - 제과점","category":"food"}]},{"lat":"37.657080157","long":"126.83773229","imageIndex":7,"items":[{"name":"바우촌","tel":"031-965-5523","addr":"경기도 고양시 덕양구 성사동 367-1번지","indutype":"음료식품 - 정육점","category":"food"},{"name":"형제떡집","tel":"031-965-1697","addr":"경기도 고양시 덕양구 성사동 367-1번지","indutype":"음료식품 - 제과점","category":"food"}]},{"lat":"37.653572576","long":"126.83573428","imageIndex":7,"items":[{"name":"반찬나라","tel":"031-966-5087","addr":"경기도 고양시 덕양구 성사동","indutype":"음료식품 - 기타음료식품","category":"food"},{"name":"어울림홈웰빙","tel":"031-967-0611","addr":"경기도 고양시 덕양구 성사동 726번지","indutype":"건강식품 - 기타건강식품","category":"food"}]},{"lat":"37.656828203","long":"126.83795949","imageIndex":7,"items":[{"name":"백김치","tel":"","addr":"경기도 고양시 덕양구 성사동 367-15번지","indutype":"음료식품 - 기타음료식품","category":"food"},{"name":"장수두부","tel":"000-000-0000","addr":"경기도 고양시 덕양구 성사동 367-15번지","indutype":"음료식품 - 기타음료식품","category":"food"}]},{"lat":"37.629137718","long":"126.84856737","imageIndex":7,"items":[{"name":"범이네농장","tel":"031-967-9229","addr":"경기도 고양시 덕양구 성사동 101번지","indutype":"음료식품 - 농·축·수산품","category":"food"}]},{"lat":"37.658048356","long":"126.84073331","imageIndex":7,"items":[{"name":"별초홍삼","tel":"031-969-8868","addr":"경기도 고양시 덕양구 성사동 498번지","indutype":"건강식품 - 홍삼제품","category":"food"}]},{"lat":"37.658406046","long":"126.8387833","imageIndex":7,"items":[{"name":"봄소아웰빙","tel":"031-967-9696","addr":"경기도 고양시 덕양구 성사동 501-2번지 명지캐럿86","indutype":"회원제형태 - 건강식품","category":"food"},{"name":"정노화방지연구소","tel":"031-962-9500","addr":"경기도 고양시 덕양구 성사동 501-2번지 명지캐럿86","indutype":"건강식품 - 기타건강식품","category":"food"},{"name":"파리바게뜨고양성사점","tel":"031-965-7440","addr":"경기도 고양시 덕양구 성사동 501-2번지 명지캐럿86","indutype":"음료식품 - 제과점","category":"food"}]},{"lat":"37.65663064","long":"126.83842456","imageIndex":7,"items":[{"name":"부여옛날국수","tel":"02-871-9445","addr":"경기도 고양시 덕양구 성사동 506-25번지","indutype":"음료식품 - 기타음료식품","category":"food"}]},{"lat":"37.656909163","long":"126.83786865","imageIndex":7,"items":[{"name":"삼일상회","tel":"031-963-3312","addr":"경기도 고양시 덕양구 성사동 367-14번지","indutype":"음료식품 - 기타음료식품","category":"food"},{"name":"삼일유통","tel":"031-963-3312","addr":"경기도 고양시 덕양구 성사동 367-14번지","indutype":"음료식품 - 농·축·수산품","category":"food"}]},{"lat":"37.657856158","long":"126.83856919","imageIndex":7,"items":[{"name":"생생축산","tel":"031-965-0908","addr":"경기도 고양시 덕양구 성사동 500-22번지","indutype":"음료식품 - 정육점","category":"food"},{"name":"우리농산물할인매장","tel":"031-966-7353","addr":"경기도 고양시 덕양구 성사동 500-22번지","indutype":"음료식품 - 농·축·수산품","category":"food"}]},{"lat":"37.659154775","long":"126.83945029","imageIndex":7,"items":[{"name":"세계과자할인점","tel":"031-976-2533","addr":"경기도 고양시 덕양구 성사동 519-7번지","indutype":"음료식품 - 기타음료식품","category":"food"}]},{"lat":"37.657459496","long":"126.83840007","imageIndex":7,"items":[{"name":"세이네 야채","tel":"031-966-6924","addr":"경기도 고양시 덕양구 성사동 503번지","indutype":"음료식품 - 농·축·수산품","category":"food"}]},{"lat":"37.65493597","long":"126.83781636","imageIndex":7,"items":[{"name":"송이상회","tel":"031-968-2677","addr":"경기도 고양시 덕양구 성사동 702-29번지","indutype":"음료식품 - 농·축·수산품","category":"food"}]},{"lat":"37.660118557","long":"126.83926685","imageIndex":7,"items":[{"name":"신성유통","tel":"","addr":"경기도 고양시 덕양구 성사동 869번지 대림e편한세상아파트","indutype":"음료식품 - 기타음료식품","category":"food"}]},{"lat":"37.655826892","long":"126.84361657","imageIndex":7,"items":[{"name":"용진상회","tel":"031-966-8052","addr":"경기도 고양시 덕양구 성사동 420-1번지","indutype":"음료식품 - 농·축·수산품","category":"food"}]},{"lat":"37.656851128","long":"126.84150653","imageIndex":7,"items":[{"name":"우리농산식자재","tel":"070-4063-5181","addr":"경기도 고양시 덕양구 성사동 488-24번지","indutype":"음료식품 - 농·축·수산품","category":"food"}]},{"lat":"37.653467189","long":"126.83767229","imageIndex":7,"items":[{"name":"우리동네식빵","tel":"031-967-9707","addr":"경기도 고양시 덕양구 성사동 722-3번지","indutype":"음료식품 - 제과점","category":"food"},{"name":"일산원당건강생활","tel":"031-967-3568","addr":"경기도 고양시 덕양구 성사동 722-3번지","indutype":"건강식품 - 기타건강식품","category":"food"}]},{"lat":"37.654575853","long":"126.8380098","imageIndex":7,"items":[{"name":"원당기름집","tel":"031-965-2592","addr":"경기도 고양시 덕양구 성사동 704-1번지","indutype":"음료식품 - 기타음료식품","category":"food"}]},{"lat":"37.656990377","long":"126.83795914","imageIndex":7,"items":[{"name":"원당도소매고기시장","tel":"031-966-2622","addr":"경기도 고양시 덕양구 성사동 367-13번지","indutype":"음료식품 - 정육점","category":"food"},{"name":"제일상회","tel":"031-966-2722","addr":"경기도 고양시 덕양구 성사동 367-13번지","indutype":"음료식품 - 기타음료식품","category":"food"}]},{"lat":"37.658099797","long":"126.83884063","imageIndex":7,"items":[{"name":"원당떡방앗간","tel":"031-964-8646","addr":"경기도 고양시 덕양구 성사동 500-19번지","indutype":"음료식품 - 제과점","category":"food"}]},{"lat":"37.656548158","long":"126.83742749","imageIndex":7,"items":[{"name":"원당야채","tel":"031-966-7910","addr":"경기도 고양시 덕양구 성사동 697-10번지","indutype":"음료식품 - 농·축·수산품","category":"food"},{"name":"하림전문판매점","tel":"031-965-5136","addr":"경기도 고양시 덕양구 성사동 697-10번지","indutype":"음료식품 - 정육점","category":"food"}]},{"lat":"37.658073272","long":"126.83920334","imageIndex":7,"items":[{"name":"육일유통","tel":"031-970-6101","addr":"경기도 고양시 덕양구 성사동 500-9번지","indutype":"음료식품 - 농·축·수산품","category":"food"}]},{"lat":"37.657629856","long":"126.8378104","imageIndex":7,"items":[{"name":"정관장(원당역점)","tel":"031-966-2304","addr":"경기도 고양시 덕양구 성사동 513-3번지","indutype":"건강식품 - 홍삼제품","category":"food"},{"name":"정관장(원당역점)","tel":"031-966-2304","addr":"경기도 고양시 덕양구 성사동 513-3번지","indutype":"건강식품 - 홍삼제품","category":"food"}]},{"lat":"37.65746811","long":"126.83811674","imageIndex":7,"items":[{"name":"제일수산","tel":"031-966-1295","addr":"경기도 고양시 덕양구 성사동 503번지","indutype":"음료식품 - 농·축·수산품","category":"food"}]},{"lat":"37.645296124","long":"126.85164991","imageIndex":7,"items":[{"name":"착한우리한우","tel":"031-965-9261","addr":"경기도 고양시 덕양구 성사동 242-3번지","indutype":"음료식품 - 정육점","category":"food"}]},{"lat":"37.662547747","long":"126.85015291","imageIndex":7,"items":[{"name":"청초수 수산","tel":"031-111-1111","addr":"경기도 고양시 덕양구 성사동 556-5번지","indutype":"음료식품 - 농·축·수산품","category":"food"}]},{"lat":"37.658217159","long":"126.83901037","imageIndex":7,"items":[{"name":"축산물도소매센터","tel":"031-967-3488","addr":"경기도 고양시 덕양구 성사동 494-8번지","indutype":"음료식품 - 정육점","category":"food"}]},{"lat":"37.65310537","long":"126.83665322","imageIndex":7,"items":[{"name":"토말정육점","tel":"031-969-7113","addr":"경기도 고양시 덕양구 성사동 725번지","indutype":"음료식품 - 정육점","category":"food"}]},{"lat":"37.653241805","long":"126.83757081","imageIndex":7,"items":[{"name":"파리바게트","tel":"031-975-9834","addr":"경기도 고양시 덕양구 성사동","indutype":"음료식품 - 제과점","category":"food"}]},{"lat":"37.654189717","long":"126.83892856","imageIndex":7,"items":[{"name":"하나기업","tel":"031-973-4405","addr":"경기도 고양시 덕양구 성사동 704-10번지","indutype":"음료식품 - 기타음료식품","category":"food"}]},{"lat":"37.639024294","long":"126.85081289","imageIndex":7,"items":[{"name":"하람블루베리농장","tel":"","addr":"경기도 고양시 덕양구 성사동","indutype":"음료식품 - 농·축·수산품","category":"food"}]},{"lat":"37.658217615","long":"126.83933901","imageIndex":7,"items":[{"name":"한우리한우정육백화점","tel":"031-966-1615","addr":"경기도 고양시 덕양구 성사동 500-4번지","indutype":"음료식품 - 정육점","category":"food"}]},{"lat":"37.663602403","long":"126.85055876","imageIndex":7,"items":[{"name":"한우촌","tel":"031-969-4609","addr":"경기도 고양시 덕양구 성사동 579-3번지","indutype":"음료식품 - 정육점","category":"food"}]},{"lat":"37.656629356","long":"126.83750663","imageIndex":7,"items":[{"name":"형제상회(코리아푸드뱅크)","tel":"031-963-3799","addr":"경기도 고양시 덕양구 성사동 697-9번지","indutype":"음료식품 - 기타음료식품","category":"food"}]},{"lat":"37.657965806","long":"126.84632051","imageIndex":7,"items":[{"name":"황금정","tel":"031-969-3039","addr":"경기도 고양시 덕양구 성사동 471번지","indutype":"음료식품 - 농·축·수산품","category":"food"}]}]