[{"lat":"37.297209821","long":"126.98264857","imageIndex":4,"items":[{"name":"(주)천천더차이니즈","tel":"031-269-0679","addr":"경기도 수원시 장안구 천천동 524-4번지 카나다타워 2층","indutype":"일반휴게음식 - 중국식","category":"restaurant"},{"name":"쥬씨천천동점","tel":"031-271-6731","addr":"경기도 수원시 장안구 천천동 524-4번지 카나다타워 103호","indutype":"일반휴게음식 - 서양음식","category":"restaurant"}]},{"lat":"37.295182539","long":"126.98278445","imageIndex":4,"items":[{"name":"205 커피로스터즈","tel":"031-255-2882","addr":"경기도 수원시 장안구 천천동 528-1번지 세화프라자 117호","indutype":"일반휴게음식 - 서양음식","category":"restaurant"},{"name":"도심속옛터","tel":"031-251-5871","addr":"경기도 수원시 장안구 천천동 528-1번지 세화프라자 201호","indutype":"일반휴게음식 - 일반한식","category":"restaurant"},{"name":"롤롤","tel":"031-269-8365","addr":"경기도 수원시 장안구 천천동 528-1번지 세화프라자 116호","indutype":"일반휴게음식 - 일반한식","category":"restaurant"},{"name":"어머나생고기수원천천점","tel":"031-269-1588","addr":"경기도 수원시 장안구 천천동 528-1번지 세화프라자 201호","indutype":"일반휴게음식 - 일반한식","category":"restaurant"},{"name":"중평떡볶이","tel":"031-269-0866","addr":"경기도 수원시 장안구 천천동 528-1번지 세화프라자 115호","indutype":"일반휴게음식 - 일반한식","category":"restaurant"},{"name":"최고당돈까스 수원천천점","tel":"031-8067-7977","addr":"경기도 수원시 장안구 천천동 528-1번지 세화프라자 1층 101호","indutype":"일반휴게음식 - 서양음식","category":"restaurant"},{"name":"후레쉬빌","tel":"031-269-1515","addr":"경기도 수원시 장안구 천천동 528-1번지 세화프라자 1층 8호","indutype":"일반휴게음식 - 칵테일바","category":"restaurant"}]},{"lat":"37.299903391","long":"126.97995222","imageIndex":4,"items":[{"name":"507비어","tel":"031-268-5072","addr":"경기도 수원시 장안구 천천동 507-2번지 1층","indutype":"일반휴게음식 - 주점","category":"restaurant"}]},{"lat":"37.300839915","long":"126.97731267","imageIndex":4,"items":[{"name":"59쌀피자","tel":"031-268-1359","addr":"경기도 수원시 장안구 천천동 571-5번지 골든프라자 106호","indutype":"일반휴게음식 - 서양음식","category":"restaurant"},{"name":"감탄천천2호점","tel":"031-268-5889","addr":"경기도 수원시 장안구 천천동 571-5번지 골든프라자 108호","indutype":"일반휴게음식 - 일반한식","category":"restaurant"},{"name":"우야꼬","tel":"031-268-1800","addr":"경기도 수원시 장안구 천천동 571-5번지 골든프라자","indutype":"일반휴게음식 - 일식·회집","category":"restaurant"},{"name":"커피앤유","tel":"031-268-7770","addr":"경기도 수원시 장안구 천천동 571-5번지 골든프라자 101호","indutype":"일반휴게음식 - 서양음식","category":"restaurant"}]},{"lat":"37.29165045","long":"126.98236812","imageIndex":4,"items":[{"name":"59쌀피자","tel":"031-292-7000","addr":"경기도 수원시 장안구 천천동 334-2번지 천천푸르지오 상가 112-2호","indutype":"일반휴게음식 - 서양음식","category":"restaurant"},{"name":"브레드로빈","tel":"031-278-0971","addr":"경기도 수원시 장안구 천천동 334-2번지 천천 푸르지오 103호","indutype":"일반휴게음식 - 서양음식","category":"restaurant"},{"name":"쏭스클럽핫도그 수원천천점","tel":"031-257-2314","addr":"경기도 수원시 장안구 천천동 334-2번지 천천푸르지오근린생활시설-1 101호","indutype":"일반휴게음식 - 서양음식","category":"restaurant"},{"name":"요런떡볶이천천점","tel":"031-227-5359","addr":"경기도 수원시 장안구 천천동 334-2번지 천천푸르지오1상가 111호","indutype":"일반휴게음식 - 스넥","category":"restaurant"},{"name":"커피브리즈","tel":"","addr":"경기도 수원시 장안구 천천동 334-2번지 천천푸르지오 2층 212호 근린생활시설1","indutype":"일반휴게음식 - 서양음식","category":"restaurant"}]},{"lat":"37.299623627","long":"126.97775295","imageIndex":4,"items":[{"name":"Bside (비사이드)","tel":"031-269-2678","addr":"경기도 수원시 장안구 천천동 501-1번지 지하1층","indutype":"일반휴게음식 - 일반한식","category":"restaurant"}]},{"lat":"37.295398883","long":"126.98337085","imageIndex":4,"items":[{"name":"가마솥김밥천천점","tel":"031-268-7980","addr":"경기도 수원시 장안구 천천동 528-3번지 대일 110호","indutype":"일반휴게음식 - 일반한식","category":"restaurant"},{"name":"고칸","tel":"031-269-5558","addr":"경기도 수원시 장안구 천천동 528-3번지 대일프라자 109호","indutype":"일반휴게음식 - 일식·회집","category":"restaurant"},{"name":"국수나무(천천점)","tel":"031-269-1322","addr":"경기도 수원시 장안구 천천동 528-3번지 대일 107호","indutype":"일반휴게음식 - 스넥","category":"restaurant"},{"name":"남가네설악추어탕","tel":"031-271-9993","addr":"경기도 수원시 장안구 천천동 528-3번지 대일프라자 3층 305,306호","indutype":"일반휴게음식 - 일반한식","category":"restaurant"},{"name":"석기정","tel":"031-269-0990","addr":"경기도 수원시 장안구 천천동 528-3번지 대일프라자 206호","indutype":"일반휴게음식 - 일반한식","category":"restaurant"},{"name":"여우찜닭&불닭발","tel":"031-222-2222","addr":"경기도 수원시 장안구 천천동 528-3번지 대일 111호","indutype":"일반휴게음식 - 일반한식","category":"restaurant"},{"name":"주식회사 쁘띠아미 아이스천천점","tel":"031-271-5052","addr":"경기도 수원시 장안구 천천동 528-3번지 대일프라자 1층 106호","indutype":"일반휴게음식 - 서양음식","category":"restaurant"},{"name":"치킨매니아","tel":"031-254-2299","addr":"경기도 수원시 장안구 천천동 528-3번지 대일 204호","indutype":"일반휴게음식 - 스넥","category":"restaurant"},{"name":"카페로즈","tel":"","addr":"경기도 수원시 장안구 천천동 528-3번지 대일 8층 802호","indutype":"일반휴게음식 - 서양음식","category":"restaurant"},{"name":"펀비어킹","tel":"031-269-9066","addr":"경기도 수원시 장안구 천천동 528-3번지 대일프라자 2층 205호","indutype":"일반휴게음식 - 일반한식","category":"restaurant"}]},{"lat":"37.299344782","long":"126.98008774","imageIndex":4,"items":[{"name":"가메참치","tel":"031-269-3712","addr":"경기도 수원시 장안구 천천동 507-11번지","indutype":"일반휴게음식 - 일식·회집","category":"restaurant"}]},{"lat":"37.298903005","long":"126.9787006","imageIndex":4,"items":[{"name":"가비이야기","tel":"031-269-9457","addr":"경기도 수원시 장안구 천천동 503-7번지 1층","indutype":"일반휴게음식 - 스넥","category":"restaurant"}]},{"lat":"37.300452266","long":"126.97636538","imageIndex":4,"items":[{"name":"가향","tel":"031-271-2233","addr":"경기도 수원시 장안구 천천동 572-2번지 1층","indutype":"일반휴게음식 - 일반한식","category":"restaurant"}]},{"lat":"37.303037911","long":"126.97508992","imageIndex":4,"items":[{"name":"개성면옥","tel":"031-211-1002","addr":"경기도 수원시 장안구 천천동 550-5번지","indutype":"일반휴게음식 - 일반한식","category":"restaurant"}]},{"lat":"37.298569665","long":"126.97889244","imageIndex":4,"items":[{"name":"갤러리카페발칙한공간","tel":"031-269-6660","addr":"경기도 수원시 장안구 천천동 509-9번지 1층","indutype":"일반휴게음식 - 서양음식","category":"restaurant"}]},{"lat":"37.296119642","long":"126.98300977","imageIndex":4,"items":[{"name":"고봉민김밥인","tel":"031-271-3337","addr":"경기도 수원시 장안구 천천동 527-7번지 센타프라자 1층 104호","indutype":"일반휴게음식 - 스넥","category":"restaurant"},{"name":"식빵공장 (수원천천점)","tel":"031-268-0453","addr":"경기도 수원시 장안구 천천동 527-7번지 센타프라자 105호","indutype":"일반휴게음식 - 일반한식","category":"restaurant"},{"name":"원할머니보쌈","tel":"031-247-8897","addr":"경기도 수원시 장안구 천천동 527-7번지 센타프라자 201호","indutype":"일반휴게음식 - 일반한식","category":"restaurant"},{"name":"이디야천천점","tel":"031-269-9995","addr":"경기도 수원시 장안구 천천동 527-7번지 센타프라자 102호","indutype":"일반휴게음식 - 서양음식","category":"restaurant"},{"name":"죠스떡볶이 수원천천점","tel":"031-247-6500","addr":"경기도 수원시 장안구 천천동 527-7번지 센타프라자 101호","indutype":"일반휴게음식 - 스넥","category":"restaurant"}]},{"lat":"37.299173358","long":"126.97892609","imageIndex":4,"items":[{"name":"곤드레마을","tel":"031-245-5693","addr":"경기도 수원시 장안구 천천동 504-5번지 1층","indutype":"일반휴게음식 - 일반한식","category":"restaurant"}]},{"lat":"37.299930469","long":"126.98020035","imageIndex":4,"items":[{"name":"공릉닭한마리","tel":"031-268-0030","addr":"경기도 수원시 장안구 천천동 508-1번지 1층","indutype":"일반휴게음식 - 일반한식","category":"restaurant"},{"name":"쟌비어스","tel":"031-268-9582","addr":"경기도 수원시 장안구 천천동 508-1번지 쟌비어스","indutype":"일반휴게음식 - 주점","category":"restaurant"}]},{"lat":"37.300146672","long":"126.97997471","imageIndex":4,"items":[{"name":"교촌(정자2호점)","tel":"031-251-2332","addr":"경기도 수원시 장안구 천천동 502-6번지 1층","indutype":"일반휴게음식 - 스넥","category":"restaurant"},{"name":"뽕뜨락피자 정자1점","tel":"031-269-1082","addr":"경기도 수원시 장안구 천천동 502-6번지 1층","indutype":"일반휴게음식 - 서양음식","category":"restaurant"}]},{"lat":"37.289676184","long":"126.97714729","imageIndex":4,"items":[{"name":"구어가요","tel":"031-111-1111","addr":"경기도 수원시 장안구 천천동 385-6번지 전체","indutype":"일반휴게음식 - 일반한식","category":"restaurant"}]},{"lat":"37.301956741","long":"126.97533845","imageIndex":4,"items":[{"name":"국밥의명가","tel":"031-269-4632","addr":"경기도 수원시 장안구 천천동 563번지 101호,102호","indutype":"일반휴게음식 - 일반한식","category":"restaurant"},{"name":"숯불특수부위구이","tel":"031-8067-8989","addr":"경기도 수원시 장안구 천천동 563번지 101,102호","indutype":"일반휴게음식 - 일반한식","category":"restaurant"},{"name":"카페에비뉴(cafe avenue)","tel":"031-271-0071","addr":"경기도 수원시 장안구 천천동 563번지 신안한일A상가 1층 108,108호","indutype":"일반휴게음식 - 서양음식","category":"restaurant"}]},{"lat":"37.299704778","long":"126.9780349","imageIndex":4,"items":[{"name":"기와보쌈서","tel":"070-4649-1101","addr":"경기도 수원시 장안구 천천동 501-3번지 1층","indutype":"일반휴게음식 - 일반한식","category":"restaurant"}]},{"lat":"37.295984549","long":"126.9833707","imageIndex":4,"items":[{"name":"김밥천국","tel":"031-269-5432","addr":"경기도 수원시 장안구 천천동 527-9번지 천경빌딩 1층","indutype":"일반휴게음식 - 일반한식","category":"restaurant"}]},{"lat":"37.302930088","long":"126.97639835","imageIndex":4,"items":[{"name":"까꾸망","tel":"031-271-2021","addr":"경기도 수원시 장안구 천천동 475-3번지","indutype":"일반휴게음식 - 주점","category":"restaurant"}]},{"lat":"37.299678075","long":"126.97964776","imageIndex":4,"items":[{"name":"꼬치네","tel":"031-269-2248","addr":"경기도 수원시 장안구 천천동 506-3번지 1층","indutype":"일반휴게음식 - 일반한식","category":"restaurant"},{"name":"불티꼼장어","tel":"031-269-8607","addr":"경기도 수원시 장안구 천천동 506-3번지 1층","indutype":"일반휴게음식 - 일반한식","category":"restaurant"}]},{"lat":"37.288928684","long":"126.97881656","imageIndex":4,"items":[{"name":"꿈에서본족발","tel":"070-4649-1101","addr":"경기도 수원시 장안구 천천동 367-5번지 1층","indutype":"일반휴게음식 - 일반한식","category":"restaurant"}]},{"lat":"37.296543128","long":"126.98303221","imageIndex":4,"items":[{"name":"나무","tel":"070-7524-6398","addr":"경기도 수원시 장안구 천천동 527-3번지 부강프라자 505호","indutype":"일반휴게음식 - 일반한식","category":"restaurant"},{"name":"투썸플레이스수원천천점","tel":"031-271-2053","addr":"경기도 수원시 장안구 천천동 527-3번지 부강프라자 201호","indutype":"일반휴게음식 - 서양음식","category":"restaurant"}]},{"lat":"37.299759242","long":"126.98003122","imageIndex":4,"items":[{"name":"나이트티 (NIGHT TEA)","tel":"031-271-8837","addr":"경기도 수원시 장안구 천천동 507-3번지 1층","indutype":"일반휴게음식 - 서양음식","category":"restaurant"}]},{"lat":"37.296452987","long":"126.98280667","imageIndex":4,"items":[{"name":"놀부부대찌개","tel":"031-271-1559","addr":"경기도 수원시 장안구 천천동 527-4번지 광장프라자 101호","indutype":"일반휴게음식 - 일반한식","category":"restaurant"},{"name":"두끼 천천점","tel":"031-269-2771","addr":"경기도 수원시 장안구 천천동 527-4번지 광장프라자 2층 201호","indutype":"일반휴게음식 - 일반한식","category":"restaurant"},{"name":"미소야","tel":"031-269-9444","addr":"경기도 수원시 장안구 천천동 527-4번지 광장프라자 102호","indutype":"일반휴게음식 - 일반한식","category":"restaurant"},{"name":"포메인천천점","tel":"031-271-0307","addr":"경기도 수원시 장안구 천천동 527-4번지 광장타워 302호","indutype":"일반휴게음식 - 일반한식","category":"restaurant"},{"name":"풍미락갈비","tel":"031-269-0706","addr":"경기도 수원시 장안구 천천동 527-4번지 광장프라자 101호","indutype":"일반휴게음식 - 일반한식","category":"restaurant"}]},{"lat":"37.299290461","long":"126.97877943","imageIndex":4,"items":[{"name":"능이복&동태탕","tel":"031-269-0123","addr":"경기도 수원시 장안구 천천동 504-4번지 1층","indutype":"일반휴게음식 - 일반한식","category":"restaurant"}]},{"lat":"37.295317744","long":"126.98308892","imageIndex":4,"items":[{"name":"닐리꾸오꼬","tel":"031-269-2349","addr":"경기도 수원시 장안구 천천동 528-2번지 중앙프라자 104호","indutype":"일반휴게음식 - 서양음식","category":"restaurant"},{"name":"주)우리동네스시신조","tel":"031-252-5577","addr":"경기도 수원시 장안구 천천동 528-2번지 중앙프라자 2층 202-2호","indutype":"일반휴게음식 - 일식·회집","category":"restaurant"},{"name":"킹스타피자","tel":"031-269-9939","addr":"경기도 수원시 장안구 천천동 528-2번지 중앙프라자 101호","indutype":"일반휴게음식 - 일반한식","category":"restaurant"},{"name":"한국인의밥상맛찬","tel":"031-269-2253","addr":"경기도 수원시 장안구 천천동 528-2번지 중앙프라자 103호","indutype":"일반휴게음식 - 일반한식","category":"restaurant"},{"name":"홍짜장","tel":"031-269-6886","addr":"경기도 수원시 장안구 천천동 528-2번지 중앙프라자 102호","indutype":"일반휴게음식 - 중국식","category":"restaurant"}]},{"lat":"37.299236585","long":"126.97970429","imageIndex":4,"items":[{"name":"다소니","tel":"031-271-5885","addr":"경기도 수원시 장안구 천천동 506-11번지 1층","indutype":"일반휴게음식 - 서양음식","category":"restaurant"}]},{"lat":"37.299119574","long":"126.98033593","imageIndex":4,"items":[{"name":"다우리","tel":"031-269-7809","addr":"경기도 수원시 장안구 천천동 507-8번지","indutype":"일반휴게음식 - 일반한식","category":"restaurant"}]},{"lat":"37.297011497","long":"126.98208471","imageIndex":4,"items":[{"name":"달래네 밥집","tel":"031-269-0828","addr":"경기도 수원시 장안구 천천동 524-2번지 천천동그린프라자 4층 403호","indutype":"일반휴게음식 - 일반한식","category":"restaurant"},{"name":"봉구스밥버거천천점","tel":"031-269-1605","addr":"경기도 수원시 장안구 천천동 524-2번지 천천동그린프라자 103호","indutype":"일반휴게음식 - 스넥","category":"restaurant"},{"name":"샤브향수원천천점","tel":"031-302-6800","addr":"경기도 수원시 장안구 천천동 524-2 천천그린프라자2층202,202-1호","indutype":"일반휴게음식 - 일반한식","category":"restaurant"},{"name":"스시돈부리","tel":"031-268-1160","addr":"경기도 수원시 장안구 천천동 524-2번지 천천동그린프라자 103호","indutype":"일반휴게음식 - 일반한식","category":"restaurant"},{"name":"피자스쿨천천점","tel":"031-268-8279","addr":"경기도 수원시 장안구 천천동 524-2번지 천천동그린프라자","indutype":"일반휴게음식 - 서양음식","category":"restaurant"},{"name":"하덴커피","tel":"031-268-7227","addr":"경기도 수원시 장안구 천천동 524-2번지 천천동그린프라자 A동 202,202-1호","indutype":"일반휴게음식 - 서양음식","category":"restaurant"}]},{"lat":"37.300705465","long":"126.98080917","imageIndex":4,"items":[{"name":"더담다(The 담다)","tel":"031-268-9922","addr":"경기도 수원시 장안구 천천동 481-3번지","indutype":"일반휴게음식 - 일반한식","category":"restaurant"}]},{"lat":"37.294010505","long":"126.97900667","imageIndex":4,"items":[{"name":"더쉐어34지구","tel":"031-278-3479","addr":"경기도 수원시 장안구 천천동 339-17번지 1층","indutype":"일반휴게음식 - 일반한식","category":"restaurant"}]},{"lat":"37.303145672","long":"126.97358974","imageIndex":4,"items":[{"name":"도미노피자 율천점","tel":"031-269-3008","addr":"경기도 수원시 장안구 천천동 548-2번지 1층","indutype":"일반휴게음식 - 서양음식","category":"restaurant"}]},{"lat":"37.299542669","long":"126.97839587","imageIndex":4,"items":[{"name":"동해바다회","tel":"031-241-9992","addr":"경기도 수원시 장안구 천천동 504-1번지","indutype":"일반휴게음식 - 일반한식","category":"restaurant"}]},{"lat":"37.290514368","long":"126.97822963","imageIndex":4,"items":[{"name":"등나무숯불구이","tel":"031-247-2222","addr":"경기도 수원시 장안구 천천동 325-19번지 샬롬빌딩 1층","indutype":"일반휴게음식 - 일반한식","category":"restaurant"}]},{"lat":"37.298984324","long":"126.97983971","imageIndex":4,"items":[{"name":"등촌샤브칼국수","tel":"031-269-2292","addr":"경기도 수원시 장안구 천천동 506-9번지","indutype":"일반휴게음식 - 일반한식","category":"restaurant"}]},{"lat":"37.294181945","long":"126.98025846","imageIndex":4,"items":[{"name":"땡큐맘치킨","tel":"031-278-9909","addr":"경기도 수원시 장안구 천천동 334-1번지","indutype":"일반휴게음식 - 스넥","category":"restaurant"}]},{"lat":"37.299731837","long":"126.97817023","imageIndex":4,"items":[{"name":"램(LAMB) 공방","tel":"","addr":"경기도 수원시 장안구 천천동 501-4번지 1층","indutype":"일반휴게음식 - 중국식","category":"restaurant"}]},{"lat":"37.300065527","long":"126.97970404","imageIndex":4,"items":[{"name":"레오하우스","tel":"031-1111-1111","addr":"경기도 수원시 장안구 천천동 502-4번지 1층","indutype":"일반휴게음식 - 서양음식","category":"restaurant"},{"name":"흑염소양만남","tel":"031-271-1568","addr":"경기도 수원시 장안구 천천동 502-4번지 1층","indutype":"일반휴게음식 - 일반한식","category":"restaurant"}]},{"lat":"37.299092141","long":"126.97831706","imageIndex":4,"items":[{"name":"르씨엘드파리","tel":"031-269-3331","addr":"경기도 수원시 장안구 천천동 503-10번지","indutype":"일반휴게음식 - 칵테일바","category":"restaurant"}]},{"lat":"37.299506977","long":"126.98014408","imageIndex":4,"items":[{"name":"마늘은 약이다 보쌈&족발 (천천동점)","tel":"031-269-0777","addr":"경기도 수원시 장안구 천천동 507-5번지","indutype":"일반휴게음식 - 일반한식","category":"restaurant"}]},{"lat":"37.298623756","long":"126.97903905","imageIndex":4,"items":[{"name":"마마뜰","tel":"031-227-7200","addr":"경기도 수원시 장안구 천천동 509-8번지 1층","indutype":"일반휴게음식 - 서양음식","category":"restaurant"}]},{"lat":"37.296759351","long":"126.98289681","imageIndex":4,"items":[{"name":"맘스터치 천천점","tel":"031-271-5225","addr":"경기도 수원시 장안구 천천동 527-2번지 수정프라자 107,108호","indutype":"일반휴게음식 - 서양음식","category":"restaurant"},{"name":"명랑시대 쌀 핫도그(수원 천천동점)","tel":"031-268-4804","addr":"경기도 수원시 장안구 천천동 527-2번지 수정프라자 1층 102호","indutype":"일반휴게음식 - 서양음식","category":"restaurant"},{"name":"명인만두(수원 천천점)","tel":"031-269-0078","addr":"경기도 수원시 장안구 천천동 527-2번지 수정프라자 104호","indutype":"일반휴게음식 - 일반한식","category":"restaurant"},{"name":"봉덕이제생삼겹살","tel":"031-268-9220","addr":"경기도 수원시 장안구 천천동 527-2번지 수정프라자 302호","indutype":"일반휴게음식 - 일반한식","category":"restaurant"}]},{"lat":"37.302876087","long":"126.97666907","imageIndex":4,"items":[{"name":"매드앤커피","tel":"031-271-0503","addr":"경기도 수원시 장안구 천천동 475-5번지","indutype":"일반휴게음식 - 서양음식","category":"restaurant"}]},{"lat":"37.297092635","long":"126.98234409","imageIndex":4,"items":[{"name":"메가엠지씨커피 수원천천점","tel":"070-4725-9770","addr":"경기도 수원시 장안구 천천동 524-3번지 로얄프라자 1층 102호","indutype":"일반휴게음식 - 서양음식","category":"restaurant"}]},{"lat":"37.290703588","long":"126.97825213","imageIndex":4,"items":[{"name":"멕시칸치킨","tel":"031-294-7782","addr":"경기도 수원시 장안구 천천동 325-40번지 신원프라자 102호","indutype":"일반휴게음식 - 일반한식","category":"restaurant"}]},{"lat":"37.298876081","long":"126.9792307","imageIndex":4,"items":[{"name":"명가소반","tel":"031-268-3366","addr":"경기도 수원시 장안구 천천동 509-4번지 1층","indutype":"일반휴게음식 - 일반한식","category":"restaurant"}]},{"lat":"37.30234391","long":"126.97419912","imageIndex":4,"items":[{"name":"명지네전집","tel":"031-271-5669","addr":"경기도 수원시 장안구 천천동 561-1번지 104호","indutype":"일반휴게음식 - 일반한식","category":"restaurant"},{"name":"청원순두부","tel":"031-000-0000","addr":"경기도 수원시 장안구 천천동 561-1번지 1층","indutype":"일반휴게음식 - 일반한식","category":"restaurant"},{"name":"플랫일공일","tel":"070-8840-9594","addr":"경기도 수원시 장안구 천천동 561-1번지 1층 101호","indutype":"일반휴게음식 - 서양음식","category":"restaurant"}]},{"lat":"37.302064579","long":"126.97414283","imageIndex":4,"items":[{"name":"모퉁이","tel":"031-268-6072","addr":"경기도 수원시 장안구 천천동 561-3번지","indutype":"일반휴게음식 - 스넥","category":"restaurant"},{"name":"양푼동태탕","tel":"031-242-6540","addr":"경기도 수원시 장안구 천천동 561-3번지 102호","indutype":"일반휴게음식 - 일반한식","category":"restaurant"}]},{"lat":"37.299903181","long":"126.97889202","imageIndex":4,"items":[{"name":"무봉리토종순대국","tel":"031-269-9035","addr":"경기도 수원시 장안구 천천동 501-10번지","indutype":"일반휴게음식 - 일반한식","category":"restaurant"}]},{"lat":"37.299650689","long":"126.97789957","imageIndex":4,"items":[{"name":"무안낙지촌","tel":"031-268-6606","addr":"경기도 수원시 장안구 천천동 501-2번지 1층","indutype":"일반휴게음식 - 일반한식","category":"restaurant"}]},{"lat":"37.29975913","long":"126.979456","imageIndex":4,"items":[{"name":"무진장 김치찌개","tel":"031-268-5592","addr":"경기도 수원시 장안구 천천동 506-1번지","indutype":"일반휴게음식 - 일반한식","category":"restaurant"}]},{"lat":"37.299452508","long":"126.97811393","imageIndex":4,"items":[{"name":"바빈스수원천천점","tel":"031-269-0927","addr":"경기도 수원시 장안구 천천동 503-2번지 1층","indutype":"일반휴게음식 - 일반한식","category":"restaurant"}]},{"lat":"37.303290026","long":"126.97436795","imageIndex":4,"items":[{"name":"밤밭골","tel":"031-248-2505","addr":"경기도 수원시 장안구 천천동 547-8번지 은하수빌 101호","indutype":"일반휴게음식 - 일반한식","category":"restaurant"}]},{"lat":"37.295516057","long":"126.98361894","imageIndex":4,"items":[{"name":"베트남노상식당 (천천점)","tel":"031-889-1700","addr":"경기도 수원시 장안구 천천동 528-4번지 태영프라자 112호","indutype":"일반휴게음식 - 서양음식","category":"restaurant"},{"name":"셀리나 (CELINA)","tel":"031-271-6410","addr":"경기도 수원시 장안구 천천동 528-4번지 태영프라자 203호","indutype":"일반휴게음식 - 일반한식","category":"restaurant"},{"name":"수원천천작심카페","tel":"031-271-0910","addr":"경기도 수원시 장안구 천천동 528-4번지 태영프라자 1003-1호","indutype":"일반휴게음식 - 서양음식","category":"restaurant"},{"name":"인디블루","tel":"031-271-1399","addr":"경기도 수원시 장안구 천천동 528-4번지 102","indutype":"일반휴게음식 - 서양음식","category":"restaurant"},{"name":"춘천마을닭갈비","tel":"031-269-1438","addr":"경기도 수원시 장안구 천천동 528-4번지 태영프라자 201호","indutype":"일반휴게음식 - 일반한식","category":"restaurant"},{"name":"치킨마루 천천롯데마트점","tel":"031-274-3889","addr":"경기도 수원시 장안구 천천동 528-4번지 태영프라자 106-1호","indutype":"일반휴게음식 - 스넥","category":"restaurant"},{"name":"토마토도시락 천천점","tel":"031-271-5004","addr":"경기도 수원시 장안구 천천동 528-4번지 태영프라자 101호","indutype":"일반휴게음식 - 일반한식","category":"restaurant"},{"name":"피자마루","tel":"031-268-8285","addr":"경기도 수원시 장안구 천천동 528-4번지 태영프자라 107호","indutype":"일반휴게음식 - 서양음식","category":"restaurant"},{"name":"하남돼지집수원천천점","tel":"031-269-9922","addr":"경기도 수원시 장안구 천천동 528-4번지 태영프자라 202호","indutype":"일반휴게음식 - 일반한식","category":"restaurant"}]},{"lat":"37.289847609","long":"126.97822985","imageIndex":4,"items":[{"name":"본래순대(성대점)","tel":"","addr":"경기도 수원시 장안구 천천동 361번지 1층","indutype":"일반휴게음식 - 일반한식","category":"restaurant"},{"name":"원조명동찌게마을","tel":"031-293-6100","addr":"경기도 수원시 장안구 천천동 361번지","indutype":"일반휴게음식 - 서양음식","category":"restaurant"}]},{"lat":"37.299840058","long":"126.9786439","imageIndex":4,"items":[{"name":"본만두","tel":"031-269-2005","addr":"경기도 수원시 장안구 천천동 501-8번지","indutype":"일반휴게음식 - 일반한식","category":"restaurant"}]},{"lat":"37.296236811","long":"126.98322402","imageIndex":4,"items":[{"name":"본죽","tel":"031-253-8884","addr":"경기도 수원시 장안구 천천동 527-8번지 강민크리닉 101호","indutype":"일반휴게음식 - 일반한식","category":"restaurant"},{"name":"수원천천롯데점 빽다방","tel":"031-268-8789","addr":"경기도 수원시 장안구 천천동 527-8번지 강민크리닉 106호","indutype":"일반휴게음식 - 서양음식","category":"restaurant"}]},{"lat":"37.303010938","long":"126.97533807","imageIndex":4,"items":[{"name":"봄플라워","tel":"031-271-3913","addr":"경기도 수원시 장안구 천천동 550-7번지 1층","indutype":"일반휴게음식 - 서양음식","category":"restaurant"}]},{"lat":"37.303064856","long":"126.97472897","imageIndex":4,"items":[{"name":"봉자비어","tel":"031-271-3040","addr":"경기도 수원시 장안구 천천동 550-2번지 1층","indutype":"일반휴게음식 - 일반한식","category":"restaurant"}]},{"lat":"37.29667822","long":"126.98267127","imageIndex":4,"items":[{"name":"봉추찜닭","tel":"031-292-6165","addr":"경기도 수원시 장안구 천천동 527-1번지 롯데프라자 1층 102호","indutype":"일반휴게음식 - 일반한식","category":"restaurant"},{"name":"슬라임톡톡","tel":"031-271-7172","addr":"경기도 수원시 장안구 천천동 527-1번지 롯데프라자 301호","indutype":"일반휴게음식 - 서양음식","category":"restaurant"}]},{"lat":"37.294650186","long":"126.97878091","imageIndex":4,"items":[{"name":"부뚜막김치찜","tel":"031-292-0056","addr":"경기도 수원시 장안구 천천동 268-28번지 부뚜막보쌈김치찜","indutype":"일반휴게음식 - 일반한식","category":"restaurant"}]},{"lat":"37.300371136","long":"126.97619622","imageIndex":4,"items":[{"name":"부어치킨","tel":"031-268-9999","addr":"경기도 수원시 장안구 천천동 572-21번지 1층","indutype":"일반휴게음식 - 스넥","category":"restaurant"}]},{"lat":"37.288676129","long":"126.97753105","imageIndex":4,"items":[{"name":"부현갈비","tel":"031-294-9252","addr":"경기도 수원시 장안구 천천동 364-9번지","indutype":"일반휴게음식 - 일반한식","category":"restaurant"}]},{"lat":"37.299786187","long":"126.97959134","imageIndex":4,"items":[{"name":"비어퀸","tel":"031-268-5155","addr":"경기도 수원시 장안구 천천동 506-2번지 1층","indutype":"일반휴게음식 - 주점","category":"restaurant"}]},{"lat":"37.300678413","long":"126.98069639","imageIndex":4,"items":[{"name":"비에이치씨 치킨 천천베스트점","tel":"031-271-5040","addr":"경기도 수원시 장안구 천천동 481-2번지","indutype":"일반휴게음식 - 스넥","category":"restaurant"}]},{"lat":"37.288928374","long":"126.97733926","imageIndex":4,"items":[{"name":"삼대째손두부이가","tel":"031-294-5713","addr":"경기도 수원시 장안구 천천동 364-2번지","indutype":"일반휴게음식 - 일반한식","category":"restaurant"}]},{"lat":"37.303704389","long":"126.9739279","imageIndex":4,"items":[{"name":"상청당","tel":"","addr":"경기도 수원시 장안구 천천동 546-5번지 1층","indutype":"일반휴게음식 - 일반한식","category":"restaurant"}]},{"lat":"37.30309174","long":"126.97411988","imageIndex":4,"items":[{"name":"샘내길김밥","tel":"031-268-8919","addr":"경기도 수원시 장안구 천천동 548-6번지 1층","indutype":"일반휴게음식 - 일반한식","category":"restaurant"}]},{"lat":"37.290316189","long":"126.97845525","imageIndex":4,"items":[{"name":"세다참치","tel":"031-295-3738","addr":"경기도 수원시 장안구 천천동 325-22번지 103호","indutype":"일반휴게음식 - 일식·회집","category":"restaurant"},{"name":"엉클kun커피하우스","tel":"031-298-5634","addr":"경기도 수원시 장안구 천천동 325-22번지 106,107호","indutype":"일반휴게음식 - 서양음식","category":"restaurant"},{"name":"우락이네닭찝","tel":"031-296-0087","addr":"경기도 수원시 장안구 천천동 325-22번지 1층","indutype":"일반휴게음식 - 일반한식","category":"restaurant"}]},{"lat":"37.299209639","long":"126.98014417","imageIndex":4,"items":[{"name":"소문난순대국","tel":"031-271-4822","addr":"경기도 수원시 장안구 천천동 507-10번지 1층","indutype":"일반휴게음식 - 일반한식","category":"restaurant"}]},{"lat":"37.293343033","long":"126.97570249","imageIndex":4,"items":[{"name":"소울스프림","tel":"031-290-5450","addr":"경기도 수원시 장안구 천천동 300번지","indutype":"일반휴게음식 - 스넥","category":"restaurant"},{"name":"써브웨이 성균관대점","tel":"031-290-5448","addr":"경기도 수원시 장안구 천천동 300번지 성균관대학교자연과학캠퍼스","indutype":"일반휴게음식 - 일반한식","category":"restaurant"}]},{"lat":"37.288847431","long":"126.97803847","imageIndex":4,"items":[{"name":"소자 coffee","tel":"031-292-3349","addr":"경기도 수원시 장안구 천천동 366-11번지 102호","indutype":"일반휴게음식 - 서양음식","category":"restaurant"}]},{"lat":"37.299344858","long":"126.98048249","imageIndex":4,"items":[{"name":"송가네남원추어탕","tel":"031-268-8463","addr":"경기도 수원시 장안구 천천동 508-9번지","indutype":"일반휴게음식 - 일반한식","category":"restaurant"}]},{"lat":"37.300147418","long":"126.98422682","imageIndex":4,"items":[{"name":"수원우체국 구내식당","tel":"031-888-1459","addr":"경기도 수원시 장안구 천천동 517번지 수원우체국 1층","indutype":"일반휴게음식 - 위탁급식업","category":"restaurant"}]},{"lat":"37.299425449","long":"126.97797859","imageIndex":4,"items":[{"name":"수천냉면","tel":"031-269-6868","addr":"경기도 수원시 장안구 천천동 503-1번지","indutype":"일반휴게음식 - 일반한식","category":"restaurant"}]},{"lat":"37.299371835","long":"126.98020051","imageIndex":4,"items":[{"name":"쉐프돼지 미미함바그","tel":"031-268-9292","addr":"경기도 수원시 장안구 천천동 507-6번지 한방건강원 101호","indutype":"일반휴게음식 - 일반한식","category":"restaurant"},{"name":"피자꾼","tel":"031-271-5571","addr":"경기도 수원시 장안구 천천동 507-6번지","indutype":"일반휴게음식 - 서양음식","category":"restaurant"}]},{"lat":"37.300813661","long":"126.9812039","imageIndex":4,"items":[{"name":"스시노백쉐프수원천천점","tel":"031-269-5801","addr":"경기도 수원시 장안구 천천동 481-6번지","indutype":"일반휴게음식 - 일식·회집","category":"restaurant"}]},{"lat":"37.290036765","long":"126.97794786","imageIndex":4,"items":[{"name":"스카이치킨","tel":"031-298-6975","addr":"경기도 수원시 장안구 천천동 385-19번지","indutype":"일반휴게음식 - 스넥","category":"restaurant"}]},{"lat":"37.302903088","long":"126.97653371","imageIndex":4,"items":[{"name":"아구아구대구왕뽈찜해물아구찜","tel":"031-268-8959","addr":"경기도 수원시 장안구 천천동 475-4번지","indutype":"일반휴게음식 - 일반한식","category":"restaurant"}]},{"lat":"37.299119467","long":"126.97978328","imageIndex":4,"items":[{"name":"아미코페","tel":"031-268-2232","addr":"경기도 수원시 장안구 천천동 506-10번지 1층","indutype":"일반휴게음식 - 서양음식","category":"restaurant"}]},{"lat":"37.300651357","long":"126.98056105","imageIndex":4,"items":[{"name":"애플김밥","tel":"031-269-3633","addr":"경기도 수원시 장안구 천천동 481-1번지","indutype":"일반휴게음식 - 일반한식","category":"restaurant"}]},{"lat":"37.288982665","long":"126.97842185","imageIndex":4,"items":[{"name":"양자강","tel":"031-293-3771","addr":"경기도 수원시 장안구 천천동 366-8번지 1층","indutype":"일반휴게음식 - 일반한식","category":"restaurant"}]},{"lat":"37.290396782","long":"126.97614336","imageIndex":4,"items":[{"name":"양평해장국 성대점","tel":"031-293-8432","addr":"경기도 수원시 장안구 천천동 324-33번지 1층","indutype":"일반휴게음식 - 일반한식","category":"restaurant"}]},{"lat":"37.299785951","long":"126.97841835","imageIndex":4,"items":[{"name":"어부연","tel":"031-235-8844","addr":"경기도 수원시 장안구 천천동 501-6번지 1층","indutype":"일반휴게음식 - 일반한식","category":"restaurant"}]},{"lat":"37.289514277","long":"126.97845551","imageIndex":4,"items":[{"name":"엄마손김밥","tel":"","addr":"경기도 수원시 장안구 천천동 365-5번지 TQ빌딩 1층 101호","indutype":"일반휴게음식 - 일반한식","category":"restaurant"}]},{"lat":"37.294181798","long":"126.97950284","imageIndex":4,"items":[{"name":"오븐과치킨","tel":"031-298-7292","addr":"경기도 수원시 장안구 천천동 339-33번지","indutype":"일반휴게음식 - 스넥","category":"restaurant"}]},{"lat":"37.303037943","long":"126.97522527","imageIndex":4,"items":[{"name":"왕뚜껑","tel":"031-269-1660","addr":"경기도 수원시 장안구 천천동 550-6번지","indutype":"일반휴게음식 - 일반한식","category":"restaurant"}]},{"lat":"37.303200726","long":"126.97792095","imageIndex":4,"items":[{"name":"응급실떡볶이 수원천천점","tel":"031-269-1110","addr":"경기도 수원시 장안구 천천동 476-2번지","indutype":"일반휴게음식 - 스넥","category":"restaurant"}]},{"lat":"37.302316683","long":"126.97339831","imageIndex":4,"items":[{"name":"이서등갈비(홍구등갈비본점)","tel":"031-255-8292","addr":"경기도 수원시 장안구 천천동 558-2번지 1층","indutype":"일반휴게음식 - 일반한식","category":"restaurant"}]},{"lat":"37.299542937","long":"126.97972676","imageIndex":4,"items":[{"name":"이태오천포낙지요리전문점","tel":"031-269-7339","addr":"경기도 수원시 장안구 천천동 506-4번지","indutype":"일반휴게음식 - 일반한식","category":"restaurant"}]},{"lat":"37.299786316","long":"126.98025678","imageIndex":4,"items":[{"name":"자금성","tel":"031-271-9072","addr":"경기도 수원시 장안구 천천동 508-12번지 천천동","indutype":"일반휴게음식 - 중국식","category":"restaurant"}]},{"lat":"37.303064829","long":"126.97461618","imageIndex":4,"items":[{"name":"작은바","tel":"031-271-5669","addr":"경기도 수원시 장안구 천천동 550-1번지 103호","indutype":"일반휴게음식 - 일반한식","category":"restaurant"}]},{"lat":"37.289955649","long":"126.97783511","imageIndex":4,"items":[{"name":"작은별","tel":"070-4245-2981","addr":"경기도 수원시 장안구 천천동 385-18번지 1층","indutype":"일반휴게음식 - 서양음식","category":"restaurant"}]},{"lat":"37.299623992","long":"126.97953499","imageIndex":4,"items":[{"name":"장안막창","tel":"031-268-9298","addr":"경기도 수원시 장안구 천천동 506-14번지 1층","indutype":"일반휴게음식 - 일반한식","category":"restaurant"}]},{"lat":"37.300119615","long":"126.97983937","imageIndex":4,"items":[{"name":"장원가마솥통닭","tel":"031-242-5992","addr":"경기도 수원시 장안구 천천동 502-5번지","indutype":"일반휴게음식 - 일반한식","category":"restaurant"}]},{"lat":"37.300011394","long":"126.97934313","imageIndex":4,"items":[{"name":"장충왕족발보쌈","tel":"031-257-7982","addr":"경기도 수원시 장안구 천천동 502-1번지 103호","indutype":"일반휴게음식 - 일반한식","category":"restaurant"}]},{"lat":"37.302650258","long":"126.974199","imageIndex":4,"items":[{"name":"전설의치킨성대점","tel":"031-271-8295","addr":"경기도 수원시 장안구 천천동 557-4번지 율천프라자 1층 104호","indutype":"일반휴게음식 - 스넥","category":"restaurant"},{"name":"피자에땅성대점","tel":"031-271-0223","addr":"경기도 수원시 장안구 천천동 557-4번지 율천프라자 105호","indutype":"일반휴게음식 - 서양음식","category":"restaurant"}]},{"lat":"37.299290673","long":"126.97983962","imageIndex":4,"items":[{"name":"전이랑술이랑","tel":"031-269-7333","addr":"경기도 수원시 장안구 천천동 506-6번지 1층","indutype":"일반휴게음식 - 일반한식","category":"restaurant"}]},{"lat":"37.295903415","long":"126.9831226","imageIndex":4,"items":[{"name":"정가로이","tel":"070-7862-1191","addr":"경기도 수원시 장안구 천천동 527-10번지 골든프라자 2층 202호","indutype":"일반휴게음식 - 일반한식","category":"restaurant"},{"name":"한스델리","tel":"031-269-6881","addr":"경기도 수원시 장안구 천천동 527-10번지 골든프라자 303호","indutype":"일반휴게음식 - 스넥","category":"restaurant"}]},{"lat":"37.299371914","long":"126.98061783","imageIndex":4,"items":[{"name":"정칼국수","tel":"031-268-7676","addr":"경기도 수원시 장안구 천천동 508-6번지 1층","indutype":"일반휴게음식 - 일반한식","category":"restaurant"}]},{"lat":"37.29945289","long":"126.98000875","imageIndex":4,"items":[{"name":"좋은고기먹는날","tel":"031-269-0357","addr":"경기도 수원시 장안구 천천동 507-12번지","indutype":"일반휴게음식 - 일반한식","category":"restaurant"}]},{"lat":"37.299344409","long":"126.97822675","imageIndex":4,"items":[{"name":"진품코다리","tel":"031-268-3354","addr":"경기도 수원시 장안구 천천동 503-3번지","indutype":"일반휴게음식 - 일반한식","category":"restaurant"}]},{"lat":"37.29023466","long":"126.97642535","imageIndex":4,"items":[{"name":"참숯풍천장어","tel":"031-227-1813","addr":"경기도 수원시 장안구 천천동 388-7번지","indutype":"일반휴게음식 - 일반한식","category":"restaurant"}]},{"lat":"37.303010972","long":"126.9754847","imageIndex":4,"items":[{"name":"채플린","tel":"031-269-7538","addr":"경기도 수원시 장안구 천천동 550-8번지 1호","indutype":"일반휴게음식 - 일반한식","category":"restaurant"}]},{"lat":"37.286288206","long":"126.97659589","imageIndex":4,"items":[{"name":"책도란","tel":"031-286-6913","addr":"경기도 수원시 장안구 천천동 453-1번지 지하1층","indutype":"일반휴게음식 - 서양음식","category":"restaurant"}]},{"lat":"37.300038467","long":"126.97955742","imageIndex":4,"items":[{"name":"청기와감자탕","tel":"031-269-0188","addr":"경기도 수원시 장안구 천천동 502-3번지 1층","indutype":"일반휴게음식 - 일반한식","category":"restaurant"}]},{"lat":"37.299957526","long":"126.98033568","imageIndex":4,"items":[{"name":"청담반점","tel":"031-268-7752","addr":"경기도 수원시 장안구 천천동 508-2번지","indutype":"일반휴게음식 - 중국식","category":"restaurant"}]},{"lat":"37.289703469","long":"126.97834267","imageIndex":4,"items":[{"name":"치킨마루천천푸르지오","tel":"031-295-9953","addr":"경기도 수원시 장안구 천천동 361-1번지 1층 101호","indutype":"일반휴게음식 - 스넥","category":"restaurant"}]},{"lat":"37.290036801","long":"126.97811702","imageIndex":4,"items":[{"name":"카나","tel":"031-297-8000","addr":"경기도 수원시 장안구 천천동 385-20번지 1층","indutype":"일반휴게음식 - 일반한식","category":"restaurant"}]},{"lat":"37.29103688","long":"126.97783475","imageIndex":4,"items":[{"name":"카페나노","tel":"070-8876-1006","addr":"경기도 수원시 장안구 천천동 323-10번지 성원주택 103호","indutype":"일반휴게음식 - 서양음식","category":"restaurant"}]},{"lat":"37.299317338","long":"126.97803502","imageIndex":4,"items":[{"name":"카페알로하나","tel":"031-255-5533","addr":"경기도 수원시 장안구 천천동 503-12번지 1층","indutype":"일반휴게음식 - 서양음식","category":"restaurant"}]},{"lat":"37.294010696","long":"126.97997657","imageIndex":4,"items":[{"name":"카페요앞","tel":"031-293-1284","addr":"경기도 수원시 장안구 천천동 334번지 천천푸르지오 근린생활시설2상가동 106호","indutype":"일반휴게음식 - 서양음식","category":"restaurant"}]},{"lat":"37.299678236","long":"126.98048239","imageIndex":4,"items":[{"name":"카페휴","tel":"031-269-7652","addr":"경기도 수원시 장안구 천천동 508-4번지 1층","indutype":"일반휴게음식 - 서양음식","category":"restaurant"}]},{"lat":"37.295091661","long":"126.97864543","imageIndex":4,"items":[{"name":"커피방앗간","tel":"031-227-3108","addr":"경기도 수원시 장안구 천천동 268-16번지 103호","indutype":"일반휴게음식 - 서양음식","category":"restaurant"}]},{"lat":"37.301011865","long":"126.98109106","imageIndex":4,"items":[{"name":"커피하우스","tel":"031-305-0195","addr":"경기도 수원시 장안구 천천동 480-3번지","indutype":"일반휴게음식 - 서양음식","category":"restaurant"}]},{"lat":"37.289820431","long":"126.97753067","imageIndex":4,"items":[{"name":"크림맥주빠마","tel":"","addr":"경기도 수원시 장안구 천천동 385-12번지 1층","indutype":"일반휴게음식 - 주점","category":"restaurant"}]},{"lat":"37.298812983","long":"126.97909538","imageIndex":4,"items":[{"name":"탑","tel":"031-269-7751","addr":"경기도 수원시 장안구 천천동 509-3번지 지층","indutype":"일반휴게음식 - 일반한식","category":"restaurant"}]},{"lat":"37.299371727","long":"126.97964786","imageIndex":4,"items":[{"name":"투다리","tel":"031-269-8288","addr":"경기도 수원시 장안구 천천동 506-12번지 1층","indutype":"일반휴게음식 - 일반한식","category":"restaurant"}]},{"lat":"37.289847574","long":"126.97806069","imageIndex":4,"items":[{"name":"팀쉐프의한끼","tel":"031-1899-3381","addr":"경기도 수원시 장안구 천천동 385-21번지 2층","indutype":"일반휴게음식 - 일반한식","category":"restaurant"}]},{"lat":"37.299398557","long":"126.97864405","imageIndex":4,"items":[{"name":"평양손만두","tel":"031-268-0301","addr":"경기도 수원시 장안구 천천동 504-3번지","indutype":"일반휴게음식 - 일반한식","category":"restaurant"}]},{"lat":"37.299236775","long":"126.98069682","imageIndex":4,"items":[{"name":"플라워카페모모","tel":"031-271-9759","addr":"경기도 수원시 장안구 천천동 508-7번지","indutype":"일반휴게음식 - 서양음식","category":"restaurant"}]},{"lat":"37.299146524","long":"126.97991862","imageIndex":4,"items":[{"name":"플로르까사","tel":"031-271-3632","addr":"경기도 수원시 장안구 천천동 506-7번지","indutype":"일반휴게음식 - 스넥","category":"restaurant"}]},{"lat":"37.289207967","long":"126.97864732","imageIndex":4,"items":[{"name":"피오레벨벳","tel":"","addr":"경기도 수원시 장안구 천천동 366-5번지","indutype":"일반휴게음식 - 서양음식","category":"restaurant"}]},{"lat":"37.299425548","long":"126.9784523","imageIndex":4,"items":[{"name":"하우에버","tel":"031-271-0147","addr":"경기도 수원시 장안구 천천동 504-11번지 1층","indutype":"일반휴게음식 - 서양음식","category":"restaurant"}]},{"lat":"37.298011403","long":"126.98080996","imageIndex":4,"items":[{"name":"학교종이땡땡땡","tel":"031-890-2929","addr":"경기도 수원시 장안구 천천동 511번지 베스트타운 상가 109호","indutype":"일반휴게음식 - 스넥","category":"restaurant"}]},{"lat":"37.300173724","long":"126.98008749","imageIndex":4,"items":[{"name":"한방설악추어탕","tel":"031-308-4501","addr":"경기도 수원시 장안구 천천동 502-7번지 1층","indutype":"일반휴게음식 - 일반한식","category":"restaurant"}]},{"lat":"37.289766458","long":"126.97794795","imageIndex":4,"items":[{"name":"해담","tel":"031-295-3096","addr":"경기도 수원시 장안구 천천동 385-22번지","indutype":"일반휴게음식 - 일반한식","category":"restaurant"}]},{"lat":"37.299840293","long":"126.9798169","imageIndex":4,"items":[{"name":"해물궁","tel":"031-293-2777","addr":"경기도 수원시 장안구 천천동 507-1번지 1층","indutype":"일반휴게음식 - 일반한식","category":"restaurant"}]},{"lat":"37.302181721","long":"126.97417662","imageIndex":4,"items":[{"name":"행촌","tel":"031-258-9795","addr":"경기도 수원시 장안구 천천동 561-2번지 1층","indutype":"일반휴게음식 - 일반한식","category":"restaurant"}]},{"lat":"37.299065486","long":"126.98020061","imageIndex":4,"items":[{"name":"호식이두마리치킨","tel":"031-269-8845","addr":"경기도 수원시 장안구 천천동 507-9번지 1층","indutype":"일반휴게음식 - 스넥","category":"restaurant"}]},{"lat":"37.301146998","long":"126.98097823","imageIndex":4,"items":[{"name":"홍익돈까스","tel":"031-268-1988","addr":"경기도 수원시 장안구 천천동 480-2번지","indutype":"일반휴게음식 - 일반한식","category":"restaurant"}]},{"lat":"37.300038447","long":"126.97945591","imageIndex":4,"items":[{"name":"화로싸나이천천점","tel":"031-371-5592","addr":"경기도 수원시 장안구 천천동 502-2번지 1층","indutype":"일반휴게음식 - 일반한식","category":"restaurant"}]},{"lat":"37.303091806","long":"126.97439058","imageIndex":4,"items":[{"name":"화성옥","tel":"031-252-6397","addr":"경기도 수원시 장안구 천천동 548-8번지 1층","indutype":"일반휴게음식 - 일반한식","category":"restaurant"}]},{"lat":"37.285981687","long":"126.97584045","imageIndex":4,"items":[{"name":"화신","tel":"","addr":"경기도 수원시 장안구 천천동 445-6번지","indutype":"일반휴게음식 - 일반한식","category":"restaurant"}]},{"lat":"37.299876127","long":"126.97877924","imageIndex":4,"items":[{"name":"황소화로구이","tel":"031-269-8592","addr":"경기도 수원시 장안구 천천동 501-9번지","indutype":"일반휴게음식 - 일반한식","category":"restaurant"}]},{"lat":"37.299758892","long":"126.97828301","imageIndex":4,"items":[{"name":"횡성정육식당","tel":"031-271-5991","addr":"경기도 수원시 장안구 천천동 501-5번지 1층","indutype":"일반휴게음식 - 일반한식","category":"restaurant"}]}]