[{"lat":"37.073211664","long":"127.30645475","imageIndex":4,"items":[{"name":"강필남소머리국밥","tel":"031-676-7002","addr":"경기도 안성시 보개면 남풍리 1299-5","indutype":"일반휴게음식 - 일반한식","category":"restaurant"}]},{"lat":"37.07793078","long":"127.30739571","imageIndex":4,"items":[{"name":"남풍가든","tel":"031-675-1826","addr":"경기도 안성시 보개면 남풍리 1250-2번지","indutype":"일반휴게음식 - 일반한식","category":"restaurant"}]},{"lat":"37.071961932","long":"127.32256369","imageIndex":17,"items":[{"name":"꽃과 같이 놀다","tel":"031-672-7572","addr":"경기도 안성시 보개면 남풍리 494-1번지 1층","indutype":"문화.취미 - 화원","category":"other"}]},{"lat":"37.071208959","long":"127.32444965","imageIndex":17,"items":[{"name":"종원이네집","tel":"031-674-4234","addr":"경기도 안성시 보개면 남풍리 116번지","indutype":"유통업 영리 - 기타유통업","category":"other"}]},{"lat":"37.07135481","long":"127.32048085","imageIndex":7,"items":[{"name":"농업회사법인 해솔팜 주식회사","tel":"02-0000-0000","addr":"경기도 안성시 보개면 남풍리 526번지","indutype":"음료식품 - 농·축·수산품","category":"food"},{"name":"해솔농원","tel":"031-674-1895","addr":"경기도 안성시 보개면 남풍리 526번지","indutype":"음료식품 - 농·축·수산품","category":"food"}]},{"lat":"37.06401469","long":"127.31234354","imageIndex":7,"items":[{"name":"도란도란","tel":"031-611-2606","addr":"경기도 안성시 보개면 남풍리 732번지","indutype":"음료식품 - 농·축·수산품","category":"food"}]},{"lat":"37.086657905","long":"127.30898271","imageIndex":16,"items":[{"name":"서삼초등학교","tel":"031-673-4427","addr":"경기도 안성시 보개면 남풍리 1070번지 서삼초등학교","indutype":"학원 - 초중고교육기관","category":"study"},{"name":"서삼초등학교병설유치원[아이행복]","tel":"031-674-3724","addr":"경기도 안성시 보개면 남풍리 1070번지 서삼초등학교","indutype":"학원 - 유치원","category":"study"}]}]