[{"lat":"37.47479548","long":"126.8676742","imageIndex":13,"items":[{"name":"(주) 인허브컴퍼니","tel":"02-2222-2222","addr":"경기도 광명시 철산동 411번지 금봉빌딩 401호","indutype":"레저업소 - 기타레져업소","category":"leisure"}]},{"lat":"37.47740322","long":"126.871095","imageIndex":13,"items":[{"name":"(주)광명사회체육센타","tel":"02-2681-9544","addr":"경기도 광명시 철산동 241-1번지","indutype":"레저업소 - 기타레져업소","category":"leisure"}]},{"lat":"37.4747412","long":"126.8674821","imageIndex":13,"items":[{"name":"(주)에스바디워크필라테스철산점","tel":"02-2611-9609","addr":"경기도 광명시 철산동 412번지 재상빌딩 5층","indutype":"레저업소 - 헬스클럽","category":"leisure"},{"name":"배드브이알철산","tel":"02-6929-1377","addr":"경기도 광명시 철산동 412번지 재상빌딩 4층","indutype":"레저업소 - 기타레져업소","category":"leisure"}]},{"lat":"37.47451649","long":"126.8679573","imageIndex":13,"items":[{"name":"3D DVD방","tel":"02-2060-3288","addr":"경기도 광명시 철산동 416번지 402호,403호","indutype":"레저업소 - 기타레져업소","category":"leisure"},{"name":"꾼낚시까페","tel":"02-2688-4475","addr":"경기도 광명시 철산동 416번지 다산캣츠빌딩 지하3층","indutype":"레저업소 - 기타레져업소","category":"leisure"}]},{"lat":"37.4863432","long":"126.8650415","imageIndex":13,"items":[{"name":"CS스포츠 아카데미","tel":"02-1111-1111","addr":"경기도 광명시 철산동 66-23번지 1301호","indutype":"레저업소 - 테니스장","category":"leisure"}]},{"lat":"37.47126993","long":"126.8653744","imageIndex":13,"items":[{"name":"K-body","tel":"02-2060-8005","addr":"경기도 광명시 철산동 509-267번지 성화빌딩 401호","indutype":"레저업소 - 헬스클럽","category":"leisure"}]},{"lat":"37.47459799","long":"126.8683189","imageIndex":13,"items":[{"name":"SBS 당구장","tel":"02-2687-3949","addr":"경기도 광명시 철산동 420번지 세인트빌딩 4층","indutype":"레저업소 - 당 구 장","category":"leisure"},{"name":"궁노래연습장","tel":"02-865-9204","addr":"경기도 광명시 철산동 420번지 세인트 302호","indutype":"레저업소 - 노 래 방","category":"leisure"},{"name":"뉴락노래연습장","tel":"070-8181-4121","addr":"경기도 광명시 철산동 420번지 세인트빌딩 3층 301호","indutype":"레저업소 - 노 래 방","category":"leisure"},{"name":"파티노래연습장","tel":"","addr":"경기도 광명시 철산동 420번지 세인트빌딩 2층","indutype":"레저업소 - 노 래 방","category":"leisure"},{"name":"팝스DVD영화관","tel":"02-2686-2535","addr":"경기도 광명시 철산동 420번지 도국세인트빌딩 401호","indutype":"레저업소 - 기타레져업소","category":"leisure"}]},{"lat":"37.47456882","long":"126.8664536","imageIndex":13,"items":[{"name":"SBS노래연습장","tel":"02-2616-0133","addr":"경기도 광명시 철산동 480번지","indutype":"레저업소 - 노 래 방","category":"leisure"},{"name":"커브스 철산클럽","tel":"02-2616-1130","addr":"경기도 광명시 철산동 480번지 3층 301호","indutype":"레저업소 - 헬스클럽","category":"leisure"}]},{"lat":"37.47654431","long":"126.8684624","imageIndex":13,"items":[{"name":"SBS당구장","tel":"02-2612-2581","addr":"경기도 광명시 철산동 245-6번지 대광빌딩 지하1층","indutype":"레저업소 - 당 구 장","category":"leisure"}]},{"lat":"37.47546203","long":"126.8675147","imageIndex":13,"items":[{"name":"W필라테스","tel":"02-000-0000","addr":"경기도 광명시 철산동 264번지 로데오빌딩 5층1호일부","indutype":"레저업소 - 헬스클럽","category":"leisure"}]},{"lat":"37.48976781","long":"126.8657589","imageIndex":13,"items":[{"name":"가젤휘트니스","tel":"070-8977-8984","addr":"경기도 광명시 철산동 56-10번지 2층","indutype":"레저업소 - 헬스클럽","category":"leisure"}]},{"lat":"37.47512882","long":"126.867651","imageIndex":13,"items":[{"name":"골드당구클럽","tel":"031-000-0000","addr":"경기도 광명시 철산동 265번지 진보빌딩 301호","indutype":"레저업소 - 당 구 장","category":"leisure"},{"name":"리얼야구존 광명철산점","tel":"02-2611-1929","addr":"경기도 광명시 철산동 265번지 진보빌딩 지하1층","indutype":"레저업소 - 기타레져업소","category":"leisure"},{"name":"제닉스아레나PC철산점","tel":"02-2687-2840","addr":"경기도 광명시 철산동 265번지 진보빌딩 5층,501호52호","indutype":"레저업소 - 기타레져업소","category":"leisure"},{"name":"쾌노래연습장","tel":"02-2612-1109","addr":"경기도 광명시 철산동 265번지 진보빌딩 4층 401호","indutype":"레저업소 - 노 래 방","category":"leisure"},{"name":"쾌노래연습장","tel":"02-2612-1109","addr":"경기도 광명시 철산동 265번지 진보빌딩 4층","indutype":"레저업소 - 노 래 방","category":"leisure"}]},{"lat":"37.47585236","long":"126.8700689","imageIndex":13,"items":[{"name":"골프존","tel":"02-2671-0001","addr":"경기도 광명시 철산동 394번지 다모아빌딩 지하1층 101호 ,102,103호","indutype":"레저업소 - 골프연습장","category":"leisure"}]},{"lat":"37.47523735","long":"126.8680125","imageIndex":13,"items":[{"name":"공때려","tel":"070-3213-6854","addr":"경기도 광명시 철산동 407번지 ASSA빌딩 4층","indutype":"레저업소 - 당 구 장","category":"leisure"},{"name":"여자친구노래연습장","tel":"02-2612-5565","addr":"경기도 광명시 철산동 407번지 ASSA빌딩 지층 101호","indutype":"레저업소 - 노 래 방","category":"leisure"},{"name":"피에스타PC방철산본점","tel":"031-555-2580","addr":"경기도 광명시 철산동 407번지 ASSA빌딩 5층","indutype":"레저업소 - 기타레져업소","category":"leisure"}]},{"lat":"37.48531693","long":"126.8657896","imageIndex":13,"items":[{"name":"광명 당구장","tel":"070-4312-7671","addr":"경기도 광명시 철산동 141-1번지 2층","indutype":"레저업소 - 당 구 장","category":"leisure"}]},{"lat":"37.47526192","long":"126.8658758","imageIndex":13,"items":[{"name":"나노짐","tel":"02-2060-8890","addr":"경기도 광명시 철산동 482번지 철산빌딩 6층","indutype":"레저업소 - 헬스클럽","category":"leisure"}]},{"lat":"37.48768149","long":"126.8692339","imageIndex":13,"items":[{"name":"뉴스타노래방","tel":"02-2617-6368","addr":"경기도 광명시 철산동 61-3번지 지하1층","indutype":"레저업소 - 노 래 방","category":"leisure"}]},{"lat":"37.47437415","long":"126.8695628","imageIndex":13,"items":[{"name":"다함께야구왕 철산점","tel":"02-2615-0099","addr":"경기도 광명시 철산동 434번지 5층","indutype":"레저업소 - 기타레져업소","category":"leisure"}]},{"lat":"37.47393239","long":"126.8693149","imageIndex":13,"items":[{"name":"더짐 피트니스","tel":"","addr":"경기도 광명시 철산동 425번지 가림빌딩 304호","indutype":"레저업소 - 헬스클럽","category":"leisure"},{"name":"더짐복싱","tel":"","addr":"경기도 광명시 철산동 425번지 가림빌딩 303호","indutype":"레저업소 - 헬스클럽","category":"leisure"},{"name":"라밤바노래방","tel":"02-2618-1409","addr":"경기도 광명시 철산동 425번지 가림빌딩 3층","indutype":"레저업소 - 노 래 방","category":"leisure"}]},{"lat":"37.47482079","long":"126.8661819","imageIndex":13,"items":[{"name":"도레미","tel":"02-2611-8357","addr":"경기도 광명시 철산동 484-5번지","indutype":"레저업소 - 노 래 방","category":"leisure"}]},{"lat":"37.4751844","long":"126.8689848","imageIndex":13,"items":[{"name":"두뽕노래연습장","tel":"02-2612-7401","addr":"경기도 광명시 철산동 400번지","indutype":"레저업소 - 노 래 방","category":"leisure"},{"name":"와리가리PC방","tel":"","addr":"경기도 광명시 철산동 400번지 3층","indutype":"레저업소 - 기타레져업소","category":"leisure"},{"name":"챔프당구클럽","tel":"02-2685-9586","addr":"경기도 광명시 철산동 400번지 강동빌딩 4층","indutype":"레저업소 - 당 구 장","category":"leisure"}]},{"lat":"37.47481866","long":"126.8643505","imageIndex":13,"items":[{"name":"라이브노래연습장","tel":"20-2066-5450","addr":"경기도 광명시 철산동 472-14번지","indutype":"레저업소 - 노 래 방","category":"leisure"}]},{"lat":"37.47523868","long":"126.8691769","imageIndex":13,"items":[{"name":"락휴코인노래연습장","tel":"02-2615-2220","addr":"경기도 광명시 철산동 399번지 3층 301, 302호","indutype":"레저업소 - 노 래 방","category":"leisure"},{"name":"스카이","tel":"02-2618-6761","addr":"경기도 광명시 철산동 399번지 신명빌딩 4층","indutype":"레저업소 - 노 래 방","category":"leisure"},{"name":"오케이(OK)당구클럽","tel":"02-2616-3949","addr":"경기도 광명시 철산동 399번지 신명빌딩 4층","indutype":"레저업소 - 당 구 장","category":"leisure"}]},{"lat":"37.47570626","long":"126.8683508","imageIndex":13,"items":[{"name":"럭셔리 수노래연습장","tel":"02-2618-4123","addr":"경기도 광명시 철산동 272번지 야우리빌딩 11층 1101호","indutype":"레저업소 - 노 래 방","category":"leisure"},{"name":"쓰리팝PC방","tel":"070-4581-4903","addr":"경기도 광명시 철산동 272번지 야우리빌딩 지하 1호","indutype":"레저업소 - 기타레져업소","category":"leisure"},{"name":"피렉스휘트니스클럽","tel":"02-2616-7199","addr":"경기도 광명시 철산동 272번지 야우리빌딩 10층 1001호","indutype":"레저업소 - 헬스클럽","category":"leisure"}]},{"lat":"37.48574082","long":"126.8661507","imageIndex":13,"items":[{"name":"레인보당구장","tel":"02-2613-3476","addr":"경기도 광명시 철산동 93-1","indutype":"레저업소 - 당 구 장","category":"leisure"}]},{"lat":"37.47449082","long":"126.8691557","imageIndex":13,"items":[{"name":"만화쉼터","tel":"02-2611-8977","addr":"경기도 광명시 철산동 428번지 삼희빌딩 3층","indutype":"레저업소 - 기타레져업소","category":"leisure"},{"name":"수당구장","tel":"02-2612-3949","addr":"경기도 광명시 철산동 428번지 2층","indutype":"레저업소 - 당 구 장","category":"leisure"},{"name":"크라우드PC방 광명철산점","tel":"02-2618-0557","addr":"경기도 광명시 철산동 428번지 삼희빌딩 5층","indutype":"레저업소 - 기타레져업소","category":"leisure"}]},{"lat":"37.47559914","long":"126.8692328","imageIndex":13,"items":[{"name":"명산당구장","tel":"02-2617-6884","addr":"경기도 광명시 철산동 397번지 명산빌딩 501호","indutype":"레저업소 - 당 구 장","category":"leisure"},{"name":"오케이노래연습장","tel":"02-2619-1178","addr":"경기도 광명시 철산동 397번지 명산빌딩 5층 502호 일부","indutype":"레저업소 - 노 래 방","category":"leisure"},{"name":"즐라탄 플레이스테이션 게임장","tel":"070-7774-8631","addr":"경기도 광명시 철산동 397번지 명산빌딩 4층 401호","indutype":"레저업소 - 기타레져업소","category":"leisure"},{"name":"즐라탄플레이스테이션게임장","tel":"070-8173-0903","addr":"경기도 광명시 철산동 397번지 명산빌딩 401호","indutype":"레저업소 - 기타레져업소","category":"leisure"}]},{"lat":"37.47648372","long":"126.8628438","imageIndex":13,"items":[{"name":"뮤직노래방","tel":"02-2612-9712","addr":"경기도 광명시 철산동 464-9번지 지층","indutype":"레저업소 - 노 래 방","category":"leisure"}]},{"lat":"37.47623976","long":"126.8700457","imageIndex":13,"items":[{"name":"바디마인퍼스널트레이닝","tel":"02-2613-2202","addr":"경기도 광명시 철산동 385번지 알렉스타워 8층 803호","indutype":"레저업소 - 헬스클럽","category":"leisure"}]},{"lat":"37.4721117","long":"126.868719","imageIndex":13,"items":[{"name":"바른PT","tel":"","addr":"경기도 광명시 철산동 637번지 종합상가동 지층 B동 101호","indutype":"레저업소 - 헬스클럽","category":"leisure"},{"name":"앤클래식 발레 핏","tel":"02-2611-9911","addr":"경기도 광명시 철산동 637번지 종합상가B1층 109,110호","indutype":"레저업소 - 헬스클럽","category":"leisure"}]},{"lat":"37.47568051","long":"126.8694814","imageIndex":13,"items":[{"name":"비너스필라테스","tel":"02-2688-2828","addr":"경기도 광명시 철산동 396번지 남원빌딩 4층","indutype":"레저업소 - 헬스클럽","category":"leisure"},{"name":"캐롬당구클럽","tel":"02-2689-2789","addr":"경기도 광명시 철산동 396번지 남원빌딩 3층","indutype":"레저업소 - 당 구 장","category":"leisure"}]},{"lat":"37.4796838","long":"126.8641493","imageIndex":13,"items":[{"name":"선경탁구장","tel":"","addr":"경기도 광명시 철산동 225-2번지 4층","indutype":"레저업소 - 기타레져업소","category":"leisure"}]},{"lat":"37.48900929","long":"126.8643129","imageIndex":13,"items":[{"name":"소리샘","tel":"031-2617-7717","addr":"경기도 광명시 철산동 56-210번지 2층","indutype":"레저업소 - 노 래 방","category":"leisure"}]},{"lat":"37.47495824","long":"126.8681826","imageIndex":13,"items":[{"name":"스카이당구장","tel":"02-2066-9777","addr":"경기도 광명시 철산동 409번지 세영빌딩 5층","indutype":"레저업소 - 당 구 장","category":"leisure"},{"name":"스포퍼니","tel":"02-859-8100","addr":"경기도 광명시 철산동 409번지 세영빌딩 4층","indutype":"레저업소 - 기타레져업소","category":"leisure"}]},{"lat":"37.47501403","long":"126.8697087","imageIndex":13,"items":[{"name":"스트라이크존 광명철산구장","tel":"02-2615-7979","addr":"경기도 광명시 철산동 436번지 덕수빌딩 3층 301호","indutype":"레저업소 - 기타레져업소","category":"leisure"},{"name":"아이존팝 광명철산점","tel":"02-2612-5285","addr":"경기도 광명시 철산동 436번지 덕수빌딩 304호","indutype":"레저업소 - 기타레져업소","category":"leisure"}]},{"lat":"37.47151319","long":"126.865374","imageIndex":13,"items":[{"name":"슬라임 카페 뽀드득","tel":"02-2060-9719","addr":"경기도 광명시 철산동 509-265번지 드림빌딩 3층","indutype":"레저업소 - 기타레져업소","category":"leisure"}]},{"lat":"37.47473478","long":"126.8697657","imageIndex":13,"items":[{"name":"아크PC CAFE","tel":"070-3354-6969","addr":"경기도 광명시 철산동 435번지 3층","indutype":"레저업소 - 기타레져업소","category":"leisure"}]},{"lat":"37.47534584","long":"126.8683402","imageIndex":13,"items":[{"name":"애플노래연습장","tel":"02-2611-7304","addr":"경기도 광명시 철산동 405번지 청담빌딩 지층","indutype":"레저업소 - 노 래 방","category":"leisure"},{"name":"오층다락방","tel":"","addr":"경기도 광명시 철산동 405번지 청담빌딩 5층","indutype":"레저업소 - 기타레져업소","category":"leisure"},{"name":"프라이드 핏(PRIDE FIT)","tel":"02-2682-6508","addr":"경기도 광명시 철산동 405번지 청담빌딩 4층","indutype":"레저업소 - 헬스클럽","category":"leisure"}]},{"lat":"37.47476137","long":"126.86937","imageIndex":13,"items":[{"name":"올스타존","tel":"02-2060-0701","addr":"경기도 광명시 철산동 432번지 대연빌딩 지하1층","indutype":"레저업소 - 기타레져업소","category":"leisure"}]},{"lat":"37.48984907","long":"126.8659057","imageIndex":13,"items":[{"name":"와이짐 (Y.GYM)","tel":"02-2612-7177","addr":"경기도 광명시 철산동 56-9번지 5층","indutype":"레저업소 - 헬스클럽","category":"leisure"}]},{"lat":"37.48112585","long":"126.8645423","imageIndex":13,"items":[{"name":"우성노래방","tel":"02-2625-9409","addr":"경기도 광명시 철산동 162-1번지 지하층","indutype":"레저업소 - 노 래 방","category":"leisure"}]},{"lat":"37.48954208","long":"126.8653409","imageIndex":13,"items":[{"name":"점프아이","tel":"02-2060-4585","addr":"경기도 광명시 철산동 56-13번지 수지빌딩 5층","indutype":"레저업소 - 기타레져업소","category":"leisure"}]},{"lat":"37.47090048","long":"126.8653412","imageIndex":13,"items":[{"name":"점핑하이 피트니스","tel":"070-7115-0755","addr":"경기도 광명시 철산동 625-2번지 광명힐타운 3층 304호","indutype":"레저업소 - 헬스클럽","category":"leisure"}]},{"lat":"37.48579275","long":"126.8643189","imageIndex":13,"items":[{"name":"짱노래연습장","tel":"02-2682-0315","addr":"경기도 광명시 철산동 69-29번지 1층","indutype":"레저업소 - 노 래 방","category":"leisure"}]},{"lat":"37.4752916","long":"126.868182","imageIndex":13,"items":[{"name":"철산로데오 철구 pc","tel":"070-3731-6826","addr":"경기도 광명시 철산동 406번지 센타빌딩 3층","indutype":"레저업소 - 기타레져업소","category":"leisure"},{"name":"희노래연습장","tel":"02-2613-8502","addr":"경기도 광명시 철산동 406번지 센타빌딩 5층 2호","indutype":"레저업소 - 노 래 방","category":"leisure"}]},{"lat":"37.47635251","long":"126.8662017","imageIndex":13,"items":[{"name":"캥거루바디스쿨","tel":"02-2060-6606","addr":"경기도 광명시 철산동 257번지 성림빌딩 3층 302호","indutype":"레저업소 - 헬스클럽","category":"leisure"}]},{"lat":"37.47578907","long":"126.8698769","imageIndex":13,"items":[{"name":"클리어짐(클리어GYM)","tel":"02-2066-1004","addr":"경기도 광명시 철산동 395번지 기린빌딩 3층 301,302호","indutype":"레저업소 - 헬스클럽","category":"leisure"}]},{"lat":"37.48173904","long":"126.8649821","imageIndex":13,"items":[{"name":"킹노래방","tel":"02-2616-9070","addr":"경기도 광명시 철산동 161-1번지","indutype":"레저업소 - 노 래 방","category":"leisure"}]},{"lat":"37.47465237","long":"126.8686014","imageIndex":13,"items":[{"name":"프로당구클럽","tel":"","addr":"경기도 광명시 철산동 421번지 금강빌딩 5층 501호","indutype":"레저업소 - 당 구 장","category":"leisure"}]},{"lat":"37.4803775","long":"126.8640915","imageIndex":13,"items":[{"name":"한게임","tel":"02-000-0000","addr":"경기도 광명시 철산동 210-1번지 2층","indutype":"레저업소 - 당 구 장","category":"leisure"}]},{"lat":"37.47501258","long":"126.8684312","imageIndex":13,"items":[{"name":"헌터PC철산점","tel":"","addr":"경기도 광명시 철산동 408번지 영대빌딩 5층","indutype":"레저업소 - 기타레져업소","category":"leisure"}]},{"lat":"37.47467993","long":"126.8690649","imageIndex":13,"items":[{"name":"힘쎈수달PC방","tel":"02-0000-0000","addr":"경기도 광명시 철산동 429번지 승화빌딩 지하1층","indutype":"레저업소 - 기타레져업소","category":"leisure"}]}]