[{"lat":"37.812005553","long":"127.14252929","imageIndex":4,"items":[{"name":"밥이랑찬이랑","tel":"031-541-0289","addr":"경기도 포천시 소흘읍 무봉리 180-4번지","indutype":"일반휴게음식 - 일반한식","category":"restaurant"}]},{"lat":"37.804538342","long":"127.13324949","imageIndex":4,"items":[{"name":"소문난갈치찌게조림전문점","tel":"031-543-6665","addr":"경기도 포천시 소흘읍 무봉리 321-2","indutype":"일반휴게음식 - 일반한식","category":"restaurant"},{"name":"원조해삼양평해장국","tel":"031-541-5421","addr":"경기도 포천시 소흘읍 무봉리 321-2 ,11","indutype":"일반휴게음식 - 일반한식","category":"restaurant"},{"name":"원조해삼양평해장국","tel":"541-5421","addr":"경기도 포천시 소흘읍 무봉리 321-2번지","indutype":"음식 - 한식","category":"restaurant"}]},{"lat":"37.812697859","long":"127.14372301","imageIndex":4,"items":[{"name":"엄마네","tel":"031-543-1880","addr":"경기도 포천시 소흘읍 무봉리 73-1번지 가동 1층","indutype":"일반휴게음식 - 일반한식","category":"restaurant"}]},{"lat":"37.791789719","long":"127.13345416","imageIndex":4,"items":[{"name":"올갱이해장국","tel":"031-542-6323","addr":"경기도 포천시 소흘읍 무봉리 458-28번지","indutype":"일반휴게음식 - 일반한식","category":"restaurant"}]},{"lat":"37.791895238","long":"127.15089275","imageIndex":4,"items":[{"name":"윤대감","tel":"031-1111-1111","addr":"경기도 포천시 소흘읍 무봉리 653번지","indutype":"일반휴게음식 - 일반한식","category":"restaurant"}]},{"lat":"37.792318204","long":"127.12798285","imageIndex":4,"items":[{"name":"이글하우스","tel":"031-111-1111","addr":"경기도 포천시 소흘읍 무봉리 371번지","indutype":"일반휴게음식 - 일반한식","category":"restaurant"}]},{"lat":"37.789451439","long":"127.14539314","imageIndex":4,"items":[{"name":"자연의맛토속정","tel":"031-541-0099","addr":"경기도 포천시 소흘읍 무봉리 634-10번지 가동 1층","indutype":"일반휴게음식 - 일반한식","category":"restaurant"}]},{"lat":"37.797004574","long":"127.13491663","imageIndex":4,"items":[{"name":"전주식당","tel":"031-544-1855","addr":"경기도 포천시 소흘읍 무봉리 529-3번지","indutype":"일반휴게음식 - 일반한식","category":"restaurant"}]},{"lat":"37.791790683","long":"127.14803156","imageIndex":4,"items":[{"name":"절골순두부","tel":"031-542-8973","addr":"경기도 포천시 소흘읍 무봉리 665-4","indutype":"일반휴게음식 - 일반한식","category":"restaurant"}]},{"lat":"37.803786843","long":"127.13656382","imageIndex":4,"items":[{"name":"청운골","tel":"031-544-6692","addr":"경기도 포천시 소흘읍 무봉리 311-12번지 2층","indutype":"일반휴게음식 - 일반한식","category":"restaurant"},{"name":"청운골","tel":"031-544-6692","addr":"경기도 포천시 소흘읍 무봉리 311-12번지 가동 3층","indutype":"일반휴게음식 - 일반한식","category":"restaurant"},{"name":"청운골","tel":"031-542-4292","addr":"경기도 포천시 소흘읍 무봉리 311-12,13,14","indutype":"일반휴게음식 - 일반한식","category":"restaurant"}]},{"lat":"37.790872592","long":"127.13178366","imageIndex":4,"items":[{"name":"함지박","tel":"031-542-9959","addr":"경기도 포천시 소흘읍 무봉리 450-7번지 1층","indutype":"일반휴게음식 - 주점","category":"restaurant"}]}]