[{"lat":"37.129114252","long":"127.06789277","imageIndex":17,"items":[{"name":"(주)다인씨앤디","tel":"031-376-6885","addr":"경기도 오산시 갈곶동 207번지","indutype":"건축자재 - 조명기구","category":"other"},{"name":"썬플라워","tel":"","addr":"경기도 오산시 갈곶동 207번지","indutype":"문화.취미 - 화원","category":"other"},{"name":"주식회사에코티스(ECOTIS)","tel":"031-359-9177","addr":"경기도 오산시 갈곶동 207번지 2층","indutype":"사무통신 - 기타 사무용품","category":"other"},{"name":"크린에이드 (노스마트점)","tel":"031-373-5452","addr":"경기도 오산시 갈곶동 207번지","indutype":"수리서비스 - 세탁소","category":"other"}]},{"lat":"37.129505407","long":"127.07694086","imageIndex":17,"items":[{"name":"(주)인동에프엔오산점","tel":"031-379-6515","addr":"경기도 오산시 갈곶동 304번지 일양종합물류오산센터 B동 지상 1층","indutype":"의류 - 정장","category":"other"}]},{"lat":"37.131642005","long":"127.07514235","imageIndex":17,"items":[{"name":"(주)파피아","tel":"031-372-9461","addr":"경기도 오산시 갈곶동 317-3번지","indutype":"가구 - 일반가구","category":"other"}]},{"lat":"37.131646219","long":"127.06786117","imageIndex":17,"items":[{"name":"GS25오산스위첸점","tel":"","addr":"경기도 오산시 갈곶동 133-9번지","indutype":"유통업 영리 - 편 의 점","category":"other"}]},{"lat":"37.135114891","long":"127.06852814","imageIndex":17,"items":[{"name":"GS25오산한솔점","tel":"","addr":"경기도 오산시 갈곶동 659-2번지 101호","indutype":"유통업 영리 - 편 의 점","category":"other"}]},{"lat":"37.125893712","long":"127.07447296","imageIndex":17,"items":[{"name":"[지로]경기가스","tel":"031-378-3463","addr":"경기도 오산시 갈곶동 298-3번지","indutype":"유통업 영리 - 인터넷 Mall","category":"other"}]},{"lat":"37.132339209","long":"127.06933602","imageIndex":17,"items":[{"name":"갈곳뜨게방","tel":"031-372-6432","addr":"경기도 오산시 갈곶동 151번지","indutype":"신변잡화 - 기타잡화","category":"other"}]},{"lat":"37.127870957","long":"127.06761037","imageIndex":17,"items":[{"name":"갈곶스포츠용품","tel":"031-375-4780","addr":"경기도 오산시 갈곶동 192번지 1층","indutype":"레져용품 - 스포츠·레져용품","category":"other"},{"name":"문구라이프 조아","tel":"031-376-3270","addr":"경기도 오산시 갈곶동 192번지","indutype":"서적문구 - 문구용품","category":"other"}]},{"lat":"37.130643909","long":"127.07166403","imageIndex":17,"items":[{"name":"경성","tel":"031-714-2376","addr":"경기도 오산시 갈곶동 285","indutype":"유통업 영리 - 편 의 점","category":"other"}]},{"lat":"37.128195756","long":"127.06683418","imageIndex":17,"items":[{"name":"고구려기획","tel":"031-375-0749","addr":"경기도 오산시 갈곶동 184-1번지","indutype":"용역 서비스 - 종합용역","category":"other"},{"name":"현대설비","tel":"070-8260-3322","addr":"경기도 오산시 갈곶동 184-1번지 202호","indutype":"용역 서비스 - 기타용역서비스","category":"other"}]},{"lat":"37.131835086","long":"127.0685028","imageIndex":17,"items":[{"name":"공간미학인테리어","tel":"031-611-3982","addr":"경기도 오산시 갈곶동 130-14번지","indutype":"직물 - 옷감·직물","category":"other"}]},{"lat":"37.128977143","long":"127.07135868","imageIndex":17,"items":[{"name":"그린물산","tel":"031-372-8892","addr":"경기도 오산시 갈곶동 245번지 1층","indutype":"의류 - 정장","category":"other"},{"name":"씨제이올리브네트웍스(주)오산갈곶점","tel":"031-372-2328","addr":"경기도 오산시 갈곶동 245번지 1층","indutype":"유통업 영리 - 편 의 점","category":"other"}]},{"lat":"37.130924487","long":"127.06946983","imageIndex":17,"items":[{"name":"꽁아도자기공방","tel":"031-375-8814","addr":"경기도 오산시 갈곶동 161번지","indutype":"문화.취미 - 민예·공예품","category":"other"}]},{"lat":"37.131418206","long":"127.07270008","imageIndex":17,"items":[{"name":"나눔중고프라자","tel":"031-377-6466","addr":"경기도 오산시 갈곶동 273-5번지","indutype":"유통업 영리 - 기타유통업","category":"other"},{"name":"소희(    )","tel":"070-4845-3933","addr":"경기도 오산시 갈곶동 273-5번지 외2필지","indutype":"의류 - 정장","category":"other"},{"name":"크린토피아코인워시 갈곶동점","tel":"031-375-3259","addr":"경기도 오산시 갈곶동 273-5번지 1층","indutype":"수리서비스 - 세탁소","category":"other"}]},{"lat":"37.129751463","long":"127.07236094","imageIndex":17,"items":[{"name":"대림인테리어","tel":"031-375-3341","addr":"경기도 오산시 갈곶동 254-3번지","indutype":"직물 - 카페트,커튼,천막,지물","category":"other"}]},{"lat":"37.129698074","long":"127.07120179","imageIndex":17,"items":[{"name":"대원문구","tel":"031-377-4486","addr":"경기도 오산시 갈곶동 259, 101","indutype":"서적문구 - 문구용품","category":"other"},{"name":"코리아헬스","tel":"031-375-2111","addr":"경기도 오산시 갈곶동 259번지 신웅빌딩 3층","indutype":"회원제형태 - 레져업소","category":"other"}]},{"lat":"37.133925382","long":"127.06875219","imageIndex":17,"items":[{"name":"도현텔레콤","tel":"031-374-6442","addr":"경기도 오산시 갈곶동 675번지 리치타워 제 1층 108호","indutype":"사무통신 - 통신기기","category":"other"},{"name":"오산폰","tel":"031-373-6656","addr":"경기도 오산시 갈곶동 675번지 리치빌타워 105호","indutype":"사무통신 - 통신기기","category":"other"},{"name":"청춘모바일","tel":"031-663-0447","addr":"경기도 오산시 갈곶동 675번지 101호","indutype":"사무통신 - 통신기기","category":"other"}]},{"lat":"37.129113667","long":"127.06895058","imageIndex":17,"items":[{"name":"동부세탁소","tel":"031-377-7174","addr":"경기도 오산시 갈곶동 220동부2차A상자101.102호","indutype":"수리서비스 - 세탁소","category":"other"}]},{"lat":"37.134335057","long":"127.06069458","imageIndex":17,"items":[{"name":"동산에너지(주)","tel":"031-377-8228","addr":"경기도 오산시 갈곶동 3-1번지","indutype":"유통업 영리 - 편 의 점","category":"other"}]},{"lat":"37.130811206","long":"127.07809001","imageIndex":17,"items":[{"name":"디자인외길","tel":"031-372-1454","addr":"경기도 오산시 갈곶동 344번지 4,5호","indutype":"용역 서비스 - 종합용역","category":"other"}]},{"lat":"37.131198162","long":"127.07886689","imageIndex":17,"items":[{"name":"라인데코","tel":"031-373-6533","addr":"경기도 오산시 갈곶동 342번지 103호","indutype":"직물 - 침구·수예점","category":"other"},{"name":"바농","tel":"031-223-4423","addr":"경기도 오산시 갈곶동 342번지 110호","indutype":"문화.취미 - 민예·공예품","category":"other"},{"name":"자이문구","tel":"031-375-7459","addr":"경기도 오산시 갈곶동 342번지 의연상가 5","indutype":"서적문구 - 문구용품","category":"other"},{"name":"흙꽃도예","tel":"031-611-2491","addr":"경기도 오산시 갈곶동 342번지 11호 , 12 의연상가","indutype":"주방용구 - 주방용식기","category":"other"}]},{"lat":"37.12872534","long":"127.07050321","imageIndex":17,"items":[{"name":"런던바이크(가뫼레저)","tel":"031-667-9797","addr":"경기도 오산시 갈곶동 226-1번지","indutype":"레져용품 - 스포츠·레져용품","category":"other"},{"name":"하얀씽크","tel":"031-377-0182","addr":"경기도 오산시 갈곶동 226-1번지","indutype":"주방용구 - 주방용구","category":"other"}]},{"lat":"37.129087747","long":"127.06692495","imageIndex":17,"items":[{"name":"리싸이클시티오산갈곳점","tel":"031-378-8425","addr":"경기도 오산시 갈곶동 180외1필지정우빌딩b-102","indutype":"전기제품 - 가전제품","category":"other"}]},{"lat":"37.133141438","long":"127.06880778","imageIndex":17,"items":[{"name":"명금당","tel":"031-375-7903","addr":"경기도 오산시 갈곶동 126-4번지 명금당","indutype":"신변잡화 - 시계","category":"other"},{"name":"수 컬렉션","tel":"031-377-2705","addr":"경기도 오산시 갈곶동 126-4번지 파리바게뜨 101호","indutype":"의류 - 정장","category":"other"}]},{"lat":"37.130366069","long":"127.06905295","imageIndex":17,"items":[{"name":"미(  )의여신","tel":"031-377-0081","addr":"경기도 오산시 갈곶동 217-10번지 1층 좌측","indutype":"회원제형태 - 기타4","category":"other"}]},{"lat":"37.133114805","long":"127.06808751","imageIndex":17,"items":[{"name":"비 치어스 (Be cheers)","tel":"","addr":"경기도 오산시 갈곶동 112-21번지","indutype":"서적문구 - 문구용품","category":"other"}]},{"lat":"37.130950887","long":"127.07058396","imageIndex":17,"items":[{"name":"사진찍기좋은날","tel":"02-000-0000","addr":"경기도 오산시 갈곶동 269-3번지","indutype":"광학제품 - 사진관","category":"other"},{"name":"씨유오산갈곶소망점","tel":"080-080-3663","addr":"경기도 오산시 갈곶동 269-3번지 1층","indutype":"유통업 영리 - 편 의 점","category":"other"}]},{"lat":"37.132537453","long":"127.06931368","imageIndex":17,"items":[{"name":"세븐일레븐오산갈곶대로점","tel":"","addr":"경기도 오산시 갈곶동 126-25번지","indutype":"유통업 영리 - 편 의 점","category":"other"}]},{"lat":"37.130727006","long":"127.06811922","imageIndex":17,"items":[{"name":"슈자이너","tel":"031-378-5528","addr":"경기도 오산시 갈곶동 167-2번지 소문난떡방앗간 102호","indutype":"의류 - 정장","category":"other"}]},{"lat":"37.13165578","long":"127.06684834","imageIndex":17,"items":[{"name":"스마트현컴","tel":"","addr":"경기도 오산시 갈곶동 713번지 오산케이씨씨스위첸 107동 20층 2호","indutype":"사무통신 - 컴퓨터","category":"other"}]},{"lat":"37.128142019","long":"127.06622646","imageIndex":17,"items":[{"name":"신양철강","tel":"031-373-6356","addr":"경기도 오산시 갈곶동 181-4번지","indutype":"기타 - 기계공구","category":"other"}]},{"lat":"37.131140485","long":"127.06992016","imageIndex":17,"items":[{"name":"신통해벌초대행","tel":"","addr":"경기도 오산시 갈곶동 159-3번지","indutype":"용역 서비스 - 종합용역","category":"other"}]},{"lat":"37.128867508","long":"127.07392435","imageIndex":17,"items":[{"name":"씨유오산피오레점","tel":"031-239-6693","addr":"경기도 오산시 갈곶동 291-9번지 1층","indutype":"유통업 영리 - 편 의 점","category":"other"}]},{"lat":"37.131312508","long":"127.06844608","imageIndex":17,"items":[{"name":"언니네펫","tel":"031-377-7382","addr":"경기도 오산시 갈곶동 162-2번지 1층 102호","indutype":"문화.취미 - 애완동물","category":"other"},{"name":"오산열쇠","tel":"031-376-8181","addr":"경기도 오산시 갈곶동 162-2번지","indutype":"건축자재 - 목재·석재·철물","category":"other"},{"name":"코디삽","tel":"031-374-8897","addr":"경기도 오산시 갈곶동 162-2번지","indutype":"의류 - 정장","category":"other"}]},{"lat":"37.133980316","long":"127.06716541","imageIndex":17,"items":[{"name":"에듀프라임 동탄2지사","tel":"070-8174-9256","addr":"경기도 오산시 갈곶동 704번지 한솔솔파크 104동 404호","indutype":"서적문구 - 일반서적","category":"other"}]},{"lat":"37.130646251","long":"127.0675002","imageIndex":17,"items":[{"name":"오산인테리어","tel":"031-374-8811","addr":"경기도 오산시 갈곶동 170번지 102호","indutype":"건축자재 - 인테리어전문","category":"other"}]},{"lat":"37.128168045","long":"127.06808326","imageIndex":17,"items":[{"name":"오산전자","tel":"031-374-2123","addr":"경기도 오산시 갈곶동 197번지","indutype":"전기제품 - 가전제품","category":"other"}]},{"lat":"37.132447631","long":"127.06880718","imageIndex":17,"items":[{"name":"오산컴퓨터","tel":"031-373-8444","addr":"경기도 오산시 갈곶동 126-17번지 심안빌딩 1층 2호","indutype":"사무통신 - 컴퓨터","category":"other"},{"name":"필체형관리","tel":"070-8170-2003","addr":"경기도 오산시 갈곶동 126-17번지 3층전부","indutype":"회원제형태 - 기타4","category":"other"}]},{"lat":"37.126057547","long":"127.07169364","imageIndex":17,"items":[{"name":"우송편의점","tel":"031-375-0613","addr":"경기도 오산시 갈곶동 236-8번지 104동 103호","indutype":"유통업 영리 - 편 의 점","category":"other"}]},{"lat":"37.127673251","long":"127.06664243","imageIndex":17,"items":[{"name":"윌로펌프산업(주)","tel":"031-377-2224","addr":"경기도 오산시 갈곶동 186번지","indutype":"건축자재 - 보일러·펌프·샷시","category":"other"}]},{"lat":"37.131033307","long":"127.06822076","imageIndex":17,"items":[{"name":"인생옷장","tel":"031-374-4780","addr":"경기도 오산시 갈곶동 163-2번지 1층 102호","indutype":"의류 - 정장","category":"other"}]},{"lat":"37.131009107","long":"127.07860787","imageIndex":17,"items":[{"name":"자이꽃농원","tel":"031-375-0440","addr":"경기도 오산시 갈곶동 343-2번지","indutype":"문화.취미 - 화원","category":"other"},{"name":"휴꽃과자기","tel":"031-373-7430","addr":"경기도 오산시 갈곶동 343-2번지","indutype":"문화.취미 - 화원","category":"other"}]},{"lat":"37.129674947","long":"127.07955183","imageIndex":17,"items":[{"name":"정래공구상사","tel":"031-377-8037","addr":"경기도 오산시 갈곶동 350-1번지","indutype":"기타 - 기계공구","category":"other"}]},{"lat":"37.130563877","long":"127.06980712","imageIndex":17,"items":[{"name":"정우에어컨","tel":"","addr":"경기도 오산시 갈곶동 216-2번지","indutype":"용역 서비스 - 기타용역서비스","category":"other"}]},{"lat":"37.130980163","long":"127.06653267","imageIndex":17,"items":[{"name":"제이엠엔터테이먼트(JM Entertainment)","tel":"031-376-4906","addr":"경기도 오산시 갈곶동 171번지","indutype":"용역 서비스 - 종합용역","category":"other"}]},{"lat":"37.127728571","long":"127.07971867","imageIndex":17,"items":[{"name":"주식회사 미래정보","tel":"031-373-8479","addr":"경기도 오산시 갈곶동 373번지","indutype":"사무통신 - 사무용 OA기기","category":"other"}]},{"lat":"37.133335264","long":"127.07630312","imageIndex":17,"items":[{"name":"주식회사융창상사","tel":"02-3486-3107","addr":"경기도 오산시 갈곶동 324번지","indutype":"의류 - 정장","category":"other"}]},{"lat":"37.128754316","long":"127.06700345","imageIndex":17,"items":[{"name":"집현전","tel":"031-374-0848","addr":"경기도 오산시 갈곶동 184번지","indutype":"용역 서비스 - 사무서비스","category":"other"}]},{"lat":"37.130952163","long":"127.06831072","imageIndex":17,"items":[{"name":"코스모스","tel":"031-898-7508","addr":"경기도 오산시 갈곶동 165-3번지 1층","indutype":"의류 - 정장","category":"other"}]},{"lat":"37.130008495","long":"127.07930459","imageIndex":17,"items":[{"name":"콜벨","tel":"031-424-8733","addr":"경기도 오산시 갈곶동 350번지 화남빌딩 202호","indutype":"전기제품 - 기타전기제품","category":"other"},{"name":"화남장례식장","tel":"031-374-2269","addr":"경기도 오산시 갈곶동 350번지","indutype":"용역 서비스 - 가례서비스업","category":"other"}]},{"lat":"37.133308302","long":"127.05978222","imageIndex":17,"items":[{"name":"태성골재","tel":"031-373-3900","addr":"경기도 오산시 갈곶동 7-1번지","indutype":"건축자재 - 기타건축자재","category":"other"}]},{"lat":"37.12834022","long":"127.06628289","imageIndex":17,"items":[{"name":"프로시스템","tel":"02-1661-6878","addr":"경기도 오산시 갈곶동 181-14번지 B동 401호","indutype":"전기제품 - 기타전기제품","category":"other"}]},{"lat":"37.132781019","long":"127.06880747","imageIndex":17,"items":[{"name":"필성종합장식","tel":"031-374-3741","addr":"경기도 오산시 갈곶동 126-8번지","indutype":"직물 - 카페트,커튼,천막,지물","category":"other"}]},{"lat":"37.126173241","long":"127.07413564","imageIndex":17,"items":[{"name":"한흥철강","tel":"031-377-7070","addr":"경기도 오산시 갈곶동 238번지 3동 101호","indutype":"건축자재 - 목재·석재·철물","category":"other"}]},{"lat":"37.131141153","long":"127.06872727","imageIndex":17,"items":[{"name":"해바라기꽃집","tel":"031-375-7787","addr":"경기도 오산시 갈곶동 162-4번지","indutype":"문화.취미 - 화원","category":"other"}]},{"lat":"37.132559455","long":"127.07775412","imageIndex":17,"items":[{"name":"헨코디자인","tel":"","addr":"경기도 오산시 갈곶동 333번지 외 3필지(337, 335-4, 335-6)","indutype":"가구 - 일반가구","category":"other"}]},{"lat":"37.12803367","long":"127.06664274","imageIndex":17,"items":[{"name":"희망주택","tel":"031-375-0388","addr":"경기도 오산시 갈곶동 183번지","indutype":"용역 서비스 - 부동산 중개·임대","category":"other"}]}]