[{"lat":"37.031742783","long":"127.34376029","imageIndex":17,"items":[{"name":"개미네 디자인","tel":"031-677-9938","addr":"경기도 안성시 삼죽면 마전리 70-6번지","indutype":"가구 - 기타가구","category":"other"}]},{"lat":"37.034047138","long":"127.33506014","imageIndex":17,"items":[{"name":"수민상사","tel":"031-674-5245","addr":"경기도 안성시 삼죽면 마전리 190-4","indutype":"신변잡화 - 기타잡화","category":"other"}]},{"lat":"37.028826243","long":"127.33958901","imageIndex":17,"items":[{"name":"신화건축중고자재백화점","tel":"031-673-2656","addr":"경기도 안성시 삼죽면 마전리 263-4번지","indutype":"건축자재 - 기타건축자재","category":"other"},{"name":"신화창호","tel":"031-673-2656","addr":"경기도 안성시 삼죽면 마전리 263-4번지","indutype":"건축자재 - 기타건축자재","category":"other"}]},{"lat":"37.033574926","long":"127.3520293","imageIndex":17,"items":[{"name":"주식회사엘티아이조경산업","tel":"031-675-6018","addr":"경기도 안성시 삼죽면 마전리 6-5번지","indutype":"문화.취미 - 화원","category":"other"}]},{"lat":"37.031520647","long":"127.34266912","imageIndex":17,"items":[{"name":"한국지대산업","tel":"031-672-9734","addr":"경기도 안성시 삼죽면 마전리 41-1번지","indutype":"서적문구 - 출판 및 인쇄물","category":"other"}]},{"lat":"37.029608256","long":"127.34963979","imageIndex":16,"items":[{"name":"내체력체육관","tel":"031-671-5371","addr":"경기도 안성시 삼죽면 마전리 24-7","indutype":"학원 - 예·체능계학원","category":"study"}]},{"lat":"37.030298593","long":"127.34148361","imageIndex":16,"items":[{"name":"마전초등학교","tel":"","addr":"경기도 안성시 삼죽면 마전리 37-1번지 마전초등학교","indutype":"학원 - 초중고교육기관","category":"study"},{"name":"마전초등학교병설유치원[아이행복]","tel":"031-672-1164","addr":"경기도 안성시 삼죽면 마전리 37-1번지 마전초등학교","indutype":"학원 - 유치원","category":"study"}]},{"lat":"37.030887088","long":"127.34987038","imageIndex":9,"items":[{"name":"부림주유소","tel":"031-674-0814","addr":"경기도 안성시 삼죽면 마전리 24-15번지","indutype":"연료판매점 - SK주유소","category":"oil"}]},{"lat":"37.03082477","long":"127.34961161","imageIndex":4,"items":[{"name":"소쿠리파리","tel":"031-672-5978","addr":"경기도 안성시 삼죽면 마전리 24-21번지","indutype":"일반휴게음식 - 서양음식","category":"restaurant"}]}]