[{"lat":"37.240434304","long":"127.03139484","imageIndex":7,"items":[{"name":"(주)곰엔터테인먼트","tel":"070-4233-6020","addr":"경기도 수원시 권선구 곡반정동 544-12 다세대주택 101호","indutype":"음료식품 - 농·축·수산품","category":"food"}]},{"lat":"37.23496646","long":"127.02466514","imageIndex":7,"items":[{"name":"(주)현준미트","tel":"031-234-8225","addr":"경기도 수원시 권선구 곡반정동 588-1","indutype":"음료식품 - 정육점","category":"food"}]},{"lat":"37.232488771","long":"127.023808","imageIndex":7,"items":[{"name":"경기방앗간","tel":"031-237-7480","addr":"경기도 수원시 권선구 곡반정동 608-3번지","indutype":"음료식품 - 제과점","category":"food"}]},{"lat":"37.234551416","long":"127.02756116","imageIndex":7,"items":[{"name":"곡반점핑다이어트","tel":"031-215-8208","addr":"경기도 수원시 권선구 곡반정동 593-8번지 2층 201호","indutype":"건강식품 - 기타건강식품","category":"food"},{"name":"에스핏점핑다이어트(곡반정동)","tel":"031-8013-2643","addr":"경기도 수원시 권선구 곡반정동 593-8번지 201호","indutype":"건강식품 - 기타건강식품","category":"food"}]},{"lat":"37.232245421","long":"127.02420234","imageIndex":7,"items":[{"name":"골드튜나","tel":"031-000-0000","addr":"경기도 수원시 권선구 곡반정동 607-2번지 1층 101호","indutype":"음료식품 - 농·축·수산품","category":"food"}]},{"lat":"37.242407098","long":"127.03327771","imageIndex":7,"items":[{"name":"그린건강원","tel":"031-232-0674","addr":"경기도 수원시 권선구 곡반정동 521-9번지 1층 105호","indutype":"건강식품 - 기타건강식품","category":"food"}]},{"lat":"37.234245555","long":"127.02508188","imageIndex":7,"items":[{"name":"극한수산","tel":"031-309-6406","addr":"경기도 수원시 권선구 곡반정동 590-5번지 102호","indutype":"음료식품 - 농·축·수산품","category":"food"}]},{"lat":"37.242019703","long":"127.03308596","imageIndex":7,"items":[{"name":"대경TNC","tel":"031-236-6879","addr":"경기도 수원시 권선구 곡반정동 532-2번지 101호","indutype":"음료식품 - 기타음료식품","category":"food"}]},{"lat":"37.234128467","long":"127.02483393","imageIndex":7,"items":[{"name":"대상푸드시스템","tel":"","addr":"경기도 수원시 권선구 곡반정동 590-7번지 102호","indutype":"음료식품 - 기타음료식품","category":"food"}]},{"lat":"37.232822187","long":"127.02361652","imageIndex":7,"items":[{"name":"대신유통","tel":"031-238-2419","addr":"경기도 수원시 권선구 곡반정동 609-6번지","indutype":"음료식품 - 기타음료식품","category":"food"}]},{"lat":"37.231604817","long":"127.02858564","imageIndex":7,"items":[{"name":"동부유통주식회사","tel":"031-238-1379","addr":"경기도 수원시 권선구 곡반정동 347-2번지","indutype":"음료식품 - 기타음료식품","category":"food"}]},{"lat":"37.236939111","long":"127.02777605","imageIndex":7,"items":[{"name":"두꺼비부대찌개","tel":"031-234-2346","addr":"경기도 수원시 권선구 곡반정동 578번지 곡반정현대아이파크 상가동 1층 106호","indutype":"음료식품 - 기타음료식품","category":"food"},{"name":"수원궁중떡","tel":"031-233-9039","addr":"경기도 수원시 권선구 곡반정동 578곡반정현대아이파크상가동102","indutype":"음료식품 - 제과점","category":"food"}]},{"lat":"37.245488893","long":"127.03223078","imageIndex":7,"items":[{"name":"럽마카롱","tel":"","addr":"경기도 수원시 권선구 곡반정동 504-5번지","indutype":"음료식품 - 기타음료식품","category":"food"}]},{"lat":"37.230857205","long":"127.02742473","imageIndex":7,"items":[{"name":"맛나푸드","tel":"031-224-7018","addr":"경기도 수원시 권선구 곡반정동 330-2","indutype":"음료식품 - 기타음료식품","category":"food"}]},{"lat":"37.242299252","long":"127.03217319","imageIndex":7,"items":[{"name":"베델글로벌 (SLB)","tel":"031-238-4301","addr":"경기도 수원시 권선구 곡반정동 531-15번지 초원빌 102호","indutype":"건강식품 - 기타건강식품","category":"food"}]},{"lat":"37.238966299","long":"127.02841909","imageIndex":7,"items":[{"name":"베스킨라빈스(곡반정점)","tel":"031-224-2525","addr":"경기도 수원시 권선구 곡반정동 564-2번지 1층","indutype":"음료식품 - 제과점","category":"food"}]},{"lat":"37.233714052","long":"127.02450701","imageIndex":7,"items":[{"name":"사부자축산","tel":"031-303-9519","addr":"경기도 수원시 권선구 곡반정동 604-5번지","indutype":"음료식품 - 정육점","category":"food"}]},{"lat":"37.234578783","long":"127.02589335","imageIndex":7,"items":[{"name":"서울유통","tel":"031-204-0854","addr":"경기도 수원시 권선구 곡반정동 592-8번지 102호","indutype":"음료식품 - 기타음료식품","category":"food"}]},{"lat":"37.23229863","long":"127.02850699","imageIndex":7,"items":[{"name":"성경식품수원총판","tel":"031-224-4131","addr":"경기도 수원시 권선구 곡반정동 346-2번지","indutype":"음료식품 - 기타음료식품","category":"food"},{"name":"주식회사 에스지유통","tel":"031-224-4131","addr":"경기도 수원시 권선구 곡반정동 346-2번지","indutype":"음료식품 - 기타음료식품","category":"food"}]},{"lat":"37.236821662","long":"127.02922976","imageIndex":7,"items":[{"name":"성세무역","tel":"031-246-5354","addr":"경기도 수원시 권선구 곡반정동 576-3번지 1층 101호","indutype":"음료식품 - 기타음료식품","category":"food"}]},{"lat":"37.242488505","long":"127.03202675","imageIndex":7,"items":[{"name":"소담찬","tel":"031-225-0020","addr":"경기도 수원시 권선구 곡반정동 531-2번지","indutype":"음료식품 - 기타음료식품","category":"food"}]},{"lat":"37.234245352","long":"127.02614117","imageIndex":7,"items":[{"name":"순수자연치즈","tel":"031-308-7888","addr":"경기도 수원시 권선구 곡반정동 594-10번지 101호","indutype":"음료식품 - 기타음료식품","category":"food"}]},{"lat":"37.238020275","long":"127.02813704","imageIndex":7,"items":[{"name":"신우상사","tel":"031-204-7066","addr":"경기도 수원시 권선구 곡반정동 570-2번지 1층","indutype":"음료식품 - 기타음료식품","category":"food"}]},{"lat":"37.234407967","long":"127.02384234","imageIndex":7,"items":[{"name":"싱싱과일","tel":"","addr":"경기도 수원시 권선구 곡반정동 603-12번지 104호","indutype":"음료식품 - 농·축·수산품","category":"food"}]},{"lat":"37.231353497","long":"127.02363866","imageIndex":7,"items":[{"name":"싱싱수산","tel":"031-226-8872","addr":"경기도 수원시 권선구 곡반정동 401-2번지 1층","indutype":"음료식품 - 농·축·수산품","category":"food"}]},{"lat":"37.234434214","long":"127.02788792","imageIndex":7,"items":[{"name":"아름찬","tel":"031-225-7277","addr":"경기도 수원시 권선구 곡반정동 593-10번지 102호","indutype":"음료식품 - 기타음료식품","category":"food"}]},{"lat":"37.244461772","long":"127.03200497","imageIndex":7,"items":[{"name":"아싸비어 곡반정동점","tel":"","addr":"경기도 수원시 권선구 곡반정동 517-1번지","indutype":"음료식품 - 기타음료식품","category":"food"}]},{"lat":"37.235182645","long":"127.02500327","imageIndex":7,"items":[{"name":"에이스미트","tel":"031-233-0063","addr":"경기도 수원시 권선구 곡반정동 587-1번지","indutype":"음료식품 - 정육점","category":"food"}]},{"lat":"37.24043417","long":"127.03194707","imageIndex":7,"items":[{"name":"영통녹즙","tel":"031-204-0111","addr":"경기도 수원시 권선구 곡반정동 544-8번지 101호","indutype":"음료식품 - 기타음료식품","category":"food"}]},{"lat":"37.239794437","long":"127.03194682","imageIndex":7,"items":[{"name":"우다돈 정육","tel":"031-898-8960","addr":"경기도 수원시 권선구 곡반정동 550-6번지 극동빌딩 1층 101호","indutype":"음료식품 - 정육점","category":"food"}]},{"lat":"37.234353857","long":"127.02411278","imageIndex":7,"items":[{"name":"우리밴딩(Vending)","tel":"031-245-3278","addr":"경기도 수원시 권선구 곡반정동 603-3번지 1층","indutype":"음료식품 - 기타음료식품","category":"food"}]},{"lat":"37.236605518","long":"127.02875638","imageIndex":7,"items":[{"name":"장독대","tel":"031-222-9604","addr":"경기도 수원시 권선구 곡반정동 577-1번지 102호","indutype":"음료식품 - 기타음료식품","category":"food"}]},{"lat":"37.233767837","long":"127.02597199","imageIndex":7,"items":[{"name":"장터김치","tel":"031-233-9832","addr":"경기도 수원시 권선구 곡반정동 598-9번지","indutype":"음료식품 - 기타음료식품","category":"food"}]},{"lat":"37.233966451","long":"127.02389856","imageIndex":7,"items":[{"name":"제이앤비 (J&B) 식품","tel":"031-374-3877","addr":"경기도 수원시 권선구 곡반정동 605-1번지","indutype":"음료식품 - 농·축·수산품","category":"food"},{"name":"제이앤비(J&B)유통","tel":"031-374-3877","addr":"경기도 수원시 권선구 곡반정동 605-1번지","indutype":"음료식품 - 기타음료식품","category":"food"}]},{"lat":"37.239272053","long":"127.03105631","imageIndex":7,"items":[{"name":"조앤스파이","tel":"070-8877-0469","addr":"경기도 수원시 권선구 곡반정동 554-5번지 101호","indutype":"음료식품 - 제과점","category":"food"}]},{"lat":"37.233551455","long":"127.02664805","imageIndex":7,"items":[{"name":"주식회사 라이크","tel":"031-212-1145","addr":"경기도 수원시 권선구 곡반정동 597-22번지","indutype":"음료식품 - 기타음료식품","category":"food"}]},{"lat":"37.233767922","long":"127.0255325","imageIndex":7,"items":[{"name":"주식회사 차오름","tel":"070-8637-5919","addr":"경기도 수원시 권선구 곡반정동 599-11번지","indutype":"음료식품 - 기타음료식품","category":"food"}]},{"lat":"37.233884983","long":"127.02591568","imageIndex":7,"items":[{"name":"주식회사더팬코리아","tel":"02-3444-3404","addr":"경기도 수원시 권선구 곡반정동 598-10번지","indutype":"음료식품 - 기타음료식품","category":"food"}]},{"lat":"37.233218632","long":"127.02367298","imageIndex":7,"items":[{"name":"차상유통","tel":"031-244-2315","addr":"경기도 수원시 권선구 곡반정동 609-10번지","indutype":"음료식품 - 농·축·수산품","category":"food"}]},{"lat":"37.239821773","long":"127.03067335","imageIndex":7,"items":[{"name":"청목원42","tel":"031-239-8290","addr":"경기도 수원시 권선구 곡반정동 552-16번지 304호","indutype":"음료식품 - 기타음료식품","category":"food"}]},{"lat":"37.234489032","long":"127.02400013","imageIndex":7,"items":[{"name":"커피타임","tel":"031-8013-6447","addr":"경기도 수원시 권선구 곡반정동 603-2번지 101호","indutype":"음료식품 - 기타음료식품","category":"food"}]},{"lat":"37.242488806","long":"127.03077576","imageIndex":7,"items":[{"name":"태영슈퍼","tel":"031-221-6867","addr":"경기도 수원시 권선구 곡반정동 534-1번지","indutype":"음료식품 - 기타음료식품","category":"food"}]},{"lat":"37.235245451","long":"127.02638939","imageIndex":7,"items":[{"name":"파란풍차","tel":"031-236-0057","addr":"경기도 수원시 권선구 곡반정동 584-6번지","indutype":"음료식품 - 제과점","category":"food"}]},{"lat":"37.243155536","long":"127.03092252","imageIndex":7,"items":[{"name":"파리바게뜨(수원아이파크시티점)","tel":"031-224-3070","addr":"경기도 수원시 권선구 곡반정동 516-10번지 1층","indutype":"음료식품 - 제과점","category":"food"}]},{"lat":"37.232434733","long":"127.02367276","imageIndex":7,"items":[{"name":"한국비버리지","tel":"070-7010-8886","addr":"경기도 수원시 권선구 곡반정동 608-4번지 1층 101호","indutype":"음료식품 - 기타음료식품","category":"food"}]},{"lat":"37.233047091","long":"127.02555482","imageIndex":7,"items":[{"name":"황해건강원","tel":"031-238-6660","addr":"경기도 수원시 권선구 곡반정동 597-13번지 101호","indutype":"건강식품 - 기타건강식품","category":"food"}]}]