[{"lat":"37.269554993","long":"127.60769718","imageIndex":7,"items":[{"name":"금성종합상사","tel":"031-882-2275","addr":"경기도 여주시 연라동 286-4번지","indutype":"음료식품 - 기타음료식품","category":"food"}]},{"lat":"37.262801273","long":"127.60161207","imageIndex":7,"items":[{"name":"마일드블랙","tel":"031-000-0000","addr":"경기도 여주시 연라동 392-37번지 2동 1층","indutype":"음료식품 - 기타음료식품","category":"food"}]},{"lat":"37.268919097","long":"127.60694801","imageIndex":16,"items":[{"name":"뉴신진자동차운전전문학원","tel":"031-883-3889","addr":"경기도 여주시 연라동 284번지","indutype":"회원제형태 - 학원","category":"study"},{"name":"뉴신진자동차운전학원","tel":"031-883-3889","addr":"경기도 여주시 연라동 284번지","indutype":"회원제형태 - 학원","category":"study"}]},{"lat":"37.272329035","long":"127.60966985","imageIndex":16,"items":[{"name":"푸른유치원[아이행복]","tel":"031-884-6141","addr":"경기도 여주시 연라동 150-1번지","indutype":"학원 - 유치원","category":"study"}]},{"lat":"37.264550656","long":"127.60133282","imageIndex":4,"items":[{"name":"대물림 남원추어탕","tel":"031-883-3959","addr":"경기도 여주시 연라동 390-3번지","indutype":"일반휴게음식 - 일반한식","category":"restaurant"}]},{"lat":"37.269107324","long":"127.60714117","imageIndex":4,"items":[{"name":"먹쇠","tel":"031-884-0895","addr":"경기도 여주시 연라동 286-2번지","indutype":"일반휴게음식 - 일반한식","category":"restaurant"},{"name":"삼원가든","tel":"031-884-9898","addr":"경기도 여주시 연라동 286-2번지","indutype":"일반휴게음식 - 일반한식","category":"restaurant"}]},{"lat":"37.262557153","long":"127.60177924","imageIndex":4,"items":[{"name":"명품짬뽕아울렛","tel":"031-883-8828","addr":"경기도 여주시 연라동 392-7번지 1층","indutype":"일반휴게음식 - 중국식","category":"restaurant"},{"name":"육개장인 남여주점","tel":"031-882-7755","addr":"경기도 여주시 연라동 392-7번지","indutype":"일반휴게음식 - 일반한식","category":"restaurant"},{"name":"인제 재래식 손두부","tel":"034-882-1425","addr":"경기도 여주시 연라동 392-7번지 1층","indutype":"일반휴게음식 - 일반한식","category":"restaurant"},{"name":"인제재래식손두부2호점","tel":"031-882-1425","addr":"경기도 여주시 연라동 392-7번지","indutype":"일반휴게음식 - 일반한식","category":"restaurant"}]},{"lat":"37.262306817","long":"127.60139397","imageIndex":4,"items":[{"name":"양평해장국","tel":"031-886-7762","addr":"경기도 여주시 연라동 392-8번지 3동 1층","indutype":"일반휴게음식 - 일반한식","category":"restaurant"}]},{"lat":"37.259780765","long":"127.6020278","imageIndex":4,"items":[{"name":"영재농원","tel":"031-884-7721","addr":"경기도 여주시 연라동 401-6번지","indutype":"일반휴게음식 - 일반한식","category":"restaurant"}]},{"lat":"37.253360302","long":"127.60836799","imageIndex":4,"items":[{"name":"웰빙 시골밥상","tel":"031-881-2319","addr":"경기도 여주시 연라동 634번지 1층","indutype":"일반휴게음식 - 일반한식","category":"restaurant"}]},{"lat":"37.272442346","long":"127.61041488","imageIndex":4,"items":[{"name":"이천거리","tel":"031-885-0002","addr":"경기도 여주시 연라동 152-4번지 1층","indutype":"일반휴게음식 - 일반한식","category":"restaurant"}]},{"lat":"37.274221318","long":"127.60963994","imageIndex":4,"items":[{"name":"장복골","tel":"070-4100-7895","addr":"경기도 여주시 연라동 174-1번지","indutype":"일반휴게음식 - 일반한식","category":"restaurant"}]},{"lat":"37.253639952","long":"127.6083026","imageIndex":4,"items":[{"name":"장수막국수","tel":"001-0000-0000","addr":"경기도 여주시 연라동 634-1번지","indutype":"일반휴게음식 - 일반한식","category":"restaurant"}]},{"lat":"37.264835892","long":"127.60194384","imageIndex":4,"items":[{"name":"포뜰오리","tel":"031-884-4636","addr":"경기도 여주시 연라동 390-1번지","indutype":"일반휴게음식 - 일반한식","category":"restaurant"}]},{"lat":"37.269804847","long":"127.60817269","imageIndex":0,"items":[{"name":"대영자동차 공업사","tel":"031-884-1256","addr":"경기도 여주시 연라동 196-2번지","indutype":"자동차정비 유지 - 자동차정비","category":"car"}]},{"lat":"37.263445472","long":"127.60250775","imageIndex":0,"items":[{"name":"세창자동차공업사","tel":"031-882-6502","addr":"경기도 여주시 연라동 392-6번지","indutype":"자동차정비 유지 - 자동차정비","category":"car"}]},{"lat":"37.263168451","long":"127.60205463","imageIndex":0,"items":[{"name":"세창중기자동차공업사","tel":"031-882-6502","addr":"경기도 여주시 연라동 392-6번지 1층","indutype":"자동차정비 유지 - 자동차정비","category":"car"}]},{"lat":"37.271335358","long":"127.61016922","imageIndex":0,"items":[{"name":"제일중고타이어","tel":"031-881-4772","addr":"경기도 여주시 연라동 145-1번지","indutype":"자동차정비 유지 - 자동차시트·타이어","category":"car"}]},{"lat":"37.263724377","long":"127.60258888","imageIndex":17,"items":[{"name":"도자유통","tel":"031-883-9492","addr":"경기도 여주시 연라동 392-3번지","indutype":"신변잡화 - 기타잡화","category":"other"}]},{"lat":"37.272108926","long":"127.61042347","imageIndex":17,"items":[{"name":"배조하우징경기점","tel":"","addr":"경기도 여주시 연라동 147번지 1,2동","indutype":"건축자재 - 기타건축자재","category":"other"}]},{"lat":"37.259666431","long":"127.60147454","imageIndex":17,"items":[{"name":"성원골프","tel":"031-886-0401","addr":"경기도 여주시 연라동 401-6번지","indutype":"레져용품 - 골프용품 전문점","category":"other"}]},{"lat":"37.256280942","long":"127.60633984","imageIndex":17,"items":[{"name":"세븐일레븐여주연라점","tel":"","addr":"경기도 여주시 연라동 564-5번지","indutype":"유통업 영리 - 편 의 점","category":"other"}]},{"lat":"37.265529916","long":"127.60367418","imageIndex":17,"items":[{"name":"세종씽크","tel":"031-883-8242","addr":"경기도 여주시 연라동 265-44번지","indutype":"주방용구 - 주방용구","category":"other"}]},{"lat":"37.263912326","long":"127.60283838","imageIndex":17,"items":[{"name":"쌍용종합철물건재","tel":"031-885-9799","addr":"경기도 여주시 연라동 392-2번지","indutype":"건축자재 - 기타건축자재","category":"other"}]},{"lat":"37.262557153","long":"127.60177924","imageIndex":17,"items":[{"name":"씨유뉴남여주IC점","tel":"031-884-9110","addr":"경기도 여주시 연라동 392-7번지 1층","indutype":"유통업 영리 - 편 의 점","category":"other"}]},{"lat":"37.269776062","long":"127.60675192","imageIndex":17,"items":[{"name":"연합건업","tel":"031-637-3106","addr":"경기도 여주시 연라동 198-10번지","indutype":"용역 서비스 - 기타용역서비스","category":"other"}]},{"lat":"37.259778194","long":"127.60075397","imageIndex":17,"items":[{"name":"영재골프연습장","tel":"031-884-0721","addr":"경기도 여주시 연라동 401-6번지","indutype":"회원제형태 - 레져업소","category":"other"},{"name":"영재골프연습장","tel":"031-884-0721","addr":"경기도 여주시 연라동 401-6번지","indutype":"회원제형태 - 레져업소","category":"other"}]},{"lat":"37.253639952","long":"127.6083026","imageIndex":17,"items":[{"name":"이마트24 여주연하점","tel":"","addr":"경기도 여주시 연라동 634-1번지 1층","indutype":"유통업 영리 - 편 의 점","category":"other"}]},{"lat":"37.269780192","long":"127.60946901","imageIndex":17,"items":[{"name":"천지식물원","tel":"","addr":"경기도 여주시 연라동 693-2번지","indutype":"문화.취미 - 화원","category":"other"}]},{"lat":"37.268191834","long":"127.60644615","imageIndex":13,"items":[{"name":"에스지스크린골프연습장","tel":"031-885-0753","addr":"경기도 여주시 연라동 283번지","indutype":"레저업소 - 스크린골프","category":"leisure"}]},{"lat":"37.259053871","long":"127.6032282","imageIndex":13,"items":[{"name":"영재par3골프랜드","tel":"031-884-7721","addr":"경기도 여주시 연라동 401-6번지","indutype":"레저업소 - 골프연습장","category":"leisure"}]},{"lat":"37.257558591","long":"127.60136768","imageIndex":5,"items":[{"name":"첼시모텔","tel":"031-882-4431","addr":"경기도 여주시 연라동 551-7번지","indutype":"숙박업 - 여관/기타숙박업","category":"hotel"}]}]