[{"lat":"37.203336611","long":"127.4499306","imageIndex":17,"items":[{"name":"LK매대","tel":"013-631-9393","addr":"경기도 이천시 모가면 신갈리 181-2번지","indutype":"가구 - 기타가구","category":"other"}]},{"lat":"37.196451861","long":"127.45016033","imageIndex":17,"items":[{"name":"누보도예공방","tel":"031-634-6708","addr":"경기도 이천시 모가면 신갈리 405번지","indutype":"문화.취미 - 골동품점","category":"other"}]},{"lat":"37.201447587","long":"127.44909719","imageIndex":17,"items":[{"name":"미니스톱이천테르메덴점","tel":"031-633-0439","addr":"경기도 이천시 모가면 신갈리 438-1","indutype":"유통업 영리 - 편 의 점","category":"other"}]},{"lat":"37.199198894","long":"127.4456598","imageIndex":17,"items":[{"name":"선경철물","tel":"031-634-9717","addr":"경기도 이천시 모가면 신갈리 477-1","indutype":"건축자재 - 목재·석재·철물","category":"other"}]},{"lat":"37.196729951","long":"127.44569043","imageIndex":17,"items":[{"name":"아이지에이마트 이천테르메덴점","tel":"031-000-0000","addr":"경기도 이천시 모가면 신갈리 576-1번지 101호","indutype":"유통업 영리 - 편 의 점","category":"other"}]},{"lat":"37.201392324","long":"127.45180023","imageIndex":17,"items":[{"name":"이천중앙점","tel":"031-633-1116","addr":"경기도 이천시 모가면 신갈리 218","indutype":"유통업 영리 - 기타유통업","category":"other"}]},{"lat":"37.204673038","long":"127.44916124","imageIndex":13,"items":[{"name":"S.P상사","tel":"02-403-7844","addr":"경기도 이천시 모가면 신갈리 157-2번지 (1필지)","indutype":"보건위생 - 화장품","category":"beauty"}]},{"lat":"37.203336611","long":"127.4499306","imageIndex":4,"items":[{"name":"갈미국밥","tel":"031-631-1645","addr":"경기도 이천시 모가면 신갈리 181-2번지 갈미국밥","indutype":"일반휴게음식 - 일반한식","category":"restaurant"}]},{"lat":"37.199527927","long":"127.44682188","imageIndex":4,"items":[{"name":"꽃길","tel":"031-632-6343","addr":"경기도 이천시 모가면 신갈리 481-5번지","indutype":"일반휴게음식 - 서양음식","category":"restaurant"}]},{"lat":"37.197504948","long":"127.44566117","imageIndex":4,"items":[{"name":"남이천막국수","tel":"031-633-9808","addr":"경기도 이천시 모가면 신갈리 373-5번지","indutype":"일반휴게음식 - 일반한식","category":"restaurant"}]},{"lat":"37.198424678","long":"127.44788546","imageIndex":4,"items":[{"name":"모가명품한우촌","tel":"031-631-6032","addr":"경기도 이천시 모가면 신갈리 465-1번지","indutype":"일반휴게음식 - 일반한식","category":"restaurant"}]},{"lat":"37.196729951","long":"127.44569043","imageIndex":4,"items":[{"name":"신갈미추어탕 (온천점)","tel":"031-633-8555","addr":"경기도 이천시 모가면 신갈리 576-1번지 1층","indutype":"일반휴게음식 - 일반한식","category":"restaurant"}]},{"lat":"37.201420179","long":"127.44679917","imageIndex":4,"items":[{"name":"온천식당","tel":"031-633-6358","addr":"경기도 이천시 모가면 신갈리 519-2","indutype":"일반휴게음식 - 일반한식","category":"restaurant"}]},{"lat":"37.203253593","long":"127.44804898","imageIndex":4,"items":[{"name":"원조추어탕생선국수전문집","tel":"031-634-1019","addr":"경기도 이천시 모가면 신갈리 139-3번지","indutype":"일반휴게음식 - 일반한식","category":"restaurant"}]},{"lat":"37.203477703","long":"127.44835443","imageIndex":4,"items":[{"name":"이천생선국수추어탕","tel":"031-634-0453","addr":"경기도 이천시 모가면 신갈리 143-2번지","indutype":"일반휴게음식 - 일반한식","category":"restaurant"}]},{"lat":"37.197504948","long":"127.44566117","imageIndex":7,"items":[{"name":"농업회사법인 주식회사 안촌","tel":"031-631-5663","addr":"경기도 이천시 모가면 신갈리 373-5번지 B동 303호","indutype":"음료식품 - 농·축·수산품","category":"food"}]},{"lat":"37.199365829","long":"127.44679841","imageIndex":7,"items":[{"name":"베이커리심빵","tel":"031-631-7193","addr":"경기도 이천시 모가면 신갈리 481-6번지 1층","indutype":"음료식품 - 제과점","category":"food"}]},{"lat":"37.202006047","long":"127.44674628","imageIndex":7,"items":[{"name":"시온","tel":"031-633-1054","addr":"경기도 이천시 모가면 신갈리 128-3 2/","indutype":"음료식품 - 기타음료식품","category":"food"}]}]