[{"lat":"36.993486442","long":"126.84267177","imageIndex":7,"items":[{"name":"(엔)-MART","tel":"031-682-0194","addr":"경기도 평택시 포승읍 원정리 438번지","indutype":"유통업 영리 - 슈퍼마켓","category":"mart"}]},{"lat":"36.993182131","long":"126.84420014","imageIndex":7,"items":[{"name":"나래슈퍼","tel":"031-682-3328","addr":"경기도 평택시 포승읍 원정리 461-3","indutype":"유통업 영리 - 슈퍼마켓","category":"mart"}]},{"lat":"36.994735979","long":"126.84050108","imageIndex":7,"items":[{"name":"애플마트","tel":"031-682-0557","addr":"경기도 평택시 포승읍 원정리 391-11번지 화이트타운 5동 1층","indutype":"유통업 영리 - 슈퍼마켓","category":"mart"}]},{"lat":"36.995575457","long":"126.84158896","imageIndex":7,"items":[{"name":"코사마트","tel":"031-0000-0000","addr":"경기도 평택시 포승읍 원정리 390-1번지","indutype":"유통업 영리 - 슈퍼마켓","category":"mart"},{"name":"코사마트","tel":"031-686-6160","addr":"경기도 평택시 포승읍 원정리 390-1번지","indutype":"유통업 영리 - 슈퍼마켓","category":"mart"}]},{"lat":"37.005713555","long":"126.82350142","imageIndex":7,"items":[{"name":"호암마트","tel":"031-682-7455","addr":"경기도 평택시 포승읍 원정리 86-59","indutype":"유통업 영리 - 슈퍼마켓","category":"mart"}]},{"lat":"36.99690607","long":"126.83941801","imageIndex":17,"items":[{"name":"(주)청하여행사","tel":"031-254-9595","addr":"경기도 평택시 포승읍 원정리 281-3번지 101호","indutype":"여행 - 관광여행","category":"other"}]},{"lat":"36.996654759","long":"126.84013751","imageIndex":17,"items":[{"name":"CU포승원정길점","tel":"031-662-5356","addr":"경기도 평택시 포승읍 원정리 284-2번지","indutype":"소매업 - 편의점","category":"other"},{"name":"씨유포승원정길점","tel":"080-080-3663","addr":"경기도 평택시 포승읍 원정리 284-2번지 1층","indutype":"유통업 영리 - 편 의 점","category":"other"}]},{"lat":"36.996019227","long":"126.84325061","imageIndex":17,"items":[{"name":"D.E.S.K","tel":"02-512-9689","addr":"경기도 평택시 포승읍 원정리 379-4번지 2층","indutype":"서적문구 - 출판 및 인쇄물","category":"other"}]},{"lat":"36.994293677","long":"126.84663549","imageIndex":17,"items":[{"name":"GS25평택항로점","tel":"","addr":"경기도 평택시 포승읍 원정리 469-7번지 1층","indutype":"유통업 영리 - 편 의 점","category":"other"}]},{"lat":"36.990433967","long":"126.8376683","imageIndex":17,"items":[{"name":"HM","tel":"031-962-5616","addr":"경기도 평택시 포승읍 원정리 1203-1","indutype":"의류 - 정장","category":"other"}]},{"lat":"37.002651572","long":"126.83069882","imageIndex":17,"items":[{"name":"공인테리어","tel":"031-681-3637","addr":"경기도 평택시 포승읍 원정리 107-12번지","indutype":"가구 - 기타가구","category":"other"}]},{"lat":"36.992599834","long":"126.84005629","imageIndex":17,"items":[{"name":"남문마크사","tel":"031-684-8742","addr":"경기도 평택시 포승읍 원정리 443-14번지","indutype":"의류 - 정장","category":"other"}]},{"lat":"37.003458175","long":"126.84711107","imageIndex":17,"items":[{"name":"농업회사법인 주식회사 남양농산","tel":"031-681-8871","addr":"경기도 평택시 포승읍 원정리 1155-10번지","indutype":"도소매업 - 양곡","category":"other"}]},{"lat":"36.999520648","long":"126.84722021","imageIndex":17,"items":[{"name":"대궐인테리어","tel":"031-683-8558","addr":"경기도 평택시 포승읍 원정리 1159-6번지","indutype":"건축자재 - 인테리어전문","category":"other"}]},{"lat":"36.995241866","long":"126.8349506","imageIndex":17,"items":[{"name":"동방사","tel":"031-681-2477","addr":"경기도 평택시 포승읍 원정리 1275번지 국군복지단평택쇼핑타운 2층","indutype":"신변잡화 - 기념품점","category":"other"},{"name":"서해인테리어","tel":"031-681-7181","addr":"경기도 평택시 포승읍 원정리 1275번지 2층","indutype":"건축자재 - 인테리어전문","category":"other"},{"name":"서해자전거점","tel":"031-682-7211","addr":"경기도 평택시 포승읍 원정리 1275번지 복지상가","indutype":"레져용품 - 스포츠·레져용품","category":"other"},{"name":"키즈앤키즈","tel":"031-652-7133","addr":"경기도 평택시 포승읍 원정리 1275번지 국구복지단평택쇼핑타운","indutype":"의류 - 정장","category":"other"},{"name":"해군사","tel":"031-682-4837","addr":"경기도 평택시 포승읍 원정리 1275번지","indutype":"수리서비스 - 세탁소","category":"other"}]},{"lat":"36.993486442","long":"126.84267177","imageIndex":17,"items":[{"name":"디즈니포토랜드","tel":"031-681-7991","addr":"경기도 평택시 포승읍 원정리 438번지","indutype":"광학제품 - 사진관","category":"other"}]},{"lat":"36.998985419","long":"126.82539333","imageIndex":17,"items":[{"name":"만포대골프","tel":"031-685-1528","addr":"경기도 평택시 포승읍 원정리 1280","indutype":"레져용품 - 스포츠·레져용품","category":"other"}]},{"lat":"36.999264117","long":"126.81905659","imageIndex":17,"items":[{"name":"복지세탁소","tel":"031-681-4363","addr":"경기도 평택시 포승읍 원정리 1284","indutype":"수리서비스 - 세탁소","category":"other"}]},{"lat":"36.998097572","long":"126.84094329","imageIndex":17,"items":[{"name":"서평택공업사","tel":"031-681-8057","addr":"경기도 평택시 포승읍 원정리 291-2번지","indutype":"기타 - 기타 전문점","category":"other"}]},{"lat":"36.992852736","long":"126.84722257","imageIndex":17,"items":[{"name":"서평택다육","tel":"031-111-1111","addr":"경기도 평택시 포승읍 원정리 486번지","indutype":"문화.취미 - 화원","category":"other"}]},{"lat":"36.995543587","long":"126.84468951","imageIndex":17,"items":[{"name":"세븐일레븐평택포승원정점","tel":"031-1577-0711","addr":"경기도 평택시 포승읍 원정리 363-2번지 11동 102호","indutype":"유통업 영리 - 편 의 점","category":"other"}]},{"lat":"36.994791147","long":"126.84130977","imageIndex":17,"items":[{"name":"시립포승어린이집","tel":"031-686-5100","addr":"경기도 평택시 포승읍 원정리 391-2번지","indutype":"서비스업 - 교육","category":"other"}]},{"lat":"36.994294226","long":"126.84033351","imageIndex":17,"items":[{"name":"신한공인중개사사무소","tel":"031-683-4420","addr":"경기도 평택시 포승읍 원정리 272-5번지","indutype":"서비스업 - 부동산","category":"other"}]},{"lat":"36.99941","long":"126.84531062","imageIndex":17,"items":[{"name":"씨유포승원정베스트점","tel":"031-684-7392","addr":"경기도 평택시 포승읍 원정리 1164-38번지 1층","indutype":"유통업 영리 - 편 의 점","category":"other"}]},{"lat":"36.99554225","long":"126.84368972","imageIndex":17,"items":[{"name":"씨유포승원정원룸점","tel":"031-684-5935","addr":"경기도 평택시 포승읍 원정리 409","indutype":"유통업 영리 - 편 의 점","category":"other"}]},{"lat":"37.001630473","long":"126.83497025","imageIndex":17,"items":[{"name":"영성휀스","tel":"","addr":"경기도 평택시 포승읍 원정리 186-18번지","indutype":"건축자재 - 기타건축자재","category":"other"}]},{"lat":"36.993100252","long":"126.84361618","imageIndex":17,"items":[{"name":"우리유통","tel":"031-681-5250","addr":"경기도 평택시 포승읍 원정리 455","indutype":"서적문구 - 문구용품","category":"other"}]},{"lat":"37.000236004","long":"126.83652366","imageIndex":17,"items":[{"name":"이마트24 평택원정점","tel":"02-6916-1627","addr":"경기도 평택시 포승읍 원정리 221-5번지","indutype":"유통업 영리 - 편 의 점","category":"other"},{"name":"이마트24평택원정점","tel":"02-6916-1500","addr":"경기도 평택시 포승읍 원정리 221-5번지","indutype":"유통업 영리 - 편 의 점","category":"other"}]},{"lat":"36.996939029","long":"126.83719364","imageIndex":17,"items":[{"name":"클린원","tel":"031-684-1866","addr":"경기도 평택시 포승읍 원정리 279-58번지 해밀타운 B동 301호","indutype":"용역 서비스 - 종합용역","category":"other"}]},{"lat":"36.994103356","long":"126.84580461","imageIndex":17,"items":[{"name":"태일건철","tel":"031-683-0444","addr":"경기도 평택시 포승읍 원정리 469-11번지","indutype":"건축자재 - 기타건축자재","category":"other"}]},{"lat":"36.996764223","long":"126.84111463","imageIndex":17,"items":[{"name":"평택스틸하우스","tel":"031-682-8448","addr":"경기도 평택시 포승읍 원정리 290-12번지","indutype":"용역 서비스 - 기타용역서비스","category":"other"}]},{"lat":"36.994819003","long":"126.84191633","imageIndex":17,"items":[{"name":"포승멀티샵","tel":"031-684-6767","addr":"경기도 평택시 포승읍 원정리 392-14번지","indutype":"신변잡화 - 기타잡화","category":"other"}]},{"lat":"37.002822475","long":"126.82439575","imageIndex":17,"items":[{"name":"해군2함대사령부","tel":"031-685-5220","addr":"경기도 평택시 포승읍 원정리 산109-30","indutype":"유통업 비영리 - 구내매점(국가기관","category":"other"},{"name":"해군2함대사령부","tel":"031-685-5220","addr":"경기도 평택시 포승읍 원정리 산109-30","indutype":"유통업 비영리 - 구내매점(국가기관","category":"other"},{"name":"해군2함대사령부","tel":"031-685-5220","addr":"경기도 평택시 포승읍 원정리 산109-30","indutype":"유통업 비영리 - 구내매점(국가기관","category":"other"},{"name":"해군2함대사령부","tel":"031-685-5220","addr":"경기도 평택시 포승읍 원정리 산109-30","indutype":"유통업 비영리 - 구내매점(국가기관","category":"other"},{"name":"해군2함대사령부","tel":"031-685-5220","addr":"경기도 평택시 포승읍 원정리 산109-30","indutype":"유통업 비영리 - 구내매점(국가기관","category":"other"},{"name":"해군2함대사령부","tel":"031-685-4911","addr":"경기도 평택시 포승읍 원정리 산109-30번지","indutype":"유통업 비영리 - 구내매점(국가기관","category":"other"},{"name":"해군2함대사령부","tel":"031-685-5220","addr":"경기도 평택시 포승읍 원정리 산109-30","indutype":"유통업 비영리 - 구내매점(국가기관","category":"other"},{"name":"해군2함대사령부","tel":"031-685-5220","addr":"경기도 평택시 포승읍 원정리 산109-30","indutype":"유통업 비영리 - 구내매점(국가기관","category":"other"}]},{"lat":"36.998932319","long":"126.82009093","imageIndex":7,"items":[{"name":"(주)케이스타해군함대사령부지점","tel":"031-292-0011","addr":"경기도 평택시 포승읍 원정리 1283번지 제1복지관","indutype":"음료식품 - 기타음료식품","category":"food"}]},{"lat":"36.989516218","long":"126.8386363","imageIndex":7,"items":[{"name":"구내매점","tel":"031-111-1111","addr":"경기도 평택시 포승읍 원정리 1203-4번지","indutype":"음료식품 - 기타음료식품","category":"food"}]},{"lat":"36.987878855","long":"126.82783413","imageIndex":7,"items":[{"name":"동해유통","tel":"031-411-6371","addr":"경기도 평택시 포승읍 원정리 산 90-13","indutype":"음료식품 - 농·축·수산품","category":"food"}]},{"lat":"36.995241866","long":"126.8349506","imageIndex":7,"items":[{"name":"신라명과해군2함대점","tel":"031-683-0086","addr":"경기도 평택시 포승읍 원정리 1275번지","indutype":"음료식품 - 제과점","category":"food"}]},{"lat":"36.9900728","long":"126.83080581","imageIndex":7,"items":[{"name":"아이조아","tel":"000-1588-8464","addr":"경기도 평택시 포승읍 원정리 848-1번지","indutype":"음료식품 - 기타음료식품","category":"food"}]},{"lat":"36.995212987","long":"126.84680212","imageIndex":7,"items":[{"name":"우리마을수산","tel":"031-684-0592","addr":"경기도 평택시 포승읍 원정리 352-1번지","indutype":"음료식품 - 농·축·수산품","category":"food"}]},{"lat":"36.993513988","long":"126.84305365","imageIndex":7,"items":[{"name":"원정방앗간","tel":"031-682-7321","addr":"경기도 평택시 포승읍 원정리 437-5번지","indutype":"음료식품 - 제과점","category":"food"}]},{"lat":"37.003493346","long":"126.84644815","imageIndex":7,"items":[{"name":"주식회사 아인스","tel":"031-684-6987","addr":"경기도 평택시 포승읍 원정리 1155-14번지","indutype":"음료식품 - 기타음료식품","category":"food"}]},{"lat":"36.993798975","long":"126.84731051","imageIndex":7,"items":[{"name":"주식회사 제이에스청호","tel":"031-686-5708","addr":"경기도 평택시 포승읍 원정리 484-11","indutype":"음료식품 - 농·축·수산품","category":"food"},{"name":"청호식품","tel":"031-686-5708","addr":"경기도 평택시 포승읍 원정리 484-11번지 외1필지","indutype":"음료식품 - 농·축·수산품","category":"food"}]},{"lat":"37.00440397","long":"126.79409138","imageIndex":7,"items":[{"name":"카페드슈(cafedechou)","tel":"","addr":"경기도 평택시 포승읍 원정리 1-21번지 1층","indutype":"음료식품 - 기타음료식품","category":"food"}]},{"lat":"37.000821214","long":"126.790978","imageIndex":7,"items":[{"name":"코가스(Kogas)매점","tel":"031-681-0804","addr":"경기도 평택시 포승읍 원정리 1번지","indutype":"음료식품 - 기타음료식품","category":"food"}]},{"lat":"36.996019227","long":"126.84325061","imageIndex":7,"items":[{"name":"행복솔루션","tel":"031-681-8801","addr":"경기도 평택시 포승읍 원정리 379-4번지 102호","indutype":"건강식품 - 기타건강식품","category":"food"}]},{"lat":"36.995241866","long":"126.8349506","imageIndex":4,"items":[{"name":"59쌀피자(포승점)","tel":"031-684-5982","addr":"경기도 평택시 포승읍 원정리 1275","indutype":"일반휴게음식 - 서양음식","category":"restaurant"}]},{"lat":"37.005597332","long":"126.82410839","imageIndex":4,"items":[{"name":"광명식당","tel":"031-681-1433","addr":"경기도 평택시 포승읍 원정리 106-81번지","indutype":"일반휴게음식 - 일반한식","category":"restaurant"}]},{"lat":"36.994573377","long":"126.84691576","imageIndex":4,"items":[{"name":"김영희강남동태찜.탕.포승점","tel":"031-683-0887","addr":"경기도 평택시 포승읍 원정리 352-5 외2필지","indutype":"일반휴게음식 - 일반한식","category":"restaurant"},{"name":"예송","tel":"031-682-1632","addr":"경기도 평택시 포승읍 원정리 352-5 외 3필지 나동","indutype":"일반휴게음식 - 일반한식","category":"restaurant"}]},{"lat":"37.006297099","long":"126.8220844","imageIndex":4,"items":[{"name":"동네병천순대국","tel":"031-681-3002","addr":"경기도 평택시 포승읍 원정리 86-30번지","indutype":"일반휴게음식 - 일반한식","category":"restaurant"}]},{"lat":"36.99412676","long":"126.84308607","imageIndex":4,"items":[{"name":"동네순대국","tel":"031-681-7765","addr":"경기도 평택시 포승읍 원정리 427번지 102호","indutype":"일반휴게음식 - 일반한식","category":"restaurant"}]},{"lat":"36.997742354","long":"126.84480853","imageIndex":4,"items":[{"name":"동대문연탄생선구이","tel":"031-683-1628","addr":"경기도 평택시 포승읍 원정리 330-8번지","indutype":"일반휴게음식 - 일반한식","category":"restaurant"}]},{"lat":"36.994321078","long":"126.84691628","imageIndex":4,"items":[{"name":"동백정2호점","tel":"031-682-9592","addr":"경기도 평택시 포승읍 원정리 469-8번지 가동 1층","indutype":"일반휴게음식 - 일반한식","category":"restaurant"}]},{"lat":"36.999544817","long":"126.84505196","imageIndex":4,"items":[{"name":"또봉이통닭 원정점","tel":"031-684-7872","addr":"경기도 평택시 포승읍 원정리 1164-30번지 1층","indutype":"일반휴게음식 - 서양음식","category":"restaurant"}]},{"lat":"36.99449246","long":"126.84033309","imageIndex":4,"items":[{"name":"로뎀카페","tel":"","addr":"경기도 평택시 포승읍 원정리 275-21번지 1층","indutype":"일반휴게음식 - 서양음식","category":"restaurant"}]},{"lat":"36.992599834","long":"126.84005629","imageIndex":4,"items":[{"name":"마당골","tel":"031-681-1550","addr":"경기도 평택시 포승읍 원정리 443-14번지 가동 109호","indutype":"일반휴게음식 - 일반한식","category":"restaurant"},{"name":"석정","tel":"031-681-2824","addr":"경기도 평택시 포승읍 원정리 443-14번지","indutype":"일반휴게음식 - 일반한식","category":"restaurant"},{"name":"원정포차","tel":"031-652-7133","addr":"경기도 평택시 포승읍 원정리 443-14번지 가동 109호","indutype":"일반휴게음식 - 일반한식","category":"restaurant"},{"name":"종가집칼국수보쌈","tel":"031-684-3004","addr":"경기도 평택시 포승읍 원정리 443-14번지 나동 101호","indutype":"일반휴게음식 - 일반한식","category":"restaurant"},{"name":"참도토리묵밥집","tel":"031-616-2003","addr":"경기도 평택시 포승읍 원정리 443-14번지","indutype":"음식점 - 한식","category":"restaurant"},{"name":"피앤씨푸드","tel":"041-684-3789","addr":"경기도 평택시 포승읍 원정리 443-14번지 나동 102호","indutype":"일반휴게음식 - 스넥","category":"restaurant"}]},{"lat":"36.994656887","long":"126.84197284","imageIndex":4,"items":[{"name":"맛자랑토종순대국","tel":"031-684-4177","addr":"경기도 평택시 포승읍 원정리 392-16번지","indutype":"일반휴게음식 - 일반한식","category":"restaurant"}]},{"lat":"36.993798415","long":"126.84688364","imageIndex":4,"items":[{"name":"박가네","tel":"031-681-7394","addr":"경기도 평택시 포승읍 원정리 484-10번지 1층","indutype":"일반휴게음식 - 일반한식","category":"restaurant"}]},{"lat":"36.993985771","long":"126.84546785","imageIndex":4,"items":[{"name":"별미촌흑염소요리전문","tel":"031-683-6787","addr":"경기도 평택시 포승읍 원정리 469-12번지","indutype":"일반휴게음식 - 일반한식","category":"restaurant"},{"name":"별미촌흑염소요리점","tel":"031-682-1123","addr":"경기도 평택시 포승읍 원정리 469-12번지","indutype":"음식점 - 한식","category":"restaurant"}]},{"lat":"36.999603941","long":"126.84210846","imageIndex":4,"items":[{"name":"본가원터가든","tel":"031-683-3472","addr":"경기도 평택시 포승읍 원정리 301-2번지","indutype":"음식점 - 한식","category":"restaurant"},{"name":"원터가든","tel":"031-681-3456","addr":"경기도 평택시 포승읍 원정리 301-2","indutype":"일반휴게음식 - 일반한식","category":"restaurant"}]},{"lat":"37.005818266","long":"126.82125414","imageIndex":4,"items":[{"name":"성풍식당","tel":"070-2261-8346","addr":"경기도 평택시 포승읍 원정리 86-98번지 1층","indutype":"일반휴게음식 - 일반한식","category":"restaurant"},{"name":"성풍식당","tel":"070-2261-8346","addr":"경기도 평택시 포승읍 원정리 86-98번지 1층","indutype":"일반휴게음식 - 일반한식","category":"restaurant"},{"name":"참하고 맛있는집","tel":"031-683-3883","addr":"경기도 평택시 포승읍 원정리 86-98번지 1층","indutype":"일반휴게음식 - 일반한식","category":"restaurant"}]},{"lat":"37.000964218","long":"126.80063923","imageIndex":4,"items":[{"name":"소담밥집","tel":"031-682-1149","addr":"경기도 평택시 포승읍 원정리 1239 2층","indutype":"일반휴게음식 - 일반한식","category":"restaurant"},{"name":"해일가","tel":"031-681-1792","addr":"경기도 평택시 포승읍 원정리 1239번지 해군2함대사령부 제2복지관 1층","indutype":"일반휴게음식 - 중국식","category":"restaurant"}]},{"lat":"36.993182386","long":"126.84439111","imageIndex":4,"items":[{"name":"소동네돼지마을","tel":"031-682-1055","addr":"경기도 평택시 포승읍 원정리 461-6번지 1층","indutype":"일반휴게음식 - 일반한식","category":"restaurant"}]},{"lat":"36.993236959","long":"126.84477292","imageIndex":4,"items":[{"name":"수연분식","tel":"","addr":"경기도 평택시 포승읍 원정리 478-8번지 1층","indutype":"일반휴게음식 - 스넥","category":"restaurant"},{"name":"조선왕갈비탕","tel":"02-1234-1234","addr":"경기도 평택시 포승읍 원정리 478-8번지","indutype":"일반휴게음식 - 일반한식","category":"restaurant"}]},{"lat":"36.993486442","long":"126.84267177","imageIndex":4,"items":[{"name":"순창밥상","tel":"031-681-7992","addr":"경기도 평택시 포승읍 원정리 438번지","indutype":"일반휴게음식 - 일반한식","category":"restaurant"}]},{"lat":"36.993291397","long":"126.84505365","imageIndex":4,"items":[{"name":"쉼표","tel":"","addr":"경기도 평택시 포승읍 원정리 478-20번지 B동 101호","indutype":"일반휴게음식 - 서양음식","category":"restaurant"}]},{"lat":"37.006458777","long":"126.82174696","imageIndex":4,"items":[{"name":"약산정","tel":"031-682-5900","addr":"경기도 평택시 포승읍 원정리 81-29번지","indutype":"일반휴게음식 - 일반한식","category":"restaurant"}]},{"lat":"36.99371364","long":"126.84410917","imageIndex":4,"items":[{"name":"엄마네분식","tel":"031-682-8276","addr":"경기도 평택시 포승읍 원정리 458-2번지","indutype":"일반휴게음식 - 스넥","category":"restaurant"},{"name":"오대감진곰탕","tel":"031-683-9199","addr":"경기도 평택시 포승읍 원정리 458-2번지 103,104호(외1필지)","indutype":"일반휴게음식 - 일반한식","category":"restaurant"}]},{"lat":"36.993822623","long":"126.84474925","imageIndex":4,"items":[{"name":"옛날돼지찌개","tel":"031-681-7115","addr":"경기도 평택시 포승읍 원정리 358-3번지","indutype":"일반휴게음식 - 일반한식","category":"restaurant"}]},{"lat":"36.998324122","long":"126.84188647","imageIndex":4,"items":[{"name":"우메골","tel":"031-682-5142","addr":"경기도 평택시 포승읍 원정리 314번지 외1필지","indutype":"일반휴게음식 - 일반한식","category":"restaurant"}]},{"lat":"36.993513988","long":"126.84305365","imageIndex":4,"items":[{"name":"원정닭볶음탕","tel":"031-681-7615","addr":"경기도 평택시 포승읍 원정리 437-5번지","indutype":"일반휴게음식 - 일반한식","category":"restaurant"}]},{"lat":"36.995655865","long":"126.84108327","imageIndex":4,"items":[{"name":"원정호프","tel":"031-682-6898","addr":"경기도 평택시 포승읍 원정리 391-27번지 1층 106호","indutype":"일반휴게음식 - 일반한식","category":"restaurant"}]},{"lat":"36.99193251","long":"126.8463595","imageIndex":4,"items":[{"name":"유봉산영양탕","tel":"031-682-7771","addr":"경기도 평택시 포승읍 원정리 492-9번지 골드타운 1층 102호","indutype":"일반휴게음식 - 일반한식","category":"restaurant"}]},{"lat":"36.995741312","long":"126.84430716","imageIndex":4,"items":[{"name":"진해식당","tel":"031-681-3587","addr":"경기도 평택시 포승읍 원정리 367-3번지","indutype":"일반휴게음식 - 일반한식","category":"restaurant"}]},{"lat":"36.993659245","long":"126.84386215","imageIndex":4,"items":[{"name":"쪽가네","tel":"031-686-6693","addr":"경기도 평택시 포승읍 원정리 458-7번지 103호","indutype":"일반휴게음식 - 일반한식","category":"restaurant"},{"name":"푸드팩토리","tel":"031-684-3370","addr":"경기도 평택시 포승읍 원정리 458-7번지","indutype":"일반휴게음식 - 일반한식","category":"restaurant"},{"name":"호식이두마리치킨포승점","tel":"031-681-9297","addr":"경기도 평택시 포승읍 원정리 458-7번지 1층","indutype":"일반휴게음식 - 스넥","category":"restaurant"}]},{"lat":"36.992909485","long":"126.84247078","imageIndex":4,"items":[{"name":"청해루","tel":"031-681-6230","addr":"경기도 평택시 포승읍 원정리 448-2번지","indutype":"일반휴게음식 - 중국식","category":"restaurant"}]},{"lat":"36.993432635","long":"126.84286285","imageIndex":4,"items":[{"name":"커피보까","tel":"031-681-5077","addr":"경기도 평택시 포승읍 원정리 438-1번지","indutype":"일반휴게음식 - 서양음식","category":"restaurant"}]},{"lat":"36.995268666","long":"126.84127506","imageIndex":4,"items":[{"name":"포모나","tel":"053-000-0000","addr":"경기도 평택시 포승읍 원정리 391번지 102호","indutype":"일반휴게음식 - 서양음식","category":"restaurant"}]},{"lat":"36.998932319","long":"126.82009093","imageIndex":4,"items":[{"name":"푸드크루(해군2함대)","tel":"031-282-6650","addr":"경기도 평택시 포승읍 원정리 1283번지","indutype":"일반휴게음식 - 서양음식","category":"restaurant"}]},{"lat":"37.000821214","long":"126.790978","imageIndex":4,"items":[{"name":"한국가스공사평택생산기지구내식당","tel":"031-680-3162","addr":"경기도 평택시 포승읍 원정리 1번지 1층","indutype":"일반휴게음식 - 위탁급식업","category":"restaurant"}]},{"lat":"36.994819003","long":"126.84191633","imageIndex":4,"items":[{"name":"한끼라면","tel":"031-681-0017","addr":"경기도 평택시 포승읍 원정리 392-14번지 1층","indutype":"일반휴게음식 - 스넥","category":"restaurant"}]},{"lat":"37.002822475","long":"126.82439575","imageIndex":4,"items":[{"name":"해군2함대사령부","tel":"","addr":"경기도 평택시 포승읍 원정리 산109-30번지","indutype":"일반휴게음식 - 서양음식","category":"restaurant"},{"name":"해군2함대사령부/해군회관","tel":"031-683-4812","addr":"경기도 평택시 포승읍 원정리 산109-30번지","indutype":"일반휴게음식 - 일반한식","category":"restaurant"}]},{"lat":"37.005713555","long":"126.82350142","imageIndex":4,"items":[{"name":"호암숯불갈비","tel":"031-682-7455","addr":"경기도 평택시 포승읍 원정리 86-59번지","indutype":"일반휴게음식 - 갈비전문점","category":"restaurant"}]},{"lat":"37.006126529","long":"126.82250051","imageIndex":4,"items":[{"name":"황홀한막창&뒷고기","tel":"","addr":"경기도 평택시 포승읍 원정리 86-32번지","indutype":"일반휴게음식 - 일반한식","category":"restaurant"}]},{"lat":"36.993577848","long":"126.84363765","imageIndex":16,"items":[{"name":"그림마을미술,  보습학원","tel":"031-683-2425","addr":"경기도 평택시 포승읍 원정리 457번지","indutype":"학원 - 예·체능계학원","category":"study"}]},{"lat":"37.000964218","long":"126.80063923","imageIndex":16,"items":[{"name":"단국대태권도","tel":"031-681-1146","addr":"경기도 평택시 포승읍 원정리 1239 해군복지상가3층","indutype":"학원 - 예·체능계학원","category":"study"},{"name":"해군유치원[아이행복]","tel":"031-682-8737","addr":"경기도 평택시 포승읍 원정리 1239","indutype":"학원 - 유치원","category":"study"}]},{"lat":"36.994765167","long":"126.84208494","imageIndex":16,"items":[{"name":"사과나무어린이집[아이행복]","tel":"031-682-2926","addr":"경기도 평택시 포승읍 원정리 392-15번지","indutype":"학원 - 유아원","category":"study"}]},{"lat":"36.994791147","long":"126.84130977","imageIndex":16,"items":[{"name":"시립포승어린이집[아이행복]","tel":"031-681-3004","addr":"경기도 평택시 포승읍 원정리 391-2번지","indutype":"학원 - 유아원","category":"study"}]},{"lat":"36.993881847","long":"126.8418846","imageIndex":16,"items":[{"name":"원정초등학교","tel":"031-681-2845","addr":"경기도 평택시 포승읍 원정리 440번지 원정초등학교","indutype":"학원 - 초중고교육기관","category":"study"},{"name":"원정초등학교병설유치원[아이행복]","tel":"031-681-1856","addr":"경기도 평택시 포승읍 원정리 440번지","indutype":"학원 - 유치원","category":"study"}]},{"lat":"36.99371192","long":"126.84282857","imageIndex":16,"items":[{"name":"정석학원","tel":"031-681-7122","addr":"경기도 평택시 포승읍 원정리 435번지 1층","indutype":"학원 - 보습학원","category":"study"},{"name":"첼라음악학원","tel":"031-681-4226","addr":"경기도 평택시 포승읍 원정리 435번지 2층","indutype":"학원 - 예·체능계학원","category":"study"}]},{"lat":"36.995241866","long":"126.8349506","imageIndex":16,"items":[{"name":"해군어린이집[아이행복]","tel":"031-686-5105","addr":"경기도 평택시 포승읍 원정리 1275번지","indutype":"학원 - 유아원","category":"study"}]},{"lat":"36.994853732","long":"126.84095017","imageIndex":13,"items":[{"name":"김란희헤어스타일","tel":"031-681-7193","addr":"경기도 평택시 포승읍 원정리 391-9번지 화이트타운 101호","indutype":"보건위생 - 미용원","category":"beauty"}]},{"lat":"36.995655865","long":"126.84108327","imageIndex":13,"items":[{"name":"맨투맨","tel":"070-4322-0900","addr":"경기도 평택시 포승읍 원정리 391-27번지","indutype":"보건위생 - 미용원","category":"beauty"},{"name":"이삭렌트카(포승영업소)","tel":"031-683-0077","addr":"경기도 평택시 포승읍 원정리 391-27","indutype":"보건위생 - 기타대인서비스","category":"beauty"}]},{"lat":"36.993513988","long":"126.84305365","imageIndex":13,"items":[{"name":"명헤어샵","tel":"031-683-3510","addr":"경기도 평택시 포승읍 원정리 437-5번지","indutype":"보건위생 - 미용원","category":"beauty"},{"name":"명헤어샵","tel":"","addr":"경기도 평택시 포승읍 원정리 437-5번지 1층","indutype":"보건위생 - 미용원","category":"beauty"}]},{"lat":"36.995241866","long":"126.8349506","imageIndex":13,"items":[{"name":"민스네일 (Min's Nail)","tel":"","addr":"경기도 평택시 포승읍 원정리 1275번지","indutype":"보건위생 - 피부미용실","category":"beauty"},{"name":"블루가이컷트점","tel":"031-681-0151","addr":"경기도 평택시 포승읍 원정리 1275번지 G동 1층","indutype":"보건위생 - 미용원","category":"beauty"}]},{"lat":"36.995575808","long":"126.84184733","imageIndex":13,"items":[{"name":"베스트대리운전","tel":"031-684-1254","addr":"경기도 평택시 포승읍 원정리 392번지 원정빌라 A동 301호","indutype":"보건위생 - 기타대인서비스","category":"beauty"}]},{"lat":"36.997624387","long":"126.83758534","imageIndex":13,"items":[{"name":"함대 대리운전","tel":"031-000-0000","addr":"경기도 평택시 포승읍 원정리 279-7번지 승용빌 401호","indutype":"보건위생 - 기타대인서비스","category":"beauty"}]},{"lat":"36.998932319","long":"126.82009093","imageIndex":13,"items":[{"name":"해군2함대사령부 부대복지시설(이발소)","tel":"031-685-4830","addr":"경기도 평택시 포승읍 원정리 1283번지","indutype":"보건위생 - 이용원","category":"beauty"},{"name":"해군2함대사령부(목욕탕)","tel":"031-685-4830","addr":"경기도 평택시 포승읍 원정리 1283번지","indutype":"보건위생 - 사우나","category":"beauty"}]},{"lat":"37.004404011","long":"126.82752661","imageIndex":0,"items":[{"name":"남양카센타","tel":"031-682-8397","addr":"경기도 평택시 포승읍 원정리 105-8번지","indutype":"자동차정비 유지 - 자동차정비","category":"car"},{"name":"남양카센터","tel":"031-682-1715","addr":"경기도 평택시 포승읍 원정리 105-8번지","indutype":"서비스업 - 자동차정비","category":"car"}]},{"lat":"36.99821517","long":"126.84128006","imageIndex":0,"items":[{"name":"대정모터스","tel":"031-683-0121","addr":"경기도 평택시 포승읍 원정리 291-19번지","indutype":"자동차정비 유지 - 자동차정비","category":"car"}]},{"lat":"36.998541291","long":"126.84256006","imageIndex":0,"items":[{"name":"대호오토파츠","tel":"031-684-0963","addr":"경기도 평택시 포승읍 원정리 301-10번지 2동 1층","indutype":"자동차정비 유지 - 자동차부품","category":"car"}]},{"lat":"36.998097572","long":"126.84094329","imageIndex":0,"items":[{"name":"더블(W)카","tel":"031-684-6433","addr":"경기도 평택시 포승읍 원정리 291-2번지","indutype":"자동차정비 유지 - 자동차정비","category":"car"}]},{"lat":"36.992599834","long":"126.84005629","imageIndex":0,"items":[{"name":"떠블유커스텀","tel":"031-681-0189","addr":"경기도 평택시 포승읍 원정리 443-14번지 가동 106호","indutype":"자동차정비 유지 - 자동차부품","category":"car"},{"name":"원정카써비스","tel":"031-683-7255","addr":"경기도 평택시 포승읍 원정리 443-14번지 나동 108호","indutype":"자동차정비 유지 - 자동차정비","category":"car"}]},{"lat":"36.99412676","long":"126.84308607","imageIndex":0,"items":[{"name":"맥과이어디테일샵","tel":"031-681-9660","addr":"경기도 평택시 포승읍 원정리 427번지","indutype":"자동차정비 유지 - 세차장","category":"car"}]},{"lat":"36.993937687","long":"126.8431988","imageIndex":0,"items":[{"name":"맥과이어스디테일링샵","tel":"070-8886-0504","addr":"경기도 평택시 포승읍 원정리 437","indutype":"자동차정비 유지 - 자동차정비","category":"car"}]},{"lat":"36.993985771","long":"126.84546785","imageIndex":0,"items":[{"name":"믿음카센타","tel":"031-681-8217","addr":"경기도 평택시 포승읍 원정리 469-12번지","indutype":"자동차정비 유지 - 자동차정비","category":"car"},{"name":"믿음카센터","tel":"031-683-1992","addr":"경기도 평택시 포승읍 원정리 469-12번지","indutype":"서비스업 - 자동차정비","category":"car"}]},{"lat":"36.995878131","long":"126.84555382","imageIndex":0,"items":[{"name":"서평택모터스","tel":"031-683-7833","addr":"경기도 평택시 포승읍 원정리 348-12번지 1층","indutype":"자동차정비 유지 - 자동차정비","category":"car"}]},{"lat":"36.997543775","long":"126.84455056","imageIndex":0,"items":[{"name":"영광ENG","tel":"031-681-7740","addr":"경기도 평택시 포승읍 원정리 330-2","indutype":"자동차정비 유지 - 자동차정비","category":"car"}]},{"lat":"36.993798415","long":"126.84688364","imageIndex":0,"items":[{"name":"우리카센타","tel":"031-684-4005","addr":"경기도 평택시 포승읍 원정리 484-10번지","indutype":"자동차정비 유지 - 자동차부품","category":"car"}]},{"lat":"36.997902834","long":"126.84352752","imageIndex":0,"items":[{"name":"주식회사루카스오일코리아","tel":"031-684-5166","addr":"경기도 평택시 포승읍 원정리 325","indutype":"자동차정비 유지 - 자동차부품","category":"car"}]},{"lat":"36.993182386","long":"126.84439111","imageIndex":0,"items":[{"name":"카젠에스케이공업사","tel":"031-682-0910","addr":"경기도 평택시 포승읍 원정리 461-6번지","indutype":"자동차정비 유지 - 자동차정비","category":"car"}]},{"lat":"37.004404011","long":"126.82752661","imageIndex":9,"items":[{"name":"에이제이에너지㈜남양주유소","tel":"031-611-5252","addr":"경기도 평택시 포승읍 원정리 105-8번지","indutype":"도소매업 - 주유소","category":"oil"}]},{"lat":"37.000964218","long":"126.80063923","imageIndex":8,"items":[{"name":"충무약국","tel":"031-681-2133","addr":"경기도 평택시 포승읍 원정리 1239번지 해군복지상가 1층 3호","indutype":"약국 - 약국","category":"medical"}]},{"lat":"36.998932319","long":"126.82009093","imageIndex":5,"items":[{"name":"평택해군호텔/해군2함대사령부 부대복지시","tel":"031-683-4812","addr":"경기도 평택시 포승읍 원정리 1283번지","indutype":"숙박업 - 여관/기타숙박업","category":"hotel"}]},{"lat":"36.998932319","long":"126.82009093","imageIndex":13,"items":[{"name":"해군2함대사령부(당구장)","tel":"031-685-4830","addr":"경기도 평택시 포승읍 원정리 1283번지","indutype":"레저업소 - 당 구 장","category":"leisure"}]}]