[{"lat":"37.169662415","long":"126.68653859","imageIndex":17,"items":[{"name":"(주) 대광파워텍","tel":"031-366-7834","addr":"경기도 화성시 서신면 장외리 445-81번지","indutype":"건축자재 - 보일러·펌프·샷시","category":"other"}]},{"lat":"37.173941157","long":"126.6827374","imageIndex":17,"items":[{"name":"HS인테리어","tel":"031-356-0961","addr":"경기도 화성시 서신면 장외리 338-3번지","indutype":"건축자재 - 인테리어전문","category":"other"}]},{"lat":"37.172047043","long":"126.6853689","imageIndex":17,"items":[{"name":"동명중기계(주)","tel":"031-355-3554","addr":"경기도 화성시 서신면 장외리 385-14번지","indutype":"기타 - 기계공구","category":"other"}]},{"lat":"37.168351378","long":"126.67820103","imageIndex":17,"items":[{"name":"디자인봄","tel":"02-2268-9055","addr":"경기도 화성시 서신면 장외리 517-1","indutype":"용역 서비스 - 사무서비스","category":"other"}]},{"lat":"37.186460384","long":"126.66781895","imageIndex":17,"items":[{"name":"바바리알","tel":"070-7716-8992","addr":"경기도 화성시 서신면 장외리 652-9번지 2층","indutype":"용역 서비스 - 사무서비스","category":"other"}]},{"lat":"37.167248165","long":"126.6767646","imageIndex":17,"items":[{"name":"별빛가구","tel":"","addr":"경기도 화성시 서신면 장외리 549-9번지","indutype":"가구 - 일반가구","category":"other"}]},{"lat":"37.173997449","long":"126.68023745","imageIndex":17,"items":[{"name":"세븐일레븐화성장외점","tel":"","addr":"경기도 화성시 서신면 장외리 278-4번지","indutype":"유통업 영리 - 편 의 점","category":"other"},{"name":"편의점사랑 화성장외","tel":"031-355-8359","addr":"경기도 화성시 서신면 장외리 278-4번지","indutype":"유통업 영리 - 편 의 점","category":"other"}]},{"lat":"37.173302337","long":"126.67975623","imageIndex":17,"items":[{"name":"예쁜다육","tel":"","addr":"경기도 화성시 서신면 장외리 279-11","indutype":"문화.취미 - 화원","category":"other"}]},{"lat":"37.173853563","long":"126.6737861","imageIndex":17,"items":[{"name":"주식회사 쉐어에이(ShareA Co.Ltd.)","tel":"02-1111-1111","addr":"경기도 화성시 서신면 장외리 226-7번지 201호","indutype":"용역 서비스 - 사무서비스","category":"other"},{"name":"푸레도기연구소","tel":"031-366-9110","addr":"경기도 화성시 서신면 장외리 226-7번지 1층","indutype":"문화.취미 - 화랑","category":"other"},{"name":"한미요배씨토가","tel":"031-366-9110","addr":"경기도 화성시 서신면 장외리 226-7번지","indutype":"문화.취미 - 화랑","category":"other"}]},{"lat":"37.185182709","long":"126.66845524","imageIndex":17,"items":[{"name":"주식회사 에이치케이한국트레이드","tel":"031-413-0032","addr":"경기도 화성시 서신면 장외리 654-3번지","indutype":"신변잡화 - 기타잡화","category":"other"}]},{"lat":"37.16918547","long":"126.68676576","imageIndex":17,"items":[{"name":"주식회사 코스텍에코수","tel":"031-831-5763","addr":"경기도 화성시 서신면 장외리 445-94번지","indutype":"신변잡화 - 기타잡화","category":"other"}]},{"lat":"37.171719066","long":"126.67739844","imageIndex":17,"items":[{"name":"주식회사동광케어","tel":"031-438-8400","addr":"경기도 화성시 서신면 장외리 298-1","indutype":"용역 서비스 - 기타용역서비스","category":"other"}]},{"lat":"37.168355685","long":"126.68309874","imageIndex":17,"items":[{"name":"주식회사에코스틸","tel":"070-4115-7693","addr":"경기도 화성시 서신면 장외리 445-110","indutype":"기타 - 기계공구","category":"other"}]},{"lat":"37.163768772","long":"126.68287038","imageIndex":17,"items":[{"name":"주식회사카라반캐슬","tel":"031-355-6510","addr":"경기도 화성시 서신면 장외리 530-170번지","indutype":"레져용품 - 스포츠·레져용품","category":"other"}]},{"lat":"37.17035741","long":"126.68698607","imageIndex":17,"items":[{"name":"천하산기","tel":"031-366-8205","addr":"경기도 화성시 서신면 장외리 445-45","indutype":"건축자재 - 기타건축자재","category":"other"}]},{"lat":"37.166353787","long":"126.68251045","imageIndex":17,"items":[{"name":"카이닉스","tel":"","addr":"경기도 화성시 서신면 장외리 530-68번지","indutype":"레져용품 - 스포츠·레져용품","category":"other"}]},{"lat":"37.174268746","long":"126.68392958","imageIndex":4,"items":[{"name":"가마솥영양탕","tel":"031-356-8851","addr":"경기도 화성시 서신면 장외리 341-11번지","indutype":"일반휴게음식 - 일반한식","category":"restaurant"}]},{"lat":"37.182515355","long":"126.66517872","imageIndex":4,"items":[{"name":"광일호","tel":"031-355-6431","addr":"경기도 화성시 서신면 장외리 96-2번지","indutype":"일반휴게음식 - 일식·회집","category":"restaurant"},{"name":"블략콩전곡항점","tel":"070-4673-1519","addr":"경기도 화성시 서신면 장외리 96-2번지 2층","indutype":"일반휴게음식 - 서양음식","category":"restaurant"}]},{"lat":"37.174380102","long":"126.68178971","imageIndex":4,"items":[{"name":"논두렁밭두렁","tel":"031-356-0961","addr":"경기도 화성시 서신면 장외리 334번지","indutype":"일반휴게음식 - 일반한식","category":"restaurant"}]},{"lat":"37.182987947","long":"126.67301449","imageIndex":4,"items":[{"name":"대진식당","tel":"031-357-8560","addr":"경기도 화성시 서신면 장외리 621-4번지","indutype":"일반휴게음식 - 위탁급식업","category":"restaurant"}]},{"lat":"37.167162736","long":"126.68511912","imageIndex":4,"items":[{"name":"동아식당","tel":"031-355-6012","addr":"경기도 화성시 서신면 장외리 445-65번지","indutype":"일반휴게음식 - 일반한식","category":"restaurant"}]},{"lat":"37.170021116","long":"126.67922975","imageIndex":4,"items":[{"name":"바다양푼이동태탕 (서신점)","tel":"031-356-5125","addr":"경기도 화성시 서신면 장외리 468-1번지","indutype":"일반휴게음식 - 일반한식","category":"restaurant"}]},{"lat":"37.182912186","long":"126.66848778","imageIndex":4,"items":[{"name":"밥한끼차한잔","tel":"070-4763-5091","addr":"경기도 화성시 서신면 장외리 654-11번지","indutype":"일반휴게음식 - 위탁급식업","category":"restaurant"}]},{"lat":"37.17760272","long":"126.66765538","imageIndex":4,"items":[{"name":"선비고을","tel":"031-357-6630","addr":"경기도 화성시 서신면 장외리 117번지","indutype":"일반휴게음식 - 일반한식","category":"restaurant"}]},{"lat":"37.174326165","long":"126.6851792","imageIndex":4,"items":[{"name":"솔밭가든","tel":"031-357-3439","addr":"경기도 화성시 서신면 장외리 361-4번지","indutype":"일반휴게음식 - 일반한식","category":"restaurant"}]},{"lat":"37.168658499","long":"126.67848119","imageIndex":4,"items":[{"name":"수성","tel":"031-000-0000","addr":"경기도 화성시 서신면 장외리 518-1번지 1층","indutype":"일반휴게음식 - 일반한식","category":"restaurant"}]},{"lat":"37.172941496","long":"126.67960013","imageIndex":4,"items":[{"name":"시골마당","tel":"031-357-5436","addr":"경기도 화성시 서신면 장외리 282번지","indutype":"일반휴게음식 - 일반한식","category":"restaurant"}]},{"lat":"37.169601924","long":"126.68750715","imageIndex":4,"items":[{"name":"전주한식뷔페","tel":"031-355-6225","addr":"경기도 화성시 서신면 장외리 445-102번지","indutype":"일반휴게음식 - 일반한식","category":"restaurant"}]},{"lat":"37.170384951","long":"126.68717737","imageIndex":4,"items":[{"name":"천하식당","tel":"031-355-8055","addr":"경기도 화성시 서신면 장외리 445-79번지","indutype":"일반휴게음식 - 위탁급식업","category":"restaurant"}]},{"lat":"37.176024856","long":"126.68695122","imageIndex":7,"items":[{"name":"보라색꿈농원","tel":"031-357-3328","addr":"경기도 화성시 서신면 장외리 371-1","indutype":"음료식품 - 농·축·수산품","category":"food"}]},{"lat":"37.178856738","long":"126.66503735","imageIndex":7,"items":[{"name":"오리골식품","tel":"031-355-3472","addr":"경기도 화성시 서신면 장외리 98번지","indutype":"음료식품 - 기타음료식품","category":"food"},{"name":"제부농산","tel":"031-356-2982","addr":"경기도 화성시 서신면 장외리 98번지","indutype":"음료식품 - 농·축·수산품","category":"food"}]},{"lat":"37.178493405","long":"126.67037652","imageIndex":7,"items":[{"name":"제부도오리골협동조합","tel":"031-355-5756","addr":"경기도 화성시 서신면 장외리 138-3번지","indutype":"음료식품 - 기타음료식품","category":"food"}]},{"lat":"37.173302337","long":"126.67975623","imageIndex":7,"items":[{"name":"털보포차수산","tel":"070-8917-0644","addr":"경기도 화성시 서신면 장외리 279-11","indutype":"음료식품 - 농·축·수산품","category":"food"}]},{"lat":"37.178627147","long":"126.66668243","imageIndex":16,"items":[{"name":"우리들테마월드","tel":"070-8713-8740","addr":"경기도 화성시 서신면 장외리 102번지","indutype":"학원 - 기타 교육기관","category":"study"}]},{"lat":"37.178159708","long":"126.67026538","imageIndex":5,"items":[{"name":"제부 늘단비","tel":"","addr":"경기도 화성시 서신면 장외리 130번지","indutype":"숙박업 - 여관/기타숙박업","category":"hotel"}]},{"lat":"37.163768772","long":"126.68287038","imageIndex":0,"items":[{"name":"카라반 캐슬 샵","tel":"031-111-1111","addr":"경기도 화성시 서신면 장외리 530-170번지 2동","indutype":"자동차정비 유지 - 자동차부품","category":"car"}]}]