[{"lat":"37.559092413","long":"127.19058632","imageIndex":7,"items":[{"name":"(주)모닝썬푸드","tel":"031-793-5966","addr":"경기도 하남시 풍산동 543-1번지 1층 101호","indutype":"음료식품 - 정육점","category":"food"}]},{"lat":"37.548460747","long":"127.18486766","imageIndex":7,"items":[{"name":"(주)세정수산","tel":"031-796-6208","addr":"경기도 하남시 풍산동 218-95번지 E2동 101호","indutype":"음료식품 - 농·축·수산품","category":"food"}]},{"lat":"37.557262253","long":"127.19131736","imageIndex":7,"items":[{"name":"가람떡방","tel":"031-791-3375","addr":"경기도 하남시 풍산동 550-1번지 1층","indutype":"음료식품 - 제과점","category":"food"}]},{"lat":"37.556563357","long":"127.18306527","imageIndex":7,"items":[{"name":"감성부엌(반찬가게)","tel":"031-794-9927","addr":"경기도 하남시 풍산동 471번지 미사강변제일풍경채 1동 109호","indutype":"음료식품 - 기타음료식품","category":"food"},{"name":"소담히","tel":"","addr":"경기도 하남시 풍산동 471번지 미사강변제일풍경채 1동 106호","indutype":"음료식품 - 농·축·수산품","category":"food"}]},{"lat":"37.555313876","long":"127.18703458","imageIndex":7,"items":[{"name":"강일미사점핑다이어트","tel":"","addr":"경기도 하남시 풍산동 514-1번지 바토프라자 3층 301호","indutype":"건강식품 - 기타건강식품","category":"food"},{"name":"풍산정육점","tel":"031-791-9193","addr":"경기도 하남시 풍산동 514-1번지 바토프라자 202호","indutype":"음료식품 - 정육점","category":"food"}]},{"lat":"37.548037965","long":"127.18442531","imageIndex":7,"items":[{"name":"건양회뜨는집","tel":"","addr":"경기도 하남시 풍산동 248-1번지 C-1동 103호","indutype":"음료식품 - 농·축·수산품","category":"food"},{"name":"낙현수산","tel":"031-795-5024","addr":"경기도 하남시 풍산동 248-1번지 104호","indutype":"음료식품 - 농·축·수산품","category":"food"},{"name":"낙현수산/(주)낙현","tel":"031-795-5024","addr":"경기도 하남시 풍산동 248-1번지 105호","indutype":"음료식품 - 농·축·수산품","category":"food"},{"name":"와글와글","tel":"031-791-7724","addr":"경기도 하남시 풍산동 248-1번지 C동 1층 101호","indutype":"음료식품 - 농·축·수산품","category":"food"}]},{"lat":"37.548928489","long":"127.18536671","imageIndex":7,"items":[{"name":"남대감댁수산","tel":"031-793-4322","addr":"경기도 하남시 풍산동 223-12번지 1번 A호","indutype":"음료식품 - 농·축·수산품","category":"food"}]},{"lat":"37.557456704","long":"127.18800184","imageIndex":7,"items":[{"name":"노마진상회","tel":"070-4763-5091","addr":"경기도 하남시 풍산동 504번지 미사탑프라자 1층 105호","indutype":"음료식품 - 농·축·수산품","category":"food"},{"name":"롤링핀미사점","tel":"031-1688-0605","addr":"경기도 하남시 풍산동 504번지 미사탑프라자 1층","indutype":"음료식품 - 제과점","category":"food"},{"name":"반찬 부부이야기","tel":"031-792-3389","addr":"경기도 하남시 풍산동 504번지 미사탑프라자 1층 113호","indutype":"음료식품 - 기타음료식품","category":"food"}]},{"lat":"37.556982697","long":"127.1914751","imageIndex":7,"items":[{"name":"달달카롱","tel":"031-1111-1111","addr":"경기도 하남시 풍산동 550-3번지 1층 101호","indutype":"음료식품 - 제과점","category":"food"},{"name":"이끌림 미사 1호점","tel":"031-000-0000","addr":"경기도 하남시 풍산동 550-3번지 1층 102호","indutype":"음료식품 - 기타음료식품","category":"food"}]},{"lat":"37.548425526","long":"127.18433572","imageIndex":7,"items":[{"name":"대박소망수산","tel":"031-791-5446","addr":"경기도 하남시 풍산동 250-5번지 수산물복합단지 E1동 102호","indutype":"음료식품 - 농·축·수산품","category":"food"},{"name":"무진수산","tel":"031-792-7747","addr":"경기도 하남시 풍산동 250-5번지 1층","indutype":"음료식품 - 농·축·수산품","category":"food"},{"name":"미사리유통","tel":"031-846-5206","addr":"경기도 하남시 풍산동 250-5번지 E 1동 101호 근린생활시설","indutype":"음료식품 - 기타음료식품","category":"food"},{"name":"우현세민수산","tel":"031-000-0000","addr":"경기도 하남시 풍산동 250-5번지 E1동 104호","indutype":"음료식품 - 농·축·수산품","category":"food"},{"name":"해랑수산","tel":"031-792-2024","addr":"경기도 하남시 풍산동 250-5번지 1층 102호","indutype":"음료식품 - 농·축·수산품","category":"food"}]},{"lat":"37.547316623","long":"127.18478567","imageIndex":7,"items":[{"name":"대호농산유통","tel":"031-796-6235","addr":"경기도 하남시 풍산동 246-11번지 102호","indutype":"음료식품 - 농·축·수산품","category":"food"}]},{"lat":"37.548127471","long":"127.18481027","imageIndex":7,"items":[{"name":"대흥수산","tel":"031-792-5653","addr":"경기도 하남시 풍산동 245-10번지 하남수산물복합단지 B1-102","indutype":"음료식품 - 농·축·수산품","category":"food"},{"name":"돌산수산","tel":"031-792-2768","addr":"경기도 하남시 풍산동 245-10번지 B1동 106호","indutype":"음료식품 - 농·축·수산품","category":"food"},{"name":"인터프라임트레이딩(주)","tel":"031-111-1111","addr":"경기도 하남시 풍산동 245-10번지 B동 109호","indutype":"음료식품 - 농·축·수산품","category":"food"},{"name":"천지수산","tel":"031-796-7885","addr":"경기도 하남시 풍산동 245-10번지 B1동 110호","indutype":"음료식품 - 농·축·수산품","category":"food"}]},{"lat":"37.557593713","long":"127.19250653","imageIndex":7,"items":[{"name":"동글이 마차 과일","tel":"031-795-6334","addr":"경기도 하남시 풍산동 565번지 미사강변아란티움 상가동 106호","indutype":"음료식품 - 농·축·수산품","category":"food"},{"name":"동글이마차","tel":"031-795-6333","addr":"경기도 하남시 풍산동 565번지 상가동 1층 104호","indutype":"음료식품 - 기타음료식품","category":"food"},{"name":"떴다아이스크림할인점","tel":"031-000-0000","addr":"경기도 하남시 풍산동 565번지 상가동 105호","indutype":"음료식품 - 기타음료식품","category":"food"}]},{"lat":"37.540762236","long":"127.18750796","imageIndex":7,"items":[{"name":"동일축산유통","tel":"031-794-5203","addr":"경기도 하남시 풍산동 427-5 외1필지","indutype":"음료식품 - 정육점","category":"food"}]},{"lat":"37.543348973","long":"127.18692594","imageIndex":7,"items":[{"name":"디에스영농조합법인","tel":"031-795-5563","addr":"경기도 하남시 풍산동 산30-3번지","indutype":"음료식품 - 농·축·수산품","category":"food"}]},{"lat":"37.545710545","long":"127.19200117","imageIndex":7,"items":[{"name":"마루유통","tel":"","addr":"경기도 하남시 풍산동 393-62번지","indutype":"음료식품 - 기타음료식품","category":"food"}]},{"lat":"37.558007559","long":"127.18719965","imageIndex":7,"items":[{"name":"미사강변센트럴자이 입주자대표회의","tel":"031-796-7845","addr":"경기도 하남시 풍산동 480번지 미사강변센트럴자이 1층","indutype":"음료식품 - 기타음료식품","category":"food"},{"name":"민속반찬","tel":"","addr":"경기도 하남시 풍산동 480번지 미사강변센트럴자이 상가동 107호","indutype":"음료식품 - 기타음료식품","category":"food"}]},{"lat":"37.547541607","long":"127.18495595","imageIndex":7,"items":[{"name":"범선유통","tel":"031-792-3585","addr":"경기도 하남시 풍산동 243-32번지","indutype":"음료식품 - 농·축·수산품","category":"food"}]},{"lat":"37.547624573","long":"127.18373403","imageIndex":7,"items":[{"name":"서경희 참치유통","tel":"031-793-6627","addr":"경기도 하남시 풍산동 252-2번지 1층","indutype":"음료식품 - 농·축·수산품","category":"food"}]},{"lat":"37.548821732","long":"127.18448379","imageIndex":7,"items":[{"name":"서희수산","tel":"031-792-1608","addr":"경기도 하남시 풍산동 218-66 E4동 102호","indutype":"음료식품 - 농·축·수산품","category":"food"}]},{"lat":"37.554427134","long":"127.18364861","imageIndex":7,"items":[{"name":"송가네푸줏간","tel":"031-793-7936","addr":"경기도 하남시 풍산동 477번지 미사강변동원로얄듀크 상가 308동 111호","indutype":"음료식품 - 정육점","category":"food"},{"name":"아이스크림살래","tel":"","addr":"경기도 하남시 풍산동 477번지 미사강변동원로얄듀크 상가동 307동 105호","indutype":"음료식품 - 기타음료식품","category":"food"},{"name":"초원반찬","tel":"031-795-4956","addr":"경기도 하남시 풍산동 477번지 미사강변동원로얄듀크 307동 109호","indutype":"음료식품 - 기타음료식품","category":"food"}]},{"lat":"37.557758153","long":"127.19109226","imageIndex":7,"items":[{"name":"아미띠에 케이크","tel":"","addr":"경기도 하남시 풍산동 549-3번지 103호","indutype":"음료식품 - 제과점","category":"food"}]},{"lat":"37.558929841","long":"127.1908349","imageIndex":7,"items":[{"name":"아이스크림 살래","tel":"","addr":"경기도 하남시 풍산동 544-1번지 102호","indutype":"음료식품 - 기타음료식품","category":"food"}]},{"lat":"37.547372679","long":"127.18348447","imageIndex":7,"items":[{"name":"어업회사법인유림수산주식회사","tel":"031-793-0214","addr":"경기도 하남시 풍산동 256-2번지 가동","indutype":"음료식품 - 농·축·수산품","category":"food"}]},{"lat":"37.549289004","long":"127.18528838","imageIndex":7,"items":[{"name":"에스크랩유통","tel":"031-1577-6331","addr":"경기도 하남시 풍산동 244-13번지 1층","indutype":"음료식품 - 농·축·수산품","category":"food"}]},{"lat":"37.552426365","long":"127.18981138","imageIndex":7,"items":[{"name":"엔학고레","tel":"032-794-6870","addr":"경기도 하남시 풍산동 533번지","indutype":"음료식품 - 기타음료식품","category":"food"}]},{"lat":"37.547731597","long":"127.1844472","imageIndex":7,"items":[{"name":"오양수산","tel":"031-792-3758","addr":"경기도 하남시 풍산동 247-1번지 씨2-103","indutype":"음료식품 - 농·축·수산품","category":"food"}]},{"lat":"37.556847459","long":"127.19153135","imageIndex":7,"items":[{"name":"올댓브래드","tel":"032-999-9999","addr":"경기도 하남시 풍산동 550-4번지 101호","indutype":"음료식품 - 제과점","category":"food"}]},{"lat":"37.557622916","long":"127.19114851","imageIndex":7,"items":[{"name":"요리와찬","tel":"031-794-1150","addr":"경기도 하남시 풍산동 549-4번지 1층","indutype":"음료식품 - 기타음료식품","category":"food"}]},{"lat":"37.548955621","long":"127.19661506","imageIndex":7,"items":[{"name":"일양헬스","tel":"02-1577-9798","addr":"경기도 하남시 풍산동 376-32번지 지하1층","indutype":"건강식품 - 기타건강식품","category":"food"}]},{"lat":"37.555646974","long":"127.18720516","imageIndex":7,"items":[{"name":"정직한 야채총각","tel":"","addr":"경기도 하남시 풍산동 514번지 1층 107호 제일아이조웅","indutype":"음료식품 - 농·축·수산품","category":"food"}]},{"lat":"37.53951691","long":"127.18876083","imageIndex":7,"items":[{"name":"조은음료","tel":"02-483-7796","addr":"경기도 하남시 풍산동 429-8번지","indutype":"음료식품 - 기타음료식품","category":"food"}]},{"lat":"37.550265054","long":"127.18334434","imageIndex":7,"items":[{"name":"주식회사 21세기상인","tel":"070-7836-2100","addr":"경기도 하남시 풍산동 492번지 미사하우스디엘타워 지하3층 에프비 304호","indutype":"음료식품 - 농·축·수산품","category":"food"}]},{"lat":"37.54767581","long":"127.18556734","imageIndex":7,"items":[{"name":"주식회사 항도수산","tel":"070-7782-6264","addr":"경기도 하남시 풍산동 243-29번지","indutype":"음료식품 - 농·축·수산품","category":"food"}]},{"lat":"37.547282529","long":"127.1835182","imageIndex":7,"items":[{"name":"천연축산","tel":"031-793-2264","addr":"경기도 하남시 풍산동 256-2번지 나동 2층","indutype":"음료식품 - 정육점","category":"food"}]},{"lat":"37.547848167","long":"127.18480959","imageIndex":7,"items":[{"name":"천지수산","tel":"","addr":"경기도 하남시 풍산동 245-2번지 근린생활시설 2동 104호","indutype":"음료식품 - 농·축·수산품","category":"food"}]},{"lat":"37.556952492","long":"127.18778556","imageIndex":7,"items":[{"name":"친환경상점 나무숲","tel":"","addr":"경기도 하남시 풍산동 504-2번지 그린프라자 1동 1층 107호","indutype":"음료식품 - 기타음료식품","category":"food"}]},{"lat":"37.542155968","long":"127.18928788","imageIndex":7,"items":[{"name":"태양&자연그대로","tel":"031-111-1111","addr":"경기도 하남시 풍산동 424-4번지","indutype":"음료식품 - 농·축·수산품","category":"food"}]},{"lat":"37.548180377","long":"127.18555726","imageIndex":7,"items":[{"name":"털보유통 유한회사","tel":"031-000-0000","addr":"경기도 하남시 풍산동 244-49번지 B동 105호","indutype":"음료식품 - 농·축·수산품","category":"food"}]},{"lat":"37.558208877","long":"127.19094627","imageIndex":7,"items":[{"name":"파리바게뜨 미사청아초교점","tel":"","addr":"경기도 하남시 풍산동 549번지","indutype":"음료식품 - 제과점","category":"food"}]},{"lat":"37.552903453","long":"127.18431262","imageIndex":7,"items":[{"name":"파리바게트미사센트럴포레점","tel":"031-794-0482","addr":"경기도 하남시 풍산동 490번지 101호,102호","indutype":"음료식품 - 제과점","category":"food"}]},{"lat":"37.549099313","long":"127.19689833","imageIndex":7,"items":[{"name":"풍산교회","tel":"","addr":"경기도 하남시 풍산동 373번지","indutype":"음료식품 - 기타음료식품","category":"food"}]},{"lat":"37.550516271","long":"127.18403524","imageIndex":7,"items":[{"name":"한국자연건강","tel":"02-409-6511","addr":"경기도 하남시 풍산동 493번지 10층 에프1023호 미사센텀비즈","indutype":"건강식품 - 기타건강식품","category":"food"}]},{"lat":"37.546291884","long":"127.18903791","imageIndex":7,"items":[{"name":"한사랑","tel":"","addr":"경기도 하남시 풍산동 280번지 1층","indutype":"음료식품 - 농·축·수산품","category":"food"}]},{"lat":"37.557704491","long":"127.19084314","imageIndex":7,"items":[{"name":"회먹고싶은날","tel":"","addr":"경기도 하남시 풍산동 548-2번지 1층","indutype":"음료식품 - 농·축·수산품","category":"food"}]}]