[{"lat":"37.424951903","long":"127.53839289","imageIndex":17,"items":[{"name":"개군 세탁소","tel":"031-881-3372","addr":"경기도 양평군 개군면 하자포리 224-16번지 영재빌딩 1층","indutype":"수리서비스 - 세탁소","category":"other"}]},{"lat":"37.427146615","long":"127.53722226","imageIndex":17,"items":[{"name":"개군농업협동조합","tel":"031-772-0331","addr":"경기도 양평군 개군면 하자포리 215-11번지","indutype":"유통업 비영리 - 농,축협 직영매장","category":"other"},{"name":"개군농업협동조합","tel":"031-772-0334","addr":"경기도 양평군 개군면 하자포리 215-11번지","indutype":"유통업 비영리 - 농,축협 직영매장","category":"other"},{"name":"개군농협","tel":"031-772-0331","addr":"경기도 양평군 개군면 하자포리 215-11번지","indutype":"유통업 비영리 - 농,축협 직영매장","category":"other"}]},{"lat":"37.426564458","long":"127.53644988","imageIndex":17,"items":[{"name":"개군농협경제사업부","tel":"031-772-0332","addr":"경기도 양평군 개군면 하자포리 262-1","indutype":"농업 - 기타농업관련","category":"other"},{"name":"개군농협하나로마트","tel":"031-772-0333","addr":"경기도 양평군 개군면 하자포리 262-1","indutype":"유통업 비영리 - 농,축협 직영매장","category":"other"}]},{"lat":"37.427946329","long":"127.53770245","imageIndex":17,"items":[{"name":"경기상사","tel":"031-774-8678","addr":"경기도 양평군 개군면 하자포리 213-12번지","indutype":"농업 - 기타농업관련","category":"other"}]},{"lat":"37.424755072","long":"127.53808646","imageIndex":17,"items":[{"name":"고려전파사","tel":"031-772-8267","addr":"경기도 양평군 개군면 하자포리 224-7","indutype":"회원제형태 - 기타4","category":"other"}]},{"lat":"37.428144439","long":"127.53772646","imageIndex":17,"items":[{"name":"대명타일공사","tel":"031-774-0364","addr":"경기도 양평군 개군면 하자포리 213-9번지","indutype":"건축자재 - 건축용 요업제품","category":"other"}]},{"lat":"37.446281063","long":"127.53581013","imageIndex":17,"items":[{"name":"도담","tel":"","addr":"경기도 양평군 개군면 하자포리 38번지","indutype":"직물 - 침구·수예점","category":"other"}]},{"lat":"37.426311029","long":"127.5386963","imageIndex":17,"items":[{"name":"씨유양평개군점","tel":"031-775-4681","addr":"경기도 양평군 개군면 하자포리 220-1번지","indutype":"유통업 영리 - 편 의 점","category":"other"}]},{"lat":"37.42697931","long":"127.53636245","imageIndex":17,"items":[{"name":"웅기건재사","tel":"031-772-8079","addr":"경기도 양평군 개군면 하자포리 267-1번지","indutype":"건축자재 - 기타건축자재","category":"other"}]},{"lat":"37.434395625","long":"127.53611001","imageIndex":17,"items":[{"name":"케이씨씨 양평건재","tel":"031-771-7554","addr":"경기도 양평군 개군면 하자포리 188-1번지","indutype":"건축자재 - 기타건축자재","category":"other"}]},{"lat":"37.428168835","long":"127.53431468","imageIndex":17,"items":[{"name":"쿨공조시스템","tel":"","addr":"경기도 양평군 개군면 하자포리 285-1번지 중앙빌라 가동 401호","indutype":"용역 서비스 - 기타용역서비스","category":"other"}]},{"lat":"37.428394561","long":"127.53820275","imageIndex":17,"items":[{"name":"한국상사","tel":"031-773-0304","addr":"경기도 양평군 개군면 하자포리 211-6번지","indutype":"건축자재 - 기타건축자재","category":"other"}]}]