[{"lat":"37.807627728","long":"127.52436091","imageIndex":4,"items":[{"name":"(주)잠잠 지점(봄베그릴)","tel":"","addr":"경기도 가평군 가평읍 달전리 85-6번지 1층","indutype":"일반휴게음식 - 서양음식","category":"restaurant"}]},{"lat":"37.810597788","long":"127.52096367","imageIndex":4,"items":[{"name":"가시머리민물매운탕","tel":"031-582-1930","addr":"경기도 가평군 가평읍 달전리 245번지","indutype":"일반휴게음식 - 일반한식","category":"restaurant"},{"name":"가시머리민물매운탕","tel":"031-582-1930","addr":"경기도 가평군 가평읍 달전리 245번지","indutype":"일반휴게음식 - 일반한식","category":"restaurant"}]},{"lat":"37.816509898","long":"127.51432719","imageIndex":4,"items":[{"name":"가평메밀촌","tel":"031-582-8747","addr":"경기도 가평군 가평읍 달전리 405-15번지 1층","indutype":"일반휴게음식 - 일반한식","category":"restaurant"}]},{"lat":"37.815844381","long":"127.51612831","imageIndex":4,"items":[{"name":"가평축협한우명가","tel":"031-581-1592","addr":"경기도 가평군 가평읍 달전리 382-1번지","indutype":"일반휴게음식 - 일반한식","category":"restaurant"}]},{"lat":"37.807541514","long":"127.52551855","imageIndex":4,"items":[{"name":"강변식당","tel":"031-582-3408","addr":"경기도 가평군 가평읍 달전리 90-2번지 강변식당","indutype":"일반휴게음식 - 일반한식","category":"restaurant"}]},{"lat":"37.806788274","long":"127.52471837","imageIndex":4,"items":[{"name":"강산골","tel":"031-582-5664","addr":"경기도 가평군 가평읍 달전리 116번지","indutype":"일반휴게음식 - 일반한식","category":"restaurant"},{"name":"강산골","tel":"031-582-5664","addr":"경기도 가평군 가평읍 달전리 115-1번지 ***연번지,2","indutype":"일반휴게음식 - 일반한식","category":"restaurant"}]},{"lat":"37.812845832","long":"127.5178337","imageIndex":4,"items":[{"name":"금문","tel":"031-581-9282","addr":"경기도 가평군 가평읍 달전리 323","indutype":"일반휴게음식 - 일반한식","category":"restaurant"},{"name":"남이","tel":"031-000-0000","addr":"경기도 가평군 가평읍 달전리 323번지 1층, 2층","indutype":"일반휴게음식 - 일반한식","category":"restaurant"}]},{"lat":"37.803436189","long":"127.52485375","imageIndex":4,"items":[{"name":"나루터","tel":"031-582-2373","addr":"경기도 가평군 가평읍 달전리 140-5번지","indutype":"일반휴게음식 - 일반한식","category":"restaurant"},{"name":"나루터","tel":"031-582-2373","addr":"경기도 가평군 가평읍 달전리 140-5","indutype":"일반휴게음식 - 일반한식","category":"restaurant"}]},{"lat":"37.80318172","long":"127.52535157","imageIndex":4,"items":[{"name":"남이가든","tel":"031-582-3706","addr":"경기도 가평군 가평읍 달전리 148-4번지","indutype":"일반휴게음식 - 일반한식","category":"restaurant"}]},{"lat":"37.808544744","long":"127.52479887","imageIndex":4,"items":[{"name":"남이금강막국수","tel":"031-581-3449","addr":"경기도 가평군 가평읍 달전리 95번지","indutype":"일반휴게음식 - 일반한식","category":"restaurant"}]},{"lat":"37.805429611","long":"127.52432274","imageIndex":4,"items":[{"name":"남이닭갈비","tel":"031-582-5261","addr":"경기도 가평군 가평읍 달전리 127번지","indutype":"일반휴게음식 - 일반한식","category":"restaurant"}]},{"lat":"37.805014037","long":"127.52458098","imageIndex":4,"items":[{"name":"남이밥상","tel":"031-582-7744","addr":"경기도 가평군 가평읍 달전리 130-2번지","indutype":"일반휴게음식 - 일반한식","category":"restaurant"}]},{"lat":"37.810349143","long":"127.52218836","imageIndex":4,"items":[{"name":"남이섬 풍경 닭갈비","tel":"031-581-2252","addr":"경기도 가평군 가평읍 달전리 247-7번지","indutype":"일반휴게음식 - 일반한식","category":"restaurant"}]},{"lat":"37.805905484","long":"127.52468945","imageIndex":4,"items":[{"name":"남이섬꼬꼬숯불닭갈비","tel":"031-581-2127","addr":"경기도 가평군 가평읍 달전리 119번지","indutype":"일반휴게음식 - 일반한식","category":"restaurant"}]},{"lat":"37.80587438","long":"127.525609","imageIndex":4,"items":[{"name":"남이섬사랑닭갈비","tel":"031-581-7002","addr":"경기도 가평군 가평읍 달전리 108-5번지","indutype":"일반휴게음식 - 일반한식","category":"restaurant"}]},{"lat":"37.807094834","long":"127.52466375","imageIndex":4,"items":[{"name":"남이섬안반지닭갈비","tel":"031-123-1234","addr":"경기도 가평군 가평읍 달전리 86-1번지 1층","indutype":"일반휴게음식 - 일반한식","category":"restaurant"}]},{"lat":"37.805740352","long":"127.52535824","imageIndex":4,"items":[{"name":"남이섬웰빙닭갈비","tel":"031-581-7959","addr":"경기도 가평군 가평읍 달전리 112-1","indutype":"일반휴게음식 - 일반한식","category":"restaurant"}]},{"lat":"37.808844859","long":"127.52416506","imageIndex":4,"items":[{"name":"남이아띠춘천닭갈비","tel":"031-581-6171","addr":"경기도 가평군 가평읍 달전리 75-8","indutype":"일반휴게음식 - 일반한식","category":"restaurant"}]},{"lat":"37.808959161","long":"127.52480178","imageIndex":4,"items":[{"name":"다람골","tel":"031-581-0038","addr":"경기도 가평군 가평읍 달전리 68번지","indutype":"일반휴게음식 - 일반한식","category":"restaurant"}]},{"lat":"37.808375029","long":"127.52446836","imageIndex":4,"items":[{"name":"닭찬정","tel":"031-581-6753","addr":"경기도 가평군 가평읍 달전리 91-1번지 1층","indutype":"일반휴게음식 - 일반한식","category":"restaurant"}]},{"lat":"37.806157387","long":"127.52477071","imageIndex":4,"items":[{"name":"디저트39 가평남이섬점","tel":"03-111-1111","addr":"경기도 가평군 가평읍 달전리 118-2번지 씨앤에프카페테리아 B동","indutype":"일반휴게음식 - 서양음식","category":"restaurant"}]},{"lat":"37.812544657","long":"127.51871739","imageIndex":4,"items":[{"name":"마마달전점","tel":"031-581-6400","addr":"경기도 가평군 가평읍 달전리 323-6번지","indutype":"일반휴게음식 - 서양음식","category":"restaurant"},{"name":"산모퉁이(자라섬)","tel":"031-582-0022","addr":"경기도 가평군 가평읍 달전리 323-6","indutype":"일반휴게음식 - 일반한식","category":"restaurant"}]},{"lat":"37.805264984","long":"127.52487798","imageIndex":4,"items":[{"name":"마스터커피(남이섬)","tel":"031-581-9033","addr":"경기도 가평군 가평읍 달전리 110-1번지 올인펜션 3동 1층","indutype":"일반휴게음식 - 서양음식","category":"restaurant"},{"name":"윈터소나타","tel":"031-581-9034","addr":"경기도 가평군 가평읍 달전리 110-1번지 올인펜션 3동 2층","indutype":"일반휴게음식 - 서양음식","category":"restaurant"},{"name":"유명숙춘천닭갈비","tel":"031-582-2461","addr":"경기도 가평군 가평읍 달전리 110-1번지","indutype":"일반휴게음식 - 일반한식","category":"restaurant"}]},{"lat":"37.807483331","long":"127.52441667","imageIndex":4,"items":[{"name":"만조이천쌀밥","tel":"031-582-9793","addr":"경기도 가평군 가평읍 달전리 85-5번지","indutype":"일반휴게음식 - 일반한식","category":"restaurant"}]},{"lat":"37.806569489","long":"127.52529595","imageIndex":4,"items":[{"name":"메가커피남이섬점","tel":"070-4295-3262","addr":"경기도 가평군 가평읍 달전리 113-4번지 1층","indutype":"일반휴게음식 - 서양음식","category":"restaurant"},{"name":"밥집","tel":"031-582-4377","addr":"경기도 가평군 가평읍 달전리 113-4번지 가평어촌계수산물직판장 1층 101호","indutype":"일반휴게음식 - 일반한식","category":"restaurant"}]},{"lat":"37.813906561","long":"127.51216287","imageIndex":4,"items":[{"name":"바이스테이션","tel":"","addr":"경기도 가평군 가평읍 달전리 603-6번지 1-3층","indutype":"일반휴게음식 - 서양음식","category":"restaurant"}]},{"lat":"37.810209927","long":"127.53521252","imageIndex":4,"items":[{"name":"박주부푸드스토리","tel":"","addr":"경기도 가평군 가평읍 달전리 1-1번지","indutype":"일반휴게음식 - 중국식","category":"restaurant"}]},{"lat":"37.814431241","long":"127.51582326","imageIndex":4,"items":[{"name":"봉루금문닭갈비","tel":"031-581-9282","addr":"경기도 가평군 가평읍 달전리 395-2번지 1-2층","indutype":"일반휴게음식 - 일반한식","category":"restaurant"}]},{"lat":"37.815876943","long":"127.51485659","imageIndex":4,"items":[{"name":"사랑채닭갈비","tel":"031-582-7808","addr":"경기도 가평군 가평읍 달전리 426-1","indutype":"일반휴게음식 - 일반한식","category":"restaurant"}]},{"lat":"37.804907285","long":"127.52427365","imageIndex":4,"items":[{"name":"산촌","tel":"031-582-1706","addr":"경기도 가평군 가평읍 달전리 131-1번지","indutype":"일반휴게음식 - 일반한식","category":"restaurant"}]},{"lat":"37.814374893","long":"127.51841215","imageIndex":4,"items":[{"name":"소리소","tel":"031-581-7071","addr":"경기도 가평군 가평읍 달전리 338-2번지 로진택배 A동 3호","indutype":"일반휴게음식 - 일반한식","category":"restaurant"},{"name":"시골밥상","tel":"031-581-1033","addr":"경기도 가평군 가평읍 달전리 338-2번지","indutype":"일반휴게음식 - 일반한식","category":"restaurant"}]},{"lat":"37.806875647","long":"127.52533217","imageIndex":4,"items":[{"name":"아리수","tel":"031-582-3014","addr":"경기도 가평군 가평읍 달전리 113-3번지","indutype":"일반휴게음식 - 일반한식","category":"restaurant"}]},{"lat":"37.804151766","long":"127.51577487","imageIndex":4,"items":[{"name":"오륜빌리지 카페","tel":"031-582-3513","addr":"경기도 가평군 가평읍 달전리 540-7번지 오륜비전빌리지 A동 1층","indutype":"일반휴게음식 - 서양음식","category":"restaurant"}]},{"lat":"37.813677912","long":"127.51915682","imageIndex":4,"items":[{"name":"우듬지","tel":"","addr":"경기도 가평군 가평읍 달전리 334-5번지","indutype":"일반휴게음식 - 일반한식","category":"restaurant"}]},{"lat":"37.803264513","long":"127.52496609","imageIndex":4,"items":[{"name":"우렁쌈밥마당","tel":"031-582-4045","addr":"경기도 가평군 가평읍 달전리 149-2","indutype":"일반휴게음식 - 일반한식","category":"restaurant"}]},{"lat":"37.805293319","long":"127.52458295","imageIndex":4,"items":[{"name":"유명숙 춘천닭갈비 별관","tel":"031-582-2461","addr":"경기도 가평군 가평읍 달전리 129번지","indutype":"일반휴게음식 - 일반한식","category":"restaurant"}]},{"lat":"37.804040804","long":"127.52463091","imageIndex":4,"items":[{"name":"인투(IN2)","tel":"031-582-1692","addr":"경기도 가평군 가평읍 달전리 137번지 1층","indutype":"일반휴게음식 - 일반한식","category":"restaurant"},{"name":"한옥식당","tel":"031-582-1692","addr":"경기도 가평군 가평읍 달전리 137번지","indutype":"일반휴게음식 - 일반한식","category":"restaurant"}]},{"lat":"37.80301422","long":"127.5245215","imageIndex":4,"items":[{"name":"자연숯불닭갈비","tel":"031-582-5234","addr":"경기도 가평군 가평읍 달전리 139-1번지","indutype":"일반휴게음식 - 일반한식","category":"restaurant"}]},{"lat":"37.811072594","long":"127.51952478","imageIndex":4,"items":[{"name":"전통손두부","tel":"031-582-3629","addr":"경기도 가평군 가평읍 달전리 238번지 전통손두부","indutype":"일반휴게음식 - 일반한식","category":"restaurant"},{"name":"전통손두부","tel":"031-582-3629","addr":"경기도 가평군 가평읍 달전리 238번지","indutype":"일반휴게음식 - 일반한식","category":"restaurant"}]},{"lat":"37.807904847","long":"127.52485114","imageIndex":4,"items":[{"name":"조무락닭갈비","tel":"031-582-6300","addr":"경기도 가평군 가평읍 달전리 91-2번지","indutype":"일반휴게음식 - 일반한식","category":"restaurant"}]},{"lat":"37.803902951","long":"127.5252431","imageIndex":4,"items":[{"name":"주식회사남문/스노우까페","tel":"031-581-5700","addr":"경기도 가평군 가평읍 달전리 144-11번지 외3필지","indutype":"일반휴게음식 - 서양음식","category":"restaurant"}]},{"lat":"37.813597101","long":"127.51496576","imageIndex":4,"items":[{"name":"지붕위에커피잔","tel":"070-8851-4047","addr":"경기도 가평군 가평읍 달전리 452-16번지","indutype":"일반휴게음식 - 서양음식","category":"restaurant"}]},{"lat":"37.813763619","long":"127.52015678","imageIndex":4,"items":[{"name":"천안댁","tel":"031-111-1111","addr":"경기도 가평군 가평읍 달전리 281번지 1층","indutype":"일반휴게음식 - 일반한식","category":"restaurant"}]},{"lat":"37.816680824","long":"127.51438515","imageIndex":4,"items":[{"name":"청운닭갈비막국수","tel":"031-581-5989","addr":"경기도 가평군 가평읍 달전리 405-38","indutype":"일반휴게음식 - 일반한식","category":"restaurant"}]},{"lat":"37.813768274","long":"127.51496695","imageIndex":4,"items":[{"name":"초원닭갈비","tel":"031-581-3366","addr":"경기도 가평군 가평읍 달전리 452-3","indutype":"일반휴게음식 - 일반한식","category":"restaurant"},{"name":"초원닭갈비","tel":"031-581-3366","addr":"경기도 가평군 가평읍 달전리 452-3번지","indutype":"일반휴게음식 - 일반한식","category":"restaurant"}]},{"lat":"37.816374268","long":"127.51443982","imageIndex":4,"items":[{"name":"커피베이","tel":"031-582-8946","addr":"경기도 가평군 가평읍 달전리 405-30번지 1층","indutype":"일반휴게음식 - 서양음식","category":"restaurant"}]},{"lat":"37.806292171","long":"127.52485114","imageIndex":4,"items":[{"name":"커피앤닭강정","tel":"031-581-7087","addr":"경기도 가평군 가평읍 달전리 117-6번지","indutype":"일반휴게음식 - 일반한식","category":"restaurant"}]},{"lat":"37.815240129","long":"127.51627177","imageIndex":4,"items":[{"name":"토담","tel":"031-582-8239","addr":"경기도 가평군 가평읍 달전리 394-2번지","indutype":"일반휴게음식 - 일반한식","category":"restaurant"}]},{"lat":"37.814735551","long":"127.51421274","imageIndex":4,"items":[{"name":"퍼스트파티오","tel":"","addr":"경기도 가평군 가평읍 달전리 429-10번지","indutype":"일반휴게음식 - 일반한식","category":"restaurant"}]},{"lat":"37.805260754","long":"127.52583178","imageIndex":4,"items":[{"name":"평원식당","tel":"031-582-3882","addr":"경기도 가평군 가평읍 달전리 106-1번지","indutype":"일반휴게음식 - 일반한식","category":"restaurant"}]},{"lat":"37.810708905","long":"127.52232716","imageIndex":4,"items":[{"name":"할매 춘천닭갈비","tel":"031-581-3523","addr":"경기도 가평군 가평읍 달전리 263-1번지","indutype":"일반휴게음식 - 일반한식","category":"restaurant"}]},{"lat":"37.809018492","long":"127.52360986","imageIndex":4,"items":[{"name":"힐링닭갈비","tel":"031-581-5402","addr":"경기도 가평군 가평읍 달전리 79-5번지 가(1층),나,다동","indutype":"일반휴게음식 - 일반한식","category":"restaurant"}]}]