[{"lat":"37.334809245","long":"126.90809645","imageIndex":4,"items":[{"name":"갈비전문점조양","tel":"031-502-7008","addr":"경기도 군포시 속달동 74-2번지 1층","indutype":"일반휴게음식 - 일반한식","category":"restaurant"}]},{"lat":"37.335223532","long":"126.90787025","imageIndex":4,"items":[{"name":"갈티커피","tel":"031-437-4425","addr":"경기도 군포시 속달동 70번지","indutype":"일반휴게음식 - 서양음식","category":"restaurant"}]},{"lat":"37.342007839","long":"126.89684748","imageIndex":4,"items":[{"name":"보니타(Bonita)","tel":"031-502-6671","addr":"경기도 군포시 속달동 261번지","indutype":"일반휴게음식 - 일반한식","category":"restaurant"}]},{"lat":"37.334448856","long":"126.90811947","imageIndex":4,"items":[{"name":"봉순게장","tel":"031-438-1012","addr":"경기도 군포시 속달동 75번지 1층","indutype":"일반휴게음식 - 일반한식","category":"restaurant"},{"name":"원조남원추어탕","tel":"031-437-1013","addr":"경기도 군포시 속달동 75번지 1층","indutype":"일반휴게음식 - 일반한식","category":"restaurant"}]},{"lat":"37.344277901","long":"126.89629131","imageIndex":4,"items":[{"name":"부잣집","tel":"031-437-1018","addr":"경기도 군포시 속달동 356-1번지","indutype":"일반휴게음식 - 일반한식","category":"restaurant"}]},{"lat":"37.342917713","long":"126.89667693","imageIndex":4,"items":[{"name":"수리골","tel":"031-438-7088","addr":"경기도 군포시 속달동 265번지 1층","indutype":"일반휴게음식 - 일반한식","category":"restaurant"}]},{"lat":"37.342972027","long":"126.89695898","imageIndex":4,"items":[{"name":"수리산두꺼비","tel":"031-502-0636","addr":"경기도 군포시 속달동 267번지 외2필지","indutype":"일반휴게음식 - 일반한식","category":"restaurant"}]},{"lat":"37.335088316","long":"126.90779143","imageIndex":4,"items":[{"name":"수리산채","tel":"031-502-7333","addr":"경기도 군포시 속달동 66번지 ,1,2층","indutype":"일반휴게음식 - 일반한식","category":"restaurant"}]},{"lat":"37.340472843","long":"126.90346255","imageIndex":4,"items":[{"name":"순이네 시골밥상","tel":"031-502-8994","addr":"경기도 군포시 속달동 227-2번지","indutype":"일반휴게음식 - 일반한식","category":"restaurant"}]},{"lat":"37.336116278","long":"126.90879443","imageIndex":4,"items":[{"name":"식도락","tel":"031-437-3335","addr":"경기도 군포시 속달동 59번지 1층","indutype":"일반휴게음식 - 일반한식","category":"restaurant"}]},{"lat":"37.34272742","long":"126.89548097","imageIndex":4,"items":[{"name":"야미정","tel":"031-406-6688","addr":"경기도 군포시 속달동 371-9번지 1층","indutype":"일반휴게음식 - 일반한식","category":"restaurant"}]},{"lat":"37.336476837","long":"126.90898581","imageIndex":4,"items":[{"name":"우리한우","tel":"031-501-7992","addr":"경기도 군포시 속달동 24-6번지","indutype":"일반휴게음식 - 일반한식","category":"restaurant"}]},{"lat":"37.333085447","long":"126.90460066","imageIndex":4,"items":[{"name":"이백","tel":"031-437-9951","addr":"경기도 군포시 속달동 158번지 1.2층","indutype":"일반휴게음식 - 일반한식","category":"restaurant"},{"name":"이백레스토랑","tel":"031-437-9951","addr":"경기도 군포시 속달동 158번지","indutype":"일반휴게음식 - 서양음식","category":"restaurant"}]},{"lat":"37.335917785","long":"126.90845615","imageIndex":4,"items":[{"name":"정선달가마솥","tel":"031-438-4333","addr":"경기도 군포시 속달동 58-2번지 1층","indutype":"일반휴게음식 - 스넥","category":"restaurant"}]},{"lat":"37.335061548","long":"126.9081187","imageIndex":4,"items":[{"name":"주막보리밥","tel":"031-501-6677","addr":"경기도 군포시 속달동 66-8번지","indutype":"일반휴게음식 - 일반한식","category":"restaurant"}]},{"lat":"37.335780773","long":"126.90615436","imageIndex":4,"items":[{"name":"참고기","tel":"031-438-3192","addr":"경기도 군포시 속달동 206-1번지","indutype":"일반휴게음식 - 일반한식","category":"restaurant"}]}]