[{"lat":"37.566149478","long":"127.18908731","imageIndex":16,"items":[{"name":"(주)미사심슨어학원","tel":"02-429-3321","addr":"경기도 하남시 망월동 1079-1번지 우성미사타워 801동 806호","indutype":"학원 - 보습학원","category":"study"},{"name":"강향숙댄스스포츠","tel":"070-8887-0990","addr":"경기도 하남시 망월동 1079-1번지 우성미사타워 1006호","indutype":"학원 - 예·체능계학원","category":"study"},{"name":"미술로생각하기 미사학원","tel":"031-794-0946","addr":"경기도 하남시 망월동 1079-1번지 우성미사타워 902호","indutype":"학원 - 예·체능계학원","category":"study"}]},{"lat":"37.565035415","long":"127.18120678","imageIndex":16,"items":[{"name":"E·T스포츠","tel":"","addr":"경기도 하남시 망월동 1044번지 미사강변도시17단지 1706동 2102호","indutype":"학원 - 기타 교육기관","category":"study"},{"name":"고일체육관","tel":"031-795-4447","addr":"경기도 하남시 망월동 1044번지 미사강변도시17단지 2층 201호 ,202호","indutype":"학원 - 예·체능계학원","category":"study"}]},{"lat":"37.569678763","long":"127.18495323","imageIndex":16,"items":[{"name":"FTC태권도","tel":"031-792-4492","addr":"경기도 하남시 망월동 970-1번지 미사원프라자 502호","indutype":"학원 - 예·체능계학원","category":"study"},{"name":"ST(에스티)학원","tel":"031-8027-2746","addr":"경기도 하남시 망월동 970-1번지 미사원프라자 4층 407호","indutype":"학원 - 보습학원","category":"study"},{"name":"국어로이루다보습학원","tel":"031-699-0187","addr":"경기도 하남시 망월동 970-1번지 미사원프라자 4층 402호","indutype":"학원 - 보습학원","category":"study"},{"name":"미사강변삼성영어학원","tel":"031-796-3353","addr":"경기도 하남시 망월동 970-1번지 미사원프라자 4층 403호","indutype":"학원 - 외국어학원","category":"study"},{"name":"미사제1지엠에이(GMA)개념원리수학학원","tel":"031-792-5630","addr":"경기도 하남시 망월동 970-1번지 미사원프라자 406호","indutype":"학원 - 보습학원","category":"study"},{"name":"이엠씨보습학원","tel":"031-791-1253","addr":"경기도 하남시 망월동 970-1번지 미사원프라자 5층 504호","indutype":"학원 - 보습학원","category":"study"},{"name":"이유나 음악학원","tel":"031-792-0792","addr":"경기도 하남시 망월동 970-1번지 미사원프라자 408호","indutype":"학원 - 예·체능계학원","category":"study"},{"name":"지혜로운눈교육보습학원","tel":"031-795-7651","addr":"경기도 하남시 망월동 970-1번지 미사원프라자 5층 3호","indutype":"학원 - 보습학원","category":"study"},{"name":"호림합기도","tel":"031-792-4492","addr":"경기도 하남시 망월동 970-1번지 미사원프라자 502호","indutype":"학원 - 예·체능계학원","category":"study"}]},{"lat":"37.569985444","long":"127.18472759","imageIndex":16,"items":[{"name":"강의하는아이들보습학원","tel":"031-792-9522","addr":"경기도 하남시 망월동 962-2번지 예스프라자포틴 405호","indutype":"학원 - 보습학원","category":"study"},{"name":"고길동 푸르넷 아카데미 학원","tel":"031-796-6112","addr":"경기도 하남시 망월동 962-2번지 예스프라자포틴 4층 404호","indutype":"학원 - 보습학원","category":"study"},{"name":"달성 영어학원","tel":"","addr":"경기도 하남시 망월동 962-2번지 예스프라자포틴 504호","indutype":"학원 - 외국어학원","category":"study"},{"name":"대치수학전문학원","tel":"031-000-0000","addr":"경기도 하남시 망월동 962-2번지 예스프라자포틴 305호","indutype":"학원 - 보습학원","category":"study"},{"name":"드림하이해법영어수학학원","tel":"031-792-0503","addr":"경기도 하남시 망월동 962-2번지 예스프라자포틴 503호","indutype":"학원 - 보습학원","category":"study"},{"name":"랭귀지오딧어학원","tel":"031-791-0582","addr":"경기도 하남시 망월동 962-2번지 예스프라자포틴 601호","indutype":"학원 - 외국어학원","category":"study"},{"name":"미래진학보습학원","tel":"031-7944-6253","addr":"경기도 하남시 망월동 962-2번지 예스프라자포틴 304호","indutype":"학원 - 보습학원","category":"study"},{"name":"수학을보다 보습학원","tel":"070-8872-1126","addr":"경기도 하남시 망월동 962-2번지 예스프라자포틴 604호 603호,604호","indutype":"학원 - 보습학원","category":"study"},{"name":"주식회사 백향목교육","tel":"031-792-2426","addr":"경기도 하남시 망월동 962-2번지 예스프라자포틴 3층","indutype":"학원 - 보습학원","category":"study"},{"name":"한예종음악학원","tel":"031-528-6263","addr":"경기도 하남시 망월동 962-2번지 예스프라자포틴 602호","indutype":"학원 - 예·체능계학원","category":"study"},{"name":"해동검도 택견","tel":"031-792-6440","addr":"경기도 하남시 망월동 962-2번지 예스프라자포턴 502호","indutype":"학원 - 예·체능계학원","category":"study"}]},{"lat":"37.56151188","long":"127.19319555","imageIndex":16,"items":[{"name":"경희대 석사 The 비채","tel":"032-792-9921","addr":"경기도 하남시 망월동 1117번지 미사강변노블레스 913동 917호","indutype":"학원 - 예·체능계학원","category":"study"},{"name":"리틀피아니스트 음악학원","tel":"031-793-0225","addr":"경기도 하남시 망월동 1117번지 미사강변 노블레스 9층 918~920호","indutype":"학원 - 예·체능계학원","category":"study"},{"name":"미사역노블레스키즈엔리딩영어교습소","tel":"","addr":"경기도 하남시 망월동 1117번지 미사강변노블레스 902호","indutype":"학원 - 외국어학원","category":"study"},{"name":"미사중앙삼성영어탑매쓰수학학원","tel":"031-792-3305","addr":"경기도 하남시 망월동 1117번지 905호,906호,907호,910호","indutype":"학원 - 보습학원","category":"study"},{"name":"수학의기쁨교습소","tel":"031-795-5130","addr":"경기도 하남시 망월동 1117번지 미사강변노블레스 6층 622호","indutype":"학원 - 보습학원","category":"study"},{"name":"영렘브란트 미술학원 (미사강변센터)","tel":"031-792-2627","addr":"경기도 하남시 망월동 1117번지 901,921,922,923,924호","indutype":"학원 - 예·체능계학원","category":"study"},{"name":"최강수학(미사)학원","tel":"031-792-1123","addr":"경기도 하남시 망월동 1117번지 미사강변노블레스 909호","indutype":"학원 - 보습학원","category":"study"}]},{"lat":"37.557675317","long":"127.19772411","imageIndex":16,"items":[{"name":"경희대퍼스트태권도","tel":"031-795-1897","addr":"경기도 하남시 망월동 1177번지 미사강변사랑으로부영아파트 상가동 2층 203호","indutype":"학원 - 예·체능계학원","category":"study"}]},{"lat":"37.569173149","long":"127.18564247","imageIndex":16,"items":[{"name":"고수학(고등관)학원","tel":"031-794-3887","addr":"경기도 하남시 망월동 976번지 파인빌딩 403호","indutype":"학원 - 보습학원","category":"study"},{"name":"시너지플레이스독서실","tel":"","addr":"경기도 하남시 망월동 976번지 파인빌딩 501,502,503호","indutype":"학원 - 독서실","category":"study"}]},{"lat":"37.568868702","long":"127.18441925","imageIndex":16,"items":[{"name":"고수학학원","tel":"02-471-3887","addr":"경기도 하남시 망월동 968번지 한강트윈2 602호","indutype":"학원 - 보습학원","category":"study"},{"name":"뉴런잉글리쉬학원","tel":"031-792-5205","addr":"경기도 하남시 망월동 968번지 한강트윈프라자2 401호","indutype":"학원 - 외국어학원","category":"study"},{"name":"유엔에스더블유 영어학원","tel":"031-795-0533","addr":"경기도 하남시 망월동 968번지 한강트륀프라자 5층 504호","indutype":"학원 - 외국어학원","category":"study"},{"name":"제이엠에스보습학원","tel":"","addr":"경기도 하남시 망월동 968번지 한강트윈프라자2 502호","indutype":"학원 - 보습학원","category":"study"},{"name":"지에이피영어학원","tel":"031-795-5779","addr":"경기도 하남시 망월동 968번지 한강트윈프라자2 601호","indutype":"학원 - 외국어학원","category":"study"}]},{"lat":"37.569199966","long":"127.1915059","imageIndex":16,"items":[{"name":"공감팩토리","tel":"","addr":"경기도 하남시 망월동 910번지 미사강변파밀리에 1503동 204호","indutype":"학원 - 기타 교육기관","category":"study"},{"name":"그린키즈어린이집[아이행복]","tel":"031-795-7778","addr":"경기도 하남시 망월동 910번지 강변도시15단지 1506동 102호","indutype":"학원 - 유아원","category":"study"},{"name":"다솜어린이집[아이행복]","tel":"031-793-9809","addr":"경기도 하남시 망월동 910번지 미사강변파밀리에 1509동 101호","indutype":"학원 - 유아원","category":"study"},{"name":"다솜어린이집[아이행복]","tel":"031-793-9809","addr":"경기도 하남시 망월동 910번지 미사강변파밀리에 1509동 101호","indutype":"학원 - 유아원","category":"study"},{"name":"미사랑어린이집[아이행복]","tel":"031-796-0715","addr":"경기도 하남시 망월동 910번지 미사강변파밀리에 관리동","indutype":"학원 - 유아원","category":"study"},{"name":"미사키즈어린이집[아이행복]","tel":"031-793-1881","addr":"경기도 하남시 망월동 910번지 미사강변파밀리에 1503동 103호","indutype":"학원 - 유아원","category":"study"},{"name":"인재미술교습소","tel":"031-795-3885","addr":"경기도 하남시 망월동 910번지 파밀리에 상가동 203호","indutype":"학원 - 예·체능계학원","category":"study"},{"name":"지음피아노음악교습소","tel":"031-794-3706","addr":"경기도 하남시 망월동 910번지 미사강변파밀리에 상가동 204호","indutype":"학원 - 예·체능계학원","category":"study"}]},{"lat":"37.570012003","long":"127.18503327","imageIndex":16,"items":[{"name":"공부뒤집기학원","tel":"031-796-0996","addr":"경기도 하남시 망월동 962-3번지 미사프라자 702호","indutype":"학원 - 보습학원","category":"study"},{"name":"늘사랑음악학원","tel":"031-8027-3960","addr":"경기도 하남시 망월동 962-3번지 601-603호","indutype":"학원 - 예·체능계학원","category":"study"},{"name":"롱맨영수학원","tel":"031-8027-3960","addr":"경기도 하남시 망월동 962-3번지 604-605호","indutype":"학원 - 외국어학원","category":"study"},{"name":"미사TOP태권도장","tel":"031-796-7956","addr":"경기도 하남시 망월동 962-3번지 502,503호","indutype":"학원 - 예·체능계학원","category":"study"},{"name":"블럭파티플러스","tel":"031-791-0085","addr":"경기도 하남시 망월동 962-3번지 미사프라자 404호","indutype":"학원 - 기타 교육기관","category":"study"},{"name":"상상고양이미술나라학원","tel":"031-793-0621","addr":"경기도 하남시 망월동 962-3번지 미사프라자 402호","indutype":"학원 - 예·체능계학원","category":"study"},{"name":"수학마녀학원","tel":"031-796-1119","addr":"경기도 하남시 망월동 962-3번지 미사프라자 401호","indutype":"학원 - 보습학원","category":"study"},{"name":"숙명음악학원","tel":"031-795-2949","addr":"경기도 하남시 망월동 962-3번지 미사프라자 501호","indutype":"학원 - 예·체능계학원","category":"study"},{"name":"이세돌바둑학원","tel":"031-792-1171","addr":"경기도 하남시 망월동 962-3번지 미사프라자 403호","indutype":"학원 - 기타 교육기관","category":"study"}]},{"lat":"37.559401648","long":"127.19986766","imageIndex":16,"items":[{"name":"공터영어 미사센터","tel":"0507-1331-1269","addr":"경기도 하남시 망월동 1196번지 201호","indutype":"학원 - 기타 교육기관","category":"study"},{"name":"아침에뜨는별미술교습소","tel":"","addr":"경기도 하남시 망월동 1196번지 101호","indutype":"학원 - 예·체능계학원","category":"study"}]},{"lat":"37.569841845","long":"127.18436502","imageIndex":16,"items":[{"name":"굿쎈수학학원","tel":"031-794-1277","addr":"경기도 하남시 망월동 962-1번지 송하프라자 302호","indutype":"학원 - 보습학원","category":"study"},{"name":"브이투(V2) 과학국어전문학원","tel":"031-792-7720","addr":"경기도 하남시 망월동 962-1번지 송하빌딩 4층 402호","indutype":"학원 - 보습학원","category":"study"},{"name":"비욘드영어 미사강변어학원","tel":"","addr":"경기도 하남시 망월동 962-1번지 상하빌딩 304,305호","indutype":"학원 - 외국어학원","category":"study"},{"name":"소년공방미술학원","tel":"031-795-0828","addr":"경기도 하남시 망월동 962-1번지 송하빌딩 603호","indutype":"학원 - 예·체능계학원","category":"study"},{"name":"어썸팩토리 미사독서실","tel":"031-793-4627","addr":"경기도 하남시 망월동 962-1번지 송하프라자 701동 704호","indutype":"학원 - 독서실","category":"study"},{"name":"주식회사 이츠에듀 미사점","tel":"031-795-3757","addr":"경기도 하남시 망월동 962-1번지 송하프라자 204호,205호","indutype":"학원 - 보습학원","category":"study"},{"name":"지혜의숲사고력논술학원","tel":"031-791-2211","addr":"경기도 하남시 망월동 962-1번지 송하프라자 4층 1호","indutype":"학원 - 보습학원","category":"study"},{"name":"칸타빌레 음악학원","tel":"031-765-7823","addr":"경기도 하남시 망월동 962-1번지 송하프라자 503호","indutype":"학원 - 예·체능계학원","category":"study"},{"name":"크리스글로벌에듀케이션","tel":"031-1544-9021","addr":"경기도 하남시 망월동 962-1번지 송하프라자 601호","indutype":"학원 - 유학원","category":"study"},{"name":"크리스아카데믹어학원(미사직영제1캠퍼스)","tel":"070-4337-1256","addr":"경기도 하남시 망월동 962-1번지 송하프라자 601,602호","indutype":"학원 - 외국어학원","category":"study"},{"name":"프로예종발레학원","tel":"031-795-6311","addr":"경기도 하남시 망월동 962-1번지 송하프라자 501호,502호","indutype":"학원 - 예·체능계학원","category":"study"},{"name":"헤럴드 어학원","tel":"031-1544-9021","addr":"경기도 하남시 망월동 962-1번지 6층 601호,602호","indutype":"학원 - 외국어학원","category":"study"},{"name":"혜종 음악학원","tel":"031-794-3991","addr":"경기도 하남시 망월동 962-1번지 송하프라자 4층 403호","indutype":"학원 - 예·체능계학원","category":"study"}]},{"lat":"37.568872945","long":"127.193169","imageIndex":16,"items":[{"name":"권쌤수학","tel":"070-5031-0327","addr":"경기도 하남시 망월동 916-5번지","indutype":"학원 - 기타 교육기관","category":"study"}]},{"lat":"37.569589136","long":"127.18464739","imageIndex":16,"items":[{"name":"그림아트스튜디오미술학원","tel":"031-791-7767","addr":"경기도 하남시 망월동 970번지 예스프라자 미사 401호","indutype":"학원 - 예·체능계학원","category":"study"},{"name":"백준호 영어전문학원","tel":"031-794-4299","addr":"경기도 하남시 망월동 970번지 예스프라자 미사 4층 402호","indutype":"학원 - 외국어학원","category":"study"},{"name":"한국체대중앙태권도","tel":"031-792-2599","addr":"경기도 하남시 망월동 970번지 예스프라자 5층 503호,504호","indutype":"학원 - 예·체능계학원","category":"study"},{"name":"환희음악학원","tel":"031-791-5565","addr":"경기도 하남시 망월동 970번지 예스프라자 미사 5층 1,2호","indutype":"학원 - 예·체능계학원","category":"study"}]},{"lat":"37.56953354","long":"127.18564335","imageIndex":16,"items":[{"name":"김종인국어전문학원","tel":"031-792-7165","addr":"경기도 하남시 망월동 974-1번지 Apple빌딩 4층 401호","indutype":"학원 - 보습학원","category":"study"},{"name":"마인드허그","tel":"070-4076-5830","addr":"경기도 하남시 망월동 974-1번지 APPLE빌딩 3층 301호","indutype":"학원 - 예·체능계학원","category":"study"},{"name":"열강영어전문학원","tel":"031-791-3200","addr":"경기도 하남시 망월동 974-1번지 APPLE빌딩 3층 302호","indutype":"학원 - 외국어학원","category":"study"},{"name":"작심독서실 (하남미사점)","tel":"031-795-0920","addr":"경기도 하남시 망월동 974-1번지 APPLE빌딩 5층 501,502호","indutype":"학원 - 독서실","category":"study"}]},{"lat":"37.564479804","long":"127.18514431","imageIndex":16,"items":[{"name":"꿈빛나무어린이집[아이행복]","tel":"031-699-5132","addr":"경기도 하남시 망월동 1060번지 미사강변푸르지오 102동 102호","indutype":"학원 - 유아원","category":"study"},{"name":"라온어린이집[아이행복]","tel":"031-7950-728","addr":"경기도 하남시 망월동 1060번지 미사강변푸르지오","indutype":"학원 - 유아원","category":"study"},{"name":"로제타스톤 미사캠퍼스","tel":"","addr":"경기도 하남시 망월동 1060번지 미사강변푸르지오 101동 102호","indutype":"학원 - 기타 교육기관","category":"study"},{"name":"멜리사의 영어 공부방","tel":"","addr":"경기도 하남시 망월동 1060번지 미사강변푸르지오 102동 10층 1003호","indutype":"학원 - 기타 교육기관","category":"study"},{"name":"뮤엠영어푸르지오네스트","tel":"031-794-3975","addr":"경기도 하남시 망월동 1060번지 미사강변푸르지오 107동 202호","indutype":"학원 - 기타 교육기관","category":"study"},{"name":"반디의빛","tel":"070-8623-8209","addr":"경기도 하남시 망월동 1060번지 미사강변푸르지오 114동 101호","indutype":"학원 - 기타 교육기관","category":"study"},{"name":"별바라기 어린이집[아이행복]","tel":"031-794-5732","addr":"경기도 하남시 망월동 1060번지 미사강변푸르지오 105동 104호","indutype":"학원 - 유아원","category":"study"},{"name":"송수학","tel":"","addr":"경기도 하남시 망월동 1060번지 미사강변푸르지오 113동 103호","indutype":"학원 - 기타 교육기관","category":"study"},{"name":"수학공부방","tel":"","addr":"경기도 하남시 망월동 1060번지 미사강변푸르지오 106동 302호","indutype":"학원 - 기타 교육기관","category":"study"},{"name":"예은어린이집[아이행복]","tel":"031-8028-0027","addr":"경기도 하남시 망월동 1060번지 미사강변푸르지오 104동 102호","indutype":"학원 - 유아원","category":"study"},{"name":"파란교육","tel":"031-790-6399","addr":"경기도 하남시 망월동 1060번지 미사강변푸르지오 113동 401호","indutype":"학원 - 기타 교육기관","category":"study"}]},{"lat":"37.573983776","long":"127.19175568","imageIndex":16,"items":[{"name":"꿈자람어린이집[아이행복]","tel":"","addr":"경기도 하남시 망월동 904번지 A11블럭미사강변도시11단지관리동","indutype":"학원 - 유아원","category":"study"},{"name":"미사아이자람어린이집[아이행복]","tel":"031-8028-8002","addr":"경기도 하남시 망월동 904번지 미사강변한신휴플러스 1109동 104호","indutype":"학원 - 유아원","category":"study"},{"name":"미사태권도","tel":"031-795-8485","addr":"경기도 하남시 망월동 904번지 미사강변도시11단지 상가 202호","indutype":"학원 - 예·체능계학원","category":"study"},{"name":"베이비캐슬어린이집[아이행복]","tel":"031-794-2202","addr":"경기도 하남시 망월동 904번지 미사강변한신휴플러스 1107동 102층","indutype":"학원 - 유아원","category":"study"},{"name":"예랑어린이집[아이행복]","tel":"031-794-9982","addr":"경기도 하남시 망월동 904번지 미사강변도시 207동 105호","indutype":"학원 - 유아원","category":"study"}]},{"lat":"37.564839612","long":"127.19125722","imageIndex":16,"items":[{"name":"다니엘기타교습소","tel":"","addr":"경기도 하남시 망월동 1096-1번지 미사푸르지오시티 B동 306호","indutype":"학원 - 예·체능계학원","category":"study"}]},{"lat":"37.566092369","long":"127.19101136","imageIndex":16,"items":[{"name":"다섯손가락 기타교습소","tel":"031-8028-0804","addr":"경기도 하남시 망월동 1093번지 경서타워 907호","indutype":"학원 - 예·체능계학원","category":"study"},{"name":"리드빌","tel":"02-854-8255","addr":"경기도 하남시 망월동 1093번지 6층 607,608호","indutype":"학원 - 독서실","category":"study"},{"name":"백미르수학학원(미사점)","tel":"031-796-0527","addr":"경기도 하남시 망월동 1093번지 8층 806호, 807호","indutype":"학원 - 보습학원","category":"study"},{"name":"앙포인트발레학원","tel":"","addr":"경기도 하남시 망월동 1093번지 경서타워 702호","indutype":"학원 - 예·체능계학원","category":"study"},{"name":"이루다 미술학원","tel":"032-796-0885","addr":"경기도 하남시 망월동 1093번지 경서타워 704호","indutype":"학원 - 예·체능계학원","category":"study"},{"name":"플래뮤 미술학원","tel":"031-793-8364","addr":"경기도 하남시 망월동 1093번지 경서타워 6층 605호","indutype":"학원 - 예·체능계학원","category":"study"}]},{"lat":"37.560062885","long":"127.18650301","imageIndex":16,"items":[{"name":"더선 영어교습소","tel":"031-000-0000","addr":"경기도 하남시 망월동 1067번지 골든브릿지 309호","indutype":"학원 - 외국어학원","category":"study"},{"name":"예명학원","tel":"031-791-7660","addr":"경기도 하남시 망월동 1067번지 골든브릿지 308호","indutype":"학원 - 보습학원","category":"study"},{"name":"제니영어독서클럽","tel":"031-796-1241","addr":"경기도 하남시 망월동 1067번지 골든브릿지 3층 307호","indutype":"학원 - 외국어학원","category":"study"},{"name":"켈리잉글리쉬교습소","tel":"","addr":"경기도 하남시 망월동 1067번지 골든브릿지 310호","indutype":"학원 - 외국어학원","category":"study"}]},{"lat":"37.560595225","long":"127.1917332","imageIndex":16,"items":[{"name":"더오른수학교습소","tel":"","addr":"경기도 하남시 망월동 1119-1번지 르보아파크2 419호","indutype":"학원 - 보습학원","category":"study"}]},{"lat":"37.56100724","long":"127.19325085","imageIndex":16,"items":[{"name":"더좋은학원(미사강변점)","tel":"031-699-9566","addr":"경기도 하남시 망월동 1121-2번지 미사랑데르 507호","indutype":"학원 - 보습학원","category":"study"},{"name":"피코미술학원","tel":"031-792-1491","addr":"경기도 하남시 망월동 1121-2번지 미사랑데르III 509호","indutype":"학원 - 예·체능계학원","category":"study"},{"name":"하이엔드 영수학원","tel":"031-794-7779","addr":"경기도 하남시 망월동 1121-2번지 미사랑데르III 408호","indutype":"학원 - 보습학원","category":"study"}]},{"lat":"37.569172763","long":"127.18589149","imageIndex":16,"items":[{"name":"두아잉글리쉬학원","tel":"031-8024-8666","addr":"경기도 하남시 망월동 976-6번지 디럭스프라자2 5층 503호","indutype":"학원 - 보습학원","category":"study"},{"name":"손수학교습소","tel":"031-794-5078","addr":"경기도 하남시 망월동 976-6번지 디럭스프라자2 403호","indutype":"학원 - 보습학원","category":"study"},{"name":"수학의시대학원","tel":"031-791-9870","addr":"경기도 하남시 망월동 976-6번지 디럭스프라자2 4층 402호","indutype":"학원 - 보습학원","category":"study"},{"name":"시대에듀 주식회사","tel":"031-791-9870","addr":"경기도 하남시 망월동 976-6번지 디럭스프라자2 401,402호","indutype":"학원 - 보습학원","category":"study"},{"name":"조이풀 미술놀이터","tel":"031-793-3001","addr":"경기도 하남시 망월동 976-6번지 디럭스프라자2 502호","indutype":"학원 - 기타 교육기관","category":"study"}]},{"lat":"37.568813475","long":"127.1851775","imageIndex":16,"items":[{"name":"디플레이스 하남 미사점 독서실","tel":"031-000-0000","addr":"경기도 하남시 망월동 976-2번지 디럭스프라자 501,502,503호","indutype":"학원 - 독서실","category":"study"},{"name":"성악뮤지컬전문학원(제이콥스성악뮤지컬아","tel":"031-794-9654","addr":"경기도 하남시 망월동 976-2번지 디럭스프라자1 5층 506호, 507호","indutype":"학원 - 예·체능계학원","category":"study"},{"name":"수혁수학교습소","tel":"","addr":"경기도 하남시 망월동 976-2번지 디럭스프라자1 307호","indutype":"학원 - 보습학원","category":"study"},{"name":"아트앤하트 미술학원","tel":"","addr":"경기도 하남시 망월동 976-2번지 디럭스프라자1 306호","indutype":"학원 - 예·체능계학원","category":"study"},{"name":"찬수학학원","tel":"031-794-4290","addr":"경기도 하남시 망월동 976-2번지 디럭스프라자1 5층 505호","indutype":"학원 - 보습학원","category":"study"}]},{"lat":"37.56892408","long":"127.18355913","imageIndex":16,"items":[{"name":"라온사고력수학","tel":"","addr":"경기도 하남시 망월동 994-1번지 202호","indutype":"학원 - 학습지 교육","category":"study"}]},{"lat":"37.569704463","long":"127.18581356","imageIndex":16,"items":[{"name":"라키즈 바이올린 음악학원","tel":"031-793-8252","addr":"경기도 하남시 망월동 974번지 A+구산프라자 5층 2호","indutype":"학원 - 예·체능계학원","category":"study"},{"name":"리틀팍스어학원/(주)리틀팍스 강동","tel":"031-793-0594","addr":"경기도 하남시 망월동 974번지 A+구산프라자 304호-307호","indutype":"학원 - 외국어학원","category":"study"},{"name":"바퀴달린그림책","tel":"031-796-5152","addr":"경기도 하남시 망월동 974번지 A+구산프라자 3층 302호","indutype":"학원 - 예·체능계학원","category":"study"},{"name":"셈마루종합학원","tel":"031-792-0369","addr":"경기도 하남시 망월동 974번지 A+구산프라자 503호","indutype":"학원 - 보습학원","category":"study"},{"name":"와이즈몽 미술학원","tel":"031-793-7842","addr":"경기도 하남시 망월동 974번지 A+구산프라자 4층 404호","indutype":"학원 - 예·체능계학원","category":"study"}]},{"lat":"37.568562021","long":"127.18464489","imageIndex":16,"items":[{"name":"로웰피아노학원","tel":"031-796-7817","addr":"경기도 하남시 망월동 968-1번지 미사센트럴프라자 602호","indutype":"학원 - 예·체능계학원","category":"study"},{"name":"마스터학원","tel":"031-792-5548","addr":"경기도 하남시 망월동 968-1번지 미사센트럴프라자 5층 505호","indutype":"학원 - 보습학원","category":"study"},{"name":"멘토0819학원","tel":"031-794-0819","addr":"경기도 하남시 망월동 968-1번지 미사센트럴프라자 607,608호","indutype":"학원 - 보습학원","category":"study"},{"name":"미사에듀학원","tel":"031-795-1031","addr":"경기도 하남시 망월동 968-1번지 미사센트럴프라자 6층 609호","indutype":"학원 - 기타 교육기관","category":"study"},{"name":"바른그림","tel":"031-794-2070","addr":"경기도 하남시 망월동 968-1번지 미사센트럴프라자 6층 604호","indutype":"학원 - 예·체능계학원","category":"study"},{"name":"박준영논리속독학원","tel":"031-794-2153","addr":"경기도 하남시 망월동 968-1번지 미사센트럴프라자","indutype":"학원 - 기타 교육기관","category":"study"},{"name":"시매쓰미사학원","tel":"031-795-3699","addr":"경기도 하남시 망월동 968-1번지 미사센트럴프라자 404호","indutype":"학원 - 보습학원","category":"study"},{"name":"시카고 어학원","tel":"031-793-0209","addr":"경기도 하남시 망월동 968-1번지 미사센트럴프라자 5층 503호","indutype":"학원 - 외국어학원","category":"study"},{"name":"알파해법수학","tel":"031-791-4448","addr":"경기도 하남시 망월동 968-1번지 미사센트럴프라자 5층 509호","indutype":"학원 - 보습학원","category":"study"},{"name":"에이린무용학원","tel":"031-793-3308","addr":"경기도 하남시 망월동 968-1번지 미사센트럴프라자 603호","indutype":"학원 - 예·체능계학원","category":"study"},{"name":"열린음악센터학원","tel":"070-6253-3253","addr":"경기도 하남시 망월동 968-1번지 미사센트럴프라자 4층 403호","indutype":"학원 - 예·체능계학원","category":"study"},{"name":"용인대태권도쏭","tel":"031-794-1331","addr":"경기도 하남시 망월동 968-1번지 미사센트럴프라자 7층 708-709호","indutype":"학원 - 예·체능계학원","category":"study"},{"name":"이계선성악아카데미학원","tel":"031-744-8488","addr":"경기도 하남시 망월동 968-1번지 미사센트럴프라자 601호","indutype":"학원 - 예·체능계학원","category":"study"},{"name":"이루다수학교습소","tel":"031-795-1235","addr":"경기도 하남시 망월동 968-1번지 미사센트럴프라자 610호","indutype":"학원 - 보습학원","category":"study"},{"name":"제이제이음악학원","tel":"031-796-3330","addr":"경기도 하남시 망월동 968-1번지 미사센트럴프라자 5층","indutype":"학원 - 예·체능계학원","category":"study"},{"name":"키즈스피치마루지웅변학원","tel":"070-4411-4204","addr":"경기도 하남시 망월동 968-1번지 미사센트럴프라자 405호","indutype":"학원 - 기타 교육기관","category":"study"},{"name":"토즈스터디센터 미사독서실","tel":"031-792-3789","addr":"경기도 하남시 망월동 968-1번지 미사센트럴프라자 308,309,310호","indutype":"학원 - 독서실","category":"study"},{"name":"프라임FC","tel":"031-794-4010","addr":"경기도 하남시 망월동 968-1번지 미사센트럴프라자 705동 707호","indutype":"학원 - 예·체능계학원","category":"study"}]},{"lat":"37.565895216","long":"127.19034306","imageIndex":16,"items":[{"name":"리듬앤유","tel":"02-793-7888","addr":"경기도 하남시 망월동 1089번지 성산타워플러스 904호","indutype":"학원 - 예·체능계학원","category":"study"}]},{"lat":"37.56890254","long":"127.18584555","imageIndex":16,"items":[{"name":"리틀스타즈아카데미","tel":"031-793-0556","addr":"경기도 하남시 망월동 976-5번지 라임프라자 401호 ,402,403호","indutype":"학원 - 외국어학원","category":"study"},{"name":"오르다샘앤클래스미사학원","tel":"031-795-3445","addr":"경기도 하남시 망월동 976-5번지 라임프라자 302호","indutype":"학원 - 기타 교육기관","category":"study"}]},{"lat":"37.56195407","long":"127.19275526","imageIndex":16,"items":[{"name":"마라클뮤직아카데미음악학원","tel":"","addr":"경기도 하남시 망월동 1116-1번지 미사역타워 904호","indutype":"학원 - 예·체능계학원","category":"study"}]},{"lat":"37.562429305","long":"127.19417125","imageIndex":16,"items":[{"name":"매쓰클리닉","tel":"02-4679-4519","addr":"경기도 하남시 망월동 1132번지 퀸즈파크미사1차 3103동 1302호","indutype":"학원 - 기타 교육기관","category":"study"}]},{"lat":"37.571228707","long":"127.18478721","imageIndex":16,"items":[{"name":"모마아틀리에미술교습소","tel":"","addr":"경기도 하남시 망월동 956번지 미사강변도시8단지 202호","indutype":"학원 - 예·체능계학원","category":"study"},{"name":"셀파 우등생 교실 하남미사8교실","tel":"","addr":"경기도 하남시 망월동 956번지 미사강변도시8단지 814동 502호","indutype":"학원 - 기타 교육기관","category":"study"}]},{"lat":"37.567874096","long":"127.18081738","imageIndex":16,"items":[{"name":"목동유쌤영어","tel":"070-4898-8454","addr":"경기도 하남시 망월동 1034번지 미사강변루나리움 509동 1602호","indutype":"학원 - 기타 교육기관","category":"study"},{"name":"뮤엠영어 미사강변루나리움점","tel":"031-792-3553","addr":"경기도 하남시 망월동 1034번지 미사강변루나리움 501동 104호","indutype":"학원 - 기타 교육기관","category":"study"},{"name":"아소비","tel":"","addr":"경기도 하남시 망월동 1034번지 미사강변루나리움 507동 703호","indutype":"학원 - 기타 교육기관","category":"study"},{"name":"한가람어린이집[아이행복]","tel":"02-796-0367","addr":"경기도 하남시 망월동 1034번지 미사5블럭관리동","indutype":"학원 - 유아원","category":"study"},{"name":"홈잉글리쉬 공부방","tel":"031-1111-1111","addr":"경기도 하남시 망월동 1034번지 미사강변루나리움 504동 303호","indutype":"학원 - 기타 교육기관","category":"study"}]},{"lat":"37.569400696","long":"127.18414888","imageIndex":16,"items":[{"name":"미사(em4u)학원","tel":"031-793-7715","addr":"경기도 하남시 망월동 966번지 미사중앙프라자 3층 304호","indutype":"학원 - 보습학원","category":"study"},{"name":"통찰보습학원","tel":"031-792-8744","addr":"경기도 하남시 망월동 966번지 미사중앙프라자 5층 501호","indutype":"학원 - 보습학원","category":"study"}]},{"lat":"37.568346847","long":"127.1839539","imageIndex":16,"items":[{"name":"미사강변검도관","tel":"031-795-8070","addr":"경기도 하남시 망월동 997-2번지 지하층","indutype":"학원 - 예·체능계학원","category":"study"}]},{"lat":"37.567957685","long":"127.18508487","imageIndex":16,"items":[{"name":"미사국제정상어학원","tel":"031-793-0085","addr":"경기도 하남시 망월동 968-4번지 3층","indutype":"학원 - 외국어학원","category":"study"},{"name":"임선영국어논술학원","tel":"031-795-6628","addr":"경기도 하남시 망월동 968-4번지 리더스프라자 605호","indutype":"학원 - 보습학원","category":"study"}]},{"lat":"37.570954587","long":"127.18139069","imageIndex":16,"items":[{"name":"미사에이비씨해법영어교실","tel":"031-796-0544","addr":"경기도 하남시 망월동 1015-9번지 102호","indutype":"학원 - 외국어학원","category":"study"}]},{"lat":"37.569175278","long":"127.18426153","imageIndex":16,"items":[{"name":"미사피플미술학원","tel":"031-794-4048","addr":"경기도 하남시 망월동 966-1번지 한강트윈프라자 702호, 703호","indutype":"학원 - 예·체능계학원","category":"study"}]},{"lat":"37.568758821","long":"127.18556222","imageIndex":16,"items":[{"name":"바탕소 미술학원","tel":"","addr":"경기도 하남시 망월동 976-4번지 명성빌딩 501호","indutype":"학원 - 예·체능계학원","category":"study"},{"name":"별하스터디센터하남미사독서실","tel":"031-795-0706","addr":"경기도 하남시 망월동 976-4번지 302호~304호","indutype":"학원 - 독서실","category":"study"},{"name":"상승수학학원","tel":"031-791-5150","addr":"경기도 하남시 망월동 976-4번지 명성빌딩 4층 401호","indutype":"학원 - 보습학원","category":"study"}]},{"lat":"37.559293342","long":"127.19998055","imageIndex":16,"items":[{"name":"비법9","tel":"031-794-9944","addr":"경기도 하남시 망월동 1196-12번지 202호","indutype":"학원 - 기타 교육기관","category":"study"}]},{"lat":"37.568870789","long":"127.1888677","imageIndex":16,"items":[{"name":"새하남어린이집[아이행복]","tel":"031-795-4768","addr":"경기도 하남시 망월동 949번지 미사강변도시13단지","indutype":"학원 - 유아원","category":"study"}]},{"lat":"37.576203152","long":"127.18989344","imageIndex":16,"items":[{"name":"숲미술교습소","tel":"031-793-1309","addr":"경기도 하남시 망월동 849번지 102호","indutype":"학원 - 예·체능계학원","category":"study"}]},{"lat":"37.564895001","long":"127.19601116","imageIndex":16,"items":[{"name":"시립미사호반어린이집[아이행복]","tel":"031-792-1558","addr":"경기도 하남시 망월동 1127번지 미사강변호반써밋 관리동","indutype":"학원 - 유아원","category":"study"}]},{"lat":"37.559848229","long":"127.18548388","imageIndex":16,"items":[{"name":"신수전독서토론논술학원","tel":"031-793-2767","addr":"경기도 하남시 망월동 1066-2번지 황금프라자 203호","indutype":"학원 - 보습학원","category":"study"},{"name":"이에스파워영어학원","tel":"031-795-9234","addr":"경기도 하남시 망월동 1066-2번지 황금프라자 301호","indutype":"학원 - 보습학원","category":"study"}]},{"lat":"37.560951231","long":"127.18300793","imageIndex":16,"items":[{"name":"써니음악원교습소","tel":"031-772-0650","addr":"경기도 하남시 망월동 1050번지 미사강변도시18단지 203호","indutype":"학원 - 예·체능계학원","category":"study"},{"name":"진리수학","tel":"031-792-7225","addr":"경기도 하남시 망월동 1050번지 미사강변도시18단지 1811동 2003호","indutype":"학원 - 기타 교육기관","category":"study"}]},{"lat":"37.561510032","long":"127.19981662","imageIndex":16,"items":[{"name":"아소비","tel":"","addr":"경기도 하남시 망월동 1170번지 미사강변효성해링턴플레이스엔에이치에프 2912동 905호","indutype":"학원 - 기타 교육기관","category":"study"},{"name":"해링턴 공부방","tel":"031-795-1638","addr":"경기도 하남시 망월동 1170번지 미사강변효성해링턴플레이스엔에이치에프 2910동 2103호","indutype":"학원 - 기타 교육기관","category":"study"}]},{"lat":"37.575454803","long":"127.19023117","imageIndex":16,"items":[{"name":"아트 스튜디오 마음 미술학원","tel":"031-794-0314","addr":"경기도 하남시 망월동 845-7번지 1층","indutype":"학원 - 예·체능계학원","category":"study"}]},{"lat":"37.563479148","long":"127.19681111","imageIndex":16,"items":[{"name":"어린 가우디 미술학원","tel":"031-791-8066","addr":"경기도 하남시 망월동 1140번지","indutype":"학원 - 예·체능계학원","category":"study"},{"name":"연세 본 학원","tel":"02-0000-0000","addr":"경기도 하남시 망월동 1140번지 미사강변도시씨3단지 상가동 205호","indutype":"학원 - 보습학원","category":"study"},{"name":"용인대 성원 태권도","tel":"031-796-1051","addr":"경기도 하남시 망월동 1140번지 상가 222,223호","indutype":"학원 - 예·체능계학원","category":"study"}]},{"lat":"37.56673309","long":"127.19036779","imageIndex":16,"items":[{"name":"어울림연기뮤지컬아카데미교습소","tel":"","addr":"경기도 하남시 망월동 1081번지 효성해링턴타워 2073호","indutype":"학원 - 예·체능계학원","category":"study"}]},{"lat":"37.561537831","long":"127.19386338","imageIndex":16,"items":[{"name":"에스엠(SM) 클래식음악학원","tel":"031-795-3034","addr":"경기도 하남시 망월동 1134-1번지 에스비비즈타워 505호,506호","indutype":"학원 - 예·체능계학원","category":"study"},{"name":"해 아카데미","tel":"070-4661-0401","addr":"경기도 하남시 망월동 1134-1번지 에스비비즈타워 3층 306호","indutype":"학원 - 기능학원","category":"study"}]},{"lat":"37.57473359","long":"127.19050105","imageIndex":16,"items":[{"name":"오선생 국어 논술","tel":"031-795-6611","addr":"경기도 하남시 망월동 870-7번지 제이제이빌딩 2층 202호","indutype":"학원 - 보습학원","category":"study"}]},{"lat":"37.570952042","long":"127.19450999","imageIndex":16,"items":[{"name":"주식회사 쥬라리움","tel":"070-4216-7542","addr":"경기도 하남시 망월동 941번지","indutype":"학원 - 기타 교육기관","category":"study"}]},{"lat":"37.563319601","long":"127.19520349","imageIndex":16,"items":[{"name":"책먹는미술관미술학원","tel":"","addr":"경기도 하남시 망월동 1129-4번지 에코타워 908호","indutype":"학원 - 예·체능계학원","category":"study"},{"name":"피플미술학원","tel":"031-794-4048","addr":"경기도 하남시 망월동 1129-4번지 에코타워 503호","indutype":"학원 - 예·체능계학원","category":"study"}]},{"lat":"37.560065571","long":"127.19611188","imageIndex":16,"items":[{"name":"큰나무어린이집[아이행복]","tel":"031-795-4962","addr":"경기도 하남시 망월동 1162번지 미사강변도시A28블럭관리동","indutype":"학원 - 유아원","category":"study"},{"name":"힘찬태권도","tel":"031-791-9977","addr":"경기도 하남시 망월동 1162번지 미사강변도시28단지 상가동 202호","indutype":"학원 - 예·체능계학원","category":"study"}]},{"lat":"37.570620917","long":"127.18159364","imageIndex":16,"items":[{"name":"킨더음악학원","tel":"031-791-9906","addr":"경기도 하남시 망월동 1015-6번지 1층","indutype":"학원 - 예·체능계학원","category":"study"}]},{"lat":"37.559785598","long":"127.18520078","imageIndex":16,"items":[{"name":"트레져스영어학원","tel":"031-791-1195","addr":"경기도 하남시 망월동 1066-1번지 광장프라자 301호","indutype":"학원 - 외국어학원","category":"study"}]},{"lat":"37.568897812","long":"127.18306102","imageIndex":16,"items":[{"name":"프랑스어 전문 아카데미","tel":"031-285-5582","addr":"경기도 하남시 망월동 1002-6번지 201호","indutype":"학원 - 외국어학원","category":"study"}]}]