[{"lat":"37.005388532","long":"127.2690417","imageIndex":17,"items":[{"name":"(자)비봉관광여행사","tel":"031-676-5945","addr":"경기도 안성시 인지동 390-35번지","indutype":"여행 - 관광여행","category":"other"}]},{"lat":"37.005940416","long":"127.26804369","imageIndex":17,"items":[{"name":"(주)서원","tel":"031-677-9945","addr":"경기도 안성시 인지동 7번지 골든캐슬타워","indutype":"용역 서비스 - 가례서비스업","category":"other"},{"name":"세븐일레븐안성골든캐슬점","tel":"031-1577-0711","addr":"경기도 안성시 인지동 7번지 골든캐슬타워 124-1,125호","indutype":"유통업 영리 - 편 의 점","category":"other"},{"name":"소하 악세사리","tel":"031-949-5835","addr":"경기도 안성시 인지동 7번지 골든캐슬타워 108호","indutype":"신변잡화 - 액세서리","category":"other"},{"name":"위드유투어","tel":"031-672-6003","addr":"경기도 안성시 인지동 7번지 골든캐슬타워 127호","indutype":"여행 - 관광여행","category":"other"},{"name":"코오롱인더스트리(주)FNC부문안성세이브프","tel":"031-8057-0220","addr":"경기도 안성시 인지동 7번지 3층 202,205,207,208호","indutype":"의류 - 정장","category":"other"}]},{"lat":"37.004604736","long":"127.26898279","imageIndex":17,"items":[{"name":"GS25안성인지점","tel":"","addr":"경기도 안성시 인지동 385-22번지","indutype":"유통업 영리 - 편 의 점","category":"other"},{"name":"신라철망앵글","tel":"031-676-1683","addr":"경기도 안성시 인지동 385-22번지","indutype":"건축자재 - 목재·석재·철물","category":"other"}]},{"lat":"37.003272577","long":"127.268349","imageIndex":17,"items":[{"name":"경기공구","tel":"031-674-1620","addr":"경기도 안성시 인지동 449-8번지 상가","indutype":"기타 - 기계공구","category":"other"}]},{"lat":"37.004243859","long":"127.26918376","imageIndex":17,"items":[{"name":"공주마을","tel":"031-677-6060","addr":"경기도 안성시 인지동 384-17번지 2층","indutype":"회원제형태 - 기타4","category":"other"}]},{"lat":"37.005082172","long":"127.26904063","imageIndex":17,"items":[{"name":"관음만물사","tel":"031-676-4828","addr":"경기도 안성시 인지동 385-5번지","indutype":"신변잡화 - 기념품점","category":"other"},{"name":"김공구종합상사","tel":"031-674-0989","addr":"경기도 안성시 인지동 385-5번지","indutype":"기타 - 기계공구","category":"other"}]},{"lat":"37.003722729","long":"127.26851909","imageIndex":17,"items":[{"name":"광성건설공구","tel":"031-671-0414","addr":"경기도 안성시 인지동 445-1번지","indutype":"용역 서비스 - 기타용역서비스","category":"other"},{"name":"더존스케일","tel":"031-677-3341","addr":"경기도 안성시 인지동 445-1번지","indutype":"전기제품 - 기타전기제품","category":"other"},{"name":"동산공인중개사사무소","tel":"031-673-0089","addr":"경기도 안성시 인지동 445-1번지 1층","indutype":"용역 서비스 - 부동산 중개·임대","category":"other"},{"name":"안성해정관광여행사","tel":"031-675-7550","addr":"경기도 안성시 인지동 445-1번지","indutype":"여행 - 관광여행","category":"other"}]},{"lat":"37.004303571","long":"127.27067821","imageIndex":17,"items":[{"name":"국제전기","tel":"031-677-1301","addr":"경기도 안성시 인지동 106번지","indutype":"용역 서비스 - 기타용역서비스","category":"other"},{"name":"국제전기조명공사","tel":"031-677-1300","addr":"경기도 안성시 인지동 106번지","indutype":"건축자재 - 조명기구","category":"other"},{"name":"삼천리자전거 중앙점","tel":"031-673-3022","addr":"경기도 안성시 인지동 106번지","indutype":"레져용품 - 스포츠·레져용품","category":"other"}]},{"lat":"37.00569459","long":"127.26917759","imageIndex":17,"items":[{"name":"금성펌프","tel":"031-675-4847","addr":"경기도 안성시 인지동 2번지","indutype":"건축자재 - 보일러·펌프·샷시","category":"other"},{"name":"윌로펌프안성대리점","tel":"031-675-9878","addr":"경기도 안성시 인지동 2번지","indutype":"건축자재 - 보일러·펌프·샷시","category":"other"}]},{"lat":"37.00469527","long":"127.26879211","imageIndex":17,"items":[{"name":"대박장터","tel":"031-677-1279","addr":"경기도 안성시 인지동 419-9번지","indutype":"신변잡화 - 기타잡화","category":"other"}]},{"lat":"37.004271571","long":"127.26888052","imageIndex":17,"items":[{"name":"대신종묘농약사","tel":"031-677-2307","addr":"경기도 안성시 인지동 427-4번지","indutype":"농업 - 비료,사료,종자","category":"other"}]},{"lat":"37.004853587","long":"127.26648949","imageIndex":17,"items":[{"name":"동인병원 장례식장","tel":"070-4247-2805","addr":"경기도 안성시 인지동 411번지 지하1층","indutype":"용역 서비스 - 가례서비스업","category":"other"}]},{"lat":"37.0049935","long":"127.26839992","imageIndex":17,"items":[{"name":"디오시스템","tel":"031-671-0229","addr":"경기도 안성시 인지동 462-7번지","indutype":"사무통신 - 컴퓨터","category":"other"}]},{"lat":"37.00583068","long":"127.26876236","imageIndex":17,"items":[{"name":"럭키지물","tel":"031-673-3190","addr":"경기도 안성시 인지동 4번지","indutype":"직물 - 카페트,커튼,천막,지물","category":"other"}]},{"lat":"37.005554689","long":"127.26726713","imageIndex":17,"items":[{"name":"멍멍이와 야옹이","tel":"031-675-1717","addr":"경기도 안성시 인지동 456-3번지","indutype":"문화.취미 - 애완동물","category":"other"},{"name":"한국농기계","tel":"031-674-1124","addr":"경기도 안성시 인지동 456-3번지","indutype":"농업 - 농기계","category":"other"}]},{"lat":"37.005385349","long":"127.27045731","imageIndex":17,"items":[{"name":"미니스톱 안성인지점","tel":"031-1577-9621","addr":"경기도 안성시 인지동 364번지","indutype":"유통업 영리 - 편 의 점","category":"other"}]},{"lat":"37.004856226","long":"127.26934319","imageIndex":17,"items":[{"name":"미랜드","tel":"031-677-3050","addr":"경기도 안성시 인지동 385-21번지","indutype":"건축자재 - 인테리어전문","category":"other"}]},{"lat":"37.004412636","long":"127.2702629","imageIndex":17,"items":[{"name":"별사진관","tel":"031-675-2852","addr":"경기도 안성시 인지동 399번지","indutype":"광학제품 - 사진관","category":"other"}]},{"lat":"37.0057978","long":"127.26734662","imageIndex":17,"items":[{"name":"보광당","tel":"031-673-4593","addr":"경기도 안성시 인지동 352-10번지","indutype":"신변잡화 - 시계","category":"other"},{"name":"씨유안성인지로점","tel":"031-674-4298","addr":"경기도 안성시 인지동 352-10번지 1층","indutype":"유통업 영리 - 편 의 점","category":"other"},{"name":"엔진프라자","tel":"031-677-0949","addr":"경기도 안성시 인지동 352-10","indutype":"기타 - 기계공구","category":"other"}]},{"lat":"37.004885172","long":"127.26848943","imageIndex":17,"items":[{"name":"삼화페인트대리점안성종합페인트","tel":"031-673-0707","addr":"경기도 안성시 인지동 419-5번지","indutype":"건축자재 - 페인트","category":"other"}]},{"lat":"37.005243101","long":"127.26960294","imageIndex":17,"items":[{"name":"서울천막사","tel":"031-675-6092","addr":"경기도 안성시 인지동 390번지","indutype":"직물 - 카페트,커튼,천막,지물","category":"other"},{"name":"현대철물","tel":"031-675-3740","addr":"경기도 안성시 인지동 390번지","indutype":"기타 - 기계공구","category":"other"}]},{"lat":"37.005408615","long":"127.26812049","imageIndex":17,"items":[{"name":"성아코리아","tel":"031-672-1172","addr":"경기도 안성시 인지동 390-23번지 1층 101호","indutype":"신변잡화 - 기타잡화","category":"other"}]},{"lat":"37.005635359","long":"127.26745841","imageIndex":17,"items":[{"name":"성창철물건재","tel":"031-677-5989","addr":"경기도 안성시 인지동 352-12번지","indutype":"건축자재 - 기타건축자재","category":"other"}]},{"lat":"37.003745599","long":"127.27037292","imageIndex":17,"items":[{"name":"세븐일레븐안성인지행복점","tel":"","addr":"경기도 안성시 인지동 396-7번지","indutype":"유통업 영리 - 편 의 점","category":"other"}]},{"lat":"37.004468392","long":"127.26951036","imageIndex":17,"items":[{"name":"세븐일레븐안성제일점","tel":"","addr":"경기도 안성시 인지동 384-4번지","indutype":"유통업 영리 - 편 의 점","category":"other"}]},{"lat":"37.004523061","long":"127.26924091","imageIndex":17,"items":[{"name":"신용부동산","tel":"031-677-2345","addr":"경기도 안성시 인지동 385-31번지 1층","indutype":"용역 서비스 - 부동산 중개·임대","category":"other"},{"name":"안성장묘","tel":"031-674-8589","addr":"경기도 안성시 인지동 385-31번지","indutype":"용역 서비스 - 기타용역서비스","category":"other"}]},{"lat":"37.004748023","long":"127.26937651","imageIndex":17,"items":[{"name":"싸다구제","tel":"031-672-1185","addr":"경기도 안성시 인지동 385-20번지 1층","indutype":"의류 - 기타의류","category":"other"}]},{"lat":"37.004830001","long":"127.26898358","imageIndex":17,"items":[{"name":"쎄븐헬스스쿼시","tel":"031-676-4668","addr":"경기도 안성시 인지동 385-43번지","indutype":"회원제형태 - 레져업소","category":"other"},{"name":"온앤오프조명","tel":"031-677-4800","addr":"경기도 안성시 인지동 385-43번지 1층","indutype":"건축자재 - 조명기구","category":"other"}]},{"lat":"37.004881439","long":"127.2701522","imageIndex":17,"items":[{"name":"씨스페이스인지마트","tel":"","addr":"경기도 안성시 인지동 381-1번지","indutype":"유통업 영리 - 편 의 점","category":"other"}]},{"lat":"37.004832414","long":"127.26790502","imageIndex":17,"items":[{"name":"아르페지오","tel":"031-676-0995","addr":"경기도 안성시 인지동 414-5번지","indutype":"직물 - 침구·수예점","category":"other"},{"name":"한국바이오(안성농자재백화점)","tel":"031-677-3938","addr":"경기도 안성시 인지동 414-5번지","indutype":"농업 - 비료,사료,종자","category":"other"},{"name":"한솔주방","tel":"031-675-7778","addr":"경기도 안성시 인지동 414-5,390-52","indutype":"주방용구 - 주방용구","category":"other"}]},{"lat":"37.005078736","long":"127.27056858","imageIndex":17,"items":[{"name":"아리랑비앤비","tel":"031-677-4020","addr":"경기도 안성시 인지동 375-1번지 엘림빌 B동 407호","indutype":"의류 - 정장","category":"other"}]},{"lat":"37.005607074","long":"127.26802006","imageIndex":17,"items":[{"name":"아울렛D.C마트","tel":"031-676-9982","addr":"경기도 안성시 인지동 355-1번지 1층","indutype":"신변잡화 - 기타잡화","category":"other"}]},{"lat":"37.004053072","long":"127.26987966","imageIndex":17,"items":[{"name":"안성농약","tel":"031-677-3445","addr":"경기도 안성시 인지동 398-6번지","indutype":"농업 - 비료,사료,종자","category":"other"}]},{"lat":"37.005271646","long":"127.26892894","imageIndex":17,"items":[{"name":"안성모타","tel":"031-673-4362","addr":"경기도 안성시 인지동 390-61번지 1층","indutype":"기타 - 기계공구","category":"other"}]},{"lat":"37.005195367","long":"127.27079369","imageIndex":17,"items":[{"name":"안성세기냉동","tel":"031-674-2657","addr":"경기도 안성시 인지동 367번지","indutype":"전기제품 - 냉열기기","category":"other"},{"name":"형제가구점","tel":"031-675-6807","addr":"경기도 안성시 인지동 367번지","indutype":"가구 - 일반가구","category":"other"}]},{"lat":"37.00436213","long":"127.2686786","imageIndex":17,"items":[{"name":"안성애견백화점","tel":"031-671-0990","addr":"경기도 안성시 인지동 420-6번지","indutype":"문화.취미 - 애완동물","category":"other"}]},{"lat":"37.005164751","long":"127.26837805","imageIndex":17,"items":[{"name":"안성인삼협동조합","tel":"031-672-2343","addr":"경기도 안성시 인지동 390-20","indutype":"유통업 비영리 - 농,축협 직영매장","category":"other"},{"name":"유림농원","tel":"031-775-7868","addr":"경기도 안성시 인지동 390-20번지","indutype":"농업 - 비료,사료,종자","category":"other"}]},{"lat":"37.004026798","long":"127.26954252","imageIndex":17,"items":[{"name":"안성종합건재","tel":"031-675-2036","addr":"경기도 안성시 인지동 401-5번지","indutype":"건축자재 - 기타건축자재","category":"other"}]},{"lat":"37.004162133","long":"127.26946435","imageIndex":17,"items":[{"name":"안성종합공구","tel":"031-671-3909","addr":"경기도 안성시 인지동 401-7","indutype":"기타 - 기계공구","category":"other"},{"name":"표준환경","tel":"031-677-7070","addr":"경기도 안성시 인지동 401-7","indutype":"용역 서비스 - 기타용역서비스","category":"other"}]},{"lat":"37.004079623","long":"127.27009321","imageIndex":17,"items":[{"name":"안성창미커텐","tel":"031-674-7564","addr":"경기도 안성시 인지동 397-1번지","indutype":"직물 - 카페트,커튼,천막,지물","category":"other"}]},{"lat":"37.00560355","long":"127.26959297","imageIndex":17,"items":[{"name":"안성천막사","tel":"031-675-4612","addr":"경기도 안성시 인지동 360-2번지","indutype":"직물 - 카페트,커튼,천막,지물","category":"other"}]},{"lat":"37.004498018","long":"127.26835326","imageIndex":17,"items":[{"name":"안성행정사","tel":"031-673-7682","addr":"경기도 안성시 인지동 419-2번지","indutype":"용역 서비스 - 법률회계서비스(개인)","category":"other"},{"name":"창조문구사","tel":"031-676-7556","addr":"경기도 안성시 인지동 419-2번지","indutype":"서적문구 - 문구용품","category":"other"}]},{"lat":"37.005103609","long":"127.26751274","imageIndex":17,"items":[{"name":"알파문구센터","tel":"031-675-6277","addr":"경기도 안성시 인지동 414-1번지","indutype":"서적문구 - 문구용품","category":"other"}]},{"lat":"37.004801456","long":"127.26965758","imageIndex":17,"items":[{"name":"에이치피(HP)서비스센터","tel":"031-671-7422","addr":"경기도 안성시 인지동 385-2번지 1층","indutype":"사무통신 - 컴퓨터","category":"other"}]},{"lat":"37.005353371","long":"127.26864835","imageIndex":17,"items":[{"name":"오네뜨패션","tel":"031-676-9891","addr":"경기도 안성시 인지동 390-26번지","indutype":"의류 - 정장","category":"other"},{"name":"한일철물","tel":"031-675-5486","addr":"경기도 안성시 인지동 390-26번지","indutype":"기타 - 기계공구","category":"other"},{"name":"현대종합건재","tel":"031-675-3740","addr":"경기도 안성시 인지동 390-26번지","indutype":"건축자재 - 기타건축자재","category":"other"}]},{"lat":"37.003860197","long":"127.26748596","imageIndex":17,"items":[{"name":"이동자전거","tel":"031-675-8853","addr":"경기도 안성시 인지동 461-39번지","indutype":"레져용품 - 스포츠·레져용품","category":"other"}]},{"lat":"37.004331793","long":"127.27015027","imageIndex":17,"items":[{"name":"이불과창","tel":"031-677-2774","addr":"경기도 안성시 인지동 398-1번지","indutype":"직물 - 침구·수예점","category":"other"}]},{"lat":"37.005409844","long":"127.26756998","imageIndex":17,"items":[{"name":"진테크","tel":"031-233-8380","addr":"경기도 안성시 인지동 409-4번지","indutype":"전기제품 - 기타전기제품","category":"other"}]},{"lat":"37.004330099","long":"127.2668809","imageIndex":17,"items":[{"name":"진플라워","tel":"031-677-9838","addr":"경기도 안성시 인지동 461-33번지","indutype":"문화.취미 - 화원","category":"other"}]},{"lat":"37.004216398","long":"127.26937466","imageIndex":17,"items":[{"name":"컴네트","tel":"031-673-9119","addr":"경기도 안성시 인지동 400-5번지","indutype":"사무통신 - 컴퓨터","category":"other"},{"name":"컴네트/특별IBM","tel":"031-673-9119","addr":"경기도 안성시 인지동 400-5번지","indutype":"사무통신 - 컴퓨터","category":"other"}]},{"lat":"37.005804202","long":"127.26851509","imageIndex":17,"items":[{"name":"코오롱인테리어","tel":"031-672-6248","addr":"경기도 안성시 인지동 356-4번지","indutype":"직물 - 카페트,커튼,천막,지물","category":"other"}]},{"lat":"37.0042983","long":"127.26901543","imageIndex":17,"items":[{"name":"형제세탁소-양복점","tel":"031-675-3632","addr":"경기도 안성시 인지동 384-18번지","indutype":"수리서비스 - 세탁소","category":"other"}]},{"lat":"37.005605541","long":"127.2687054","imageIndex":8,"items":[{"name":"경희한의원","tel":"031-675-2041","addr":"경기도 안성시 인지동 6번지","indutype":"의원 - 한의원","category":"medical"}]},{"lat":"37.005409844","long":"127.26756998","imageIndex":8,"items":[{"name":"광명약국","tel":"031-675-4460","addr":"경기도 안성시 인지동 409-4번지","indutype":"약국 - 약국","category":"medical"},{"name":"황인선소아과","tel":"031-671-1771","addr":"경기도 안성시 인지동 409-4번지","indutype":"의원 - 의원","category":"medical"}]},{"lat":"37.005243101","long":"127.26960294","imageIndex":8,"items":[{"name":"남양동물병원","tel":"031-676-4465","addr":"경기도 안성시 인지동 390번지","indutype":"기타의료기관 - 동물병원","category":"medical"}]},{"lat":"37.004832414","long":"127.26790502","imageIndex":8,"items":[{"name":"농민약국","tel":"031-673-9760","addr":"경기도 안성시 인지동 414-5번지","indutype":"약국 - 약국","category":"medical"},{"name":"안성의료소비자생활협동조합","tel":"031-675-0227","addr":"경기도 안성시 인지동 414-5번지","indutype":"의원 - 의원","category":"medical"}]},{"lat":"37.005356081","long":"127.26743497","imageIndex":8,"items":[{"name":"동인약국","tel":"031-676-5301","addr":"경기도 안성시 인지동 410-10번지","indutype":"약국 - 약국","category":"medical"}]},{"lat":"37.004549033","long":"127.26971287","imageIndex":8,"items":[{"name":"발효명가 도원한의원","tel":"031-677-8760","addr":"경기도 안성시 인지동 384-2번지","indutype":"의원 - 한의원","category":"medical"}]},{"lat":"37.005607074","long":"127.26802006","imageIndex":8,"items":[{"name":"성가의원","tel":"031-676-4057","addr":"경기도 안성시 인지동 355-1번지","indutype":"의원 - 의원","category":"medical"}]},{"lat":"37.006022389","long":"127.26765075","imageIndex":8,"items":[{"name":"안성시장약국","tel":"031-676-5808","addr":"경기도 안성시 인지동 8-1번지","indutype":"약국 - 약국","category":"medical"},{"name":"용한의원","tel":"031-676-7525","addr":"경기도 안성시 인지동 8-1번지","indutype":"의원 - 한의원","category":"medical"}]},{"lat":"37.004498018","long":"127.26835326","imageIndex":8,"items":[{"name":"우리동물병원","tel":"031-675-0722","addr":"경기도 안성시 인지동 419-2번지","indutype":"기타의료기관 - 동물병원","category":"medical"}]},{"lat":"37.005635359","long":"127.26745841","imageIndex":8,"items":[{"name":"우리의원","tel":"031-671-7511","addr":"경기도 안성시 인지동 352-12번지","indutype":"의원 - 의원","category":"medical"},{"name":"참사랑약국","tel":"031-671-3885","addr":"경기도 안성시 인지동 352-12번지 1층 B호","indutype":"약국 - 약국","category":"medical"},{"name":"참사랑약국","tel":"031-671-3885","addr":"경기도 안성시 인지동 352-12번지 1층 B호","indutype":"약국 - 약국","category":"medical"}]},{"lat":"37.005216448","long":"127.26943432","imageIndex":8,"items":[{"name":"우석동물병원","tel":"031-676-3010","addr":"경기도 안성시 인지동 388-1번지","indutype":"기타의료기관 - 동물병원","category":"medical"}]},{"lat":"37.004853587","long":"127.26648949","imageIndex":8,"items":[{"name":"의료법인안민의료재단","tel":"031-677-0521","addr":"경기도 안성시 인지동 411번지","indutype":"의원 - 의원","category":"medical"}]},{"lat":"37.005222098","long":"127.26690646","imageIndex":8,"items":[{"name":"의료법인안민의료재단","tel":"031-677-0300","addr":"경기도 안성시 인지동 413번지","indutype":"병원 - 병원","category":"medical"}]},{"lat":"37.004830001","long":"127.26898358","imageIndex":8,"items":[{"name":"인지약국","tel":"031-674-2004","addr":"경기도 안성시 인지동 385-43번지","indutype":"약국 - 약국","category":"medical"}]},{"lat":"37.004548604","long":"127.26990386","imageIndex":8,"items":[{"name":"좋은치과의원","tel":"031-673-7522","addr":"경기도 안성시 인지동 384-12번지","indutype":"의원 - 치과의원","category":"medical"}]},{"lat":"37.005385349","long":"127.27045731","imageIndex":13,"items":[{"name":"고고미용실","tel":"031-675-6198","addr":"경기도 안성시 인지동 364번지","indutype":"보건위생 - 미용원","category":"beauty"}]},{"lat":"37.005328373","long":"127.26773822","imageIndex":13,"items":[{"name":"김희숙 미용실","tel":"031-673-0114","addr":"경기도 안성시 인지동 390-59번지","indutype":"보건위생 - 미용원","category":"beauty"}]},{"lat":"37.006022389","long":"127.26765075","imageIndex":13,"items":[{"name":"누가의료기안성점","tel":"031-677-6989","addr":"경기도 안성시 인지동 8-1번지 5층","indutype":"보건위생 - 의료용품","category":"beauty"}]},{"lat":"37.00569459","long":"127.26917759","imageIndex":13,"items":[{"name":"돌봄의료기","tel":"031-676-2669","addr":"경기도 안성시 인지동 2번지","indutype":"보건위생 - 의료용품","category":"beauty"}]},{"lat":"37.004885172","long":"127.26848943","imageIndex":13,"items":[{"name":"라온스토리","tel":"031-677-0346","addr":"경기도 안성시 인지동 419-5번지 2층","indutype":"보건위생 - 화장품","category":"beauty"}]},{"lat":"37.004380955","long":"127.26831915","imageIndex":13,"items":[{"name":"머리하는날","tel":"031-671-2389","addr":"경기도 안성시 인지동 419-6번지","indutype":"보건위생 - 미용원","category":"beauty"}]},{"lat":"37.004548604","long":"127.26990386","imageIndex":13,"items":[{"name":"미소치과기공소","tel":"031-671-3255","addr":"경기도 안성시 인지동 384-12번지","indutype":"보건위생 - 의료용품","category":"beauty"}]},{"lat":"37.004245168","long":"127.26859955","imageIndex":13,"items":[{"name":"민선화미용실","tel":"","addr":"경기도 안성시 인지동 426-23번지","indutype":"보건위생 - 미용원","category":"beauty"}]},{"lat":"37.004466556","long":"127.26629716","imageIndex":13,"items":[{"name":"벨루스 퀸","tel":"","addr":"경기도 안성시 인지동 461-4번지","indutype":"보건위생 - 화장품","category":"beauty"}]},{"lat":"37.005667104","long":"127.26937972","imageIndex":13,"items":[{"name":"뷰티헤어라인","tel":"031-674-2464","addr":"경기도 안성시 인지동 1번지","indutype":"보건위생 - 미용원","category":"beauty"}]},{"lat":"37.005548906","long":"127.26985118","imageIndex":13,"items":[{"name":"실버미용미장원","tel":"031-677-7709","addr":"경기도 안성시 인지동 361-1번지","indutype":"보건위생 - 미용원","category":"beauty"}]},{"lat":"37.004498018","long":"127.26835326","imageIndex":13,"items":[{"name":"여주","tel":"031-672-5445","addr":"경기도 안성시 인지동 419-2번지","indutype":"보건위생 - 화장품","category":"beauty"}]},{"lat":"37.003943401","long":"127.2705646","imageIndex":13,"items":[{"name":"올리브헤어","tel":"031-672-7644","addr":"경기도 안성시 인지동 111-5번지 1층","indutype":"보건위생 - 미용원","category":"beauty"}]},{"lat":"37.005940416","long":"127.26804369","imageIndex":13,"items":[{"name":"유신 헤어샵","tel":"031-674-0066","addr":"경기도 안성시 인지동 7번지 골든캐슬타워 105호","indutype":"보건위생 - 미용원","category":"beauty"}]},{"lat":"37.004801456","long":"127.26965758","imageIndex":13,"items":[{"name":"이데아미용실","tel":"031-674-5105","addr":"경기도 안성시 인지동 385-2번지","indutype":"보건위생 - 미용원","category":"beauty"}]},{"lat":"37.005027301","long":"127.26939996","imageIndex":13,"items":[{"name":"준헤어샵","tel":"031-677-2961","addr":"경기도 안성시 인지동 385-16번지 1층","indutype":"보건위생 - 미용원","category":"beauty"}]},{"lat":"37.004523389","long":"127.26909486","imageIndex":13,"items":[{"name":"하루","tel":"031-672-7644","addr":"경기도 안성시 인지동 385-23번지","indutype":"보건위생 - 미용원","category":"beauty"}]},{"lat":"37.005353371","long":"127.26864835","imageIndex":13,"items":[{"name":"해금미용실","tel":"031-673-5096","addr":"경기도 안성시 인지동 390-26번지","indutype":"보건위생 - 미용원","category":"beauty"}]},{"lat":"37.004276844","long":"127.2705433","imageIndex":13,"items":[{"name":"허유정미용실","tel":"031-673-1411","addr":"경기도 안성시 인지동 106-1번지","indutype":"보건위생 - 미용원","category":"beauty"}]},{"lat":"37.005940416","long":"127.26804369","imageIndex":13,"items":[{"name":"골든당구장","tel":"031-673-7393","addr":"경기도 안성시 인지동 7번지 골든캐슬타워 201호","indutype":"레저업소 - 당 구 장","category":"leisure"}]},{"lat":"37.004190803","long":"127.26873418","imageIndex":13,"items":[{"name":"모모노래방","tel":"031-675-5700","addr":"경기도 안성시 인지동 427-5번지","indutype":"레저업소 - 노 래 방","category":"leisure"}]},{"lat":"37.004412636","long":"127.2702629","imageIndex":13,"items":[{"name":"서울노래방","tel":"031-673-7740","addr":"경기도 안성시 인지동 399번지","indutype":"레저업소 - 노 래 방","category":"leisure"}]},{"lat":"37.005548906","long":"127.26985118","imageIndex":13,"items":[{"name":"스타노래연습장","tel":"031-677-7970","addr":"경기도 안성시 인지동 361-1번지","indutype":"레저업소 - 노 래 방","category":"leisure"}]},{"lat":"37.005467128","long":"127.27015425","imageIndex":13,"items":[{"name":"싱글벙글 노래연습장","tel":"031-676-0048","addr":"경기도 안성시 인지동 362-1번지","indutype":"레저업소 - 노 래 방","category":"leisure"}]},{"lat":"37.004299785","long":"127.26835257","imageIndex":4,"items":[{"name":"광식이네포장마차","tel":"031-674-8832","addr":"경기도 안성시 인지동 420-3번지","indutype":"일반휴게음식 - 일반한식","category":"restaurant"}]},{"lat":"37.004079623","long":"127.27009321","imageIndex":4,"items":[{"name":"교촌치킨안성2호점","tel":"031-675-8886","addr":"경기도 안성시 인지동 397-1","indutype":"일반휴게음식 - 주점","category":"restaurant"}]},{"lat":"37.003998072","long":"127.27029516","imageIndex":4,"items":[{"name":"국일족발","tel":"031-677-2335","addr":"경기도 안성시 인지동 396-2번지 (1층 나)","indutype":"일반휴게음식 - 일반한식","category":"restaurant"}]},{"lat":"37.005135353","long":"127.26943404","imageIndex":4,"items":[{"name":"길자네차와음악","tel":"031-673-1889","addr":"경기도 안성시 인지동 388-2번지","indutype":"일반휴게음식 - 일반한식","category":"restaurant"}]},{"lat":"37.004523389","long":"127.26909486","imageIndex":4,"items":[{"name":"나들이 꼬마김밥","tel":"031-672-6252","addr":"경기도 안성시 인지동 385-23번지","indutype":"일반휴게음식 - 일반한식","category":"restaurant"}]},{"lat":"37.00377187","long":"127.27071005","imageIndex":4,"items":[{"name":"노을","tel":"031-674-2364","addr":"경기도 안성시 인지동 111-6번지","indutype":"일반휴게음식 - 일반한식","category":"restaurant"},{"name":"불꽃","tel":"031-671-2956","addr":"경기도 안성시 인지동 111-6번지","indutype":"일반휴게음식 - 주점","category":"restaurant"}]},{"lat":"37.004832414","long":"127.26790502","imageIndex":4,"items":[{"name":"다래궁","tel":"031-671-8279","addr":"경기도 안성시 인지동 414-5번지","indutype":"일반휴게음식 - 중국식","category":"restaurant"},{"name":"다래궁","tel":"031-671-1179","addr":"경기도 안성시 인지동 414-5번지","indutype":"일반휴게음식 - 중국식","category":"restaurant"}]},{"lat":"37.003660535","long":"127.26812565","imageIndex":4,"items":[{"name":"대교정육점식당","tel":"031-674-2768","addr":"경기도 안성시 인지동 449-1번지","indutype":"일반휴게음식 - 일반한식","category":"restaurant"}]},{"lat":"37.003915236","long":"127.26704799","imageIndex":4,"items":[{"name":"대성식당","tel":"031-672-5005","addr":"경기도 안성시 인지동 461-19번지","indutype":"일반휴게음식 - 일반한식","category":"restaurant"}]},{"lat":"37.005133432","long":"127.2702879","imageIndex":4,"items":[{"name":"둥글둥글","tel":"031-671-3730","addr":"경기도 안성시 인지동 380번지","indutype":"일반휴게음식 - 일반한식","category":"restaurant"}]},{"lat":"37.005940416","long":"127.26804369","imageIndex":4,"items":[{"name":"또래오래 (안성2동)","tel":"031-675-9992","addr":"경기도 안성시 인지동 7번지 골든캐슬타워 110호","indutype":"일반휴게음식 - 스넥","category":"restaurant"},{"name":"마라순코우","tel":"","addr":"경기도 안성시 인지동 7번지 골든캐슬타워 109호","indutype":"일반휴게음식 - 중국식","category":"restaurant"},{"name":"미니펍 노리키친","tel":"031-671-5988","addr":"경기도 안성시 인지동 7번지 골든캐슬타워 1층 117,118호 미니펍 노리키친","indutype":"일반휴게음식 - 서양음식","category":"restaurant"},{"name":"시장파닭","tel":"031-672-1147","addr":"경기도 안성시 인지동 7번지 외4필지 골든캐슬타워","indutype":"일반휴게음식 - 일반한식","category":"restaurant"},{"name":"안성푸줏간","tel":"031-526-0093","addr":"경기도 안성시 인지동 7번지 골든캐슬타워 1층 101~103호","indutype":"일반휴게음식 - 일반한식","category":"restaurant"},{"name":"안성푸줏간","tel":"031-000-0000","addr":"경기도 안성시 인지동 7번지 1층 101,102,103호","indutype":"일반휴게음식 - 일반한식","category":"restaurant"},{"name":"영진칼국수","tel":"031-677-5758","addr":"경기도 안성시 인지동 7번지 골든캐슬타워","indutype":"일반휴게음식 - 일반한식","category":"restaurant"},{"name":"유신코드 카페(Code Cafe)","tel":"031-674-0060","addr":"경기도 안성시 인지동 7번지 골든캐슬타워 119호,120호","indutype":"일반휴게음식 - 서양음식","category":"restaurant"},{"name":"포메인(안성점)","tel":"031-674-2100","addr":"경기도 안성시 인지동 7번지 골든캐슬타워 121호","indutype":"일반휴게음식 - 서양음식","category":"restaurant"}]},{"lat":"37.005606095","long":"127.26845823","imageIndex":4,"items":[{"name":"로망스","tel":"031-677-3739","addr":"경기도 안성시 인지동 356-5번지","indutype":"일반휴게음식 - 주점","category":"restaurant"}]},{"lat":"37.004942943","long":"127.27084898","imageIndex":4,"items":[{"name":"미양먹거리","tel":"031-675-8905","addr":"경기도 안성시 인지동 376-2번지","indutype":"일반휴게음식 - 일반한식","category":"restaurant"}]},{"lat":"37.005408615","long":"127.26812049","imageIndex":4,"items":[{"name":"밥보다 맛있는 떡볶이방이얌","tel":"031-672-8233","addr":"경기도 안성시 인지동 390-23번지 1층","indutype":"일반휴게음식 - 스넥","category":"restaurant"}]},{"lat":"37.005467128","long":"127.27015425","imageIndex":4,"items":[{"name":"보쌈보리밥","tel":"031-671-0503","addr":"경기도 안성시 인지동 362-1번지","indutype":"일반휴게음식 - 일반한식","category":"restaurant"}]},{"lat":"37.005548906","long":"127.26985118","imageIndex":4,"items":[{"name":"본가낙지마당","tel":"031-674-2387","addr":"경기도 안성시 인지동 361-1번지","indutype":"일반휴게음식 - 일반한식","category":"restaurant"}]},{"lat":"37.005195367","long":"127.27079369","imageIndex":4,"items":[{"name":"사거리숯불갈비","tel":"031-675-3944","addr":"경기도 안성시 인지동 367번지","indutype":"일반휴게음식 - 일반한식","category":"restaurant"}]},{"lat":"37.005442217","long":"127.26921041","imageIndex":4,"items":[{"name":"사랑방음식이야기","tel":"031-671-3065","addr":"경기도 안성시 인지동 390-14번지 1층","indutype":"일반휴게음식 - 일반한식","category":"restaurant"}]},{"lat":"37.004468392","long":"127.26951036","imageIndex":4,"items":[{"name":"솜씨만두","tel":"031-676-1576","addr":"경기도 안성시 인지동 384-4번지","indutype":"일반휴게음식 - 일반한식","category":"restaurant"}]},{"lat":"37.005353371","long":"127.26864835","imageIndex":4,"items":[{"name":"송림식당","tel":"031-675-6995","addr":"경기도 안성시 인지동 390-26","indutype":"일반휴게음식 - 일반한식","category":"restaurant"}]},{"lat":"37.004801456","long":"127.26965758","imageIndex":4,"items":[{"name":"아가타 (AGATHA)","tel":"031-674-1002","addr":"경기도 안성시 인지동 385-2번지 1층","indutype":"일반휴게음식 - 주점","category":"restaurant"}]},{"lat":"37.005052388","long":"127.27026514","imageIndex":4,"items":[{"name":"야간포차","tel":"031-677-4778","addr":"경기도 안성시 인지동 381-7번지","indutype":"일반휴게음식 - 일반한식","category":"restaurant"},{"name":"야간포차","tel":"031-677-4778","addr":"경기도 안성시 인지동 381-7번지","indutype":"일반휴게음식 - 주점","category":"restaurant"}]},{"lat":"37.004881915","long":"127.26590536","imageIndex":4,"items":[{"name":"약산골","tel":"031-674-1771","addr":"경기도 안성시 인지동 461번지","indutype":"일반휴게음식 - 일반한식","category":"restaurant"}]},{"lat":"37.00530476","long":"127.27023232","imageIndex":4,"items":[{"name":"양촌리 바지락칼국수 막걸리와 빈대떡","tel":"031-675-3359","addr":"경기도 안성시 인지동 390-6번지","indutype":"일반휴게음식 - 일반한식","category":"restaurant"}]},{"lat":"37.004856226","long":"127.26934319","imageIndex":4,"items":[{"name":"엄마해장국","tel":"031-674-8825","addr":"경기도 안성시 인지동 385-21번지","indutype":"일반휴게음식 - 일반한식","category":"restaurant"}]},{"lat":"37.004660409","long":"127.26826395","imageIndex":4,"items":[{"name":"연탄구이삼겹살과해장국","tel":"031-676-2496","addr":"경기도 안성시 인지동 462-1번지 세종빌딩 1층 우측호","indutype":"일반휴게음식 - 일반한식","category":"restaurant"}]},{"lat":"37.0057978","long":"127.26734662","imageIndex":4,"items":[{"name":"옛날통닭","tel":"031-676-8870","addr":"경기도 안성시 인지동 352-10번지","indutype":"일반휴게음식 - 스넥","category":"restaurant"},{"name":"황우해장국","tel":"031-675-3491","addr":"경기도 안성시 인지동 352-10","indutype":"일반휴게음식 - 일반한식","category":"restaurant"}]},{"lat":"37.005494463","long":"127.27001952","imageIndex":4,"items":[{"name":"오흥생고기식당","tel":"031-675-6058","addr":"경기도 안성시 인지동 362-2번지","indutype":"일반휴게음식 - 일반한식","category":"restaurant"}]},{"lat":"37.004195439","long":"127.26665574","imageIndex":4,"items":[{"name":"우리식당","tel":"031-674-7327","addr":"경기도 안성시 인지동 461-13번지","indutype":"일반휴게음식 - 일반한식","category":"restaurant"}]},{"lat":"37.004222146","long":"127.27082398","imageIndex":4,"items":[{"name":"우촌정육점식당","tel":"031-675-3314","addr":"경기도 안성시 인지동 464-9","indutype":"일반휴게음식 - 일반한식","category":"restaurant"}]},{"lat":"37.004972733","long":"127.26962447","imageIndex":4,"items":[{"name":"이시공방찻집","tel":"031-675-3378","addr":"경기도 안성시 인지동 385-1번지","indutype":"일반휴게음식 - 일반한식","category":"restaurant"}]},{"lat":"37.004881439","long":"127.2701522","imageIndex":4,"items":[{"name":"이화식당","tel":"031-672-2269","addr":"경기도 안성시 인지동 381-1번지","indutype":"일반휴게음식 - 일반한식","category":"restaurant"}]},{"lat":"37.005384843","long":"127.27068201","imageIndex":4,"items":[{"name":"일향육개장","tel":"031-674-7576","addr":"경기도 안성시 인지동 366번지","indutype":"일반휴게음식 - 일반한식","category":"restaurant"}]},{"lat":"37.00569459","long":"127.26917759","imageIndex":4,"items":[{"name":"자담치킨","tel":"031-676-9982","addr":"경기도 안성시 인지동 2번지 안성축산업협동조합 인지동지점 A동 1층","indutype":"일반휴게음식 - 스넥","category":"restaurant"},{"name":"포니허","tel":"070-8115-9776","addr":"경기도 안성시 인지동 2번지","indutype":"일반휴게음식 - 서양음식","category":"restaurant"}]},{"lat":"37.005027301","long":"127.26939996","imageIndex":4,"items":[{"name":"정칼국수","tel":"031-677-6388","addr":"경기도 안성시 인지동 385-16번지","indutype":"일반휴게음식 - 일반한식","category":"restaurant"}]},{"lat":"37.00438454","long":"127.27073467","imageIndex":4,"items":[{"name":"조개비","tel":"031-675-2060","addr":"경기도 안성시 인지동 104-1번지 1층","indutype":"일반휴게음식 - 일반한식","category":"restaurant"}]},{"lat":"37.005576266","long":"127.26970522","imageIndex":4,"items":[{"name":"주문진 (입암)막국수","tel":"031-674-2565","addr":"경기도 안성시 인지동 359-7번지 1층","indutype":"일반휴게음식 - 일반한식","category":"restaurant"}]},{"lat":"37.005439843","long":"127.2702665","imageIndex":4,"items":[{"name":"주신푸드","tel":"031-000-0000","addr":"경기도 안성시 인지동 363번지 1층","indutype":"일반휴게음식 - 일반한식","category":"restaurant"}]},{"lat":"37.004412636","long":"127.2702629","imageIndex":4,"items":[{"name":"참새방앗간","tel":"031-675-1356","addr":"경기도 안성시 인지동 399번지","indutype":"일반휴게음식 - 일반한식","category":"restaurant"}]},{"lat":"37.004498018","long":"127.26835326","imageIndex":4,"items":[{"name":"천리향","tel":"031-676-1688","addr":"경기도 안성시 인지동 419-2번지 천리향","indutype":"일반휴게음식 - 일반한식","category":"restaurant"}]},{"lat":"37.004523061","long":"127.26924091","imageIndex":4,"items":[{"name":"함박눈","tel":"031-675-8905","addr":"경기도 안성시 인지동 385-31번지 1층","indutype":"일반휴게음식 - 일반한식","category":"restaurant"}]},{"lat":"37.005082172","long":"127.26904063","imageIndex":4,"items":[{"name":"홈런닭집","tel":"031-672-0692","addr":"경기도 안성시 인지동 385-5번지 홈런닭집","indutype":"일반휴게음식 - 스넥","category":"restaurant"},{"name":"홈런닭집","tel":"031-672-0692","addr":"경기도 안성시 인지동 385-5번지 1층","indutype":"일반휴게음식 - 일반한식","category":"restaurant"}]},{"lat":"37.005078736","long":"127.27056858","imageIndex":4,"items":[{"name":"홍태양 양꼬치","tel":"031-673-6850","addr":"경기도 안성시 인지동 375-1번지","indutype":"일반휴게음식 - 일반한식","category":"restaurant"}]},{"lat":"37.005722603","long":"127.26873951","imageIndex":4,"items":[{"name":"화룡","tel":"031-692-0346","addr":"경기도 안성시 인지동 5번지 2층","indutype":"일반휴게음식 - 중국식","category":"restaurant"}]},{"lat":"37.004190803","long":"127.26873418","imageIndex":4,"items":[{"name":"효자갈비","tel":"031-671-9393","addr":"경기도 안성시 인지동 427-5번지","indutype":"일반휴게음식 - 일반한식","category":"restaurant"}]},{"lat":"37.003803473","long":"127.26867666","imageIndex":0,"items":[{"name":"기현카센타","tel":"031-677-1213","addr":"경기도 안성시 인지동 444-2","indutype":"자동차정비 유지 - 자동차정비","category":"car"}]},{"lat":"37.005103609","long":"127.26751274","imageIndex":0,"items":[{"name":"인지세차장","tel":"031-674-8550","addr":"경기도 안성시 인지동 414-1번지","indutype":"자동차정비 유지 - 세차장","category":"car"}]},{"lat":"37.003660535","long":"127.26812565","imageIndex":7,"items":[{"name":"대교정육점","tel":"031-674-2768","addr":"경기도 안성시 인지동 449-1번지","indutype":"음료식품 - 정육점","category":"food"},{"name":"안성제분소","tel":"031-673-0855","addr":"경기도 안성시 인지동 449-1번지 안성제분소","indutype":"음료식품 - 제과점","category":"food"}]},{"lat":"37.004523061","long":"127.26924091","imageIndex":7,"items":[{"name":"대진농산","tel":"031-676-3280","addr":"경기도 안성시 인지동 385-31번지","indutype":"음료식품 - 농·축·수산품","category":"food"}]},{"lat":"37.004330099","long":"127.2668809","imageIndex":7,"items":[{"name":"먹보네","tel":"031-677-9838","addr":"경기도 안성시 인지동 461-33번지","indutype":"음료식품 - 농·축·수산품","category":"food"}]},{"lat":"37.004498018","long":"127.26835326","imageIndex":7,"items":[{"name":"명품주류","tel":"031-677-3250","addr":"경기도 안성시 인지동 419-2번지","indutype":"음료식품 - 기타음료식품","category":"food"}]},{"lat":"37.005135353","long":"127.26943404","imageIndex":7,"items":[{"name":"민경이네","tel":"00-0000-00","addr":"경기도 안성시 인지동 388-2번지","indutype":"음료식품 - 농·축·수산품","category":"food"}]},{"lat":"37.004830001","long":"127.26898358","imageIndex":7,"items":[{"name":"바른영양","tel":"031-000-0000","addr":"경기도 안성시 인지동 385-43번지 1층","indutype":"건강식품 - 기타건강식품","category":"food"}]},{"lat":"37.004245168","long":"127.26859955","imageIndex":7,"items":[{"name":"복인당","tel":"031-675-8382","addr":"경기도 안성시 인지동 426-23번지","indutype":"음료식품 - 기타음료식품","category":"food"},{"name":"우리동네 담뱃잎 가게","tel":"031-1111-1111","addr":"경기도 안성시 인지동 426-23번지 1층","indutype":"음료식품 - 기타음료식품","category":"food"}]},{"lat":"37.005606095","long":"127.26845823","imageIndex":7,"items":[{"name":"삼양상회","tel":"031-675-5281","addr":"경기도 안성시 인지동 356-5번지","indutype":"음료식품 - 기타음료식품","category":"food"}]},{"lat":"37.00391396","long":"127.26762096","imageIndex":7,"items":[{"name":"신현제분소","tel":"031-675-6465","addr":"경기도 안성시 인지동 426-9번지","indutype":"음료식품 - 미곡상","category":"food"}]},{"lat":"37.0049935","long":"127.26839992","imageIndex":7,"items":[{"name":"안성청과","tel":"031-671-3744","addr":"경기도 안성시 인지동 462-7번지","indutype":"음료식품 - 농·축·수산품","category":"food"}]},{"lat":"37.00541027","long":"127.26737898","imageIndex":7,"items":[{"name":"안흥석유사","tel":"031-675-3550","addr":"경기도 안성시 인지동 409-3번지","indutype":"음료식품 - 기타음료식품","category":"food"}]},{"lat":"37.005494463","long":"127.27001952","imageIndex":7,"items":[{"name":"오흥정육점","tel":"031-675-6058","addr":"경기도 안성시 인지동 362-2번지","indutype":"음료식품 - 정육점","category":"food"}]},{"lat":"37.004303571","long":"127.27067821","imageIndex":7,"items":[{"name":"우촌정육점","tel":"031-675-3314","addr":"경기도 안성시 인지동 106번지","indutype":"음료식품 - 정육점","category":"food"}]},{"lat":"37.005388532","long":"127.2690417","imageIndex":7,"items":[{"name":"정담은 정육점","tel":"031-677-3855","addr":"경기도 안성시 인지동 390-35번지 101호","indutype":"음료식품 - 정육점","category":"food"}]},{"lat":"37.004639644","long":"127.26948849","imageIndex":7,"items":[{"name":"제일탕제원","tel":"031-674-6384","addr":"경기도 안성시 인지동 385-50번지","indutype":"건강식품 - 기타건강식품","category":"food"}]},{"lat":"37.003326263","long":"127.26851771","imageIndex":7,"items":[{"name":"종표유통","tel":"031-675-3688","addr":"경기도 안성시 인지동 449-7번지","indutype":"음료식품 - 기타음료식품","category":"food"}]},{"lat":"37.004665868","long":"127.2698481","imageIndex":7,"items":[{"name":"체리부로안성대리점","tel":"031-677-7801","addr":"경기도 안성시 인지동 384-1번지","indutype":"음료식품 - 정육점","category":"food"}]},{"lat":"37.005409844","long":"127.26756998","imageIndex":16,"items":[{"name":"베리타스 영수학원","tel":"031-676-4711","addr":"경기도 안성시 인지동 409-4번지 3층","indutype":"학원 - 보습학원","category":"study"}]},{"lat":"37.005164751","long":"127.26837805","imageIndex":16,"items":[{"name":"세진학원","tel":"031-677-9451","addr":"경기도 안성시 인지동 390-20번지 3층","indutype":"학원 - 보습학원","category":"study"}]},{"lat":"37.005388532","long":"127.2690417","imageIndex":16,"items":[{"name":"에듀컴퓨터회계학원","tel":"","addr":"경기도 안성시 인지동 390-35번지","indutype":"학원 - 컴퓨터학원","category":"study"}]},{"lat":"37.004691596","long":"127.26639905","imageIndex":16,"items":[{"name":"인지어린이집[아이행복]","tel":"031-673-9779","addr":"경기도 안성시 인지동 461-3번지","indutype":"학원 - 유아원","category":"study"}]},{"lat":"37.005385147","long":"127.27054719","imageIndex":7,"items":[{"name":"성모마트","tel":"031-111-1111","addr":"경기도 안성시 인지동 365번지 1층","indutype":"유통업 영리 - 슈퍼마켓","category":"mart"}]},{"lat":"37.005940416","long":"127.26804369","imageIndex":7,"items":[{"name":"안성아시아마트","tel":"031-677-0334","addr":"경기도 안성시 인지동 7번지 골든캐슬타워 1층 115,116호","indutype":"유통업 영리 - 슈퍼마켓","category":"mart"}]},{"lat":"37.005722603","long":"127.26873951","imageIndex":7,"items":[{"name":"장미슈퍼","tel":"031-676-4702","addr":"경기도 안성시 인지동 5번지","indutype":"유통업 영리 - 슈퍼마켓","category":"mart"}]},{"lat":"37.00541027","long":"127.26737898","imageIndex":9,"items":[{"name":"안흥석유사","tel":"031-673-3550","addr":"경기도 안성시 인지동 409-3번지","indutype":"연료판매점 - 유류판매","category":"oil"}]},{"lat":"37.004271571","long":"127.26888052","imageIndex":5,"items":[{"name":"원파크","tel":"031-674-5357","addr":"경기도 안성시 인지동 427-4번지 ***연번지,12","indutype":"숙박업 - 여관/기타숙박업","category":"hotel"}]},{"lat":"37.00560355","long":"127.26959297","imageIndex":5,"items":[{"name":"장미여관","tel":"031-676-1660","addr":"경기도 안성시 인지동 360-2번지","indutype":"숙박업 - 여관/기타숙박업","category":"hotel"}]},{"lat":"37.00583068","long":"127.26876236","imageIndex":5,"items":[{"name":"제주여관","tel":"031-673-4811","addr":"경기도 안성시 인지동 4번지","indutype":"숙박업 - 여관/기타숙박업","category":"hotel"}]}]