[{"lat":"37.790636189","long":"126.69702255","imageIndex":13,"items":[{"name":"(주) 로벤스","tel":"","addr":"경기도 파주시 탄현면 법흥리 1652-52번지","indutype":"보건위생 - 안경","category":"beauty"}]},{"lat":"37.780004621","long":"126.71107384","imageIndex":13,"items":[{"name":"(주)나담코스","tel":"031-945-6256","addr":"경기도 파주시 탄현면 법흥리 493","indutype":"보건위생 - 화장품","category":"beauty"}]},{"lat":"37.769696651","long":"126.70344195","imageIndex":13,"items":[{"name":"김지영헤어샵","tel":"031-947-9286","addr":"경기도 파주시 탄현면 법흥리 1586-4번지","indutype":"보건위생 - 미용원","category":"beauty"}]},{"lat":"37.778529792","long":"126.70496142","imageIndex":13,"items":[{"name":"네일파티","tel":"031-944-1111","addr":"경기도 파주시 탄현면 법흥리 1679-12번지 해영그린빌","indutype":"보건위생 - 화장품","category":"beauty"}]},{"lat":"37.778055245","long":"126.70613247","imageIndex":13,"items":[{"name":"다온뷰티","tel":"070-7435-3993","addr":"경기도 파주시 탄현면 법흥리 497-9번지","indutype":"보건위생 - 미용재료","category":"beauty"}]},{"lat":"37.775062952","long":"126.70212635","imageIndex":13,"items":[{"name":"동행","tel":"031-948-3783","addr":"경기도 파주시 탄현면 법흥리 1723-1번지","indutype":"보건위생 - 의료용품","category":"beauty"},{"name":"이동화헤어살롱","tel":"031-941-1411","addr":"경기도 파주시 탄현면 법흥리 1723-1번지","indutype":"보건위생 - 미용원","category":"beauty"}]},{"lat":"37.771536123","long":"126.70404743","imageIndex":13,"items":[{"name":"러블리페이스스킨케어","tel":"031-947-0424","addr":"경기도 파주시 탄현면 법흥리 1575-3번지","indutype":"보건위생 - 피부미용실","category":"beauty"}]},{"lat":"37.775833663","long":"126.70052278","imageIndex":13,"items":[{"name":"루아헤어&스토어","tel":"031-944-8803","addr":"경기도 파주시 탄현면 법흥리 1787번지","indutype":"보건위생 - 미용원","category":"beauty"},{"name":"소보헤어","tel":"031-942-0807","addr":"경기도 파주시 탄현면 법흥리 1787번지","indutype":"보건위생 - 미용원","category":"beauty"},{"name":"앙브와즈헤어샵","tel":"031-948-8815","addr":"경기도 파주시 탄현면 법흥리 1787 유승앙브와즈2단지 상가-102","indutype":"보건위생 - 미용원","category":"beauty"},{"name":"전국카이로프락틱","tel":"02-1111-1111","addr":"경기도 파주시 탄현면 법흥리 1787번지 유승앙브와즈2단지","indutype":"보건위생 - 기타대인서비스","category":"beauty"}]},{"lat":"37.771364368","long":"126.70382112","imageIndex":13,"items":[{"name":"머리하는날","tel":"031-944-9684","addr":"경기도 파주시 탄현면 법흥리 1576-8번지 가루개 나동","indutype":"보건위생 - 미용원","category":"beauty"}]},{"lat":"37.769585562","long":"126.70227338","imageIndex":13,"items":[{"name":"소나무옵틱","tel":"031-943-9373","addr":"경기도 파주시 탄현면 법흥리 1593-2번지","indutype":"보건위생 - 안경","category":"beauty"}]},{"lat":"37.770979983","long":"126.70501441","imageIndex":13,"items":[{"name":"와이헤어","tel":"031-944-4667","addr":"경기도 파주시 탄현면 법흥리 1581-1번지","indutype":"보건위생 - 미용원","category":"beauty"}]},{"lat":"37.78897649","long":"126.69626876","imageIndex":13,"items":[{"name":"워터식스(water six)","tel":"031-608-8643","addr":"경기도 파주시 탄현면 법흥리 1652-174번지","indutype":"보건위생 - 화장품","category":"beauty"}]},{"lat":"37.775251334","long":"126.69830045","imageIndex":13,"items":[{"name":"헤어웰빙","tel":"070-7175-5356","addr":"경기도 파주시 탄현면 법흥리 1789번지","indutype":"보건위생 - 미용원","category":"beauty"}]},{"lat":"37.770442149","long":"126.70254231","imageIndex":13,"items":[{"name":"헤어짱미용실","tel":"031-944-0810","addr":"경기도 파주시 탄현면 법흥리 1566번지 효자그린빌","indutype":"보건위생 - 미용원","category":"beauty"}]},{"lat":"37.771979078","long":"126.70463585","imageIndex":13,"items":[{"name":"혜리헤어","tel":"070-8163-8879","addr":"경기도 파주시 탄현면 법흥리 1574-5번지","indutype":"보건위생 - 미용원","category":"beauty"}]},{"lat":"37.77067263","long":"126.70460705","imageIndex":13,"items":[{"name":"힐링헤어","tel":"031-946-6555","addr":"경기도 파주시 탄현면 법흥리 1580-13번지","indutype":"보건위생 - 미용원","category":"beauty"}]},{"lat":"37.787749117","long":"126.69546781","imageIndex":17,"items":[{"name":"(주) 원트리온더힐","tel":"","addr":"경기도 파주시 탄현면 법흥리 1652-296번지","indutype":"신변잡화 - 기타잡화","category":"other"},{"name":"다문화공정무역","tel":"031-943-6166","addr":"경기도 파주시 탄현면 법흥리 1652-296번지","indutype":"가구 - 기타가구","category":"other"}]},{"lat":"37.789169665","long":"126.69780057","imageIndex":17,"items":[{"name":"(주)도서출판아트앤북스북하우스지점","tel":"031-949-9305","addr":"경기도 파주시 탄현면 법흥리 1652-136번지 2,3층","indutype":"회원제형태 - 서적","category":"other"}]},{"lat":"37.791838831","long":"126.69524651","imageIndex":17,"items":[{"name":"(주)두레샘무역","tel":"070-4163-7101","addr":"경기도 파주시 탄현면 법흥리 1652-3","indutype":"유통업 영리 - 기타유통업","category":"other"}]},{"lat":"37.787670316","long":"126.69982747","imageIndex":17,"items":[{"name":"(주)룩멈(LOOKMUM)","tel":"031-946-9033","addr":"경기도 파주시 탄현면 법흥리 1652-409번지","indutype":"신변잡화 - 기타잡화","category":"other"},{"name":"VOUS","tel":"","addr":"경기도 파주시 탄현면 법흥리 1652-409번지","indutype":"의류 - 정장","category":"other"}]},{"lat":"37.787865142","long":"126.69504728","imageIndex":17,"items":[{"name":"(주)바이향 헤이리 지점 허브샵","tel":"","addr":"경기도 파주시 탄현면 법흥리 1652-294번지","indutype":"신변잡화 - 기타잡화","category":"other"},{"name":"레오파드락갤러리(LEOPARDROCK GALLERY)","tel":"031-949-8015","addr":"경기도 파주시 탄현면 법흥리 1652-294번지","indutype":"문화.취미 - 민예·공예품","category":"other"}]},{"lat":"37.768807594","long":"126.69066592","imageIndex":17,"items":[{"name":"(주)브랜드오프코리아","tel":"070-8272-5333","addr":"경기도 파주시 탄현면 법흥리 1790번지","indutype":"신변잡화 - 가방","category":"other"},{"name":"모움 인터내셔널","tel":"031-945-8832","addr":"경기도 파주시 탄현면 법흥리 1790번지","indutype":"의류 - 정장","category":"other"},{"name":"쉬크패션","tel":"070-5031-0327","addr":"경기도 파주시 탄현면 법흥리 1790번지","indutype":"의류 - 정장","category":"other"},{"name":"지앤디","tel":"070-5031-0327","addr":"경기도 파주시 탄현면 법흥리 1790번지","indutype":"의류 - 정장","category":"other"}]},{"lat":"37.791859868","long":"126.69640443","imageIndex":17,"items":[{"name":"(주)아지동 매표소","tel":"","addr":"경기도 파주시 탄현면 법흥리 1652-23번지","indutype":"문화.취미 - 티켓","category":"other"},{"name":"(주)아지동 미니어처","tel":"031-945-2831","addr":"경기도 파주시 탄현면 법흥리 1652-23번지","indutype":"용역 서비스 - 사무서비스","category":"other"},{"name":"(주)아지동 키프트샵","tel":"","addr":"경기도 파주시 탄현면 법흥리 1652-23번지","indutype":"서적문구 - 완구점","category":"other"},{"name":"(주)인텔리앙","tel":"031-946-1166","addr":"경기도 파주시 탄현면 법흥리 1652-23번지","indutype":"문화.취미 - 티켓","category":"other"},{"name":"Sinulle","tel":"031-944-6974","addr":"경기도 파주시 탄현면 법흥리 1652-23번지","indutype":"의류 - 정장","category":"other"},{"name":"라곰북스","tel":"031-946-2238","addr":"경기도 파주시 탄현면 법흥리 1652-23번지","indutype":"서적문구 - 일반서적","category":"other"},{"name":"마루공방","tel":"031-945-7548","addr":"경기도 파주시 탄현면 법흥리 1652-23번지","indutype":"문화.취미 - 민예·공예품","category":"other"},{"name":"뮤즈비(musebe)","tel":"","addr":"경기도 파주시 탄현면 법흥리 1652-23번지","indutype":"신변잡화 - 가방","category":"other"},{"name":"베리베리","tel":"070-8832-9471","addr":"경기도 파주시 탄현면 법흥리 1652-23번지","indutype":"가구 - 기타가구","category":"other"},{"name":"보가로 코리아","tel":"031-944-7720","addr":"경기도 파주시 탄현면 법흥리 1652-23번지","indutype":"레져용품 - 악기점","category":"other"},{"name":"보테가멜로디아","tel":"02-000-0000","addr":"경기도 파주시 탄현면 법흥리 1652-23번지","indutype":"레져용품 - 악기점","category":"other"},{"name":"브리티시앤틱","tel":"031-949-1589","addr":"경기도 파주시 탄현면 법흥리 1652-23번지","indutype":"가구 - 일반가구","category":"other"},{"name":"빈센트 헤이리","tel":"031-946-2238","addr":"경기도 파주시 탄현면 법흥리 1652-23번지","indutype":"신변잡화 - 액세서리","category":"other"},{"name":"사파리체험테마파크","tel":"031-946-6656","addr":"경기도 파주시 탄현면 법흥리 1652-23번지","indutype":"문화.취미 - 티켓","category":"other"},{"name":"소풍","tel":"070-8879-1936","addr":"경기도 파주시 탄현면 법흥리 1652-23번지","indutype":"신변잡화 - 기타잡화","category":"other"},{"name":"씨유헤이리마을점","tel":"080-080-3663","addr":"경기도 파주시 탄현면 법흥리 1652-23번지","indutype":"유통업 영리 - 편 의 점","category":"other"},{"name":"예다온","tel":"","addr":"경기도 파주시 탄현면 법흥리 1652-23번지","indutype":"용역 서비스 - 사무서비스","category":"other"},{"name":"왈왈책방","tel":"070-7405-0531","addr":"경기도 파주시 탄현면 법흥리 1652-23번지","indutype":"서적문구 - 일반서적","category":"other"},{"name":"유크스토리","tel":"031-946-1238","addr":"경기도 파주시 탄현면 법흥리 1652-23번지","indutype":"레져용품 - 악기점","category":"other"},{"name":"지벳(zibet)","tel":"0507-1451-3411","addr":"경기도 파주시 탄현면 법흥리 1652-23번지","indutype":"의류 - 정장","category":"other"},{"name":"캘리세상미담인","tel":"070-8847-6566","addr":"경기도 파주시 탄현면 법흥리 1652-23번지","indutype":"건축자재 - 목재·석재·철물","category":"other"},{"name":"파인트리","tel":"070-4246-7482","addr":"경기도 파주시 탄현면 법흥리 1652-23번지","indutype":"건축자재 - 인테리어전문","category":"other"},{"name":"하주(HAJU)company","tel":"","addr":"경기도 파주시 탄현면 법흥리 1652-23번지","indutype":"의류 - 정장","category":"other"}]},{"lat":"37.786612478","long":"126.70188656","imageIndex":17,"items":[{"name":"(주)에코진","tel":"","addr":"경기도 파주시 탄현면 법흥리 1652-486번지","indutype":"용역 서비스 - 기타용역서비스","category":"other"},{"name":"위 디자인","tel":"031-946-3934","addr":"경기도 파주시 탄현면 법흥리 1652-486번지","indutype":"건축자재 - 인테리어전문","category":"other"}]},{"lat":"37.79183074","long":"126.69559849","imageIndex":17,"items":[{"name":"(주)올댓미디어홀딩스 더 올샵","tel":"031-948-2732","addr":"경기도 파주시 탄현면 법흥리 1652-15번지","indutype":"의류 - 정장","category":"other"},{"name":"주식회사 하담갤러리","tel":"031-949-9625","addr":"경기도 파주시 탄현면 법흥리 1652-15번지","indutype":"문화.취미 - 민예·공예품","category":"other"}]},{"lat":"37.777196694","long":"126.71229942","imageIndex":17,"items":[{"name":"(주)이드래곤보일러","tel":"031-944-4456","addr":"경기도 파주시 탄현면 법흥리 171-2번지","indutype":"건축자재 - 보일러·펌프·샷시","category":"other"},{"name":"고정아트","tel":"","addr":"경기도 파주시 탄현면 법흥리 171-2번지","indutype":"광학제품 - 카메라","category":"other"},{"name":"동남닥터","tel":"031-1588-9580","addr":"경기도 파주시 탄현면 법흥리 171-2","indutype":"회원제형태 - 기타1","category":"other"}]},{"lat":"37.772030945","long":"126.70024317","imageIndex":17,"items":[{"name":"(주)타워애드컴퍼니","tel":"031-276-3785","addr":"경기도 파주시 탄현면 법흥리 1752-2번지","indutype":"용역 서비스 - 종합용역","category":"other"},{"name":"지니(Genie)","tel":"070-8765-4361","addr":"경기도 파주시 탄현면 법흥리 1752-2번지","indutype":"의류 - 정장","category":"other"}]},{"lat":"37.787666922","long":"126.70201851","imageIndex":17,"items":[{"name":"(주)판씨앤씨","tel":"031-1588-7387","addr":"경기도 파주시 탄현면 법흥리 1652-527번지","indutype":"문화.취미 - 티켓","category":"other"},{"name":"디자인 달라","tel":"031-948-4288","addr":"경기도 파주시 탄현면 법흥리 1652-527번지","indutype":"신변잡화 - 기념품점","category":"other"},{"name":"아쿠아윌","tel":"031-948-4288","addr":"경기도 파주시 탄현면 법흥리 1652-527번지","indutype":"문화.취미 - 수족관","category":"other"}]},{"lat":"37.786721141","long":"126.70210181","imageIndex":17,"items":[{"name":"(주)포토앤디자인","tel":"031-948-3619","addr":"경기도 파주시 탄현면 법흥리 1652-485번지","indutype":"문화.취미 - 화방·표구점","category":"other"},{"name":"세계인형박물관","tel":"031-947-2575","addr":"경기도 파주시 탄현면 법흥리 1652-485번지","indutype":"문화.취미 - 티켓","category":"other"},{"name":"주식회사지오리포트","tel":"02-332-7525","addr":"경기도 파주시 탄현면 법흥리 1652-485번지","indutype":"신변잡화 - 기타잡화","category":"other"}]},{"lat":"37.790471334","long":"126.69599011","imageIndex":17,"items":[{"name":"(주)현대사","tel":"031-942-2210","addr":"경기도 파주시 탄현면 법흥리 1652-45번지","indutype":"문화.취미 - 티켓","category":"other"},{"name":"현대사","tel":"031-942-2210","addr":"경기도 파주시 탄현면 법흥리 1652-45","indutype":"문화.취미 - 티켓","category":"other"}]},{"lat":"37.787782854","long":"126.70155259","imageIndex":17,"items":[{"name":"1250도씨","tel":"070-8700-7099","addr":"경기도 파주시 탄현면 법흥리 1652-502번지","indutype":"문화.취미 - 화랑","category":"other"}]},{"lat":"37.790890981","long":"126.69799785","imageIndex":17,"items":[{"name":"275 컴퍼니(275 company)","tel":"031-000-0000","addr":"경기도 파주시 탄현면 법흥리 1652-59번지","indutype":"용역 서비스 - 사무서비스","category":"other"}]},{"lat":"37.790778598","long":"126.69635214","imageIndex":17,"items":[{"name":"Dan.D(댄디)","tel":"070-4407-7301","addr":"경기도 파주시 탄현면 법흥리 1652-34외헤이리더스텝바람(비)동B123호","indutype":"의류 - 정장","category":"other"},{"name":"도자기체험학교","tel":"031-941-2042","addr":"경기도 파주시 탄현면 법흥리 1652-34 외헤이리더스텝바람(비)동B35호","indutype":"문화.취미 - 문화취미기타","category":"other"},{"name":"아이리팩토리","tel":"031-943-5855","addr":"경기도 파주시 탄현면 법흥리 1652-34 헤이리더스텝 비-111","indutype":"가구 - 기타가구","category":"other"}]},{"lat":"37.770442149","long":"126.70254231","imageIndex":17,"items":[{"name":"GIVING WHEEL","tel":"031-111-1111","addr":"경기도 파주시 탄현면 법흥리 1566번지 효자그린빌","indutype":"광학제품 - 사진관","category":"other"}]},{"lat":"37.769028922","long":"126.69951768","imageIndex":17,"items":[{"name":"GS25파주명품점","tel":"080-555-2525","addr":"경기도 파주시 탄현면 법흥리 1600-2번지","indutype":"유통업 영리 - 편 의 점","category":"other"}]},{"lat":"37.794502718","long":"126.69413417","imageIndex":17,"items":[{"name":"GS25파주센터점","tel":"","addr":"경기도 파주시 탄현면 법흥리 1773-1 통일프라자 103","indutype":"유통업 영리 - 편 의 점","category":"other"},{"name":"굳프렌드","tel":"031-949-0954","addr":"경기도 파주시 탄현면 법흥리 1773-1번지","indutype":"유통업 영리 - 편 의 점","category":"other"},{"name":"미니스톱탄현산단점","tel":"031-949-0954","addr":"경기도 파주시 탄현면 법흥리 1773-1번지","indutype":"유통업 영리 - 편 의 점","category":"other"}]},{"lat":"37.775251334","long":"126.69830045","imageIndex":17,"items":[{"name":"GS25파주유승점","tel":"","addr":"경기도 파주시 탄현면 법흥리 1789번지","indutype":"유통업 영리 - 편 의 점","category":"other"},{"name":"유승세탁","tel":"031-949-0074","addr":"경기도 파주시 탄현면 법흥리 1789번지","indutype":"수리서비스 - 세탁소","category":"other"}]},{"lat":"37.771420467","long":"126.70462674","imageIndex":17,"items":[{"name":"GS25파주이레점","tel":"","addr":"경기도 파주시 탄현면 법흥리 1574-9번지","indutype":"유통업 영리 - 편 의 점","category":"other"}]},{"lat":"37.769923844","long":"126.70421281","imageIndex":17,"items":[{"name":"GS25파주제일점","tel":"","addr":"경기도 파주시 탄현면 법흥리 1580-20번지","indutype":"유통업 영리 - 편 의 점","category":"other"}]},{"lat":"37.788165352","long":"126.69615859","imageIndex":17,"items":[{"name":"Gallery The 장미","tel":"031-945-2340","addr":"경기도 파주시 탄현면 법흥리 1652-280번지","indutype":"문화.취미 - 화랑","category":"other"}]},{"lat":"37.791889932","long":"126.69757368","imageIndex":17,"items":[{"name":"Gallery윤정","tel":"","addr":"경기도 파주시 탄현면 법흥리 1652-69번지","indutype":"문화.취미 - 화랑","category":"other"},{"name":"공","tel":"02-948-0077","addr":"경기도 파주시 탄현면 법흥리 1652-69번지","indutype":"문화.취미 - 문화취미기타","category":"other"},{"name":"담을","tel":"031-949-5770","addr":"경기도 파주시 탄현면 법흥리 1652-69번지","indutype":"신변잡화 - 액세서리","category":"other"},{"name":"데코뜨","tel":"","addr":"경기도 파주시 탄현면 법흥리 1652-69번지","indutype":"신변잡화 - 기타잡화","category":"other"},{"name":"마이도르(midorr)","tel":"070-8880-0094","addr":"경기도 파주시 탄현면 법흥리 1652-69번지","indutype":"문화.취미 - 애완동물","category":"other"},{"name":"아그아그팩토리","tel":"031-111-1111","addr":"경기도 파주시 탄현면 법흥리 1652-69번지","indutype":"문화.취미 - 화랑","category":"other"},{"name":"클레마티스","tel":"031-947-8540","addr":"경기도 파주시 탄현면 법흥리 1652-69번지","indutype":"신변잡화 - 액세서리","category":"other"},{"name":"티룸공방","tel":"031-939-5292","addr":"경기도 파주시 탄현면 법흥리 1652-69번지","indutype":"주방용구 - 주방용식기","category":"other"},{"name":"헤이리하담 가죽공예","tel":"","addr":"경기도 파주시 탄현면 법흥리 1652-69번지","indutype":"문화.취미 - 민예·공예품","category":"other"},{"name":"휴","tel":"070-7553-3493","addr":"경기도 파주시 탄현면 법흥리 1652-69번지","indutype":"가구 - 기타가구","category":"other"}]},{"lat":"37.770337442","long":"126.70388201","imageIndex":17,"items":[{"name":"KEED 최성희 자연 미술 놀이 연구소","tel":"02-332-8870","addr":"경기도 파주시 탄현면 법흥리 1579-6번지","indutype":"서적문구 - 기타서적문구","category":"other"}]},{"lat":"37.787554245","long":"126.70023664","imageIndex":17,"items":[{"name":"MOA건축갤러리","tel":"031-949-3272","addr":"경기도 파주시 탄현면 법흥리 1652-469번지 헤이리아트밸리","indutype":"문화.취미 - 화랑","category":"other"}]},{"lat":"37.788251536","long":"126.69465969","imageIndex":17,"items":[{"name":"REXDECO(렉스데코)","tel":"031-989-7926","addr":"경기도 파주시 탄현면 법흥리 1652-287번지","indutype":"직물 - 카페트,커튼,천막,지물","category":"other"},{"name":"샵스위트","tel":"031-946-3478","addr":"경기도 파주시 탄현면 법흥리 1652-287번지","indutype":"유통업 영리 - 편 의 점","category":"other"},{"name":"제이스픽 (J's Pick)","tel":"070-8031-4038","addr":"경기도 파주시 탄현면 법흥리 1652-287번지","indutype":"용역 서비스 - 사무서비스","category":"other"}]},{"lat":"37.777529622","long":"126.71212785","imageIndex":17,"items":[{"name":"STUDIO BY","tel":"","addr":"경기도 파주시 탄현면 법흥리 170-2번지","indutype":"광학제품 - 사진관","category":"other"}]},{"lat":"37.780307362","long":"126.70963103","imageIndex":17,"items":[{"name":"SV 부티크(SV Boutique)","tel":"02-1111-1111","addr":"경기도 파주시 탄현면 법흥리 458-16번지","indutype":"의류 - 정장","category":"other"}]},{"lat":"37.769750967","long":"126.70354388","imageIndex":17,"items":[{"name":"가온C&C","tel":"","addr":"경기도 파주시 탄현면 법흥리 1586-3번지","indutype":"서적문구 - 기타서적문구","category":"other"},{"name":"소리교육사","tel":"031-111-1111","addr":"경기도 파주시 탄현면 법흥리 1586-3번지","indutype":"서적문구 - 기타서적문구","category":"other"}]},{"lat":"37.787362624","long":"126.69929517","imageIndex":17,"items":[{"name":"가차샵","tel":"02-1111-1111","addr":"경기도 파주시 탄현면 법흥리 1652-407번지","indutype":"서적문구 - 완구점","category":"other"},{"name":"아프리칸 아트","tel":"031-957-2127","addr":"경기도 파주시 탄현면 법흥리 1652-407번지","indutype":"직물 - 침구·수예점","category":"other"}]},{"lat":"37.780250935","long":"126.71598799","imageIndex":17,"items":[{"name":"개타벅스","tel":"","addr":"경기도 파주시 탄현면 법흥리 227-13번지","indutype":"문화.취미 - 애완동물","category":"other"},{"name":"월드렌탈","tel":"031-944-6691","addr":"경기도 파주시 탄현면 법흥리 227-13번지","indutype":"신변잡화 - 기타잡화","category":"other"}]},{"lat":"37.787532506","long":"126.70230287","imageIndex":17,"items":[{"name":"갤러리 소금항아리","tel":"031-957-0325","addr":"경기도 파주시 탄현면 법흥리 1652-529번지","indutype":"문화.취미 - 화랑","category":"other"}]},{"lat":"37.788394184","long":"126.69754265","imageIndex":17,"items":[{"name":"갤러리 아쉬(aHsh)","tel":"031-949-9632","addr":"경기도 파주시 탄현면 법흥리 1652-191번지","indutype":"문화.취미 - 민예·공예품","category":"other"}]},{"lat":"37.787894211","long":"126.70282362","imageIndex":17,"items":[{"name":"갤러리리앤박(LEE&PARK)","tel":"031-957-7521","addr":"경기도 파주시 탄현면 법흥리 1652-522","indutype":"문화.취미 - 화랑","category":"other"},{"name":"빌헬름 옥토버","tel":"031-000-0000","addr":"경기도 파주시 탄현면 법흥리 1652-522번지","indutype":"가구 - 일반가구","category":"other"}]},{"lat":"37.791559304","long":"126.69515684","imageIndex":17,"items":[{"name":"갤러리모리","tel":"031-944-7259","addr":"경기도 파주시 탄현면 법흥리 1652-6번지","indutype":"문화.취미 - 화랑","category":"other"}]},{"lat":"37.787971034","long":"126.70115449","imageIndex":17,"items":[{"name":"갤러리아고라(GALLERYAGORA)","tel":"031-957-5051","addr":"경기도 파주시 탄현면 법흥리 1652-500번지","indutype":"신변잡화 - 기타잡화","category":"other"}]},{"lat":"37.787307719","long":"126.69896617","imageIndex":17,"items":[{"name":"갤러리이레","tel":"031-941-4215","addr":"경기도 파주시 탄현면 법흥리 1652-405","indutype":"문화.취미 - 화랑","category":"other"}]},{"lat":"37.790338791","long":"126.69698971","imageIndex":17,"items":[{"name":"갤러리최영선","tel":"031-941-5009","addr":"경기도 파주시 탄현면 법흥리 1652-96","indutype":"문화.취미 - 화랑","category":"other"}]},{"lat":"37.789670447","long":"126.69635671","imageIndex":17,"items":[{"name":"갤러리포커스","tel":"031-948-6677","addr":"경기도 파주시 탄현면 법흥리 1652-115번지","indutype":"문화.취미 - 화랑","category":"other"}]},{"lat":"37.78902839","long":"126.69891371","imageIndex":17,"items":[{"name":"갤러리한복궁(  )","tel":"031-957-0953","addr":"경기도 파주시 탄현면 법흥리 1652-206번지 UNA(유나)","indutype":"의류 - 맞춤복점","category":"other"}]},{"lat":"37.788777123","long":"126.69930073","imageIndex":17,"items":[{"name":"갤러리화이트블럭","tel":"031-992-4400","addr":"경기도 파주시 탄현면 법흥리 1652-238","indutype":"용역 서비스 - 부동산 중개·임대","category":"other"}]},{"lat":"37.770754748","long":"126.70501531","imageIndex":17,"items":[{"name":"갤럭시","tel":"070-8281-4203","addr":"경기도 파주시 탄현면 법흥리 1581-3번지","indutype":"기타 - 기타 전문점","category":"other"}]},{"lat":"37.77949944","long":"126.70362943","imageIndex":17,"items":[{"name":"경방","tel":"031-942-3373","addr":"경기도 파주시 탄현면 법흥리 1676-12번지","indutype":"직물 - 침구·수예점","category":"other"}]},{"lat":"37.791142655","long":"126.69776976","imageIndex":17,"items":[{"name":"공룡갤러리","tel":"070-4139-3499","addr":"경기도 파주시 탄현면 법흥리 1652-29번지","indutype":"서적문구 - 출판 및 인쇄물","category":"other"},{"name":"브이알(VR)공룡박물관","tel":"070-4139-3499","addr":"경기도 파주시 탄현면 법흥리 1652-29번지","indutype":"문화.취미 - 티켓","category":"other"}]},{"lat":"37.792200361","long":"126.69568778","imageIndex":17,"items":[{"name":"공방나라","tel":"031-8257-9872","addr":"경기도 파주시 탄현면 법흥리 1652번지","indutype":"문화.취미 - 화랑","category":"other"},{"name":"김미리가죽공방","tel":"","addr":"경기도 파주시 탄현면 법흥리 1652 더스텝B동2층202호일부","indutype":"신변잡화 - 가방","category":"other"},{"name":"세라워크(파주점)","tel":"031-946-2575","addr":"경기도 파주시 탄현면 법흥리 1652 더스텝 B-107","indutype":"주방용구 - 주방용식기","category":"other"},{"name":"아이엠갤러리","tel":"031-8071-0385","addr":"경기도 파주시 탄현면 법흥리 1652번지","indutype":"문화.취미 - 화랑","category":"other"},{"name":"예술아 노올자","tel":"031-8071-0970","addr":"경기도 파주시 탄현면 법흥리 1652번지","indutype":"문화.취미 - 티켓","category":"other"},{"name":"카메라타뮤직스페이스","tel":"031-957-3369","addr":"경기도 파주시 탄현면 법흥리 1652번지","indutype":"문화.취미 - 문화취미기타","category":"other"}]},{"lat":"37.791279807","long":"126.69507853","imageIndex":17,"items":[{"name":"그램슈즈(gram)","tel":"","addr":"경기도 파주시 탄현면 법흥리 1652-8번지","indutype":"신변잡화 - 신발","category":"other"},{"name":"손끝풍경","tel":"070-4148-7364","addr":"경기도 파주시 탄현면 법흥리 1652-8번지","indutype":"문화.취미 - 민예·공예품","category":"other"}]},{"lat":"37.790474227","long":"126.69710268","imageIndex":17,"items":[{"name":"김정재조각공방","tel":"031-943-3157","addr":"경기도 파주시 탄현면 법흥리 1652-100","indutype":"문화.취미 - 민예·공예품","category":"other"}]},{"lat":"37.790584868","long":"126.69807858","imageIndex":17,"items":[{"name":"꽃과나비","tel":"031-945-8105","addr":"경기도 파주시 탄현면 법흥리 1652-91번지","indutype":"의류 - 정장","category":"other"}]},{"lat":"37.788859698","long":"126.69987938","imageIndex":17,"items":[{"name":"꿈꾸는 하루 스튜디오","tel":"031-947-5697","addr":"경기도 파주시 탄현면 법흥리 1652-235번지","indutype":"광학제품 - 사진관","category":"other"}]},{"lat":"37.78952767","long":"126.71846109","imageIndex":17,"items":[{"name":"네오기계","tel":"031-946-4547","addr":"경기도 파주시 탄현면 법흥리 6-2번지","indutype":"농업 - 농기계","category":"other"}]},{"lat":"37.793612309","long":"126.6947169","imageIndex":17,"items":[{"name":"노진수13석유(주)","tel":"031-948-4114","addr":"경기도 파주시 탄현면 법흥리 1791-2번지","indutype":"용역 서비스 - 종합용역","category":"other"}]},{"lat":"37.791415095","long":"126.69513473","imageIndex":17,"items":[{"name":"다이빙스팟","tel":"031-957-0310","addr":"경기도 파주시 탄현면 법흥리 1652-7번지","indutype":"의류 - 스포츠의류","category":"other"}]},{"lat":"37.7697829","long":"126.70193209","imageIndex":17,"items":[{"name":"대길종합공구","tel":"031-946-4966","addr":"경기도 파주시 탄현면 법흥리 1593-4번지","indutype":"기타 - 기계공구","category":"other"}]},{"lat":"37.769837333","long":"126.70207941","imageIndex":17,"items":[{"name":"대길종합상사","tel":"031-946-4966","addr":"경기도 파주시 탄현면 법흥리 1593번지","indutype":"건축자재 - 기타건축자재","category":"other"},{"name":"지앤","tel":"070-7848-9302","addr":"경기도 파주시 탄현면 법흥리 1593번지","indutype":"용역 서비스 - 기타용역서비스","category":"other"}]},{"lat":"37.775833663","long":"126.70052278","imageIndex":17,"items":[{"name":"대현인테리어","tel":"031-946-7606","addr":"경기도 파주시 탄현면 법흥리 1787번지","indutype":"직물 - 카페트,커튼,천막,지물","category":"other"},{"name":"명품세탁소","tel":"031-974-9993","addr":"경기도 파주시 탄현면 법흥리 1787번지 유승앙브와즈2단지","indutype":"수리서비스 - 세탁소","category":"other"},{"name":"우리컴","tel":"031-941-3264","addr":"경기도 파주시 탄현면 법흥리 1787번지 유승앙브와즈2단지","indutype":"사무통신 - 컴퓨터","category":"other"}]},{"lat":"37.788032557","long":"126.70055255","imageIndex":17,"items":[{"name":"더스튜디오","tel":"070-4101-6452","addr":"경기도 파주시 탄현면 법흥리 1652-228번지","indutype":"광학제품 - 사진관","category":"other"},{"name":"러브그린스튜디오","tel":"070-8821-2288","addr":"경기도 파주시 탄현면 법흥리 1652-228번지","indutype":"광학제품 - 사진관","category":"other"}]},{"lat":"37.788339283","long":"126.70071024","imageIndex":17,"items":[{"name":"도서출판 인문산책","tel":"031-949-9792","addr":"경기도 파주시 탄현면 법흥리 1652-226번지","indutype":"서적문구 - 출판 및 인쇄물","category":"other"},{"name":"클락하우스","tel":"031-949-8038","addr":"경기도 파주시 탄현면 법흥리 1652-226번지","indutype":"서적문구 - 완구점","category":"other"}]},{"lat":"37.790172427","long":"126.6953783","imageIndex":17,"items":[{"name":"두꺼비본파리박물관","tel":"070-7704-1665","addr":"경기도 파주시 탄현면 법흥리 1652-143번지","indutype":"문화.취미 - 티켓","category":"other"}]},{"lat":"37.768535623","long":"126.70038226","imageIndex":17,"items":[{"name":"등 스튜디오","tel":"","addr":"경기도 파주시 탄현면 법흥리 1601-14번지","indutype":"건축자재 - 인테리어전문","category":"other"}]},{"lat":"37.790587657","long":"126.6956831","imageIndex":17,"items":[{"name":"디자인 디자인","tel":"070-4224-1562","addr":"경기도 파주시 탄현면 법흥리 1652-43번지","indutype":"신변잡화 - 기타잡화","category":"other"},{"name":"주식회사더솔루션(The solution Co.,Ltd)","tel":"031-946-0581","addr":"경기도 파주시 탄현면 법흥리 1652-43번지","indutype":"레져용품 - 음반/영상물","category":"other"}]},{"lat":"37.789116983","long":"126.72001798","imageIndex":17,"items":[{"name":"라티카","tel":"","addr":"경기도 파주시 탄현면 법흥리 18번지","indutype":"가구 - 일반가구","category":"other"}]},{"lat":"37.790084286","long":"126.69612795","imageIndex":17,"items":[{"name":"로다스튜디오","tel":"031-949-8533","addr":"경기도 파주시 탄현면 법흥리 1652-111번지","indutype":"광학제품 - 사진관","category":"other"},{"name":"어썸아이즈","tel":"031-949-2352","addr":"경기도 파주시 탄현면 법흥리 1652-111번지","indutype":"광학제품 - 사진관","category":"other"}]},{"lat":"37.79036685","long":"126.69738695","imageIndex":17,"items":[{"name":"마요르카","tel":"070-4221-0015","addr":"경기도 파주시 탄현면 법흥리 1652-94번지","indutype":"가구 - 일반가구","category":"other"}]},{"lat":"37.775757623","long":"126.70605085","imageIndex":17,"items":[{"name":"만원의행복","tel":"070-7789-7662","addr":"경기도 파주시 탄현면 법흥리 497-104번지","indutype":"의류 - 정장","category":"other"}]},{"lat":"37.787422683","long":"126.70163352","imageIndex":17,"items":[{"name":"메이미 mayme","tel":"070-4190-0106","addr":"경기도 파주시 탄현면 법흥리 1652-478번지","indutype":"신변잡화 - 기타잡화","category":"other"}]},{"lat":"37.77067263","long":"126.70460705","imageIndex":17,"items":[{"name":"명품 셀프빨래방","tel":"","addr":"경기도 파주시 탄현면 법흥리 1580-13번지","indutype":"수리서비스 - 세탁소","category":"other"}]},{"lat":"37.788584115","long":"126.69782569","imageIndex":17,"items":[{"name":"모리","tel":"031-944-7259","addr":"경기도 파주시 탄현면 법흥리 1652-189번지","indutype":"문화.취미 - 화랑","category":"other"}]},{"lat":"37.787672299","long":"126.70059943","imageIndex":17,"items":[{"name":"뮤지데쟈네70","tel":"031-949-9594","addr":"경기도 파주시 탄현면 법흥리 1652-471번지","indutype":"신변잡화 - 액세서리","category":"other"},{"name":"원썸머데이","tel":"031-943-7180","addr":"경기도 파주시 탄현면 법흥리 1652-471번지","indutype":"광학제품 - 사진관","category":"other"},{"name":"주식회사 지스퍼니처","tel":"031-947-6774","addr":"경기도 파주시 탄현면 법흥리 1652-471번지","indutype":"가구 - 일반가구","category":"other"},{"name":"캔버스뮤지엄","tel":"031-949-2343","addr":"경기도 파주시 탄현면 법흥리 1652-471번지","indutype":"용역 서비스 - 사무서비스","category":"other"}]},{"lat":"37.775062952","long":"126.70212635","imageIndex":17,"items":[{"name":"미니스톱 통일동산점","tel":"031-1577-9621","addr":"경기도 파주시 탄현면 법흥리 1723-1번지","indutype":"유통업 영리 - 편 의 점","category":"other"},{"name":"올파 스크린골프장","tel":"031-944-2787","addr":"경기도 파주시 탄현면 법흥리 1723-1번지","indutype":"회원제형태 - 레져업소","category":"other"}]},{"lat":"37.77939325","long":"126.70796602","imageIndex":17,"items":[{"name":"미래목재건재","tel":"031-944-6292","addr":"경기도 파주시 탄현면 법흥리 482-6번지","indutype":"건축자재 - 건축용 요업제품","category":"other"}]},{"lat":"37.787449421","long":"126.70151989","imageIndex":17,"items":[{"name":"미스켈리","tel":"031-948-9962","addr":"경기도 파주시 탄현면 법흥리 1652-477번지","indutype":"의류 - 기타의류","category":"other"}]},{"lat":"37.769585562","long":"126.70227338","imageIndex":17,"items":[{"name":"믿음열쇠","tel":"031-946-5888","addr":"경기도 파주시 탄현면 법흥리 1593-2","indutype":"기타 - 기계공구","category":"other"}]},{"lat":"37.789220481","long":"126.69655157","imageIndex":17,"items":[{"name":"백순실미술관","tel":"031-942-6320","addr":"경기도 파주시 탄현면 법흥리 1652-140번지","indutype":"문화.취미 - 티켓","category":"other"}]},{"lat":"37.787526517","long":"126.69996429","imageIndex":17,"items":[{"name":"벽봉왕실문화재연구소(예지방)","tel":"031-949-0848","addr":"경기도 파주시 탄현면 법흥리 1652-410","indutype":"문화.취미 - 민예·공예품","category":"other"}]},{"lat":"37.772556712","long":"126.70504213","imageIndex":17,"items":[{"name":"별사탕기획","tel":"031-941-1639","addr":"경기도 파주시 탄현면 법흥리 1570-3번지 A-301호 LG홈","indutype":"용역 서비스 - 종합용역","category":"other"}]},{"lat":"37.787335099","long":"126.69910229","imageIndex":17,"items":[{"name":"보탬","tel":"","addr":"경기도 파주시 탄현면 법흥리 1652-406번지","indutype":"문화.취미 - 화랑","category":"other"}]},{"lat":"37.780004621","long":"126.71107384","imageIndex":17,"items":[{"name":"본스킨코스메틱","tel":"02-3158-2911","addr":"경기도 파주시 탄현면 법흥리 493번지","indutype":"신변잡화 - 기타잡화","category":"other"}]},{"lat":"37.787472488","long":"126.69649067","imageIndex":17,"items":[{"name":"부엉이숲","tel":"","addr":"경기도 파주시 탄현면 법흥리 1652-326번지","indutype":"가구 - 기타가구","category":"other"}]},{"lat":"37.787636985","long":"126.69738683","imageIndex":17,"items":[{"name":"북카페반디","tel":"031-948-7952","addr":"경기도 파주시 탄현면 법흥리 1652-273번지","indutype":"서적문구 - 일반서적","category":"other"}]},{"lat":"37.788393683","long":"126.69734966","imageIndex":17,"items":[{"name":"뷰티풀하우스","tel":"031-947-3716","addr":"경기도 파주시 탄현면 법흥리 1652-192번지","indutype":"문화.취미 - 화랑","category":"other"}]},{"lat":"37.788969667","long":"126.69365768","imageIndex":17,"items":[{"name":"빅세븐","tel":"031-946-8042","addr":"경기도 파주시 탄현면 법흥리 747-5번지","indutype":"유통업 영리 - 편 의 점","category":"other"}]},{"lat":"37.786835123","long":"126.69737878","imageIndex":17,"items":[{"name":"사과나무","tel":"031-946-7932","addr":"경기도 파주시 탄현면 법흥리 1652-348번지","indutype":"가구 - 기타가구","category":"other"}]},{"lat":"37.779084141","long":"126.70685483","imageIndex":17,"items":[{"name":"새하늘종합인테리어","tel":"031-944-8766","addr":"경기도 파주시 탄현면 법흥리 478번지","indutype":"직물 - 카페트,커튼,천막,지물","category":"other"},{"name":"웰컴25시편의점","tel":"031-945-6053","addr":"경기도 파주시 탄현면 법흥리 478번지","indutype":"유통업 영리 - 편 의 점","category":"other"}]},{"lat":"37.789505675","long":"126.69535835","imageIndex":17,"items":[{"name":"석보차박물관","tel":"031-942-2427","addr":"경기도 파주시 탄현면 법흥리 1652-149번지","indutype":"문화.취미 - 티켓","category":"other"}]},{"lat":"37.79122661","long":"126.69540799","imageIndex":17,"items":[{"name":"세계광물보석박물관","tel":"031-946-7081","addr":"경기도 파주시 탄현면 법흥리 1652-20번지","indutype":"용역 서비스 - 사무서비스","category":"other"}]},{"lat":"37.789389906","long":"126.69935499","imageIndex":17,"items":[{"name":"세계민속악기박물관(헤이리)","tel":"031-946-9810","addr":"경기도 파주시 탄현면 법흥리 1652-213번지 세계민속악기박물관","indutype":"문화.취미 - 티켓","category":"other"},{"name":"소리삶","tel":"031-946-9810","addr":"경기도 파주시 탄현면 법흥리 1652-213번지","indutype":"기타 - 기타 전문점","category":"other"}]},{"lat":"37.779393415","long":"126.71165515","imageIndex":17,"items":[{"name":"세광상사","tel":"","addr":"경기도 파주시 탄현면 법흥리 178-7번지","indutype":"전기제품 - 기타전기제품","category":"other"}]},{"lat":"37.776920462","long":"126.70629592","imageIndex":17,"items":[{"name":"세탁나라","tel":"031-945-1831","addr":"경기도 파주시 탄현면 법흥리 497-94번지","indutype":"수리서비스 - 세탁소","category":"other"}]},{"lat":"37.769419663","long":"126.70435104","imageIndex":17,"items":[{"name":"수림브로텍","tel":"031-945-7785","addr":"경기도 파주시 탄현면 법흥리 1585번지","indutype":"전기제품 - 기타전기제품","category":"other"}]},{"lat":"37.786310807","long":"126.70018494","imageIndex":17,"items":[{"name":"수빈뜰야생화.수목연구실(화원)","tel":"031-946-5477","addr":"경기도 파주시 탄현면 법흥리 1652-429번지","indutype":"문화.취미 - 화원","category":"other"}]},{"lat":"37.77186676","long":"126.70297919","imageIndex":17,"items":[{"name":"수촌건설","tel":"070-8820-8328","addr":"경기도 파주시 탄현면 법흥리 1566번지 효자그린빌","indutype":"용역 서비스 - 기타용역서비스","category":"other"}]},{"lat":"37.773256023","long":"126.70368865","imageIndex":17,"items":[{"name":"스튜디오화사","tel":"070-4249-3100","addr":"경기도 파주시 탄현면 법흥리 1738-9번지","indutype":"광학제품 - 사진관","category":"other"}]},{"lat":"37.787665513","long":"126.69796569","imageIndex":17,"items":[{"name":"시드 퍼니처(seed furniture)","tel":"031-942-2049","addr":"경기도 파주시 탄현면 법흥리 1652-253번지","indutype":"가구 - 일반가구","category":"other"}]},{"lat":"37.788446944","long":"126.69704292","imageIndex":17,"items":[{"name":"썸띵플레이/주식회사 굿바이브","tel":"070-4024-7820","addr":"경기도 파주시 탄현면 법흥리 1652-193번지","indutype":"신변잡화 - 기타잡화","category":"other"}]},{"lat":"37.790080756","long":"126.69823959","imageIndex":17,"items":[{"name":"쏨나코리아(SOMNA)","tel":"034-943-0267","addr":"경기도 파주시 탄현면 법흥리 1652-123번지","indutype":"가구 - 일반가구","category":"other"}]},{"lat":"37.778835917","long":"126.70846768","imageIndex":17,"items":[{"name":"씨유파주법흥리점","tel":"02-1577-8007","addr":"경기도 파주시 탄현면 법흥리 483-9번지","indutype":"유통업 영리 - 편 의 점","category":"other"},{"name":"유진모터체인","tel":"02-2069-3401","addr":"경기도 파주시 탄현면 법흥리 483-9번지","indutype":"기타 - 기계공구","category":"other"}]},{"lat":"37.771057847","long":"126.70374291","imageIndex":17,"items":[{"name":"씨유파주효자그린빌점","tel":"031-944-0704","addr":"경기도 파주시 탄현면 법흥리 1577번지","indutype":"유통업 영리 - 편 의 점","category":"other"}]},{"lat":"37.77178281","long":"126.70185588","imageIndex":17,"items":[{"name":"아델라","tel":"","addr":"경기도 파주시 탄현면 법흥리 1748-8번지","indutype":"수리서비스 - 기타수리서비스","category":"other"}]},{"lat":"37.771362638","long":"126.70314013","imageIndex":17,"items":[{"name":"아레떼","tel":"","addr":"경기도 파주시 탄현면 법흥리 1566번지 효자그린빌","indutype":"문화.취미 - 화원","category":"other"}]},{"lat":"37.77244788","long":"126.70121758","imageIndex":17,"items":[{"name":"아바북스","tel":"031-957-9158","addr":"경기도 파주시 탄현면 법흥리 1747-5번지","indutype":"서적문구 - 일반서적","category":"other"}]},{"lat":"37.787668891","long":"126.69579736","imageIndex":17,"items":[{"name":"아이다노/(주)지앤지 어소시에이츠","tel":"031-000-0000","addr":"경기도 파주시 탄현면 법흥리 1652-323번지","indutype":"용역 서비스 - 사무서비스","category":"other"}]},{"lat":"37.791053502","long":"126.69813342","imageIndex":17,"items":[{"name":"아키스타일(ARCHI STYLE)","tel":"070-4158-9396","addr":"경기도 파주시 탄현면 법흥리 1652-62번지","indutype":"가구 - 일반가구","category":"other"}]},{"lat":"37.778362674","long":"126.71382724","imageIndex":17,"items":[{"name":"아트돔","tel":"031-941-2054","addr":"경기도 파주시 탄현면 법흥리 166번지","indutype":"건축자재 - 인테리어전문","category":"other"}]},{"lat":"37.789532182","long":"126.69862783","imageIndex":17,"items":[{"name":"아트팩토리","tel":"031-957-1054","addr":"경기도 파주시 탄현면 법흥리 1652-134번지","indutype":"기타 - 기타 전문점","category":"other"},{"name":"주식회사 포텐터치","tel":"031-949-8456","addr":"경기도 파주시 탄현면 법흥리 1652-134번지","indutype":"용역 서비스 - 소프트웨어","category":"other"}]},{"lat":"37.787639463","long":"126.69487793","imageIndex":17,"items":[{"name":"아페인 Affeine","tel":"","addr":"경기도 파주시 탄현면 법흥리 1652-300번지","indutype":"의류 - 정장","category":"other"}]},{"lat":"37.790339233","long":"126.69716","imageIndex":17,"items":[{"name":"아프리카스토리","tel":"031-942-6120","addr":"경기도 파주시 탄현면 법흥리 1652-95번지","indutype":"문화.취미 - 민예·공예품","category":"other"}]},{"lat":"37.789197963","long":"126.69482605","imageIndex":17,"items":[{"name":"아프리칸아트갤러리","tel":"031-949-6191","addr":"경기도 파주시 탄현면 법흥리 1652-155번지","indutype":"문화.취미 - 화랑","category":"other"}]},{"lat":"37.774367895","long":"126.70160704","imageIndex":17,"items":[{"name":"애견마을","tel":"031-949-1146","addr":"경기도 파주시 탄현면 법흥리 1725-3번지 정림빌딩 103호","indutype":"문화.취미 - 애완동물","category":"other"},{"name":"영아트","tel":"031-946-9945","addr":"경기도 파주시 탄현면 법흥리 1725-3번지","indutype":"서적문구 - 문구용품","category":"other"}]},{"lat":"37.768535185","long":"126.70021202","imageIndex":17,"items":[{"name":"에이스 공인중개사사무소","tel":"031-943-4882","addr":"경기도 파주시 탄현면 법흥리 1601-13번지","indutype":"용역 서비스 - 부동산 중개·임대","category":"other"}]},{"lat":"37.788112153","long":"126.69648803","imageIndex":17,"items":[{"name":"엘리펀트 플라잉","tel":"","addr":"경기도 파주시 탄현면 법흥리 1652-276번지","indutype":"신변잡화 - 기타잡화","category":"other"}]},{"lat":"37.770367774","long":"126.70518711","imageIndex":17,"items":[{"name":"엘앤씨에이치케이(L&C HK)","tel":"","addr":"경기도 파주시 탄현면 법흥리 1581-13번지","indutype":"신변잡화 - 기타잡화","category":"other"}]},{"lat":"37.768916867","long":"126.70149296","imageIndex":17,"items":[{"name":"연 에어컨","tel":"","addr":"경기도 파주시 탄현면 법흥리 1597-10번지 전원나이스빌","indutype":"용역 서비스 - 기타용역서비스","category":"other"}]},{"lat":"37.784807352","long":"126.71135011","imageIndex":17,"items":[{"name":"영집궁시전시관","tel":"031-944-6800","addr":"경기도 파주시 탄현면 법흥리 242-5번지 영집궁시전시관","indutype":"문화.취미 - 티켓","category":"other"}]},{"lat":"37.788198706","long":"126.70210717","imageIndex":17,"items":[{"name":"예맥아트홀","tel":"031-943-9435","addr":"경기도 파주시 탄현면 법흥리 1652-506번지","indutype":"문화.취미 - 티켓","category":"other"}]},{"lat":"37.780444375","long":"126.71773535","imageIndex":17,"items":[{"name":"예빈크라프트","tel":"031-947-4668","addr":"경기도 파주시 탄현면 법흥리 104-3","indutype":"문화.취미 - 민예·공예품","category":"other"}]},{"lat":"37.783590619","long":"126.71482855","imageIndex":17,"items":[{"name":"예원레코드사","tel":"031-943-0384","addr":"경기도 파주시 탄현면 법흥리 249번지","indutype":"서적문구 - 출판 및 인쇄물","category":"other"}]},{"lat":"37.788137464","long":"126.70282263","imageIndex":17,"items":[{"name":"요나","tel":"031-959-3838","addr":"경기도 파주시 탄현면 법흥리 1652-509번지","indutype":"용역 서비스 - 종합용역","category":"other"}]},{"lat":"37.787586712","long":"126.69537766","imageIndex":17,"items":[{"name":"요망잼","tel":"","addr":"경기도 파주시 탄현면 법흥리 1652-298번지","indutype":"신변잡화 - 액세서리","category":"other"},{"name":"초이공방","tel":"","addr":"경기도 파주시 탄현면 법흥리 1652-298번지","indutype":"신변잡화 - 기타잡화","category":"other"},{"name":"흑백사진관봄","tel":"031-946-0415","addr":"경기도 파주시 탄현면 법흥리 1652-298번지","indutype":"광학제품 - 사진관","category":"other"}]},{"lat":"37.771387672","long":"126.70235688","imageIndex":17,"items":[{"name":"우연공조","tel":"","addr":"경기도 파주시 탄현면 법흥리 1566번지 효자그린빌","indutype":"용역 서비스 - 기타용역서비스","category":"other"}]},{"lat":"37.785166596","long":"126.70370875","imageIndex":17,"items":[{"name":"웨딩마을","tel":"031-949-8231","addr":"경기도 파주시 탄현면 법흥리 1779번지","indutype":"광학제품 - 사진관","category":"other"},{"name":"주식회사 한류트레이닝센터","tel":"070-8879-8808","addr":"경기도 파주시 탄현면 법흥리 1779번지","indutype":"용역 서비스 - 종합용역","category":"other"}]},{"lat":"37.774639163","long":"126.70199186","imageIndex":17,"items":[{"name":"유명패션할인매장","tel":"031-949-5727","addr":"경기도 파주시 탄현면 법흥리 1724번지","indutype":"의류 - 정장","category":"other"}]},{"lat":"37.769298939","long":"126.70293282","imageIndex":17,"items":[{"name":"유앤아이","tel":"070-4068-2509","addr":"경기도 파주시 탄현면 법흥리 1595-8번지 LG빌라","indutype":"회원제형태 - 기타1","category":"other"}]},{"lat":"37.78353399","long":"126.71012911","imageIndex":17,"items":[{"name":"이동구도예공방 (LEE'S DECO)","tel":"02-1111-1111","addr":"경기도 파주시 탄현면 법흥리 239-30번지","indutype":"문화.취미 - 민예·공예품","category":"other"}]},{"lat":"37.772834539","long":"126.70446216","imageIndex":17,"items":[{"name":"이미나 주얼리","tel":"031-944-1190","addr":"경기도 파주시 탄현면 법흥리 1569-1번지","indutype":"신변잡화 - 기타잡화","category":"other"}]},{"lat":"37.787919565","long":"126.69865715","imageIndex":17,"items":[{"name":"이에이볼(EABALL)","tel":"031-4224-8385","addr":"경기도 파주시 탄현면 법흥리 1652-247번지","indutype":"레져용품 - 스포츠·레져용품","category":"other"}]},{"lat":"37.787942026","long":"126.70038264","imageIndex":17,"items":[{"name":"이츠콜라","tel":"031-946-8050","addr":"경기도 파주시 탄현면 법흥리 1652-229번지","indutype":"서적문구 - 완구점","category":"other"},{"name":"잇츠콜라","tel":"031-946-8050","addr":"경기도 파주시 탄현면 법흥리 1652-229번지","indutype":"가구 - 기타가구","category":"other"}]},{"lat":"37.787976865","long":"126.69643182","imageIndex":17,"items":[{"name":"인스퀘어","tel":"031-7858-8681","addr":"경기도 파주시 탄현면 법흥리 1652-277번지","indutype":"문화.취미 - 화랑","category":"other"},{"name":"인스퀘어아이엔티(Insquare Int.)","tel":"070-7744-8299","addr":"경기도 파주시 탄현면 법흥리 1652-277번지","indutype":"가구 - 기타가구","category":"other"}]},{"lat":"37.786950997","long":"126.70038668","imageIndex":17,"items":[{"name":"일상","tel":"031-949-5739","addr":"경기도 파주시 탄현면 법흥리 1652-463번지","indutype":"신변잡화 - 기타잡화","category":"other"}]},{"lat":"37.771618435","long":"126.70099395","imageIndex":17,"items":[{"name":"잔다리로스토어","tel":"","addr":"경기도 파주시 탄현면 법흥리 1750-2번지","indutype":"의류 - 정장","category":"other"}]},{"lat":"37.791947003","long":"126.69526876","imageIndex":17,"items":[{"name":"재미있는팡이네","tel":"070-4218-7772","addr":"경기도 파주시 탄현면 법흥리 1652-2번지","indutype":"신변잡화 - 액세서리","category":"other"}]},{"lat":"37.774340399","long":"126.70496688","imageIndex":17,"items":[{"name":"전지현스냅","tel":"031-954-3040","addr":"경기도 파주시 탄현면 법흥리 1718-7번지","indutype":"광학제품 - 사진관","category":"other"}]},{"lat":"37.776168159","long":"126.71537948","imageIndex":17,"items":[{"name":"제이씨(JC)에너지","tel":"031-944-4456","addr":"경기도 파주시 탄현면 법흥리 169-7번지","indutype":"건축자재 - 보일러·펌프·샷시","category":"other"}]},{"lat":"37.790636189","long":"126.69702255","imageIndex":17,"items":[{"name":"조금갤러리","tel":"031-949-9594","addr":"경기도 파주시 탄현면 법흥리 1652-52번지","indutype":"신변잡화 - 액세서리","category":"other"}]},{"lat":"37.786950093","long":"126.69654959","imageIndex":17,"items":[{"name":"조율(ZOYUL)","tel":"031-942-4227","addr":"경기도 파주시 탄현면 법흥리 1652-318번지","indutype":"가구 - 일반가구","category":"other"}]},{"lat":"37.78703038","long":"126.69624274","imageIndex":17,"items":[{"name":"좋은글방","tel":"031-944-0935","addr":"경기도 파주시 탄현면 법흥리 1652-337번지","indutype":"서적문구 - 출판 및 인쇄물","category":"other"}]},{"lat":"37.787416773","long":"126.70284825","imageIndex":17,"items":[{"name":"주식회사 비비유아트","tel":"031-949-3543","addr":"경기도 파주시 탄현면 법흥리 1652-536번지","indutype":"광학제품 - 사진관","category":"other"}]},{"lat":"37.788640255","long":"126.69863149","imageIndex":17,"items":[{"name":"주식회사 피플","tel":"031-945-9309","addr":"경기도 파주시 탄현면 법흥리 1652-242번지","indutype":"문화.취미 - 티켓","category":"other"}]},{"lat":"37.77144839","long":"126.70143729","imageIndex":17,"items":[{"name":"주식회사목소리","tel":"031-945-2275","addr":"경기도 파주시 탄현면 법흥리 1750-7","indutype":"가구 - 일반가구","category":"other"}]},{"lat":"37.779419368","long":"126.70760267","imageIndex":17,"items":[{"name":"초록기획","tel":"031-945-0009","addr":"경기도 파주시 탄현면 법흥리 480-1번지","indutype":"용역 서비스 - 종합용역","category":"other"}]},{"lat":"37.790810161","long":"126.69810036","imageIndex":17,"items":[{"name":"추억박물관","tel":"031-943-2552","addr":"경기도 파주시 탄현면 법흥리 1652-60번지","indutype":"문화.취미 - 티켓","category":"other"}]},{"lat":"37.788858851","long":"126.69955016","imageIndex":17,"items":[{"name":"카페 화이트블럭","tel":"031-992-4400","addr":"경기도 파주시 탄현면 법흥리 1652-237번지","indutype":"문화.취미 - 화랑","category":"other"}]},{"lat":"37.776275581","long":"126.69720658","imageIndex":17,"items":[{"name":"칼의부활파주","tel":"031-946-1466","addr":"경기도 파주시 탄현면 법흥리 1789번지 유승앙브와즈1단지","indutype":"수리서비스 - 기타수리서비스","category":"other"}]},{"lat":"37.787722686","long":"126.70268808","imageIndex":17,"items":[{"name":"캔버스뮤지엄","tel":"031-949-2343","addr":"경기도 파주시 탄현면 법흥리 1652-521번지","indutype":"용역 서비스 - 사무서비스","category":"other"}]},{"lat":"37.788834301","long":"126.7040459","imageIndex":17,"items":[{"name":"크라프트 팩토리","tel":"031-942-7645","addr":"경기도 파주시 탄현면 법흥리 1652-542번지","indutype":"문화.취미 - 민예·공예품","category":"other"}]},{"lat":"37.780947978","long":"126.71365826","imageIndex":17,"items":[{"name":"키트리","tel":"02-2285-1770","addr":"경기도 파주시 탄현면 법흥리 230-12","indutype":"의류 - 맞춤복점","category":"other"}]},{"lat":"37.786332811","long":"126.70174011","imageIndex":17,"items":[{"name":"킴스카라반","tel":"031-943-1277","addr":"경기도 파주시 탄현면 법흥리 1652-448, 1652-447","indutype":"레져용품 - 스포츠·레져용품","category":"other"}]},{"lat":"37.787331932","long":"126.69787624","imageIndex":17,"items":[{"name":"타임앤블레이드","tel":"031-949-5675","addr":"경기도 파주시 탄현면 법흥리 1652-257","indutype":"문화.취미 - 티켓","category":"other"}]},{"lat":"37.786670212","long":"126.6963237","imageIndex":17,"items":[{"name":"테라","tel":"031-949-7879","addr":"경기도 파주시 탄현면 법흥리 1652-316","indutype":"문화.취미 - 화랑","category":"other"}]},{"lat":"37.781534813","long":"126.71785603","imageIndex":17,"items":[{"name":"톱질하세","tel":"031-944-0442","addr":"경기도 파주시 탄현면 법흥리 101-2번지","indutype":"건축자재 - 목재·석재·철물","category":"other"}]},{"lat":"37.768919127","long":"126.70237822","imageIndex":17,"items":[{"name":"통일동산철물","tel":"031-944-8871","addr":"경기도 파주시 탄현면 법흥리 1595-12","indutype":"건축자재 - 목재·석재·철물","category":"other"}]},{"lat":"37.788033605","long":"126.70096124","imageIndex":17,"items":[{"name":"트롤리편의점","tel":"031-947-1789","addr":"경기도 파주시 탄현면 법흥리 1652-498","indutype":"유통업 영리 - 편 의 점","category":"other"}]},{"lat":"37.789887321","long":"126.69660558","imageIndex":17,"items":[{"name":"트릭아트","tel":"","addr":"경기도 파주시 탄현면 법흥리 1652-114번지","indutype":"문화.취미 - 티켓","category":"other"}]},{"lat":"37.779249566","long":"126.70457259","imageIndex":17,"items":[{"name":"패밀리모바일","tel":"02-1111-1111","addr":"경기도 파주시 탄현면 법흥리 1677-5번지","indutype":"사무통신 - 통신기기","category":"other"}]},{"lat":"37.79072086","long":"126.69840725","imageIndex":17,"items":[{"name":"포셀린갤러리","tel":"031-944-0421","addr":"경기도 파주시 탄현면 법흥리 1652-86번지","indutype":"문화.취미 - 민예·공예품","category":"other"},{"name":"헬퍼 훈 스튜디오","tel":"031-258-4062","addr":"경기도 파주시 탄현면 법흥리 1652-86번지","indutype":"광학제품 - 사진관","category":"other"}]},{"lat":"37.771508519","long":"126.70382054","imageIndex":17,"items":[{"name":"필수네","tel":"031-1811-1883","addr":"경기도 파주시 탄현면 법흥리 1576-7번지","indutype":"용역 서비스 - 종합용역","category":"other"}]},{"lat":"37.768667552","long":"126.69913327","imageIndex":17,"items":[{"name":"핑크판스(pinkpans)","tel":"070-4067-2164","addr":"경기도 파주시 탄현면 법흥리 1602-1번지","indutype":"레져용품 - 음반/영상물","category":"other"}]},{"lat":"37.790811024","long":"126.69496694","imageIndex":17,"items":[{"name":"한국근.현대사박물관","tel":"031-957-1125","addr":"경기도 파주시 탄현면 법흥리 1652-10번지 한국근현대사박물관","indutype":"문화.취미 - 티켓","category":"other"}]},{"lat":"37.790393447","long":"126.70071323","imageIndex":17,"items":[{"name":"한길책박물관","tel":"031-949-9786","addr":"경기도 파주시 탄현면 법흥리 1652-579번지","indutype":"문화.취미 - 티켓","category":"other"}]},{"lat":"37.789027365","long":"126.69851638","imageIndex":17,"items":[{"name":"한향림 현대도자미술관","tel":"070-4161-7276","addr":"경기도 파주시 탄현면 법흥리 1652-208 외1","indutype":"문화.취미 - 화랑","category":"other"}]},{"lat":"37.788999838","long":"126.69832349","imageIndex":17,"items":[{"name":"한향림현대도자미술관","tel":"031-948-1001","addr":"경기도 파주시 탄현면 법흥리 1652-209","indutype":"문화.취미 - 화랑","category":"other"}]},{"lat":"37.791502588","long":"126.69759798","imageIndex":17,"items":[{"name":"헤이리 시네마","tel":"031-942-1031","addr":"경기도 파주시 탄현면 법흥리 1652-26번지","indutype":"문화.취미 - 영화관","category":"other"}]},{"lat":"37.790699667","long":"126.69718122","imageIndex":17,"items":[{"name":"화폐박물관","tel":"031-949-6592","addr":"경기도 파주시 탄현면 법흥리 1652-53번지 화폐박물관","indutype":"문화.취미 - 티켓","category":"other"}]},{"lat":"37.790027883","long":"126.70935421","imageIndex":17,"items":[{"name":"힘멜제이","tel":"031-905-6949","addr":"경기도 파주시 탄현면 법흥리 332-5번지","indutype":"가구 - 기타가구","category":"other"}]},{"lat":"37.789169665","long":"126.69780057","imageIndex":4,"items":[{"name":"(주)에스디인터내셔날 나인블럭 헤이리점","tel":"031-1111-1111","addr":"경기도 파주시 탄현면 법흥리 1652-136번지","indutype":"일반휴게음식 - 서양음식","category":"restaurant"}]},{"lat":"37.787670316","long":"126.69982747","imageIndex":4,"items":[{"name":"409갤러리","tel":"031-949-4094","addr":"경기도 파주시 탄현면 법흥리 1652-409","indutype":"일반휴게음식 - 서양음식","category":"restaurant"}]},{"lat":"37.787002554","long":"126.69593634","imageIndex":4,"items":[{"name":"Breeze Hill(브리즈 힐)","tel":"031-949-3051","addr":"경기도 파주시 탄현면 법흥리 1652-339번지","indutype":"일반휴게음식 - 일반한식","category":"restaurant"}]},{"lat":"37.776696056","long":"126.70662599","imageIndex":4,"items":[{"name":"YOREE(요리)","tel":"031-945-1033","addr":"경기도 파주시 탄현면 법흥리 497-98번지","indutype":"일반휴게음식 - 일반한식","category":"restaurant"}]},{"lat":"37.775833663","long":"126.70052278","imageIndex":4,"items":[{"name":"bhc통일동산점","tel":"031-957-3663","addr":"경기도 파주시 탄현면 법흥리 1787번지 유승앙브와즈2단지","indutype":"일반휴게음식 - 스넥","category":"restaurant"},{"name":"스마일찹쌀꽈배기","tel":"031-941-8868","addr":"경기도 파주시 탄현면 법흥리 1787번지 유승앙브와즈2단지","indutype":"일반휴게음식 - 일반한식","category":"restaurant"},{"name":"치킨히어로","tel":"031-957-9292","addr":"경기도 파주시 탄현면 법흥리 1787번지 유승앙브와즈2단지 상가 1층 103호","indutype":"일반휴게음식 - 스넥","category":"restaurant"},{"name":"쿡","tel":"031-941-6656","addr":"경기도 파주시 탄현면 법흥리 1787번지","indutype":"일반휴게음식 - 일반한식","category":"restaurant"},{"name":"티바두마리치킨","tel":"031-946-2006","addr":"경기도 파주시 탄현면 법흥리 1787번지","indutype":"일반휴게음식 - 스넥","category":"restaurant"}]},{"lat":"37.786862343","long":"126.69057863","imageIndex":4,"items":[{"name":"가나안덕","tel":"031-949-5292","addr":"경기도 파주시 탄현면 법흥리 752-6번지","indutype":"일반휴게음식 - 일반한식","category":"restaurant"},{"name":"가나안덕 뜰","tel":"031-949-5292","addr":"경기도 파주시 탄현면 법흥리 752-6번지","indutype":"일반휴게음식 - 일반한식","category":"restaurant"}]},{"lat":"37.789525499","long":"126.69605079","imageIndex":4,"items":[{"name":"가드너스","tel":"031-944-9997","addr":"경기도 파주시 탄현면 법흥리 1652-116번지","indutype":"일반휴게음식 - 서양음식","category":"restaurant"}]},{"lat":"37.787919565","long":"126.69865715","imageIndex":4,"items":[{"name":"갈대광장","tel":"031-957-8445","addr":"경기도 파주시 탄현면 법흥리 1652-247","indutype":"일반휴게음식 - 중국식","category":"restaurant"},{"name":"림스푸드 스토리","tel":"","addr":"경기도 파주시 탄현면 법흥리 1652-247번지","indutype":"일반휴게음식 - 일반한식","category":"restaurant"},{"name":"헤이빌사브앤뷔페","tel":"031-943-6978","addr":"경기도 파주시 탄현면 법흥리 1652-247번지","indutype":"일반휴게음식 - 일반한식","category":"restaurant"}]},{"lat":"37.769333646","long":"126.70241059","imageIndex":4,"items":[{"name":"강물나라매운탕","tel":"031-945-1588","addr":"경기도 파주시 탄현면 법흥리 1593-8번지","indutype":"일반휴게음식 - 일반한식","category":"restaurant"}]},{"lat":"37.787449421","long":"126.70151989","imageIndex":4,"items":[{"name":"갤러리시후담","tel":"031-944-9953","addr":"경기도 파주시 탄현면 법흥리 1652-477번지","indutype":"일반휴게음식 - 일반한식","category":"restaurant"}]},{"lat":"37.788081441","long":"126.69854296","imageIndex":4,"items":[{"name":"갤러리청연","tel":"031-1111-1111","addr":"경기도 파주시 탄현면 법흥리 1652-246번지","indutype":"일반휴게음식 - 서양음식","category":"restaurant"}]},{"lat":"37.769200684","long":"126.69974397","imageIndex":4,"items":[{"name":"고수떡볶이","tel":"031-942-7898","addr":"경기도 파주시 탄현면 법흥리 1600번지","indutype":"일반휴게음식 - 일반한식","category":"restaurant"}]},{"lat":"37.788775473","long":"126.69519109","imageIndex":4,"items":[{"name":"공간공감","tel":"","addr":"경기도 파주시 탄현면 법흥리 1652-168번지","indutype":"일반휴게음식 - 서양음식","category":"restaurant"}]},{"lat":"37.770807771","long":"126.7046065","imageIndex":4,"items":[{"name":"공주칼국수","tel":"031-943-7266","addr":"경기도 파주시 탄현면 법흥리 1580-12번지","indutype":"일반휴게음식 - 일반한식","category":"restaurant"}]},{"lat":"37.779084141","long":"126.70685483","imageIndex":4,"items":[{"name":"교하제면소","tel":"031-957-8989","addr":"경기도 파주시 탄현면 법흥리 478번지","indutype":"일반휴게음식 - 일반한식","category":"restaurant"},{"name":"수피자","tel":"031-943-1238","addr":"경기도 파주시 탄현면 법흥리 478번지","indutype":"일반휴게음식 - 서양음식","category":"restaurant"},{"name":"카페, 빛나","tel":"031-941-1545","addr":"경기도 파주시 탄현면 법흥리 478번지","indutype":"일반휴게음식 - 서양음식","category":"restaurant"}]},{"lat":"37.791859868","long":"126.69640443","imageIndex":4,"items":[{"name":"그린키친(세발자전거)","tel":"070-8688-9740","addr":"경기도 파주시 탄현면 법흥리 1652-23 헤이리더스텝하늘(A)동 116,117호","indutype":"일반휴게음식 - 일반한식","category":"restaurant"},{"name":"농부 우리밀 손칼국수","tel":"031-942-6888","addr":"경기도 파주시 탄현면 법흥리 1652-23번지","indutype":"일반휴게음식 - 일반한식","category":"restaurant"},{"name":"사파리쉼터","tel":"","addr":"경기도 파주시 탄현면 법흥리 1652-23번지","indutype":"일반휴게음식 - 서양음식","category":"restaurant"},{"name":"아지동","tel":"031-947-0677","addr":"경기도 파주시 탄현면 법흥리 1652-23번지","indutype":"일반휴게음식 - 일반한식","category":"restaurant"},{"name":"참다래분식","tel":"031-945-5811","addr":"경기도 파주시 탄현면 법흥리 1652-23번지","indutype":"일반휴게음식 - 스넥","category":"restaurant"},{"name":"한국스토리뮤지엄","tel":"031-947-0677","addr":"경기도 파주시 탄현면 법흥리 1652-23번지","indutype":"일반휴게음식 - 일반한식","category":"restaurant"}]},{"lat":"37.768527748","long":"126.70082492","imageIndex":4,"items":[{"name":"글로우오브선셋","tel":"031-948-2459","addr":"경기도 파주시 탄현면 법흥리 1598-9번지","indutype":"일반휴게음식 - 서양음식","category":"restaurant"}]},{"lat":"37.774639163","long":"126.70199186","imageIndex":4,"items":[{"name":"김밥천국","tel":"031-945-7771","addr":"경기도 파주시 탄현면 법흥리 1724번지","indutype":"일반휴게음식 - 일반한식","category":"restaurant"},{"name":"낭만포차","tel":"031-941-2342","addr":"경기도 파주시 탄현면 법흥리 1724번지","indutype":"일반휴게음식 - 주점","category":"restaurant"},{"name":"밥포차","tel":"031-944-0000","addr":"경기도 파주시 탄현면 법흥리 1724번지","indutype":"일반휴게음식 - 일반한식","category":"restaurant"},{"name":"생생족발","tel":"031-944-4866","addr":"경기도 파주시 탄현면 법흥리 1724번지","indutype":"일반휴게음식 - 일반한식","category":"restaurant"}]},{"lat":"37.775062952","long":"126.70212635","imageIndex":4,"items":[{"name":"나무꼬치","tel":"","addr":"경기도 파주시 탄현면 법흥리 1723-1번지","indutype":"일반휴게음식 - 일반한식","category":"restaurant"},{"name":"돈구이","tel":"","addr":"경기도 파주시 탄현면 법흥리 1723-1번지","indutype":"일반휴게음식 - 일반한식","category":"restaurant"}]},{"lat":"37.791889932","long":"126.69757368","imageIndex":4,"items":[{"name":"나무와","tel":"070-8824-2102","addr":"경기도 파주시 탄현면 법흥리 1652-69번지","indutype":"일반휴게음식 - 서양음식","category":"restaurant"}]},{"lat":"37.775757623","long":"126.70605085","imageIndex":4,"items":[{"name":"네엘즈테이블","tel":"031-941-0000","addr":"경기도 파주시 탄현면 법흥리 497-104번지","indutype":"일반휴게음식 - 서양음식","category":"restaurant"},{"name":"무인카페 메이","tel":"","addr":"경기도 파주시 탄현면 법흥리 497-104번지","indutype":"일반휴게음식 - 서양음식","category":"restaurant"}]},{"lat":"37.778835917","long":"126.70846768","imageIndex":4,"items":[{"name":"놀란밥상","tel":"031-942-2170","addr":"경기도 파주시 탄현면 법흥리 483-9번지","indutype":"일반휴게음식 - 일반한식","category":"restaurant"},{"name":"장강","tel":"031-948-8114","addr":"경기도 파주시 탄현면 법흥리 483-9번지","indutype":"일반휴게음식 - 중국식","category":"restaurant"}]},{"lat":"37.790172427","long":"126.6953783","imageIndex":4,"items":[{"name":"농부의식탁","tel":"031-948-6225","addr":"경기도 파주시 탄현면 법흥리 1652-143번지","indutype":"일반휴게음식 - 서양음식","category":"restaurant"}]},{"lat":"37.794502718","long":"126.69413417","imageIndex":4,"items":[{"name":"누룽지통닭","tel":"031-947-0608","addr":"경기도 파주시 탄현면 법흥리 1773-1번지","indutype":"일반휴게음식 - 일반한식","category":"restaurant"},{"name":"대박식당","tel":"031-945-8759","addr":"경기도 파주시 탄현면 법흥리 1773-1번지","indutype":"일반휴게음식 - 일반한식","category":"restaurant"},{"name":"수복생고기감자탕","tel":"031-946-8998","addr":"경기도 파주시 탄현면 법흥리 1773-1번지","indutype":"일반휴게음식 - 일반한식","category":"restaurant"},{"name":"집밥(zipbab)","tel":"031-947-8594","addr":"경기도 파주시 탄현면 법흥리 1773-1번지","indutype":"일반휴게음식 - 일반한식","category":"restaurant"},{"name":"한미식당","tel":"031-949-1480","addr":"경기도 파주시 탄현면 법흥리 1773-1번지","indutype":"일반휴게음식 - 일반한식","category":"restaurant"}]},{"lat":"37.774919323","long":"126.70233124","imageIndex":4,"items":[{"name":"달콤한삼겹살","tel":"031-946-9290","addr":"경기도 파주시 탄현면 법흥리 1723-2번지","indutype":"일반휴게음식 - 일반한식","category":"restaurant"},{"name":"설경","tel":"031-949-5775","addr":"경기도 파주시 탄현면 법흥리 1723-2번지","indutype":"일반휴게음식 - 중국식","category":"restaurant"},{"name":"팥앤죽","tel":"031-947-6265","addr":"경기도 파주시 탄현면 법흥리 1723-2번지","indutype":"일반휴게음식 - 일반한식","category":"restaurant"}]},{"lat":"37.788779524","long":"126.69674638","imageIndex":4,"items":[{"name":"더데코박스","tel":"031-941-1071","addr":"경기도 파주시 탄현면 법흥리 1652-184번지","indutype":"일반휴게음식 - 서양음식","category":"restaurant"},{"name":"프로방스 피자 쏘렌토(pizza sorrento by p","tel":"031-949-8053","addr":"경기도 파주시 탄현면 법흥리 1652-184번지","indutype":"일반휴게음식 - 서양음식","category":"restaurant"}]},{"lat":"37.787728339","long":"126.69441211","imageIndex":4,"items":[{"name":"더비지트(THE VISIT)","tel":"031-111-1111","addr":"경기도 파주시 탄현면 법흥리 1652-302번지","indutype":"일반휴게음식 - 서양음식","category":"restaurant"}]},{"lat":"37.79122661","long":"126.69540799","imageIndex":4,"items":[{"name":"더커피에반하다","tel":"070-4015-5583","addr":"경기도 파주시 탄현면 법흥리 1652-20번지","indutype":"일반휴게음식 - 일반한식","category":"restaurant"},{"name":"오병이어 피자&파스타","tel":"031-943-3386","addr":"경기도 파주시 탄현면 법흥리 1652-20번지","indutype":"일반휴게음식 - 서양음식","category":"restaurant"}]},{"lat":"37.77016796","long":"126.70455233","imageIndex":4,"items":[{"name":"돈치킨","tel":"031-942-9244","addr":"경기도 파주시 탄현면 법흥리 1580-17번지","indutype":"일반휴게음식 - 스넥","category":"restaurant"}]},{"lat":"37.790524976","long":"126.69583095","imageIndex":4,"items":[{"name":"돈카츠야","tel":"031-942-2707","addr":"경기도 파주시 탄현면 법흥리 1652-44번지","indutype":"일반휴게음식 - 스넥","category":"restaurant"},{"name":"세발자전거","tel":"031-949-8655","addr":"경기도 파주시 탄현면 법흥리 1652-44번지 3층","indutype":"일반휴게음식 - 일반한식","category":"restaurant"}]},{"lat":"37.790084286","long":"126.69612795","imageIndex":4,"items":[{"name":"라피암마 (la fiamma)","tel":"031-643-8135","addr":"경기도 파주시 탄현면 법흥리 1652-111번지","indutype":"일반휴게음식 - 서양음식","category":"restaurant"}]},{"lat":"37.768667552","long":"126.69913327","imageIndex":4,"items":[{"name":"락궁","tel":"031-949-9414","addr":"경기도 파주시 탄현면 법흥리 1602-1번지","indutype":"일반휴게음식 - 일반한식","category":"restaurant"}]},{"lat":"37.790667596","long":"126.698714","imageIndex":4,"items":[{"name":"루니크엔카페(Lunik&Cafe)","tel":"070-4896-1482","addr":"경기도 파주시 탄현면 법흥리 1652-81번지","indutype":"일반휴게음식 - 일반한식","category":"restaurant"}]},{"lat":"37.77536168","long":"126.70268131","imageIndex":4,"items":[{"name":"리마(LIMA)","tel":"031-949-0311","addr":"경기도 파주시 탄현면 법흥리 1722번지","indutype":"일반휴게음식 - 서양음식","category":"restaurant"}]},{"lat":"37.788446944","long":"126.69704292","imageIndex":4,"items":[{"name":"마레1992파티하우스","tel":"031-947-8716","addr":"경기도 파주시 탄현면 법흥리 1652-193번지","indutype":"일반휴게음식 - 서양음식","category":"restaurant"}]},{"lat":"37.78703038","long":"126.69624274","imageIndex":4,"items":[{"name":"마법갤러리,마녀까페 달","tel":"031-942-0950","addr":"경기도 파주시 탄현면 법흥리 1652-337번지","indutype":"일반휴게음식 - 스넥","category":"restaurant"}]},{"lat":"37.785166596","long":"126.70370875","imageIndex":4,"items":[{"name":"마이스터","tel":"031-956-2229","addr":"경기도 파주시 탄현면 법흥리 1779번지","indutype":"일반휴게음식 - 스넥","category":"restaurant"},{"name":"카스텔누오보","tel":"031-956-2226","addr":"경기도 파주시 탄현면 법흥리 1779번지","indutype":"일반휴게음식 - 서양음식","category":"restaurant"},{"name":"카페 원썸머데이","tel":"031-945-1779","addr":"경기도 파주시 탄현면 법흥리 1779번지","indutype":"일반휴게음식 - 서양음식","category":"restaurant"}]},{"lat":"37.775251334","long":"126.69830045","imageIndex":4,"items":[{"name":"만나카페","tel":"031-949-5402","addr":"경기도 파주시 탄현면 법흥리 1789번지 유승앙브와즈1단지","indutype":"일반휴게음식 - 서양음식","category":"restaurant"}]},{"lat":"37.769978246","long":"126.70434879","imageIndex":4,"items":[{"name":"맹순네 생고기","tel":"031-945-2200","addr":"경기도 파주시 탄현면 법흥리 1580-19번지","indutype":"일반휴게음식 - 일반한식","category":"restaurant"}]},{"lat":"37.791559304","long":"126.69515684","imageIndex":4,"items":[{"name":"모리","tel":"031-944-7259","addr":"경기도 파주시 탄현면 법흥리 1652-6번지","indutype":"일반휴게음식 - 스넥","category":"restaurant"}]},{"lat":"37.787166697","long":"126.70018145","imageIndex":4,"items":[{"name":"물고기자리","tel":"031-941-2695","addr":"경기도 파주시 탄현면 법흥리 1652-413번지","indutype":"일반휴게음식 - 일반한식","category":"restaurant"}]},{"lat":"37.768674744","long":"126.70193658","imageIndex":4,"items":[{"name":"미송(    )","tel":"031-949-3478","addr":"경기도 파주시 탄현면 법흥리 1598-17번지","indutype":"일반휴게음식 - 일반한식","category":"restaurant"}]},{"lat":"37.76958391","long":"126.70162645","imageIndex":4,"items":[{"name":"미시그","tel":"02-1111-1111","addr":"경기도 파주시 탄현면 법흥리 1594-4번지","indutype":"일반휴게음식 - 서양음식","category":"restaurant"}]},{"lat":"37.770862861","long":"126.70501488","imageIndex":4,"items":[{"name":"바다어(  )축제","tel":"031-947-5277","addr":"경기도 파주시 탄현면 법흥리 1581-2번지","indutype":"일반휴게음식 - 일반한식","category":"restaurant"},{"name":"친구야 회먹자","tel":"031-948-8620","addr":"경기도 파주시 탄현면 법흥리 1581-2번지","indutype":"일반휴게음식 - 일반한식","category":"restaurant"}]},{"lat":"37.787362624","long":"126.69929517","imageIndex":4,"items":[{"name":"반미 싸이코","tel":"031-945-0214","addr":"경기도 파주시 탄현면 법흥리 1652-407번지","indutype":"일반휴게음식 - 일반한식","category":"restaurant"},{"name":"불고기&비빔밥","tel":"031-8071-5332","addr":"경기도 파주시 탄현면 법흥리 1652-407번지","indutype":"일반휴게음식 - 일반한식","category":"restaurant"},{"name":"카페모던밀(Cafe Modern Meal)","tel":"","addr":"경기도 파주시 탄현면 법흥리 1652-407번지","indutype":"일반휴게음식 - 서양음식","category":"restaurant"}]},{"lat":"37.778920145","long":"126.70612901","imageIndex":4,"items":[{"name":"법흥골 장어마을","tel":"031-949-7791","addr":"경기도 파주시 탄현면 법흥리 477번지","indutype":"일반휴게음식 - 일반한식","category":"restaurant"}]},{"lat":"37.791947003","long":"126.69526876","imageIndex":4,"items":[{"name":"베조아니","tel":"031-945-7254","addr":"경기도 파주시 탄현면 법흥리 1652-2번지","indutype":"일반휴게음식 - 일반한식","category":"restaurant"}]},{"lat":"37.790890981","long":"126.69799785","imageIndex":4,"items":[{"name":"보헤미안","tel":"031-945-2333","addr":"경기도 파주시 탄현면 법흥리 1652-59","indutype":"일반휴게음식 - 서양음식","category":"restaurant"}]},{"lat":"37.769837333","long":"126.70207941","imageIndex":4,"items":[{"name":"봄이온케이크","tel":"","addr":"경기도 파주시 탄현면 법흥리 1593번지","indutype":"일반휴게음식 - 서양음식","category":"restaurant"},{"name":"엄마의부엌","tel":"031-947-2022","addr":"경기도 파주시 탄현면 법흥리 1593번지","indutype":"일반휴게음식 - 일반한식","category":"restaurant"}]},{"lat":"37.770223136","long":"126.70499475","imageIndex":4,"items":[{"name":"부용수제숯불갈비","tel":"031-111-1111","addr":"경기도 파주시 탄현면 법흥리 1583번지","indutype":"일반휴게음식 - 일반한식","category":"restaurant"}]},{"lat":"37.789220481","long":"126.69655157","imageIndex":4,"items":[{"name":"블루메(Blume)","tel":"031-942-6320","addr":"경기도 파주시 탄현면 법흥리 1652-140번지","indutype":"일반휴게음식 - 서양음식","category":"restaurant"}]},{"lat":"37.789887321","long":"126.69660558","imageIndex":4,"items":[{"name":"비밀의정원","tel":"070-7536-2251","addr":"경기도 파주시 탄현면 법흥리 1652-114번지","indutype":"일반휴게음식 - 서양음식","category":"restaurant"},{"name":"시크릿가든","tel":"031-949-9017","addr":"경기도 파주시 탄현면 법흥리 1652-114번지","indutype":"일반휴게음식 - 스넥","category":"restaurant"}]},{"lat":"37.787639463","long":"126.69487793","imageIndex":4,"items":[{"name":"석죽재물고기나무","tel":"070-7762-7727","addr":"경기도 파주시 탄현면 법흥리 1652-300번지","indutype":"일반휴게음식 - 일반한식","category":"restaurant"},{"name":"안라딘의커피램프","tel":"","addr":"경기도 파주시 탄현면 법흥리 1652-300번지","indutype":"일반휴게음식 - 서양음식","category":"restaurant"}]},{"lat":"37.787532506","long":"126.70230287","imageIndex":4,"items":[{"name":"소금항아리","tel":"031-957-0325","addr":"경기도 파주시 탄현면 법흥리 1652-529번지","indutype":"일반휴게음식 - 서양음식","category":"restaurant"}]},{"lat":"37.77949944","long":"126.70362943","imageIndex":4,"items":[{"name":"소소한","tel":"","addr":"경기도 파주시 탄현면 법흥리 1676-12번지","indutype":"일반휴게음식 - 서양음식","category":"restaurant"}]},{"lat":"37.780615965","long":"126.71790496","imageIndex":4,"items":[{"name":"손가주방","tel":"031-947-4668","addr":"경기도 파주시 탄현면 법흥리 103-2번지","indutype":"일반휴게음식 - 일반한식","category":"restaurant"}]},{"lat":"37.78897649","long":"126.69626876","imageIndex":4,"items":[{"name":"수비","tel":"031-944-7772","addr":"경기도 파주시 탄현면 법흥리 1652-174번지","indutype":"일반휴게음식 - 일반한식","category":"restaurant"}]},{"lat":"37.76956177","long":"126.70354464","imageIndex":4,"items":[{"name":"수상한창고","tel":"031-952-2681","addr":"경기도 파주시 탄현면 법흥리 1586-9번지","indutype":"일반휴게음식 - 일반한식","category":"restaurant"}]},{"lat":"37.787782854","long":"126.70155259","imageIndex":4,"items":[{"name":"수잉","tel":"031-8071-4320","addr":"경기도 파주시 탄현면 법흥리 1652-502번지","indutype":"일반휴게음식 - 일반한식","category":"restaurant"}]},{"lat":"37.791667505","long":"126.69519045","imageIndex":4,"items":[{"name":"쉼골전통된장","tel":"070-8875-1929","addr":"경기도 파주시 탄현면 법흥리 1652-5번지","indutype":"일반휴게음식 - 일반한식","category":"restaurant"}]},{"lat":"37.788554809","long":"126.70396756","imageIndex":4,"items":[{"name":"슈크레 (sucre)","tel":"070-4525-6970","addr":"경기도 파주시 탄현면 법흥리 1652-541번지","indutype":"일반휴게음식 - 일반한식","category":"restaurant"}]},{"lat":"37.792200361","long":"126.69568778","imageIndex":4,"items":[{"name":"식물감각","tel":"031-957-3123","addr":"경기도 파주시 탄현면 법흥리 1652번지 헤이리아트밸리 D-12","indutype":"일반휴게음식 - 서양음식","category":"restaurant"},{"name":"크라제맥스헤이리마을점","tel":"031-8071-0970","addr":"경기도 파주시 탄현면 법흥리 1652번지","indutype":"일반휴게음식 - 서양음식","category":"restaurant"},{"name":"크레타","tel":"031-948-6001","addr":"경기도 파주시 탄현면 법흥리 1652","indutype":"일반휴게음식 - 서양음식","category":"restaurant"}]},{"lat":"37.786557107","long":"126.69098859","imageIndex":4,"items":[{"name":"싼타로사","tel":"031-944-2244","addr":"경기도 파주시 탄현면 법흥리 752-1번지","indutype":"일반휴게음식 - 일반한식","category":"restaurant"},{"name":"황금코다리(헤이리점)","tel":"","addr":"경기도 파주시 탄현면 법흥리 752-1번지 (외1필지1,2층)","indutype":"일반휴게음식 - 일반한식","category":"restaurant"}]},{"lat":"37.771305382","long":"126.70543305","imageIndex":4,"items":[{"name":"쎄레알카페(C'estReal)","tel":"070-1111-1111","addr":"경기도 파주시 탄현면 법흥리 1572-7번지","indutype":"일반휴게음식 - 서양음식","category":"restaurant"}]},{"lat":"37.790336046","long":"126.69593391","imageIndex":4,"items":[{"name":"아트그라운드","tel":"","addr":"경기도 파주시 탄현면 법흥리 1652-46번지","indutype":"일반휴게음식 - 일반한식","category":"restaurant"}]},{"lat":"37.787811531","long":"126.69521779","imageIndex":4,"items":[{"name":"안젤라","tel":"070-8885-1036","addr":"경기도 파주시 탄현면 법흥리 1652-295번지","indutype":"일반휴게음식 - 일반한식","category":"restaurant"}]},{"lat":"37.789226444","long":"126.69538222","imageIndex":4,"items":[{"name":"애지중지페이보릿커피","tel":"070-4400-4945","addr":"경기도 파주시 탄현면 법흥리 1652-157번지","indutype":"일반휴게음식 - 서양음식","category":"restaurant"},{"name":"에이알트레인","tel":"031-946-3197","addr":"경기도 파주시 탄현면 법흥리 1652-157번지","indutype":"일반휴게음식 - 서양음식","category":"restaurant"}]},{"lat":"37.788834301","long":"126.7040459","imageIndex":4,"items":[{"name":"앤조이터키","tel":"070-7794-3537","addr":"경기도 파주시 탄현면 법흥리 1652-542번지","indutype":"일반휴게음식 - 서양음식","category":"restaurant"},{"name":"엄마가좋아","tel":"","addr":"경기도 파주시 탄현면 법흥리 1652-542번지","indutype":"일반휴게음식 - 일반한식","category":"restaurant"}]},{"lat":"37.768535623","long":"126.70038226","imageIndex":4,"items":[{"name":"엉터리생고기","tel":"031-940-1744","addr":"경기도 파주시 탄현면 법흥리 1601-14번지","indutype":"일반휴게음식 - 일반한식","category":"restaurant"}]},{"lat":"37.787506427","long":"126.69568451","imageIndex":4,"items":[{"name":"영화박물관","tel":"031-977-7193","addr":"경기도 파주시 탄현면 법흥리 1652-322","indutype":"일반휴게음식 - 일반한식","category":"restaurant"}]},{"lat":"37.787668891","long":"126.69579736","imageIndex":4,"items":[{"name":"오래된정원","tel":"031-944-1194","addr":"경기도 파주시 탄현면 법흥리 1652-323번지","indutype":"일반휴게음식 - 스넥","category":"restaurant"}]},{"lat":"37.790110398","long":"126.6957759","imageIndex":4,"items":[{"name":"오벧에돔","tel":"031-943-0526","addr":"경기도 파주시 탄현면 법흥리 1652-144번지","indutype":"일반휴게음식 - 스넥","category":"restaurant"},{"name":"타임캡슐","tel":"031-949-9408","addr":"경기도 파주시 탄현면 법흥리 1652-144","indutype":"일반휴게음식 - 일반한식","category":"restaurant"}]},{"lat":"37.772195303","long":"126.70463498","imageIndex":4,"items":[{"name":"오봉도시락 파주탄현점","tel":"031-948-5542","addr":"경기도 파주시 탄현면 법흥리 1569-12번지","indutype":"일반휴게음식 - 일반한식","category":"restaurant"}]},{"lat":"37.769699529","long":"126.70457691","imageIndex":4,"items":[{"name":"용족발","tel":"031-948-2468","addr":"경기도 파주시 탄현면 법흥리 1583-6번지","indutype":"일반휴게음식 - 일반한식","category":"restaurant"}]},{"lat":"37.786642475","long":"126.69605136","imageIndex":4,"items":[{"name":"우프우프","tel":"031-949-9065","addr":"경기도 파주시 탄현면 법흥리 1652-313번지 지1,1층","indutype":"일반휴게음식 - 서양음식","category":"restaurant"},{"name":"케이갤러리카페","tel":"031-949-8038","addr":"경기도 파주시 탄현면 법흥리 1652-313번지","indutype":"일반휴게음식 - 서양음식","category":"restaurant"}]},{"lat":"37.786003847","long":"126.69993645","imageIndex":4,"items":[{"name":"원과호","tel":"031-949-0932","addr":"경기도 파주시 탄현면 법흥리 1652-438번지","indutype":"일반휴게음식 - 일반한식","category":"restaurant"}]},{"lat":"37.769480339","long":"126.70340877","imageIndex":4,"items":[{"name":"원여사의신망리순대국","tel":"031-946-7746","addr":"경기도 파주시 탄현면 법흥리 1586-8번지","indutype":"일반휴게음식 - 일반한식","category":"restaurant"}]},{"lat":"37.78902839","long":"126.69891371","imageIndex":4,"items":[{"name":"유나","tel":"031-946-7220","addr":"경기도 파주시 탄현면 법흥리 1652-206번지 UNA(유나)","indutype":"일반휴게음식 - 서양음식","category":"restaurant"}]},{"lat":"37.770114938","long":"126.70496113","imageIndex":4,"items":[{"name":"자매식당","tel":"031-949-8341","addr":"경기도 파주시 탄현면 법흥리 1583-1번지","indutype":"일반휴게음식 - 일반한식","category":"restaurant"}]},{"lat":"37.788969667","long":"126.69365768","imageIndex":4,"items":[{"name":"자연밥상","tel":"031-945-8512","addr":"경기도 파주시 탄현면 법흥리 747-5번지","indutype":"일반휴게음식 - 일반한식","category":"restaurant"},{"name":"풍금있는자리","tel":"031-942-8793","addr":"경기도 파주시 탄현면 법흥리 747-5번지","indutype":"일반휴게음식 - 일반한식","category":"restaurant"}]},{"lat":"37.769895751","long":"126.70379299","imageIndex":4,"items":[{"name":"장단콩콩나물감자탕","tel":"031-943-5988","addr":"경기도 파주시 탄현면 법흥리 1586-1번지","indutype":"일반휴게음식 - 일반한식","category":"restaurant"}]},{"lat":"37.770619607","long":"126.70501585","imageIndex":4,"items":[{"name":"전주콩나물국밥","tel":"031-915-0900","addr":"경기도 파주시 탄현면 법흥리 1581-4번지","indutype":"일반휴게음식 - 일반한식","category":"restaurant"}]},{"lat":"37.786950599","long":"126.68988576","imageIndex":4,"items":[{"name":"제이콥","tel":"031-4284-9961","addr":"경기도 파주시 탄현면 법흥리 752-4번지","indutype":"일반휴게음식 - 서양음식","category":"restaurant"}]},{"lat":"37.770502428","long":"126.70499362","imageIndex":4,"items":[{"name":"족보있는순대국","tel":"031-945-5331","addr":"경기도 파주시 탄현면 법흥리 1581-5번지","indutype":"일반휴게음식 - 일반한식","category":"restaurant"}]},{"lat":"37.79183074","long":"126.69559849","imageIndex":4,"items":[{"name":"주식회사 커피하람","tel":"070-4288-2111","addr":"경기도 파주시 탄현면 법흥리 1652-15번지","indutype":"일반휴게음식 - 서양음식","category":"restaurant"}]},{"lat":"37.788584115","long":"126.69782569","imageIndex":4,"items":[{"name":"주식회사 호메오(homeo)","tel":"031-946-1727","addr":"경기도 파주시 탄현면 법흥리 1652-189번지","indutype":"일반휴게음식 - 서양음식","category":"restaurant"}]},{"lat":"37.790471334","long":"126.69599011","imageIndex":4,"items":[{"name":"줄서서먹는 꼬치집","tel":"0000-0000-1111","addr":"경기도 파주시 탄현면 법흥리 1652-45번지","indutype":"일반휴게음식 - 스넥","category":"restaurant"}]},{"lat":"37.779055429","long":"126.70618523","imageIndex":4,"items":[{"name":"착한식당","tel":"","addr":"경기도 파주시 탄현면 법흥리 476-11번지","indutype":"일반휴게음식 - 일반한식","category":"restaurant"}]},{"lat":"37.787472488","long":"126.69649067","imageIndex":4,"items":[{"name":"참한간장게장","tel":"031-957-9988","addr":"경기도 파주시 탄현면 법흥리 1652-326번지","indutype":"일반휴게음식 - 일반한식","category":"restaurant"}]},{"lat":"37.788589294","long":"126.69634983","imageIndex":4,"items":[{"name":"츄로바","tel":"070-4257-9498","addr":"경기도 파주시 탄현면 법흥리 1652-177번지","indutype":"일반휴게음식 - 서양음식","category":"restaurant"}]},{"lat":"37.77052848","long":"126.70460763","imageIndex":4,"items":[{"name":"치킨매니아","tel":"031-944-9233","addr":"경기도 파주시 탄현면 법흥리 1580-14번지","indutype":"일반휴게음식 - 스넥","category":"restaurant"}]},{"lat":"37.788858851","long":"126.69955016","imageIndex":4,"items":[{"name":"카페 화이트블럭","tel":"031-992-4400","addr":"경기도 파주시 탄현면 법흥리 1652-237번지","indutype":"일반휴게음식 - 서양음식","category":"restaurant"}]},{"lat":"37.787749117","long":"126.69546781","imageIndex":4,"items":[{"name":"카페더원/(주)원트리온더힐","tel":"02-1234-1234","addr":"경기도 파주시 탄현면 법흥리 1652-296번지","indutype":"일반휴게음식 - 서양음식","category":"restaurant"}]},{"lat":"37.787805569","long":"126.69638712","imageIndex":4,"items":[{"name":"카페로즈커피박물관","tel":"031-949-5858","addr":"경기도 파주시 탄현면 법흥리 1652-278번지","indutype":"일반휴게음식 - 서양음식","category":"restaurant"}]},{"lat":"37.791415095","long":"126.69513473","imageIndex":4,"items":[{"name":"칼라디소토","tel":"","addr":"경기도 파주시 탄현면 법흥리 1652-7번지","indutype":"일반휴게음식 - 서양음식","category":"restaurant"}]},{"lat":"37.790587657","long":"126.6956831","imageIndex":4,"items":[{"name":"캘리수다방","tel":"070-8616-2223","addr":"경기도 파주시 탄현면 법흥리 1652-43번지","indutype":"일반휴게음식 - 서양음식","category":"restaurant"}]},{"lat":"37.768838789","long":"126.69915527","imageIndex":4,"items":[{"name":"커피에 빠지다","tel":"02-1234-1234","addr":"경기도 파주시 탄현면 법흥리 1602번지","indutype":"일반휴게음식 - 서양음식","category":"restaurant"}]},{"lat":"37.787755019","long":"126.69773827","imageIndex":4,"items":[{"name":"컴프트리","tel":"031-949-3311","addr":"경기도 파주시 탄현면 법흥리 1652-254번지","indutype":"일반휴게음식 - 일반한식","category":"restaurant"}]},{"lat":"37.787976364","long":"126.70324333","imageIndex":4,"items":[{"name":"코지하우스","tel":"031-948-3440","addr":"경기도 파주시 탄현면 법흥리 1652-517","indutype":"일반휴게음식 - 일반한식","category":"restaurant"}]},{"lat":"37.790470387","long":"126.69562683","imageIndex":4,"items":[{"name":"킴앤리체험박물관","tel":"031-957-4466","addr":"경기도 파주시 탄현면 법흥리 1652-48번지","indutype":"일반휴게음식 - 서양음식","category":"restaurant"}]},{"lat":"37.788859698","long":"126.69987938","imageIndex":4,"items":[{"name":"터치아트","tel":"031-949-9434","addr":"경기도 파주시 탄현면 법흥리 1652-235","indutype":"일반휴게음식 - 일반한식","category":"restaurant"}]},{"lat":"37.776725661","long":"126.71493464","imageIndex":4,"items":[{"name":"팥나라","tel":"031-948-8118","addr":"경기도 파주시 탄현면 법흥리 169-3번지 102, 103호","indutype":"일반휴게음식 - 일반한식","category":"restaurant"}]},{"lat":"37.769452913","long":"126.69624724","imageIndex":4,"items":[{"name":"풍성에프앤비","tel":"","addr":"경기도 파주시 탄현면 법흥리 1790-8번지","indutype":"일반휴게음식 - 서양음식","category":"restaurant"}]},{"lat":"37.769753873","long":"126.70469019","imageIndex":4,"items":[{"name":"피자이탈리","tel":"031-942-5437","addr":"경기도 파주시 탄현면 법흥리 1583-5번지","indutype":"일반휴게음식 - 서양음식","category":"restaurant"}]},{"lat":"37.787554723","long":"126.69693307","imageIndex":4,"items":[{"name":"피제리아스텔라레","tel":"031-944-5554","addr":"경기도 파주시 탄현면 법흥리 1652-264번지","indutype":"일반휴게음식 - 서양음식","category":"restaurant"}]},{"lat":"37.786720686","long":"126.69152146","imageIndex":4,"items":[{"name":"하루","tel":"031-942-5532","addr":"경기도 파주시 탄현면 법흥리 752-2번지","indutype":"일반휴게음식 - 일반한식","category":"restaurant"}]},{"lat":"37.788782051","long":"126.70121931","imageIndex":4,"items":[{"name":"한향림도자미술관","tel":"070-8872-0449","addr":"경기도 파주시 탄현면 법흥리 1652-561번지","indutype":"일반휴게음식 - 서양음식","category":"restaurant"},{"name":"한향림도자미술관","tel":"070-8785-7130","addr":"경기도 파주시 탄현면 법흥리 1652-561번지","indutype":"일반휴게음식 - 서양음식","category":"restaurant"}]},{"lat":"37.789808275","long":"126.7008859","imageIndex":4,"items":[{"name":"한향림옹기박물관","tel":"070-4161-7276","addr":"경기도 파주시 탄현면 법흥리 1652-577번지","indutype":"일반휴게음식 - 스넥","category":"restaurant"}]},{"lat":"37.789027365","long":"126.69851638","imageIndex":4,"items":[{"name":"한향림현대도자미술관","tel":"070-4161-7276","addr":"경기도 파주시 탄현면 법흥리 1652-208 외1","indutype":"일반휴게음식 - 일반한식","category":"restaurant"}]},{"lat":"37.770367287","long":"126.70499417","imageIndex":4,"items":[{"name":"할매생고기","tel":"031-949-1716","addr":"경기도 파주시 탄현면 법흥리 1581-6","indutype":"일반휴게음식 - 일반한식","category":"restaurant"}]},{"lat":"37.769119395","long":"126.69966485","imageIndex":4,"items":[{"name":"할매소머리국밥","tel":"031-941-1716","addr":"경기도 파주시 탄현면 법흥리 1600-1번지","indutype":"일반휴게음식 - 일반한식","category":"restaurant"}]},{"lat":"37.787945023","long":"126.70155193","imageIndex":4,"items":[{"name":"헥(HEK)","tel":"","addr":"경기도 파주시 탄현면 법흥리 1652-503번지","indutype":"일반휴게음식 - 서양음식","category":"restaurant"}]},{"lat":"37.774674418","long":"126.70168525","imageIndex":4,"items":[{"name":"헨즈네스트","tel":"031-945-1557","addr":"경기도 파주시 탄현면 법흥리 1725-1번지","indutype":"일반휴게음식 - 일반한식","category":"restaurant"},{"name":"헨즈네스트","tel":"031-945-1557","addr":"경기도 파주시 탄현면 법흥리 1725-1번지","indutype":"일반휴게음식 - 일반한식","category":"restaurant"}]},{"lat":"37.788358734","long":"126.69776985","imageIndex":4,"items":[{"name":"혜밀 (버거레시피)","tel":"031-944-0724","addr":"경기도 파주시 탄현면 법흥리 1652-190번지","indutype":"일반휴게음식 - 일반한식","category":"restaurant"}]},{"lat":"37.769645128","long":"126.70444093","imageIndex":4,"items":[{"name":"흑돼지형제들","tel":"031-957-9291","addr":"경기도 파주시 탄현면 법흥리 1583-7번지","indutype":"일반휴게음식 - 일반한식","category":"restaurant"}]},{"lat":"37.788693293","long":"126.70174189","imageIndex":4,"items":[{"name":"힐즈눅(Hills Nook)","tel":"","addr":"경기도 파주시 탄현면 법흥리 1652-557번지","indutype":"일반휴게음식 - 서양음식","category":"restaurant"}]},{"lat":"37.793971703","long":"126.70130039","imageIndex":13,"items":[{"name":"(주)한성레포츠","tel":"031-944-2200","addr":"경기도 파주시 탄현면 법흥리 1632번지","indutype":"레저업소 - 골프연습장","category":"leisure"},{"name":"(주)한성레포츠","tel":"031-944-2200","addr":"경기도 파주시 탄현면 법흥리 1632번지","indutype":"레저업소 - 골프연습장","category":"leisure"}]},{"lat":"37.779084141","long":"126.70685483","imageIndex":13,"items":[{"name":"뉴헤이리노래연습장","tel":"031-945-6124","addr":"경기도 파주시 탄현면 법흥리 478번지","indutype":"레저업소 - 노 래 방","category":"leisure"}]},{"lat":"37.77949944","long":"126.70362943","imageIndex":13,"items":[{"name":"매니아 당구클럽","tel":"031-949-3025","addr":"경기도 파주시 탄현면 법흥리 1676-12번지","indutype":"레저업소 - 당 구 장","category":"leisure"}]},{"lat":"37.774639163","long":"126.70199186","imageIndex":13,"items":[{"name":"빅박스 당구장","tel":"031-000-0000","addr":"경기도 파주시 탄현면 법흥리 1724번지","indutype":"레저업소 - 당 구 장","category":"leisure"}]},{"lat":"37.769919199","long":"126.70238552","imageIndex":13,"items":[{"name":"삼순이노래방","tel":"031-949-8707","addr":"경기도 파주시 탄현면 법흥리 1591번지","indutype":"레저업소 - 노 래 방","category":"leisure"}]},{"lat":"37.768838789","long":"126.69915527","imageIndex":13,"items":[{"name":"수노래연습장","tel":"031-948-0712","addr":"경기도 파주시 탄현면 법흥리 1602번지","indutype":"레저업소 - 노 래 방","category":"leisure"}]},{"lat":"37.769806233","long":"126.70402034","imageIndex":13,"items":[{"name":"신바람노래연습장","tel":"031-123-4567","addr":"경기도 파주시 탄현면 법흥리 1586-13번지","indutype":"레저업소 - 노 래 방","category":"leisure"}]},{"lat":"37.787668891","long":"126.69579736","imageIndex":13,"items":[{"name":"아이존팝동수원점","tel":"070-7674-0182","addr":"경기도 파주시 탄현면 법흥리 1652-323번지","indutype":"레저업소 - 기타레져업소","category":"leisure"}]},{"lat":"37.774674418","long":"126.70168525","imageIndex":13,"items":[{"name":"차크라요가","tel":"031-000-0000","addr":"경기도 파주시 탄현면 법흥리 1725-1번지","indutype":"레저업소 - 헬스클럽","category":"leisure"}]},{"lat":"37.769923844","long":"126.70421281","imageIndex":13,"items":[{"name":"파티노래연습장","tel":"031-1111-1111","addr":"경기도 파주시 탄현면 법흥리 1580-20번지","indutype":"레저업소 - 노 래 방","category":"leisure"}]},{"lat":"37.770418814","long":"126.70399518","imageIndex":13,"items":[{"name":"팡팡체험스쿨","tel":"031-944-1580","addr":"경기도 파주시 탄현면 법흥리 1579-5번지","indutype":"레저업소 - 기타레져업소","category":"leisure"}]},{"lat":"37.788393683","long":"126.69734966","imageIndex":13,"items":[{"name":"한스갤러리","tel":"031-947-3716","addr":"경기도 파주시 탄현면 법흥리 1652-192번지","indutype":"레저업소 - 기타레져업소","category":"leisure"}]},{"lat":"37.791859868","long":"126.69640443","imageIndex":13,"items":[{"name":"헤이리도자기체험학교","tel":"070-4078-5078","addr":"경기도 파주시 탄현면 법흥리 1652-23번지","indutype":"레저업소 - 기타레져업소","category":"leisure"}]},{"lat":"37.769119395","long":"126.69966485","imageIndex":13,"items":[{"name":"희망노래연습장","tel":"031-941-7332","addr":"경기도 파주시 탄현면 법흥리 1600-1번지","indutype":"레저업소 - 노 래 방","category":"leisure"}]},{"lat":"37.777199067","long":"126.70602239","imageIndex":0,"items":[{"name":"BOP헤이리","tel":"02-1544-6072","addr":"경기도 파주시 탄현면 법흥리 497-110번지","indutype":"자동차정비 유지 - 자동차정비","category":"car"}]},{"lat":"37.776922368","long":"126.71432094","imageIndex":0,"items":[{"name":"갈현자동차공업사","tel":"031-947-4079","addr":"경기도 파주시 탄현면 법흥리 169-5","indutype":"자동차정비 유지 - 자동차정비","category":"car"}]},{"lat":"37.777950078","long":"126.71457801","imageIndex":0,"items":[{"name":"국제자동차보링공업사","tel":"031-947-0380","addr":"경기도 파주시 탄현면 법흥리 158-2","indutype":"자동차정비 유지 - 자동차정비","category":"car"}]},{"lat":"37.77849997","long":"126.7110457","imageIndex":0,"items":[{"name":"스트리모","tel":"031-944-4262","addr":"경기도 파주시 탄현면 법흥리 498-23번지","indutype":"자동차정비 유지 - 자동차부품","category":"car"}]},{"lat":"37.779284995","long":"126.70790969","imageIndex":0,"items":[{"name":"양지바른정비마당","tel":"031-957-1255","addr":"경기도 파주시 탄현면 법흥리 481번지","indutype":"자동차정비 유지 - 자동차정비","category":"car"}]},{"lat":"37.770309636","long":"126.70357567","imageIndex":0,"items":[{"name":"제이오일","tel":"","addr":"경기도 파주시 탄현면 법흥리 1587-2번지","indutype":"자동차정비 유지 - 자동차부품","category":"car"}]},{"lat":"37.778668368","long":"126.70632299","imageIndex":0,"items":[{"name":"주식회사 한강모터스","tel":"031-946-0999","addr":"경기도 파주시 탄현면 법흥리 500-4번지","indutype":"자동차정비 유지 - 자동차정비","category":"car"}]},{"lat":"37.768533551","long":"126.69957645","imageIndex":0,"items":[{"name":"통일오토카센타","tel":"031-944-8419","addr":"경기도 파주시 탄현면 법흥리 1601-9번지","indutype":"자동차정비 유지 - 자동차정비","category":"car"}]},{"lat":"37.786248218","long":"126.6968817","imageIndex":0,"items":[{"name":"트라이벌카본","tel":"","addr":"경기도 파주시 탄현면 법흥리 1652-366번지","indutype":"자동차정비 유지 - 자동차부품","category":"car"}]},{"lat":"37.774639163","long":"126.70199186","imageIndex":0,"items":[{"name":"현대자동차공업사","tel":"031-949-0991","addr":"경기도 파주시 탄현면 법흥리 1724번지 정동빌딩 101호","indutype":"자동차정비 유지 - 자동차정비","category":"car"}]},{"lat":"37.778863606","long":"126.70160015","imageIndex":7,"items":[{"name":"JK통상","tel":"031-945-7517","addr":"경기도 파주시 탄현면 법흥리 1684-9번지 305 ,한일빌","indutype":"음료식품 - 기타음료식품","category":"food"}]},{"lat":"37.780368131","long":"126.69807513","imageIndex":7,"items":[{"name":"뚜레쥬르 이마트통일동산점","tel":"070-4227-7111","addr":"경기도 파주시 탄현면 법흥리 1671번지","indutype":"음료식품 - 제과점","category":"food"}]},{"lat":"37.777696842","long":"126.71418171","imageIndex":7,"items":[{"name":"로드하우스","tel":"070-7710-6259","addr":"경기도 파주시 탄현면 법흥리 167-9번지","indutype":"음료식품 - 기타음료식품","category":"food"}]},{"lat":"37.787666922","long":"126.70201851","imageIndex":7,"items":[{"name":"루미케익","tel":"031-949-2700","addr":"경기도 파주시 탄현면 법흥리 1652-527번지","indutype":"음료식품 - 제과점","category":"food"}]},{"lat":"37.791859868","long":"126.69640443","imageIndex":7,"items":[{"name":"류재은베이커리 카페","tel":"031-223-9159","addr":"경기도 파주시 탄현면 법흥리 1652-23번지","indutype":"음료식품 - 제과점","category":"food"},{"name":"빵짓는농부","tel":"02-1111-1111","addr":"경기도 파주시 탄현면 법흥리 1652-23번지","indutype":"음료식품 - 제과점","category":"food"},{"name":"추억으로오란다","tel":"070-4105-4534","addr":"경기도 파주시 탄현면 법흥리 1652-23번지","indutype":"음료식품 - 기타음료식품","category":"food"}]},{"lat":"37.787811531","long":"126.69521779","imageIndex":7,"items":[{"name":"빵까페","tel":"","addr":"경기도 파주시 탄현면 법흥리 1652-295번지","indutype":"음료식품 - 제과점","category":"food"}]},{"lat":"37.778922657","long":"126.7071279","imageIndex":7,"items":[{"name":"성우도매물류","tel":"031-947-5114","addr":"경기도 파주시 탄현면 법흥리 479번지","indutype":"음료식품 - 기타음료식품","category":"food"}]},{"lat":"37.787307134","long":"126.69873913","imageIndex":7,"items":[{"name":"식물감각","tel":"031-957-3123","addr":"경기도 파주시 탄현면 법흥리 1652-404.1층4/2","indutype":"음료식품 - 주류 판매점","category":"food"}]},{"lat":"37.774639163","long":"126.70199186","imageIndex":7,"items":[{"name":"오두산빵굼터","tel":"031-943-0945","addr":"경기도 파주시 탄현면 법흥리 1724번지","indutype":"음료식품 - 제과점","category":"food"}]},{"lat":"37.788033605","long":"126.70096124","imageIndex":7,"items":[{"name":"우리동네마카롱","tel":"031-944-1139","addr":"경기도 파주시 탄현면 법흥리 1652-498번지","indutype":"음료식품 - 제과점","category":"food"}]},{"lat":"37.767863402","long":"126.69823995","imageIndex":7,"items":[{"name":"장수장어양식장","tel":"031-945-9781","addr":"경기도 파주시 탄현면 법흥리 1513번지","indutype":"음료식품 - 농·축·수산품","category":"food"}]},{"lat":"37.770442149","long":"126.70254231","imageIndex":7,"items":[{"name":"종로떡집","tel":"031-949-7377","addr":"경기도 파주시 탄현면 법흥리 1566번지 효자그린빌","indutype":"음료식품 - 제과점","category":"food"}]},{"lat":"37.783554502","long":"126.70751811","imageIndex":7,"items":[{"name":"창하된장","tel":"031-946-3504","addr":"경기도 파주시 탄현면 법흥리 427","indutype":"음료식품 - 기타음료식품","category":"food"}]},{"lat":"37.787805569","long":"126.69638712","imageIndex":7,"items":[{"name":"커피의모든것 헤이리커피박물관","tel":"070-4176-1212","addr":"경기도 파주시 탄현면 법흥리 1652-278번지","indutype":"음료식품 - 기타음료식품","category":"food"}]},{"lat":"37.774367895","long":"126.70160704","imageIndex":7,"items":[{"name":"통일떡방앗간","tel":"031-945-2357","addr":"경기도 파주시 탄현면 법흥리 1725-3번지","indutype":"음료식품 - 제과점","category":"food"}]},{"lat":"37.7915059","long":"126.70954136","imageIndex":7,"items":[{"name":"할라쏠트","tel":"031-942-8681","addr":"경기도 파주시 탄현면 법흥리 325번지","indutype":"음료식품 - 기타음료식품","category":"food"}]},{"lat":"37.774674418","long":"126.70168525","imageIndex":16,"items":[{"name":"글로리아음악학원","tel":"031-944-9936","addr":"경기도 파주시 탄현면 법흥리 1725-1번지","indutype":"학원 - 예·체능계학원","category":"study"},{"name":"라온수학학원","tel":"031-944-7571","addr":"경기도 파주시 탄현면 법흥리 1725-1번지","indutype":"학원 - 보습학원","category":"study"},{"name":"뮤엠영어학원","tel":"031-948-0594","addr":"경기도 파주시 탄현면 법흥리 1725-1번지","indutype":"회원제형태 - 학원","category":"study"},{"name":"효자태권도","tel":"031-949-0342","addr":"경기도 파주시 탄현면 법흥리 1725-1","indutype":"회원제형태 - 학원","category":"study"}]},{"lat":"37.775251334","long":"126.69830045","imageIndex":16,"items":[{"name":"동산벧엘학원","tel":"031-949-5419","addr":"경기도 파주시 탄현면 법흥리 1789번지","indutype":"학원 - 예·체능계학원","category":"study"}]},{"lat":"37.775972671","long":"126.6985245","imageIndex":16,"items":[{"name":"박쌤공부방","tel":"070-8248-7611","addr":"경기도 파주시 탄현면 법흥리 1789번지 유승앙브와즈1단지","indutype":"회원제형태 - 학원","category":"study"}]},{"lat":"37.771057847","long":"126.70374291","imageIndex":16,"items":[{"name":"예은피아노교습소","tel":"031-947-7307","addr":"경기도 파주시 탄현면 법흥리 1577번지","indutype":"학원 - 예·체능계학원","category":"study"}]},{"lat":"37.776530786","long":"126.70184798","imageIndex":16,"items":[{"name":"이앤이교실","tel":"031-946-9423","addr":"경기도 파주시 탄현면 법흥리 1694-9번지","indutype":"회원제형태 - 학원","category":"study"}]},{"lat":"37.770389393","long":"126.70305326","imageIndex":16,"items":[{"name":"이튼 어린이집[아이행복]","tel":"031-945-7946","addr":"경기도 파주시 탄현면 법흥리 1588번지","indutype":"학원 - 유아원","category":"study"},{"name":"이튼리틀스쿨학원","tel":"031-949-9168","addr":"경기도 파주시 탄현면 법흥리 1588번지","indutype":"학원 - 보습학원","category":"study"},{"name":"이튼어린이집[아이행복]","tel":"031-949-9169","addr":"경기도 파주시 탄현면 법흥리 1588번지","indutype":"학원 - 유아원","category":"study"}]},{"lat":"37.775994462","long":"126.69998865","imageIndex":16,"items":[{"name":"작은마을어린이집[아이행복]","tel":"031-949-0776","addr":"경기도 파주시 탄현면 법흥리 1787번지 유승앙브와즈2단지","indutype":"학원 - 유아원","category":"study"}]},{"lat":"37.790725307","long":"126.70013288","imageIndex":16,"items":[{"name":"정한숙 서원","tel":"031-000-0000","addr":"경기도 파주시 탄현면 법흥리 1652-572번지","indutype":"학원 - 기타 교육기관","category":"study"}]},{"lat":"37.774367895","long":"126.70160704","imageIndex":16,"items":[{"name":"종로아인스위싱웰영어전문학원","tel":"031-947-6470","addr":"경기도 파주시 탄현면 법흥리 1725-3번지","indutype":"학원 - 보습학원","category":"study"},{"name":"한국석사태권도장","tel":"031-945-3939","addr":"경기도 파주시 탄현면 법흥리 1725-3번지","indutype":"학원 - 예·체능계학원","category":"study"}]},{"lat":"37.785166596","long":"126.70370875","imageIndex":16,"items":[{"name":"주식회사 한류트레이닝센터","tel":"070-8879-8808","addr":"경기도 파주시 탄현면 법흥리 1779번지","indutype":"학원 - 예·체능계학원","category":"study"}]},{"lat":"37.789587176","long":"126.69899089","imageIndex":16,"items":[{"name":"크라프트밸리","tel":"031-949-6736","addr":"경기도 파주시 탄현면 법흥리 1652-132","indutype":"회원제형태 - 학원","category":"study"}]},{"lat":"37.774644247","long":"126.70398952","imageIndex":16,"items":[{"name":"통일초등학교병설유치원[아이행복]","tel":"031-945-1974","addr":"경기도 파주시 탄현면 법흥리 1719번지","indutype":"학원 - 유치원","category":"study"}]},{"lat":"37.790890981","long":"126.69799785","imageIndex":16,"items":[{"name":"한국바리스타엔지니어협회 (KBEA)","tel":"031-949-4679","addr":"경기도 파주시 탄현면 법흥리 1652-59번지","indutype":"학원 - 기능학원","category":"study"}]},{"lat":"37.770418814","long":"126.70399518","imageIndex":16,"items":[{"name":"헤이리로 체험스쿨","tel":"031-944-1580","addr":"경기도 파주시 탄현면 법흥리 1579-5번지","indutype":"학원 - 기타 교육기관","category":"study"}]},{"lat":"37.771687813","long":"126.70346797","imageIndex":16,"items":[{"name":"효자산들어린이집[아이행복]","tel":"031-957-1850","addr":"경기도 파주시 탄현면 법흥리 1566번지 효자그린빌","indutype":"학원 - 유아원","category":"study"}]},{"lat":"37.775062952","long":"126.70212635","imageIndex":8,"items":[{"name":"리드치과의원","tel":"031-949-8215","addr":"경기도 파주시 탄현면 법흥리 1723-1번지","indutype":"의원 - 치과의원","category":"medical"}]},{"lat":"37.771340387","long":"126.70502431","imageIndex":8,"items":[{"name":"범진약국","tel":"031-945-1585","addr":"경기도 파주시 탄현면 법흥리 1573-5번지","indutype":"약국 - 약국","category":"medical"}]},{"lat":"37.774367895","long":"126.70160704","imageIndex":8,"items":[{"name":"시온약국","tel":"031-948-7561","addr":"경기도 파주시 탄현면 법흥리 1725-3","indutype":"약국 - 약국","category":"medical"},{"name":"파주연합의원","tel":"031-941-4868","addr":"경기도 파주시 탄현면 법흥리 1725-3번지","indutype":"의원 - 의원","category":"medical"}]},{"lat":"37.775833663","long":"126.70052278","imageIndex":8,"items":[{"name":"영담한의원","tel":"031-942-0047","addr":"경기도 파주시 탄현면 법흥리 1787번지","indutype":"의원 - 한의원","category":"medical"}]},{"lat":"37.774674418","long":"126.70168525","imageIndex":8,"items":[{"name":"우리한의원","tel":"031-949-1071","addr":"경기도 파주시 탄현면 법흥리 1725-1번지","indutype":"의원 - 한의원","category":"medical"}]},{"lat":"37.77536168","long":"126.70268131","imageIndex":8,"items":[{"name":"한사랑내과","tel":"031-8071-0066","addr":"경기도 파주시 탄현면 법흥리 1722번지","indutype":"의원 - 의원","category":"medical"},{"name":"한솔약국","tel":"031-944-7107","addr":"경기도 파주시 탄현면 법흥리 1722번지","indutype":"약국 - 약국","category":"medical"}]},{"lat":"37.786312138","long":"126.69721065","imageIndex":5,"items":[{"name":"모리","tel":"031-945-7259","addr":"경기도 파주시 탄현면 법흥리 1652-360번지","indutype":"숙박업 - 여관/기타숙박업","category":"hotel"}]},{"lat":"37.791947003","long":"126.69526876","imageIndex":5,"items":[{"name":"베조아니","tel":"031-945-7254","addr":"경기도 파주시 탄현면 법흥리 1652-2번지","indutype":"숙박업 - 여관/기타숙박업","category":"hotel"}]},{"lat":"37.771305382","long":"126.70543305","imageIndex":5,"items":[{"name":"사과갤러리즐거운집","tel":"","addr":"경기도 파주시 탄현면 법흥리 1572-7번지","indutype":"숙박업 - 여관/기타숙박업","category":"hotel"}]},{"lat":"37.796140185","long":"126.69327583","imageIndex":5,"items":[{"name":"채연","tel":"031-941-0242","addr":"경기도 파주시 탄현면 법흥리 640-27번지","indutype":"숙박업 - 여관/기타숙박업","category":"hotel"}]},{"lat":"37.796755293","long":"126.69421563","imageIndex":5,"items":[{"name":"축제펜션","tel":"070-3100-8826","addr":"경기도 파주시 탄현면 법흥리 640-9번지","indutype":"숙박업 - 여관/기타숙박업","category":"hotel"}]},{"lat":"37.796635967","long":"126.69337594","imageIndex":5,"items":[{"name":"펜션 J","tel":"031-945-7259","addr":"경기도 파주시 탄현면 법흥리 640-2번지","indutype":"숙박업 - 여관/기타숙박업","category":"hotel"}]},{"lat":"37.796781309","long":"126.69382949","imageIndex":5,"items":[{"name":"헤이리애","tel":"031-817-0137","addr":"경기도 파주시 탄현면 법흥리 640-4번지","indutype":"숙박업 - 여관/기타숙박업","category":"hotel"}]},{"lat":"37.79699795","long":"126.69398754","imageIndex":5,"items":[{"name":"헤이리팜파티","tel":"031-942-6507","addr":"경기도 파주시 탄현면 법흥리 640-5번지","indutype":"숙박업 - 여관/기타숙박업","category":"hotel"}]},{"lat":"37.793612309","long":"126.6947169","imageIndex":9,"items":[{"name":"주식회사 태풍에너지","tel":"031-945-2900","addr":"경기도 파주시 탄현면 법흥리 1791-2번지","indutype":"연료판매점 - GS주유소","category":"oil"}]},{"lat":"37.776168159","long":"126.71537948","imageIndex":9,"items":[{"name":"행운2주유소","tel":"031-941-5102","addr":"경기도 파주시 탄현면 법흥리 169-7번지","indutype":"연료판매점 - SK주유소","category":"oil"}]},{"lat":"37.769919199","long":"126.70238552","imageIndex":7,"items":[{"name":"진선유통(두배로할인마트)","tel":"031-945-5888","addr":"경기도 파주시 탄현면 법흥리 1591번지","indutype":"유통업 영리 - 슈퍼마켓","category":"mart"}]},{"lat":"37.771420467","long":"126.70462674","imageIndex":7,"items":[{"name":"태호유통2호점","tel":"031-947-0078","addr":"경기도 파주시 탄현면 법흥리 1574-9","indutype":"유통업 영리 - 슈퍼마켓","category":"mart"}]}]