[{"lat":"37.151256158","long":"127.06186689","imageIndex":0,"items":[{"name":"그린세차장","tel":"031-373-6537","addr":"경기도 오산시 청학동 37-4번지","indutype":"자동차정비 유지 - 세차장","category":"car"},{"name":"그린세차장블랙박스","tel":"","addr":"경기도 오산시 청학동 37-4번지 1층","indutype":"자동차정비 유지 - 세차장","category":"car"},{"name":"그린카센타","tel":"031-374-4483","addr":"경기도 오산시 청학동 37-4번지","indutype":"자동차정비 유지 - 자동차정비","category":"car"}]},{"lat":"37.153894982","long":"127.06431172","imageIndex":0,"items":[{"name":"명진자동차","tel":"031-374-8870","addr":"경기도 오산시 청학동 8-8번지","indutype":"자동차정비 유지 - 자동차부품","category":"car"}]},{"lat":"37.153615774","long":"127.06408635","imageIndex":0,"items":[{"name":"세교자동차유리","tel":"031-375-2797","addr":"경기도 오산시 청학동 8-5번지 현대빌딩 1층 1호","indutype":"자동차정비 유지 - 자동차부품","category":"car"}]},{"lat":"37.150337091","long":"127.06186617","imageIndex":0,"items":[{"name":"솔타이어","tel":"031-374-6385","addr":"경기도 오산시 청학동 40-1번지","indutype":"자동차정비 유지 - 자동차시트·타이어","category":"car"},{"name":"솔타이어","tel":"031-374-6385","addr":"경기도 오산시 청학동 40-1번지","indutype":"자동차정비 유지 - 자동차시트·타이어","category":"car"}]},{"lat":"37.154971155","long":"127.05619614","imageIndex":0,"items":[{"name":"야와라","tel":"","addr":"경기도 오산시 청학동 70-11번지 1층 101호","indutype":"자동차정비 유지 - 카인테리어","category":"car"},{"name":"카카라(Kakara)","tel":"031-372-5115","addr":"경기도 오산시 청학동 70-11번지","indutype":"자동차정비 유지 - 카인테리어","category":"car"}]},{"lat":"37.156142136","long":"127.05703001","imageIndex":0,"items":[{"name":"워시스페이스(WASH SPACE)","tel":"070-4685-9994","addr":"경기도 오산시 청학동 60번지","indutype":"자동차정비 유지 - 세차장","category":"car"},{"name":"지산모터스","tel":"031-373-9158","addr":"경기도 오산시 청학동 60번지","indutype":"자동차정비 유지 - 자동차정비","category":"car"},{"name":"하나모터스","tel":"031-373-9158","addr":"경기도 오산시 청학동 60번지 1층 상가","indutype":"자동차정비 유지 - 자동차정비","category":"car"},{"name":"하나모터스","tel":"031-373-9158","addr":"경기도 오산시 청학동 60번지 1층","indutype":"자동차정비 유지 - 자동차정비","category":"car"}]},{"lat":"37.151058559","long":"127.06058348","imageIndex":0,"items":[{"name":"입장현지지게차","tel":"041-585-7477","addr":"경기도 오산시 청학동 196-1번지 1층","indutype":"자동차판매 - 기타운송","category":"car"}]},{"lat":"37.155500633","long":"127.06075571","imageIndex":0,"items":[{"name":"주식회사이브텍","tel":"031-375-2990","addr":"경기도 오산시 청학동 17번지 오산대학창업보육센터 508호","indutype":"자동차정비 유지 - 자동차부품","category":"car"}]},{"lat":"37.154723527","long":"127.06511165","imageIndex":0,"items":[{"name":"청학점 현대자동차","tel":"031-372-8288","addr":"경기도 오산시 청학동 4-2번지","indutype":"자동차정비 유지 - 자동차정비","category":"car"}]},{"lat":"37.155394468","long":"127.05659044","imageIndex":0,"items":[{"name":"카즈오디오Carz Audio","tel":"031-375-5992","addr":"경기도 오산시 청학동 68번지 강남프라자 101호","indutype":"자동차정비 유지 - 자동차부품","category":"car"},{"name":"케이디씨(KDC)오산직영점","tel":"031-376-1700","addr":"경기도 오산시 청학동 68번지 강남프라자 102호","indutype":"자동차정비 유지 - 카인테리어","category":"car"}]},{"lat":"37.150445367","long":"127.06156233","imageIndex":0,"items":[{"name":"탑오토바이","tel":"031-283-4569","addr":"경기도 오산시 청학동 40번지 현해빌딩 101호","indutype":"자동차판매 - 이륜차판매","category":"car"}]}]