[{"lat":"37.634201183","long":"127.21013648","imageIndex":13,"items":[{"name":"(주)엠에이미디어(MA Media)","tel":"02-0000-0000","addr":"경기도 남양주시 금곡동 423-5번지 중부새마을금고 5층 A572호","indutype":"레저업소 - 기타레져업소","category":"leisure"}]},{"lat":"37.635088934","long":"127.20738594","imageIndex":13,"items":[{"name":"SBS노래연습장","tel":"031-593-7727","addr":"경기도 남양주시 금곡동 404-91번지 지하","indutype":"레저업소 - 노 래 방","category":"leisure"}]},{"lat":"37.634141837","long":"127.20800645","imageIndex":13,"items":[{"name":"공연 노래연습장","tel":"070-4237-9454","addr":"경기도 남양주시 금곡동 419-11번지 대로빌딩 2층 2호","indutype":"레저업소 - 노 래 방","category":"leisure"},{"name":"큐 당구클럽","tel":"","addr":"경기도 남양주시 금곡동 419-11번지 대로빌딩 7층","indutype":"레저업소 - 당 구 장","category":"leisure"}]},{"lat":"37.634835778","long":"127.20789506","imageIndex":13,"items":[{"name":"금곡당구클럽","tel":"031-594-3949","addr":"경기도 남양주시 금곡동 402-4번지 좋은인상프라자 2층","indutype":"레저업소 - 당 구 장","category":"leisure"},{"name":"썬스크린골프장","tel":"031-594-6222","addr":"경기도 남양주시 금곡동 402-4번지 좋은인상프라자","indutype":"레저업소 - 스크린골프","category":"leisure"}]},{"lat":"37.631140474","long":"127.20342144","imageIndex":13,"items":[{"name":"기해도 협회","tel":"031-591-0092","addr":"경기도 남양주시 금곡동 680-5번지","indutype":"레저업소 - 헬스클럽","category":"leisure"}]},{"lat":"37.633583769","long":"127.20769903","imageIndex":13,"items":[{"name":"다원","tel":"070-8709-4862","addr":"경기도 남양주시 금곡동 430-11번지 금마루프라자 5층 2호","indutype":"레저업소 - 기타레져업소","category":"leisure"}]},{"lat":"37.633775851","long":"127.20603419","imageIndex":13,"items":[{"name":"메인당구장","tel":"070-8953-1927","addr":"경기도 남양주시 금곡동 431-17번지 3층","indutype":"레저업소 - 당 구 장","category":"leisure"}]},{"lat":"37.634223515","long":"127.2076668","imageIndex":13,"items":[{"name":"브레이브힐기구 필라테스(금곡점)","tel":"031-595-0534","addr":"경기도 남양주시 금곡동 406-86번지 금곡프라자 304호,305호","indutype":"레저업소 - 헬스클럽","category":"leisure"},{"name":"스포츠당구클럽","tel":"031-511-2287","addr":"경기도 남양주시 금곡동 416-1번지 금곡프라자 405호","indutype":"레저업소 - 당 구 장","category":"leisure"},{"name":"스포츠당구클럽","tel":"","addr":"경기도 남양주시 금곡동 416-1번지 금곡프라자 4층","indutype":"레저업소 - 당 구 장","category":"leisure"}]},{"lat":"37.633976995","long":"127.20953542","imageIndex":13,"items":[{"name":"빅박스당구장","tel":"070-8871-7050","addr":"경기도 남양주시 금곡동 423-21번지 은하빌딩 2층","indutype":"레저업소 - 당 구 장","category":"leisure"}]},{"lat":"37.634082531","long":"127.2058311","imageIndex":13,"items":[{"name":"스타노래방","tel":"031-591-1477","addr":"경기도 남양주시 금곡동 404-41번지 백림빌딩 지층","indutype":"레저업소 - 노 래 방","category":"leisure"}]},{"lat":"37.627502426","long":"127.20231284","imageIndex":13,"items":[{"name":"신성당구장","tel":"031-595-0223","addr":"경기도 남양주시 금곡동 651다남프라자3층317호318호","indutype":"레저업소 - 당 구 장","category":"leisure"}]},{"lat":"37.627276859","long":"127.20250481","imageIndex":13,"items":[{"name":"영웅당구클럽","tel":"031-559-3522","addr":"경기도 남양주시 금곡동 651-1번지 다남프라자 307호","indutype":"레저업소 - 당 구 장","category":"leisure"}]},{"lat":"37.633444729","long":"127.20473046","imageIndex":13,"items":[{"name":"왔다노래연습장","tel":"031-594-7785","addr":"경기도 남양주시 금곡동 432-30번지 지층","indutype":"레저업소 - 노 래 방","category":"leisure"}]},{"lat":"37.633363991","long":"127.20452632","imageIndex":13,"items":[{"name":"정노래연습장","tel":"031-593-6595","addr":"경기도 남양주시 금곡동 432-29번지 시온빌딩","indutype":"레저업소 - 노 래 방","category":"leisure"}]},{"lat":"37.635888597","long":"127.21375523","imageIndex":13,"items":[{"name":"조아짐휘트니스","tel":"031-592-0063","addr":"경기도 남양주시 금곡동 158-1번지 삼정빌딩 501호","indutype":"레저업소 - 헬스클럽","category":"leisure"}]},{"lat":"37.634945406","long":"127.21216647","imageIndex":13,"items":[{"name":"종점당구장","tel":"031-592-5649","addr":"경기도 남양주시 금곡동 158-14번지 만복빌딩 3층 1호","indutype":"레저업소 - 당 구 장","category":"leisure"}]},{"lat":"37.62539626","long":"127.20106116","imageIndex":13,"items":[{"name":"짱노래연습장","tel":"031-559-5638","addr":"경기도 남양주시 금곡동 655-11번지","indutype":"레저업소 - 노 래 방","category":"leisure"}]},{"lat":"37.633836433","long":"127.20747314","imageIndex":13,"items":[{"name":"청춘노래방","tel":"031-591-1440","addr":"경기도 남양주시 금곡동 430-34번지","indutype":"레저업소 - 노 래 방","category":"leisure"}]},{"lat":"37.636194541","long":"127.21397135","imageIndex":13,"items":[{"name":"칸노래연습장","tel":"031-595-5008","addr":"경기도 남양주시 금곡동 166-2번지 지하1층","indutype":"레저업소 - 노 래 방","category":"leisure"}]},{"lat":"37.634144251","long":"127.20661298","imageIndex":13,"items":[{"name":"캉캉노래연습장","tel":"031-594-6077","addr":"경기도 남양주시 금곡동 404-77번지 관정빌딩 지하1층","indutype":"레저업소 - 노 래 방","category":"leisure"}]},{"lat":"37.632447685","long":"127.20294914","imageIndex":13,"items":[{"name":"필 노래연습장","tel":"031-528-6263","addr":"경기도 남양주시 금곡동 685-3번지 충용체육관 201호","indutype":"레저업소 - 노 래 방","category":"leisure"}]},{"lat":"37.625728131","long":"127.20194561","imageIndex":13,"items":[{"name":"행운노래방","tel":"031-595-8145","addr":"경기도 남양주시 금곡동 655-1번지","indutype":"레저업소 - 노 래 방","category":"leisure"}]},{"lat":"37.634164607","long":"127.21044226","imageIndex":13,"items":[{"name":"헐크짐","tel":"031-511-7725","addr":"경기도 남양주시 금곡동 156-40번지 양주빌딩 2층","indutype":"레저업소 - 헬스클럽","category":"leisure"}]},{"lat":"37.628751326","long":"127.20955493","imageIndex":13,"items":[{"name":"홍유릉 자연학교","tel":"","addr":"경기도 남양주시 금곡동 448-2번지 외 1필지","indutype":"레저업소 - 기타레져업소","category":"leisure"}]}]