[{"lat":"37.274014555","long":"127.1113015","imageIndex":7,"items":[{"name":"강남슈퍼","tel":"031-284-1023","addr":"경기도 용인시 기흥구 구갈동 414-6번지","indutype":"유통업 영리 - 슈퍼마켓","category":"mart"}]},{"lat":"37.275043241","long":"127.10963427","imageIndex":7,"items":[{"name":"그린홈마트","tel":"031-285-3804","addr":"경기도 용인시 기흥구 구갈동 410-15번지","indutype":"유통업 영리 - 슈퍼마켓","category":"mart"}]},{"lat":"37.275655183","long":"127.1104695","imageIndex":7,"items":[{"name":"대원식자재할인마트","tel":"031-282-2264","addr":"경기도 용인시 기흥구 구갈동 409번지 영광아파트","indutype":"유통업 영리 - 슈퍼마켓","category":"mart"}]},{"lat":"37.272402972","long":"127.11946205","imageIndex":7,"items":[{"name":"더샵할인마트","tel":"","addr":"경기도 용인시 기흥구 구갈동 234-5번지 기흥역더샵 상가동 101호","indutype":"유통업 영리 - 슈퍼마켓","category":"mart"}]},{"lat":"37.275988614","long":"127.11041359","imageIndex":7,"items":[{"name":"엔젤미니마트","tel":"031-281-8819","addr":"경기도 용인시 기흥구 구갈동 403-5번지","indutype":"유통업 영리 - 슈퍼마켓","category":"mart"}]},{"lat":"37.281102406","long":"127.11477339","imageIndex":7,"items":[{"name":"우리마트","tel":"031-274-0629","addr":"경기도 용인시 기흥구 구갈동 366-9번지","indutype":"유통업 영리 - 슈퍼마켓","category":"mart"}]},{"lat":"37.27432242","long":"127.10963325","imageIndex":7,"items":[{"name":"중국식품","tel":"","addr":"경기도 용인시 기흥구 구갈동 411-8번지 1층","indutype":"유통업 영리 - 슈퍼마켓","category":"mart"}]},{"lat":"37.277573068","long":"127.12996745","imageIndex":7,"items":[{"name":"케이마트","tel":"031-285-9378","addr":"경기도 용인시 기흥구 구갈동 547-12번지","indutype":"유통업 영리 - 슈퍼마켓","category":"mart"}]},{"lat":"37.27757078","long":"127.11435097","imageIndex":7,"items":[{"name":"킹할인마트","tel":"031-281-7065","addr":"경기도 용인시 기흥구 구갈동 383-5번지 1층","indutype":"유통업 영리 - 슈퍼마켓","category":"mart"}]},{"lat":"37.273934999","long":"127.10961016","imageIndex":7,"items":[{"name":"한신","tel":"031-285-8175","addr":"경기도 용인시 기흥구 구갈동 412번지","indutype":"유통업 영리 - 슈퍼마켓","category":"mart"}]}]