[{"lat":"37.137556523","long":"126.85643677","imageIndex":13,"items":[{"name":"(주)미라클워터월드","tel":"031-353-5850","addr":"경기도 화성시 팔탄면 덕우리 15-5번지","indutype":"보건위생 - 사우나","category":"beauty"}]},{"lat":"37.128641125","long":"126.86052765","imageIndex":17,"items":[{"name":"GS25팔탄덕우점","tel":"","addr":"경기도 화성시 팔탄면 덕우리 230-6번지 1층","indutype":"유통업 영리 - 편 의 점","category":"other"}]},{"lat":"37.132949968","long":"126.86986035","imageIndex":17,"items":[{"name":"광영산업","tel":"070-8817-9646","addr":"경기도 화성시 팔탄면 덕우리 200-1번지 1층","indutype":"기타 - 기계공구","category":"other"}]},{"lat":"37.125139115","long":"126.86311109","imageIndex":17,"items":[{"name":"금강레이져","tel":"031-366-5575","addr":"경기도 화성시 팔탄면 덕우리 257-4","indutype":"용역 서비스 - 기타용역서비스","category":"other"}]},{"lat":"37.135087048","long":"126.86340792","imageIndex":17,"items":[{"name":"금성상사","tel":"031-352-4988","addr":"경기도 화성시 팔탄면 덕우리 184-5번지","indutype":"유통업 영리 - 기타유통업","category":"other"}]},{"lat":"37.130670696","long":"126.86238069","imageIndex":17,"items":[{"name":"덕우종합상사","tel":"031-352-4623","addr":"경기도 화성시 팔탄면 덕우리 220-15번지","indutype":"신변잡화 - 기타잡화","category":"other"}]},{"lat":"37.134611546","long":"126.86516444","imageIndex":17,"items":[{"name":"삼진수도","tel":"031-354-3304","addr":"경기도 화성시 팔탄면 덕우리 187-2","indutype":"건축자재 - 건축용 요업제품","category":"other"}]},{"lat":"37.138166534","long":"126.86163527","imageIndex":17,"items":[{"name":"아비만엔지니어링 주식회사","tel":"031-659-9114","addr":"경기도 화성시 팔탄면 덕우리 99-1번지","indutype":"기타 - 기계공구","category":"other"}]},{"lat":"37.129749507","long":"126.86060434","imageIndex":17,"items":[{"name":"알파산업","tel":"031-354-4913","addr":"경기도 화성시 팔탄면 덕우리 84-29","indutype":"기타 - 기계공구","category":"other"}]},{"lat":"37.142250707","long":"126.8636874","imageIndex":17,"items":[{"name":"어워크","tel":"031-651-4441","addr":"경기도 화성시 팔탄면 덕우리 121-3번지","indutype":"문화.취미 - 애완동물","category":"other"}]},{"lat":"37.131442853","long":"126.8600835","imageIndex":17,"items":[{"name":"제너럴마케팅그룹","tel":"031-388-1117","addr":"경기도 화성시 팔탄면 덕우리 84-15번지 동지프라스틱내","indutype":"레져용품 - 스포츠·레져용품","category":"other"}]},{"lat":"37.128700337","long":"126.86488257","imageIndex":17,"items":[{"name":"주식회사 대동에너지","tel":"031-433-9497","addr":"경기도 화성시 팔탄면 덕우리 214-24번지","indutype":"건축자재 - 보일러·펌프·샷시","category":"other"}]},{"lat":"37.128561148","long":"126.86146182","imageIndex":17,"items":[{"name":"태성레이져","tel":"031-8059-0595","addr":"경기도 화성시 팔탄면 덕우리 227-4번지","indutype":"용역 서비스 - 기타용역서비스","category":"other"}]},{"lat":"37.135752973","long":"126.86268641","imageIndex":7,"items":[{"name":"그린그린","tel":"031-0000-0000","addr":"경기도 화성시 팔탄면 덕우리 87-2번지 대흥빌딩 1층","indutype":"유통업 영리 - 슈퍼마켓","category":"mart"}]},{"lat":"37.137636133","long":"126.86266043","imageIndex":7,"items":[{"name":"예스마트 화성덕우점","tel":"031-354-5361","addr":"경기도 화성시 팔탄면 덕우리 96번지 덕우빌딩 101호","indutype":"유통업 영리 - 슈퍼마켓","category":"mart"}]},{"lat":"37.132140519","long":"126.86332329","imageIndex":4,"items":[{"name":"느락카페","tel":"031-354-3232","addr":"경기도 화성시 팔탄면 덕우리 86-1번지","indutype":"일반휴게음식 - 서양음식","category":"restaurant"}]},{"lat":"37.135752973","long":"126.86268641","imageIndex":4,"items":[{"name":"대흥한식뷔페","tel":"070-4220-4944","addr":"경기도 화성시 팔탄면 덕우리 87-2번지 대흥빌딩 1층","indutype":"일반휴게음식 - 일반한식","category":"restaurant"}]},{"lat":"37.133861001","long":"126.86288122","imageIndex":4,"items":[{"name":"미소한식부페","tel":"031-353-3020","addr":"경기도 화성시 팔탄면 덕우리 86-10번지","indutype":"일반휴게음식 - 일반한식","category":"restaurant"}]},{"lat":"37.139503268","long":"126.85682694","imageIndex":4,"items":[{"name":"보배부페식당","tel":"031-359-8774","addr":"경기도 화성시 팔탄면 덕우리 114-55번지 1층","indutype":"일반휴게음식 - 일반한식","category":"restaurant"}]},{"lat":"37.135249765","long":"126.86385779","imageIndex":4,"items":[{"name":"본스치킨 화성덕우점","tel":"031-353-7709","addr":"경기도 화성시 팔탄면 덕우리 183-1번지 1층","indutype":"일반휴게음식 - 스넥","category":"restaurant"}]},{"lat":"37.13433248","long":"126.85782724","imageIndex":4,"items":[{"name":"부일한식부페","tel":"031-359-9715","addr":"경기도 화성시 팔탄면 덕우리 58-1번지","indutype":"일반휴게음식 - 일반한식","category":"restaurant"}]},{"lat":"37.128280395","long":"126.8602695","imageIndex":4,"items":[{"name":"서울식당","tel":"031-353-1095","addr":"경기도 화성시 팔탄면 덕우리 230-2번지","indutype":"일반휴게음식 - 일반한식","category":"restaurant"}]},{"lat":"37.126640961","long":"126.86066643","imageIndex":4,"items":[{"name":"월문부폐식당","tel":"031-352-1423","addr":"경기도 화성시 팔탄면 덕우리 238-20번지","indutype":"일반휴게음식 - 일반한식","category":"restaurant"}]},{"lat":"37.130670696","long":"126.86238069","imageIndex":4,"items":[{"name":"월수금","tel":"031-359-8094","addr":"경기도 화성시 팔탄면 덕우리 220-15번지 1층 일부","indutype":"일반휴게음식 - 일반한식","category":"restaurant"}]},{"lat":"37.126721447","long":"126.86015989","imageIndex":4,"items":[{"name":"은혜한식짜장짬뽕중식부페","tel":"031-000-0000","addr":"경기도 화성시 팔탄면 덕우리 238-6번지","indutype":"일반휴게음식 - 일반한식","category":"restaurant"}]},{"lat":"37.136916753","long":"126.8564155","imageIndex":4,"items":[{"name":"이룸한식부페","tel":"031-352-0773","addr":"경기도 화성시 팔탄면 덕우리 17번지","indutype":"일반휴게음식 - 일반한식","category":"restaurant"}]},{"lat":"37.130977545","long":"126.86279651","imageIndex":4,"items":[{"name":"전주웰빙한식","tel":"031-8059-1108","addr":"경기도 화성시 팔탄면 덕우리 220-2번지","indutype":"일반휴게음식 - 일반한식","category":"restaurant"}]},{"lat":"37.128641125","long":"126.86052765","imageIndex":4,"items":[{"name":"짬뽕 달인","tel":"031-354-0230","addr":"경기도 화성시 팔탄면 덕우리 230-6번지 1층","indutype":"일반휴게음식 - 중국식","category":"restaurant"}]},{"lat":"37.130668481","long":"126.86052385","imageIndex":4,"items":[{"name":"청록식당","tel":"031-353-7931","addr":"경기도 화성시 팔탄면 덕우리 84-25번지","indutype":"일반휴게음식 - 일반한식","category":"restaurant"}]},{"lat":"37.137636133","long":"126.86266043","imageIndex":4,"items":[{"name":"행복한가정식뷔페","tel":"031-366-3002","addr":"경기도 화성시 팔탄면 덕우리 96번지","indutype":"일반휴게음식 - 일반한식","category":"restaurant"}]},{"lat":"37.133997112","long":"126.86369127","imageIndex":4,"items":[{"name":"호박카페","tel":"02-889-5316","addr":"경기도 화성시 팔탄면 덕우리 188-3번지","indutype":"일반휴게음식 - 서양음식","category":"restaurant"}]},{"lat":"37.132969853","long":"126.86363688","imageIndex":0,"items":[{"name":"서부특장차","tel":"031-352-3840","addr":"경기도 화성시 팔탄면 덕우리 188-7번지","indutype":"자동차정비 유지 - 자동차정비","category":"car"},{"name":"서부특장차","tel":"","addr":"경기도 화성시 팔탄면 덕우리 188-7번지","indutype":"자동차정비 유지 - 자동차정비","category":"car"}]},{"lat":"37.14288722","long":"126.86096243","imageIndex":0,"items":[{"name":"슈퍼드리프트","tel":"031-352-6288","addr":"경기도 화성시 팔탄면 덕우리 113-10번지","indutype":"자동차정비 유지 - 자동차부품","category":"car"}]},{"lat":"37.137835279","long":"126.86343663","imageIndex":0,"items":[{"name":"신영준 모터스","tel":"031-354-0186","addr":"경기도 화성시 팔탄면 덕우리 93-10번지","indutype":"자동차정비 유지 - 자동차정비","category":"car"}]},{"lat":"37.137302611","long":"126.85513173","imageIndex":0,"items":[{"name":"이레엔텍","tel":"031-366-1417","addr":"경기도 화성시 팔탄면 덕우리 13-14번지","indutype":"자동차정비 유지 - 자동차부품","category":"car"}]},{"lat":"37.139970573","long":"126.85582435","imageIndex":0,"items":[{"name":"주식회사디아이에스","tel":"031-8059-5343","addr":"경기도 화성시 팔탄면 덕우리 114-67","indutype":"자동차정비 유지 - 중장비수리","category":"car"}]},{"lat":"37.125139115","long":"126.86311109","imageIndex":7,"items":[{"name":"화성JH유통","tel":"","addr":"경기도 화성시 팔탄면 덕우리 257-4번지","indutype":"음료식품 - 기타음료식품","category":"food"}]},{"lat":"37.142553968","long":"126.8610756","imageIndex":7,"items":[{"name":"화이트식자재유통","tel":"","addr":"경기도 화성시 팔탄면 덕우리 113-51번지","indutype":"음료식품 - 기타음료식품","category":"food"}]}]