[{"lat":"37.00655204","long":"127.16957993","imageIndex":13,"items":[{"name":"S노래연습장","tel":"031-657-2776","addr":"경기도 안성시 공도읍 용두리 104-5번지","indutype":"레저업소 - 노 래 방","category":"leisure"},{"name":"신세계당구클럽","tel":"031-658-3358","addr":"경기도 안성시 공도읍 용두리 104-5번지 3층","indutype":"레저업소 - 당 구 장","category":"leisure"}]},{"lat":"37.007714035","long":"127.16985212","imageIndex":13,"items":[{"name":"S당구장","tel":"031-000-0000","addr":"경기도 안성시 공도읍 용두리 103-1번지 3층","indutype":"레저업소 - 당 구 장","category":"leisure"}]},{"lat":"37.00274088","long":"127.16932445","imageIndex":13,"items":[{"name":"공도당구클럽","tel":"031-656-3949","addr":"경기도 안성시 공도읍 용두리 138-5번지 3층","indutype":"레저업소 - 당 구 장","category":"leisure"}]},{"lat":"37.000689409","long":"127.16719667","imageIndex":13,"items":[{"name":"공도우미린더퍼스트아파트입주자대표회의","tel":"031-692-3161","addr":"경기도 안성시 공도읍 용두리 755번지 공도우미린더퍼스트","indutype":"레저업소 - 헬스클럽","category":"leisure"}]},{"lat":"37.001407733","long":"127.16244602","imageIndex":13,"items":[{"name":"달빛과쉬는시간","tel":"","addr":"경기도 안성시 공도읍 용두리 244-19번지 244-34,243-1","indutype":"레저업소 - 기타레져업소","category":"leisure"}]},{"lat":"36.999552692","long":"127.15469051","imageIndex":13,"items":[{"name":"도전100곡노래연습장","tel":"031-655-4787","addr":"경기도 안성시 공도읍 용두리 682-11번지 2층","indutype":"레저업소 - 노 래 방","category":"leisure"}]},{"lat":"37.008191362","long":"127.1700217","imageIndex":13,"items":[{"name":"어울림노래연습장","tel":"031-656-7972","addr":"경기도 안성시 공도읍 용두리 95-1번지 2층","indutype":"레저업소 - 노 래 방","category":"leisure"}]},{"lat":"37.004885227","long":"127.16946394","imageIndex":13,"items":[{"name":"인순이노래연습장","tel":"031-658-8253","addr":"경기도 안성시 공도읍 용두리 130-3번지","indutype":"레저업소 - 노 래 방","category":"leisure"}]},{"lat":"37.001385656","long":"127.15871611","imageIndex":13,"items":[{"name":"해피&탁탁구클럽","tel":"031-656-0854","addr":"경기도 안성시 공도읍 용두리 234-12번지 지하","indutype":"레저업소 - 기타레져업소","category":"leisure"}]}]