[{"lat":"37.837416156","long":"127.06368123","imageIndex":13,"items":[{"name":"1004 PC클럽","tel":"02-000-0000","addr":"경기도 양주시 덕정동 222-22번지","indutype":"레저업소 - 기타레져업소","category":"leisure"}]},{"lat":"37.838198955","long":"127.06562447","imageIndex":13,"items":[{"name":"JK스크린 골프연습장","tel":"031-861-1735","addr":"경기도 양주시 덕정동 214-23번지 2층","indutype":"레저업소 - 스크린골프","category":"leisure"}]},{"lat":"37.844002379","long":"127.06300497","imageIndex":13,"items":[{"name":"K팝노래연습장","tel":"031-841-1619","addr":"경기도 양주시 덕정동 133-39번지 2층","indutype":"레저업소 - 노 래 방","category":"leisure"}]},{"lat":"37.836665797","long":"127.06848589","imageIndex":13,"items":[{"name":"M코인노래연습장","tel":"","addr":"경기도 양주시 덕정동 208-8번지 황금프라자 2층 201호","indutype":"레저업소 - 노 래 방","category":"leisure"},{"name":"블링블링슬라임카페","tel":"","addr":"경기도 양주시 덕정동 208-8번지 황금프라자 306호","indutype":"레저업소 - 기타레져업소","category":"leisure"},{"name":"스카이당구장","tel":"031-857-7970","addr":"경기도 양주시 덕정동 208-8번지 황금프라자 4층 401호","indutype":"레저업소 - 당 구 장","category":"leisure"},{"name":"써니노래연습장","tel":"","addr":"경기도 양주시 덕정동 208-8번지 황금프라자","indutype":"레저업소 - 노 래 방","category":"leisure"}]},{"lat":"37.837144721","long":"127.0658735","imageIndex":13,"items":[{"name":"개구리노래연습장","tel":"031-858-9889","addr":"경기도 양주시 덕정동 208번지 금강프라자 202호","indutype":"레저업소 - 노 래 방","category":"leisure"},{"name":"금강 당구장","tel":"031-856-0078","addr":"경기도 양주시 덕정동 208번지 금강프라자 4층 404호","indutype":"레저업소 - 당 구 장","category":"leisure"},{"name":"아론PC","tel":"070-9512-7620","addr":"경기도 양주시 덕정동 208번지 금강프라자 지하1층","indutype":"레저업소 - 기타레져업소","category":"leisure"},{"name":"엠엠에이스토리 양주점","tel":"031-8083-9682","addr":"경기도 양주시 덕정동 208번지 금강프라자 5층 503호","indutype":"레저업소 - 헬스클럽","category":"leisure"}]},{"lat":"37.843082274","long":"127.06520825","imageIndex":13,"items":[{"name":"경인스크린골프연습장","tel":"031-864-0753","addr":"경기도 양주시 덕정동 151-6번지 1층","indutype":"레저업소 - 스크린골프","category":"leisure"}]},{"lat":"37.840750066","long":"127.06284328","imageIndex":13,"items":[{"name":"남양당구클럽","tel":"031-859-4199","addr":"경기도 양주시 덕정동 346-9번지 2층 206호","indutype":"레저업소 - 당 구 장","category":"leisure"},{"name":"베스트노래연습장","tel":"031-858-4232","addr":"경기도 양주시 덕정동 346-9번지 남양상가 2층","indutype":"레저업소 - 노 래 방","category":"leisure"}]},{"lat":"37.83714441","long":"127.06645286","imageIndex":13,"items":[{"name":"덕정점핑다이어트","tel":"031-000-0000","addr":"경기도 양주시 덕정동 208-1번지 해밀프라자 202호","indutype":"레저업소 - 헬스클럽","category":"leisure"},{"name":"디스코 롤러장","tel":"070-4045-8373","addr":"경기도 양주시 덕정동 208-1번지 해밀프라자 지하1층","indutype":"레저업소 - 기타레져업소","category":"leisure"},{"name":"뚜 스피닝","tel":"031-000-0000","addr":"경기도 양주시 덕정동 208-1번지 해밀프라자 3층 305호","indutype":"레저업소 - 헬스클럽","category":"leisure"},{"name":"아카데미당구클럽","tel":"031-858-3463","addr":"경기도 양주시 덕정동 208-1 해밀프라자 301호,302호","indutype":"레저업소 - 당 구 장","category":"leisure"},{"name":"자연노래연습장","tel":"031-858-7442","addr":"경기도 양주시 덕정동 208-1번지 해밀프라자 201호","indutype":"레저업소 - 노 래 방","category":"leisure"}]},{"lat":"37.838588074","long":"127.06231895","imageIndex":13,"items":[{"name":"라이브노래연습장","tel":"031-858-9137","addr":"경기도 양주시 덕정동 223-10번지 지층","indutype":"레저업소 - 노 래 방","category":"leisure"}]},{"lat":"37.843164799","long":"127.06242487","imageIndex":13,"items":[{"name":"매니아 당구장","tel":"","addr":"경기도 양주시 덕정동 350-212번지 3층","indutype":"레저업소 - 당 구 장","category":"leisure"}]},{"lat":"37.834919838","long":"127.06504235","imageIndex":13,"items":[{"name":"명성당구장","tel":"031-859-3969","addr":"경기도 양주시 덕정동 240-35번지 한솔프라자 201,202,203호","indutype":"레저업소 - 당 구 장","category":"leisure"}]},{"lat":"37.837089321","long":"127.06833858","imageIndex":13,"items":[{"name":"불꽃노래연습장","tel":"031-859-2655","addr":"경기도 양주시 덕정동 208-6번지 두리테크덕정타운 201호-204호","indutype":"레저업소 - 노 래 방","category":"leisure"},{"name":"욜로코인노래연습장","tel":"031-857-1219","addr":"경기도 양주시 덕정동 208-6번지 두리테크덕정타운 205호","indutype":"레저업소 - 노 래 방","category":"leisure"},{"name":"핏걸 덕정점","tel":"","addr":"경기도 양주시 덕정동 208-6번지 두리테크덕정타운 3층 311호","indutype":"레저업소 - 헬스클럽","category":"leisure"},{"name":"히어로짐","tel":"","addr":"경기도 양주시 덕정동 208-6번지 두리테크 덕정타운 8층 801호,802호","indutype":"레저업소 - 헬스클럽","category":"leisure"}]},{"lat":"37.837533166","long":"127.06389717","imageIndex":13,"items":[{"name":"빌리어즈 에스 (BILLIARDS S)","tel":"031-861-8865","addr":"경기도 양주시 덕정동 281-4번지 원잠빌딩 3층","indutype":"레저업소 - 당 구 장","category":"leisure"},{"name":"엔터나인PC방 덕정점","tel":"02-222-2222","addr":"경기도 양주시 덕정동 281-4번지 원잠빌딩 2층","indutype":"레저업소 - 기타레져업소","category":"leisure"}]},{"lat":"37.837586671","long":"127.0649537","imageIndex":13,"items":[{"name":"사이버파크덕정점","tel":"031-859-2001","addr":"경기도 양주시 덕정동 286-44번지 2층","indutype":"레저업소 - 기타레져업소","category":"leisure"}]},{"lat":"37.846804411","long":"127.06279137","imageIndex":13,"items":[{"name":"서희당구장","tel":"031-862-1008","addr":"경기도 양주시 덕정동 364-1번지 2층 우측","indutype":"레저업소 - 당 구 장","category":"leisure"}]},{"lat":"37.834586213","long":"127.06556461","imageIndex":13,"items":[{"name":"스타노래방","tel":"031-858-7210","addr":"경기도 양주시 덕정동 240-27번지 인아프라자 209동 211호","indutype":"레저업소 - 노 래 방","category":"leisure"},{"name":"인아 쎄이 당구장","tel":"031-111-1111","addr":"경기도 양주시 덕정동 240-27번지 인아프라자 311호","indutype":"레저업소 - 당 구 장","category":"leisure"},{"name":"인아골프연습장","tel":"031-857-0052","addr":"경기도 양주시 덕정동 240-27번지 인아프라자 401호","indutype":"레저업소 - 골프연습장","category":"leisure"},{"name":"인아스포츠센타","tel":"031-857-0052","addr":"경기도 양주시 덕정동 240-27번지 인아프라자 402호","indutype":"레저업소 - 헬스클럽","category":"leisure"}]},{"lat":"37.841999754","long":"127.06778624","imageIndex":13,"items":[{"name":"스타노래방","tel":"031-858-0117","addr":"경기도 양주시 덕정동 178-6번지","indutype":"레저업소 - 노 래 방","category":"leisure"}]},{"lat":"37.844227868","long":"127.06250526","imageIndex":13,"items":[{"name":"스타당구장","tel":"031-861-4343","addr":"경기도 양주시 덕정동 350-34번지 2층","indutype":"레저업소 - 당 구 장","category":"leisure"}]},{"lat":"37.837532977","long":"127.06426069","imageIndex":13,"items":[{"name":"스타당구클럽","tel":"070-8628-9145","addr":"경기도 양주시 덕정동 224번지 2층","indutype":"레저업소 - 당 구 장","category":"leisure"}]},{"lat":"37.837144152","long":"127.06692998","imageIndex":13,"items":[{"name":"아탑휘트니스","tel":"031-864-6262","addr":"경기도 양주시 덕정동 208-2번지 양주그랑시떼빌딩 4층","indutype":"레저업소 - 헬스클럽","category":"leisure"},{"name":"주식회사양주생활건강","tel":"031-864-8881","addr":"경기도 양주시 덕정동 208-2번지","indutype":"레저업소 - 볼 링 장","category":"leisure"}]},{"lat":"37.840478516","long":"127.06528558","imageIndex":13,"items":[{"name":"양주인도어 골프연습장","tel":"031-862-8500","addr":"경기도 양주시 덕정동 162-12번지 스파월드 4,5층 외3필지","indutype":"레저업소 - 스크린골프","category":"leisure"}]},{"lat":"37.846750733","long":"127.06204147","imageIndex":13,"items":[{"name":"열린노래연습장","tel":"031-862-4007","addr":"경기도 양주시 덕정동 364-7번지","indutype":"레저업소 - 노 래 방","category":"leisure"}]},{"lat":"37.837839855","long":"127.06318173","imageIndex":13,"items":[{"name":"올레노래연습장","tel":"031-859-7059","addr":"경기도 양주시 덕정동 222-2번지 제일빌딩 3층 302호","indutype":"레저업소 - 노 래 방","category":"leisure"}]},{"lat":"37.837173158","long":"127.06318118","imageIndex":13,"items":[{"name":"킹노래연습장","tel":"031-859-5273","addr":"경기도 양주시 덕정동 222-20번지","indutype":"레저업소 - 노 래 방","category":"leisure"}]},{"lat":"37.843830967","long":"127.06345927","imageIndex":13,"items":[{"name":"필노래연습장","tel":"031-861-6250","addr":"경기도 양주시 덕정동 132-37번지","indutype":"레저업소 - 노 래 방","category":"leisure"}]},{"lat":"37.837116607","long":"127.06787284","imageIndex":13,"items":[{"name":"필라테스정원 덕정점","tel":"031-859-9322","addr":"경기도 양주시 덕정동 208-5번지 파르코프라자 3층 302호","indutype":"레저업소 - 헬스클럽","category":"leisure"}]},{"lat":"37.84469623","long":"127.06275558","imageIndex":13,"items":[{"name":"히트노래연습장","tel":"031-859-1350","addr":"경기도 양주시 덕정동 354-6번지","indutype":"레저업소 - 노 래 방","category":"leisure"}]}]