[{"lat":"36.985491043","long":"126.88660637","imageIndex":0,"items":[{"name":"FINEX","tel":"031-682-4175","addr":"경기도 평택시 포승읍 석정리 1121-1번지 1층 일부","indutype":"자동차정비 유지 - 자동차부품","category":"car"}]},{"lat":"36.987298268","long":"126.89191657","imageIndex":0,"items":[{"name":"만도상사","tel":"031-682-0712","addr":"경기도 평택시 포승읍 석정리 1114-2","indutype":"자동차정비 유지 - 자동차부품","category":"car"}]},{"lat":"36.983718746","long":"126.88044274","imageIndex":0,"items":[{"name":"안중자동차매매상사","tel":"031-683-7700","addr":"경기도 평택시 포승읍 석정리 1234-9번지","indutype":"자동차판매 - 중고자동차판매","category":"car"}]},{"lat":"36.985690286","long":"126.88763943","imageIndex":0,"items":[{"name":"엘피스모터스","tel":"031-681-5521","addr":"경기도 평택시 포승읍 석정리 1119-23번지","indutype":"서비스업 - 자동차정비","category":"car"}]},{"lat":"36.987127086","long":"126.89193929","imageIndex":0,"items":[{"name":"자동차와사람들","tel":"031-683-5353","addr":"경기도 평택시 포승읍 석정리 1114-3번지","indutype":"자동차정비 유지 - 자동차정비","category":"car"}]},{"lat":"37.001548407","long":"126.8965245","imageIndex":0,"items":[{"name":"짱출장빵꾸","tel":"031-683-0919","addr":"경기도 평택시 포승읍 석정리 530-1번지","indutype":"자동차정비 유지 - 자동차시트·타이어","category":"car"}]},{"lat":"36.984768324","long":"126.88472048","imageIndex":0,"items":[{"name":"포승자동차유리","tel":"031-682-2447","addr":"경기도 평택시 포승읍 석정리 1253-3","indutype":"자동차정비 유지 - 자동차부품","category":"car"}]},{"lat":"36.985022948","long":"126.88707884","imageIndex":0,"items":[{"name":"포승전자","tel":"031-681-0427","addr":"경기도 평택시 포승읍 석정리 1119-10번지 1층","indutype":"자동차정비 유지 - 자동차부품","category":"car"},{"name":"한라산업개발 주식회사","tel":"031-681-4400","addr":"경기도 평택시 포승읍 석정리 1119-10번지","indutype":"자동차정비 유지 - 자동차부품","category":"car"}]},{"lat":"36.987545924","long":"126.89669002","imageIndex":17,"items":[{"name":"GS25 포승서부점","tel":"031-682-2919","addr":"경기도 평택시 포승읍 석정리 256-2번지","indutype":"소매업 - 편의점","category":"other"},{"name":"GS25포승서부점","tel":"","addr":"경기도 평택시 포승읍 석정리 256-2번지 1층","indutype":"유통업 영리 - 편 의 점","category":"other"}]},{"lat":"36.985545656","long":"126.8871679","imageIndex":17,"items":[{"name":"가가시스템","tel":"031-684-0658","addr":"경기도 평택시 포승읍 석정리 1119-21번지","indutype":"건축자재 - 인테리어전문","category":"other"},{"name":"미래공구","tel":"031-684-6742","addr":"경기도 평택시 포승읍 석정리 1119-21번지","indutype":"기타 - 기계공구","category":"other"},{"name":"정시스템","tel":"070-8836-1494","addr":"경기도 평택시 포승읍 석정리 1119-21번지","indutype":"기타 - 기계공구","category":"other"},{"name":"포승씨앤씨","tel":"031-682-5710","addr":"경기도 평택시 포승읍 석정리 1119-21번지","indutype":"건축자재 - 조명기구","category":"other"}]},{"lat":"36.987162792","long":"126.8915798","imageIndex":17,"items":[{"name":"경기종합건재","tel":"031-681-7900","addr":"경기도 평택시 포승읍 석정리 1114-7번지","indutype":"건축자재 - 기타건축자재","category":"other"}]},{"lat":"36.983658023","long":"126.88274538","imageIndex":17,"items":[{"name":"공간종합상사","tel":"031-683-8782","addr":"경기도 평택시 포승읍 석정리 1256-2번지 4호","indutype":"직물 - 카페트,커튼,천막,지물","category":"other"}]},{"lat":"36.98468706","long":"126.88455213","imageIndex":17,"items":[{"name":"대명건재종합공구","tel":"031-682-6827","addr":"경기도 평택시 포승읍 석정리 1253-10번지","indutype":"건축자재 - 기타건축자재","category":"other"}]},{"lat":"36.985156775","long":"126.88571954","imageIndex":17,"items":[{"name":"대성종합주방","tel":"031-686-9795","addr":"경기도 평택시 포승읍 석정리 1253-6 ,252-3","indutype":"주방용구 - 주방용구","category":"other"}]},{"lat":"37.001409389","long":"126.88302079","imageIndex":17,"items":[{"name":"대원보석블럭","tel":"031-684-0634","addr":"경기도 평택시 포승읍 석정리 645-1","indutype":"건축자재 - 기타건축자재","category":"other"}]},{"lat":"36.983829646","long":"126.8831607","imageIndex":17,"items":[{"name":"대한기업","tel":"031-684-5552","addr":"경기도 평택시 포승읍 석정리 1256-4번지","indutype":"소매업 - 철물","category":"other"}]},{"lat":"36.983468434","long":"126.88238626","imageIndex":17,"items":[{"name":"더존미래인테리어","tel":"031-682-9595","addr":"경기도 평택시 포승읍 석정리 1256번지","indutype":"건축자재 - 인테리어전문","category":"other"}]},{"lat":"37.002709465","long":"126.87677225","imageIndex":17,"items":[{"name":"덕성기획","tel":"031-682-3153","addr":"경기도 평택시 포승읍 석정리 742-7번지","indutype":"서적문구 - 출판 및 인쇄물","category":"other"}]},{"lat":"36.984768324","long":"126.88472048","imageIndex":17,"items":[{"name":"두바퀴오토(합동오토바이)","tel":"031-684-9634","addr":"경기도 평택시 포승읍 석정리 1253-3번지 1층","indutype":"수리서비스 - 레져용품수리","category":"other"}]},{"lat":"36.986799752","long":"126.88882839","imageIndex":17,"items":[{"name":"드림라인","tel":"","addr":"경기도 평택시 포승읍 석정리 1125-4번지 305호","indutype":"서적문구 - 기타서적문구","category":"other"}]},{"lat":"36.988186444","long":"126.87888549","imageIndex":17,"items":[{"name":"띠엠뽀 펫 애견용품","tel":"","addr":"경기도 평택시 포승읍 석정리 1195-6번지 1층","indutype":"문화.취미 - 애완동물","category":"other"}]},{"lat":"36.985050308","long":"126.88741576","imageIndex":17,"items":[{"name":"모던건축인테리어","tel":"031-686-9981","addr":"경기도 평택시 포승읍 석정리 1119-6번지","indutype":"건축자재 - 인테리어전문","category":"other"},{"name":"모던하우징","tel":"031-686-9981","addr":"경기도 평택시 포승읍 석정리 1119-6번지","indutype":"건축자재 - 인테리어전문","category":"other"}]},{"lat":"36.987410562","long":"126.89646556","imageIndex":17,"items":[{"name":"부동산랜드삼성공인중개사사무소","tel":"031-681-2511","addr":"경기도 평택시 포승읍 석정리 256-4번지","indutype":"용역 서비스 - 부동산 중개·임대","category":"other"}]},{"lat":"36.985021259","long":"126.88536032","imageIndex":17,"items":[{"name":"성우건축자재","tel":"031-682-3626","addr":"경기도 평택시 포승읍 석정리 1253-5번지 2층","indutype":"기타 - 기계공구","category":"other"},{"name":"우리에어테크","tel":"031-354-5200","addr":"경기도 평택시 포승읍 석정리 1253-5번지","indutype":"건축자재 - 기타건축자재","category":"other"}]},{"lat":"36.985491043","long":"126.88660637","imageIndex":17,"items":[{"name":"성화풍력","tel":"031-682-3397","addr":"경기도 평택시 포승읍 석정리 1121-1번지 1층","indutype":"기타 - 기계공구","category":"other"}]},{"lat":"36.984852509","long":"126.87891336","imageIndex":17,"items":[{"name":"세븐일레븐평택포승석정점","tel":"","addr":"경기도 평택시 포승읍 석정리 1229-6번지 정진빌딩 101호","indutype":"유통업 영리 - 편 의 점","category":"other"}]},{"lat":"36.986321604","long":"126.87924795","imageIndex":17,"items":[{"name":"숭불사","tel":"031-683-6927","addr":"경기도 평택시 포승읍 석정리 1221-1번지","indutype":"기타 - 비영리/대상","category":"other"}]},{"lat":"36.987187772","long":"126.8894119","imageIndex":17,"items":[{"name":"신설빨래방","tel":"031-681-4593","addr":"경기도 평택시 포승읍 석정리 1115-1번지","indutype":"수리서비스 - 세탁소","category":"other"}]},{"lat":"36.996909798","long":"126.8986654","imageIndex":17,"items":[{"name":"씨유평택석정점","tel":"080-080-3663","addr":"경기도 평택시 포승읍 석정리 127번지 1층","indutype":"유통업 영리 - 편 의 점","category":"other"}]},{"lat":"36.982909039","long":"126.88166831","imageIndex":17,"items":[{"name":"씨유포승대로점","tel":"031-686-7855","addr":"경기도 평택시 포승읍 석정리 1257-6번지","indutype":"유통업 영리 - 편 의 점","category":"other"}]},{"lat":"36.983766345","long":"126.88293616","imageIndex":17,"items":[{"name":"안중호스","tel":"031-682-6488","addr":"경기도 평택시 포승읍 석정리 1256-3번지","indutype":"건축자재 - 기타건축자재","category":"other"},{"name":"큰길꽃화원","tel":"031-682-6754","addr":"경기도 평택시 포승읍 석정리 1256-3번지","indutype":"문화.취미 - 화원","category":"other"}]},{"lat":"36.994244368","long":"126.88152675","imageIndex":17,"items":[{"name":"오리엔탈데코(ORIENTALDECO)","tel":"02-797-5656","addr":"경기도 평택시 포승읍 석정리 895-10번지","indutype":"가구 - 일반가구","category":"other"}]},{"lat":"36.985077526","long":"126.88760666","imageIndex":17,"items":[{"name":"웰컴투광고","tel":"031-683-4592","addr":"경기도 평택시 포승읍 석정리 1119-7번지","indutype":"용역 서비스 - 종합용역","category":"other"}]},{"lat":"36.985690286","long":"126.88763943","imageIndex":17,"items":[{"name":"이마트24 포승석정점","tel":"","addr":"경기도 평택시 포승읍 석정리 1119-23번지","indutype":"유통업 영리 - 편 의 점","category":"other"},{"name":"이마트24 포승석정점","tel":"","addr":"경기도 평택시 포승읍 석정리 1119-23번지 1층","indutype":"유통업 영리 - 편 의 점","category":"other"}]},{"lat":"36.993742905","long":"126.87591085","imageIndex":17,"items":[{"name":"장애인직업재활센터 일누리","tel":"031-682-7494","addr":"경기도 평택시 포승읍 석정리 934-1번지","indutype":"용역 서비스 - 종합용역","category":"other"}]},{"lat":"36.99862593","long":"126.89321451","imageIndex":17,"items":[{"name":"주식회사 지게차코리아렌탈","tel":"031-676-9194","addr":"경기도 평택시 포승읍 석정리 산 48-7번지","indutype":"기타 - 기계공구","category":"other"}]},{"lat":"36.987239733","long":"126.8783254","imageIndex":17,"items":[{"name":"짐싸자","tel":"031-683-5083","addr":"경기도 평택시 포승읍 석정리 1197-19번지 보은빌리지 103동 101호","indutype":"서비스업 - 이사","category":"other"}]},{"lat":"36.986630294","long":"126.89065952","imageIndex":17,"items":[{"name":"페인트나라","tel":"031-686-9386","addr":"경기도 평택시 포승읍 석정리 1116-9번지 101호 102호","indutype":"건축자재 - 기타건축자재","category":"other"}]},{"lat":"36.983547171","long":"126.8800836","imageIndex":17,"items":[{"name":"포승기공","tel":"031-684-8956","addr":"경기도 평택시 포승읍 석정리 1234-4","indutype":"기타 - 기계공구","category":"other"}]},{"lat":"36.993660892","long":"126.88371819","imageIndex":17,"items":[{"name":"하늘","tel":"02-1600-4797","addr":"경기도 평택시 포승읍 석정리 1025번지","indutype":"용역 서비스 - 가례서비스업","category":"other"}]},{"lat":"36.983771892","long":"126.87955534","imageIndex":17,"items":[{"name":"항만종합설비","tel":"031-603-6606","addr":"경기도 평택시 포승읍 석정리 1234-2 8/2","indutype":"용역 서비스 - 기타용역서비스","category":"other"}]},{"lat":"36.988186444","long":"126.87888549","imageIndex":4,"items":[{"name":"TIEMPO PET CAFE","tel":"","addr":"경기도 평택시 포승읍 석정리 1195-6번지 1층","indutype":"일반휴게음식 - 서양음식","category":"restaurant"}]},{"lat":"36.982800474","long":"126.88124167","imageIndex":4,"items":[{"name":"가나횟집","tel":"031-682-3301","addr":"경기도 평택시 포승읍 석정리 1257-1번지 1층","indutype":"일반휴게음식 - 일식·회집","category":"restaurant"},{"name":"짜장나라","tel":"031-684-7821","addr":"경기도 평택시 포승읍 석정리 1257-1번지 1층","indutype":"일반휴게음식 - 중국식","category":"restaurant"},{"name":"해피홈","tel":"031-686-8292","addr":"경기도 평택시 포승읍 석정리 1257-1번지","indutype":"일반휴게음식 - 일반한식","category":"restaurant"}]},{"lat":"36.984655348","long":"126.87994703","imageIndex":4,"items":[{"name":"교동분식","tel":"031-685-4843","addr":"경기도 평택시 포승읍 석정리 1232-13번지 해군2함대사령부 1283 만포관 1층","indutype":"일반휴게음식 - 스넥","category":"restaurant"}]},{"lat":"36.990294117","long":"126.89660757","imageIndex":4,"items":[{"name":"더 테라스278","tel":"031-692-5009","addr":"경기도 평택시 포승읍 석정리 278-1번지 석정아파트","indutype":"일반휴게음식 - 일반한식","category":"restaurant"},{"name":"더테라스278","tel":"031-684-3340","addr":"경기도 평택시 포승읍 석정리 278-1번지 석정아파트","indutype":"음식점 - 한식","category":"restaurant"}]},{"lat":"36.986521878","long":"126.89035641","imageIndex":4,"items":[{"name":"삼정","tel":"031-683-8293","addr":"경기도 평택시 포승읍 석정리 1116-14번지","indutype":"일반휴게음식 - 일반한식","category":"restaurant"}]},{"lat":"37.004818839","long":"126.8960256","imageIndex":4,"items":[{"name":"석정이랑 돼지랑","tel":"031-684-7533","addr":"경기도 평택시 포승읍 석정리 554-6번지","indutype":"음식점 - 한식","category":"restaurant"}]},{"lat":"36.985077526","long":"126.88760666","imageIndex":4,"items":[{"name":"송암설악추어탕","tel":"031-683-4727","addr":"경기도 평택시 포승읍 석정리 1119-7번지","indutype":"일반휴게음식 - 일반한식","category":"restaurant"}]},{"lat":"36.982909039","long":"126.88166831","imageIndex":4,"items":[{"name":"이대박김밥촌","tel":"031-682-1733","addr":"경기도 평택시 포승읍 석정리 1257-6번지 103호","indutype":"일반휴게음식 - 일반한식","category":"restaurant"}]},{"lat":"36.987545924","long":"126.89669002","imageIndex":4,"items":[{"name":"전주식당","tel":"031-681-3363","addr":"경기도 평택시 포승읍 석정리 256-2번지","indutype":"음식점 - 한식","category":"restaurant"},{"name":"핑계","tel":"","addr":"경기도 평택시 포승읍 석정리 256-2번지","indutype":"음식점 - 분식","category":"restaurant"},{"name":"핑계식당","tel":"031-682-2019","addr":"경기도 평택시 포승읍 석정리 256-2번지","indutype":"일반휴게음식 - 일반한식","category":"restaurant"}]},{"lat":"36.986630294","long":"126.89065952","imageIndex":4,"items":[{"name":"제일장수촌","tel":"031-682-1880","addr":"경기도 평택시 포승읍 석정리 1116-9번지","indutype":"일반휴게음식 - 일반한식","category":"restaurant"}]},{"lat":"36.983522692","long":"126.88257712","imageIndex":4,"items":[{"name":"죽마고우","tel":"031-684-4700","addr":"경기도 평택시 포승읍 석정리 1256-1번지","indutype":"일반휴게음식 - 일반한식","category":"restaurant"}]},{"lat":"36.996351185","long":"126.89872233","imageIndex":4,"items":[{"name":"청솔가든","tel":"031-683-5295","addr":"경기도 평택시 포승읍 석정리 305-10번지","indutype":"일반휴게음식 - 일반한식","category":"restaurant"}]},{"lat":"36.988077756","long":"126.89691393","imageIndex":4,"items":[{"name":"핑계식당","tel":"031-682-8878","addr":"경기도 평택시 포승읍 석정리 256-3번지 석정빌라","indutype":"음식점 - 일반","category":"restaurant"}]},{"lat":"36.982683139","long":"126.88105092","imageIndex":4,"items":[{"name":"훌랄라바베큐","tel":"031-686-9853","addr":"경기도 평택시 포승읍 석정리 1257-9번지","indutype":"음식점 - 한식","category":"restaurant"},{"name":"훌랄라참숯바베큐","tel":"031-682-8253","addr":"경기도 평택시 포승읍 석정리 1257-9번지","indutype":"일반휴게음식 - 일반한식","category":"restaurant"},{"name":"훌랄라참숯바베큐","tel":"031-682-8253","addr":"경기도 평택시 포승읍 석정리 1257-9번지","indutype":"일반휴게음식 - 일반한식","category":"restaurant"}]},{"lat":"36.986630294","long":"126.89065952","imageIndex":7,"items":[{"name":"강호마트","tel":"070-4763-5713","addr":"경기도 평택시 포승읍 석정리 1116-9번지","indutype":"유통업 영리 - 슈퍼마켓","category":"mart"}]},{"lat":"37.004818839","long":"126.8960256","imageIndex":7,"items":[{"name":"석정이랑 돼지랑","tel":"031-683-5084","addr":"경기도 평택시 포승읍 석정리 554-6번지","indutype":"유통업 영리 - 슈퍼마켓","category":"mart"}]},{"lat":"36.982683139","long":"126.88105092","imageIndex":13,"items":[{"name":"골드","tel":"","addr":"경기도 평택시 포승읍 석정리 1257-9번지 2층","indutype":"보건위생 - 기타대인서비스","category":"beauty"}]},{"lat":"36.983161705","long":"126.88202733","imageIndex":7,"items":[{"name":"꿀시루","tel":"070-7795-8393","addr":"경기도 평택시 포승읍 석정리 1257-13번지 서안빌딩 1층 102호","indutype":"음료식품 - 제과점","category":"food"}]},{"lat":"36.988239274","long":"126.89616113","imageIndex":7,"items":[{"name":"농업회사법인주식회사 평택허브팜","tel":"031-682-8383","addr":"경기도 평택시 포승읍 석정리 산107-7번지","indutype":"음료식품 - 농·축·수산품","category":"food"}]},{"lat":"36.993712795","long":"126.88158376","imageIndex":7,"items":[{"name":"다원수산","tel":"031-681-1731","addr":"경기도 평택시 포승읍 석정리 947-3번지,947-4","indutype":"음료식품 - 농·축·수산품","category":"food"}]},{"lat":"36.983522692","long":"126.88257712","imageIndex":7,"items":[{"name":"서울건강원","tel":"031-686-5950","addr":"경기도 평택시 포승읍 석정리 1256-1","indutype":"건강식품 - 기타건강식품","category":"food"}]},{"lat":"36.993742905","long":"126.87591085","imageIndex":7,"items":[{"name":"장애인보호자협동조합오름","tel":"031-684-3008","addr":"경기도 평택시 포승읍 석정리 934-1번지","indutype":"음료식품 - 기타음료식품","category":"food"}]},{"lat":"36.985159079","long":"126.88807829","imageIndex":7,"items":[{"name":"제일흑염소","tel":"031-684-1102","addr":"경기도 평택시 포승읍 석정리 1119-17번지","indutype":"제조업 - 건강기능식품","category":"food"},{"name":"제일흑염소","tel":"031-681-3363","addr":"경기도 평택시 포승읍 석정리 1119-17번지","indutype":"건강식품 - 기타건강식품","category":"food"}]},{"lat":"36.988073346","long":"126.89208394","imageIndex":7,"items":[{"name":"좋은식품","tel":"","addr":"경기도 평택시 포승읍 석정리 1107-16번지","indutype":"음료식품 - 기타음료식품","category":"food"}]},{"lat":"36.984655348","long":"126.87994703","imageIndex":7,"items":[{"name":"파리바게뜨카페해군2함대점","tel":"031-682-5192","addr":"경기도 평택시 포승읍 석정리 1232-13번지 사병회관(해군제2복지관)1층","indutype":"음료식품 - 제과점","category":"food"}]},{"lat":"36.983547171","long":"126.8800836","imageIndex":7,"items":[{"name":"포승떡방앗간","tel":"031-686-7766","addr":"경기도 평택시 포승읍 석정리 1234-4번지","indutype":"음료식품 - 제과점","category":"food"}]},{"lat":"36.982909039","long":"126.88166831","imageIndex":13,"items":[{"name":"올챙이 노래연습장","tel":"031-681-5576","addr":"경기도 평택시 포승읍 석정리 1257-6번지 1층 102호","indutype":"레저업소 - 노 래 방","category":"leisure"}]},{"lat":"36.987742936","long":"126.89533061","imageIndex":13,"items":[{"name":"풀스크린","tel":"031-684-1330","addr":"경기도 평택시 포승읍 석정리 262-11번지 2층","indutype":"레저업소 - 스크린골프","category":"leisure"},{"name":"풀스크린골프","tel":"031-683-9522","addr":"경기도 평택시 포승읍 석정리 262-11번지 2층","indutype":"레저업소 - 스크린골프","category":"leisure"}]},{"lat":"36.992828945","long":"126.89980552","imageIndex":16,"items":[{"name":"중앙유치원[아이행복]","tel":"031-682-0192","addr":"경기도 평택시 포승읍 석정리 231-3번지","indutype":"학원 - 유치원","category":"study"}]},{"lat":"36.99007141","long":"126.88963227","imageIndex":16,"items":[{"name":"코리아굿교육원","tel":"031-684-5090","addr":"경기도 평택시 포승읍 석정리 1099-7번지","indutype":"회원제형태 - 학원","category":"study"}]},{"lat":"36.990294117","long":"126.89660757","imageIndex":16,"items":[{"name":"한국서부발전(주)반딧불 어린이집[아이행복","tel":"031-681-6027","addr":"경기도 평택시 포승읍 석정리 278-1번지 석정사택 내","indutype":"학원 - 유아원","category":"study"}]},{"lat":"36.984488488","long":"126.88421548","imageIndex":9,"items":[{"name":"포승주유소","tel":"031-684-7077","addr":"경기도 평택시 포승읍 석정리 1253-1번지","indutype":"도소매업 - 주유소","category":"oil"}]}]