[{"lat":"37.013633731","long":"127.26478942","imageIndex":4,"items":[{"name":"119엽기떡볶이","tel":"031-674-9959","addr":"경기도 안성시 당왕동 551-5번지","indutype":"일반휴게음식 - 일반한식","category":"restaurant"}]},{"lat":"37.014165356","long":"127.26479124","imageIndex":4,"items":[{"name":"간이역","tel":"031-676-8990","addr":"경기도 안성시 당왕동 550-4번지","indutype":"일반휴게음식 - 일반한식","category":"restaurant"},{"name":"참치랜드","tel":"031-673-4399","addr":"경기도 안성시 당왕동 550-4번지","indutype":"일반휴게음식 - 일식·회집","category":"restaurant"}]},{"lat":"37.016384922","long":"127.25931534","imageIndex":4,"items":[{"name":"고베화로 안성점","tel":"031-675-1600","addr":"경기도 안성시 당왕동 470-3번지 1층","indutype":"일반휴게음식 - 일반한식","category":"restaurant"},{"name":"동해횟집","tel":"031-671-0257","addr":"경기도 안성시 당왕동 470-3번지","indutype":"일반휴게음식 - 일식·회집","category":"restaurant"},{"name":"바운스","tel":"031-677-6699","addr":"경기도 안성시 당왕동 470-3번지 2층","indutype":"일반휴게음식 - 주점","category":"restaurant"},{"name":"병천복순대감자탕","tel":"031-672-7240","addr":"경기도 안성시 당왕동 470-3번지","indutype":"일반휴게음식 - 일반한식","category":"restaurant"},{"name":"통영굴밥","tel":"031-675-5124","addr":"경기도 안성시 당왕동 470-3번지","indutype":"일반휴게음식 - 일반한식","category":"restaurant"}]},{"lat":"37.013992367","long":"127.26559966","imageIndex":4,"items":[{"name":"고향양꼬치","tel":"","addr":"경기도 안성시 당왕동 547-3번지 1층","indutype":"일반휴게음식 - 중국식","category":"restaurant"},{"name":"사다리꼬치호프","tel":"031-677-2650","addr":"경기도 안성시 당왕동 547-3번지","indutype":"일반휴게음식 - 주점","category":"restaurant"},{"name":"쿡플","tel":"031-677-5005","addr":"경기도 안성시 당왕동 547-3번지 1층","indutype":"일반휴게음식 - 일반한식","category":"restaurant"}]},{"lat":"37.014776785","long":"127.26537763","imageIndex":4,"items":[{"name":"구이구이","tel":"","addr":"경기도 안성시 당왕동 543번지","indutype":"일반휴게음식 - 일반한식","category":"restaurant"},{"name":"마신들 취한들","tel":"031-675-5888","addr":"경기도 안성시 당왕동 543번지","indutype":"일반휴게음식 - 주점","category":"restaurant"},{"name":"커피볶는방앗간","tel":"070-4193-8638","addr":"경기도 안성시 당왕동 543번지","indutype":"일반휴게음식 - 일반한식","category":"restaurant"}]},{"lat":"37.014074456","long":"127.26515049","imageIndex":4,"items":[{"name":"김가네숯불갈비","tel":"031-672-0388","addr":"경기도 안성시 당왕동 547번지","indutype":"일반휴게음식 - 일반한식","category":"restaurant"}]},{"lat":"37.016410373","long":"127.26004582","imageIndex":4,"items":[{"name":"김떡순","tel":"031-0316-7555","addr":"경기도 안성시 당왕동 470번지 1층","indutype":"일반휴게음식 - 일반한식","category":"restaurant"},{"name":"센시빌리티","tel":"","addr":"경기도 안성시 당왕동 470번지 5동 201호","indutype":"일반휴게음식 - 서양음식","category":"restaurant"},{"name":"양식당꼬륵","tel":"031-675-5678","addr":"경기도 안성시 당왕동 470번지 4동 2층","indutype":"일반휴게음식 - 서양음식","category":"restaurant"},{"name":"죽전통차","tel":"031-671-3688","addr":"경기도 안성시 당왕동 470번지 3동 1층","indutype":"일반휴게음식 - 일반한식","category":"restaurant"},{"name":"피싱조이 당왕점","tel":"031-672-8898","addr":"경기도 안성시 당왕동 470번지 3동 2층","indutype":"일반휴게음식 - 주점","category":"restaurant"}]},{"lat":"37.01588429","long":"127.26574102","imageIndex":4,"items":[{"name":"까르페디엠","tel":"031-674-0789","addr":"경기도 안성시 당왕동 537-9번지","indutype":"일반휴게음식 - 서양음식","category":"restaurant"}]},{"lat":"37.016163021","long":"127.26601166","imageIndex":4,"items":[{"name":"깜씨네영양탕","tel":"031-673-0604","addr":"경기도 안성시 당왕동 537-1번지","indutype":"일반휴게음식 - 일반한식","category":"restaurant"},{"name":"비봉촌","tel":"031-673-0604","addr":"경기도 안성시 당왕동 537-1번지","indutype":"일반휴게음식 - 일반한식","category":"restaurant"}]},{"lat":"37.013741313","long":"127.26503698","imageIndex":4,"items":[{"name":"깻잎두마리칩킨","tel":"031-674-8820","addr":"경기도 안성시 당왕동 548번지","indutype":"일반휴게음식 - 스넥","category":"restaurant"},{"name":"빈대떡한판","tel":"031-676-3150","addr":"경기도 안성시 당왕동 548번지","indutype":"일반휴게음식 - 일반한식","category":"restaurant"}]},{"lat":"37.013577009","long":"127.2659915","imageIndex":4,"items":[{"name":"남강","tel":"031-672-1057","addr":"경기도 안성시 당왕동 546-2번지","indutype":"일반휴게음식 - 중국식","category":"restaurant"},{"name":"이야기속으로","tel":"031-675-1536","addr":"경기도 안성시 당왕동 546-2번지","indutype":"일반휴게음식 - 일반한식","category":"restaurant"},{"name":"장대박","tel":"031-673-7511","addr":"경기도 안성시 당왕동 546-2번지 1층","indutype":"일반휴게음식 - 일반한식","category":"restaurant"}]},{"lat":"37.014860142","long":"127.2560404","imageIndex":4,"items":[{"name":"너랑나랑","tel":"031-677-0334","addr":"경기도 안성시 당왕동 534번지 대우아파트 206호","indutype":"일반휴게음식 - 일반한식","category":"restaurant"}]},{"lat":"37.014077872","long":"127.26359988","imageIndex":4,"items":[{"name":"놀부네정육점식당","tel":"031-677-7803","addr":"경기도 안성시 당왕동 552-2번지","indutype":"일반휴게음식 - 일반한식","category":"restaurant"},{"name":"바다양푼이동태탕찜","tel":"031-677-7803","addr":"경기도 안성시 당왕동 552-2번지","indutype":"일반휴게음식 - 일반한식","category":"restaurant"}]},{"lat":"37.014220385","long":"127.26435321","imageIndex":4,"items":[{"name":"다강","tel":"031-676-4553","addr":"경기도 안성시 당왕동 550-1번지","indutype":"일반휴게음식 - 일반한식","category":"restaurant"}]},{"lat":"37.015109927","long":"127.26549115","imageIndex":4,"items":[{"name":"달빛짚불꼼장어","tel":"031-676-1452","addr":"경기도 안성시 당왕동 542번지","indutype":"일반휴게음식 - 일반한식","category":"restaurant"},{"name":"여시막창","tel":"031-674-8088","addr":"경기도 안성시 당왕동 542번지 1동 1층","indutype":"일반휴게음식 - 일반한식","category":"restaurant"}]},{"lat":"37.016690891","long":"127.26363128","imageIndex":4,"items":[{"name":"당목골","tel":"031-671-7782","addr":"경기도 안성시 당왕동 207-2번지","indutype":"일반휴게음식 - 일반한식","category":"restaurant"},{"name":"일석삼조버섯매운탕","tel":"031-674-5318","addr":"경기도 안성시 당왕동 207-2번지","indutype":"일반휴게음식 - 일반한식","category":"restaurant"},{"name":"천안문","tel":"031-672-4868","addr":"경기도 안성시 당왕동 207-2번지","indutype":"일반휴게음식 - 일반한식","category":"restaurant"}]},{"lat":"37.019080176","long":"127.26704429","imageIndex":4,"items":[{"name":"대웅각","tel":"031-671-9500","addr":"경기도 안성시 당왕동 224-4번지","indutype":"일반휴게음식 - 중국식","category":"restaurant"}]},{"lat":"37.021962251","long":"127.26357063","imageIndex":4,"items":[{"name":"대지가든","tel":"031-675-7655","addr":"경기도 안성시 당왕동 410-4번지","indutype":"일반휴게음식 - 일반한식","category":"restaurant"}]},{"lat":"37.013879837","long":"127.26350932","imageIndex":4,"items":[{"name":"도스마스 한경대점","tel":"031-348-5514","addr":"경기도 안성시 당왕동 552-10번지","indutype":"일반휴게음식 - 일반한식","category":"restaurant"}]},{"lat":"37.015107835","long":"127.26643501","imageIndex":4,"items":[{"name":"돈벼락","tel":"031-676-3563","addr":"경기도 안성시 당왕동 541-6번지","indutype":"일반휴게음식 - 일반한식","category":"restaurant"}]},{"lat":"37.013883692","long":"127.26584649","imageIndex":4,"items":[{"name":"돈치스","tel":"031-676-7716","addr":"경기도 안성시 당왕동 547-5","indutype":"일반휴게음식 - 일반한식","category":"restaurant"}]},{"lat":"37.013524239","long":"127.26540704","imageIndex":4,"items":[{"name":"돼랑이","tel":"031-677-8958","addr":"경기도 안성시 당왕동 548-8번지","indutype":"일반휴게음식 - 일반한식","category":"restaurant"},{"name":"명품육진삼겹살","tel":"031-676-6116","addr":"경기도 안성시 당왕동 548-8번지","indutype":"일반휴게음식 - 일반한식","category":"restaurant"}]},{"lat":"37.014019722","long":"127.26545369","imageIndex":4,"items":[{"name":"라이스스토리","tel":"031-677-9936","addr":"경기도 안성시 당왕동 547-2번지","indutype":"일반휴게음식 - 일반한식","category":"restaurant"},{"name":"라화쿵부한경대점","tel":"031-000-0000","addr":"경기도 안성시 당왕동 547-2번지","indutype":"일반휴게음식 - 중국식","category":"restaurant"}]},{"lat":"37.013496909","long":"127.26554178","imageIndex":4,"items":[{"name":"마님닭발","tel":"031-671-1006","addr":"경기도 안성시 당왕동 548-7번지 1층","indutype":"일반휴게음식 - 일반한식","category":"restaurant"}]},{"lat":"37.016859048","long":"127.26501398","imageIndex":4,"items":[{"name":"마당냉면갈비","tel":"031-672-0053","addr":"경기도 안성시 당왕동 212번지","indutype":"일반휴게음식 - 일반한식","category":"restaurant"}]},{"lat":"37.013829927","long":"127.26571147","imageIndex":4,"items":[{"name":"마포나루","tel":"031-671-1716","addr":"경기도 안성시 당왕동 547-6번지","indutype":"일반휴게음식 - 일반한식","category":"restaurant"}]},{"lat":"37.016632118","long":"127.26576606","imageIndex":4,"items":[{"name":"마포최대포","tel":"031-671-3894","addr":"경기도 안성시 당왕동 213-2번지","indutype":"일반휴게음식 - 일반한식","category":"restaurant"},{"name":"사랑채","tel":"031-676-3847","addr":"경기도 안성시 당왕동 213-2번지","indutype":"일반휴게음식 - 일반한식","category":"restaurant"},{"name":"안성순대국","tel":"031-675-1544","addr":"경기도 안성시 당왕동 213-2번지","indutype":"일반휴게음식 - 일반한식","category":"restaurant"},{"name":"양평해장국","tel":"031-672-9922","addr":"경기도 안성시 당왕동 213-2외2","indutype":"일반휴게음식 - 일반한식","category":"restaurant"},{"name":"청정회수산","tel":"031-677-7080","addr":"경기도 안성시 당왕동 213-2번지","indutype":"일반휴게음식 - 일식·회집","category":"restaurant"}]},{"lat":"37.013883144","long":"127.26609369","imageIndex":4,"items":[{"name":"맘씨좋은커피","tel":"031-677-3226","addr":"경기도 안성시 당왕동 546번지","indutype":"일반휴게음식 - 서양음식","category":"restaurant"}]},{"lat":"37.015018901","long":"127.26590658","imageIndex":4,"items":[{"name":"망고푸드","tel":"031-673-8842","addr":"경기도 안성시 당왕동 542-3번지 1층 102호","indutype":"일반휴게음식 - 서양음식","category":"restaurant"}]},{"lat":"37.026103223","long":"127.26534917","imageIndex":4,"items":[{"name":"먹골곱창","tel":"031-676-5774","addr":"경기도 안성시 당왕동 348-1번지","indutype":"일반휴게음식 - 일반한식","category":"restaurant"}]},{"lat":"37.013884662","long":"127.26540828","imageIndex":4,"items":[{"name":"몽블랑","tel":"031-674-6928","addr":"경기도 안성시 당왕동 547-8번지","indutype":"일반휴게음식 - 일반한식","category":"restaurant"}]},{"lat":"37.013581994","long":"127.26373303","imageIndex":4,"items":[{"name":"미리내카페","tel":"031-677-2749","addr":"경기도 안성시 당왕동 553-9번지","indutype":"일반휴게음식 - 일반한식","category":"restaurant"}]},{"lat":"37.015215663","long":"127.26657022","imageIndex":4,"items":[{"name":"미스터해물포차","tel":"031-672-5457","addr":"경기도 안성시 당왕동 541-5번지","indutype":"일반휴게음식 - 일반한식","category":"restaurant"}]},{"lat":"37.013993907","long":"127.26490302","imageIndex":4,"items":[{"name":"박첨지식당","tel":"031-672-1090","addr":"경기도 안성시 당왕동 550-6번지","indutype":"일반휴게음식 - 일반한식","category":"restaurant"},{"name":"술이야","tel":"031-672-1861","addr":"경기도 안성시 당왕동 550-6번지","indutype":"일반휴게음식 - 주점","category":"restaurant"}]},{"lat":"37.015296764","long":"127.27059318","imageIndex":4,"items":[{"name":"방일해장국","tel":"031-676-5225","addr":"경기도 안성시 당왕동 115-3번지 1층","indutype":"일반휴게음식 - 일반한식","category":"restaurant"}]},{"lat":"37.016082299","long":"127.26584283","imageIndex":4,"items":[{"name":"봉산돌곱창구이","tel":"031-675-5869","addr":"경기도 안성시 당왕동 537-7번지","indutype":"일반휴게음식 - 일반한식","category":"restaurant"}]},{"lat":"37.016801009","long":"127.25857512","imageIndex":4,"items":[{"name":"비봉산 숯불갈비살","tel":"031-677-7792","addr":"경기도 안성시 당왕동 475번지 2층","indutype":"일반휴게음식 - 일반한식","category":"restaurant"},{"name":"비봉산 화로구이","tel":"031-677-7792","addr":"경기도 안성시 당왕동 475번지 2층","indutype":"일반휴게음식 - 일반한식","category":"restaurant"},{"name":"옛날장터치킨","tel":"031-673-0418","addr":"경기도 안성시 당왕동 475번지 1층","indutype":"일반휴게음식 - 스넥","category":"restaurant"},{"name":"옛날치킨곱창","tel":"031-677-5688","addr":"경기도 안성시 당왕동 475번지 1층","indutype":"일반휴게음식 - 일반한식","category":"restaurant"},{"name":"우리야채철판곱창","tel":"031-677-2286","addr":"경기도 안성시 당왕동 475번지","indutype":"일반휴게음식 - 일반한식","category":"restaurant"},{"name":"해바라기치킨전문점","tel":"031-677-0882","addr":"경기도 안성시 당왕동 475번지 외5필지","indutype":"일반휴게음식 - 주점","category":"restaurant"}]},{"lat":"37.014193675","long":"127.26420705","imageIndex":4,"items":[{"name":"비에이치씨(BHC)당왕점","tel":"031-677-3884","addr":"경기도 안성시 당왕동 550번지","indutype":"일반휴게음식 - 스넥","category":"restaurant"},{"name":"비에치씨(BHC)당왕점","tel":"031-677-3884","addr":"경기도 안성시 당왕동 550번지","indutype":"일반휴게음식 - 서양음식","category":"restaurant"},{"name":"이봉순아구찜","tel":"031-671-3356","addr":"경기도 안성시 당왕동 550번지","indutype":"일반휴게음식 - 일반한식","category":"restaurant"}]},{"lat":"37.014047052","long":"127.26531894","imageIndex":4,"items":[{"name":"사쿠사쿠","tel":"","addr":"경기도 안성시 당왕동 547-1번지 1층","indutype":"일반휴게음식 - 스넥","category":"restaurant"},{"name":"우앤돈","tel":"031-675-0473","addr":"경기도 안성시 당왕동 547-1번지","indutype":"일반휴게음식 - 일반한식","category":"restaurant"}]},{"lat":"37.013190002","long":"127.26578792","imageIndex":4,"items":[{"name":"샤인","tel":"031-675-1031","addr":"경기도 안성시 당왕동 549-5번지","indutype":"일반휴게음식 - 일반한식","category":"restaurant"}]},{"lat":"37.014131096","long":"127.2639821","imageIndex":4,"items":[{"name":"서장군 참숯 숯불갈비","tel":"031-672-8058","addr":"경기도 안성시 당왕동 552-5번지","indutype":"일반휴게음식 - 일반한식","category":"restaurant"},{"name":"일품생고기","tel":"031-673-2486","addr":"경기도 안성시 당왕동 552-5번지","indutype":"일반휴게음식 - 일반한식","category":"restaurant"}]},{"lat":"37.013469579","long":"127.26567652","imageIndex":4,"items":[{"name":"수상한포차","tel":"031-674-0082","addr":"경기도 안성시 당왕동 548-6번지 1층","indutype":"일반휴게음식 - 일반한식","category":"restaurant"}]},{"lat":"37.014162273","long":"127.26618454","imageIndex":4,"items":[{"name":"수숯불직화꼬치구이","tel":"031-671-7999","addr":"경기도 안성시 당왕동 544-4번지 1층 좌측호","indutype":"일반휴게음식 - 일반한식","category":"restaurant"},{"name":"오징어나라","tel":"031-677-8999","addr":"경기도 안성시 당왕동 544-4번지","indutype":"일반휴게음식 - 일반한식","category":"restaurant"}]},{"lat":"37.013635489","long":"127.26399164","imageIndex":4,"items":[{"name":"쉐프밥버거한경대점","tel":"031-8052-8775","addr":"경기도 안성시 당왕동 553-7번지","indutype":"일반휴게음식 - 일반한식","category":"restaurant"}]},{"lat":"37.013912017","long":"127.2652623","imageIndex":4,"items":[{"name":"신의 한술","tel":"031-672-7082","addr":"경기도 안성시 당왕동 547-9번지","indutype":"일반휴게음식 - 일반한식","category":"restaurant"}]},{"lat":"37.016217457","long":"127.26584329","imageIndex":4,"items":[{"name":"신정골뼈해장국","tel":"031-677-1217","addr":"경기도 안성시 당왕동 537번지","indutype":"일반휴게음식 - 일반한식","category":"restaurant"}]},{"lat":"37.016717207","long":"127.26395724","imageIndex":4,"items":[{"name":"쌀나무볏짚구이","tel":"031-676-9291","addr":"경기도 안성시 당왕동 207-1번지 1층","indutype":"일반휴게음식 - 일반한식","category":"restaurant"}]},{"lat":"37.013832138","long":"127.26471144","imageIndex":4,"items":[{"name":"썬앤비","tel":"031-675-7001","addr":"경기도 안성시 당왕동 551-3번지","indutype":"일반휴게음식 - 일반한식","category":"restaurant"}]},{"lat":"37.014192685","long":"127.2646565","imageIndex":4,"items":[{"name":"쑤와리질러 한경대점","tel":"031-674-1185","addr":"경기도 안성시 당왕동 550-3번지 1층","indutype":"일반휴게음식 - 일반한식","category":"restaurant"},{"name":"육회지존","tel":"031-676-0108","addr":"경기도 안성시 당왕동 550-3번지","indutype":"일반휴게음식 - 일반한식","category":"restaurant"}]},{"lat":"37.014104657","long":"127.26371234","imageIndex":4,"items":[{"name":"아구랑 꽃게랑","tel":"031-676-4115","addr":"경기도 안성시 당왕동 552-3번지","indutype":"일반휴게음식 - 일반한식","category":"restaurant"}]},{"lat":"37.024796815","long":"127.26528849","imageIndex":4,"items":[{"name":"안성국수사랑","tel":"031-676-1117","addr":"경기도 안성시 당왕동 348-8번지 1층","indutype":"일반휴게음식 - 일반한식","category":"restaurant"},{"name":"안성천서리막국수","tel":"031-675-1197","addr":"경기도 안성시 당왕동 348-8번지","indutype":"일반휴게음식 - 일반한식","category":"restaurant"}]},{"lat":"37.015854989","long":"127.26676345","imageIndex":4,"items":[{"name":"안성집","tel":"031-674-0292","addr":"경기도 안성시 당왕동 538-2번지","indutype":"일반휴게음식 - 일반한식","category":"restaurant"}]},{"lat":"37.016470861","long":"127.26123711","imageIndex":4,"items":[{"name":"애플블러썸 안성점","tel":"031-674-1346","addr":"경기도 안성시 당왕동 437번지 2층 201호","indutype":"일반휴게음식 - 서양음식","category":"restaurant"}]},{"lat":"37.015692849","long":"127.26674041","imageIndex":4,"items":[{"name":"어랑감자탕","tel":"031-674-9355","addr":"경기도 안성시 당왕동 538-5번지","indutype":"일반휴게음식 - 일반한식","category":"restaurant"}]},{"lat":"37.015359707","long":"127.2666269","imageIndex":4,"items":[{"name":"엘리팝 안성당왕점","tel":"031-674-3392","addr":"경기도 안성시 당왕동 541-2번지","indutype":"일반휴게음식 - 주점","category":"restaurant"}]},{"lat":"37.016523602","long":"127.26184407","imageIndex":4,"items":[{"name":"영천칡냉면","tel":"031-677-0340","addr":"경기도 안성시 당왕동 438-6번지","indutype":"일반휴게음식 - 일반한식","category":"restaurant"}]},{"lat":"37.014888071","long":"127.25981596","imageIndex":4,"items":[{"name":"오대감","tel":"031-673-5366","addr":"경기도 안성시 당왕동 535","indutype":"일반휴게음식 - 주점","category":"restaurant"}]},{"lat":"37.022524161","long":"127.26617968","imageIndex":4,"items":[{"name":"용가마안성점","tel":"031-674-6129","addr":"경기도 안성시 당왕동 273-14번지","indutype":"일반휴게음식 - 일반한식","category":"restaurant"}]},{"lat":"37.014051136","long":"127.26346496","imageIndex":4,"items":[{"name":"유가네정육점식당","tel":"031-672-6692","addr":"경기도 안성시 당왕동 552-1번지","indutype":"일반휴게음식 - 일반한식","category":"restaurant"}]},{"lat":"37.023161815","long":"127.26304656","imageIndex":4,"items":[{"name":"은평채","tel":"031-671-6767","addr":"경기도 안성시 당왕동 406-6번지","indutype":"일반휴게음식 - 일반한식","category":"restaurant"}]},{"lat":"37.018825725","long":"127.2680098","imageIndex":4,"items":[{"name":"의정부부대찌개","tel":"031-676-0603","addr":"경기도 안성시 당왕동 157-1번지 1층","indutype":"일반휴게음식 - 일반한식","category":"restaurant"},{"name":"자연을담은 13가지맛 아씨삼계탕","tel":"031-672-6887","addr":"경기도 안성시 당왕동 157-1번지 101호","indutype":"일반휴게음식 - 일반한식","category":"restaurant"}]},{"lat":"37.014577756","long":"127.26573652","imageIndex":4,"items":[{"name":"인생양꼬치","tel":"031-8052-0922","addr":"경기도 안성시 당왕동 543-8번지 1층","indutype":"일반휴게음식 - 일반한식","category":"restaurant"}]},{"lat":"37.015080554","long":"127.26654728","imageIndex":4,"items":[{"name":"일차돌 안성점","tel":"031-674-8079","addr":"경기도 안성시 당왕동 541-7번지","indutype":"일반휴게음식 - 일반한식","category":"restaurant"}]},{"lat":"37.014220039","long":"127.26451052","imageIndex":4,"items":[{"name":"잘살아보세","tel":"031-675-6055","addr":"경기도 안성시 당왕동 550-2번지 1층","indutype":"일반휴게음식 - 일반한식","category":"restaurant"}]},{"lat":"37.01374811","long":"127.26603704","imageIndex":4,"items":[{"name":"족발야시장 안성한경대점","tel":"031-674-4969","addr":"경기도 안성시 당왕동 546-1번지","indutype":"일반휴게음식 - 일반한식","category":"restaurant"}]},{"lat":"37.013939347","long":"127.26512755","imageIndex":4,"items":[{"name":"주대리","tel":"031-677-2738","addr":"경기도 안성시 당왕동 547-10번지","indutype":"일반휴게음식 - 일반한식","category":"restaurant"}]},{"lat":"37.013859789","long":"127.26443063","imageIndex":4,"items":[{"name":"쪼끼쪼끼","tel":"031-677-9769","addr":"경기도 안성시 당왕동 551-1번지","indutype":"일반휴게음식 - 주점","category":"restaurant"}]},{"lat":"37.014659722","long":"127.26534352","imageIndex":4,"items":[{"name":"참치나라","tel":"031-671-1199","addr":"경기도 안성시 당왕동 543-11번지","indutype":"일반휴게음식 - 일식·회집","category":"restaurant"}]},{"lat":"37.01819051","long":"127.2618722","imageIndex":4,"items":[{"name":"처갓집양념치킨 당왕점","tel":"031-672-0558","addr":"경기도 안성시 당왕동 584번지 삼정그린코아 301동 101호","indutype":"일반휴게음식 - 스넥","category":"restaurant"}]},{"lat":"37.013353709","long":"127.26510307","imageIndex":4,"items":[{"name":"청담동말자싸롱한경점","tel":"031-674-7654","addr":"경기도 안성시 당왕동 549-1번지","indutype":"일반휴게음식 - 일반한식","category":"restaurant"}]},{"lat":"37.016716415","long":"127.26431681","imageIndex":4,"items":[{"name":"청주해장국","tel":"031-675-7074","addr":"경기도 안성시 당왕동 210-2번지","indutype":"일반휴게음식 - 일반한식","category":"restaurant"}]},{"lat":"37.016135665","long":"127.26615764","imageIndex":4,"items":[{"name":"청해진수산","tel":"031-671-4365","addr":"경기도 안성시 당왕동 537-2번지","indutype":"일반휴게음식 - 일식·회집","category":"restaurant"}]},{"lat":"37.016692548","long":"127.26695737","imageIndex":4,"items":[{"name":"초원정육식당","tel":"031-677-2456","addr":"경기도 안성시 당왕동 163-3번지","indutype":"일반휴게음식 - 일반한식","category":"restaurant"}]},{"lat":"37.013027687","long":"127.26584354","imageIndex":4,"items":[{"name":"친구야","tel":"031-675-2900","addr":"경기도 안성시 당왕동 549-7번지","indutype":"일반휴게음식 - 일반한식","category":"restaurant"}]},{"lat":"37.013381063","long":"127.26495709","imageIndex":4,"items":[{"name":"칠복상회","tel":"031-677-0488","addr":"경기도 안성시 당왕동 549-8번지","indutype":"일반휴게음식 - 일반한식","category":"restaurant"}]},{"lat":"37.013768766","long":"127.26484606","imageIndex":4,"items":[{"name":"카페 지니(cafe jinny)","tel":"","addr":"경기도 안성시 당왕동 551-4번지 1층","indutype":"일반휴게음식 - 서양음식","category":"restaurant"}]},{"lat":"37.015241281","long":"127.25898564","imageIndex":4,"items":[{"name":"투다리","tel":"031-673-2282","addr":"경기도 안성시 당왕동 462-1번지 (106호107동) 106","indutype":"일반휴게음식 - 주점","category":"restaurant"}]},{"lat":"37.013604613","long":"127.26573316","imageIndex":4,"items":[{"name":"투다리한경대점","tel":"031-675-1568","addr":"경기도 안성시 당왕동 548-5번지","indutype":"일반휴게음식 - 주점","category":"restaurant"}]},{"lat":"37.013833054","long":"127.2642957","imageIndex":4,"items":[{"name":"허니조이치킨","tel":"031-673-9944","addr":"경기도 안성시 당왕동 551번지","indutype":"일반휴게음식 - 스넥","category":"restaurant"}]},{"lat":"37.01410436","long":"127.26384718","imageIndex":4,"items":[{"name":"화로수","tel":"031-674-8505","addr":"경기도 안성시 당왕동 552-4번지","indutype":"일반휴게음식 - 일반한식","category":"restaurant"}]},{"lat":"37.01452307","long":"127.26601724","imageIndex":4,"items":[{"name":"황우랑","tel":"031-672-4300","addr":"경기도 안성시 당왕동 543-6번지 1층","indutype":"일반휴게음식 - 일반한식","category":"restaurant"}]},{"lat":"37.015522097","long":"127.26653756","imageIndex":4,"items":[{"name":"휠","tel":"031-672-4441","addr":"경기도 안성시 당왕동 541번지","indutype":"일반휴게음식 - 주점","category":"restaurant"}]},{"lat":"37.014965882","long":"127.26543447","imageIndex":4,"items":[{"name":"희미한옛사랑의그림자","tel":"031-673-7167","addr":"경기도 안성시 당왕동 542-11번지","indutype":"일반휴게음식 - 일반한식","category":"restaurant"}]}]