[{"lat":"37.247384125","long":"127.05052425","imageIndex":4,"items":[{"name":"88라면 카페","tel":"031-695-8216","addr":"경기도 수원시 영통구 신동 486번지 디지털엠파이어2 103동 지하1층 비05호","indutype":"일반휴게음식 - 서양음식","category":"restaurant"},{"name":"돈가네옛날돼지찌게","tel":"031-695-7242","addr":"경기도 수원시 영통구 신동 486번지 외1필지디지털엠파이어2 104동 207호","indutype":"일반휴게음식 - 일반한식","category":"restaurant"},{"name":"맛내음한식부페","tel":"031-695-6652","addr":"경기도 수원시 영통구 신동 486번지 디지털엠파이어2 B7호","indutype":"일반휴게음식 - 일반한식","category":"restaurant"},{"name":"아르떼","tel":"031-695-5695","addr":"경기도 수원시 영통구 신동 486번지 디지털엠파이어2 101층 108호","indutype":"일반휴게음식 - 서양음식","category":"restaurant"},{"name":"조이푸드","tel":"031-695-6755","addr":"경기도 수원시 영통구 신동 486번지 디지털엠파이어2 1층 102,103,104호","indutype":"일반휴게음식 - 일반한식","category":"restaurant"},{"name":"친구뷔페식당","tel":"031-695-8588","addr":"경기도 수원시 영통구 신동 486번지 디지털엠파이어2 101동 120호, 121호","indutype":"일반휴게음식 - 일반한식","category":"restaurant"},{"name":"카페모던타임즈","tel":"031-695-8215","addr":"경기도 수원시 영통구 신동 486번지 디지털엠파이어 2103동 115-3호","indutype":"일반휴게음식 - 서양음식","category":"restaurant"}]},{"lat":"37.248459309","long":"127.0424999","imageIndex":4,"items":[{"name":"Dorothy(도로시)","tel":"031-203-7228","addr":"경기도 수원시 영통구 신동 924-1번지 1층 101호","indutype":"일반휴게음식 - 서양음식","category":"restaurant"}]},{"lat":"37.247800685","long":"127.04502426","imageIndex":4,"items":[{"name":"가장맛있는족발 신동점","tel":"031-206-5849","addr":"경기도 수원시 영통구 신동 932-4번지 1층 103,104호","indutype":"일반휴게음식 - 일반한식","category":"restaurant"},{"name":"램스토리","tel":"031-253-1000","addr":"경기도 수원시 영통구 신동 932-4번지 1층 101.102호","indutype":"일반휴게음식 - 일반한식","category":"restaurant"},{"name":"투다리(신동점)","tel":"031-238-9229","addr":"경기도 수원시 영통구 신동 932-4번지","indutype":"일반휴게음식 - 주점","category":"restaurant"}]},{"lat":"37.24693616","long":"127.04369382","imageIndex":4,"items":[{"name":"고니네제주오겹살","tel":"031-203-0292","addr":"경기도 수원시 영통구 신동 933-9번지 1층 102호","indutype":"일반휴게음식 - 일반한식","category":"restaurant"},{"name":"다밤","tel":"031-203-0072","addr":"경기도 수원시 영통구 신동 933-9번지 202호","indutype":"일반휴게음식 - 주점","category":"restaurant"},{"name":"부산회센터","tel":"031-204-8533","addr":"경기도 수원시 영통구 신동 933-9번지 1층 101호","indutype":"일반휴게음식 - 일식·회집","category":"restaurant"}]},{"lat":"37.247188273","long":"127.04420115","imageIndex":4,"items":[{"name":"곱깨비 신동점","tel":"","addr":"경기도 수원시 영통구 신동 935-4번지 1층 103호","indutype":"일반휴게음식 - 일반한식","category":"restaurant"},{"name":"청기와감자탕","tel":"031-204-3112","addr":"경기도 수원시 영통구 신동 935-4번지 101,02호","indutype":"일반휴게음식 - 일반한식","category":"restaurant"}]},{"lat":"37.248044823","long":"127.0425335","imageIndex":4,"items":[{"name":"공원","tel":"031-000-0000","addr":"경기도 수원시 영통구 신동 927번지 1층","indutype":"일반휴게음식 - 서양음식","category":"restaurant"}]},{"lat":"37.249489449","long":"127.05767155","imageIndex":4,"items":[{"name":"궁돈보쌈","tel":"031-203-9399","addr":"경기도 수원시 영통구 신동 342-4번지 민교빌딩 지하1,2층","indutype":"일반휴게음식 - 일반한식","category":"restaurant"}]},{"lat":"37.248042642","long":"127.04858605","imageIndex":4,"items":[{"name":"그린푸드","tel":"031-203-0890","addr":"경기도 수원시 영통구 신동 498-6번지 2층","indutype":"일반휴게음식 - 일반한식","category":"restaurant"},{"name":"코너498-6","tel":"031-206-6111","addr":"경기도 수원시 영통구 신동 498-6번지","indutype":"일반휴게음식 - 스넥","category":"restaurant"}]},{"lat":"37.247909051","long":"127.04433679","imageIndex":4,"items":[{"name":"꼬미곶닭발","tel":"031-204-0085","addr":"경기도 수원시 영통구 신동 933-2번지","indutype":"일반휴게음식 - 일반한식","category":"restaurant"}]},{"lat":"37.246924842","long":"127.04991533","imageIndex":4,"items":[{"name":"끼끼식당","tel":"031-695-6069","addr":"경기도 수원시 영통구 신동 486번지 디지털엠파이어2 104동 102호","indutype":"일반휴게음식 - 스넥","category":"restaurant"},{"name":"대성한식뷔페","tel":"031-111-1111","addr":"경기도 수원시 영통구 신동 486번지 디지털엠파이어2 104동 309호","indutype":"일반휴게음식 - 일반한식","category":"restaurant"},{"name":"미스터쌀국수","tel":"","addr":"경기도 수원시 영통구 신동 486번지 디지털엠파이어2 104동 111호","indutype":"일반휴게음식 - 서양음식","category":"restaurant"},{"name":"부자한식뷔페","tel":"031-695-6626","addr":"경기도 수원시 영통구 신동 486번지 디지털엠파이어2 104동 2층 208호","indutype":"일반휴게음식 - 일반한식","category":"restaurant"},{"name":"완산골명가","tel":"031-695-6438","addr":"경기도 수원시 영통구 신동 486번지 디지털엠파이어2 104동 203호","indutype":"일반휴게음식 - 일반한식","category":"restaurant"},{"name":"죽이야기","tel":"031-695-6310","addr":"경기도 수원시 영통구 신동 486번지 디지털엠파이어투 104동 110호","indutype":"일반휴게음식 - 일반한식","category":"restaurant"}]},{"lat":"37.246936368","long":"127.04308519","imageIndex":4,"items":[{"name":"노가리앤비어 영통점","tel":"02-1577-0000","addr":"경기도 수원시 영통구 신동 933-12번지 101,102호","indutype":"일반휴게음식 - 주점","category":"restaurant"},{"name":"반월","tel":"031-0000-0000","addr":"경기도 수원시 영통구 신동 933-12번지 103호","indutype":"일반휴게음식 - 일식·회집","category":"restaurant"}]},{"lat":"37.247710469","long":"127.0453398","imageIndex":4,"items":[{"name":"달다랑","tel":"","addr":"경기도 수원시 영통구 신동 936-6번지 로얄프라자 1층 104호","indutype":"일반휴게음식 - 일반한식","category":"restaurant"}]},{"lat":"37.2497656","long":"127.04310924","imageIndex":4,"items":[{"name":"달임","tel":"","addr":"경기도 수원시 영통구 신동 920-1번지 103호","indutype":"일반휴게음식 - 일반한식","category":"restaurant"},{"name":"카페우리","tel":"031-203-7806","addr":"경기도 수원시 영통구 신동 920-1번지 103호","indutype":"일반휴게음식 - 서양음식","category":"restaurant"}]},{"lat":"37.250155828","long":"127.05849484","imageIndex":4,"items":[{"name":"대원","tel":"031-205-2703","addr":"경기도 수원시 영통구 신동 352-1번지 수서빌 1층","indutype":"일반휴게음식 - 일반한식","category":"restaurant"}]},{"lat":"37.247474314","long":"127.05031016","imageIndex":4,"items":[{"name":"띠아모","tel":"031-695-7979","addr":"경기도 수원시 영통구 신동 486번지 디지털엠파이어II 101동 119호","indutype":"일반휴게음식 - 서양음식","category":"restaurant"},{"name":"모자맛집","tel":"031-695-8218","addr":"경기도 수원시 영통구 신동 486번지 디지털엠파이어2 101동 122호","indutype":"일반휴게음식 - 스넥","category":"restaurant"},{"name":"셰프의돈까스(수원영통점)","tel":"031-695-7878","addr":"경기도 수원시 영통구 신동 486번지 디지털엠파이어2 101동 103호","indutype":"일반휴게음식 - 일반한식","category":"restaurant"},{"name":"엔제리너스 디지털엠파이어2","tel":"","addr":"경기도 수원시 영통구 신동 486번지 디지털엠파이어2 101동 104호","indutype":"일반휴게음식 - 서양음식","category":"restaurant"},{"name":"이디야 수원디지털엠파이어2점","tel":"031-695-8217","addr":"경기도 수원시 영통구 신동 486번지 디지털엠파이어2 101동 104호","indutype":"일반휴게음식 - 서양음식","category":"restaurant"},{"name":"카페루하(ruha)","tel":"031-695-5664","addr":"경기도 수원시 영통구 신동 486번지 디지털엠파이어2 101동 111호","indutype":"일반휴게음식 - 서양음식","category":"restaurant"},{"name":"햇살한식뷔페","tel":"031-695-5569","addr":"경기도 수원시 영통구 신동 486번지 디지털엠파이어2 101동 115호","indutype":"일반휴게음식 - 일반한식","category":"restaurant"}]},{"lat":"37.247404426","long":"127.04447177","imageIndex":4,"items":[{"name":"레시피 랩","tel":"","addr":"경기도 수원시 영통구 신동 935-2번지 상가동 104호","indutype":"일반휴게음식 - 서양음식","category":"restaurant"},{"name":"썬비어호프","tel":"","addr":"경기도 수원시 영통구 신동 935-2번지","indutype":"일반휴게음식 - 주점","category":"restaurant"},{"name":"엄가네황소곱창","tel":"031-206-9393","addr":"경기도 수원시 영통구 신동 935-2번지 103호","indutype":"일반휴게음식 - 일반한식","category":"restaurant"},{"name":"정봉기의착한초밥참치","tel":"031-222-2298","addr":"경기도 수원시 영통구 신동 935-2번지","indutype":"일반휴게음식 - 일반한식","category":"restaurant"}]},{"lat":"37.251903261","long":"127.05969092","imageIndex":4,"items":[{"name":"루트101","tel":"031-273-7153","addr":"경기도 수원시 영통구 신동 365-4번지 2층","indutype":"일반휴게음식 - 일반한식","category":"restaurant"},{"name":"주식회사 참나무숲","tel":"031-273-7153","addr":"경기도 수원시 영통구 신동 365-4번지","indutype":"일반휴게음식 - 일반한식","category":"restaurant"}]},{"lat":"37.248436497","long":"127.05488683","imageIndex":4,"items":[{"name":"마마푸드","tel":"031-202-9933","addr":"경기도 수원시 영통구 신동 334-32번지 1층","indutype":"일반휴게음식 - 일반한식","category":"restaurant"}]},{"lat":"37.248044363","long":"127.04388602","imageIndex":4,"items":[{"name":"마미아뜰리에","tel":"070-4790-9486","addr":"경기도 수원시 영통구 신동 933번지 1층","indutype":"일반휴게음식 - 일반한식","category":"restaurant"}]},{"lat":"37.2464043","long":"127.04441486","imageIndex":4,"items":[{"name":"마미컵밥","tel":"031-000-0000","addr":"경기도 수원시 영통구 신동 938번지 101호","indutype":"일반휴게음식 - 스넥","category":"restaurant"},{"name":"비스트로 피자","tel":"031-203-8008","addr":"경기도 수원시 영통구 신동 938번지 1층 106호","indutype":"일반휴게음식 - 서양음식","category":"restaurant"},{"name":"비에이치씨(BHC)신동점","tel":"031-273-6777","addr":"경기도 수원시 영통구 신동 938번지 105호","indutype":"일반휴게음식 - 스넥","category":"restaurant"},{"name":"성원각","tel":"031-204-2001","addr":"경기도 수원시 영통구 신동 938번지 2층 201호","indutype":"일반휴게음식 - 중국식","category":"restaurant"}]},{"lat":"37.24973801","long":"127.04472102","imageIndex":4,"items":[{"name":"맛있는돼지네","tel":"031-206-2006","addr":"경기도 수원시 영통구 신동 534번지","indutype":"일반휴게음식 - 중국식","category":"restaurant"},{"name":"영통숯불장어촌","tel":"031-273-1592","addr":"경기도 수원시 영통구 신동 534번지 2층","indutype":"일반휴게음식 - 일반한식","category":"restaurant"}]},{"lat":"37.247522446","long":"127.04186824","imageIndex":4,"items":[{"name":"멜트어웨이","tel":"","addr":"경기도 수원시 영통구 신동 926-5번지 1층 101호","indutype":"일반휴게음식 - 서양음식","category":"restaurant"}]},{"lat":"37.250153222","long":"127.04257969","imageIndex":4,"items":[{"name":"몽글커피","tel":"031-302-8846","addr":"경기도 수원시 영통구 신동 918-1번지 1층 101호","indutype":"일반휴게음식 - 서양음식","category":"restaurant"}]},{"lat":"37.246737662","long":"127.0444714","imageIndex":4,"items":[{"name":"백년갈비 수원영통점","tel":"031-206-2382","addr":"경기도 수원시 영통구 신동 937-4번지 드림타워 1층 108-110호","indutype":"일반휴게음식 - 일반한식","category":"restaurant"},{"name":"스시라쿠","tel":"","addr":"경기도 수원시 영통구 신동 937-4번지 드림타워 107호","indutype":"일반휴게음식 - 일식·회집","category":"restaurant"}]},{"lat":"37.248742489","long":"127.05569856","imageIndex":4,"items":[{"name":"백스페이스","tel":"000-000-0000","addr":"경기도 수원시 영통구 신동 334-19번지 101호","indutype":"일반휴게음식 - 서양음식","category":"restaurant"}]},{"lat":"37.246520858","long":"127.04602665","imageIndex":4,"items":[{"name":"본죽수원신동점","tel":"031-273-6288","addr":"경기도 수원시 영통구 신동 940번지 래미안영통마크원2단지 215동 1층 108호","indutype":"일반휴게음식 - 일반한식","category":"restaurant"}]},{"lat":"37.247017346","long":"127.04342336","imageIndex":4,"items":[{"name":"불맛명가","tel":"031-273-9555","addr":"경기도 수원시 영통구 신동 933-10번지","indutype":"일반휴게음식 - 일반한식","category":"restaurant"},{"name":"팡팡몬","tel":"","addr":"경기도 수원시 영통구 신동 933-10번지 201호","indutype":"일반휴게음식 - 서양음식","category":"restaurant"}]},{"lat":"37.248544522","long":"127.05511232","imageIndex":4,"items":[{"name":"비밀기지","tel":"031-203-5547","addr":"경기도 수원시 영통구 신동 334-34번지 브레인하우스 B동 1층 101호","indutype":"일반휴게음식 - 서양음식","category":"restaurant"},{"name":"커피맨의커피박스 신동삼성점","tel":"031-205-1642","addr":"경기도 수원시 영통구 신동 334-34번지 1층 101호","indutype":"일반휴게음식 - 서양음식","category":"restaurant"}]},{"lat":"37.248431443","long":"127.04492317","imageIndex":4,"items":[{"name":"비프론트커피","tel":"","addr":"경기도 수원시 영통구 신동 930-5번지 1층","indutype":"일반휴게음식 - 서양음식","category":"restaurant"}]},{"lat":"37.247188456","long":"127.04367141","imageIndex":4,"items":[{"name":"빚은만두","tel":"031-223-5214","addr":"경기도 수원시 영통구 신동 933-8번지 103호","indutype":"일반휴게음식 - 일반한식","category":"restaurant"},{"name":"스시노백쉐프 수원신동점","tel":"031-205-5801","addr":"경기도 수원시 영통구 신동 933-8번지 1층 102호","indutype":"일반휴게음식 - 일식·회집","category":"restaurant"},{"name":"파이브","tel":"031-273-5013","addr":"경기도 수원시 영통구 신동 933-8번지","indutype":"일반휴게음식 - 서양음식","category":"restaurant"}]},{"lat":"37.249126061","long":"127.04253407","imageIndex":4,"items":[{"name":"살루브레","tel":"031-205-5055","addr":"경기도 수원시 영통구 신동 921-2번지 1층","indutype":"일반휴게음식 - 서양음식","category":"restaurant"}]},{"lat":"37.247711636","long":"127.04194723","imageIndex":4,"items":[{"name":"삼십칠점오(37.5)","tel":"","addr":"경기도 수원시 영통구 신동 926-4번지 1층","indutype":"일반휴게음식 - 서양음식","category":"restaurant"}]},{"lat":"37.246852512","long":"127.05053519","imageIndex":4,"items":[{"name":"셀렉토 커피","tel":"031-695-7447","addr":"경기도 수원시 영통구 신동 486번지 디지털엠파이어2 103동 101호","indutype":"일반휴게음식 - 서양음식","category":"restaurant"},{"name":"쥬스팩토리","tel":"031-695-7152","addr":"경기도 수원시 영통구 신동 486번지 디지털엠파이어2 103동 101호","indutype":"일반휴게음식 - 서양음식","category":"restaurant"}]},{"lat":"37.252020075","long":"127.06035603","imageIndex":4,"items":[{"name":"소금빛풍천장어","tel":"031-203-8120","addr":"경기도 수원시 영통구 신동 275-1번지 외2필지 A동","indutype":"일반휴게음식 - 일반한식","category":"restaurant"},{"name":"신동순대국","tel":"031-206-1236","addr":"경기도 수원시 영통구 신동 275-1번지","indutype":"일반휴게음식 - 일반한식","category":"restaurant"}]},{"lat":"37.247431389","long":"127.04466339","imageIndex":4,"items":[{"name":"소문난한식뷔페","tel":"031-461-9721","addr":"경기도 수원시 영통구 신동 935-1. 103호","indutype":"일반휴게음식 - 일반한식","category":"restaurant"},{"name":"장한추어탕 통닭","tel":"031-202-9259","addr":"경기도 수원시 영통구 신동 935-1번지 102호","indutype":"일반휴게음식 - 일반한식","category":"restaurant"}]},{"lat":"37.246016963","long":"127.04411034","imageIndex":4,"items":[{"name":"스쿠버포차","tel":"031-231-9200","addr":"경기도 수원시 영통구 신동 938-3번지 2층","indutype":"일반휴게음식 - 일반한식","category":"restaurant"},{"name":"싱싱회수산","tel":"031-203-4865","addr":"경기도 수원시 영통구 신동 938-3번지 1층","indutype":"일반휴게음식 - 일반한식","category":"restaurant"}]},{"lat":"37.247716659","long":"127.05258705","imageIndex":4,"items":[{"name":"신교동짬뽕","tel":"031-203-7778","addr":"경기도 수원시 영통구 신동 398-21번지 1층","indutype":"일반휴게음식 - 중국식","category":"restaurant"},{"name":"홍대","tel":"031-273-4333","addr":"경기도 수원시 영통구 신동 398-21번지 1층","indutype":"일반휴게음식 - 일반한식","category":"restaurant"}]},{"lat":"37.245909218","long":"127.04300575","imageIndex":4,"items":[{"name":"신동김밥","tel":"031-206-3343","addr":"경기도 수원시 영통구 신동 939번지 래미안영통마크원1단지 1층 103호","indutype":"일반휴게음식 - 일반한식","category":"restaurant"}]},{"lat":"37.24721568","long":"127.04310788","imageIndex":4,"items":[{"name":"신동카츠","tel":"070-7529-0334","addr":"경기도 수원시 영통구 신동 934-13번지 102호","indutype":"일반휴게음식 - 서양음식","category":"restaurant"}]},{"lat":"37.248076767","long":"127.05330863","imageIndex":4,"items":[{"name":"신통치킨","tel":"031-205-9588","addr":"경기도 수원시 영통구 신동 398-39번지 A동 106호","indutype":"일반휴게음식 - 일반한식","category":"restaurant"},{"name":"원더풀머그","tel":"031-3252-5241","addr":"경기도 수원시 영통구 신동 398-39번지 1층 103호","indutype":"일반휴게음식 - 서양음식","category":"restaurant"}]},{"lat":"37.248850798","long":"127.0552816","imageIndex":4,"items":[{"name":"씨유신동삼성점","tel":"031-273-4478","addr":"경기도 수원시 영통구 신동 396-20번지","indutype":"일반휴게음식 - 스넥","category":"restaurant"}]},{"lat":"37.24879648","long":"127.05585639","imageIndex":4,"items":[{"name":"아르떼","tel":"031-203-2388","addr":"경기도 수원시 영통구 신동 334-20번지 102호","indutype":"일반휴게음식 - 스넥","category":"restaurant"}]},{"lat":"37.248152985","long":"127.04242084","imageIndex":4,"items":[{"name":"어라운드커피","tel":"031-204-2600","addr":"경기도 수원시 영통구 신동 926번지","indutype":"일반휴게음식 - 서양음식","category":"restaurant"}]},{"lat":"37.24829592","long":"127.04594877","imageIndex":4,"items":[{"name":"에코독","tel":"031-206-7070","addr":"경기도 수원시 영통구 신동 936번지 401호","indutype":"일반휴게음식 - 서양음식","category":"restaurant"}]},{"lat":"37.247189056","long":"127.04189061","imageIndex":4,"items":[{"name":"엘린디저트카페","tel":"070-9316-2833","addr":"경기도 수원시 영통구 신동 929-1번지 1층 102호","indutype":"일반휴게음식 - 서양음식","category":"restaurant"},{"name":"홀디","tel":"031-111-1111","addr":"경기도 수원시 영통구 신동 929-1번지 1층 101호","indutype":"일반휴게음식 - 일반한식","category":"restaurant"}]},{"lat":"37.247736632","long":"127.04769545","imageIndex":4,"items":[{"name":"연평도원조꽃게","tel":"031-205-1233","addr":"경기도 수원시 영통구 신동 503-7번지","indutype":"일반휴게음식 - 일반한식","category":"restaurant"}]},{"lat":"37.251876585","long":"127.05894697","imageIndex":4,"items":[{"name":"영통맛집","tel":"031-204-7825","addr":"경기도 수원시 영통구 신동 384-8번지 1층","indutype":"일반휴게음식 - 일반한식","category":"restaurant"}]},{"lat":"37.249936089","long":"127.04513816","imageIndex":4,"items":[{"name":"오복식당","tel":"031-205-2123","addr":"경기도 수원시 영통구 신동 556-6번지 1층","indutype":"일반휴게음식 - 일반한식","category":"restaurant"}]},{"lat":"37.246323294","long":"127.04416686","imageIndex":4,"items":[{"name":"오음","tel":"070-525-2424","addr":"경기도 수원시 영통구 신동 938-1번지 1층","indutype":"일반휴게음식 - 서양음식","category":"restaurant"},{"name":"케이사이공","tel":"","addr":"경기도 수원시 영통구 신동 938-1번지 1층","indutype":"일반휴게음식 - 서양음식","category":"restaurant"}]},{"lat":"37.247242596","long":"127.04344602","imageIndex":4,"items":[{"name":"오트밀","tel":"","addr":"경기도 수원시 영통구 신동 934-6번지 1층 102호","indutype":"일반휴게음식 - 서양음식","category":"restaurant"}]},{"lat":"37.249048011","long":"127.05752471","imageIndex":4,"items":[{"name":"옥황한돈","tel":"031-202-0437","addr":"경기도 수원시 영통구 신동 340-15번지","indutype":"일반휴게음식 - 일반한식","category":"restaurant"}]},{"lat":"37.248930976","long":"127.05731047","imageIndex":4,"items":[{"name":"욕쟁이 할매","tel":"031-204-9285","addr":"경기도 수원시 영통구 신동 338-5번지 1층","indutype":"일반휴게음식 - 일반한식","category":"restaurant"}]},{"lat":"37.247296914","long":"127.0426909","imageIndex":4,"items":[{"name":"유마카롱","tel":"070-5118-2236","addr":"경기도 수원시 영통구 신동 928-4번지 1층 102호","indutype":"일반휴게음식 - 서양음식","category":"restaurant"}]},{"lat":"37.248493903","long":"127.04661387","imageIndex":4,"items":[{"name":"이화수 전통육개장","tel":"031-202-2887","addr":"경기도 수원시 영통구 신동 529-7번지 1층","indutype":"일반휴게음식 - 일반한식","category":"restaurant"}]},{"lat":"37.247905772","long":"127.05283514","imageIndex":4,"items":[{"name":"장수회관","tel":"031-203-6109","addr":"경기도 수원시 영통구 신동 398-19번지","indutype":"일반휴게음식 - 일반한식","category":"restaurant"}]},{"lat":"37.248043721","long":"127.04570066","imageIndex":4,"items":[{"name":"지구대표족발보쌈","tel":"031-205-2059","addr":"경기도 수원시 영통구 신동 936-3번지","indutype":"일반휴게음식 - 일반한식","category":"restaurant"}]},{"lat":"37.249241883","long":"127.04627617","imageIndex":4,"items":[{"name":"짬뽕나라","tel":"031-204-4044","addr":"경기도 수원시 영통구 신동 531-21번지","indutype":"일반휴게음식 - 중국식","category":"restaurant"}]},{"lat":"37.247377119","long":"127.04524945","imageIndex":4,"items":[{"name":"찜선생등갈비","tel":"031-206-6692","addr":"경기도 수원시 영통구 신동 937번지 101호","indutype":"일반휴게음식 - 일반한식","category":"restaurant"}]},{"lat":"37.246990487","long":"127.04291616","imageIndex":4,"items":[{"name":"청담동말자싸롱 신동점","tel":"031-202-4600","addr":"경기도 수원시 영통구 신동 933-13번지 1층 101-102호","indutype":"일반휴게음식 - 일반한식","category":"restaurant"}]},{"lat":"37.25190338","long":"127.05944294","imageIndex":4,"items":[{"name":"초원돌솥추어탕","tel":"031-203-5640","addr":"경기도 수원시 영통구 신동 365-1번지 1층","indutype":"일반휴게음식 - 일반한식","category":"restaurant"}]},{"lat":"37.247548484","long":"127.04477616","imageIndex":4,"items":[{"name":"충만치킨영통점","tel":"031-273-8292","addr":"경기도 수원시 영통구 신동 935번지 101호","indutype":"일반휴게음식 - 스넥","category":"restaurant"}]},{"lat":"37.249630491","long":"127.04297391","imageIndex":4,"items":[{"name":"카페드마치","tel":"031-111-1111","addr":"경기도 수원시 영통구 신동 920-2번지","indutype":"일반휴게음식 - 서양음식","category":"restaurant"}]},{"lat":"37.251462307","long":"127.05852962","imageIndex":4,"items":[{"name":"카페오드리","tel":"070-4760-7071","addr":"경기도 수원시 영통구 신동 384-12번지 101호","indutype":"일반휴게음식 - 서양음식","category":"restaurant"}]},{"lat":"37.247302662","long":"127.05143714","imageIndex":4,"items":[{"name":"카페허그","tel":"031-695-7979","addr":"경기도 수원시 영통구 신동 486번지 디지털엠파이어2 102동 119호","indutype":"일반휴게음식 - 서양음식","category":"restaurant"}]},{"lat":"37.250236852","long":"127.05864143","imageIndex":4,"items":[{"name":"토담명가","tel":"031-217-7722","addr":"경기도 수원시 영통구 신동 355번지 1층","indutype":"일반휴게음식 - 일반한식","category":"restaurant"}]},{"lat":"37.24829704","long":"127.04274778","imageIndex":4,"items":[{"name":"프로마쥬블랑","tel":"031-204-9935","addr":"경기도 수원시 영통구 신동 925-7번지 1층","indutype":"일반휴게음식 - 일반한식","category":"restaurant"}]},{"lat":"37.249210129","long":"127.05767135","imageIndex":4,"items":[{"name":"한솥도시락태장고점","tel":"031-202-8128","addr":"경기도 수원시 영통구 신동 341번지 스타빌딩 B2호","indutype":"일반휴게음식 - 일반한식","category":"restaurant"}]},{"lat":"37.247603412","long":"127.04225149","imageIndex":4,"items":[{"name":"호노호노","tel":"","addr":"경기도 수원시 영통구 신동 928-8번지 1층","indutype":"일반휴게음식 - 서양음식","category":"restaurant"}]},{"lat":"37.247963448","long":"127.04336751","imageIndex":4,"items":[{"name":"홍만두","tel":"","addr":"경기도 수원시 영통구 신동 925-4번지 1층","indutype":"일반휴게음식 - 스넥","category":"restaurant"}]},{"lat":"37.249876625","long":"127.05824667","imageIndex":4,"items":[{"name":"화성옥 망포점","tel":"031-242-3865","addr":"경기도 수원시 영통구 신동 346-4번지 101호","indutype":"일반휴게음식 - 일반한식","category":"restaurant"}]}]