[{"lat":"37.926397202","long":"127.05359762","imageIndex":7,"items":[{"name":"Good luck (굿럭)","tel":"031-862-3869","addr":"경기도 동두천시 동두천동 524번지 신창비바패밀리1단지 106동 1503호","indutype":"음료식품 - 농·축·수산품","category":"food"}]},{"lat":"37.935487373","long":"127.05401337","imageIndex":7,"items":[{"name":"금호상회","tel":"031-865-4043","addr":"경기도 동두천시 동두천동 289-14번지","indutype":"음료식품 - 기타음료식품","category":"food"}]},{"lat":"37.937599405","long":"127.06473056","imageIndex":7,"items":[{"name":"달공작업실","tel":"","addr":"경기도 동두천시 동두천동 33-12번지 1층","indutype":"음료식품 - 제과점","category":"food"}]},{"lat":"37.937903008","long":"127.05128491","imageIndex":7,"items":[{"name":"덕산푸드","tel":"031-857-9952","addr":"경기도 동두천시 동두천동 554번지","indutype":"음료식품 - 정육점","category":"food"},{"name":"바른푸드","tel":"031-868-2714","addr":"경기도 동두천시 동두천동 554번지","indutype":"음료식품 - 정육점","category":"food"}]},{"lat":"37.936793069","long":"127.0554817","imageIndex":7,"items":[{"name":"시크릿놀터","tel":"070-4176-9931","addr":"경기도 동두천시 동두천동 362-2번지","indutype":"음료식품 - 기타음료식품","category":"food"}]},{"lat":"37.92688356","long":"127.05392779","imageIndex":7,"items":[{"name":"신창고기마을","tel":"031-865-6689","addr":"경기도 동두천시 동두천동 220-9번지 3호","indutype":"음료식품 - 정육점","category":"food"}]},{"lat":"37.932903286","long":"127.0502579","imageIndex":7,"items":[{"name":"주식회사 황하","tel":"031-847-2000","addr":"경기도 동두천시 동두천동 536-2번지","indutype":"음료식품 - 정육점","category":"food"}]},{"lat":"37.936099639","long":"127.05484419","imageIndex":7,"items":[{"name":"크로바","tel":"031-832-3278","addr":"경기도 동두천시 동두천동 348-31번지","indutype":"음료식품 - 농·축·수산품","category":"food"}]},{"lat":"37.924154083","long":"127.05315251","imageIndex":7,"items":[{"name":"하은이네","tel":"031-862-6347","addr":"경기도 동두천시 동두천동 210-6번지","indutype":"음료식품 - 농·축·수산품","category":"food"}]}]