[{"lat":"37.542774218","long":"127.70203589","imageIndex":16,"items":[{"name":"농업회사법인(주)가현","tel":"031-775-1231","addr":"경기도 양평군 청운면 가현리 435-2번지","indutype":"학원 - 기타 교육기관","category":"study"}]},{"lat":"37.546967379","long":"127.70748394","imageIndex":17,"items":[{"name":"대경콘크리트","tel":"031-773-6844","addr":"경기도 양평군 청운면 가현리 625-3번지","indutype":"기타 - 기타 전문점","category":"other"}]},{"lat":"37.546380515","long":"127.71070336","imageIndex":17,"items":[{"name":"용머리휴게소(식품점)","tel":"031-774-9321","addr":"경기도 양평군 청운면 가현리 593-3번지","indutype":"유통업 영리 - 편 의 점","category":"other"}]},{"lat":"37.543687836","long":"127.70748702","imageIndex":17,"items":[{"name":"이운선기타공방","tel":"031-772-7304","addr":"경기도 양평군 청운면 가현리 499번지","indutype":"레져용품 - 악기점","category":"other"}]},{"lat":"37.528663751","long":"127.72175831","imageIndex":17,"items":[{"name":"주식회사 트라운빌하우스","tel":"031-772-2331","addr":"경기도 양평군 청운면 가현리 199-6번지 자스트휴2","indutype":"레져용품 - 스포츠·레져용품","category":"other"}]},{"lat":"37.546049616","long":"127.70576666","imageIndex":17,"items":[{"name":"한신산업","tel":"031-528-6301","addr":"경기도 양평군 청운면 가현리 485","indutype":"기타 - 기타 전문점","category":"other"}]},{"lat":"37.523361378","long":"127.71359666","imageIndex":5,"items":[{"name":"양평숲 비룡캠프장","tel":"031-773-2875","addr":"경기도 양평군 청운면 가현리 380번지","indutype":"숙박업 - 여관/기타숙박업","category":"hotel"}]},{"lat":"37.542774218","long":"127.70203589","imageIndex":5,"items":[{"name":"청운오토캠프장","tel":"031-775-1231","addr":"경기도 양평군 청운면 가현리 435-2번지","indutype":"숙박업 - 여관/기타숙박업","category":"hotel"}]},{"lat":"37.52499413","long":"127.72662134","imageIndex":5,"items":[{"name":"퍼피누(PUPPYNU)","tel":"031-770-1841","addr":"경기도 양평군 청운면 가현리 149번지","indutype":"숙박업 - 여관/기타숙박업","category":"hotel"}]},{"lat":"37.546441889","long":"127.70948186","imageIndex":9,"items":[{"name":"용머리주유소","tel":"031-774-9636","addr":"경기도 양평군 청운면 가현리 593번지","indutype":"연료판매점 - 현대정유(오일뱅크)","category":"oil"}]},{"lat":"37.508969644","long":"127.73040246","imageIndex":4,"items":[{"name":"카페원빈(Cafe onebean)","tel":"031-771-7203","addr":"경기도 양평군 청운면 가현리 24-3번지 1층","indutype":"일반휴게음식 - 서양음식","category":"restaurant"}]}]