[{"lat":"36.997828918","long":"127.17013383","imageIndex":4,"items":[{"name":"38전주식당","tel":"031-651-5858","addr":"경기도 안성시 공도읍 승두리 59-13번지 1층","indutype":"일반휴게음식 - 일반한식","category":"restaurant"},{"name":"복된식당","tel":"031-653-1151","addr":"경기도 안성시 공도읍 승두리 59-13번지","indutype":"일반휴게음식 - 일반한식","category":"restaurant"}]},{"lat":"37.000050207","long":"127.17319443","imageIndex":4,"items":[{"name":"7학년7반 공도점","tel":"031-655-7217","addr":"경기도 안성시 공도읍 승두리 60-8번지 2층","indutype":"일반휴게음식 - 일반한식","category":"restaurant"}]},{"lat":"36.998131219","long":"127.16658453","imageIndex":4,"items":[{"name":"강산골뼈해장국","tel":"031-655-6544","addr":"경기도 안성시 공도읍 승두리 70-2번지","indutype":"일반휴게음식 - 일반한식","category":"restaurant"}]},{"lat":"36.99844207","long":"127.16983185","imageIndex":4,"items":[{"name":"공도정육식당생고기전문점","tel":"031-654-0506","addr":"경기도 안성시 공도읍 승두리 62-3번지","indutype":"일반휴게음식 - 일반한식","category":"restaurant"}]},{"lat":"36.99588608","long":"127.1541103","imageIndex":4,"items":[{"name":"길목칼국수","tel":"031-657-8956","addr":"경기도 안성시 공도읍 승두리 598-131번지","indutype":"일반휴게음식 - 일반한식","category":"restaurant"}]},{"lat":"36.995632935","long":"127.15477259","imageIndex":4,"items":[{"name":"넝쿨식당","tel":"031-655-9256","addr":"경기도 안성시 공도읍 승두리 598-46번지","indutype":"일반휴게음식 - 일반한식","category":"restaurant"}]},{"lat":"36.998442969","long":"127.16919151","imageIndex":4,"items":[{"name":"다복정","tel":"","addr":"경기도 안성시 공도읍 승두리 62-7번지 1층","indutype":"일반휴게음식 - 일반한식","category":"restaurant"}]},{"lat":"36.9898579","long":"127.16766762","imageIndex":4,"items":[{"name":"달팽이하우스","tel":"031-653-2965","addr":"경기도 안성시 공도읍 승두리 197-4번지","indutype":"일반휴게음식 - 일반한식","category":"restaurant"}]},{"lat":"36.998328148","long":"127.16752862","imageIndex":4,"items":[{"name":"만리장성","tel":"031-655-6477","addr":"경기도 안성시 공도읍 승두리 67-2번지","indutype":"일반휴게음식 - 중국식","category":"restaurant"}]},{"lat":"36.997467163","long":"127.15783187","imageIndex":4,"items":[{"name":"만수네냉면","tel":"031-655-8463","addr":"경기도 안성시 공도읍 승두리 593-4번지 101호~103호","indutype":"일반휴게음식 - 일반한식","category":"restaurant"}]},{"lat":"36.997576335","long":"127.17033548","imageIndex":4,"items":[{"name":"사랑방","tel":"031-653-2778","addr":"경기도 안성시 공도읍 승두리 57-3번지","indutype":"일반휴게음식 - 일반한식","category":"restaurant"}]},{"lat":"36.998162582","long":"127.16994358","imageIndex":4,"items":[{"name":"삼천원칼국수","tel":"031-654-1585","addr":"경기도 안성시 공도읍 승두리 63-12번지","indutype":"일반휴게음식 - 일반한식","category":"restaurant"}]},{"lat":"36.998163985","long":"127.16894375","imageIndex":4,"items":[{"name":"손맛국수마을","tel":"031-618-1183","addr":"경기도 안성시 공도읍 승두리 64-13번지","indutype":"일반휴게음식 - 일반한식","category":"restaurant"},{"name":"숲","tel":"","addr":"경기도 안성시 공도읍 승두리 64-13번지 1층","indutype":"일반휴게음식 - 서양음식","category":"restaurant"}]},{"lat":"36.998523135","long":"127.16985449","imageIndex":4,"items":[{"name":"아그집","tel":"031-656-9414","addr":"경기도 안성시 공도읍 승두리 62-2번지 외2필지","indutype":"일반휴게음식 - 일반한식","category":"restaurant"}]},{"lat":"36.998188711","long":"127.17058398","imageIndex":4,"items":[{"name":"예촌","tel":"031-656-6200","addr":"경기도 안성시 공도읍 승두리 59-14","indutype":"일반휴게음식 - 일반한식","category":"restaurant"}]},{"lat":"36.998081833","long":"127.16969625","imageIndex":4,"items":[{"name":"온동네꼬마김밥","tel":"031-618-6035","addr":"경기도 안성시 공도읍 승두리 63-17번지 1층","indutype":"일반휴게음식 - 일반한식","category":"restaurant"},{"name":"이스케","tel":"031-618-8208","addr":"경기도 안성시 공도읍 승두리 63-17번지","indutype":"일반휴게음식 - 스넥","category":"restaurant"}]},{"lat":"36.996553933","long":"127.16688446","imageIndex":4,"items":[{"name":"왕십리곱창","tel":"031-653-4634","addr":"경기도 안성시 공도읍 승두리 78-46번지","indutype":"일반휴게음식 - 일반한식","category":"restaurant"}]},{"lat":"36.996666305","long":"127.17029979","imageIndex":4,"items":[{"name":"이모네해장국","tel":"02-1111-1111","addr":"경기도 안성시 공도읍 승두리 81-1번지","indutype":"일반휴게음식 - 일반한식","category":"restaurant"}]},{"lat":"36.997409413","long":"127.15369766","imageIndex":4,"items":[{"name":"제이엠티(JMT)푸드","tel":"031-656-5382","addr":"경기도 안성시 공도읍 승두리 598-83번지","indutype":"일반휴게음식 - 일반한식","category":"restaurant"}]},{"lat":"36.998491766","long":"127.1729101","imageIndex":4,"items":[{"name":"채연","tel":"","addr":"경기도 안성시 공도읍 승두리 60-223번지 1층","indutype":"일반휴게음식 - 일반한식","category":"restaurant"}]},{"lat":"36.998297868","long":"127.169854","imageIndex":4,"items":[{"name":"투다리","tel":"031-654-2070","addr":"경기도 안성시 공도읍 승두리 63-8번지 1층","indutype":"일반휴게음식 - 일반한식","category":"restaurant"}]},{"lat":"36.998325326","long":"127.16955074","imageIndex":4,"items":[{"name":"페리카나","tel":"031-653-9441","addr":"경기도 안성시 공도읍 승두리 63-14번지 1층 좌측호","indutype":"일반휴게음식 - 스넥","category":"restaurant"}]},{"lat":"36.996967146","long":"127.15428095","imageIndex":4,"items":[{"name":"현무관진등점(외국인전문식당)","tel":"031-652-4466","addr":"경기도 안성시 공도읍 승두리 598-20번지 1층","indutype":"일반휴게음식 - 중국식","category":"restaurant"}]},{"lat":"36.997522825","long":"127.16994218","imageIndex":4,"items":[{"name":"홍성닭집","tel":"031-653-0660","addr":"경기도 안성시 공도읍 승두리 56-4번지","indutype":"일반휴게음식 - 일반한식","category":"restaurant"}]}]