[{"lat":"37.279928978","long":"127.09641467","imageIndex":0,"items":[{"name":"(주)에이지오토모빌","tel":"031-283-1005","addr":"경기도 용인시 기흥구 신갈동 517-6번지","indutype":"자동차판매 - 수입자동차","category":"car"}]},{"lat":"37.286934883","long":"127.10144153","imageIndex":0,"items":[{"name":"(주)타이어09","tel":"02-1111-1111","addr":"경기도 용인시 기흥구 신갈동 325-1번지 5,6호","indutype":"자동차정비 유지 - 자동차시트·타이어","category":"car"}]},{"lat":"37.275346875","long":"127.10240736","imageIndex":0,"items":[{"name":"25시카공업사","tel":"031-284-1372","addr":"경기도 용인시 기흥구 신갈동 412-68번지","indutype":"자동차정비 유지 - 자동차정비","category":"car"}]},{"lat":"37.286763246","long":"127.10197132","imageIndex":0,"items":[{"name":"거성자동차공업사","tel":"031-261-2274","addr":"경기도 용인시 기흥구 신갈동 334-23번지","indutype":"자동차정비 유지 - 자동차정비","category":"car"}]},{"lat":"37.277319533","long":"127.10310903","imageIndex":0,"items":[{"name":"건영경정비","tel":"031-284-2600","addr":"경기도 용인시 기흥구 신갈동 392-4번지","indutype":"자동차정비 유지 - 자동차정비","category":"car"},{"name":"건영세차장","tel":"031-284-2600","addr":"경기도 용인시 기흥구 신갈동 392-4번지","indutype":"자동차정비 유지 - 세차장","category":"car"},{"name":"기흥운수","tel":"02-1577-0000","addr":"경기도 용인시 기흥구 신갈동 392-4번지","indutype":"자동차정비 유지 - 견인서비스","category":"car"}]},{"lat":"37.276515621","long":"127.10544195","imageIndex":0,"items":[{"name":"공임나라 신갈점","tel":"031-890-6162","addr":"경기도 용인시 기흥구 신갈동 35-3번지 1층","indutype":"자동차정비 유지 - 자동차정비","category":"car"}]},{"lat":"37.278372628","long":"127.10440711","imageIndex":0,"items":[{"name":"그래스로드","tel":"","addr":"경기도 용인시 기흥구 신갈동 388-240번지","indutype":"자동차정비 유지 - 자동차정비","category":"car"},{"name":"카모터스","tel":"031-274-3438","addr":"경기도 용인시 기흥구 신갈동 388-240번지","indutype":"자동차정비 유지 - 자동차정비","category":"car"}]},{"lat":"37.274929433","long":"127.10587952","imageIndex":0,"items":[{"name":"금강상사","tel":"031-284-1886","addr":"경기도 용인시 기흥구 신갈동 39-20번지","indutype":"회원제형태 - 자동차서비스","category":"car"}]},{"lat":"37.283931149","long":"127.10535052","imageIndex":0,"items":[{"name":"대림셀프상미세차장","tel":"031-281-3880","addr":"경기도 용인시 기흥구 신갈동 388-126번지 SK주유소상미주유소","indutype":"자동차정비 유지 - 세차장","category":"car"},{"name":"안전특수렉카","tel":"031-284-4900","addr":"경기도 용인시 기흥구 신갈동 388-126번지","indutype":"자동차정비 유지 - 견인서비스","category":"car"},{"name":"에스에프씨(SFC)자동차외형복원","tel":"031-283-4888","addr":"경기도 용인시 기흥구 신갈동 388-126번지","indutype":"자동차정비 유지 - 자동차정비","category":"car"}]},{"lat":"37.288268721","long":"127.11137834","imageIndex":0,"items":[{"name":"두고가 홀딩(DUGOGA HOLDING)","tel":"031-286-9015","addr":"경기도 용인시 기흥구 신갈동 725번지 새천년프라자 601호","indutype":"자동차정비 유지 - 주차장","category":"car"}]},{"lat":"37.274326196","long":"127.10536005","imageIndex":0,"items":[{"name":"리버티 오토","tel":"031-283-0914","addr":"경기도 용인시 기흥구 신갈동 38-4번지 1층","indutype":"자동차정비 유지 - 자동차정비","category":"car"},{"name":"주식회사비손리버","tel":"031-284-5221","addr":"경기도 용인시 기흥구 신갈동 38-4번지 202호","indutype":"자동차정비 유지 - 자동차정비","category":"car"}]},{"lat":"37.275233943","long":"127.09727704","imageIndex":0,"items":[{"name":"메카튜닝","tel":"031-225-9739","addr":"경기도 용인시 기흥구 신갈동 486번지","indutype":"자동차정비 유지 - 자동차부품","category":"car"}]},{"lat":"37.285490418","long":"127.10477753","imageIndex":0,"items":[{"name":"명인모터스","tel":"031-8005-7742","addr":"경기도 용인시 기흥구 신갈동 388-1075번지","indutype":"자동차정비 유지 - 자동차정비","category":"car"},{"name":"명인모터스","tel":"031-8005-7742","addr":"경기도 용인시 기흥구 신갈동 388-1075번지","indutype":"자동차정비 유지 - 자동차정비","category":"car"}]},{"lat":"37.288485727","long":"127.10013541","imageIndex":0,"items":[{"name":"미르모터스","tel":"031-203-5582","addr":"경기도 용인시 기흥구 신갈동 537-25번지","indutype":"자동차정비 유지 - 자동차부품","category":"car"}]},{"lat":"37.272630621","long":"127.10724063","imageIndex":0,"items":[{"name":"바이크빌리지 (주)","tel":"031-283-4569","addr":"경기도 용인시 기흥구 신갈동 53-2번지","indutype":"자동차판매 - 이륜차판매","category":"car"}]},{"lat":"37.279407365","long":"127.10607731","imageIndex":0,"items":[{"name":"바이크인","tel":"031-282-7767","addr":"경기도 용인시 기흥구 신갈동 1번지","indutype":"자동차판매 - 이륜차판매","category":"car"}]},{"lat":"37.271686451","long":"127.10505206","imageIndex":0,"items":[{"name":"배터리할인마트","tel":"031-282-1188","addr":"경기도 용인시 기흥구 신갈동 59-4번지 동원빌딩 1층","indutype":"자동차정비 유지 - 자동차부품","category":"car"}]},{"lat":"37.27557038","long":"127.104471","imageIndex":0,"items":[{"name":"브아뛰르","tel":"031-284-3786","addr":"경기도 용인시 기흥구 신갈동 388-320번지","indutype":"자동차정비 유지 - 자동차정비","category":"car"}]},{"lat":"37.274963591","long":"127.10802183","imageIndex":0,"items":[{"name":"빅토리 카워시(VICTORY CAR WASH)","tel":"031-1111-1111","addr":"경기도 용인시 기흥구 신갈동 43-19번지 경희빌 302호","indutype":"자동차정비 유지 - 세차장","category":"car"}]},{"lat":"37.289211946","long":"127.09332493","imageIndex":0,"items":[{"name":"삼일카센타","tel":"031-281-7195","addr":"경기도 용인시 기흥구 신갈동 585-8번지","indutype":"자동차정비 유지 - 자동차정비","category":"car"}]},{"lat":"37.287821511","long":"127.10771268","imageIndex":0,"items":[{"name":"새천년 세차장","tel":"031-282-6003","addr":"경기도 용인시 기흥구 신갈동 666번지 1층","indutype":"자동차정비 유지 - 세차장","category":"car"}]},{"lat":"37.27601851","long":"127.10721148","imageIndex":0,"items":[{"name":"세븐상사","tel":"02-6340-5385","addr":"경기도 용인시 기흥구 신갈동 34-9번지","indutype":"자동차정비 유지 - 자동차정비","category":"car"}]},{"lat":"37.271684444","long":"127.10735207","imageIndex":0,"items":[{"name":"스피드메이트 신갈점","tel":"031-693-9822","addr":"경기도 용인시 기흥구 신갈동 61-10번지","indutype":"자동차정비 유지 - 자동차정비","category":"car"}]},{"lat":"37.276346711","long":"127.10276948","imageIndex":0,"items":[{"name":"신갈자동차월드","tel":"031-284-1400","addr":"경기도 용인시 기흥구 신갈동 388-208번지","indutype":"자동차정비 유지 - 자동차정비","category":"car"}]},{"lat":"37.26974345","long":"127.10125001","imageIndex":0,"items":[{"name":"영통판매","tel":"031-281-0998","addr":"경기도 용인시 기흥구 신갈동 479-1번지","indutype":"자동차정비 유지 - 자동차부품","category":"car"}]},{"lat":"37.272071855","long":"127.10738643","imageIndex":0,"items":[{"name":"오토오아시스 롯데마트 신갈점","tel":"031-282-7466","addr":"경기도 용인시 기흥구 신갈동 62 롯데마트 신갈점 지하3층","indutype":"자동차정비 유지 - 자동차정비","category":"car"}]},{"lat":"37.273909591","long":"127.10779486","imageIndex":0,"items":[{"name":"월드씨엠","tel":"031-281-2913","addr":"경기도 용인시 기흥구 신갈동 52-25번지 한일기업사 401호","indutype":"자동차정비 유지 - 세차장","category":"car"}]},{"lat":"37.276297679","long":"127.10738099","imageIndex":0,"items":[{"name":"윤섭","tel":"","addr":"경기도 용인시 기흥구 신갈동 34-12번지","indutype":"자동차정비 유지 - 세차장","category":"car"}]},{"lat":"37.276346891","long":"127.10255525","imageIndex":0,"items":[{"name":"제일오토밋션전문","tel":"031-282-1768","addr":"경기도 용인시 기흥구 신갈동 388-207번지","indutype":"자동차정비 유지 - 자동차정비","category":"car"}]},{"lat":"37.278290525","long":"127.10557966","imageIndex":0,"items":[{"name":"중고타이어","tel":"031-281-7977","addr":"경기도 용인시 기흥구 신갈동 388-247번지 131호","indutype":"자동차정비 유지 - 자동차시트·타이어","category":"car"},{"name":"토인상사","tel":"031-283-8621","addr":"경기도 용인시 기흥구 신갈동 388-247번지","indutype":"자동차정비 유지 - 자동차부품","category":"car"},{"name":"행복한자동차마을","tel":"031-281-4601","addr":"경기도 용인시 기흥구 신갈동 388-247번지","indutype":"자동차정비 유지 - 자동차정비","category":"car"}]},{"lat":"37.290794244","long":"127.09780396","imageIndex":0,"items":[{"name":"지미차퍼스(JIMI CHOPPERS)","tel":"031-284-6360","addr":"경기도 용인시 기흥구 신갈동 558-1번지","indutype":"자동차판매 - 이륜차판매","category":"car"}]},{"lat":"37.275209084","long":"127.10549655","imageIndex":0,"items":[{"name":"진모터샵","tel":"031-284-3630","addr":"경기도 용인시 기흥구 신갈동 36-10번지","indutype":"자동차판매 - 이륜차판매","category":"car"}]},{"lat":"37.273377835","long":"127.10796325","imageIndex":0,"items":[{"name":"천화카센타","tel":"031-281-4357","addr":"경기도 용인시 기흥구 신갈동 52-17번지","indutype":"자동차정비 유지 - 자동차정비","category":"car"},{"name":"천화카센타","tel":"031-281-4357","addr":"경기도 용인시 기흥구 신갈동 52-17번지","indutype":"자동차정비 유지 - 자동차정비","category":"car"}]},{"lat":"37.277568125","long":"127.10738275","imageIndex":0,"items":[{"name":"출동서비스 (밧데리)","tel":"02-1111-1111","addr":"경기도 용인시 기흥구 신갈동 28-5번지 지혜빌딩 101호","indutype":"자동차정비 유지 - 자동차부품","category":"car"}]},{"lat":"37.270491302","long":"127.10125098","imageIndex":0,"items":[{"name":"케이(K)-모터스","tel":"031-275-1119","addr":"경기도 용인시 기흥구 신갈동 454번지","indutype":"자동차정비 유지 - 자동차부품","category":"car"}]},{"lat":"37.291597571","long":"127.09602312","imageIndex":0,"items":[{"name":"텐토르 본점","tel":"031-282-1066","addr":"경기도 용인시 기흥구 신갈동 561-1번지","indutype":"자동차정비 유지 - 카인테리어","category":"car"}]},{"lat":"37.275686726","long":"127.10538445","imageIndex":0,"items":[{"name":"투플레이","tel":"031-8004-4472","addr":"경기도 용인시 기흥구 신갈동 36-6번지","indutype":"자동차정비 유지 - 자동차정비","category":"car"}]},{"lat":"37.287379137","long":"127.10869316","imageIndex":0,"items":[{"name":"하이노블메디칼","tel":"031-282-8123","addr":"경기도 용인시 기흥구 신갈동 238번지 지하1층","indutype":"자동차정비 유지 - 주차장","category":"car"}]},{"lat":"37.281075104","long":"127.10510985","imageIndex":0,"items":[{"name":"한국타이어 신갈점","tel":"070-4667-1472","addr":"경기도 용인시 기흥구 신갈동 388-148번지","indutype":"자동차정비 유지 - 자동차시트·타이어","category":"car"}]}]