[{"lat":"37.728840395","long":"126.71877275","imageIndex":17,"items":[{"name":"(주)유에스퍼시픽바이오","tel":"070-8807-6008","addr":"경기도 파주시 다율동 986번지 청석마을대원효성아파트","indutype":"용역 서비스 - 사무서비스","category":"other"}]},{"lat":"37.728347153","long":"126.7159955","imageIndex":17,"items":[{"name":"(주)유한소방","tel":"031-944-3119","addr":"경기도 파주시 다율동 992-16번지","indutype":"용역 서비스 - 기타용역서비스","category":"other"}]},{"lat":"37.73540185","long":"126.73524254","imageIndex":17,"items":[{"name":"(주)황토나라","tel":"031-909-1234","addr":"경기도 파주시 다율동 23-28","indutype":"건축자재 - 기타건축자재","category":"other"}]},{"lat":"37.738976312","long":"126.71884747","imageIndex":17,"items":[{"name":"A.L상사","tel":"031-943-9561","addr":"경기도 파주시 다율동 340-2번지","indutype":"유통업 영리 - 기타유통업","category":"other"}]},{"lat":"37.727761455","long":"126.71596373","imageIndex":17,"items":[{"name":"GS25교하다율점","tel":"080-555-2525","addr":"경기도 파주시 다율동 992-11번지","indutype":"유통업 영리 - 편 의 점","category":"other"}]},{"lat":"37.728481464","long":"126.71937532","imageIndex":17,"items":[{"name":"GS25교하본점","tel":"","addr":"경기도 파주시 다율동 986번지","indutype":"유통업 영리 - 편 의 점","category":"other"},{"name":"대원효성컴퓨터크리닝","tel":"031-943-9965","addr":"경기도 파주시 다율동 986대원효성A상가동202","indutype":"수리서비스 - 세탁소","category":"other"},{"name":"뷰티하우스","tel":"","addr":"경기도 파주시 다율동 986번지 청석마을대원효성아파트","indutype":"건축자재 - 기타건축자재","category":"other"},{"name":"주식회사 코끼리렌트카","tel":"02-3295-5152","addr":"경기도 파주시 다율동 986번지 청석마을대원효성아파트","indutype":"여행 - 렌터카","category":"other"}]},{"lat":"37.729512379","long":"126.72097083","imageIndex":17,"items":[{"name":"SB파티","tel":"","addr":"경기도 파주시 다율동 986번지 청석마을대원효성아파트","indutype":"용역 서비스 - 종합용역","category":"other"},{"name":"꽃사랑","tel":"","addr":"경기도 파주시 다율동 986번지 청석마을대원효성아파트","indutype":"문화.취미 - 화원","category":"other"},{"name":"성도산업","tel":"070-7594-5717","addr":"경기도 파주시 다율동 986번지 청석마을대원효성아파트","indutype":"회원제형태 - 기타4","category":"other"},{"name":"수빈맘돌상","tel":"0502-432-7777","addr":"경기도 파주시 다율동 986번지 청석마을대원효성아파트","indutype":"회원제형태 - 기타4","category":"other"}]},{"lat":"37.72788028","long":"126.72039851","imageIndex":17,"items":[{"name":"SH에어컨","tel":"","addr":"경기도 파주시 다율동 986번지 청석마을대원효성아파트","indutype":"용역 서비스 - 기타용역서비스","category":"other"},{"name":"수스킨앤바디","tel":"031-956-8902","addr":"경기도 파주시 다율동 986번지 청석마을대원효성아파트","indutype":"회원제형태 - 기타1","category":"other"},{"name":"윤채인테리어디자인","tel":"","addr":"경기도 파주시 다율동 986번지 청석마을대원효성아파트","indutype":"건축자재 - 인테리어전문","category":"other"}]},{"lat":"37.728868349","long":"126.71543766","imageIndex":17,"items":[{"name":"가온소방","tel":"031-942-3119","addr":"경기도 파주시 다율동 994-5번지","indutype":"기타 - 기계공구","category":"other"}]},{"lat":"37.728537621","long":"126.71651656","imageIndex":17,"items":[{"name":"건몰(Gun Mall)","tel":"031-946-1934","addr":"경기도 파주시 다율동 991-16번지","indutype":"레져용품 - 스포츠·레져용품","category":"other"}]},{"lat":"37.739339119","long":"126.71985579","imageIndex":17,"items":[{"name":"교하베스트골프존","tel":"031-941-1122","addr":"경기도 파주시 다율동 526-6","indutype":"회원제형태 - 레져업소","category":"other"}]},{"lat":"37.729206412","long":"126.71737609","imageIndex":17,"items":[{"name":"교하풀잎문화센터","tel":"031-947-5578","addr":"경기도 파주시 다율동 987-2번지 센터프라자2 107호","indutype":"문화.취미 - 문화취미기타","category":"other"},{"name":"해솔컴퍼니","tel":"031-8070-3230","addr":"경기도 파주시 다율동 987-2번지 센타프라자 501호","indutype":"사무통신 - 기타 사무용품","category":"other"}]},{"lat":"37.737205769","long":"126.71691428","imageIndex":17,"items":[{"name":"기웅종합볼트공구","tel":"031-943-5048","addr":"경기도 파주시 다율동 513-4번지","indutype":"기타 - 기계공구","category":"other"}]},{"lat":"37.736507454","long":"126.7301902","imageIndex":17,"items":[{"name":"나이키에스","tel":"031-949-8129","addr":"경기도 파주시 다율동 141-9","indutype":"레져용품 - 스포츠·레져용품","category":"other"}]},{"lat":"37.729449943","long":"126.7174886","imageIndex":17,"items":[{"name":"노브랜드파주다율점","tel":"02-380-5678","addr":"경기도 파주시 다율동 987-1번지","indutype":"신변잡화 - 기타잡화","category":"other"},{"name":"노브랜드파주다율점/은련","tel":"02-380-5678","addr":"경기도 파주시 다율동 987-1번지","indutype":"신변잡화 - 기타잡화","category":"other"}]},{"lat":"37.729501413","long":"126.72015414","imageIndex":17,"items":[{"name":"다물종합관리","tel":"031-957-1917","addr":"경기도 파주시 다율동 986","indutype":"회원제형태 - 기타4","category":"other"},{"name":"종로정보통신","tel":"02-2276-0234","addr":"경기도 파주시 다율동 986번지 청석마을대원효성아파트","indutype":"사무통신 - 통신기기","category":"other"}]},{"lat":"37.727538506","long":"126.71690608","imageIndex":17,"items":[{"name":"대림전기조명","tel":"031-8071-3971","addr":"경기도 파주시 다율동 1000-1번지","indutype":"건축자재 - 조명기구","category":"other"}]},{"lat":"37.728339083","long":"126.72011318","imageIndex":17,"items":[{"name":"마늘.삼성보호대","tel":"070-8618-3165","addr":"경기도 파주시 다율동 986","indutype":"회원제형태 - 기타4","category":"other"}]},{"lat":"37.734123268","long":"126.7164043","imageIndex":17,"items":[{"name":"멀피플라이텍","tel":"031-943-5701","addr":"경기도 파주시 다율동 481-2번지","indutype":"기타 - 기타 전문점","category":"other"}]},{"lat":"37.727178127","long":"126.71690747","imageIndex":17,"items":[{"name":"바퀴달린그림책(교하)","tel":"031-948-7173","addr":"경기도 파주시 다율동 1000-6번지","indutype":"회원제형태 - 서적","category":"other"}]},{"lat":"37.728732515","long":"126.7151546","imageIndex":17,"items":[{"name":"삼천리자전거(파주교하점)","tel":"031-8071-3033","addr":"경기도 파주시 다율동 994-8","indutype":"레져용품 - 스포츠·레져용품","category":"other"}]},{"lat":"37.727536688","long":"126.71615743","imageIndex":17,"items":[{"name":"서경포장기계","tel":"031-947-7497","addr":"경기도 파주시 다율동 998-2번지","indutype":"기타 - 기계공구","category":"other"}]},{"lat":"37.727736054","long":"126.71663308","imageIndex":17,"items":[{"name":"씨유교하다율점","tel":"031-948-6307","addr":"경기도 파주시 다율동 991-9번지","indutype":"유통업 영리 - 편 의 점","category":"other"}]},{"lat":"37.728957087","long":"126.71488148","imageIndex":17,"items":[{"name":"씨유파주다율희망점","tel":"031-945-7712","addr":"경기도 파주시 다율동 994-1번지","indutype":"유통업 영리 - 편 의 점","category":"other"}]},{"lat":"37.728595065","long":"126.72166626","imageIndex":17,"items":[{"name":"에듀프라임(어드벤처피아노)파주지사","tel":"031-946-8123","addr":"경기도 파주시 다율동 986번지 청석마을대원효성아파트","indutype":"회원제형태 - 서적","category":"other"},{"name":"지엔씨","tel":"","addr":"경기도 파주시 다율동 986번지 청석마을대원효성아파트","indutype":"서적문구 - 완구점","category":"other"}]},{"lat":"37.735729508","long":"126.73274557","imageIndex":17,"items":[{"name":"에메스전자","tel":"031-957-1628","addr":"경기도 파주시 다율동 162-4","indutype":"전기제품 - 기타전기제품","category":"other"}]},{"lat":"37.727940868","long":"126.71936604","imageIndex":17,"items":[{"name":"에프앤이(F.N.E)","tel":"031-947-9896","addr":"경기도 파주시 다율동 986번지 청석마을대원효성아파트","indutype":"전기제품 - 가전제품","category":"other"}]},{"lat":"37.742090268","long":"126.72885364","imageIndex":17,"items":[{"name":"우아 (WOO-A)","tel":"031-000-0000","addr":"경기도 파주시 다율동 299-1번지","indutype":"의류 - 정장","category":"other"}]},{"lat":"37.728591071","long":"126.7162668","imageIndex":17,"items":[{"name":"윤기획","tel":"031-943-8471","addr":"경기도 파주시 다율동 992-3","indutype":"용역 서비스 - 종합용역","category":"other"}]},{"lat":"37.728455791","long":"126.7162106","imageIndex":17,"items":[{"name":"자트인테리어","tel":"031-8070-2283","addr":"경기도 파주시 다율동 992-4번지","indutype":"건축자재 - 인테리어전문","category":"other"}]},{"lat":"37.736873422","long":"126.72871404","imageIndex":17,"items":[{"name":"종합패션","tel":"031-948-6488","addr":"경기도 파주시 다율동 133-4","indutype":"의류 - 기타의류","category":"other"}]},{"lat":"37.726617253","long":"126.71596814","imageIndex":17,"items":[{"name":"주식회사 대신투어","tel":"031-922-7955","addr":"경기도 파주시 다율동 1001-1번지","indutype":"여행 - 관광여행","category":"other"}]},{"lat":"37.732485313","long":"126.72088015","imageIndex":17,"items":[{"name":"주식회사 헬리닥터","tel":"070-7783-9831","addr":"경기도 파주시 다율동 982번지 동문굿모닝힐상가동2층201호","indutype":"서적문구 - 완구점","category":"other"}]},{"lat":"37.728311585","long":"126.71618847","imageIndex":17,"items":[{"name":"쥬얼제이","tel":"","addr":"경기도 파주시 다율동 992-5번지","indutype":"문화.취미 - 애완동물","category":"other"}]},{"lat":"37.745312852","long":"126.73546781","imageIndex":17,"items":[{"name":"지엘냉난방시스템","tel":"031-946-7785","addr":"경기도 파주시 다율동 60-33","indutype":"전기제품 - 냉열기기","category":"other"}]},{"lat":"37.727228711","long":"126.7191986","imageIndex":17,"items":[{"name":"테일러","tel":"031-311-2531","addr":"경기도 파주시 다율동 986번지 청석마을대원효성아파트","indutype":"회원제형태 - 기타1","category":"other"}]},{"lat":"37.732522029","long":"126.72116362","imageIndex":17,"items":[{"name":"파란교육","tel":"031-939-3665","addr":"경기도 파주시 다율동 982","indutype":"회원제형태 - 서적","category":"other"}]},{"lat":"37.728481218","long":"126.71555259","imageIndex":17,"items":[{"name":"플레이독","tel":"070-7614-3579","addr":"경기도 파주시 다율동 993-7번지","indutype":"문화.취미 - 애완동물","category":"other"}]},{"lat":"37.733864737","long":"126.72128331","imageIndex":17,"items":[{"name":"해피스마일","tel":"02-592-7238","addr":"경기도 파주시 다율동 982번지 청석마을동문굿모닝힐","indutype":"사무통신 - 통신기기","category":"other"}]}]