[{"lat":"37.01430014","long":"127.16383257","imageIndex":4,"items":[{"name":"(주)후니드/에스케이네트웍스안성점","tel":"02-419-9122","addr":"경기도 안성시 공도읍 용두리 406","indutype":"일반휴게음식 - 위탁급식업","category":"restaurant"}]},{"lat":"37.004217073","long":"127.15713776","imageIndex":4,"items":[{"name":"가정식당","tel":"031-655-5066","addr":"경기도 안성시 공도읍 용두리 525-1","indutype":"일반휴게음식 - 일반한식","category":"restaurant"}]},{"lat":"37.003010995","long":"127.16947109","imageIndex":4,"items":[{"name":"공도폐계닭","tel":"031-654-3337","addr":"경기도 안성시 공도읍 용두리 135-1번지 진흥연립 라동 101호","indutype":"일반휴게음식 - 일반한식","category":"restaurant"}]},{"lat":"37.007380905","long":"127.1563015","imageIndex":4,"items":[{"name":"공도한식뷔페","tel":"031-654-7377","addr":"경기도 안성시 공도읍 용두리 539-4번지 1층 전체","indutype":"일반휴게음식 - 일반한식","category":"restaurant"},{"name":"낙원","tel":"031-691-2988","addr":"경기도 안성시 공도읍 용두리 539-4","indutype":"일반휴게음식 - 일반한식","category":"restaurant"}]},{"lat":"37.007714035","long":"127.16985212","imageIndex":4,"items":[{"name":"구들장삼겹살","tel":"031-652-3353","addr":"경기도 안성시 공도읍 용두리 103-1번지 1층 좌측호","indutype":"일반휴게음식 - 일반한식","category":"restaurant"},{"name":"레몬트리","tel":"","addr":"경기도 안성시 공도읍 용두리 103-1번지 1동 1층","indutype":"일반휴게음식 - 서양음식","category":"restaurant"},{"name":"이정루","tel":"031-691-5802","addr":"경기도 안성시 공도읍 용두리 103-1번지 1층","indutype":"일반휴게음식 - 일반한식","category":"restaurant"},{"name":"쨈슬","tel":"031-691-7090","addr":"경기도 안성시 공도읍 용두리 103-1번지 2동","indutype":"일반휴게음식 - 서양음식","category":"restaurant"}]},{"lat":"37.00274088","long":"127.16932445","imageIndex":4,"items":[{"name":"구룡포과메기","tel":"","addr":"경기도 안성시 공도읍 용두리 138-5번지","indutype":"일반휴게음식 - 일반한식","category":"restaurant"}]},{"lat":"37.001137864","long":"127.16869182","imageIndex":4,"items":[{"name":"국수나무안성공도점","tel":"031-657-7755","addr":"경기도 안성시 공도읍 용두리 158-8번지 청담비전파크 1층 104호","indutype":"일반휴게음식 - 일반한식","category":"restaurant"},{"name":"셀렉토커피(안성공도점)","tel":"031-651-0743","addr":"경기도 안성시 공도읍 용두리 158-8번지 청담비전파크 107호","indutype":"일반휴게음식 - 서양음식","category":"restaurant"},{"name":"옛날장터치킨","tel":"031-618-7442","addr":"경기도 안성시 공도읍 용두리 158-8번지 청담비전파크 1층 103호","indutype":"일반휴게음식 - 스넥","category":"restaurant"},{"name":"우리동네포차","tel":"031-675-8882","addr":"경기도 안성시 공도읍 용두리 158-8번지 청담비전파크 1층 105호","indutype":"일반휴게음식 - 주점","category":"restaurant"}]},{"lat":"37.00712899","long":"127.16939019","imageIndex":4,"items":[{"name":"금빛대게","tel":"031-618-6528","addr":"경기도 안성시 공도읍 용두리 102-3번지 1층","indutype":"일반휴게음식 - 일반한식","category":"restaurant"},{"name":"소라수산","tel":"031-691-4026","addr":"경기도 안성시 공도읍 용두리 102-3번지 1층","indutype":"일반휴게음식 - 일식·회집","category":"restaurant"}]},{"lat":"36.998440096","long":"127.15800235","imageIndex":4,"items":[{"name":"녹원","tel":"031-656-4076","addr":"경기도 안성시 공도읍 용두리 710-8번지","indutype":"일반휴게음식 - 일반한식","category":"restaurant"}]},{"lat":"37.006101539","long":"127.16955648","imageIndex":4,"items":[{"name":"달레나순대국(공도점)","tel":"031-651-5628","addr":"경기도 안성시 공도읍 용두리 104-7번지 1층 1호","indutype":"일반휴게음식 - 일반한식","category":"restaurant"},{"name":"또바기","tel":"031-652-1304","addr":"경기도 안성시 공도읍 용두리 104-7번지 2층 우호","indutype":"일반휴게음식 - 주점","category":"restaurant"},{"name":"셀프수산식당","tel":"031-692-6767","addr":"경기도 안성시 공도읍 용두리 104-7번지 1층 우측호","indutype":"일반휴게음식 - 일식·회집","category":"restaurant"}]},{"lat":"36.999300852","long":"127.15433051","imageIndex":4,"items":[{"name":"닭치고 비어","tel":"031-000-0000","addr":"경기도 안성시 공도읍 용두리 682-10번지 1동 1층","indutype":"일반휴게음식 - 주점","category":"restaurant"}]},{"lat":"36.999471781","long":"127.16144213","imageIndex":4,"items":[{"name":"돼지잡는날","tel":"031-618-3643","addr":"경기도 안성시 공도읍 용두리 231-31번지","indutype":"일반휴게음식 - 일반한식","category":"restaurant"}]},{"lat":"37.00655204","long":"127.16957993","imageIndex":4,"items":[{"name":"등촌샤브칼국수","tel":"031-656-6688","addr":"경기도 안성시 공도읍 용두리 104-5번지","indutype":"일반휴게음식 - 일반한식","category":"restaurant"}]},{"lat":"37.010551559","long":"127.16393703","imageIndex":4,"items":[{"name":"뚱오리","tel":"031-691-5289","addr":"경기도 안성시 공도읍 용두리 427번지 B동","indutype":"일반휴게음식 - 일반한식","category":"restaurant"}]},{"lat":"36.999385244","long":"127.15874573","imageIndex":4,"items":[{"name":"모글리 커피","tel":"031-618-9925","addr":"경기도 안성시 공도읍 용두리 752번지","indutype":"일반휴게음식 - 서양음식","category":"restaurant"},{"name":"소문난분식","tel":"031-653-6797","addr":"경기도 안성시 공도읍 용두리 752번지 주은풍림아파트 상가동 122호","indutype":"일반휴게음식 - 스넥","category":"restaurant"}]},{"lat":"37.001664618","long":"127.15899754","imageIndex":4,"items":[{"name":"미소","tel":"031-618-5654","addr":"경기도 안성시 공도읍 용두리 518-2번지","indutype":"일반휴게음식 - 일반한식","category":"restaurant"}]},{"lat":"37.002074517","long":"127.16901966","imageIndex":4,"items":[{"name":"민)송탄부대찌개","tel":"031-653-2992","addr":"경기도 안성시 공도읍 용두리 157-3번지 1층 101호","indutype":"일반휴게음식 - 일반한식","category":"restaurant"}]},{"lat":"36.999408306","long":"127.15485874","imageIndex":4,"items":[{"name":"바다이야기","tel":"031-657-7761","addr":"경기도 안성시 공도읍 용두리 682-12번지","indutype":"일반휴게음식 - 일식·회집","category":"restaurant"},{"name":"바다이야기","tel":"031-657-7761","addr":"경기도 안성시 공도읍 용두리 682-12번지 1층","indutype":"일반휴게음식 - 일식·회집","category":"restaurant"},{"name":"신진성아구찜(용두점)","tel":"031-652-2582","addr":"경기도 안성시 공도읍 용두리 682-12번지 1층","indutype":"일반휴게음식 - 일반한식","category":"restaurant"},{"name":"태산횟집","tel":"031-657-7761","addr":"경기도 안성시 공도읍 용두리 682-12번지 1층","indutype":"일반휴게음식 - 일식·회집","category":"restaurant"}]},{"lat":"37.002524656","long":"127.16930151","imageIndex":4,"items":[{"name":"박가네마포숯불갈비","tel":"031-618-2727","addr":"경기도 안성시 공도읍 용두리 138-3번지","indutype":"일반휴게음식 - 일반한식","category":"restaurant"}]},{"lat":"36.998467093","long":"127.16477656","imageIndex":4,"items":[{"name":"반값소 공도점","tel":"031-652-4242","addr":"경기도 안성시 공도읍 용두리 275-347번지 1층","indutype":"일반휴게음식 - 일반한식","category":"restaurant"}]},{"lat":"37.001744721","long":"127.15975042","imageIndex":4,"items":[{"name":"반찬&도시락천국","tel":"031-658-7828","addr":"경기도 안성시 공도읍 용두리 238-5번지","indutype":"일반휴게음식 - 일반한식","category":"restaurant"}]},{"lat":"37.000387739","long":"127.16376954","imageIndex":4,"items":[{"name":"별난숯불돼지갈비","tel":"031-651-1008","addr":"경기도 안성시 공도읍 용두리 275-357번지","indutype":"일반휴게음식 - 일반한식","category":"restaurant"}]},{"lat":"37.000914863","long":"127.16041155","imageIndex":4,"items":[{"name":"복림문","tel":"031-618-9969","addr":"경기도 안성시 공도읍 용두리 238-8번지","indutype":"일반휴게음식 - 중국식","category":"restaurant"}]},{"lat":"37.006353837","long":"127.16955703","imageIndex":4,"items":[{"name":"본참치","tel":"031-657-1201","addr":"경기도 안성시 공도읍 용두리 104-6","indutype":"일반휴게음식 - 일식·회집","category":"restaurant"},{"name":"홍명본가해장국","tel":"031-656-3353","addr":"경기도 안성시 공도읍 용두리 104-6번지","indutype":"일반휴게음식 - 일반한식","category":"restaurant"}]},{"lat":"36.998387204","long":"127.1638889","imageIndex":4,"items":[{"name":"북촌갈비 안성점","tel":"031-000-0000","addr":"경기도 안성시 공도읍 용두리 275-157번지","indutype":"일반휴게음식 - 일반한식","category":"restaurant"}]},{"lat":"37.000689409","long":"127.16719667","imageIndex":4,"items":[{"name":"빅원치킨 안성공도점","tel":"031-691-8977","addr":"경기도 안성시 공도읍 용두리 755번지 우미린더퍼스트 1동 1층 105호","indutype":"일반휴게음식 - 스넥","category":"restaurant"}]},{"lat":"36.999552692","long":"127.15469051","imageIndex":4,"items":[{"name":"사는맛먹는맛","tel":"031-657-4845","addr":"경기도 안성시 공도읍 용두리 682-11번지 102,103호","indutype":"일반휴게음식 - 일반한식","category":"restaurant"}]},{"lat":"37.009712876","long":"127.17093512","imageIndex":4,"items":[{"name":"산마루","tel":"031-618-8533","addr":"경기도 안성시 공도읍 용두리 73-1번지 101호","indutype":"일반휴게음식 - 일반한식","category":"restaurant"}]},{"lat":"37.00391195","long":"127.1695517","imageIndex":4,"items":[{"name":"센시빌리티","tel":"","addr":"경기도 안성시 공도읍 용두리 132-4번지 102호","indutype":"일반휴게음식 - 서양음식","category":"restaurant"}]},{"lat":"37.008191362","long":"127.1700217","imageIndex":4,"items":[{"name":"시골마당","tel":"031-692-3397","addr":"경기도 안성시 공도읍 용두리 95-1","indutype":"일반휴게음식 - 일반한식","category":"restaurant"}]},{"lat":"37.006768296","long":"127.16958041","imageIndex":4,"items":[{"name":"어울림점투다리","tel":"031-618-0503","addr":"경기도 안성시 공도읍 용두리 104-2번지 1층","indutype":"일반휴게음식 - 일반한식","category":"restaurant"}]},{"lat":"36.998852118","long":"127.16655237","imageIndex":4,"items":[{"name":"에이치(H)cafe","tel":"031-651-3562","addr":"경기도 안성시 공도읍 용두리 273-1번지 나동 1층 101-2호","indutype":"일반휴게음식 - 서양음식","category":"restaurant"}]},{"lat":"37.004885227","long":"127.16946394","imageIndex":4,"items":[{"name":"연인카페","tel":"031-658-8253","addr":"경기도 안성시 공도읍 용두리 130-3번지","indutype":"일반휴게음식 - 서양음식","category":"restaurant"}]},{"lat":"37.001852567","long":"127.1599641","imageIndex":4,"items":[{"name":"영화네 양꼬치","tel":"","addr":"경기도 안성시 공도읍 용두리 240-11번지 1동 1층","indutype":"일반휴게음식 - 중국식","category":"restaurant"}]},{"lat":"37.001880104","long":"127.15958218","imageIndex":4,"items":[{"name":"용머리","tel":"031-000-0000","addr":"경기도 안성시 공도읍 용두리 238번지","indutype":"일반휴게음식 - 일반한식","category":"restaurant"}]},{"lat":"37.008522111","long":"127.16543831","imageIndex":4,"items":[{"name":"우성식당","tel":"031-656-1245","addr":"경기도 안성시 공도읍 용두리 351번지 1층","indutype":"일반휴게음식 - 일반한식","category":"restaurant"}]},{"lat":"37.00919064","long":"127.17066432","imageIndex":4,"items":[{"name":"의정부부대찌개","tel":"031-691-8288","addr":"경기도 안성시 공도읍 용두리 93-1번지","indutype":"일반휴게음식 - 일반한식","category":"restaurant"}]},{"lat":"37.000526063","long":"127.16802767","imageIndex":4,"items":[{"name":"장에가는날","tel":"031-653-1993","addr":"경기도 안성시 공도읍 용두리 755-8번지 1층 101호","indutype":"일반휴게음식 - 스넥","category":"restaurant"}]},{"lat":"37.003295813","long":"127.15879865","imageIndex":4,"items":[{"name":"천상한식뷔페","tel":"031-652-9342","addr":"경기도 안성시 공도읍 용두리 526-6번지 정수빌딩","indutype":"일반휴게음식 - 일반한식","category":"restaurant"}]},{"lat":"37.004225645","long":"127.15747483","imageIndex":4,"items":[{"name":"청양옻닭","tel":"031-652-3337","addr":"경기도 안성시 공도읍 용두리 524-2번지 유성사사원주택 가동 101호","indutype":"일반휴게음식 - 일반한식","category":"restaurant"}]},{"lat":"36.999048195","long":"127.15461087","imageIndex":4,"items":[{"name":"퇴근길 포차","tel":"013-651-1417","addr":"경기도 안성시 공도읍 용두리 682-15번지","indutype":"일반휴게음식 - 주점","category":"restaurant"},{"name":"행복한 족발&보쌈","tel":"031-651-6333","addr":"경기도 안성시 공도읍 용두리 682-15번지 1층","indutype":"일반휴게음식 - 일반한식","category":"restaurant"}]},{"lat":"37.001331149","long":"127.15905304","imageIndex":4,"items":[{"name":"트램펄린 카페 방방","tel":"","addr":"경기도 안성시 공도읍 용두리 234-8번지 2동","indutype":"일반휴게음식 - 서양음식","category":"restaurant"}]},{"lat":"37.005768145","long":"127.16955575","imageIndex":4,"items":[{"name":"화화돼지왕갈비 공도점","tel":"031-657-9279","addr":"경기도 안성시 공도읍 용두리 129-4번지 102호 102~103호","indutype":"일반휴게음식 - 일반한식","category":"restaurant"}]}]