[{"lat":"37.536759769","long":"127.21553501","imageIndex":4,"items":[{"name":"(주)두메촌 정육식당","tel":"031-796-4246","addr":"경기도 하남시 신장동 531-5번지 2층","indutype":"일반휴게음식 - 일반한식","category":"restaurant"}]},{"lat":"37.541011665","long":"127.21595442","imageIndex":4,"items":[{"name":"(주)쿠우쿠우 하남점","tel":"031-796-6274","addr":"경기도 하남시 신장동 523-1번지 현대베스코아빌딩 8층","indutype":"일반휴게음식 - 일식·회집","category":"restaurant"},{"name":"북한산 순대국","tel":"031-791-2562","addr":"경기도 하남시 신장동 523-1번지 현대베스코아빌딩 지하 111,112,113,114호","indutype":"일반휴게음식 - 일반한식","category":"restaurant"},{"name":"은토리하우스","tel":"031-794-2409","addr":"경기도 하남시 신장동 523-1번지 현대베스코아빌딩 6층 610호","indutype":"일반휴게음식 - 일반한식","category":"restaurant"},{"name":"카페 익투스","tel":"031-796-8688","addr":"경기도 하남시 신장동 523-1번지 현대베스코아빌딩 708-1호","indutype":"일반휴게음식 - 서양음식","category":"restaurant"},{"name":"코아맛집","tel":"031-796-4139","addr":"경기도 하남시 신장동 523-1번지 현대베스코아빌딩 B01호","indutype":"일반휴게음식 - 일반한식","category":"restaurant"},{"name":"쿠우쿠우","tel":"031-796-6274","addr":"경기도 하남시 신장동 523-1번지 현대베스코아빌딩 8층","indutype":"일반휴게음식 - 일반한식","category":"restaurant"},{"name":"현대스낵","tel":"031-796-1528","addr":"경기도 하남시 신장동 523-1번지 현대베스코아 지하1층","indutype":"일반휴게음식 - 스넥","category":"restaurant"}]},{"lat":"37.536845705","long":"127.20769441","imageIndex":4,"items":[{"name":"24시분식마을","tel":"031-792-6864","addr":"경기도 하남시 신장동 432-12번지","indutype":"일반휴게음식 - 스넥","category":"restaurant"}]},{"lat":"37.541259978","long":"127.22302701","imageIndex":4,"items":[{"name":"59쌀피자","tel":"031-795-5982","addr":"경기도 하남시 신장동 82-2번지 한진빌딩 101호","indutype":"일반휴게음식 - 서양음식","category":"restaurant"},{"name":"딸기하우스(부영점)","tel":"031-793-1101","addr":"경기도 하남시 신장동 82-2번지 1층","indutype":"일반휴게음식 - 스넥","category":"restaurant"},{"name":"육회by유신하남점","tel":"070-8804-9105","addr":"경기도 하남시 신장동 82-2번지 102호","indutype":"일반휴게음식 - 일반한식","category":"restaurant"}]},{"lat":"37.537681097","long":"127.20914495","imageIndex":4,"items":[{"name":"601 HOUSE (601하우스)","tel":"02-794-3001","addr":"경기도 하남시 신장동 450-3번지 1층","indutype":"일반휴게음식 - 서양음식","category":"restaurant"}]},{"lat":"37.54439992","long":"127.22059209","imageIndex":4,"items":[{"name":"60계 신장점","tel":"031-791-9995","addr":"경기도 하남시 신장동 602번지 하남유니온시티에일린의뜰 상가동 1층 106호","indutype":"일반휴게음식 - 스넥","category":"restaurant"},{"name":"미리","tel":"","addr":"경기도 하남시 신장동 602번지 하남유니온시티에일린의뜰 1층 107호","indutype":"일반휴게음식 - 일식·회집","category":"restaurant"},{"name":"이디야 하남유니온파크점","tel":"031-793-4068","addr":"경기도 하남시 신장동 602번지 에일린의뜰단지 상가 1층 118호","indutype":"일반휴게음식 - 서양음식","category":"restaurant"},{"name":"죠우","tel":"070-7836-7905","addr":"경기도 하남시 신장동 602번지 에일린의뜰 상가동 1층 102호","indutype":"일반휴게음식 - 일식·회집","category":"restaurant"},{"name":"커피:선인장","tel":"","addr":"경기도 하남시 신장동 602번지 하남유니온시티에일린의뜰 상가동 109호","indutype":"일반휴게음식 - 서양음식","category":"restaurant"}]},{"lat":"37.540510853","long":"127.21387105","imageIndex":4,"items":[{"name":"74바(BAR)","tel":"031-795-5359","addr":"경기도 하남시 신장동 519번지 오피스텔트레벨 2층 211호","indutype":"일반휴게음식 - 일반한식","category":"restaurant"},{"name":"고봉민김밥인(하남시청점)","tel":"031-791-1236","addr":"경기도 하남시 신장동 519번지 오피스텔트레벨 111호 상가","indutype":"일반휴게음식 - 스넥","category":"restaurant"},{"name":"구르메","tel":"","addr":"경기도 하남시 신장동 519번지 오피스텔트레벨 113호","indutype":"일반휴게음식 - 일반한식","category":"restaurant"},{"name":"그린파파야","tel":"031-793-9188","addr":"경기도 하남시 신장동 519번지 오피스텔트레벨 206호 상가","indutype":"일반휴게음식 - 스넥","category":"restaurant"},{"name":"김밥천국","tel":"031-793-3633","addr":"경기도 하남시 신장동 519번지 오피스텔트레벨 1층 104호","indutype":"일반휴게음식 - 일반한식","category":"restaurant"},{"name":"닭장수후라이드 하남점","tel":"031-795-0346","addr":"경기도 하남시 신장동 519번지 오피스텔트레벨 1층 112호","indutype":"일반휴게음식 - 스넥","category":"restaurant"},{"name":"모범떡볶이 하남","tel":"031-796-1976","addr":"경기도 하남시 신장동 519번지 오피스텔트레텔 114호","indutype":"일반휴게음식 - 일반한식","category":"restaurant"},{"name":"본죽 하남시청점","tel":"031-795-5363","addr":"경기도 하남시 신장동 519번지 오피스텔트레벨 1층 103호","indutype":"일반휴게음식 - 일반한식","category":"restaurant"},{"name":"설빙","tel":"031-793-0628","addr":"경기도 하남시 신장동 519번지 동양트레벨 201호","indutype":"일반휴게음식 - 일반한식","category":"restaurant"},{"name":"설빙 하남시청점","tel":"031-793-0628","addr":"경기도 하남시 신장동 519번지 오피스텔트레벨 201호","indutype":"일반휴게음식 - 일반한식","category":"restaurant"},{"name":"수유리우동집 하남시청점","tel":"","addr":"경기도 하남시 신장동 519번지 오피스텔트레벨 1층 110호","indutype":"일반휴게음식 - 일반한식","category":"restaurant"},{"name":"스시진","tel":"031-796-1950","addr":"경기도 하남시 신장동 519번지 오피스텔트레벨 1층 109호","indutype":"일반휴게음식 - 일식·회집","category":"restaurant"},{"name":"쌈쟁이","tel":"031-792-4000","addr":"경기도 하남시 신장동 519번지 오피스텔트레벨 207호","indutype":"일반휴게음식 - 일반한식","category":"restaurant"},{"name":"이디야 하남시청점","tel":"031-792-6911","addr":"경기도 하남시 신장동 519번지 오피스텔트레벨 1층 107호","indutype":"일반휴게음식 - 서양음식","category":"restaurant"},{"name":"전주이맛콩나물국밥","tel":"031-795-4286","addr":"경기도 하남시 신장동 519번지 오피스텔트레벨 114호","indutype":"일반휴게음식 - 일반한식","category":"restaurant"}]},{"lat":"37.537511468","long":"127.20825064","imageIndex":4,"items":[{"name":"82밥집","tel":"031-791-9040","addr":"경기도 하남시 신장동 430-102번지 1층","indutype":"일반휴게음식 - 일반한식","category":"restaurant"},{"name":"벼락떡볶이","tel":"031-791-0755","addr":"경기도 하남시 신장동 430-102번지","indutype":"일반휴게음식 - 일반한식","category":"restaurant"}]},{"lat":"37.540676618","long":"127.20669786","imageIndex":4,"items":[{"name":"888포차","tel":"02-484-4888","addr":"경기도 하남시 신장동 415-44번지 101호","indutype":"일반휴게음식 - 주점","category":"restaurant"},{"name":"대가촌생고기","tel":"031-575-1023","addr":"경기도 하남시 신장동 415-44번지 112,,113호","indutype":"일반휴게음식 - 일반한식","category":"restaurant"},{"name":"맛닭꼬","tel":"031-796-2292","addr":"경기도 하남시 신장동 415-44번지 1층 121호","indutype":"일반휴게음식 - 스넥","category":"restaurant"},{"name":"슬로우컵","tel":"031-0000-0000","addr":"경기도 하남시 신장동 415-44번지 신장동주차빌딩 106호","indutype":"일반휴게음식 - 서양음식","category":"restaurant"},{"name":"심스야","tel":"070-4218-3308","addr":"경기도 하남시 신장동 415-44번지 신장동주차빌딩 120호","indutype":"일반휴게음식 - 일식·회집","category":"restaurant"},{"name":"옛날전통추어탕","tel":"031-795-9277","addr":"경기도 하남시 신장동 415-44번지 신장동주차빌딩 1층 105호","indutype":"일반휴게음식 - 일반한식","category":"restaurant"},{"name":"진한 설렁탕","tel":"031-791-0939","addr":"경기도 하남시 신장동 415-44번지 주치빌딩 102호 ,103호","indutype":"일반휴게음식 - 일반한식","category":"restaurant"}]},{"lat":"37.539260394","long":"127.20766707","imageIndex":4,"items":[{"name":"99횟집","tel":"031-796-6999","addr":"경기도 하남시 신장동 427-337번지 1층","indutype":"일반휴게음식 - 일반한식","category":"restaurant"},{"name":"구구횟집","tel":"031-796-6999","addr":"경기도 하남시 신장동 427-337번지","indutype":"일반휴게음식 - 일반한식","category":"restaurant"}]},{"lat":"37.540794798","long":"127.2112581","imageIndex":4,"items":[{"name":"COFFEE LU(커피루)","tel":"031-793-7729","addr":"경기도 하남시 신장동 387-46번지","indutype":"일반휴게음식 - 서양음식","category":"restaurant"}]},{"lat":"37.540065063","long":"127.21122213","imageIndex":4,"items":[{"name":"IRA커피","tel":"","addr":"경기도 하남시 신장동 455-55번지 1층 102호","indutype":"일반휴게음식 - 서양음식","category":"restaurant"}]},{"lat":"37.538208865","long":"127.20614805","imageIndex":4,"items":[{"name":"K1975년","tel":"031-792-7358","addr":"경기도 하남시 신장동 427-462번지 1층","indutype":"일반휴게음식 - 서양음식","category":"restaurant"},{"name":"돈까스짱 (하남점)","tel":"031-796-0992","addr":"경기도 하남시 신장동 427-462번지 1층","indutype":"일반휴게음식 - 일반한식","category":"restaurant"},{"name":"싱싱오리전문점","tel":"031-792-5269","addr":"경기도 하남시 신장동 427-462번지","indutype":"일반휴게음식 - 일반한식","category":"restaurant"}]},{"lat":"37.537927355","long":"127.21256261","imageIndex":4,"items":[{"name":"Mr.K (미스터케이)","tel":"000-1800-3589","addr":"경기도 하남시 신장동 570번지","indutype":"일반휴게음식 - 일반한식","category":"restaurant"},{"name":"군산오징어(하남시청점)","tel":"031-795-3335","addr":"경기도 하남시 신장동 570번지 1층 133,134호","indutype":"일반휴게음식 - 일반한식","category":"restaurant"},{"name":"신미","tel":"031-793-8162","addr":"경기도 하남시 신장동 570번지 하남두산위브파크 1층 158호","indutype":"일반휴게음식 - 일식·회집","category":"restaurant"},{"name":"엘에스빈(LS bean)","tel":"031-793-5432","addr":"경기도 하남시 신장동 570번지 하남두산위브파크 1층 101호","indutype":"일반휴게음식 - 서양음식","category":"restaurant"},{"name":"연안식당 하남시청점","tel":"031-796-4696","addr":"경기도 하남시 신장동 570번지 1층 110-113호","indutype":"일반휴게음식 - 일반한식","category":"restaurant"},{"name":"참살이 샐러드","tel":"070-4411-3038","addr":"경기도 하남시 신장동 570번지 하남두산위브파크 1층 102호","indutype":"일반휴게음식 - 서양음식","category":"restaurant"},{"name":"티라피(TEARAPY)","tel":"031-794-0909","addr":"경기도 하남시 신장동 570번지 하남두산위브파크 1층 108호","indutype":"일반휴게음식 - 서양음식","category":"restaurant"},{"name":"해주냉면","tel":"031-794-7193","addr":"경기도 하남시 신장동 570번지 1층","indutype":"일반휴게음식 - 일반한식","category":"restaurant"},{"name":"홍짜장 하남시청점","tel":"031-796-1219","addr":"경기도 하남시 신장동 570번지 하남두산위브파크 1층 164호","indutype":"일반휴게음식 - 중국식","category":"restaurant"}]},{"lat":"37.541371286","long":"127.21133891","imageIndex":4,"items":[{"name":"가마솥민물추어탕매운탕","tel":"031-796-0129","addr":"경기도 하남시 신장동 387-21번지 1층","indutype":"일반휴게음식 - 일반한식","category":"restaurant"},{"name":"찌게이야기","tel":"","addr":"경기도 하남시 신장동 387-21번지","indutype":"일반휴게음식 - 일반한식","category":"restaurant"}]},{"lat":"37.537372395","long":"127.21555938","imageIndex":4,"items":[{"name":"가마솥밥상","tel":"031-791-4985","addr":"경기도 하남시 신장동 530-1번지 1층","indutype":"일반휴게음식 - 일반한식","category":"restaurant"}]},{"lat":"37.541072659","long":"127.20692524","imageIndex":4,"items":[{"name":"가이헤어피부샵체인본부","tel":"031-794-1589","addr":"경기도 하남시 신장동 415-10번지 명지캐럿108 206호","indutype":"일반휴게음식 - 스넥","category":"restaurant"},{"name":"고루고루 샌드위치 카페","tel":"031-796-6236","addr":"경기도 하남시 신장동 415-10번지 명지캐럿 102호","indutype":"일반휴게음식 - 서양음식","category":"restaurant"},{"name":"더카페(하남신장점)","tel":"031-795-3960","addr":"경기도 하남시 신장동 415-10번지 명지캐럿108 108호","indutype":"일반휴게음식 - 서양음식","category":"restaurant"},{"name":"미스터피자 하남점","tel":"031-792-6266","addr":"경기도 하남시 신장동 415-10번지 명지캐럿108 201호","indutype":"일반휴게음식 - 서양음식","category":"restaurant"},{"name":"야타이엔족뱅이","tel":"031-795-5524","addr":"경기도 하남시 신장동 415-10번지 명지캐럿108 111호","indutype":"일반휴게음식 - 일반한식","category":"restaurant"},{"name":"천년의 짬뽕","tel":"031-791-8105","addr":"경기도 하남시 신장동 415-10번지 명지캐럿 103호","indutype":"일반휴게음식 - 중국식","category":"restaurant"},{"name":"토스트&커피","tel":"02-1234-1234","addr":"경기도 하남시 신장동 415-10번지 명지캐럿 1층 107호","indutype":"일반휴게음식 - 일반한식","category":"restaurant"},{"name":"피자굼터","tel":"031-791-9293","addr":"경기도 하남시 신장동 415-10번지 명지캐럿 108 109호","indutype":"일반휴게음식 - 서양음식","category":"restaurant"}]},{"lat":"37.537262932","long":"127.20608891","imageIndex":4,"items":[{"name":"가장맛있는족발","tel":"031-794-5849","addr":"경기도 하남시 신장동 427-89번지 1층","indutype":"일반휴게음식 - 일반한식","category":"restaurant"}]},{"lat":"37.540794558","long":"127.21139388","imageIndex":4,"items":[{"name":"가정식당","tel":"031-792-9335","addr":"경기도 하남시 신장동 387-6번지","indutype":"일반휴게음식 - 일반한식","category":"restaurant"},{"name":"달빛한잔","tel":"031-793-0188","addr":"경기도 하남시 신장동 387-6번지","indutype":"일반휴게음식 - 주점","category":"restaurant"}]},{"lat":"37.536653444","long":"127.2094476","imageIndex":4,"items":[{"name":"갈비이야기","tel":"031-795-0033","addr":"경기도 하남시 신장동 454-75번지","indutype":"일반휴게음식 - 일반한식","category":"restaurant"}]},{"lat":"37.540876607","long":"127.22084209","imageIndex":4,"items":[{"name":"감탄 신장점","tel":"031-794-1477","addr":"경기도 하남시 신장동 105-4번지 대명상가(지우제) 102호","indutype":"일반휴게음식 - 스넥","category":"restaurant"},{"name":"커피앤톡","tel":"031-791-2531","addr":"경기도 하남시 신장동 105-4번지 대명상가(지우제) 106호","indutype":"일반휴게음식 - 서양음식","category":"restaurant"}]},{"lat":"37.537707031","long":"127.20456266","imageIndex":4,"items":[{"name":"감탄떡볶이(신장사거리점)","tel":"031-794-8388","addr":"경기도 하남시 신장동 427-14번지","indutype":"일반휴게음식 - 스넥","category":"restaurant"},{"name":"카페게이트 하남신장사거리점","tel":"","addr":"경기도 하남시 신장동 427-14번지 1층","indutype":"일반휴게음식 - 서양음식","category":"restaurant"}]},{"lat":"37.538623044","long":"127.20630757","imageIndex":4,"items":[{"name":"건강한 밥상","tel":"070-7529-8843","addr":"경기도 하남시 신장동 427-254번지 지하1층","indutype":"일반휴게음식 - 일반한식","category":"restaurant"},{"name":"사랑방","tel":"031-791-6090","addr":"경기도 하남시 신장동 427-254번지 1층 4호","indutype":"일반휴게음식 - 일반한식","category":"restaurant"}]},{"lat":"37.538351637","long":"127.20695177","imageIndex":4,"items":[{"name":"경성순대국","tel":"031-791-6621","addr":"경기도 하남시 신장동 428-24번지","indutype":"일반휴게음식 - 일반한식","category":"restaurant"},{"name":"불로군황금족발","tel":"031-793-3072","addr":"경기도 하남시 신장동 428-24번지","indutype":"일반휴게음식 - 일반한식","category":"restaurant"},{"name":"승호네식당","tel":"031-743-8247","addr":"경기도 하남시 신장동 428-24번지","indutype":"일반휴게음식 - 일반한식","category":"restaurant"},{"name":"해장국포차","tel":"031-792-3221","addr":"경기도 하남시 신장동 428-24번지 1층","indutype":"일반휴게음식 - 일반한식","category":"restaurant"}]},{"lat":"37.540565962","long":"127.21328283","imageIndex":4,"items":[{"name":"경성순대국","tel":"031-793-9582","addr":"경기도 하남시 신장동 147-24번지","indutype":"일반휴게음식 - 일반한식","category":"restaurant"},{"name":"이서등갈비","tel":"031-796-5888","addr":"경기도 하남시 신장동 147-24번지 1층","indutype":"일반휴게음식 - 일반한식","category":"restaurant"},{"name":"쭈꾸미사랑","tel":"031-791-1373","addr":"경기도 하남시 신장동 147-24번지 1층","indutype":"일반휴게음식 - 일반한식","category":"restaurant"}]},{"lat":"37.543318493","long":"127.22072473","imageIndex":4,"items":[{"name":"경성주막1929","tel":"","addr":"경기도 하남시 신장동 93-3번지 1층","indutype":"일반휴게음식 - 주점","category":"restaurant"}]},{"lat":"37.539346031","long":"127.21022443","imageIndex":4,"items":[{"name":"경성주막1929(하남시청점)","tel":"02-492-1482","addr":"경기도 하남시 신장동 408-6번지 1층","indutype":"일반휴게음식 - 일반한식","category":"restaurant"}]},{"lat":"37.537626029","long":"127.20972183","imageIndex":4,"items":[{"name":"경희호프","tel":"031-793-0340","addr":"경기도 하남시 신장동 451-16번지 1층","indutype":"일반휴게음식 - 주점","category":"restaurant"},{"name":"먹고사는이야기","tel":"031-8027-8052","addr":"경기도 하남시 신장동 451-16번지 1층","indutype":"일반휴게음식 - 서양음식","category":"restaurant"}]},{"lat":"37.539683484","long":"127.2130088","imageIndex":4,"items":[{"name":"고구려생삼겹살","tel":"031-791-0550","addr":"경기도 하남시 신장동 519-6번지 우성빌딩","indutype":"일반휴게음식 - 일반한식","category":"restaurant"}]},{"lat":"37.54007012","long":"127.21345116","imageIndex":4,"items":[{"name":"고기생각","tel":"031-792-9212","addr":"경기도 하남시 신장동 519-3번지 백천빌딩 2층","indutype":"일반휴게음식 - 일반한식","category":"restaurant"},{"name":"그린루아","tel":"070-7719-6780","addr":"경기도 하남시 신장동 519-3번지 백천빌딩 1층 4호","indutype":"일반휴게음식 - 서양음식","category":"restaurant"}]},{"lat":"37.539821836","long":"127.20602796","imageIndex":4,"items":[{"name":"고마워커피","tel":"070-8816-1040","addr":"경기도 하남시 신장동 427-29번지 1층 101호","indutype":"일반휴게음식 - 서양음식","category":"restaurant"},{"name":"블루문","tel":"031-791-3393","addr":"경기도 하남시 신장동 427-29번지 2층","indutype":"일반휴게음식 - 주점","category":"restaurant"},{"name":"하남정덮밥","tel":"031-791-5656","addr":"경기도 하남시 신장동 427-29번지","indutype":"일반휴게음식 - 스넥","category":"restaurant"}]},{"lat":"37.537017264","long":"127.20747991","imageIndex":4,"items":[{"name":"골목어귀","tel":"070-4007-5739","addr":"경기도 하남시 신장동 432-19번지 1층","indutype":"일반휴게음식 - 일반한식","category":"restaurant"},{"name":"다님길","tel":"031-793-7669","addr":"경기도 하남시 신장동 432-19번지 1층","indutype":"일반휴게음식 - 일반한식","category":"restaurant"},{"name":"어울림","tel":"","addr":"경기도 하남시 신장동 432-19번지 2층","indutype":"일반휴게음식 - 일반한식","category":"restaurant"}]},{"lat":"37.540235235","long":"127.20664009","imageIndex":4,"items":[{"name":"골뱅이마을","tel":"031-794-4067","addr":"경기도 하남시 신장동 427-204번지 1층","indutype":"일반휴게음식 - 일반한식","category":"restaurant"}]},{"lat":"37.538072918","long":"127.20661157","imageIndex":4,"items":[{"name":"곰비님비","tel":"031-792-4760","addr":"경기도 하남시 신장동 427-38번지","indutype":"일반휴게음식 - 일반한식","category":"restaurant"},{"name":"나산고기구이","tel":"031-794-8883","addr":"경기도 하남시 신장동 427-38번지 1층 107호","indutype":"일반휴게음식 - 일반한식","category":"restaurant"},{"name":"하남순대국","tel":"070-8272-3800","addr":"경기도 하남시 신장동 427-38번지 114호","indutype":"일반휴게음식 - 일반한식","category":"restaurant"}]},{"lat":"37.536654215","long":"127.20900635","imageIndex":4,"items":[{"name":"공원 참치","tel":"031-794-0880","addr":"경기도 하남시 신장동 435-2번지 1층","indutype":"일반휴게음식 - 일식·회집","category":"restaurant"},{"name":"옥산가","tel":"031-792-8460","addr":"경기도 하남시 신장동 435-2번지","indutype":"일반휴게음식 - 일반한식","category":"restaurant"},{"name":"왕대구뽈찜","tel":"031-796-3773","addr":"경기도 하남시 신장동 435-2번지 1층","indutype":"일반휴게음식 - 일반한식","category":"restaurant"},{"name":"전주향콩나물국밥","tel":"031-795-9294","addr":"경기도 하남시 신장동 435-2번지","indutype":"일반휴게음식 - 일반한식","category":"restaurant"}]},{"lat":"37.538982519","long":"127.20684034","imageIndex":4,"items":[{"name":"광주집","tel":"070-4269-5847","addr":"경기도 하남시 신장동 427-300번지 1층","indutype":"일반휴게음식 - 일반한식","category":"restaurant"},{"name":"호치면","tel":"031-796-3978","addr":"경기도 하남시 신장동 427-300번지","indutype":"일반휴게음식 - 일반한식","category":"restaurant"}]},{"lat":"37.53923634","long":"127.21111799","imageIndex":4,"items":[{"name":"교촌치킨신장1호점","tel":"031-791-9292","addr":"경기도 하남시 신장동 447-28번지 1층 102호","indutype":"일반휴게음식 - 스넥","category":"restaurant"},{"name":"삼육오","tel":"070-7663-0758","addr":"경기도 하남시 신장동 447-28번지 1층","indutype":"일반휴게음식 - 일반한식","category":"restaurant"},{"name":"옥탑방","tel":"031-111-1111","addr":"경기도 하남시 신장동 447-28번지","indutype":"일반휴게음식 - 일반한식","category":"restaurant"}]},{"lat":"37.540488265","long":"127.2113704","imageIndex":4,"items":[{"name":"굽고티고","tel":"031-791-9294","addr":"경기도 하남시 신장동 399-4번지 1층","indutype":"일반휴게음식 - 스넥","category":"restaurant"}]},{"lat":"37.539482119","long":"127.20447692","imageIndex":4,"items":[{"name":"굽네치킨 신장1호점","tel":"031-791-9492","addr":"경기도 하남시 신장동 427-134번지","indutype":"일반휴게음식 - 스넥","category":"restaurant"}]},{"lat":"37.541540991","long":"127.2121767","imageIndex":4,"items":[{"name":"궁","tel":"031-792-8525","addr":"경기도 하남시 신장동 386-5번지","indutype":"일반휴게음식 - 중국식","category":"restaurant"}]},{"lat":"37.539957125","long":"127.21111999","imageIndex":4,"items":[{"name":"귀족과 함께","tel":"","addr":"경기도 하남시 신장동 447-1번지 1층","indutype":"일반휴게음식 - 일반한식","category":"restaurant"}]},{"lat":"37.540236728","long":"127.21095105","imageIndex":4,"items":[{"name":"귀족과함께 에코타운점","tel":"","addr":"경기도 하남시 신장동 407-5번지 2층","indutype":"일반휴게음식 - 일반한식","category":"restaurant"},{"name":"치킨마루 하남신장점","tel":"031-791-9958","addr":"경기도 하남시 신장동 407-5번지 1층","indutype":"일반휴게음식 - 스넥","category":"restaurant"},{"name":"치킨포차","tel":"031-793-0955","addr":"경기도 하남시 신장동 407-5번지 1층","indutype":"일반휴게음식 - 스넥","category":"restaurant"}]},{"lat":"37.542572865","long":"127.21953447","imageIndex":4,"items":[{"name":"근고기","tel":"031-793-5889","addr":"경기도 하남시 신장동 93-7번지 1층","indutype":"일반휴게음식 - 일반한식","category":"restaurant"},{"name":"아씨보쌈","tel":"031-793-5889","addr":"경기도 하남시 신장동 93-7번지","indutype":"일반휴게음식 - 일반한식","category":"restaurant"}]},{"lat":"37.53756649","long":"127.20769638","imageIndex":4,"items":[{"name":"길목호프","tel":"070-8161-3894","addr":"경기도 하남시 신장동 432-26번지 1층","indutype":"일반휴게음식 - 주점","category":"restaurant"},{"name":"영동아구찜","tel":"031-796-2869","addr":"경기도 하남시 신장동 432-26번지 432-27,432-5","indutype":"일반휴게음식 - 일반한식","category":"restaurant"},{"name":"하남포차","tel":"070-8161-3894","addr":"경기도 하남시 신장동 432-26번지 1층 상가일부","indutype":"일반휴게음식 - 일반한식","category":"restaurant"}]},{"lat":"37.540847136","long":"127.21223133","imageIndex":4,"items":[{"name":"김가네 김치전골","tel":"031-796-6141","addr":"경기도 하남시 신장동 390-5번지 1층","indutype":"일반휴게음식 - 일반한식","category":"restaurant"},{"name":"미담칼국수","tel":"031-792-5200","addr":"경기도 하남시 신장동 390-5번지","indutype":"일반휴게음식 - 일반한식","category":"restaurant"}]},{"lat":"37.541564741","long":"127.20891803","imageIndex":4,"items":[{"name":"김가네김밥","tel":"031-792-7807","addr":"경기도 하남시 신장동 563-4번지 그랜드이엔씨빌딩","indutype":"일반휴게음식 - 스넥","category":"restaurant"},{"name":"카페(cafe)하임","tel":"031-794-0110","addr":"경기도 하남시 신장동 563-4번지 그랜드이엔씨빌딩","indutype":"일반휴게음식 - 서양음식","category":"restaurant"}]},{"lat":"37.540289665","long":"127.20642525","imageIndex":4,"items":[{"name":"까칠이 생고기&빨간막창","tel":"031-791-2478","addr":"경기도 하남시 신장동 427-20번지 2층","indutype":"일반휴게음식 - 일반한식","category":"restaurant"},{"name":"비어라인","tel":"","addr":"경기도 하남시 신장동 427-20번지 2층","indutype":"일반휴게음식 - 일반한식","category":"restaurant"},{"name":"투가리","tel":"070-7566-2810","addr":"경기도 하남시 신장동 427-20번지","indutype":"일반휴게음식 - 일반한식","category":"restaurant"}]},{"lat":"37.537458843","long":"127.20742454","imageIndex":4,"items":[{"name":"까페홀빈","tel":"031-793-8667","addr":"경기도 하남시 신장동 432-52번지","indutype":"일반휴게음식 - 서양음식","category":"restaurant"}]},{"lat":"37.543066156","long":"127.22075795","imageIndex":4,"items":[{"name":"꼬지사께","tel":"031-791-0040","addr":"경기도 하남시 신장동 90-48번지 2층","indutype":"일반휴게음식 - 주점","category":"restaurant"},{"name":"하남돼지집 하남스타필드점","tel":"031-793-9048","addr":"경기도 하남시 신장동 90-48번지 1층","indutype":"일반휴게음식 - 일반한식","category":"restaurant"}]},{"lat":"37.542066277","long":"127.22064188","imageIndex":4,"items":[{"name":"꿀꿀돼지","tel":"031-793-3533","addr":"경기도 하남시 신장동 91-14번지","indutype":"일반휴게음식 - 일반한식","category":"restaurant"}]},{"lat":"37.539735098","long":"127.20928638","imageIndex":4,"items":[{"name":"꿀꿀이 삼겹살","tel":"031-795-9253","addr":"경기도 하남시 신장동 445-3번지 1층","indutype":"일반휴게음식 - 일반한식","category":"restaurant"},{"name":"하남장터곱창","tel":"031-793-0582","addr":"경기도 하남시 신장동 445-3번지","indutype":"일반휴게음식 - 일반한식","category":"restaurant"}]},{"lat":"37.543045876","long":"127.22197994","imageIndex":4,"items":[{"name":"꿀미트","tel":"031-794-4563","addr":"경기도 하남시 신장동 73-2번지","indutype":"일반휴게음식 - 일반한식","category":"restaurant"},{"name":"노고단","tel":"031-795-0092","addr":"경기도 하남시 신장동 73-2번지 노고단","indutype":"일반휴게음식 - 일반한식","category":"restaurant"},{"name":"목포횟집","tel":"031-793-1479","addr":"경기도 하남시 신장동 73-2번지","indutype":"일반휴게음식 - 일식·회집","category":"restaurant"},{"name":"불로군불족발","tel":"031-794-4563","addr":"경기도 하남시 신장동 73-2번지","indutype":"일반휴게음식 - 일반한식","category":"restaurant"},{"name":"훈이네연탄구이","tel":"031-796-4226","addr":"경기도 하남시 신장동 73-2번지","indutype":"일반휴게음식 - 일반한식","category":"restaurant"}]},{"lat":"37.536683959","long":"127.20744505","imageIndex":4,"items":[{"name":"끼룩이네","tel":"031-791-9611","addr":"경기도 하남시 신장동 432-18번지","indutype":"일반휴게음식 - 일반한식","category":"restaurant"},{"name":"옛골 순대국","tel":"031-794-7926","addr":"경기도 하남시 신장동 432-18번지 1층","indutype":"일반휴게음식 - 일반한식","category":"restaurant"},{"name":"치킨욜로","tel":"031-794-2622","addr":"경기도 하남시 신장동 432-18번지 1층","indutype":"일반휴게음식 - 스넥","category":"restaurant"}]},{"lat":"37.547653091","long":"127.21530568","imageIndex":4,"items":[{"name":"나능이능이버섯백숙","tel":"031-793-0009","addr":"경기도 하남시 신장동 257-22번지 1층2","indutype":"일반휴게음식 - 일반한식","category":"restaurant"}]},{"lat":"37.538621599","long":"127.20714485","imageIndex":4,"items":[{"name":"나들이","tel":"031-793-8959","addr":"경기도 하남시 신장동 428-27번지 103호","indutype":"일반휴게음식 - 일반한식","category":"restaurant"},{"name":"낭만커피호프","tel":"031-794-5703","addr":"경기도 하남시 신장동 428-27번지","indutype":"일반휴게음식 - 주점","category":"restaurant"},{"name":"청사초롱","tel":"031-794-5703","addr":"경기도 하남시 신장동 428-27번지","indutype":"일반휴게음식 - 주점","category":"restaurant"}]},{"lat":"37.537623461","long":"127.20601068","imageIndex":4,"items":[{"name":"나주곰탕","tel":"031-792-4092","addr":"경기도 하남시 신장동 427-141번지","indutype":"일반휴게음식 - 일반한식","category":"restaurant"}]},{"lat":"37.539543809","long":"127.2104739","imageIndex":4,"items":[{"name":"나폴리하우스","tel":"031-792-9977","addr":"경기도 하남시 신장동 407-16번지 지하1층","indutype":"일반휴게음식 - 주점","category":"restaurant"}]},{"lat":"37.542823517","long":"127.22041778","imageIndex":4,"items":[{"name":"남경 쇠소깍","tel":"031-791-5799","addr":"경기도 하남시 신장동 93-14번지","indutype":"일반휴게음식 - 일반한식","category":"restaurant"}]},{"lat":"37.552624086","long":"127.21161922","imageIndex":4,"items":[{"name":"남다른 감자탕 하남미사점","tel":"031-795-2181","addr":"경기도 하남시 신장동 287-6번지","indutype":"일반휴게음식 - 일반한식","category":"restaurant"}]},{"lat":"37.542180948","long":"127.21203139","imageIndex":4,"items":[{"name":"남대감댁산오징어물회냉면","tel":"031-793-4322","addr":"경기도 하남시 신장동 381-23번지 1층","indutype":"일반휴게음식 - 일반한식","category":"restaurant"},{"name":"카페트윈컵","tel":"031-796-2554","addr":"경기도 하남시 신장동 381-23번지 1층 101호","indutype":"일반휴게음식 - 서양음식","category":"restaurant"}]},{"lat":"37.538093845","long":"127.21011913","imageIndex":4,"items":[{"name":"남도횟집","tel":"031-796-0985","addr":"경기도 하남시 신장동 450-29번지 1층","indutype":"일반휴게음식 - 일반한식","category":"restaurant"}]},{"lat":"37.538985241","long":"127.21044973","imageIndex":4,"items":[{"name":"남원추어탕","tel":"031-794-1719","addr":"경기도 하남시 신장동 448-3번지 1층","indutype":"일반휴게음식 - 일반한식","category":"restaurant"}]},{"lat":"37.54026264","long":"127.21158475","imageIndex":4,"items":[{"name":"남원추어탕","tel":"031-794-0355","addr":"경기도 하남시 신장동 456-1번지","indutype":"일반휴게음식 - 일반한식","category":"restaurant"},{"name":"전라도추어탕","tel":"02-1111-0000","addr":"경기도 하남시 신장동 456-1번지 1층","indutype":"일반휴게음식 - 일반한식","category":"restaurant"}]},{"lat":"37.539211593","long":"127.20461197","imageIndex":4,"items":[{"name":"낭만찾기","tel":"031-793-6118","addr":"경기도 하남시 신장동 427-266번지","indutype":"일반휴게음식 - 일반한식","category":"restaurant"}]},{"lat":"37.538148935","long":"127.20953093","imageIndex":4,"items":[{"name":"네네치킨","tel":"031-795-1120","addr":"경기도 하남시 신장동 450-21번지 1층","indutype":"일반휴게음식 - 스넥","category":"restaurant"}]},{"lat":"37.538849656","long":"127.21069827","imageIndex":4,"items":[{"name":"노가리와 사람들","tel":"031-792-5800","addr":"경기도 하남시 신장동 448-4번지 1층","indutype":"일반휴게음식 - 일반한식","category":"restaurant"},{"name":"신토불이 순대국","tel":"031-793-1357","addr":"경기도 하남시 신장동 448-4번지","indutype":"일반휴게음식 - 일반한식","category":"restaurant"}]},{"lat":"37.539593502","long":"127.20781507","imageIndex":4,"items":[{"name":"녹동수산","tel":"031-793-6787","addr":"경기도 하남시 신장동 427-419번지 1층","indutype":"일반휴게음식 - 일반한식","category":"restaurant"},{"name":"불에빠진꼼장어","tel":"031-791-8070","addr":"경기도 하남시 신장동 427-419번지","indutype":"일반휴게음식 - 일반한식","category":"restaurant"},{"name":"야미가 하남점","tel":"031-794-1544","addr":"경기도 하남시 신장동 427-419번지 1층","indutype":"일반휴게음식 - 일반한식","category":"restaurant"}]},{"lat":"37.536573028","long":"127.2090627","imageIndex":4,"items":[{"name":"놀부옛날통닭&흥부찜닭&공수간&삼겹본능","tel":"031-796-7552","addr":"경기도 하남시 신장동 436-1번지 1층","indutype":"일반휴게음식 - 일반한식","category":"restaurant"}]},{"lat":"37.539153178","long":"127.2071463","imageIndex":4,"items":[{"name":"눈꽃치킨 하남점","tel":"031-000-0000","addr":"경기도 하남시 신장동 427-68번지 1층","indutype":"일반휴게음식 - 일반한식","category":"restaurant"},{"name":"오렌지캠프","tel":"031-000-0000","addr":"경기도 하남시 신장동 427-68번지 1층","indutype":"일반휴게음식 - 주점","category":"restaurant"},{"name":"팔미막창","tel":"031-795-0321","addr":"경기도 하남시 신장동 427-68번지 1층","indutype":"일반휴게음식 - 일반한식","category":"restaurant"},{"name":"하늘사다리","tel":"031-792-1500","addr":"경기도 하남시 신장동 427-68번지","indutype":"일반휴게음식 - 일식·회집","category":"restaurant"},{"name":"하얼빈양꼬치","tel":"070-7698-7377","addr":"경기도 하남시 신장동 427-68번지 1층","indutype":"일반휴게음식 - 일반한식","category":"restaurant"}]},{"lat":"37.537209872","long":"127.21575126","imageIndex":4,"items":[{"name":"다다홈쿡","tel":"031-8027-0880","addr":"경기도 하남시 신장동 531번지 101호","indutype":"일반휴게음식 - 서양음식","category":"restaurant"}]},{"lat":"37.546819048","long":"127.21314198","imageIndex":4,"items":[{"name":"다람쥐 카페","tel":"031-794-7405","addr":"경기도 하남시 신장동 302-6번지 1층","indutype":"일반휴게음식 - 일반한식","category":"restaurant"}]},{"lat":"37.54037734","long":"127.21295417","imageIndex":4,"items":[{"name":"다래","tel":"","addr":"경기도 하남시 신장동 396-10번지 1층","indutype":"일반휴게음식 - 일반한식","category":"restaurant"},{"name":"달다래 협동조합","tel":"031-791-5511","addr":"경기도 하남시 신장동 396-10번지 1층","indutype":"일반휴게음식 - 서양음식","category":"restaurant"}]},{"lat":"37.541456801","long":"127.2088159","imageIndex":4,"items":[{"name":"다사리아","tel":"031-796-1002","addr":"경기도 하남시 신장동 563-3번지 1층","indutype":"일반휴게음식 - 주점","category":"restaurant"},{"name":"카페(cafe)화요일","tel":"","addr":"경기도 하남시 신장동 563-3번지 국보빌딩","indutype":"일반휴게음식 - 서양음식","category":"restaurant"}]},{"lat":"37.539292391","long":"127.20478191","imageIndex":4,"items":[{"name":"닥치고 곱창","tel":"031-795-0844","addr":"경기도 하남시 신장동 427-259번지 1층","indutype":"일반휴게음식 - 일반한식","category":"restaurant"}]},{"lat":"37.538594863","long":"127.20697506","imageIndex":4,"items":[{"name":"달구지","tel":"031-792-3902","addr":"경기도 하남시 신장동 428-21번지 1층","indutype":"일반휴게음식 - 일반한식","category":"restaurant"}]},{"lat":"37.543012473","long":"127.22055411","imageIndex":4,"items":[{"name":"닭별자리","tel":"031-793-1666","addr":"경기도 하남시 신장동 90-5번지","indutype":"일반휴게음식 - 일반한식","category":"restaurant"},{"name":"옛날참숯왕소금구이","tel":"031-794-7374","addr":"경기도 하남시 신장동 90-5번지 1층","indutype":"일반휴게음식 - 일반한식","category":"restaurant"}]},{"lat":"37.536819811","long":"127.20703811","imageIndex":4,"items":[{"name":"대가족발","tel":"031-796-0066","addr":"경기도 하남시 신장동 432-31번지","indutype":"일반휴게음식 - 일반한식","category":"restaurant"}]},{"lat":"37.537097724","long":"127.20784219","imageIndex":4,"items":[{"name":"대무양꼬치","tel":"031-795-9868","addr":"경기도 하남시 신장동 432-45번지 1층","indutype":"일반휴게음식 - 중국식","category":"restaurant"},{"name":"양푼이찌개마을","tel":"031-794-0678","addr":"경기도 하남시 신장동 432-45번지","indutype":"일반휴게음식 - 일반한식","category":"restaurant"},{"name":"여기가좋겠네","tel":"031-794-0804","addr":"경기도 하남시 신장동 432-45번지 1층","indutype":"일반휴게음식 - 일반한식","category":"restaurant"}]},{"lat":"37.538684237","long":"127.20739394","imageIndex":4,"items":[{"name":"대박호프","tel":"031-791-3976","addr":"경기도 하남시 신장동 427-365번지","indutype":"일반휴게음식 - 주점","category":"restaurant"},{"name":"두꺼비식당","tel":"","addr":"경기도 하남시 신장동 427-365번지 1층","indutype":"일반휴게음식 - 일반한식","category":"restaurant"}]},{"lat":"37.539265168","long":"127.20489498","imageIndex":4,"items":[{"name":"대원식당","tel":"031-794-7017","addr":"경기도 하남시 신장동 427-260번지 1층","indutype":"일반휴게음식 - 일반한식","category":"restaurant"}]},{"lat":"37.545204699","long":"127.21403138","imageIndex":4,"items":[{"name":"대풍삼계탕","tel":"031-000-0000","addr":"경기도 하남시 신장동 593번지 하남유시티대명루첸리버파크 상가동 지하1층 B18-B24호","indutype":"일반휴게음식 - 일반한식","category":"restaurant"},{"name":"커피와슬라임","tel":"031-8028-0828","addr":"경기도 하남시 신장동 593번지 B31호","indutype":"일반휴게음식 - 서양음식","category":"restaurant"}]},{"lat":"37.538823687","long":"127.20489379","imageIndex":4,"items":[{"name":"더 마시고 (THE MaSiGo)","tel":"031-794-1144","addr":"경기도 하남시 신장동 427-227번지 2층","indutype":"일반휴게음식 - 주점","category":"restaurant"}]},{"lat":"37.540709978","long":"127.21336244","imageIndex":4,"items":[{"name":"더우개생포갈비","tel":"031-791-2544","addr":"경기도 하남시 신장동 147-23번지","indutype":"일반휴게음식 - 일반한식","category":"restaurant"},{"name":"더우개숯불갈비","tel":"031-791-2544","addr":"경기도 하남시 신장동 147-23번지","indutype":"일반휴게음식 - 일반한식","category":"restaurant"},{"name":"찰스치킨","tel":"031-793-3774","addr":"경기도 하남시 신장동 147-23번지 2층","indutype":"일반휴게음식 - 스넥","category":"restaurant"}]},{"lat":"37.541154311","long":"127.21175696","imageIndex":4,"items":[{"name":"더우개식당","tel":"031-791-1890","addr":"경기도 하남시 신장동 387-44번지","indutype":"일반휴게음식 - 일반한식","category":"restaurant"},{"name":"돈바돈가스","tel":"031-764-0930","addr":"경기도 하남시 신장동 387-44번지 1층","indutype":"일반휴게음식 - 서양음식","category":"restaurant"}]},{"lat":"37.537567117","long":"127.20733432","imageIndex":4,"items":[{"name":"더착한막창","tel":"070-7544-1011","addr":"경기도 하남시 신장동 430-55번지","indutype":"일반휴게음식 - 일반한식","category":"restaurant"},{"name":"팔미소곱창","tel":"031-792-1212","addr":"경기도 하남시 신장동 430-55번지 1층","indutype":"일반휴게음식 - 일반한식","category":"restaurant"}]},{"lat":"37.537100365","long":"127.20631475","imageIndex":4,"items":[{"name":"도네누하남점","tel":"031-8028-9893","addr":"경기도 하남시 신장동 430-24번지","indutype":"일반휴게음식 - 일반한식","category":"restaurant"}]},{"lat":"37.538399742","long":"127.2103689","imageIndex":4,"items":[{"name":"돈치킨 호프 구운치킨","tel":"031-794-0319","addr":"경기도 하남시 신장동 450-33번지 1층 1호","indutype":"일반휴게음식 - 일반한식","category":"restaurant"},{"name":"혼밥돼지/주식회사락","tel":"031-000-0000","addr":"경기도 하남시 신장동 450-33번지 1층 1호","indutype":"일반휴게음식 - 일반한식","category":"restaurant"}]},{"lat":"37.547597216","long":"127.21631264","imageIndex":4,"items":[{"name":"돌담집","tel":"031-796-3829","addr":"경기도 하남시 신장동 255-5번지","indutype":"일반휴게음식 - 일반한식","category":"restaurant"}]},{"lat":"37.537816738","long":"127.20886246","imageIndex":4,"items":[{"name":"동네마차","tel":"031-793-8049","addr":"경기도 하남시 신장동 441-15번지 1층","indutype":"일반휴게음식 - 주점","category":"restaurant"}]},{"lat":"37.53834411","long":"127.20609184","imageIndex":4,"items":[{"name":"두리기","tel":"031-792-1183","addr":"경기도 하남시 신장동 427-465번지 1층","indutype":"일반휴게음식 - 일반한식","category":"restaurant"},{"name":"시정포차","tel":"031-792-1183","addr":"경기도 하남시 신장동 427-465번지 1층","indutype":"일반휴게음식 - 일반한식","category":"restaurant"},{"name":"전라도집","tel":"031-795-7328","addr":"경기도 하남시 신장동 427-465번지","indutype":"일반휴게음식 - 일반한식","category":"restaurant"},{"name":"초원갈비","tel":"031-791-1997","addr":"경기도 하남시 신장동 427-465번지","indutype":"일반휴게음식 - 일반한식","category":"restaurant"}]},{"lat":"37.53693067","long":"127.21569389","imageIndex":4,"items":[{"name":"두메촌갈비","tel":"031-796-4246","addr":"경기도 하남시 신장동 531-3","indutype":"일반휴게음식 - 일반한식","category":"restaurant"},{"name":"두메촌정육점식당","tel":"031-796-4246","addr":"경기도 하남시 신장동 531-3번지","indutype":"일반휴게음식 - 일반한식","category":"restaurant"}]},{"lat":"37.538044912","long":"127.20717722","imageIndex":4,"items":[{"name":"둥지커피호프","tel":"031-793-9619","addr":"경기도 하남시 신장동 430-45번지 지하1층","indutype":"일반휴게음식 - 서양음식","category":"restaurant"},{"name":"아지매감자탕","tel":"031-795-2011","addr":"경기도 하남시 신장동 430-45번지","indutype":"일반휴게음식 - 일반한식","category":"restaurant"},{"name":"형제식당","tel":"031-793-4045","addr":"경기도 하남시 신장동 430-45번지 1층","indutype":"일반휴게음식 - 일반한식","category":"restaurant"}]},{"lat":"37.552597497","long":"127.21137017","imageIndex":4,"items":[{"name":"디딤돌 숨두부집","tel":"031-791-0062","addr":"경기도 하남시 신장동 287-3번지 1층","indutype":"일반휴게음식 - 일반한식","category":"restaurant"}]},{"lat":"37.541957801","long":"127.21084268","imageIndex":4,"items":[{"name":"딸기하우스","tel":"031-796-3330","addr":"경기도 하남시 신장동 561-2번지 에코타운 상가동 205호","indutype":"일반휴게음식 - 스넥","category":"restaurant"}]},{"lat":"37.540127773","long":"127.21142597","imageIndex":4,"items":[{"name":"떡갈냉면","tel":"031-792-6452","addr":"경기도 하남시 신장동 455-53번지","indutype":"일반휴게음식 - 일반한식","category":"restaurant"}]},{"lat":"37.540178177","long":"127.2083711","imageIndex":4,"items":[{"name":"또가볼까","tel":"031-793-2273","addr":"경기도 하남시 신장동 411-15번지 1층","indutype":"일반휴게음식 - 주점","category":"restaurant"}]},{"lat":"37.53629041","long":"127.2109514","imageIndex":4,"items":[{"name":"또래오래신장점","tel":"031-795-2999","addr":"경기도 하남시 신장동 472-11번지","indutype":"일반휴게음식 - 스넥","category":"restaurant"}]},{"lat":"37.539849429","long":"127.20569991","imageIndex":4,"items":[{"name":"또봉이통닭","tel":"","addr":"경기도 하남시 신장동 427-61번지","indutype":"일반휴게음식 - 스넥","category":"restaurant"},{"name":"맵짱떡볶이","tel":"031-792-1254","addr":"경기도 하남시 신장동 427-61번지 1층","indutype":"일반휴게음식 - 일반한식","category":"restaurant"}]},{"lat":"37.538573168","long":"127.20909083","imageIndex":4,"items":[{"name":"라라푸드","tel":"031-795-1023","addr":"경기도 하남시 신장동 442-2번지 1층","indutype":"일반휴게음식 - 일반한식","category":"restaurant"}]},{"lat":"37.538847439","long":"127.21195419","imageIndex":4,"items":[{"name":"라이브벤치","tel":"031-796-8253","addr":"경기도 하남시 신장동 455-1번지","indutype":"일반휴게음식 - 서양음식","category":"restaurant"}]},{"lat":"37.540434383","long":"127.21631485","imageIndex":4,"items":[{"name":"레드켓","tel":"031-792-8528","addr":"경기도 하남시 신장동 524-6번지 건호빌딩 지하1층","indutype":"일반휴게음식 - 서양음식","category":"restaurant"}]},{"lat":"37.537514583","long":"127.20645165","imageIndex":4,"items":[{"name":"레코드 피자","tel":"031-792-2239","addr":"경기도 하남시 신장동 430-7번지 성원상떼빌 1층 101호","indutype":"일반휴게음식 - 주점","category":"restaurant"},{"name":"참치앤연어","tel":"031-793-8807","addr":"경기도 하남시 신장동 430-7번지 성원상떼빌 상가 1층 117호","indutype":"일반휴게음식 - 일반한식","category":"restaurant"}]},{"lat":"37.540346853","long":"127.21488893","imageIndex":4,"items":[{"name":"롯데리아 하남신장","tel":"031-794-2023","addr":"경기도 하남시 신장동 524번지 하남리빙텔 102호","indutype":"일반휴게음식 - 서양음식","category":"restaurant"},{"name":"르 파르크 커피 (LE PARC COFFEE)","tel":"031-792-7760","addr":"경기도 하남시 신장동 524번지 하남리빙텔 302.303호","indutype":"일반휴게음식 - 서양음식","category":"restaurant"},{"name":"청담김밥","tel":"031-791-1989","addr":"경기도 하남시 신장동 524번지 하남리빙텔 1층 102호","indutype":"일반휴게음식 - 스넥","category":"restaurant"},{"name":"포차어게인 하남시청점","tel":"031-791-9962","addr":"경기도 하남시 신장동 524번지 하남리빙텔 10층 1001호","indutype":"일반휴게음식 - 스넥","category":"restaurant"}]},{"lat":"37.540623132","long":"127.21152918","imageIndex":4,"items":[{"name":"마구로야","tel":"031-792-3302","addr":"경기도 하남시 신장동 387-1번지","indutype":"일반휴게음식 - 일식·회집","category":"restaurant"},{"name":"에코김밥분식","tel":"031-791-7667","addr":"경기도 하남시 신장동 387-1번지 대성빌딩 102호","indutype":"일반휴게음식 - 스넥","category":"restaurant"},{"name":"해돋이","tel":"031-792-3292","addr":"경기도 하남시 신장동 387-1번지","indutype":"일반휴게음식 - 일반한식","category":"restaurant"}]},{"lat":"37.537071558","long":"127.20734428","imageIndex":4,"items":[{"name":"마당쇠호프","tel":"031-795-8336","addr":"경기도 하남시 신장동 432-8번지","indutype":"일반휴게음식 - 주점","category":"restaurant"},{"name":"위풍닭닭","tel":"031-795-0129","addr":"경기도 하남시 신장동 432-8번지","indutype":"일반휴게음식 - 스넥","category":"restaurant"},{"name":"푸지미","tel":"031-795-1133","addr":"경기도 하남시 신장동 432-8번지 2층 201호","indutype":"일반휴게음식 - 주점","category":"restaurant"}]},{"lat":"37.539567061","long":"127.20747556","imageIndex":4,"items":[{"name":"마마(마음과마음으로)","tel":"","addr":"경기도 하남시 신장동 427-374번지 1층","indutype":"일반휴게음식 - 일반한식","category":"restaurant"}]},{"lat":"37.539065592","long":"127.21086859","imageIndex":4,"items":[{"name":"마마등갈비","tel":"070-4100-9292","addr":"경기도 하남시 신장동 448-2번지 1층","indutype":"일반휴게음식 - 일반한식","category":"restaurant"},{"name":"명사순대 하남점","tel":"031-794-9477","addr":"경기도 하남시 신장동 448-2번지 1층","indutype":"일반휴게음식 - 일반한식","category":"restaurant"},{"name":"바다 양푼이동태탕,찜","tel":"031-794-9477","addr":"경기도 하남시 신장동 448-2번지 1층","indutype":"일반휴게음식 - 일반한식","category":"restaurant"}]},{"lat":"37.537983912","long":"127.20597772","imageIndex":4,"items":[{"name":"마을회관호프광장","tel":"031-796-1149","addr":"경기도 하남시 신장동 427-372번지 하이렉스오피스텔 105호,106호,107호","indutype":"일반휴게음식 - 주점","category":"restaurant"},{"name":"장수푸드","tel":"031-796-1747","addr":"경기도 하남시 신장동 427-372번지 하이렉스오피스텔 1층 102호","indutype":"일반휴게음식 - 일반한식","category":"restaurant"}]},{"lat":"37.540290308","long":"127.21122275","imageIndex":4,"items":[{"name":"마호가니","tel":"031-791-5438","addr":"경기도 하남시 신장동 399-1번지 1층","indutype":"일반휴게음식 - 일반한식","category":"restaurant"},{"name":"마호가니","tel":"031-791-2478","addr":"경기도 하남시 신장동 399-1번지","indutype":"일반휴게음식 - 주점","category":"restaurant"},{"name":"영구스피자 하남점","tel":"031-792-0912","addr":"경기도 하남시 신장동 399-1번지 1층","indutype":"일반휴게음식 - 서양음식","category":"restaurant"}]},{"lat":"37.54915587","long":"127.21633972","imageIndex":4,"items":[{"name":"만두집","tel":"031-793-9317","addr":"경기도 하남시 신장동 275-1번지","indutype":"일반휴게음식 - 중국식","category":"restaurant"}]},{"lat":"37.536678843","long":"127.21544426","imageIndex":4,"items":[{"name":"만리장성","tel":"031-793-2482","addr":"경기도 하남시 신장동 531-6번지","indutype":"일반휴게음식 - 중국식","category":"restaurant"},{"name":"용브라더 키친","tel":"031-793-2296","addr":"경기도 하남시 신장동 531-6번지 1층","indutype":"일반휴게음식 - 일반한식","category":"restaurant"},{"name":"피자에땅(천현점)","tel":"031-793-5335","addr":"경기도 하남시 신장동 531-6번지 1층","indutype":"일반휴게음식 - 서양음식","category":"restaurant"}]},{"lat":"37.538211735","long":"127.2044735","imageIndex":4,"items":[{"name":"만화 카페 툰 하남","tel":"031-792-7221","addr":"경기도 하남시 신장동 427-78번지 6층","indutype":"일반휴게음식 - 서양음식","category":"restaurant"}]},{"lat":"37.537706799","long":"127.20469843","imageIndex":4,"items":[{"name":"맘스터치","tel":"031-819-1004","addr":"경기도 하남시 신장동 427-73번지","indutype":"일반휴게음식 - 일반한식","category":"restaurant"}]},{"lat":"37.537512137","long":"127.20786595","imageIndex":4,"items":[{"name":"맛나","tel":"031-793-6116","addr":"경기도 하남시 신장동 430-98번지","indutype":"일반휴게음식 - 일반한식","category":"restaurant"},{"name":"이모포차","tel":"","addr":"경기도 하남시 신장동 430-98번지","indutype":"일반휴게음식 - 주점","category":"restaurant"}]},{"lat":"37.538626158","long":"127.20970197","imageIndex":4,"items":[{"name":"맛나분식","tel":"031-792-9688","addr":"경기도 하남시 신장동 446-12번지","indutype":"일반휴게음식 - 일반한식","category":"restaurant"},{"name":"장충할매왕족발","tel":"031-796-8382","addr":"경기도 하남시 신장동 446-12번지","indutype":"일반휴게음식 - 일반한식","category":"restaurant"}]},{"lat":"37.536157169","long":"127.21494496","imageIndex":4,"items":[{"name":"맛장어먹는날","tel":"031-796-0235","addr":"경기도 하남시 신장동 531-12번지","indutype":"일반휴게음식 - 일반한식","category":"restaurant"},{"name":"오가네동태탕","tel":"031-796-0235","addr":"경기도 하남시 신장동 531-12번지 동남빌딩","indutype":"일반휴게음식 - 일반한식","category":"restaurant"}]},{"lat":"37.5409054","long":"127.21492446","imageIndex":4,"items":[{"name":"맥도날드하남시청점","tel":"070-7209-0514","addr":"경기도 하남시 신장동 522-5번지","indutype":"일반휴게음식 - 서양음식","category":"restaurant"}]},{"lat":"37.538127504","long":"127.20630623","imageIndex":4,"items":[{"name":"메밀만두짱","tel":"031-793-8404","addr":"경기도 하남시 신장동 427-452번지 1층","indutype":"일반휴게음식 - 스넥","category":"restaurant"}]},{"lat":"37.540343353","long":"127.20664038","imageIndex":4,"items":[{"name":"멕코이치킨","tel":"031-793-8646","addr":"경기도 하남시 신장동 427-202번지","indutype":"일반휴게음식 - 일반한식","category":"restaurant"},{"name":"목포아구찜","tel":"031-794-1341","addr":"경기도 하남시 신장동 427-202번지","indutype":"일반휴게음식 - 일반한식","category":"restaurant"},{"name":"천하왕족발","tel":"031-794-3133","addr":"경기도 하남시 신장동 427-202번지","indutype":"일반휴게음식 - 일반한식","category":"restaurant"}]},{"lat":"37.545960766","long":"127.22428556","imageIndex":4,"items":[{"name":"멜린다's키친(하남)","tel":"","addr":"경기도 하남시 신장동 616번지 B2층","indutype":"일반휴게음식 - 서양음식","category":"restaurant"}]},{"lat":"37.540384535","long":"127.20886952","imageIndex":4,"items":[{"name":"멸치국수","tel":"031-793-9077","addr":"경기도 하남시 신장동 406-2번지 나동 1층","indutype":"일반휴게음식 - 일반한식","category":"restaurant"}]},{"lat":"37.543181443","long":"127.22175403","imageIndex":4,"items":[{"name":"명륜진사갈비 하남스타필드점","tel":"031-795-0521","addr":"경기도 하남시 신장동 73-3번지 SM빌딩 1층","indutype":"일반휴게음식 - 일반한식","category":"restaurant"}]},{"lat":"37.540155335","long":"127.20594966","imageIndex":4,"items":[{"name":"명품스마일찹쌀꽈배기","tel":"031-791-2751","addr":"경기도 하남시 신장동 427-246번지 1층","indutype":"일반휴게음식 - 일반한식","category":"restaurant"},{"name":"본스치킨","tel":"031-794-4005","addr":"경기도 하남시 신장동 427-246번지","indutype":"일반휴게음식 - 주점","category":"restaurant"},{"name":"츄로하임 하남신장점 (churrohaim)","tel":"031-794-6511","addr":"경기도 하남시 신장동 427-246번지 1층","indutype":"일반휴게음식 - 서양음식","category":"restaurant"}]},{"lat":"37.538265567","long":"127.20981412","imageIndex":4,"items":[{"name":"명품임실치즈피자 치코파닭","tel":"031-792-7882","addr":"경기도 하남시 신장동 450-19번지 1층","indutype":"일반휴게음식 - 서양음식","category":"restaurant"},{"name":"명품임실치즈피자치코파닭","tel":"031-792-7882","addr":"경기도 하남시 신장동 450-19번지","indutype":"일반휴게음식 - 서양음식","category":"restaurant"}]},{"lat":"37.540260649","long":"127.22261673","imageIndex":4,"items":[{"name":"모퉁이","tel":"070-8153-3355","addr":"경기도 하남시 신장동 81-13번지 1층","indutype":"일반휴게음식 - 서양음식","category":"restaurant"}]},{"lat":"37.538342861","long":"127.20681597","imageIndex":4,"items":[{"name":"목화다방","tel":"031-792-5989","addr":"경기도 하남시 신장동 427-370번지","indutype":"일반휴게음식 - 일반한식","category":"restaurant"}]},{"lat":"37.538567246","long":"127.20731442","imageIndex":4,"items":[{"name":"문쉐프의 고기국수","tel":"031-795-3069","addr":"경기도 하남시 신장동 428-28번지 103호","indutype":"일반휴게음식 - 일반한식","category":"restaurant"}]},{"lat":"37.537295901","long":"127.20786536","imageIndex":4,"items":[{"name":"미니식당","tel":"031-791-2641","addr":"경기도 하남시 신장동 432-24번지","indutype":"일반휴게음식 - 일반한식","category":"restaurant"}]},{"lat":"37.537931907","long":"127.20998291","imageIndex":4,"items":[{"name":"미담사골칼국수","tel":"031-796-3725","addr":"경기도 하남시 신장동 450-25번지","indutype":"일반휴게음식 - 일반한식","category":"restaurant"}]},{"lat":"37.546514584","long":"127.21208876","imageIndex":4,"items":[{"name":"미사장어명가","tel":"031-793-8520","addr":"경기도 하남시 신장동 330번지","indutype":"일반휴게음식 - 일반한식","category":"restaurant"}]},{"lat":"37.538071412","long":"127.20748279","imageIndex":4,"items":[{"name":"미소향맛고기","tel":"031-794-8867","addr":"경기도 하남시 신장동 428-47번지 1층","indutype":"일반휴게음식 - 일반한식","category":"restaurant"}]},{"lat":"37.53839846","long":"127.20592227","imageIndex":4,"items":[{"name":"미스시","tel":"031-796-1691","addr":"경기도 하남시 신장동 427-464번지","indutype":"일반휴게음식 - 일식·회집","category":"restaurant"}]},{"lat":"37.537180497","long":"127.20686938","imageIndex":4,"items":[{"name":"민물나라추어탕","tel":"031-796-3842","addr":"경기도 하남시 신장동 430-42번지","indutype":"일반휴게음식 - 일반한식","category":"restaurant"}]},{"lat":"37.539372569","long":"127.20531392","imageIndex":4,"items":[{"name":"민혜네묵은지삼겹살","tel":"031-795-5631","addr":"경기도 하남시 신장동 427-279번지","indutype":"일반휴게음식 - 일반한식","category":"restaurant"},{"name":"청송갈비한마당","tel":"031-791-8153","addr":"경기도 하남시 신장동 427-279번지","indutype":"일반휴게음식 - 일반한식","category":"restaurant"}]},{"lat":"37.539985091","long":"127.21058828","imageIndex":4,"items":[{"name":"밀땅호프","tel":"031-000-0000","addr":"경기도 하남시 신장동 407-12번지 2층","indutype":"일반휴게음식 - 주점","category":"restaurant"},{"name":"신참떡볶이","tel":"070-8658-1423","addr":"경기도 하남시 신장동 407-12번지","indutype":"일반휴게음식 - 스넥","category":"restaurant"},{"name":"프랭크서울 하남시청점","tel":"031-795-2355","addr":"경기도 하남시 신장동 407-12번지 1층 2호","indutype":"일반휴게음식 - 스넥","category":"restaurant"}]},{"lat":"37.538732154","long":"127.20573083","imageIndex":4,"items":[{"name":"바코드","tel":"031-792-5882","addr":"경기도 하남시 신장동 427-381번지 1층","indutype":"일반휴게음식 - 주점","category":"restaurant"},{"name":"은비네만두","tel":"031-794-1710","addr":"경기도 하남시 신장동 427-381번지 1층","indutype":"일반휴게음식 - 스넥","category":"restaurant"}]},{"lat":"37.537710647","long":"127.20769678","imageIndex":4,"items":[{"name":"박대박조개찜 신장점","tel":"031-792-2079","addr":"경기도 하남시 신장동 430-99번지 1층","indutype":"일반휴게음식 - 일반한식","category":"restaurant"}]},{"lat":"37.541016613","long":"127.21319358","imageIndex":4,"items":[{"name":"반찬STUDIO-반스카페","tel":"031-793-2403","addr":"경기도 하남시 신장동 393번지 1층","indutype":"일반휴게음식 - 서양음식","category":"restaurant"}]},{"lat":"37.537401595","long":"127.20925732","imageIndex":4,"items":[{"name":"밥도둑","tel":"031-793-4348","addr":"경기도 하남시 신장동 437-6번지 1층","indutype":"일반휴게음식 - 일반한식","category":"restaurant"},{"name":"수정식당","tel":"031-795-7888","addr":"경기도 하남시 신장동 437-6번지","indutype":"일반휴게음식 - 일반한식","category":"restaurant"}]},{"lat":"37.53939855","long":"127.20592498","imageIndex":4,"items":[{"name":"배달밥집","tel":"031-792-9224","addr":"경기도 하남시 신장동 427-124번지 1층","indutype":"일반휴게음식 - 일반한식","category":"restaurant"},{"name":"태양","tel":"031-792-6530","addr":"경기도 하남시 신장동 427-124번지 1층","indutype":"일반휴게음식 - 스넥","category":"restaurant"}]},{"lat":"37.53735096","long":"127.20728847","imageIndex":4,"items":[{"name":"배부리 동태탕","tel":"031-795-1512","addr":"경기도 하남시 신장동 432-51번지 새서울빌딩 1층","indutype":"일반휴게음식 - 일반한식","category":"restaurant"},{"name":"쪽갈비에미치닭","tel":"031-795-9570","addr":"경기도 하남시 신장동 432-51번지 새서울빌딩 1층 102호","indutype":"일반휴게음식 - 일반한식","category":"restaurant"}]},{"lat":"37.537125871","long":"127.20719734","imageIndex":4,"items":[{"name":"백년교동","tel":"031-794-8294","addr":"경기도 하남시 신장동 432-7번지 1층","indutype":"일반휴게음식 - 중국식","category":"restaurant"},{"name":"하남돼지집","tel":"031-794-9290","addr":"경기도 하남시 신장동 432-7번지 1층","indutype":"일반휴게음식 - 일반한식","category":"restaurant"},{"name":"하남돼지집 신장직영점/(주)하남에프앤비","tel":"031-794-9290","addr":"경기도 하남시 신장동 432-7번지","indutype":"일반휴게음식 - 일반한식","category":"restaurant"}]},{"lat":"37.539873062","long":"127.20766875","imageIndex":4,"items":[{"name":"백초묵은지삼겹살","tel":"031-794-0206","addr":"경기도 하남시 신장동 427-423번지","indutype":"일반휴게음식 - 일반한식","category":"restaurant"}]},{"lat":"37.541404241","long":"127.22297086","imageIndex":4,"items":[{"name":"베네치아","tel":"070-9868-4764","addr":"경기도 하남시 신장동 82-11번지","indutype":"일반휴게음식 - 서양음식","category":"restaurant"}]},{"lat":"37.539431771","long":"127.21770371","imageIndex":4,"items":[{"name":"보스골뱅이치킨","tel":"031-792-8155","addr":"경기도 하남시 신장동 528-5번지","indutype":"일반휴게음식 - 주점","category":"restaurant"},{"name":"속초장터본닭강정","tel":"031-793-9238","addr":"경기도 하남시 신장동 528-5번지 백송한신상가1층 103호","indutype":"일반휴게음식 - 스넥","category":"restaurant"},{"name":"지코바","tel":"031-794-9238","addr":"경기도 하남시 신장동 528-5번지 1층 5.6호","indutype":"일반휴게음식 - 스넥","category":"restaurant"},{"name":"치킨처럼","tel":"031-794-9238","addr":"경기도 하남시 신장동 528-5번지 1층 5,6호","indutype":"일반휴게음식 - 스넥","category":"restaurant"}]},{"lat":"37.537232636","long":"127.20797833","imageIndex":4,"items":[{"name":"복돼지솥뚜껑생삼겹살","tel":"031-795-4489","addr":"경기도 하남시 신장동 432-1번지","indutype":"일반휴게음식 - 일반한식","category":"restaurant"},{"name":"행복가포차","tel":"000-000-0000","addr":"경기도 하남시 신장동 432-1번지 1층","indutype":"일반휴게음식 - 주점","category":"restaurant"}]},{"lat":"37.536982574","long":"127.20669912","imageIndex":4,"items":[{"name":"부어치킨 신장동점","tel":"031-794-3960","addr":"경기도 하남시 신장동 430-2번지 1층","indutype":"일반휴게음식 - 일반한식","category":"restaurant"},{"name":"포천호명골닭발","tel":"031-795-7333","addr":"경기도 하남시 신장동 430-2번지 1층","indutype":"일반휴게음식 - 일반한식","category":"restaurant"},{"name":"황씨본가마늘보쌈본점","tel":"031-792-5385","addr":"경기도 하남시 신장동 430-2번지 1층","indutype":"일반휴게음식 - 일반한식","category":"restaurant"}]},{"lat":"37.539846023","long":"127.21280559","imageIndex":4,"items":[{"name":"부엉 브루잉","tel":"02-1111-1111","addr":"경기도 하남시 신장동 519-7번지 에스앤에벤에셀 101호,102호","indutype":"일반휴게음식 - 주점","category":"restaurant"}]},{"lat":"37.538343584","long":"127.20639733","imageIndex":4,"items":[{"name":"부자네","tel":"031-796-0129","addr":"경기도 하남시 신장동 427-18번지 1층","indutype":"일반휴게음식 - 주점","category":"restaurant"},{"name":"천호곱창","tel":"031-795-5540","addr":"경기도 하남시 신장동 427-18번지 1층","indutype":"일반휴게음식 - 일반한식","category":"restaurant"},{"name":"한앤둘치킨","tel":"031-795-5777","addr":"경기도 하남시 신장동 427-18번지 1층","indutype":"일반휴게음식 - 스넥","category":"restaurant"},{"name":"한앤둘치킨점(신장점)","tel":"031-795-5777","addr":"경기도 하남시 신장동 427-18번지","indutype":"일반휴게음식 - 스넥","category":"restaurant"}]},{"lat":"37.53837215","long":"127.20550356","imageIndex":4,"items":[{"name":"불난집","tel":"","addr":"경기도 하남시 신장동 427-176번지 2층","indutype":"일반휴게음식 - 일반한식","category":"restaurant"}]},{"lat":"37.538878056","long":"127.20991764","imageIndex":4,"items":[{"name":"불닭발불삼겹","tel":"031-792-4892","addr":"경기도 하남시 신장동 446-10번지","indutype":"일반휴게음식 - 일반한식","category":"restaurant"}]},{"lat":"37.537900422","long":"127.20736918","imageIndex":4,"items":[{"name":"불스떡볶이 하남신장덕풍점","tel":"031-796-5138","addr":"경기도 하남시 신장동 430-49번지 1층","indutype":"일반휴게음식 - 일반한식","category":"restaurant"}]},{"lat":"37.53817847","long":"127.20809407","imageIndex":4,"items":[{"name":"불타는호프","tel":"031-793-2788","addr":"경기도 하남시 신장동 430-71번지 1층","indutype":"일반휴게음식 - 주점","category":"restaurant"}]},{"lat":"37.541294881","long":"127.20866836","imageIndex":4,"items":[{"name":"브라운커피","tel":"070-7604-9400","addr":"경기도 하남시 신장동 563-1번지 1층","indutype":"일반휴게음식 - 서양음식","category":"restaurant"}]},{"lat":"37.538849767","long":"127.20544828","imageIndex":4,"items":[{"name":"블랙존호프","tel":"031-795-9939","addr":"경기도 하남시 신장동 427-394번지 태산빌딩 6층","indutype":"일반휴게음식 - 주점","category":"restaurant"},{"name":"육쌈냉면하남점","tel":"031-793-6392","addr":"경기도 하남시 신장동 427-394번지 1층","indutype":"일반휴게음식 - 일반한식","category":"restaurant"}]},{"lat":"37.540100903","long":"127.21133538","imageIndex":4,"items":[{"name":"비늄 (VINUM)776","tel":"031-794-1132","addr":"경기도 하남시 신장동 455-54번지 ,1,2층","indutype":"일반휴게음식 - 서양음식","category":"restaurant"}]},{"lat":"37.542095553","long":"127.21941994","imageIndex":4,"items":[{"name":"비비큐(BBQ)하남점","tel":"031-794-4234","addr":"경기도 하남시 신장동 96-3번지 1층","indutype":"일반휴게음식 - 스넥","category":"restaurant"}]},{"lat":"37.537815959","long":"127.20408774","imageIndex":4,"items":[{"name":"빌라델비아","tel":"031-791-1811","addr":"경기도 하남시 신장동 512-17번지 1층","indutype":"일반휴게음식 - 서양음식","category":"restaurant"}]},{"lat":"37.540403914","long":"127.20808885","imageIndex":4,"items":[{"name":"빙수카페","tel":"031-000-0000","addr":"경기도 하남시 신장동 411-1번지 1층","indutype":"일반휴게음식 - 서양음식","category":"restaurant"}]},{"lat":"37.540485458","long":"127.21295448","imageIndex":4,"items":[{"name":"빨간지붕","tel":"031-791-7189","addr":"경기도 하남시 신장동 396-9번지 지하층","indutype":"일반휴게음식 - 주점","category":"restaurant"}]},{"lat":"37.541009854","long":"127.21192628","imageIndex":4,"items":[{"name":"빵먹는 코끼리","tel":"031-1111-1111","addr":"경기도 하남시 신장동 387-15번지","indutype":"일반휴게음식 - 서양음식","category":"restaurant"}]},{"lat":"37.537986007","long":"127.20475576","imageIndex":4,"items":[{"name":"빽다방 (하남신장시장점)","tel":"031-796-7968","addr":"경기도 하남시 신장동 427-169번지 1층","indutype":"일반휴게음식 - 서양음식","category":"restaurant"}]},{"lat":"37.537233264","long":"127.20761627","imageIndex":4,"items":[{"name":"삐삐다방호프","tel":"031-795-5778","addr":"경기도 하남시 신장동 432-3번지 지하1층","indutype":"일반휴게음식 - 주점","category":"restaurant"},{"name":"장수곱창","tel":"031-795-3236","addr":"경기도 하남시 신장동 432-3번지","indutype":"일반휴게음식 - 일반한식","category":"restaurant"},{"name":"채플린","tel":"031-111-1111","addr":"경기도 하남시 신장동 432-3번지 1층","indutype":"일반휴게음식 - 주점","category":"restaurant"},{"name":"행복한밥상","tel":"031-794-3002","addr":"경기도 하남시 신장동 432-3번지 외3필지","indutype":"일반휴게음식 - 일반한식","category":"restaurant"}]},{"lat":"37.53912134","long":"127.20470224","imageIndex":4,"items":[{"name":"사미푸드서비스","tel":"031-4134-4103","addr":"경기도 하남시 신장동 427-267번지 2층","indutype":"일반휴게음식 - 중국식","category":"restaurant"},{"name":"춘천골닭갈비","tel":"031-792-9183","addr":"경기도 하남시 신장동 427-267번지","indutype":"일반휴게음식 - 일반한식","category":"restaurant"}]},{"lat":"37.539315061","long":"127.20731646","imageIndex":4,"items":[{"name":"산 꼼장어","tel":"031-796-3677","addr":"경기도 하남시 신장동 427-376번지","indutype":"일반휴게음식 - 일반한식","category":"restaurant"},{"name":"하남임가네부대찌개","tel":"031-796-8892","addr":"경기도 하남시 신장동 427-376번지","indutype":"일반휴게음식 - 일반한식","category":"restaurant"}]},{"lat":"37.543290934","long":"127.21102743","imageIndex":4,"items":[{"name":"산메촌","tel":"031-793-2249","addr":"경기도 하남시 신장동 589-1번지 유니온빌딩 2층 203호","indutype":"일반휴게음식 - 일반한식","category":"restaurant"},{"name":"소담촌 하남신장점","tel":"","addr":"경기도 하남시 신장동 589-1번지 유니온 403호","indutype":"일반휴게음식 - 일반한식","category":"restaurant"},{"name":"클루니","tel":"02-1234-1234","addr":"경기도 하남시 신장동 589-1번지 유니온 1층 106호","indutype":"일반휴게음식 - 서양음식","category":"restaurant"}]},{"lat":"37.540232491","long":"127.20822416","imageIndex":4,"items":[{"name":"삼거리식당","tel":"031-796-2375","addr":"경기도 하남시 신장동 411-13번지","indutype":"일반휴게음식 - 일반한식","category":"restaurant"},{"name":"춘천명동닭갈비","tel":"031-793-9113","addr":"경기도 하남시 신장동 411-13번지 1층","indutype":"일반휴게음식 - 일반한식","category":"restaurant"}]},{"lat":"37.539017796","long":"127.20728171","imageIndex":4,"items":[{"name":"삼순네 꽁냥꽁냥","tel":"","addr":"경기도 하남시 신장동 427-428번지 1층","indutype":"일반휴게음식 - 일반한식","category":"restaurant"}]},{"lat":"37.540316069","long":"127.2067874","imageIndex":4,"items":[{"name":"상남자 포차","tel":"031-796-0129","addr":"경기도 하남시 신장동 427-203번지 1층","indutype":"일반휴게음식 - 일반한식","category":"restaurant"}]},{"lat":"37.538704182","long":"127.21144463","imageIndex":4,"items":[{"name":"새마을식당","tel":"031-794-1486","addr":"경기도 하남시 신장동 448-21번지","indutype":"일반휴게음식 - 일반한식","category":"restaurant"}]},{"lat":"37.53689884","long":"127.20822633","imageIndex":4,"items":[{"name":"새벽집","tel":"031-793-8015","addr":"경기도 하남시 신장동 432-41번지","indutype":"일반휴게음식 - 일반한식","category":"restaurant"},{"name":"소문난왕닭발","tel":"070-8118-3830","addr":"경기도 하남시 신장동 432-41번지 1층","indutype":"일반휴게음식 - 일반한식","category":"restaurant"}]},{"lat":"37.536709004","long":"127.20858787","imageIndex":4,"items":[{"name":"새하남식당","tel":"031-796-1855","addr":"경기도 하남시 신장동 438-7번지","indutype":"일반휴게음식 - 일반한식","category":"restaurant"}]},{"lat":"37.54070466","long":"127.21128048","imageIndex":4,"items":[{"name":"새함지박민속주점","tel":"031-795-2510","addr":"경기도 하남시 신장동 387-5번지 2층","indutype":"일반휴게음식 - 주점","category":"restaurant"},{"name":"치킨팡","tel":"031-795-9607","addr":"경기도 하남시 신장동 387-5번지 1층","indutype":"일반휴게음식 - 스넥","category":"restaurant"}]},{"lat":"37.537294642","long":"127.20858948","imageIndex":4,"items":[{"name":"석바다","tel":"031-792-8162","addr":"경기도 하남시 신장동 440-10번지 1층","indutype":"일반휴게음식 - 일반한식","category":"restaurant"}]},{"lat":"37.539461813","long":"127.205812","imageIndex":4,"items":[{"name":"선수입장","tel":"02-1111-1111","addr":"경기도 하남시 신장동 427-125번지 2층","indutype":"일반휴게음식 - 일반한식","category":"restaurant"},{"name":"주작","tel":"031-795-8207","addr":"경기도 하남시 신장동 427-125번지","indutype":"일반휴게음식 - 주점","category":"restaurant"}]},{"lat":"37.536544977","long":"127.21473108","imageIndex":4,"items":[{"name":"설린촌","tel":"031-796-7277","addr":"경기도 하남시 신장동 532-4번지","indutype":"일반휴게음식 - 일반한식","category":"restaurant"}]},{"lat":"37.537155728","long":"127.20555684","imageIndex":4,"items":[{"name":"섬마을","tel":"031-795-3264","addr":"경기도 하남시 신장동 430-12(1층)","indutype":"일반휴게음식 - 일반한식","category":"restaurant"},{"name":"토속 칼국수","tel":"031-333-4122","addr":"경기도 하남시 신장동 430-12번지 1층","indutype":"일반휴게음식 - 일반한식","category":"restaurant"},{"name":"향촌민속주점","tel":"031-793-3051","addr":"경기도 하남시 신장동 430-18번지 1층","indutype":"일반휴게음식 - 주점","category":"restaurant"},{"name":"호남집","tel":"","addr":"경기도 하남시 신장동 430-12번지 1층","indutype":"일반휴게음식 - 일반한식","category":"restaurant"}]},{"lat":"37.54740547","long":"127.21270231","imageIndex":4,"items":[{"name":"세가마팽오리농장","tel":"031-792-2525","addr":"경기도 하남시 신장동 300-3번지","indutype":"일반휴게음식 - 일반한식","category":"restaurant"}]},{"lat":"37.542814862","long":"127.2202254","imageIndex":4,"items":[{"name":"셀라황커피","tel":"031-792-7086","addr":"경기도 하남시 신장동 93-24번지","indutype":"일반휴게음식 - 서양음식","category":"restaurant"}]},{"lat":"37.538455269","long":"127.20953178","imageIndex":4,"items":[{"name":"소담가정식백반","tel":"031-795-8963","addr":"경기도 하남시 신장동 446-18번지 1층","indutype":"일반휴게음식 - 일반한식","category":"restaurant"}]},{"lat":"37.539904315","long":"127.21547605","imageIndex":4,"items":[{"name":"소담골","tel":"031-794-0638","addr":"경기도 하남시 신장동 525번지 국제주차빌딩 2층 206호","indutype":"일반휴게음식 - 일반한식","category":"restaurant"},{"name":"제이컵","tel":"031-791-8380","addr":"경기도 하남시 신장동 525번지 국제주차빌딩 203호","indutype":"일반휴게음식 - 일반한식","category":"restaurant"}]},{"lat":"37.538514438","long":"127.20659014","imageIndex":4,"items":[{"name":"소문난손칼국수집","tel":"031-791-8065","addr":"경기도 하남시 신장동 427-30번지","indutype":"일반휴게음식 - 일반한식","category":"restaurant"}]},{"lat":"37.539653534","long":"127.20955771","imageIndex":4,"items":[{"name":"소박사네숯불구이","tel":"031-794-7800","addr":"경기도 하남시 신장동 444-52번지","indutype":"일반휴게음식 - 일반한식","category":"restaurant"}]},{"lat":"37.541234076","long":"127.21250398","imageIndex":4,"items":[{"name":"소박사정육식당","tel":"031-796-1818","addr":"경기도 하남시 신장동 385-8번지 ,1,2층","indutype":"일반휴게음식 - 일반한식","category":"restaurant"}]},{"lat":"37.537598874","long":"127.204585","imageIndex":4,"items":[{"name":"수다감자탕","tel":"031-793-4226","addr":"경기도 하남시 신장동 427-85번지 1층","indutype":"일반휴게음식 - 일반한식","category":"restaurant"}]},{"lat":"37.541042796","long":"127.21366888","imageIndex":4,"items":[{"name":"수산시장","tel":"031-796-3392","addr":"경기도 하남시 신장동 148-1번지 1층","indutype":"일반휴게음식 - 일반한식","category":"restaurant"},{"name":"으뜸갈비","tel":"031-795-0549","addr":"경기도 하남시 신장동 148-1번지","indutype":"일반휴게음식 - 일반한식","category":"restaurant"},{"name":"진진해장국","tel":"031-793-5151","addr":"경기도 하남시 신장동 148-1번지 4호","indutype":"일반휴게음식 - 일반한식","category":"restaurant"}]},{"lat":"37.538901196","long":"127.20697589","imageIndex":4,"items":[{"name":"수정다방","tel":"031-791-1486","addr":"경기도 하남시 신장동 427-299번지 지하","indutype":"일반휴게음식 - 서양음식","category":"restaurant"},{"name":"왕바리냉바리","tel":"031-796-0155","addr":"경기도 하남시 신장동 427-299번지","indutype":"일반휴게음식 - 일반한식","category":"restaurant"}]},{"lat":"37.541875535","long":"127.21151004","imageIndex":4,"items":[{"name":"수정이네","tel":"031-794-8433","addr":"경기도 하남시 신장동 381-29번지 1층","indutype":"일반휴게음식 - 일반한식","category":"restaurant"},{"name":"스테이 히어","tel":"031-796-9140","addr":"경기도 하남시 신장동 381-29번지","indutype":"일반휴게음식 - 서양음식","category":"restaurant"},{"name":"피엠(PM)","tel":"031-796-8008","addr":"경기도 하남시 신장동 381-29번지","indutype":"일반휴게음식 - 일반한식","category":"restaurant"}]},{"lat":"37.537073141","long":"127.20642782","imageIndex":4,"items":[{"name":"수제비가 맛있는 바로 그 집","tel":"031-792-0153","addr":"경기도 하남시 신장동 430-36번지","indutype":"일반휴게음식 - 일반한식","category":"restaurant"}]},{"lat":"37.53876556","long":"127.20725839","imageIndex":4,"items":[{"name":"술꾼","tel":"031-791-4683","addr":"경기도 하남시 신장동 427-361번지","indutype":"일반휴게음식 - 주점","category":"restaurant"}]},{"lat":"37.538821749","long":"127.21119604","imageIndex":4,"items":[{"name":"술독","tel":"031-791-1022","addr":"경기도 하남시 신장동 448-28번지 에코아트빌 201호","indutype":"일반휴게음식 - 주점","category":"restaurant"}]},{"lat":"37.539510444","long":"127.21902776","imageIndex":4,"items":[{"name":"숯불꼬치구이 오뎅하루","tel":"031-795-5417","addr":"경기도 하남시 신장동 528번지 백조현대 105호 117동상가","indutype":"일반휴게음식 - 주점","category":"restaurant"},{"name":"전주집","tel":"032-792-3829","addr":"경기도 하남시 신장동 528번지 116동 1층 111,112호","indutype":"일반휴게음식 - 일반한식","category":"restaurant"}]},{"lat":"37.539156528","long":"127.20520018","imageIndex":4,"items":[{"name":"쉴드북만화카페","tel":"031-793-0768","addr":"경기도 하남시 신장동 427-288번지 3층","indutype":"일반휴게음식 - 일반한식","category":"restaurant"},{"name":"신의주찹쌀순대하남점","tel":"031-791-7409","addr":"경기도 하남시 신장동 427-288번지 1층","indutype":"일반휴게음식 - 일반한식","category":"restaurant"},{"name":"전설의 맥주","tel":"031-557-4646","addr":"경기도 하남시 신장동 427-288번지 2층","indutype":"일반휴게음식 - 주점","category":"restaurant"},{"name":"하남떡볶이홀릭","tel":"031-795-0125","addr":"경기도 하남시 신장동 427-288번지 1층","indutype":"일반휴게음식 - 스넥","category":"restaurant"}]},{"lat":"37.538733008","long":"127.20523298","imageIndex":4,"items":[{"name":"시로이 돈까스","tel":"031-794-7477","addr":"경기도 하남시 신장동 427-54번지","indutype":"일반휴게음식 - 일반한식","category":"restaurant"}]},{"lat":"37.539400973","long":"127.20451065","imageIndex":4,"items":[{"name":"신가네집","tel":"031-796-0441","addr":"경기도 하남시 신장동 427-237번지 1층","indutype":"일반휴게음식 - 일반한식","category":"restaurant"},{"name":"참 등갈비 촌","tel":"031-796-0441","addr":"경기도 하남시 신장동 427-237번지","indutype":"일반휴게음식 - 일반한식","category":"restaurant"}]},{"lat":"37.536874164","long":"127.20686854","imageIndex":4,"items":[{"name":"신마포갈매기","tel":"031-793-6092","addr":"경기도 하남시 신장동 432-44번지","indutype":"일반휴게음식 - 일반한식","category":"restaurant"},{"name":"육공판 하남점","tel":"","addr":"경기도 하남시 신장동 432-44번지 1층","indutype":"일반휴게음식 - 일반한식","category":"restaurant"}]},{"lat":"37.538678348","long":"127.20558359","imageIndex":4,"items":[{"name":"신사포차","tel":"02-1111-1111","addr":"경기도 하남시 신장동 427-139번지 1층","indutype":"일반휴게음식 - 주점","category":"restaurant"}]},{"lat":"37.540847877","long":"127.21181268","imageIndex":4,"items":[{"name":"신안아구찜","tel":"031-794-0190","addr":"경기도 하남시 신장동 387-19번지","indutype":"일반휴게음식 - 일반한식","category":"restaurant"}]},{"lat":"37.547623796","long":"127.21656167","imageIndex":4,"items":[{"name":"신우카페","tel":"","addr":"경기도 하남시 신장동 255-13번지 1층","indutype":"일반휴게음식 - 서양음식","category":"restaurant"}]},{"lat":"37.541960448","long":"127.21939691","imageIndex":4,"items":[{"name":"신이 내린 오뎅","tel":"031-791-5808","addr":"경기도 하남시 신장동 96-15번지 103호","indutype":"일반휴게음식 - 스넥","category":"restaurant"}]},{"lat":"37.539265884","long":"127.20447634","imageIndex":4,"items":[{"name":"신장닭발","tel":"031-795-3321","addr":"경기도 하남시 신장동 427-239번지 1층","indutype":"일반휴게음식 - 일반한식","category":"restaurant"},{"name":"투다리","tel":"","addr":"경기도 하남시 신장동 427-239번지","indutype":"일반휴게음식 - 일반한식","category":"restaurant"},{"name":"투다리 신장점","tel":"031-791-9289","addr":"경기도 하남시 신장동 427-239번지 1층","indutype":"일반휴게음식 - 일반한식","category":"restaurant"}]},{"lat":"37.538789838","long":"127.20884251","imageIndex":4,"items":[{"name":"신장페리카나","tel":"031-794-3330","addr":"경기도 하남시 신장동 443-21번지","indutype":"일반휴게음식 - 일반한식","category":"restaurant"},{"name":"신평푸드","tel":"031-792-4600","addr":"경기도 하남시 신장동 443-21번지 102호","indutype":"일반휴게음식 - 일반한식","category":"restaurant"},{"name":"어게인","tel":"031-791-5652","addr":"경기도 하남시 신장동 443-21번지 1층","indutype":"일반휴게음식 - 주점","category":"restaurant"}]},{"lat":"37.538901698","long":"127.2118412","imageIndex":4,"items":[{"name":"쌍다리포차","tel":"031-111-1111","addr":"경기도 하남시 신장동 448-10번지","indutype":"일반휴게음식 - 일반한식","category":"restaurant"}]},{"lat":"37.549064974","long":"127.21678079","imageIndex":4,"items":[{"name":"쏭아","tel":"031-792-1503","addr":"경기도 하남시 신장동 251-3번지 외2필지","indutype":"일반휴게음식 - 서양음식","category":"restaurant"}]},{"lat":"37.542010303","long":"127.21172541","imageIndex":4,"items":[{"name":"아구족 아구찜족발","tel":"031-792-7209","addr":"경기도 하남시 신장동 381-53번지 1층","indutype":"일반휴게음식 - 일반한식","category":"restaurant"}]},{"lat":"37.540263912","long":"127.21591835","imageIndex":4,"items":[{"name":"아리수숯불갈비","tel":"031-792-8900","addr":"경기도 하남시 신장동 524-9번지 형림빌딩 1층","indutype":"일반휴게음식 - 일반한식","category":"restaurant"}]},{"lat":"37.541181558","long":"127.20647294","imageIndex":4,"items":[{"name":"아저씨","tel":"031-795-9239","addr":"경기도 하남시 신장동 415-2번지 1층 4호","indutype":"일반휴게음식 - 스넥","category":"restaurant"},{"name":"천년의짬뽕","tel":"031-791-8105","addr":"경기도 하남시 신장동 415-2 외1필지(510-9)","indutype":"일반휴게음식 - 중국식","category":"restaurant"}]},{"lat":"37.537629166","long":"127.20792284","imageIndex":4,"items":[{"name":"안면도해물요리","tel":"031-795-8139","addr":"경기도 하남시 신장동 430-97번지","indutype":"일반휴게음식 - 일반한식","category":"restaurant"}]},{"lat":"37.540346616","long":"127.20994433","imageIndex":4,"items":[{"name":"알볼로 피자","tel":"031-793-8495","addr":"경기도 하남시 신장동 565-3번지","indutype":"일반휴게음식 - 서양음식","category":"restaurant"}]},{"lat":"37.537926824","long":"127.20773131","imageIndex":4,"items":[{"name":"야시켜","tel":"031-794-3304","addr":"경기도 하남시 신장동 430-75번지 1층","indutype":"일반휴게음식 - 일반한식","category":"restaurant"}]},{"lat":"37.53929086","long":"127.20567576","imageIndex":4,"items":[{"name":"약속커피호프","tel":"031-794-7736","addr":"경기도 하남시 신장동 427-97번지 2층","indutype":"일반휴게음식 - 주점","category":"restaurant"},{"name":"황실짜장","tel":"031-793-0560","addr":"경기도 하남시 신장동 427-97번지","indutype":"일반휴게음식 - 중국식","category":"restaurant"}]},{"lat":"37.541010554","long":"127.21153026","imageIndex":4,"items":[{"name":"양꼬치 장인의 점포","tel":"031-792-1211","addr":"경기도 하남시 신장동 387-12번지 1층","indutype":"일반휴게음식 - 중국식","category":"restaurant"}]},{"lat":"37.540817651","long":"127.21361167","imageIndex":4,"items":[{"name":"양대창구이 신장점","tel":"031-792-3231","addr":"경기도 하남시 신장동 147-19번지 1층","indutype":"일반휴게음식 - 일반한식","category":"restaurant"},{"name":"친구","tel":"031-796-3853","addr":"경기도 하남시 신장동 147-19번지","indutype":"일반휴게음식 - 주점","category":"restaurant"},{"name":"풍천민물장어","tel":"031-796-4250","addr":"경기도 하남시 신장동 147-19번지 1층 외1필지","indutype":"일반휴게음식 - 일반한식","category":"restaurant"}]},{"lat":"37.538622454","long":"127.21180647","imageIndex":4,"items":[{"name":"어부막창스쿨","tel":"031-821-8807","addr":"경기도 하남시 신장동 455-27번지 1층","indutype":"일반휴게음식 - 일반한식","category":"restaurant"},{"name":"회나라안주마을","tel":"031-793-8549","addr":"경기도 하남시 신장동 455-27번지 1층","indutype":"일반휴게음식 - 주점","category":"restaurant"}]},{"lat":"37.539458649","long":"127.20764498","imageIndex":4,"items":[{"name":"에스휴(S휴)","tel":"031-791-1715","addr":"경기도 하남시 신장동 427-335번지 지하1층","indutype":"일반휴게음식 - 일반한식","category":"restaurant"},{"name":"외국식당","tel":"031-793-0302","addr":"경기도 하남시 신장동 427-335번지 1층","indutype":"일반휴게음식 - 서양음식","category":"restaurant"},{"name":"장수추어탕","tel":"031-794-6372","addr":"경기도 하남시 신장동 427-335번지","indutype":"일반휴게음식 - 일반한식","category":"restaurant"}]},{"lat":"37.53829319","long":"127.20425874","imageIndex":4,"items":[{"name":"엔제리너스커피(하남신장사거리점)","tel":"031-795-7956","addr":"경기도 하남시 신장동 512-1번지 외5필지하남빌딩 2층 2호","indutype":"일반휴게음식 - 서양음식","category":"restaurant"}]},{"lat":"37.539598144","long":"127.20512217","imageIndex":4,"items":[{"name":"여주왕탕집","tel":"031-794-6646","addr":"경기도 하남시 신장동 427-274번지","indutype":"일반휴게음식 - 일반한식","category":"restaurant"}]},{"lat":"37.538290634","long":"127.20575226","imageIndex":4,"items":[{"name":"열매자리","tel":"031-1600-5801","addr":"경기도 하남시 신장동 427-281번지 1층","indutype":"일반휴게음식 - 서양음식","category":"restaurant"}]},{"lat":"37.552425591","long":"127.2117771","imageIndex":4,"items":[{"name":"열애","tel":"031-795-8407","addr":"경기도 하남시 신장동 287-1번지","indutype":"일반휴게음식 - 서양음식","category":"restaurant"}]},{"lat":"37.537544526","long":"127.20475457","imageIndex":4,"items":[{"name":"예가족발","tel":"031-791-7776","addr":"경기도 하남시 신장동 427-83번지 1층","indutype":"일반휴게음식 - 일반한식","category":"restaurant"}]},{"lat":"37.539488551","long":"127.2059818","imageIndex":4,"items":[{"name":"옛날그집","tel":"031-795-0222","addr":"경기도 하남시 신장동 427-119번지","indutype":"일반휴게음식 - 일반한식","category":"restaurant"}]},{"lat":"37.538318653","long":"127.20517529","imageIndex":4,"items":[{"name":"옛날손만두","tel":"070-4896-0746","addr":"경기도 하남시 신장동 427-157번지 1층","indutype":"일반휴게음식 - 스넥","category":"restaurant"}]},{"lat":"37.537233656","long":"127.20738998","imageIndex":4,"items":[{"name":"옛날집","tel":"031-793-1286","addr":"경기도 하남시 신장동 432-23번지 1층","indutype":"일반휴게음식 - 일반한식","category":"restaurant"}]},{"lat":"37.535959197","long":"127.21480862","imageIndex":4,"items":[{"name":"옛마당대구뽈찜","tel":"","addr":"경기도 하남시 신장동 533-7번지 1층","indutype":"일반휴게음식 - 일반한식","category":"restaurant"}]},{"lat":"37.548207832","long":"127.21744599","imageIndex":4,"items":[{"name":"오대감네","tel":"031-792-5009","addr":"경기도 하남시 신장동 254-1번지","indutype":"일반휴게음식 - 일반한식","category":"restaurant"}]},{"lat":"37.536319041","long":"127.21511513","imageIndex":4,"items":[{"name":"오대양참치","tel":"031-792-6175","addr":"경기도 하남시 신장동 531-10번지 1층","indutype":"일반휴게음식 - 일식·회집","category":"restaurant"}]},{"lat":"37.540984004","long":"127.21125863","imageIndex":4,"items":[{"name":"오도리와삼순이","tel":"031-791-5392","addr":"경기도 하남시 신장동 387-3번지 2층","indutype":"일반휴게음식 - 일반한식","category":"restaurant"}]},{"lat":"37.541850146","long":"127.22058468","imageIndex":4,"items":[{"name":"오마이치킨","tel":"031-795-5577","addr":"경기도 하남시 신장동 99-12번지","indutype":"일반휴게음식 - 주점","category":"restaurant"},{"name":"와카이참치","tel":"031-699-8114","addr":"경기도 하남시 신장동 99-12번지 2층","indutype":"일반휴게음식 - 일식·회집","category":"restaurant"}]},{"lat":"37.537596781","long":"127.20580695","imageIndex":4,"items":[{"name":"오복커피숍","tel":"031-796-5607","addr":"경기도 하남시 신장동 427-51번지","indutype":"일반휴게음식 - 서양음식","category":"restaurant"}]},{"lat":"37.538985574","long":"127.20506395","imageIndex":4,"items":[{"name":"오사카부루스","tel":"","addr":"경기도 하남시 신장동 427-415번지 2층","indutype":"일반휴게음식 - 일반한식","category":"restaurant"}]},{"lat":"37.538262142","long":"127.21176021","imageIndex":4,"items":[{"name":"와돈삼겹살","tel":"031-792-9063","addr":"경기도 하남시 신장동 454-31번지 102호","indutype":"일반휴게음식 - 일반한식","category":"restaurant"},{"name":"이모네","tel":"031-792-3233","addr":"경기도 하남시 신장동 454-31번지 1층 102호","indutype":"일반휴게음식 - 일반한식","category":"restaurant"}]},{"lat":"37.538598593","long":"127.21000739","imageIndex":4,"items":[{"name":"완도수산","tel":"02-1111-1111","addr":"경기도 하남시 신장동 450-11번지 1층","indutype":"일반휴게음식 - 주점","category":"restaurant"}]},{"lat":"37.536427016","long":"127.21519463","imageIndex":4,"items":[{"name":"왕가네 해장국","tel":"031-791-1286","addr":"경기도 하남시 신장동 531-9번지 1층","indutype":"일반휴게음식 - 일반한식","category":"restaurant"}]},{"lat":"37.539346643","long":"127.20466891","imageIndex":4,"items":[{"name":"왕돌돼지가","tel":"031-795-7772","addr":"경기도 하남시 신장동 427-63번지","indutype":"일반휴게음식 - 일반한식","category":"restaurant"}]},{"lat":"37.539705467","long":"127.20558637","imageIndex":4,"items":[{"name":"왕솥뚜껑흑돼지","tel":"031-791-6525","addr":"경기도 하남시 신장동 427-287번지","indutype":"일반휴게음식 - 일반한식","category":"restaurant"}]},{"lat":"37.536791194","long":"127.20795449","imageIndex":4,"items":[{"name":"왕십리곱창마을","tel":"031-794-7846","addr":"경기도 하남시 신장동 432-20번지","indutype":"일반휴게음식 - 일반한식","category":"restaurant"},{"name":"임진강장어낭만포차","tel":"031-795-9937","addr":"경기도 하남시 신장동 432-20번지","indutype":"일반휴게음식 - 일반한식","category":"restaurant"},{"name":"전주감자탕","tel":"031-795-8992","addr":"경기도 하남시 신장동 432-20번지","indutype":"일반휴게음식 - 일반한식","category":"restaurant"}]},{"lat":"37.537455021","long":"127.20961953","imageIndex":4,"items":[{"name":"요기소먹으면돼지","tel":"031-764-5401","addr":"경기도 하남시 신장동 451-18번지 1층","indutype":"일반휴게음식 - 일반한식","category":"restaurant"},{"name":"황씨본가 마늘보쌈 본점","tel":"031-792-5385","addr":"경기도 하남시 신장동 451-18번지","indutype":"일반휴게음식 - 일반한식","category":"restaurant"}]},{"lat":"37.542073171","long":"127.21183873","imageIndex":4,"items":[{"name":"용갈집/주식회사 비에프앤비","tel":"031-791-5052","addr":"경기도 하남시 신장동 381-57번지 아트빌딩 1층","indutype":"일반휴게음식 - 일반한식","category":"restaurant"}]},{"lat":"37.536656675","long":"127.20759207","imageIndex":4,"items":[{"name":"우리커피숍","tel":"031-796-2279","addr":"경기도 하남시 신장동 432-32번지 2층","indutype":"일반휴게음식 - 서양음식","category":"restaurant"},{"name":"족발한판","tel":"031-792-8555","addr":"경기도 하남시 신장동 432-32번지","indutype":"일반휴게음식 - 일반한식","category":"restaurant"}]},{"lat":"37.543898075","long":"127.21414085","imageIndex":4,"items":[{"name":"우정푸드서비스 (현안2지구)","tel":"031-791-9002","addr":"경기도 하남시 신장동 214-3번지 신평중학교","indutype":"일반휴게음식 - 일반한식","category":"restaurant"}]},{"lat":"37.53651197","long":"127.21303384","imageIndex":4,"items":[{"name":"원더라운지","tel":"031-000-0000","addr":"경기도 하남시 신장동 470-7번지","indutype":"일반휴게음식 - 서양음식","category":"restaurant"}]},{"lat":"37.538819815","long":"127.20714539","imageIndex":4,"items":[{"name":"원조불닭","tel":"031-795-3772","addr":"경기도 하남시 신장동 427-360번지 1층","indutype":"일반휴게음식 - 일반한식","category":"restaurant"}]},{"lat":"37.538040817","long":"127.20953063","imageIndex":4,"items":[{"name":"월드컵포장마차","tel":"031-791-6375","addr":"경기도 하남시 신장동 450-36번지","indutype":"일반휴게음식 - 주점","category":"restaurant"}]},{"lat":"37.53909994","long":"127.20667094","imageIndex":4,"items":[{"name":"유진해마루","tel":"031-795-1877","addr":"경기도 하남시 신장동 427-218번지 1층","indutype":"일반휴게음식 - 일반한식","category":"restaurant"}]},{"lat":"37.541929314","long":"127.2116686","imageIndex":4,"items":[{"name":"육칠팔 치킨","tel":"","addr":"경기도 하남시 신장동 381-26번지 1층 건물우측","indutype":"일반휴게음식 - 스넥","category":"restaurant"},{"name":"육칠팔치킨","tel":"031-792-6783","addr":"경기도 하남시 신장동 381-26번지 1층","indutype":"일반휴게음식 - 스넥","category":"restaurant"},{"name":"토핑엔치킨","tel":"031-796-6056","addr":"경기도 하남시 신장동 381-26번지 1층","indutype":"일반휴게음식 - 주점","category":"restaurant"}]},{"lat":"37.536566243","long":"127.20778416","imageIndex":4,"items":[{"name":"은혜네민물매운탕","tel":"031-795-5282","addr":"경기도 하남시 신장동 433-4번지 1층","indutype":"일반휴게음식 - 일반한식","category":"restaurant"}]},{"lat":"37.538676283","long":"127.20678293","imageIndex":4,"items":[{"name":"응급실국물떡볶이하남신장점","tel":"031-793-4119","addr":"경기도 하남시 신장동 427-318번지 1층","indutype":"일반휴게음식 - 일반한식","category":"restaurant"}]},{"lat":"37.54012252","long":"127.20928745","imageIndex":4,"items":[{"name":"이도수두마리치킨","tel":"031-794-1441","addr":"경기도 하남시 신장동 406-9번지 1층","indutype":"일반휴게음식 - 주점","category":"restaurant"}]},{"lat":"37.540678809","long":"127.22061522","imageIndex":4,"items":[{"name":"이디야커피 (검단산역점)","tel":"031-1111-1111","addr":"경기도 하남시 신장동 99-30번지","indutype":"일반휴게음식 - 서양음식","category":"restaurant"}]},{"lat":"37.539152453","long":"127.20756494","imageIndex":4,"items":[{"name":"이모네","tel":"031-767-1503","addr":"경기도 하남시 신장동 427-346번지","indutype":"일반휴게음식 - 일반한식","category":"restaurant"}]},{"lat":"37.540735345","long":"127.20919862","imageIndex":4,"items":[{"name":"이흥선참치","tel":"031-796-0886","addr":"경기도 하남시 신장동 565-10번지","indutype":"일반휴게음식 - 일반한식","category":"restaurant"}]},{"lat":"37.53848174","long":"127.20464395","imageIndex":4,"items":[{"name":"일미칼국수","tel":"031-794-7550","addr":"경기도 하남시 신장동 427-179번지","indutype":"일반휴게음식 - 일반한식","category":"restaurant"},{"name":"종훈이네 해물칼국수","tel":"031-794-7550","addr":"경기도 하남시 신장동 427-179번지","indutype":"일반휴게음식 - 일반한식","category":"restaurant"},{"name":"포차어게인","tel":"031-795-1211","addr":"경기도 하남시 신장동 427-179번지 2층","indutype":"일반휴게음식 - 일반한식","category":"restaurant"}]},{"lat":"37.547569131","long":"127.21186539","imageIndex":4,"items":[{"name":"자두식당","tel":"031-792-1576","addr":"경기도 하남시 신장동 303-58번지 1층","indutype":"일반휴게음식 - 일반한식","category":"restaurant"}]},{"lat":"37.541958201","long":"127.22061894","imageIndex":4,"items":[{"name":"자전거곱창","tel":"031-794-8828","addr":"경기도 하남시 신장동 99-9번지 1층","indutype":"일반휴게음식 - 일반한식","category":"restaurant"}]},{"lat":"37.539350669","long":"127.20756549","imageIndex":4,"items":[{"name":"장금이","tel":"031-793-2076","addr":"경기도 하남시 신장동 427-336번지","indutype":"일반휴게음식 - 일반한식","category":"restaurant"},{"name":"후라이드 참 잘하는집 하남점","tel":"031-793-7992","addr":"경기도 하남시 신장동 427-336번지 1층","indutype":"일반휴게음식 - 스넥","category":"restaurant"}]},{"lat":"37.53832245","long":"127.20819629","imageIndex":4,"items":[{"name":"장꼬","tel":"031-794-1237","addr":"경기도 하남시 신장동 430-64번지","indutype":"일반휴게음식 - 일반한식","category":"restaurant"}]},{"lat":"37.539542804","long":"127.2058688","imageIndex":4,"items":[{"name":"장성순대국","tel":"","addr":"경기도 하남시 신장동 427-34번지 1층","indutype":"일반휴게음식 - 일반한식","category":"restaurant"},{"name":"틈새라면 하남점","tel":"031-755-4666","addr":"경기도 하남시 신장동 427-34번지","indutype":"일반휴게음식 - 스넥","category":"restaurant"}]},{"lat":"37.539543853","long":"127.2052578","imageIndex":4,"items":[{"name":"장수족발","tel":"031-791-7346","addr":"경기도 하남시 신장동 427-276번지","indutype":"일반휴게음식 - 일반한식","category":"restaurant"}]},{"lat":"37.540956335","long":"127.21162063","imageIndex":4,"items":[{"name":"전집","tel":"031-792-2850","addr":"경기도 하남시 신장동 387-13번지 1층","indutype":"일반휴게음식 - 일반한식","category":"restaurant"}]},{"lat":"37.540485176","long":"127.21311288","imageIndex":4,"items":[{"name":"정통 숯불 꼬치구이 구르메","tel":"","addr":"경기도 하남시 신장동 396-1번지 1층","indutype":"일반휴게음식 - 주점","category":"restaurant"}]},{"lat":"37.540038811","long":"127.21078078","imageIndex":4,"items":[{"name":"제니스","tel":"031-795-5760","addr":"경기도 하남시 신장동 407-10번지 5층","indutype":"일반휴게음식 - 일반한식","category":"restaurant"}]},{"lat":"37.541656048","long":"127.21334247","imageIndex":4,"items":[{"name":"제주YOUNG돈","tel":"031-792-9169","addr":"경기도 하남시 신장동 383-1번지 정현빌딩","indutype":"일반휴게음식 - 일반한식","category":"restaurant"},{"name":"참맛깔곱창순대국","tel":"031-791-5777","addr":"경기도 하남시 신장동 383-1번지","indutype":"일반휴게음식 - 일반한식","category":"restaurant"}]},{"lat":"37.539210546","long":"127.21041641","imageIndex":4,"items":[{"name":"조나단 스 랩","tel":"031-791-3313","addr":"경기도 하남시 신장동 447-6번지","indutype":"일반휴게음식 - 일반한식","category":"restaurant"}]},{"lat":"37.540711346","long":"127.21259303","imageIndex":4,"items":[{"name":"조마루감자탕","tel":"031-793-9001","addr":"경기도 하남시 신장동 390-11번지","indutype":"일반휴게음식 - 일반한식","category":"restaurant"}]},{"lat":"37.540765666","long":"127.21244609","imageIndex":4,"items":[{"name":"조마루뼈다귀","tel":"031-793-9001","addr":"경기도 하남시 신장동 390-6번지","indutype":"일반휴게음식 - 일반한식","category":"restaurant"}]},{"lat":"37.538597919","long":"127.20519867","imageIndex":4,"items":[{"name":"주모리","tel":"000-000-0000","addr":"경기도 하남시 신장동 427-35번지 2층","indutype":"일반휴게음식 - 주점","category":"restaurant"}]},{"lat":"37.541044368","long":"127.21278632","imageIndex":4,"items":[{"name":"주문진","tel":"031-795-6989","addr":"경기도 하남시 신장동 390-10번지 1층","indutype":"일반휴게음식 - 일반한식","category":"restaurant"}]},{"lat":"37.53717844","long":"127.20805738","imageIndex":4,"items":[{"name":"주문진식당","tel":"031-792-0649","addr":"경기도 하남시 신장동 432-83번지","indutype":"일반휴게음식 - 일반한식","category":"restaurant"}]},{"lat":"37.539851413","long":"127.20975061","imageIndex":4,"items":[{"name":"주식회사 맹박골갈비예찬","tel":"031-796-5335","addr":"경기도 하남시 신장동 408-3번지","indutype":"일반휴게음식 - 일반한식","category":"restaurant"}]},{"lat":"37.538182788","long":"127.20559356","imageIndex":4,"items":[{"name":"중앙족발","tel":"031-791-8958","addr":"경기도 하남시 신장동 427-160번지","indutype":"일반휴게음식 - 일반한식","category":"restaurant"}]},{"lat":"37.537872529","long":"127.20786694","imageIndex":4,"items":[{"name":"짜댕이","tel":"031-796-6662","addr":"경기도 하남시 신장동 430-89번지 1층","indutype":"일반휴게음식 - 중국식","category":"restaurant"}]},{"lat":"37.539765218","long":"127.20751004","imageIndex":4,"items":[{"name":"짝","tel":"031-795-4652","addr":"경기도 하남시 신장동 427-418번지 102호","indutype":"일반휴게음식 - 일반한식","category":"restaurant"},{"name":"짝실내포차","tel":"031-795-4652","addr":"경기도 하남시 신장동 427-418번지 라파플러스 102호","indutype":"일반휴게음식 - 주점","category":"restaurant"}]},{"lat":"37.541927389","long":"127.21275485","imageIndex":4,"items":[{"name":"짱닭치킨","tel":"031-792-5838","addr":"경기도 하남시 신장동 381-17번지 1층","indutype":"일반휴게음식 - 스넥","category":"restaurant"}]},{"lat":"37.538545292","long":"127.20436125","imageIndex":4,"items":[{"name":"쭈꾸미","tel":"031-792-4763","addr":"경기도 하남시 신장동 427-178번지","indutype":"일반휴게음식 - 갈비전문점","category":"restaurant"}]},{"lat":"37.539098747","long":"127.20736113","imageIndex":4,"items":[{"name":"쭉빵쭈꾸미","tel":"031-792-9992","addr":"경기도 하남시 신장동 427-348번지 1층","indutype":"일반휴게음식 - 일반한식","category":"restaurant"}]},{"lat":"37.543317025","long":"127.21155932","imageIndex":4,"items":[{"name":"차오차오 (하남점)","tel":"031-793-3799","addr":"경기도 하남시 신장동 589-3번지 2층","indutype":"일반휴게음식 - 중국식","category":"restaurant"}]},{"lat":"37.538959453","long":"127.20453209","imageIndex":4,"items":[{"name":"참숯불바베큐치킨","tel":"031-795-2848","addr":"경기도 하남시 신장동 427-66번지 진도로르빌 101호","indutype":"일반휴게음식 - 스넥","category":"restaurant"}]},{"lat":"37.538570789","long":"127.21044858","imageIndex":4,"items":[{"name":"천일뼈해장국","tel":"031-792-8330","addr":"경기도 하남시 신장동 449-6번지","indutype":"일반휴게음식 - 일반한식","category":"restaurant"}]},{"lat":"37.537149024","long":"127.20942634","imageIndex":4,"items":[{"name":"청실홍실주막집","tel":"031-794-3748","addr":"경기도 하남시 신장동 437-9번지","indutype":"일반휴게음식 - 일반한식","category":"restaurant"}]},{"lat":"37.541430803","long":"127.21334184","imageIndex":4,"items":[{"name":"청와삼대명이보쌈칼국수","tel":"031-796-0123","addr":"경기도 하남시 신장동 392-6번지","indutype":"일반휴게음식 - 일반한식","category":"restaurant"}]},{"lat":"37.539179737","long":"127.20741793","imageIndex":4,"items":[{"name":"초롱집","tel":"031-795-0364","addr":"경기도 하남시 신장동 427-347번지 1층","indutype":"일반휴게음식 - 일반한식","category":"restaurant"}]},{"lat":"37.540037585","long":"127.20631142","imageIndex":4,"items":[{"name":"추닭집","tel":"031-794-9727","addr":"경기도 하남시 신장동 427-26번지 1층","indutype":"일반휴게음식 - 일반한식","category":"restaurant"}]},{"lat":"37.539121147","long":"127.20481539","imageIndex":4,"items":[{"name":"친절한 닭발","tel":"","addr":"경기도 하남시 신장동 427-268번지 1층","indutype":"일반휴게음식 - 일반한식","category":"restaurant"},{"name":"하남  쭈꾸미","tel":"031-792-1009","addr":"경기도 하남시 신장동 427-268번지 1층","indutype":"일반휴게음식 - 일반한식","category":"restaurant"}]},{"lat":"37.537150682","long":"127.20847594","imageIndex":4,"items":[{"name":"칠보칡냉면","tel":"02-795-2994","addr":"경기도 하남시 신장동 440-8번지 1층","indutype":"일반휴게음식 - 일반한식","category":"restaurant"}]},{"lat":"37.536765518","long":"127.20717373","imageIndex":4,"items":[{"name":"카라","tel":"031-793-0609","addr":"경기도 하남시 신장동 432-5번지","indutype":"일반휴게음식 - 일반한식","category":"restaurant"},{"name":"하남다방","tel":"031-795-5859","addr":"경기도 하남시 신장동 432-5","indutype":"일반휴게음식 - 서양음식","category":"restaurant"}]},{"lat":"37.541124128","long":"127.20841896","imageIndex":4,"items":[{"name":"카페 송그레","tel":"02-1111-1111","addr":"경기도 하남시 신장동 564-1번지 심산빌딩","indutype":"일반휴게음식 - 서양음식","category":"restaurant"}]},{"lat":"37.546429039","long":"127.21458931","imageIndex":4,"items":[{"name":"카페231","tel":"031-1577-9291","addr":"경기도 하남시 신장동 231-1번지 1층","indutype":"일반휴게음식 - 서양음식","category":"restaurant"}]},{"lat":"37.540572575","long":"127.20953762","imageIndex":4,"items":[{"name":"코다리한상","tel":"031-794-4238","addr":"경기도 하남시 신장동 565-7번지 동진빌딩 2층","indutype":"일반휴게음식 - 일반한식","category":"restaurant"}]},{"lat":"37.53821137","long":"127.20989317","imageIndex":4,"items":[{"name":"콩쥐팥칼국수","tel":"031-791-7213","addr":"경기도 하남시 신장동 450-20번지 1층","indutype":"일반휴게음식 - 일반한식","category":"restaurant"}]},{"lat":"37.544235885","long":"127.21164109","imageIndex":4,"items":[{"name":"큰맘할매순대국 하남신장점","tel":"031-793-8893","addr":"경기도 하남시 신장동 581-4번지 1층","indutype":"일반휴게음식 - 일반한식","category":"restaurant"}]},{"lat":"37.537150387","long":"127.20864565","imageIndex":4,"items":[{"name":"킹호프","tel":"031-794-8187","addr":"경기도 하남시 신장동 439-2번지","indutype":"일반휴게음식 - 주점","category":"restaurant"}]},{"lat":"37.540404188","long":"127.21305608","imageIndex":4,"items":[{"name":"탈방막국수닭갈비","tel":"031-791-4099","addr":"경기도 하남시 신장동 396-6번지 1층","indutype":"일반휴게음식 - 일반한식","category":"restaurant"}]},{"lat":"37.538207088","long":"127.20717767","imageIndex":4,"items":[{"name":"토방집","tel":"031-794-1267","addr":"경기도 하남시 신장동 428-33번지 1층","indutype":"일반휴게음식 - 주점","category":"restaurant"}]},{"lat":"37.53626368","long":"127.21078161","imageIndex":4,"items":[{"name":"투존 치킨피자","tel":"031-792-9292","addr":"경기도 하남시 신장동 472-14번지","indutype":"일반휴게음식 - 스넥","category":"restaurant"},{"name":"투존치킨 하남1호점","tel":"031-792-9292","addr":"경기도 하남시 신장동 472-14번지 1층","indutype":"일반휴게음식 - 일반한식","category":"restaurant"}]},{"lat":"37.540155839","long":"127.21083768","imageIndex":4,"items":[{"name":"티버즈카페","tel":"070-7607-4531","addr":"경기도 하남시 신장동 407-6번지 101호","indutype":"일반휴게음식 - 서양음식","category":"restaurant"}]},{"lat":"37.551734548","long":"127.21530594","imageIndex":4,"items":[{"name":"파크프렌드","tel":"031-790-8460","addr":"경기도 하남시 신장동 281번지","indutype":"일반휴게음식 - 일반한식","category":"restaurant"},{"name":"한화호텔앤드리조트(주)조정경기장 관리동","tel":"031-794-1046","addr":"경기도 하남시 신장동 281번지 조정경기장 내","indutype":"일반휴게음식 - 일반한식","category":"restaurant"}]},{"lat":"37.539344257","long":"127.20606061","imageIndex":4,"items":[{"name":"팔미원","tel":"031-796-5655","addr":"경기도 하남시 신장동 427-123번지 1층","indutype":"일반휴게음식 - 중국식","category":"restaurant"}]},{"lat":"37.53706983","long":"127.20833994","imageIndex":4,"items":[{"name":"평창황기족발","tel":"031-793-5355","addr":"경기도 하남시 신장동 440-13번지","indutype":"일반휴게음식 - 일반한식","category":"restaurant"}]},{"lat":"37.541461444","long":"127.21130522","imageIndex":4,"items":[{"name":"포도앤보리","tel":"031-792-7400","addr":"경기도 하남시 신장동 381-37번지 1층","indutype":"일반휴게음식 - 일반한식","category":"restaurant"}]},{"lat":"37.537350196","long":"127.20772973","imageIndex":4,"items":[{"name":"풍경","tel":"031-794-1206","addr":"경기도 하남시 신장동 432-9번지 1층","indutype":"일반휴게음식 - 일반한식","category":"restaurant"}]},{"lat":"37.538125765","long":"127.20731322","imageIndex":4,"items":[{"name":"피아노","tel":"031-000-0000","addr":"경기도 하남시 신장동 428-48번지 1층","indutype":"일반휴게음식 - 주점","category":"restaurant"}]},{"lat":"37.547038393","long":"127.21138864","imageIndex":4,"items":[{"name":"피자나라치킨공주하남신장점","tel":"031-796-5490","addr":"경기도 하남시 신장동 315-2번지 1층","indutype":"일반휴게음식 - 서양음식","category":"restaurant"}]},{"lat":"37.539156188","long":"127.21058598","imageIndex":4,"items":[{"name":"피자브라더스","tel":"031-796-1987","addr":"경기도 하남시 신장동 448-6번지 1층","indutype":"일반휴게음식 - 서양음식","category":"restaurant"}]},{"lat":"37.540764319","long":"127.21320419","imageIndex":4,"items":[{"name":"하남 닭볶상회","tel":"031-794-9330","addr":"경기도 하남시 신장동 394-3번지 1층","indutype":"일반휴게음식 - 일반한식","category":"restaurant"}]},{"lat":"37.540263565","long":"127.2161107","imageIndex":4,"items":[{"name":"하남근고기 (시청점)","tel":"031-793-5880","addr":"경기도 하남시 신장동 524-8번지 1층","indutype":"일반휴게음식 - 일반한식","category":"restaurant"}]},{"lat":"37.539899305","long":"127.20812141","imageIndex":4,"items":[{"name":"하남김밥","tel":"031-795-2753","addr":"경기도 하남시 신장동 427-389번지","indutype":"일반휴게음식 - 스넥","category":"restaurant"}]},{"lat":"37.540932044","long":"127.21513952","imageIndex":4,"items":[{"name":"하남미소","tel":"031-699-0002","addr":"경기도 하남시 신장동 522-4번지","indutype":"일반휴게음식 - 일반한식","category":"restaurant"},{"name":"하남미소","tel":"031-699-0002","addr":"경기도 하남시 신장동 522-4번지","indutype":"일반휴게음식 - 일반한식","category":"restaurant"}]},{"lat":"37.536458263","long":"127.20770467","imageIndex":4,"items":[{"name":"하남식당","tel":"031-791-9585","addr":"경기도 하남시 신장동 433-1번지","indutype":"일반휴게음식 - 일반한식","category":"restaurant"}]},{"lat":"37.537599613","long":"127.20937101","imageIndex":4,"items":[{"name":"하남치킨","tel":"031-791-5516","addr":"경기도 하남시 신장동 437-4번지 1층","indutype":"일반휴게음식 - 주점","category":"restaurant"},{"name":"하남치킨호프","tel":"031-791-5516","addr":"경기도 하남시 신장동 437-4번지 1층","indutype":"일반휴게음식 - 스넥","category":"restaurant"}]},{"lat":"37.548650215","long":"127.21694935","imageIndex":4,"items":[{"name":"한우1번지","tel":"031-855-5551","addr":"경기도 하남시 신장동 251-18번지 ,1,2층","indutype":"일반휴게음식 - 일반한식","category":"restaurant"}]},{"lat":"37.538684804","long":"127.20706582","imageIndex":4,"items":[{"name":"함평식당","tel":"031-793-3676","addr":"경기도 하남시 신장동 428-20번지 1층","indutype":"일반휴게음식 - 일반한식","category":"restaurant"}]},{"lat":"37.547371156","long":"127.21172904","imageIndex":4,"items":[{"name":"행복한밥상","tel":"031-796-7882","addr":"경기도 하남시 신장동 303-59번지 신풍빌딩 1층","indutype":"일반휴게음식 - 일반한식","category":"restaurant"},{"name":"행복한밥상(신평로점)","tel":"031-796-7881","addr":"경기도 하남시 신장동 303-59번지 신풍빌딩 1층","indutype":"일반휴게음식 - 일반한식","category":"restaurant"}]},{"lat":"37.537761553","long":"127.20950723","imageIndex":4,"items":[{"name":"현정이네해물예식장","tel":"031-794-6778","addr":"경기도 하남시 신장동 451-19번지","indutype":"일반휴게음식 - 일반한식","category":"restaurant"}]},{"lat":"37.536238095","long":"127.2150357","imageIndex":4,"items":[{"name":"형노가3호점","tel":"070-8985-1167","addr":"경기도 하남시 신장동 531-11번지 1층","indutype":"일반휴게음식 - 일반한식","category":"restaurant"}]},{"lat":"37.537818902","long":"127.20761787","imageIndex":4,"items":[{"name":"호식이두마리치킨","tel":"031-793-9244","addr":"경기도 하남시 신장동 430-39번지 1층","indutype":"일반휴게음식 - 스넥","category":"restaurant"}]},{"lat":"37.538072469","long":"127.20687181","imageIndex":4,"items":[{"name":"호프하우스","tel":"031-791-1217","addr":"경기도 하남시 신장동 428-38번지 1층","indutype":"일반휴게음식 - 주점","category":"restaurant"}]},{"lat":"37.540181703","long":"127.20633444","imageIndex":4,"items":[{"name":"홍's김밥","tel":"031-795-7980","addr":"경기도 하남시 신장동 427-195번지 1층 102호","indutype":"일반휴게음식 - 스넥","category":"restaurant"}]},{"lat":"37.539071129","long":"127.2077005","imageIndex":4,"items":[{"name":"홍천 숯불닭갈비","tel":"031-792-2560","addr":"경기도 하남시 신장동 427-345번지 1층","indutype":"일반휴게음식 - 일반한식","category":"restaurant"}]},{"lat":"37.539899175","long":"127.21331491","imageIndex":4,"items":[{"name":"화통족발","tel":"02-567-8527","addr":"경기도 하남시 신장동 519-4번지 1층","indutype":"일반휴게음식 - 일반한식","category":"restaurant"}]},{"lat":"37.540069389","long":"127.20875551","imageIndex":4,"items":[{"name":"황금밥상","tel":"031-793-3334","addr":"경기도 하남시 신장동 411-23번지","indutype":"일반휴게음식 - 일반한식","category":"restaurant"}]},{"lat":"37.539320174","long":"127.20434071","imageIndex":4,"items":[{"name":"황토콜민속마을","tel":"031-795-2969","addr":"경기도 하남시 신장동 427-135번지","indutype":"일반휴게음식 - 일반한식","category":"restaurant"}]},{"lat":"37.546732199","long":"127.21130858","imageIndex":4,"items":[{"name":"훈장골","tel":"031-796-0892","addr":"경기도 하남시 신장동 328-1번지 외1필지 2층","indutype":"일반휴게음식 - 일반한식","category":"restaurant"}]},{"lat":"37.538927795","long":"127.20722489","imageIndex":4,"items":[{"name":"힐카페","tel":"070-2033-3167","addr":"경기도 하남시 신장동 427-358번지 1층","indutype":"일반휴게음식 - 서양음식","category":"restaurant"}]}]