[{"lat":"37.720425279","long":"126.83659364","imageIndex":0,"items":[{"name":"고양자동차공업사","tel":"031-969-1414","addr":"경기도 고양시 일산동구 지영동 1-36번지","indutype":"자동차정비 유지 - 자동차정비","category":"car"},{"name":"고양자동차공업사","tel":"031-969-1414","addr":"경기도 고양시 일산동구 지영동 1-36번지","indutype":"자동차정비 유지 - 자동차정비","category":"car"}]},{"lat":"37.72128772","long":"126.83484499","imageIndex":0,"items":[{"name":"성현모터스","tel":"070-8887-3022","addr":"경기도 고양시 일산동구 지영동 1-38번지","indutype":"자동차정비 유지 - 자동차정비","category":"car"}]},{"lat":"37.70618072","long":"126.82401535","imageIndex":0,"items":[{"name":"엠티에스 KOREA","tel":"031-975-0020","addr":"경기도 고양시 일산동구 지영동 374-9번지","indutype":"자동차정비 유지 - 자동차정비","category":"car"},{"name":"한솔자동차공업사","tel":"031-977-5356","addr":"경기도 고양시 일산동구 지영동 374-9번지","indutype":"자동차정비 유지 - 자동차정비","category":"car"}]},{"lat":"37.717537764","long":"126.82731119","imageIndex":0,"items":[{"name":"엠티에스(M.T.S)","tel":"031-923-1989","addr":"경기도 고양시 일산동구 지영동 260-3번지","indutype":"자동차정비 유지 - 자동차부품","category":"car"}]},{"lat":"37.721928772","long":"126.82956931","imageIndex":0,"items":[{"name":"정연보링","tel":"031-975-2281","addr":"경기도 고양시 일산동구 지영동 216-18번지","indutype":"자동차정비 유지 - 자동차정비","category":"car"}]},{"lat":"37.71704496","long":"126.8291497","imageIndex":0,"items":[{"name":"제이엔씨","tel":"031-976-1720","addr":"경기도 고양시 일산동구 지영동 255-8번지","indutype":"자동차정비 유지 - 자동차부품","category":"car"}]},{"lat":"37.7144035","long":"126.82803308","imageIndex":0,"items":[{"name":"제일카센타","tel":"031-921-9991","addr":"경기도 고양시 일산동구 지영동 301-13번지","indutype":"자동차정비 유지 - 자동차정비","category":"car"}]},{"lat":"37.704848505","long":"126.82481234","imageIndex":0,"items":[{"name":"타이어TC","tel":"031-965-9515","addr":"경기도 고양시 일산동구 지영동 374-20번지","indutype":"자동차정비 유지 - 자동차시트·타이어","category":"car"}]}]