[{"lat":"37.3857525594","long":"126.9812246333","imageIndex":7,"items":[{"name":"59할인마트","tel":"031-425-0619","addr":"경기도 의왕시 내손동 682-10번지 상가 1층","indutype":"유통업 영리 - 슈퍼마켓","category":"mart"}]},{"lat":"37.3787771552","long":"126.9738651855","imageIndex":7,"items":[{"name":"경기남부두레생협(의왕점)","tel":"031-426-6665","addr":"경기도 의왕시 내손동 762-3번지 삼대프라자 102호","indutype":"유통업 영리 - 슈퍼마켓","category":"mart"},{"name":"모닝마트","tel":"031-423-9277","addr":"경기도 의왕시 내손동 762-3번지 삼대프라자 105호,106호,107호","indutype":"유통업 영리 - 슈퍼마켓","category":"mart"}]},{"lat":"37.3859147722","long":"126.9813939613","imageIndex":7,"items":[{"name":"기정하이퍼","tel":"031-21-9076","addr":"경기도 의왕시 내손동 670번지","indutype":"유통업 영리 - 슈퍼마켓","category":"mart"}]},{"lat":"37.3886347271","long":"126.9760294599","imageIndex":7,"items":[{"name":"누구나복권방","tel":"031-422-8090","addr":"경기도 의왕시 내손동 631-2번지 건형상가 102호","indutype":"유통업 영리 - 슈퍼마켓","category":"mart"}]},{"lat":"37.3837253466","long":"126.9815639560","imageIndex":7,"items":[{"name":"대우슈퍼","tel":"031-425-3887","addr":"경기도 의왕시 내손동 688-10번지","indutype":"유통업 영리 - 슈퍼마켓","category":"mart"}]},{"lat":"37.3770553738","long":"126.9705916573","imageIndex":7,"items":[{"name":"대원마트","tel":"031-422-2750","addr":"경기도 의왕시 내손동 795번지 대원칸타빌1단지 상가동 104호","indutype":"유통업 영리 - 슈퍼마켓","category":"mart"}]},{"lat":"37.3792542136","long":"126.9719794638","imageIndex":7,"items":[{"name":"빅마트25","tel":"031-424-1140","addr":"경기도 의왕시 내손동 751-2번지 정도프라자 103호","indutype":"유통업 영리 - 슈퍼마켓","category":"mart"}]},{"lat":"37.3850856144","long":"126.9801747138","imageIndex":7,"items":[{"name":"삼립샤니빵 안양대리점","tel":"070-8236-4308","addr":"경기도 의왕시 내손동 683-21번지","indutype":"유통업 영리 - 슈퍼마켓","category":"mart"}]},{"lat":"37.3843653238","long":"126.9830542412","imageIndex":7,"items":[{"name":"성경마트","tel":"031-421-5877","addr":"경기도 의왕시 내손동 677-10","indutype":"유통업 영리 - 슈퍼마켓","category":"mart"},{"name":"의왕DC마트","tel":"031-424-9710","addr":"경기도 의왕시 내손동 677-10번지 밀림상가 다동 1층","indutype":"유통업 영리 - 슈퍼마켓","category":"mart"}]},{"lat":"37.3857243757","long":"126.9756465832","imageIndex":7,"items":[{"name":"세이브마트","tel":"031-421-8686","addr":"경기도 의왕시 내손동 622-15번지 1층","indutype":"유통업 영리 - 슈퍼마켓","category":"mart"}]},{"lat":"37.3756683787","long":"126.9727260824","imageIndex":7,"items":[{"name":"신반도마트","tel":"031-426-8119","addr":"경기도 의왕시 내손동 774번지 반도보라빌리지2단지 상가동 104호","indutype":"유통업 영리 - 슈퍼마켓","category":"mart"}]},{"lat":"37.3900864603","long":"126.9814492316","imageIndex":7,"items":[{"name":"안양마트","tel":"031-422-6675","addr":"경기도 의왕시 내손동 652번지 (1층1~3호)","indutype":"유통업 영리 - 슈퍼마켓","category":"mart"}]},{"lat":"37.3787231689","long":"126.9741700516","imageIndex":7,"items":[{"name":"오렌지마트","tel":"031-421-8909","addr":"경기도 의왕시 내손동 762-2번지 그린프라자 104호","indutype":"유통업 영리 - 슈퍼마켓","category":"mart"}]},{"lat":"37.3840586797","long":"126.9813380343","imageIndex":7,"items":[{"name":"은혜슈퍼","tel":"031-423-1101","addr":"경기도 의왕시 내손동 687-5번지 103호","indutype":"유통업 영리 - 슈퍼마켓","category":"mart"}]},{"lat":"37.3873921798","long":"126.9800610994","imageIndex":7,"items":[{"name":"이씨돌웰빙마켓(EC)","tel":"031-426-1117","addr":"경기도 의왕시 내손동 643번지","indutype":"유통업 영리 - 슈퍼마켓","category":"mart"}]},{"lat":"37.3753613407","long":"126.9701182010","imageIndex":7,"items":[{"name":"진로할인마트","tel":"031-427-3458","addr":"경기도 의왕시 내손동 801번지","indutype":"유통업 영리 - 슈퍼마켓","category":"mart"}]},{"lat":"37.3832741391","long":"126.9779734668","imageIndex":7,"items":[{"name":"진일슈퍼","tel":"031-425-4788","addr":"경기도 의왕시 내손동 691-20번지 동화다세대","indutype":"유통업 영리 - 슈퍼마켓","category":"mart"}]}]