[{"lat":"37.163254117","long":"127.43904405","imageIndex":4,"items":[{"name":"남이천배추된장국","tel":"031-636-2009","addr":"경기도 이천시 모가면 두미리 219-3번지 A동 1층","indutype":"일반휴게음식 - 일반한식","category":"restaurant"}]},{"lat":"37.157560877","long":"127.43868488","imageIndex":4,"items":[{"name":"다송","tel":"031-636-0069","addr":"경기도 이천시 모가면 두미리 377-1번지","indutype":"일반휴게음식 - 일반한식","category":"restaurant"}]},{"lat":"37.169065892","long":"127.43902115","imageIndex":4,"items":[{"name":"두미촌","tel":"031-638-9244","addr":"경기도 이천시 모가면 두미리 138-1번지 1층","indutype":"일반휴게음식 - 일반한식","category":"restaurant"}]},{"lat":"37.164733061","long":"127.43624917","imageIndex":0,"items":[{"name":"도일특수","tel":"031-855-0401","addr":"경기도 이천시 모가면 두미리 245-1번지","indutype":"자동차정비 유지 - 견인서비스","category":"car"},{"name":"도일특수","tel":"031-769-4982","addr":"경기도 이천시 모가면 두미리 245-1번지","indutype":"자동차정비 유지 - 견인서비스","category":"car"},{"name":"도일특수","tel":"031-536-8383","addr":"경기도 이천시 모가면 두미리 245-1번지","indutype":"자동차정비 유지 - 견인서비스","category":"car"},{"name":"도일특수(고양렉카)","tel":"031-917-5700","addr":"경기도 이천시 모가면 두미리 245-1번지 1층","indutype":"자동차정비 유지 - 견인서비스","category":"car"}]},{"lat":"37.1722278","long":"127.43921948","imageIndex":7,"items":[{"name":"바른계량증명업소","tel":"031-636-0401","addr":"경기도 이천시 모가면 두미리 124-3번지","indutype":"음료식품 - 기타음료식품","category":"food"}]},{"lat":"37.169065892","long":"127.43902115","imageIndex":17,"items":[{"name":"세븐일레븐이천두미리점","tel":"031-1577-0711","addr":"경기도 이천시 모가면 두미리 138-1번지","indutype":"유통업 영리 - 편 의 점","category":"other"}]},{"lat":"37.172836341","long":"127.44034896","imageIndex":17,"items":[{"name":"제이제이RV","tel":"031-638-9005","addr":"경기도 이천시 모가면 두미리 124-9번지","indutype":"레져용품 - 스포츠·레져용품","category":"other"}]}]