[{"lat":"37.290858642","long":"127.63963566","imageIndex":0,"items":[{"name":"금강상사","tel":"031-886-9887","addr":"경기도 여주시 홍문동 285-7번지","indutype":"자동차정비 유지 - 자동차부품","category":"car"}]},{"lat":"37.2909366","long":"127.63686211","imageIndex":0,"items":[{"name":"나인투나인 토탈카써비스","tel":"031-885-9224","addr":"경기도 여주시 홍문동 271-8번지","indutype":"자동차정비 유지 - 세차장","category":"car"},{"name":"나인투나인토탈카써비스","tel":"031-885-9224","addr":"경기도 여주시 홍문동 271-8번지","indutype":"자동차정비 유지 - 카인테리어","category":"car"}]},{"lat":"37.282910587","long":"127.63817046","imageIndex":0,"items":[{"name":"대명공업사.대명렉카","tel":"031-885-6737","addr":"경기도 여주시 홍문동 380번지","indutype":"자동차정비 유지 - 자동차정비","category":"car"},{"name":"파워렉카","tel":"070-7018-5392","addr":"경기도 여주시 홍문동 380번지","indutype":"자동차정비 유지 - 견인서비스","category":"car"},{"name":"프로타이어수리","tel":"031-885-9789","addr":"경기도 여주시 홍문동 380번지","indutype":"자동차정비 유지 - 자동차정비","category":"car"}]},{"lat":"37.2885761555","long":"127.6351394987","imageIndex":0,"items":[{"name":"대우자동차여주바로정","tel":"031-881-5255","addr":"경기도 여주시 홍문동 251-19번지","indutype":"자동차정비 유지 - 자동차정비","category":"car"}]},{"lat":"37.2904643","long":"127.63419674","imageIndex":0,"items":[{"name":"수한카인테리어","tel":"031-84-0775","addr":"경기도 여주시 홍문동 232-4번지","indutype":"자동차정비 유지 - 자동차정비","category":"car"}]},{"lat":"37.288576156","long":"127.6351395","imageIndex":0,"items":[{"name":"쉐보레 여주대리점","tel":"031-883-3318","addr":"경기도 여주시 홍문동 251-19번지","indutype":"자동차판매 - 국산신차판매","category":"car"},{"name":"오성자동차용품","tel":"031-883-5130","addr":"경기도 여주시 홍문동 251-19번지","indutype":"자동차정비 유지 - 자동차부품","category":"car"}]},{"lat":"37.294162675","long":"127.63677641","imageIndex":0,"items":[{"name":"스피드메이트(여주점)","tel":"031-885-5182","addr":"경기도 여주시 홍문동 206번지","indutype":"자동차정비 유지 - 자동차정비","category":"car"}]},{"lat":"37.284528386","long":"127.63555669","imageIndex":0,"items":[{"name":"스피드메이트이마트여주점","tel":"031-884-3625","addr":"경기도 여주시 홍문동 401번지","indutype":"자동차정비 유지 - 자동차정비","category":"car"}]},{"lat":"37.290110473","long":"127.63969702","imageIndex":0,"items":[{"name":"여주남부점 기아오토큐","tel":"031-881-5151","addr":"경기도 여주시 홍문동 303-52번지","indutype":"자동차정비 유지 - 자동차정비","category":"car"}]},{"lat":"37.290633439","long":"127.63458158","imageIndex":0,"items":[{"name":"여주점현대자동차","tel":"031-886-8025","addr":"경기도 여주시 홍문동 232-1번지","indutype":"자동차정비 유지 - 자동차정비","category":"car"}]},{"lat":"37.290604632","long":"127.63828026","imageIndex":0,"items":[{"name":"영진상사","tel":"031-883-4249","addr":"경기도 여주시 홍문동 283-9번지","indutype":"자동차정비 유지 - 자동차부품","category":"car"}]},{"lat":"37.2876346861","long":"127.6359661018","imageIndex":0,"items":[{"name":"자동차사랑","tel":"031-886-8169","addr":"경기도 여주시 홍문동 255번지","indutype":"자동차정비 유지 - 카인테리어","category":"car"}]},{"lat":"37.289718238","long":"127.63386347","imageIndex":0,"items":[{"name":"제일세차장","tel":"031-885-3411","addr":"경기도 여주시 홍문동 233번지","indutype":"자동차정비 유지 - 세차장","category":"car"}]},{"lat":"37.289436893","long":"127.63424454","imageIndex":0,"items":[{"name":"제일자동차부분정비","tel":"031-883-4877","addr":"경기도 여주시 홍문동 233-3번지","indutype":"자동차정비 유지 - 자동차정비","category":"car"}]},{"lat":"37.293551105","long":"127.63824865","imageIndex":0,"items":[{"name":"현대자동차정비공업사","tel":"031-886-6150","addr":"경기도 여주시 홍문동 200-30번지","indutype":"자동차정비 유지 - 자동차정비","category":"car"}]},{"lat":"37.29041452","long":"127.63844782","imageIndex":0,"items":[{"name":"현준자동차공업사","tel":"031-884-2677","addr":"경기도 여주시 홍문동 284-2번지","indutype":"자동차정비 유지 - 자동차정비","category":"car"}]},{"lat":"37.297356341","long":"127.63769418","imageIndex":0,"items":[{"name":"효성기계공업(주)","tel":"031-885-3232","addr":"경기도 여주시 홍문동 122-2번지","indutype":"자동차판매 - 이륜차판매","category":"car"}]}]