[{"lat":"37.679167597","long":"127.21063558","imageIndex":16,"items":[{"name":"CK리틀석사체육관","tel":"031-529-3327","addr":"경기도 남양주시 오남읍 오남리 413-4번지 2층 4호","indutype":"학원 - 예·체능계학원","category":"study"}]},{"lat":"37.678049027","long":"127.21141463","imageIndex":16,"items":[{"name":"경희세계로학원","tel":"031-575-9442","addr":"경기도 남양주시 오남읍 오남리 435번지 2층","indutype":"학원 - 보습학원","category":"study"}]},{"lat":"37.685220161","long":"127.21171812","imageIndex":16,"items":[{"name":"경희어린이집","tel":"031-528-6288","addr":"경기도 남양주시 오남읍 오남리 321-2번지 대광빌딩 3층","indutype":"학원 - 유치원","category":"study"}]},{"lat":"37.678492994","long":"127.20999889","imageIndex":16,"items":[{"name":"글샘어린이논술학원","tel":"031-574-9584","addr":"경기도 남양주시 오남읍 오남리 454-10번지 청구행복프라자 204호 204호~206호","indutype":"학원 - 보습학원","category":"study"},{"name":"엠토영어수학학원","tel":"031-574-7905","addr":"경기도 남양주시 오남읍 오남리 454-10번지 2층 일부","indutype":"학원 - 보습학원","category":"study"},{"name":"용성종합체육관","tel":"031-527-8498","addr":"경기도 남양주시 오남읍 오남리 454-10번지 청구행복프라자 208동 209호","indutype":"학원 - 예·체능계학원","category":"study"}]},{"lat":"37.679611654","long":"127.20916314","imageIndex":16,"items":[{"name":"김규리아트센터체험미술학원","tel":"031-571-5005","addr":"경기도 남양주시 오남읍 오남리 496-1번지 강남상가 302호","indutype":"학원 - 예·체능계학원","category":"study"},{"name":"청어람보습학원","tel":"031-574-0009","addr":"경기도 남양주시 오남읍 오남리 496-1번지 강남상가 301,303호","indutype":"학원 - 보습학원","category":"study"},{"name":"청어람주니어학원","tel":"031-574-0009","addr":"경기도 남양주시 오남읍 오남리 496-1번지 강남상가 301호","indutype":"학원 - 보습학원","category":"study"}]},{"lat":"37.677561546","long":"127.21195738","imageIndex":16,"items":[{"name":"꿈빛나무어린이집[아이행복]","tel":"031-513-1766","addr":"경기도 남양주시 오남읍 오남리 439번지 신우아이딜아파트 204동 103호","indutype":"학원 - 유아원","category":"study"}]},{"lat":"37.693298483","long":"127.20847541","imageIndex":16,"items":[{"name":"나무어린이집[아이행복]","tel":"031-527-2279","addr":"경기도 남양주시 오남읍 오남리 718-7","indutype":"학원 - 유아원","category":"study"}]},{"lat":"37.677577166","long":"127.20819398","imageIndex":16,"items":[{"name":"노벨어린이집[아이행복]","tel":"031-574-7962","addr":"경기도 남양주시 오남읍 오남리 464번지 남양주오남리금호어울림","indutype":"학원 - 유아원","category":"study"},{"name":"신어울림음악학원","tel":"031-575-0078","addr":"경기도 남양주시 오남읍 오남리 464 금호어울림상가3층 303","indutype":"학원 - 예·체능계학원","category":"study"}]},{"lat":"37.68266338","long":"127.21061132","imageIndex":16,"items":[{"name":"뉴엘리트학원","tel":"031-528-7865","addr":"경기도 남양주시 오남읍 오남리 344-1번지 2층","indutype":"학원 - 보습학원","category":"study"},{"name":"다원피아노음악교습소","tel":"031-574-0106","addr":"경기도 남양주시 오남읍 오남리 344-1번지 1층 일부","indutype":"학원 - 예·체능계학원","category":"study"},{"name":"라이온즈태권도장","tel":"031-575-2242","addr":"경기도 남양주시 오남읍 오남리 344-1번지 상일빌딩 4층","indutype":"학원 - 예·체능계학원","category":"study"},{"name":"라인아트창의미술교습소","tel":"031-572-7865","addr":"경기도 남양주시 오남읍 오남리 344-1번지 1층 5호","indutype":"학원 - 예·체능계학원","category":"study"},{"name":"오남GNB영어학원","tel":"031-572-0533","addr":"경기도 남양주시 오남읍 오남리 344-1번지 3층 일부","indutype":"학원 - 보습학원","category":"study"}]},{"lat":"37.694442096","long":"127.21392093","imageIndex":16,"items":[{"name":"뉴오남고시텔","tel":"031-891-0015","addr":"경기도 남양주시 오남읍 오남리 134-10번지 오남프라자 3층","indutype":"학원 - 독서실","category":"study"},{"name":"오남고시원","tel":"031-575-5950","addr":"경기도 남양주시 오남읍 오남리 134-10번지 2층,3층","indutype":"학원 - 독서실","category":"study"}]},{"lat":"37.694024664","long":"127.21052963","imageIndex":16,"items":[{"name":"똑수학교습소","tel":"031-512-7211","addr":"경기도 남양주시 오남읍 오남리 720-40번지 영동빌딩 202호","indutype":"회원제형태 - 학원","category":"study"}]},{"lat":"37.681217406","long":"127.2131126","imageIndex":16,"items":[{"name":"레인보우유아체육","tel":"031-574-2147","addr":"경기도 남양주시 오남읍 오남리 386-14번지 오투빌 102동 502호","indutype":"학원 - 기타 교육기관","category":"study"}]},{"lat":"37.695184291","long":"127.20158689","imageIndex":16,"items":[{"name":"로뎀나무어린이집[아이행복]","tel":"031-576-2780","addr":"경기도 남양주시 오남읍 오남리 889번지 남양주오남푸르지오 110동 101호","indutype":"학원 - 유아원","category":"study"}]},{"lat":"37.689192161","long":"127.21242084","imageIndex":16,"items":[{"name":"루빙하우스","tel":"031-574-2022","addr":"경기도 남양주시 오남읍 오남리 683-27번지 대웅프라자 501호","indutype":"학원 - 독서실","category":"study"}]},{"lat":"37.689221172","long":"127.20613998","imageIndex":16,"items":[{"name":"마루유치원[아이행복]","tel":"031-574-3322","addr":"경기도 남양주시 오남읍 오남리 587-23번지","indutype":"학원 - 유치원","category":"study"}]},{"lat":"37.684519994","long":"127.21025372","imageIndex":16,"items":[{"name":"모두학원","tel":"031-528-1109","addr":"경기도 남양주시 오남읍 오남리 536번지 4층","indutype":"학원 - 보습학원","category":"study"},{"name":"미래연피아노미술학원","tel":"031-527-9090","addr":"경기도 남양주시 오남읍 오남리 536번지 2층","indutype":"학원 - 예·체능계학원","category":"study"}]},{"lat":"37.681915684","long":"127.21055255","imageIndex":16,"items":[{"name":"몬스터영어학원","tel":"031-527-4552","addr":"경기도 남양주시 오남읍 오남리 489-2번지 3동","indutype":"학원 - 외국어학원","category":"study"}]},{"lat":"37.679215034","long":"127.2092754","imageIndex":16,"items":[{"name":"뮤엠영어오남학원","tel":"031-527-4305","addr":"경기도 남양주시 오남읍 오남리 476-1 동명프라자205호206호","indutype":"학원 - 보습학원","category":"study"}]},{"lat":"37.696548291","long":"127.19947022","imageIndex":16,"items":[{"name":"뮤직차일드음악교습소","tel":"031-252-1232","addr":"경기도 남양주시 오남읍 오남리 891번지 오남아이파크 상가동 1층 204호","indutype":"학원 - 예·체능계학원","category":"study"},{"name":"아이꼬꼬마어린이집[아이행복]","tel":"031-571-1979","addr":"경기도 남양주시 오남읍 오남리 891번지","indutype":"학원 - 유아원","category":"study"},{"name":"아이파크해법수학교습소","tel":"031-563-2233","addr":"경기도 남양주시 오남읍 오남리 891번지 오남아이파크 상가동 202호","indutype":"학원 - 보습학원","category":"study"},{"name":"홍익키즈미술교습소","tel":"031-515-9055","addr":"경기도 남양주시 오남읍 오남리 891번지 오남아이파크 2층 203호","indutype":"학원 - 예·체능계학원","category":"study"}]},{"lat":"37.693832752","long":"127.21708254","imageIndex":16,"items":[{"name":"밀알성품어린이집[아이행복]","tel":"031-575-0030","addr":"경기도 남양주시 오남읍 오남리 50-1번지","indutype":"학원 - 유아원","category":"study"}]},{"lat":"37.683439365","long":"127.21502341","imageIndex":16,"items":[{"name":"발레놀이터","tel":"031-000-0000","addr":"경기도 남양주시 오남읍 오남리 301번지 토담마을 150호","indutype":"학원 - 예·체능계학원","category":"study"}]},{"lat":"37.678664952","long":"127.20955727","imageIndex":16,"items":[{"name":"브레이니영어학원","tel":"031-575-5220","addr":"경기도 남양주시 오남읍 오남리 476-2번지 동방프라자 3층","indutype":"회원제형태 - 학원","category":"study"}]},{"lat":"37.694053546","long":"127.21455476","imageIndex":16,"items":[{"name":"선무회무용학원","tel":"031-573-4996","addr":"경기도 남양주시 오남읍 오남리 135-10","indutype":"학원 - 예·체능계학원","category":"study"},{"name":"신쇼팽음악학원","tel":"031-575-3100","addr":"경기도 남양주시 오남읍 오남리 135-10번지 2층","indutype":"학원 - 예·체능계학원","category":"study"}]},{"lat":"37.678832802","long":"127.21145083","imageIndex":16,"items":[{"name":"셀라미술교습소","tel":"031-516-8558","addr":"경기도 남양주시 오남읍 오남리 415-1번지 위너스프라자 104호","indutype":"학원 - 예·체능계학원","category":"study"},{"name":"셀라실용음악학원","tel":"070-7555-3533","addr":"경기도 남양주시 오남읍 오남리 415-1번지","indutype":"회원제형태 - 학원","category":"study"}]},{"lat":"37.680854482","long":"127.20944999","imageIndex":16,"items":[{"name":"수와만남학원","tel":"031-528-7296","addr":"경기도 남양주시 오남읍 오남리 494-7번지 203호 한신2차상가","indutype":"학원 - 보습학원","category":"study"}]},{"lat":"37.687614698","long":"127.21285856","imageIndex":16,"items":[{"name":"숲속아이 놀이터","tel":"","addr":"경기도 남양주시 오남읍 오남리 250번지 오남리파라다이스빌아파트 103동 1501호","indutype":"학원 - 기타 교육기관","category":"study"}]},{"lat":"37.693466926","long":"127.21510866","imageIndex":16,"items":[{"name":"숲이랑흙이랑어린이집[아이행복]","tel":"031-574-2559","addr":"경기도 남양주시 오남읍 오남리 129-16번지","indutype":"학원 - 유아원","category":"study"},{"name":"일광주산학원","tel":"031-575-4983","addr":"경기도 남양주시 오남읍 오남리 129-16번지 3층","indutype":"학원 - 보습학원","category":"study"}]},{"lat":"37.681160815","long":"127.21452946","imageIndex":16,"items":[{"name":"시립푸른들보듬이나눔이어린이집[아이행복]","tel":"031-527-5611","addr":"경기도 남양주시 오남읍 오남리 365-3번지","indutype":"학원 - 유아원","category":"study"}]},{"lat":"37.689220377","long":"127.21175201","imageIndex":16,"items":[{"name":"신동화영어교습소","tel":"031-574-5559","addr":"경기도 남양주시 오남읍 오남리 683-7번지 진주상가 2층 206호","indutype":"회원제형태 - 학원","category":"study"},{"name":"아이러브피아노음악학원","tel":"031-513-7478","addr":"경기도 남양주시 오남읍 오남리 683-7번지 진주상가 207호","indutype":"학원 - 예·체능계학원","category":"study"},{"name":"용인대 백호태권도장","tel":"031-529-3880","addr":"경기도 남양주시 오남읍 오남리 683-7번지 204~205호","indutype":"학원 - 예·체능계학원","category":"study"}]},{"lat":"37.679209699","long":"127.21230208","imageIndex":16,"items":[{"name":"신일꼬마숲어린이집[아이행복]","tel":"031-529-9929","addr":"경기도 남양주시 오남읍 오남리 425번지 신일해피트리아파트 101동 101호","indutype":"학원 - 유아원","category":"study"}]},{"lat":"37.696768709","long":"127.1969423","imageIndex":16,"items":[{"name":"쏠티음악학원","tel":"031-574-3602","addr":"경기도 남양주시 오남읍 오남리 883-1번지 2층 202호","indutype":"학원 - 예·체능계학원","category":"study"}]},{"lat":"37.678051563","long":"127.209975","imageIndex":16,"items":[{"name":"아이원어린이집[아이행복]","tel":"031-575-5082","addr":"경기도 남양주시 오남읍 오남리 454-7번지","indutype":"학원 - 유아원","category":"study"}]},{"lat":"37.682389098","long":"127.2128665","imageIndex":16,"items":[{"name":"어람초등학교병설유치원[아이행복]","tel":"031-575-1795","addr":"경기도 남양주시 오남읍 오남리 358-5번지 어람초등학교","indutype":"학원 - 유치원","category":"study"}]},{"lat":"37.693437962","long":"127.21114025","imageIndex":16,"items":[{"name":"에코남양주협동조합","tel":"","addr":"경기도 남양주시 오남읍 오남리 164-3번지","indutype":"학원 - 기타 교육기관","category":"study"}]},{"lat":"37.687131616","long":"127.21091855","imageIndex":16,"items":[{"name":"엠베스트SE씨드학원","tel":"031-573-0503","addr":"경기도 남양주시 오남읍 오남리 258번지 3층","indutype":"학원 - 보습학원","category":"study"}]},{"lat":"37.678276026","long":"127.21041772","imageIndex":16,"items":[{"name":"오감오색미술학원","tel":"031-575-4801","addr":"경기도 남양주시 오남읍 오남리 454-1번지 외1필지 3층","indutype":"회원제형태 - 학원","category":"study"},{"name":"윤정현뮤직아카데미학원","tel":"031-574-3149","addr":"경기도 남양주시 오남읍 오남리 454-1번지 2층(외1필지영동프라자)","indutype":"학원 - 예·체능계학원","category":"study"},{"name":"하람수학학원","tel":"","addr":"경기도 남양주시 오남읍 오남리 454-1번지 2층 일부","indutype":"학원 - 보습학원","category":"study"}]},{"lat":"37.677829839","long":"127.21308037","imageIndex":16,"items":[{"name":"오남썸머힐어린이집","tel":"031-574-9648","addr":"경기도 남양주시 오남읍 오남리 429","indutype":"학원 - 유치원","category":"study"}]},{"lat":"37.689803198","long":"127.21332957","imageIndex":16,"items":[{"name":"오남이제마체질독서실","tel":"031-575-9535","addr":"경기도 남양주시 오남읍 오남리 202-3번지 2층","indutype":"학원 - 독서실","category":"study"}]},{"lat":"37.695081085","long":"127.21430824","imageIndex":16,"items":[{"name":"오남초등학교병설유치원[아이행복]","tel":"031-575-2233","addr":"경기도 남양주시 오남읍 오남리 134-1번지 오남초등학교","indutype":"학원 - 유치원","category":"study"}]},{"lat":"37.687777758","long":"127.21236018","imageIndex":16,"items":[{"name":"오남초심검도관","tel":"031-529-0466","addr":"경기도 남양주시 오남읍 오남리 246-2번지","indutype":"학원 - 예·체능계학원","category":"study"}]},{"lat":"37.696303878","long":"127.20016123","imageIndex":16,"items":[{"name":"오남하늘꿈어린이집[아이행복]","tel":"031-571-4766","addr":"경기도 남양주시 오남읍 오남리 891번지 오남아이파크 103동 101호","indutype":"학원 - 유아원","category":"study"}]},{"lat":"37.68222161","long":"127.21078013","imageIndex":16,"items":[{"name":"오렌지유치원[아이행복]","tel":"031-575-3377","addr":"경기도 남양주시 오남읍 오남리 346-2번지","indutype":"학원 - 유치원","category":"study"}]},{"lat":"37.685158493","long":"127.20575478","imageIndex":16,"items":[{"name":"오리나무토론논술학원","tel":"070-8253-3233","addr":"경기도 남양주시 오남읍 오남리 572-1번지 가동 2층","indutype":"학원 - 보습학원","category":"study"}]},{"lat":"37.693855722","long":"127.21433878","imageIndex":16,"items":[{"name":"용성태권도장","tel":"031-575-7854","addr":"경기도 남양주시 오남읍 오남리 131-4번지 3층","indutype":"학원 - 예·체능계학원","category":"study"}]},{"lat":"37.679077002","long":"127.21091873","imageIndex":16,"items":[{"name":"이화뮤직스쿨음악학원","tel":"031-513-8558","addr":"경기도 남양주시 오남읍 오남리 413-2번지 2층","indutype":"학원 - 예·체능계학원","category":"study"},{"name":"이화뮤직스쿨음악학원","tel":"031-513-8558","addr":"경기도 남양주시 오남읍 오남리 413-2번지 2층 전체","indutype":"학원 - 예·체능계학원","category":"study"}]},{"lat":"37.689297141","long":"127.20908793","imageIndex":16,"items":[{"name":"진주어린이집[아이행복]","tel":"031-575-8060","addr":"경기도 남양주시 오남읍 오남리 632-2번지","indutype":"학원 - 유아원","category":"study"}]},{"lat":"37.681744002","long":"127.21083548","imageIndex":16,"items":[{"name":"체크앤업학원","tel":"","addr":"경기도 남양주시 오남읍 오남리 393-1번지 제1동 1층일부","indutype":"학원 - 보습학원","category":"study"}]},{"lat":"37.693827105","long":"127.21522307","imageIndex":16,"items":[{"name":"타이거앤제이태권도","tel":"031-575-1011","addr":"경기도 남양주시 오남읍 오남리 129-2번지 201호","indutype":"학원 - 예·체능계학원","category":"study"}]},{"lat":"37.678358526","long":"127.2096131","imageIndex":16,"items":[{"name":"트루커피바리스타학원/몬스터 주식회사(Mon","tel":"031-000-0000","addr":"경기도 남양주시 오남읍 오남리 476-3번지","indutype":"학원 - 기능학원","category":"study"}]},{"lat":"37.683076261","long":"127.21149672","imageIndex":16,"items":[{"name":"하나어린이집[아이행복]","tel":"031-575-6600","addr":"경기도 남양주시 오남읍 오남리 341-2번지","indutype":"학원 - 유아원","category":"study"}]},{"lat":"37.682079112","long":"127.20983882","imageIndex":16,"items":[{"name":"한국체대바른태권도","tel":"031-529-8112","addr":"경기도 남양주시 오남읍 오남리 525번지 2층","indutype":"학원 - 예·체능계학원","category":"study"}]},{"lat":"37.677214843","long":"127.20930387","imageIndex":16,"items":[{"name":"해법영어 금호어울림교실","tel":"","addr":"경기도 남양주시 오남읍 오남리 464번지 남양주오남리금호어울림 110동 101호","indutype":"학원 - 기타 교육기관","category":"study"}]},{"lat":"37.696853348","long":"127.20023071","imageIndex":16,"items":[{"name":"해법영어교실","tel":"","addr":"경기도 남양주시 오남읍 오남리 891번지 오남아이파크 106동 102호","indutype":"학원 - 기타 교육기관","category":"study"}]}]