[{"lat":"36.97814162","long":"127.25604227","imageIndex":7,"items":[{"name":"(주)팜스코","tel":"031-720-7177","addr":"경기도 안성시 미양면 계륵리 273-4","indutype":"음료식품 - 기타음료식품","category":"food"},{"name":"(주)팜스코","tel":"043-535-6942","addr":"경기도 안성시 미양면 계륵리 273-4","indutype":"음료식품 - 정육점","category":"food"}]},{"lat":"36.980386587","long":"127.25963253","imageIndex":7,"items":[{"name":"에쓰푸드(주)","tel":"02-420-6071","addr":"경기도 안성시 미양면 계륵리 269-1번지","indutype":"음료식품 - 기타음료식품","category":"food"}]},{"lat":"36.981610379","long":"127.26040039","imageIndex":7,"items":[{"name":"한성청과","tel":"031-671-1372","addr":"경기도 안성시 미양면 계륵리 69-8","indutype":"음료식품 - 농·축·수산품","category":"food"}]},{"lat":"36.975662254","long":"127.2567079","imageIndex":17,"items":[{"name":"KAC","tel":"042-336-7171","addr":"경기도 안성시 미양면 계륵리 274-4번지","indutype":"서적문구 - 출판 및 인쇄물","category":"other"}]},{"lat":"36.975612494","long":"127.25468621","imageIndex":17,"items":[{"name":"금왕상사","tel":"031-676-0953","addr":"경기도 안성시 미양면 계륵리 201-1번지 라동 104호","indutype":"기타 - 기계공구","category":"other"},{"name":"길공구상사","tel":"031-671-0949","addr":"경기도 안성시 미양면 계륵리 201-1번지 나동 203호","indutype":"기타 - 기계공구","category":"other"},{"name":"부영철물","tel":"031-672-6951","addr":"경기도 안성시 미양면 계륵리 201-1","indutype":"건축자재 - 목재·석재·철물","category":"other"},{"name":"세기양행","tel":"031-676-8351","addr":"경기도 안성시 미양면 계륵리 201-1번지 라동 102호","indutype":"전기제품 - 냉열기기","category":"other"},{"name":"안성종합수지","tel":"031-671-3400","addr":"경기도 안성시 미양면 계륵리 201-1번지 안성기계공구유통상가 다동 201호","indutype":"건축자재 - 기타건축자재","category":"other"},{"name":"안성캐스터","tel":"031-675-3551","addr":"경기도 안성시 미양면 계륵리 201-1","indutype":"기타 - 기계공구","category":"other"},{"name":"에디스배관","tel":"031-673-5121","addr":"경기도 안성시 미양면 계륵리 201-1번지 다동 203호","indutype":"건축자재 - 기타건축자재","category":"other"},{"name":"유일볼트","tel":"031-675-0261","addr":"경기도 안성시 미양면 계륵리 201-1","indutype":"기타 - 기계공구","category":"other"},{"name":"제이에스산전주식회사","tel":"031-675-1788","addr":"경기도 안성시 미양면 계륵리 201-1번지 나동 206호","indutype":"전기제품 - 기타전기제품","category":"other"},{"name":"조은상사","tel":"031-676-8876","addr":"경기도 안성시 미양면 계륵리 201-1 나-208","indutype":"건축자재 - 기타건축자재","category":"other"},{"name":"주식회사명원텍","tel":"031-204-9186","addr":"경기도 안성시 미양면 계륵리 201-1 안성기계공구상가 나-204","indutype":"전기제품 - 기타전기제품","category":"other"},{"name":"진성포장공구철물","tel":"031-671-0409","addr":"경기도 안성시 미양면 계륵리 201-1번지 안성기계공구상가 가동 102호","indutype":"건축자재 - 목재·석재·철물","category":"other"},{"name":"한성초경","tel":"031-672-3208","addr":"경기도 안성시 미양면 계륵리 201-1번지 가동 104호","indutype":"기타 - 기계공구","category":"other"}]},{"lat":"36.97841355","long":"127.25101163","imageIndex":17,"items":[{"name":"대성중기특장","tel":"031-676-3498","addr":"경기도 안성시 미양면 계륵리 213-8번지","indutype":"건축자재 - 목재·석재·철물","category":"other"}]},{"lat":"36.981139902","long":"127.24854955","imageIndex":17,"items":[{"name":"대안미술공간 소나무","tel":"031-673-0904","addr":"경기도 안성시 미양면 계륵리 232-8번지","indutype":"문화.취미 - 화랑","category":"other"}]},{"lat":"36.977695689","long":"127.25387321","imageIndex":17,"items":[{"name":"씨유남안성IC점","tel":"031-677-2321","addr":"경기도 안성시 미양면 계륵리 190","indutype":"유통업 영리 - 편 의 점","category":"other"}]},{"lat":"36.977888035","long":"127.26082585","imageIndex":17,"items":[{"name":"안성공단우편취급소","tel":"031-677-7906","addr":"경기도 안성시 미양면 계륵리 271-3번지","indutype":"용역 서비스 - 공공요금대행서비스/소","category":"other"}]},{"lat":"36.977444991","long":"127.25735399","imageIndex":17,"items":[{"name":"안성마춤유기공방","tel":"031-675-2590","addr":"경기도 안성시 미양면 계륵리 273-9번지","indutype":"문화.취미 - 민예·공예품","category":"other"}]},{"lat":"36.978086932","long":"127.25207752","imageIndex":17,"items":[{"name":"안성종합파렛트","tel":"031-616-9990","addr":"경기도 안성시 미양면 계륵리 213-9번지","indutype":"건축자재 - 기타건축자재","category":"other"}]},{"lat":"36.981884413","long":"127.25868287","imageIndex":17,"items":[{"name":"안성컴퓨터","tel":"031-671-5359","addr":"경기도 안성시 미양면 계륵리 82-2 35/27","indutype":"회원제형태 - 기타3","category":"other"}]},{"lat":"36.976613913","long":"127.2541055","imageIndex":17,"items":[{"name":"이마트24 안성2공단점","tel":"","addr":"경기도 안성시 미양면 계륵리 193-1번지 101호","indutype":"유통업 영리 - 편 의 점","category":"other"},{"name":"이마트24안성2공단점","tel":"02-6916-1500","addr":"경기도 안성시 미양면 계륵리 193-1번지 101호","indutype":"유통업 영리 - 편 의 점","category":"other"}]},{"lat":"36.977752167","long":"127.2611511","imageIndex":17,"items":[{"name":"이마트24 안성산단점","tel":"031-677-1601","addr":"경기도 안성시 미양면 계륵리 271-11번지","indutype":"유통업 영리 - 편 의 점","category":"other"}]},{"lat":"36.97494642","long":"127.2543471","imageIndex":17,"items":[{"name":"일혜정밀","tel":"031-671-0944","addr":"경기도 안성시 미양면 계륵리 201번지 라동 101호","indutype":"기타 - 기계공구","category":"other"}]},{"lat":"36.981473966","long":"127.25254906","imageIndex":17,"items":[{"name":"주식회사 가온인더스트리","tel":"031-658-4440","addr":"경기도 안성시 미양면 계륵리 181-3번지","indutype":"신변잡화 - 기타잡화","category":"other"},{"name":"주식회사 케이티엘","tel":"031-671-1811","addr":"경기도 안성시 미양면 계륵리 181-3번지","indutype":"전기제품 - 기타전기제품","category":"other"}]},{"lat":"36.983247809","long":"127.25315014","imageIndex":17,"items":[{"name":"태영산업","tel":"031-674-3928","addr":"경기도 안성시 미양면 계륵리 137-7번지","indutype":"기타 - 기계공구","category":"other"}]},{"lat":"36.981137586","long":"127.2452924","imageIndex":17,"items":[{"name":"한국양봉농업협동조합","tel":"031-671-5000","addr":"경기도 안성시 미양면 계륵리 234-7번지","indutype":"유통업 비영리 - 농,축협 직영매장","category":"other"}]},{"lat":"36.977526706","long":"127.26124018","imageIndex":17,"items":[{"name":"한베결혼정보","tel":"031-673-7117","addr":"경기도 안성시 미양면 계륵리 271-9번지","indutype":"회원제형태 - 기타4","category":"other"}]},{"lat":"36.977609144","long":"127.26062276","imageIndex":4,"items":[{"name":"공단숯불갈비","tel":"031-677-4546","addr":"경기도 안성시 미양면 계륵리 271-6번지 1층","indutype":"일반휴게음식 - 일반한식","category":"restaurant"}]},{"lat":"36.976974244","long":"127.25415161","imageIndex":4,"items":[{"name":"김삿갓 2호점","tel":"031-676-8282","addr":"경기도 안성시 미양면 계륵리 192-1번지 1층","indutype":"일반휴게음식 - 중국식","category":"restaurant"}]},{"lat":"36.975612494","long":"127.25468621","imageIndex":4,"items":[{"name":"김진한식부페","tel":"031-672-8256","addr":"경기도 안성시 미양면 계륵리 201-1번지 가동 101호","indutype":"일반휴게음식 - 일반한식","category":"restaurant"},{"name":"나나식당","tel":"070-8200-6285","addr":"경기도 안성시 미양면 계륵리 201-1번지 라동 102호","indutype":"일반휴게음식 - 일반한식","category":"restaurant"},{"name":"메밀싹막국수칼국수","tel":"031-677-6051","addr":"경기도 안성시 미양면 계륵리 201-1","indutype":"일반휴게음식 - 일반한식","category":"restaurant"}]},{"lat":"36.976306504","long":"127.25459865","imageIndex":4,"items":[{"name":"대원식당","tel":"031-672-2071","addr":"경기도 안성시 미양면 계륵리 201-2번지","indutype":"일반휴게음식 - 일반한식","category":"restaurant"},{"name":"동해식당","tel":"031-677-6262","addr":"경기도 안성시 미양면 계륵리 201-2번지","indutype":"일반휴게음식 - 일반한식","category":"restaurant"},{"name":"훈이네식당","tel":"031-671-6688","addr":"경기도 안성시 미양면 계륵리 201-2번지","indutype":"일반휴게음식 - 일반한식","category":"restaurant"}]},{"lat":"36.976613913","long":"127.2541055","imageIndex":4,"items":[{"name":"빅쭌부대찌개","tel":"031-676-8689","addr":"경기도 안성시 미양면 계륵리 193-1번지 1동 1층","indutype":"일반휴게음식 - 일반한식","category":"restaurant"}]},{"lat":"36.977752167","long":"127.2611511","imageIndex":4,"items":[{"name":"소희네식당","tel":"031-675-3354","addr":"경기도 안성시 미양면 계륵리 271-11번지 1층","indutype":"일반휴게음식 - 일반한식","category":"restaurant"},{"name":"연흥분식","tel":"031-677-4670","addr":"경기도 안성시 미양면 계륵리 271-11번지","indutype":"일반휴게음식 - 일반한식","category":"restaurant"}]},{"lat":"36.977307875","long":"127.2540404","imageIndex":4,"items":[{"name":"용인토종순대국남안성IC점","tel":"031-672-8544","addr":"경기도 안성시 미양면 계륵리 192-7","indutype":"일반휴게음식 - 일반한식","category":"restaurant"}]},{"lat":"36.981249955","long":"127.25620981","imageIndex":4,"items":[{"name":"정성가득한 집","tel":"031-111-1111","addr":"경기도 안성시 미양면 계륵리 108-6번지","indutype":"일반휴게음식 - 일반한식","category":"restaurant"}]},{"lat":"36.978552578","long":"127.25346047","imageIndex":4,"items":[{"name":"카페오늘","tel":"01-4521-1982","addr":"경기도 안성시 미양면 계륵리 187-24번지","indutype":"일반휴게음식 - 서양음식","category":"restaurant"}]},{"lat":"36.976496132","long":"127.25440835","imageIndex":4,"items":[{"name":"카페정거장","tel":"031-676-9647","addr":"경기도 안성시 미양면 계륵리 201-8번지","indutype":"일반휴게음식 - 서양음식","category":"restaurant"}]},{"lat":"36.977307875","long":"127.2540404","imageIndex":7,"items":[{"name":"공단슈퍼","tel":"031-677-2313","addr":"경기도 안성시 미양면 계륵리 192-7","indutype":"유통업 영리 - 슈퍼마켓","category":"mart"}]},{"lat":"36.976306504","long":"127.25459865","imageIndex":7,"items":[{"name":"동해슈퍼","tel":"031-677-1885","addr":"경기도 안성시 미양면 계륵리 201-2번지","indutype":"유통업 영리 - 슈퍼마켓","category":"mart"}]},{"lat":"36.976613913","long":"127.2541055","imageIndex":13,"items":[{"name":"국화퀵대리운전","tel":"031-676-5544","addr":"경기도 안성시 미양면 계륵리 193-1번지 1층","indutype":"보건위생 - 기타대인서비스","category":"beauty"}]},{"lat":"36.974529618","long":"127.25543509","imageIndex":13,"items":[{"name":"극동골프연습장","tel":"031-677-3223","addr":"경기도 안성시 미양면 계륵리 201-4번지","indutype":"레저업소 - 골프연습장","category":"leisure"}]},{"lat":"36.983522326","long":"127.25115177","imageIndex":0,"items":[{"name":"남안성현대모터스 주식회사","tel":"031-671-1157","addr":"경기도 안성시 미양면 계륵리 142번지","indutype":"자동차정비 유지 - 자동차시트·타이어","category":"car"},{"name":"남안성현대모터스주식회사","tel":"031-671-1157","addr":"경기도 안성시 미양면 계륵리 142번지","indutype":"자동차정비 유지 - 자동차정비","category":"car"}]},{"lat":"36.975612494","long":"127.25468621","imageIndex":0,"items":[{"name":"비봉상사","tel":"031-673-0228","addr":"경기도 안성시 미양면 계륵리 201-1번지 안성기계공구상가 다동 203호","indutype":"자동차정비 유지 - 자동차부품","category":"car"}]},{"lat":"36.978390268","long":"127.25351609","imageIndex":0,"items":[{"name":"스마일모터스","tel":"031-675-0951","addr":"경기도 안성시 미양면 계륵리 187-7번지","indutype":"자동차정비 유지 - 자동차정비","category":"car"}]},{"lat":"36.982028341","long":"127.25029331","imageIndex":0,"items":[{"name":"안성현대서비스주식회사","tel":"031-671-0004","addr":"경기도 안성시 미양면 계륵리 224-1번지","indutype":"자동차정비 유지 - 자동차정비","category":"car"}]},{"lat":"36.981835619","long":"127.2519662","imageIndex":0,"items":[{"name":"주식회사 남안성특장모터스","tel":"031-671-1155","addr":"경기도 안성시 미양면 계륵리 149-8번지 1층","indutype":"자동차정비 유지 - 자동차정비","category":"car"}]},{"lat":"36.978999523","long":"127.25087876","imageIndex":0,"items":[{"name":"주식회사 유로트럭스","tel":"031-675-1900","addr":"경기도 안성시 미양면 계륵리 213-30번지","indutype":"자동차정비 유지 - 자동차정비","category":"car"}]},{"lat":"36.976496132","long":"127.25440835","imageIndex":0,"items":[{"name":"파인오토파트(주)","tel":"036-671-3516","addr":"경기도 안성시 미양면 계륵리 201-8번지 1층","indutype":"자동차정비 유지 - 자동차부품","category":"car"}]}]