[{"lat":"37.663100095","long":"126.8036845","imageIndex":7,"items":[{"name":"ALWAYSMART","tel":"031-903-1720","addr":"경기도 고양시 일산동구 풍동 150번지","indutype":"유통업 영리 - 슈퍼마켓","category":"mart"}]},{"lat":"37.667325835","long":"126.79853885","imageIndex":7,"items":[{"name":"GreenFarm","tel":"031-904-9789","addr":"경기도 고양시 일산동구 풍동 1279번지","indutype":"유통업 영리 - 슈퍼마켓","category":"mart"}]},{"lat":"37.671570109","long":"126.79895794","imageIndex":7,"items":[{"name":"뱅크슈퍼","tel":"031-818-6477","addr":"경기도 고양시 일산동구 풍동","indutype":"유통업 영리 - 슈퍼마켓","category":"mart"}]},{"lat":"37.671241193","long":"126.80154315","imageIndex":7,"items":[{"name":"숲속마트","tel":"031-907-5005","addr":"경기도 고양시 일산동구 풍동 1261번지 숲속마을7단지아파트","indutype":"유통업 영리 - 슈퍼마켓","category":"mart"}]},{"lat":"37.667938823","long":"126.79872986","imageIndex":7,"items":[{"name":"아이스가(풍동점)","tel":"02-1111-1111","addr":"경기도 고양시 일산동구 풍동 1273번지","indutype":"유통업 영리 - 슈퍼마켓","category":"mart"}]},{"lat":"37.672794057","long":"126.78803903","imageIndex":7,"items":[{"name":"에이스마트","tel":"031-904-3792","addr":"경기도 고양시 일산동구 풍동 1153-9번지","indutype":"유통업 영리 - 슈퍼마켓","category":"mart"}]},{"lat":"37.661933796","long":"126.79609431","imageIndex":7,"items":[{"name":"주식회사 이플러스","tel":"031-905-4585","addr":"경기도 고양시 일산동구 풍동 421-2번지","indutype":"유통업 영리 - 슈퍼마켓","category":"mart"}]},{"lat":"37.658796517","long":"126.80018283","imageIndex":7,"items":[{"name":"중앙마트","tel":"031-908-9380","addr":"경기도 고양시 일산동구 풍동 438-1번지","indutype":"유통업 영리 - 슈퍼마켓","category":"mart"}]},{"lat":"37.667238906","long":"126.80037522","imageIndex":7,"items":[{"name":"초록마을일산풍동점","tel":"031-906-6235","addr":"경기도 고양시 일산동구 풍동 1278번지","indutype":"유통업 영리 - 슈퍼마켓","category":"mart"}]},{"lat":"37.665436495","long":"126.80009677","imageIndex":7,"items":[{"name":"풍동복권판매점","tel":"031-906-2347","addr":"경기도 고양시 일산동구 풍동 1297-8번지","indutype":"유통업 영리 - 슈퍼마켓","category":"mart"}]},{"lat":"37.672993196","long":"126.79870467","imageIndex":7,"items":[{"name":"한국마트","tel":"031-901-4010","addr":"경기도 고양시 일산동구 풍동 1245번지","indutype":"유통업 영리 - 슈퍼마켓","category":"mart"}]}]