[{"lat":"37.296262818","long":"127.02797603","imageIndex":13,"items":[{"name":"OK노래연습장","tel":"031-242-3351","addr":"경기도 수원시 장안구 연무동 218번지 2층","indutype":"레저업소 - 노 래 방","category":"leisure"}]},{"lat":"37.293983976","long":"127.0241408","imageIndex":13,"items":[{"name":"광교볼링장","tel":"031-258-5256","addr":"경기도 수원시 장안구 연무동 251번지 광교프라자 지하층","indutype":"레저업소 - 볼 링 장","category":"leisure"},{"name":"방방스타","tel":"031-257-8799","addr":"경기도 수원시 장안구 연무동 251번지 광교프라자 402호","indutype":"레저업소 - 기타레져업소","category":"leisure"}]},{"lat":"37.299488095","long":"127.02974786","imageIndex":13,"items":[{"name":"광교산노래연습장","tel":"031-251-3777","addr":"경기도 수원시 장안구 연무동 8-10번지 지층","indutype":"레저업소 - 노 래 방","category":"leisure"}]},{"lat":"37.294425145","long":"127.02592284","imageIndex":13,"items":[{"name":"김삿갓노래연습장","tel":"031-247-0355","addr":"경기도 수원시 장안구 연무동 235-14번지 연무시장 205호","indutype":"레저업소 - 노 래 방","category":"leisure"},{"name":"이츠PC(IT''S PC)(연무점)","tel":"070-5337-2445","addr":"경기도 수원시 장안구 연무동 235-14번지 연무시장 2층 201,202호","indutype":"레저업소 - 기타레져업소","category":"leisure"}]},{"lat":"37.29826262","long":"127.03010834","imageIndex":13,"items":[{"name":"노리터당구장","tel":"031-242-5067","addr":"경기도 수원시 장안구 연무동 59-1번지 동문프라자 3층","indutype":"레저업소 - 당 구 장","category":"leisure"},{"name":"동문Q노래연습장","tel":"031-207-3277","addr":"경기도 수원시 장안구 연무동 59-1번지 동문프라자 4층","indutype":"레저업소 - 노 래 방","category":"leisure"}]},{"lat":"37.292397446","long":"127.02786197","imageIndex":13,"items":[{"name":"뉴팡팡 노래연습장","tel":"031-1111-1111","addr":"경기도 수원시 장안구 연무동 247-47번지","indutype":"레저업소 - 노 래 방","category":"leisure"}]},{"lat":"37.297397849","long":"127.02917192","imageIndex":13,"items":[{"name":"다바치당구클럽","tel":"031-244-6925","addr":"경기도 수원시 장안구 연무동 26번지 4층","indutype":"레저업소 - 당 구 장","category":"leisure"},{"name":"유림 노래연습장","tel":"","addr":"경기도 수원시 장안구 연무동 26번지 지층","indutype":"레저업소 - 노 래 방","category":"leisure"},{"name":"잼(ZAM) PC","tel":"070-5020-5336","addr":"경기도 수원시 장안구 연무동 26번지","indutype":"레저업소 - 기타레져업소","category":"leisure"}]},{"lat":"37.292648949","long":"127.03133559","imageIndex":13,"items":[{"name":"떳다노래연습장","tel":"031-256-2991","addr":"경기도 수원시 장안구 연무동 245-31번지","indutype":"레저업소 - 노 래 방","category":"leisure"}]},{"lat":"37.297875562","long":"127.02839387","imageIndex":13,"items":[{"name":"로웰pc(경기대점-BHC)","tel":"031-304-0910","addr":"경기도 수원시 장안구 연무동 21번지 유천프라자상가 115가,115라","indutype":"레저업소 - 기타레져업소","category":"leisure"}]},{"lat":"37.292820903","long":"127.02797489","imageIndex":13,"items":[{"name":"리디자인골프","tel":"","addr":"경기도 수원시 장안구 연무동 248-15번지 3동 302호","indutype":"레저업소 - 골프연습장","category":"leisure"}]},{"lat":"37.292621972","long":"127.03111002","imageIndex":13,"items":[{"name":"메카헬스클럽","tel":"031-258-0820","addr":"경기도 수원시 장안구 연무동 245-32번지 호영빌딩","indutype":"레저업소 - 헬스클럽","category":"leisure"},{"name":"케이원당구장","tel":"031-232-1368","addr":"경기도 수원시 장안구 연무동 245-32번지 호영빌딩","indutype":"레저업소 - 당 구 장","category":"leisure"},{"name":"테마노래연습장","tel":"031-251-4006","addr":"경기도 수원시 장안구 연무동 245-32번지","indutype":"레저업소 - 노 래 방","category":"leisure"}]},{"lat":"37.295731652","long":"127.02581045","imageIndex":13,"items":[{"name":"반도당구장","tel":"031-890-1162","addr":"경기도 수원시 장안구 연무동 233-21번지 2층","indutype":"레저업소 - 당 구 장","category":"leisure"},{"name":"제이비복싱짐","tel":"031-243-6952","addr":"경기도 수원시 장안구 연무동 233-21번지 방내과소아과 3층 302호","indutype":"레저업소 - 헬스클럽","category":"leisure"}]},{"lat":"37.292982409","long":"127.03099738","imageIndex":13,"items":[{"name":"불나비 노래연습장","tel":"031-251-3255","addr":"경기도 수원시 장안구 연무동 245-49번지 송원빌딩 지하1층","indutype":"레저업소 - 노 래 방","category":"leisure"}]},{"lat":"37.297425081","long":"127.0282471","imageIndex":13,"items":[{"name":"세븐당구클럽","tel":"031-252-9880","addr":"경기도 수원시 장안구 연무동 212-14번지 2층","indutype":"레저업소 - 당 구 장","category":"leisure"},{"name":"쓰리팝피시(3 POP PC)","tel":"070-8768-7317","addr":"경기도 수원시 장안구 연무동 212-14번지 3층","indutype":"레저업소 - 기타레져업소","category":"leisure"}]},{"lat":"37.29987537","long":"127.03046984","imageIndex":13,"items":[{"name":"스타당구장","tel":"031-3939-3239","addr":"경기도 수원시 장안구 연무동 6-4번지 2층","indutype":"레저업소 - 당 구 장","category":"leisure"}]},{"lat":"37.296731362","long":"127.0279198","imageIndex":13,"items":[{"name":"쎄븐노래연습장","tel":"031-241-2485","addr":"경기도 수원시 장안구 연무동 216-20번지","indutype":"레저업소 - 노 래 방","category":"leisure"},{"name":"짱구당구장","tel":"031-245-7888","addr":"경기도 수원시 장안구 연무동 216-20번지 3층","indutype":"레저업소 - 당 구 장","category":"leisure"}]},{"lat":"37.294398039","long":"127.02630628","imageIndex":13,"items":[{"name":"쎄이노래연습장","tel":"031-256-0711","addr":"경기도 수원시 장안구 연무동 236번지 지하","indutype":"레저업소 - 노 래 방","category":"leisure"}]},{"lat":"37.296596225","long":"127.02784081","imageIndex":13,"items":[{"name":"아이비스PC","tel":"031-8003-4653","addr":"경기도 수원시 장안구 연무동 216-22번지 2층","indutype":"레저업소 - 기타레져업소","category":"leisure"}]},{"lat":"37.297064465","long":"127.02919436","imageIndex":13,"items":[{"name":"애플노래연습장","tel":"031-248-9939","addr":"경기도 수원시 장안구 연무동 213-16 에이동지층","indutype":"레저업소 - 노 래 방","category":"leisure"}]},{"lat":"37.298848399","long":"127.02961229","imageIndex":13,"items":[{"name":"영 노래연습장","tel":"031-258-0078","addr":"경기도 수원시 장안구 연무동 11-45번지 지하1층","indutype":"레저업소 - 노 래 방","category":"leisure"}]},{"lat":"37.294983671","long":"127.02647563","imageIndex":13,"items":[{"name":"오케이(OK)당구장","tel":"031-277-8855","addr":"경기도 수원시 장안구 연무동 234-4번지 3층","indutype":"레저업소 - 당 구 장","category":"leisure"}]},{"lat":"37.298929427","long":"127.02989429","imageIndex":13,"items":[{"name":"질러넷노래연습장","tel":"031-254-3937","addr":"경기도 수원시 장안구 연무동 8-9번지 팔복빌딩 지층","indutype":"레저업소 - 노 래 방","category":"leisure"},{"name":"포커스당구장","tel":"031-244-3979","addr":"경기도 수원시 장안구 연무동 8-9","indutype":"레저업소 - 당 구 장","category":"leisure"}]},{"lat":"37.292820203","long":"127.03108754","imageIndex":13,"items":[{"name":"짱노래연습장","tel":"031-253-0260","addr":"경기도 수원시 장안구 연무동 245-1번지 지하","indutype":"레저업소 - 노 래 방","category":"leisure"}]},{"lat":"37.299569141","long":"127.02995091","imageIndex":13,"items":[{"name":"챌린저 코어 필라테스","tel":"","addr":"경기도 수원시 장안구 연무동 8-2번지 4층","indutype":"레저업소 - 헬스클럽","category":"leisure"}]},{"lat":"37.29548829","long":"127.02625023","imageIndex":13,"items":[{"name":"챌린지복싱","tel":"031-245-3321","addr":"경기도 수원시 장안구 연무동 233-15번지 3층","indutype":"레저업소 - 헬스클럽","category":"leisure"}]},{"lat":"37.297569088","long":"127.02896897","imageIndex":13,"items":[{"name":"콜노래연습장","tel":"031-246-7698","addr":"경기도 수원시 장안구 연무동 27-1번지 2층","indutype":"레저업소 - 노 래 방","category":"leisure"}]},{"lat":"37.297343928","long":"127.02852903","imageIndex":13,"items":[{"name":"킹PC","tel":"070-8816-1183","addr":"경기도 수원시 장안구 연무동 213번지","indutype":"레저업소 - 기타레져업소","category":"leisure"}]},{"lat":"37.297316836","long":"127.02881099","imageIndex":13,"items":[{"name":"토토노래연습장","tel":"031-242-5308","addr":"경기도 수원시 장안구 연무동 213-2번지","indutype":"레저업소 - 노 래 방","category":"leisure"}]},{"lat":"37.296731297","long":"127.02822431","imageIndex":13,"items":[{"name":"팡팡 노래연습장","tel":"031-241-0983","addr":"경기도 수원시 장안구 연무동 215-9번지 지하층","indutype":"레저업소 - 노 래 방","category":"leisure"}]},{"lat":"37.29390255","long":"127.02592268","imageIndex":13,"items":[{"name":"풀타임PC방","tel":"070-9747-8318","addr":"경기도 수원시 장안구 연무동 249번지 3층","indutype":"레저업소 - 기타레져업소","category":"leisure"}]}]