[{"lat":"37.296236811","long":"126.98322402","imageIndex":8,"items":[{"name":"경희화인한의원","tel":"031-269-8275","addr":"경기도 수원시 장안구 천천동 527-8번지 강민크리닉 301호","indutype":"의원 - 한의원","category":"medical"},{"name":"한정훈정형외과의원","tel":"031-268-8272","addr":"경기도 수원시 장안구 천천동 527-8번지 (202호,203호)","indutype":"의원 - 의원","category":"medical"},{"name":"화인내과","tel":"031-269-8874","addr":"경기도 수원시 장안구 천천동 527-8번지 화인클리닉 302호","indutype":"의원 - 의원","category":"medical"},{"name":"화인서울치과의원","tel":"031-269-2805","addr":"경기도 수원시 장안구 천천동 527-8번지 화인클리닉빌딩 401,402호","indutype":"의원 - 치과의원","category":"medical"},{"name":"화인오세오안과의원","tel":"031-245-5350","addr":"경기도 수원시 장안구 천천동 527-8번지 강민크리닉 2층 201호","indutype":"의원 - 의원","category":"medical"}]},{"lat":"37.297011497","long":"126.98208471","imageIndex":8,"items":[{"name":"광제당약국","tel":"031-269-3632","addr":"경기도 수원시 장안구 천천동 524-2번지 그린프라자 104호","indutype":"약국 - 약국","category":"medical"},{"name":"베스트경희한의원","tel":"031-269-1520","addr":"경기도 수원시 장안구 천천동 524-2번지 천천동그린프라자 302호","indutype":"의원 - 한의원","category":"medical"},{"name":"서울수석치과","tel":"031-269-2895","addr":"경기도 수원시 장안구 천천동 524-2번지 천천그린프라자 401호","indutype":"의원 - 치과의원","category":"medical"},{"name":"한상길내과의원","tel":"031-269-3036","addr":"경기도 수원시 장안구 천천동 524-2번지 천천그린프라자 301호","indutype":"의원 - 의원","category":"medical"}]},{"lat":"37.295516057","long":"126.98361894","imageIndex":8,"items":[{"name":"광희한의원","tel":"031-269-2000","addr":"경기도 수원시 장안구 천천동 528-4번지 태영프자라 4층 402호","indutype":"의원 - 한의원","category":"medical"},{"name":"기쁜마음정신건강의학과의원","tel":"","addr":"경기도 수원시 장안구 천천동 528-4번지 태영프라자 2층 209호","indutype":"의원 - 의원","category":"medical"},{"name":"수원고은치과의원","tel":"031-269-8277","addr":"경기도 수원시 장안구 천천동 528-4번지","indutype":"의원 - 치과의원","category":"medical"},{"name":"엄마마음소아청소년과의원","tel":"031-271-8275","addr":"경기도 수원시 장안구 천천동 528-4번지 태영프자라 209호","indutype":"의원 - 의원","category":"medical"},{"name":"장미인피부과의원","tel":"031-271-5050","addr":"경기도 수원시 장안구 천천동 528-4번지 태영프자라 303호","indutype":"의원 - 의원","category":"medical"}]},{"lat":"37.295398883","long":"126.98337085","imageIndex":8,"items":[{"name":"구암허준한의원","tel":"031-268-1075","addr":"경기도 수원시 장안구 천천동 528-3 대일프라자201호~202호","indutype":"의원 - 한의원","category":"medical"},{"name":"미소약국","tel":"031-269-6645","addr":"경기도 수원시 장안구 천천동 528-3번지 대일프라자","indutype":"약국 - 약국","category":"medical"},{"name":"천천 굿모닝약국","tel":"031-269-2500","addr":"경기도 수원시 장안구 천천동 528-3번지 대일 101호","indutype":"약국 - 약국","category":"medical"},{"name":"한마음소아청소년과의원","tel":"031-269-7559","addr":"경기도 수원시 장안구 천천동 528-3번지 대일프라자 203호","indutype":"의원 - 의원","category":"medical"}]},{"lat":"37.297092635","long":"126.98234409","imageIndex":8,"items":[{"name":"다니치과의원","tel":"031-207-7528","addr":"경기도 수원시 장안구 천천동 524-3번지 5층","indutype":"의원 - 치과의원","category":"medical"},{"name":"맑은숲태강한의원","tel":"031-252-6655","addr":"경기도 수원시 장안구 천천동 524-3번지 경기서적 4층 404호","indutype":"의원 - 한의원","category":"medical"},{"name":"베스트동물병원","tel":"031-268-7582","addr":"경기도 수원시 장안구 천천동 524-3번지 경기서적 1층 101호","indutype":"기타의료기관 - 동물병원","category":"medical"},{"name":"베스트약국","tel":"031-258-1667","addr":"경기도 수원시 장안구 천천동 524-3번지 3층","indutype":"약국 - 약국","category":"medical"},{"name":"피엔알신경외과의원","tel":"031-256-7114","addr":"경기도 수원시 장안구 천천동 524-3번지 로얄프라자 4층","indutype":"의원 - 의원","category":"medical"}]},{"lat":"37.296119642","long":"126.98300977","imageIndex":8,"items":[{"name":"더오케이치과의원","tel":"031-269-8853","addr":"경기도 수원시 장안구 천천동 527-7번지 센타프라자 2층 202호","indutype":"의원 - 치과의원","category":"medical"}]},{"lat":"37.296452987","long":"126.98280667","imageIndex":8,"items":[{"name":"미소인치과의원","tel":"031-296-8275","addr":"경기도 수원시 장안구 천천동 527-4 광장프라자502","indutype":"의원 - 치과의원","category":"medical"}]},{"lat":"37.289514277","long":"126.97845551","imageIndex":8,"items":[{"name":"민들레한의원","tel":"031-295-1555","addr":"경기도 수원시 장안구 천천동 365-5번지 TQ빌딩 3층","indutype":"의원 - 한의원","category":"medical"},{"name":"새롬약국","tel":"031-291-6129","addr":"경기도 수원시 장안구 천천동 365-5번지 TQ빌딩 1층 102호","indutype":"약국 - 약국","category":"medical"},{"name":"수가정의학과의원","tel":"031-278-1310","addr":"경기도 수원시 장안구 천천동 365-5번지 TQ빌딩 2층","indutype":"의원 - 의원","category":"medical"}]},{"lat":"37.300839915","long":"126.97731267","imageIndex":8,"items":[{"name":"샘약국","tel":"031-271-2178","addr":"경기도 수원시 장안구 천천동 571-5번지 골든프라자 1층 109호","indutype":"약국 - 약국","category":"medical"},{"name":"양지한의원","tel":"031-269-3813","addr":"경기도 수원시 장안구 천천동 571-5번지 골든프라자 205호","indutype":"의원 - 한의원","category":"medical"},{"name":"행복한가정의학과의원","tel":"031-269-0092","addr":"경기도 수원시 장안구 천천동 571-5번지","indutype":"의원 - 의원","category":"medical"}]},{"lat":"37.29165045","long":"126.98236812","imageIndex":8,"items":[{"name":"서울소아청소년과의원","tel":"031-293-9618","addr":"경기도 수원시 장안구 천천동 334-2번지 천천 푸르지오 정문상가 201호","indutype":"의원 - 의원","category":"medical"}]},{"lat":"37.295984549","long":"126.9833707","imageIndex":8,"items":[{"name":"서울올(all)바른치과","tel":"031-548-2285","addr":"경기도 수원시 장안구 천천동 527-9번지 천경빌딩 3층 2호","indutype":"의원 - 치과의원","category":"medical"}]},{"lat":"37.297209821","long":"126.98264857","imageIndex":8,"items":[{"name":"서울하이치과","tel":"031-268-2275","addr":"경기도 수원시 장안구 천천동 524-4번지 해든타워 3층 303호","indutype":"의원 - 치과의원","category":"medical"}]},{"lat":"37.303091773","long":"126.97425523","imageIndex":8,"items":[{"name":"소담동물병원","tel":"031-269-1121","addr":"경기도 수원시 장안구 천천동 548-7번지","indutype":"기타의료기관 - 동물병원","category":"medical"}]},{"lat":"37.29490311","long":"126.98214168","imageIndex":8,"items":[{"name":"신세계의원","tel":"031-271-2251","addr":"경기도 수원시 장안구 천천동 522번지 2층","indutype":"의원 - 의원","category":"medical"}]},{"lat":"37.295903415","long":"126.9831226","imageIndex":8,"items":[{"name":"압구정코아지앤미의원","tel":"031-255-3705","addr":"경기도 수원시 장안구 천천동 527-10번지","indutype":"의원 - 의원","category":"medical"}]},{"lat":"37.29667822","long":"126.98267127","imageIndex":8,"items":[{"name":"엔젤아이치과의원","tel":"031-251-0275","addr":"경기도 수원시 장안구 천천동 527-1번지 롯데프라자 401호","indutype":"의원 - 치과의원","category":"medical"},{"name":"탱자한의원","tel":"031-269-7580","addr":"경기도 수원시 장안구 천천동 527-1번지 롯데프라자 403호","indutype":"의원 - 한의원","category":"medical"}]},{"lat":"37.296543128","long":"126.98303221","imageIndex":8,"items":[{"name":"최상묵소아과의원","tel":"031-269-9565","addr":"경기도 수원시 장안구 천천동 527-3번지 부강프라자 303호","indutype":"의원 - 의원","category":"medical"},{"name":"파티마약국","tel":"031-271-9119","addr":"경기도 수원시 장안구 천천동 527-3번지 부강프라자 104호","indutype":"약국 - 약국","category":"medical"},{"name":"한빛동물병원","tel":"031-252-2119","addr":"경기도 수원시 장안구 천천동 527-3번지 연번지 105호","indutype":"기타의료기관 - 동물병원","category":"medical"},{"name":"함소아한의원(북수원)","tel":"031-271-1275","addr":"경기도 수원시 장안구 천천동 527-3번지 부강프라자 402호","indutype":"의원 - 한의원","category":"medical"}]},{"lat":"37.295317744","long":"126.98308892","imageIndex":8,"items":[{"name":"키즈앤맘한의원","tel":"031-269-3636","addr":"경기도 수원시 장안구 천천동 528-2번지 중앙프라자 3층 303호","indutype":"의원 - 한의원","category":"medical"}]},{"lat":"37.291460876","long":"126.98039461","imageIndex":8,"items":[{"name":"토마토약국","tel":"031-295-7281","addr":"경기도 수원시 장안구 천천동 333번지 대우푸르지오 주상가 215호","indutype":"약국 - 약국","category":"medical"}]},{"lat":"37.294181945","long":"126.98025846","imageIndex":8,"items":[{"name":"푸른약국","tel":"031-278-7947","addr":"경기도 수원시 장안구 천천동 334-1번지 303-2호,304호","indutype":"약국 - 약국","category":"medical"}]},{"lat":"37.289847609","long":"126.97822985","imageIndex":8,"items":[{"name":"행복한나무치과의원","tel":"031-278-2845","addr":"경기도 수원시 장안구 천천동 361번지 2층","indutype":"의원 - 치과의원","category":"medical"}]}]