[{"lat":"37.240768592","long":"127.17746482","imageIndex":7,"items":[{"name":"(주) 신우웰 용인시청점","tel":"031-324-4808","addr":"경기도 용인시 처인구 삼가동 556번지 용인시청 2층","indutype":"음료식품 - 기타음료식품","category":"food"}]},{"lat":"37.237606379","long":"127.17718706","imageIndex":7,"items":[{"name":"EM 아로니아","tel":"02-535-7551","addr":"경기도 용인시 처인구 삼가동 241-31번지 장군원룸 B01호","indutype":"음료식품 - 농·축·수산품","category":"food"}]},{"lat":"37.241545325","long":"127.16993821","imageIndex":7,"items":[{"name":"꺼내먹어요","tel":"","addr":"경기도 용인시 처인구 삼가동 200-26번지 B동 1층 103호","indutype":"음료식품 - 기타음료식품","category":"food"}]},{"lat":"37.243107686","long":"127.1673833","imageIndex":7,"items":[{"name":"농업회사법인 초하 주식회사","tel":"","addr":"경기도 용인시 처인구 삼가동 208-10번지","indutype":"음료식품 - 농·축·수산품","category":"food"}]},{"lat":"37.238018826","long":"127.17237592","imageIndex":7,"items":[{"name":"다우돈축산","tel":"","addr":"경기도 용인시 처인구 삼가동 552번지 행정타운늘푸른오스카빌 상가동 107호","indutype":"음료식품 - 정육점","category":"food"}]},{"lat":"37.24871794","long":"127.16312374","imageIndex":7,"items":[{"name":"디앤비푸드 (D&B FOOD)","tel":"02-1111-1111","addr":"경기도 용인시 처인구 삼가동 39-38번지 소플러스 다동 1층","indutype":"음료식품 - 농·축·수산품","category":"food"}]},{"lat":"37.239161775","long":"127.17332513","imageIndex":7,"items":[{"name":"떡고을","tel":"031-337-3222","addr":"경기도 용인시 처인구 삼가동 250-32,39인앤인프라자102","indutype":"음료식품 - 제과점","category":"food"}]},{"lat":"37.234741953","long":"127.15707649","imageIndex":7,"items":[{"name":"로만바스 여탕매점","tel":"031-335-1118","addr":"경기도 용인시 처인구 삼가동 419-3번지 1층","indutype":"음료식품 - 기타음료식품","category":"food"}]},{"lat":"37.241799103","long":"127.16887938","imageIndex":7,"items":[{"name":"모델링클럽","tel":"031-336-1259","addr":"경기도 용인시 처인구 삼가동 207-3번지","indutype":"건강식품 - 기타건강식품","category":"food"}]},{"lat":"37.240378988","long":"127.16635181","imageIndex":7,"items":[{"name":"밥이랑반찬이랑","tel":"","addr":"경기도 용인시 처인구 삼가동 186-1번지 105호","indutype":"음료식품 - 기타음료식품","category":"food"},{"name":"춤추는빵집","tel":"031-323-0259","addr":"경기도 용인시 처인구 삼가동 186-1번지 103호","indutype":"음료식품 - 제과점","category":"food"}]},{"lat":"37.226608742","long":"127.16812494","imageIndex":7,"items":[{"name":"산정대매점","tel":"031-8020-3905","addr":"경기도 용인시 처인구 삼가동 470 용인대학교산업정보대학지하1층","indutype":"음료식품 - 기타음료식품","category":"food"}]},{"lat":"37.241546071","long":"127.16940852","imageIndex":7,"items":[{"name":"삼거리방아간","tel":"031-335-7979","addr":"경기도 용인시 처인구 삼가동 202-5","indutype":"음료식품 - 제과점","category":"food"}]},{"lat":"37.241135666","long":"127.16648869","imageIndex":7,"items":[{"name":"주식회사 에스제이씨앤씨","tel":"031-423-4705","addr":"경기도 용인시 처인구 삼가동 177-8번지","indutype":"음료식품 - 기타음료식품","category":"food"}]},{"lat":"37.241412323","long":"127.16840519","imageIndex":7,"items":[{"name":"직거래수산9900원","tel":"031-334-8989","addr":"경기도 용인시 처인구 삼가동 203-1번지 105,106호","indutype":"음료식품 - 농·축·수산품","category":"food"}]},{"lat":"37.245883","long":"127.16066072","imageIndex":7,"items":[{"name":"해동미트","tel":"031-774-5290","addr":"경기도 용인시 처인구 삼가동 146-8번지 101호","indutype":"음료식품 - 정육점","category":"food"}]},{"lat":"37.243160398","long":"127.16835266","imageIndex":7,"items":[{"name":"헬로 건어물언니","tel":"070-4650-9621","addr":"경기도 용인시 처인구 삼가동 109-16번지 B101호","indutype":"음료식품 - 농·축·수산품","category":"food"}]},{"lat":"37.240463549","long":"127.170319","imageIndex":7,"items":[{"name":"황당한수산장어","tel":"031-321-9290","addr":"경기도 용인시 처인구 삼가동 197-3번지 1층","indutype":"음료식품 - 농·축·수산품","category":"food"}]}]