[{"lat":"37.866194625","long":"127.18980559","imageIndex":17,"items":[{"name":"(사)경기도중소기업CEO연합회 포천지회","tel":"031-531-6111","addr":"경기도 포천시 가산면 감암리 472번지","indutype":"기타 - 비영리/비대상","category":"other"}]},{"lat":"37.848667679","long":"127.19213596","imageIndex":17,"items":[{"name":"경기천막공사","tel":"031-543-6200","addr":"경기도 포천시 가산면 감암리 189번지","indutype":"직물 - 카페트,커튼,천막,지물","category":"other"}]},{"lat":"37.868055677","long":"127.18654859","imageIndex":17,"items":[{"name":"네옴","tel":"031-542-9156","addr":"경기도 포천시 가산면 감암리 451-1번지, 외1필지","indutype":"가구 - 일반가구","category":"other"}]},{"lat":"37.856166588","long":"127.18443967","imageIndex":17,"items":[{"name":"담뱅이구판장","tel":"544-1941","addr":"경기도 포천시 가산면 감암리 243-3번지","indutype":"소매업 - 잡화,담배","category":"other"}]},{"lat":"37.869224664","long":"127.18797211","imageIndex":17,"items":[{"name":"동원퍼니처","tel":"031-541-6671","addr":"경기도 포천시 가산면 감암리 533-1번지","indutype":"건축자재 - 목재·석재·철물","category":"other"}]},{"lat":"37.86424816","long":"127.19008477","imageIndex":17,"items":[{"name":"성광케미칼","tel":"02-309-8697","addr":"경기도 포천시 가산면 감암리 47-4","indutype":"유통업 영리 - 기타유통업","category":"other"}]},{"lat":"37.865364972","long":"127.19030352","imageIndex":17,"items":[{"name":"성찬과학","tel":"031-541-0586","addr":"경기도 포천시 가산면 감암리 74","indutype":"서적문구 - 과학기자재","category":"other"}]},{"lat":"37.864860975","long":"127.18997268","imageIndex":17,"items":[{"name":"세진목재","tel":"031-536-7833","addr":"경기도 포천시 가산면 감암리 48번지","indutype":"가구 - 일반가구","category":"other"}]},{"lat":"37.86531021","long":"127.19074659","imageIndex":17,"items":[{"name":"소흘환경","tel":"031-533-0919","addr":"경기도 포천시 가산면 감암리 72-7","indutype":"용역 서비스 - 종합용역","category":"other"}]},{"lat":"37.869114365","long":"127.18935836","imageIndex":17,"items":[{"name":"승리정밀","tel":"031-536-5007","addr":"경기도 포천시 가산면 감암리 531-5번지","indutype":"기타 - 기계공구","category":"other"}]},{"lat":"37.84942344","long":"127.19277416","imageIndex":17,"items":[{"name":"신광지게차","tel":"031-534-5300","addr":"경기도 포천시 가산면 감암리 184-1","indutype":"기타 - 기계공구","category":"other"},{"name":"정오중기","tel":"031-559-9400","addr":"경기도 포천시 가산면 감암리 184-1","indutype":"기타 - 기계공구","category":"other"}]},{"lat":"37.848918916","long":"127.19277286","imageIndex":17,"items":[{"name":"아루플레르(ARU FLEUR)","tel":"031-543-5882","addr":"경기도 포천시 가산면 감암리 188번지 가산빌라 204호","indutype":"문화.취미 - 화원","category":"other"}]},{"lat":"37.866501644","long":"127.18936314","imageIndex":17,"items":[{"name":"주식회사씨앤피","tel":"031-533-4780","addr":"경기도 포천시 가산면 감암리 471","indutype":"서적문구 - 문구용품","category":"other"}]},{"lat":"37.850946281","long":"127.18693791","imageIndex":17,"items":[{"name":"햇살태수농원","tel":"031-544-7781","addr":"경기도 포천시 가산면 감암리 200-2번지","indutype":"회원제형태 - 기타1","category":"other"}]},{"lat":"37.849891247","long":"127.19319575","imageIndex":17,"items":[{"name":"현대지게차","tel":"031-542-3001","addr":"경기도 포천시 가산면 감암리 185-10번지","indutype":"기타 - 기계공구","category":"other"}]},{"lat":"37.848837987","long":"127.18700084","imageIndex":17,"items":[{"name":"화산떡 방앗간","tel":"544-1871","addr":"경기도 포천시 가산면 감암리 197-10번지","indutype":"제조업 - 떡집","category":"other"}]},{"lat":"37.849304477","long":"127.18827453","imageIndex":16,"items":[{"name":"경북중학교","tel":"031-544-1815","addr":"경기도 포천시 가산면 감암리 194번지 경북중학교","indutype":"학원 - 초중고교육기관","category":"study"}]},{"lat":"37.86819989","long":"127.19219726","imageIndex":16,"items":[{"name":"유암초등학교","tel":"","addr":"경기도 포천시 가산면 감암리 503-1번지 유암초등학교","indutype":"학원 - 초중고교육기관","category":"study"}]},{"lat":"37.869196114","long":"127.18893806","imageIndex":4,"items":[{"name":"구름산추어탕","tel":"070-7543-0803","addr":"경기도 포천시 가산면 감암리 531-2번지","indutype":"음식 - 한식","category":"restaurant"},{"name":"구름산추어탕","tel":"","addr":"경기도 포천시 가산면 감암리 531-2번지 1층","indutype":"일반휴게음식 - 일반한식","category":"restaurant"}]},{"lat":"37.848667679","long":"127.19213596","imageIndex":4,"items":[{"name":"생생민물매운탕","tel":"031-543-4914","addr":"경기도 포천시 가산면 감암리 189번지 B동 1층","indutype":"일반휴게음식 - 일반한식","category":"restaurant"}]},{"lat":"37.848667679","long":"127.19213596","imageIndex":13,"items":[{"name":"더 힐링테라피","tel":"031-542-0547","addr":"경기도 포천시 가산면 감암리 189번지 1층","indutype":"보건위생 - 미용재료","category":"beauty"}]},{"lat":"37.868361071","long":"127.18714032","imageIndex":13,"items":[{"name":"주식회사 레스포","tel":"031-111-1111","addr":"경기도 포천시 가산면 감암리 457-1번지","indutype":"보건위생 - 미용재료","category":"beauty"}]},{"lat":"37.85058916","long":"127.19058426","imageIndex":13,"items":[{"name":"삼송","tel":"031-543-5636","addr":"경기도 포천시 가산면 감암리 187-3번지","indutype":"레저업소 - 골프연습장","category":"leisure"}]},{"lat":"37.867838014","long":"127.18746859","imageIndex":7,"items":[{"name":"열방유통","tel":"031-533-3461","addr":"경기도 포천시 가산면 감암리 451-8번지 외1필지 E동","indutype":"음료식품 - 기타음료식품","category":"food"}]}]