[{"lat":"37.281464398","long":"127.16082517","imageIndex":13,"items":[{"name":"네임드짐요가","tel":"031-284-8837","addr":"경기도 용인시 기흥구 동백동 597-1번지 미래도프라자 302호","indutype":"레저업소 - 헬스클럽","category":"leisure"},{"name":"주식회사 엘티씨퍼포먼스","tel":"031-284-8837","addr":"경기도 용인시 기흥구 동백동 597-1번지 미래도프라자 302호","indutype":"레저업소 - 헬스클럽","category":"leisure"}]},{"lat":"37.28207","long":"127.15938309","imageIndex":13,"items":[{"name":"동백복싱클럽","tel":"031-693-6922","addr":"경기도 용인시 기흥구 동백동 598-9번지 신동백빌딩 601호","indutype":"레저업소 - 헬스클럽","category":"leisure"}]},{"lat":"37.280600872","long":"127.15277238","imageIndex":13,"items":[{"name":"몸마인드센터(mohmind center)","tel":"031-283-1909","addr":"경기도 용인시 기흥구 동백동 625-15번지","indutype":"레저업소 - 헬스클럽","category":"leisure"}]},{"lat":"37.282654977","long":"127.15295688","imageIndex":13,"items":[{"name":"바디복싱 다이어트 스파르타 짐","tel":"031-282-1822","addr":"경기도 용인시 기흥구 동백동 620-6번지 1층","indutype":"레저업소 - 헬스클럽","category":"leisure"}]},{"lat":"37.284790087","long":"127.1532092","imageIndex":13,"items":[{"name":"스타짐","tel":"070-8281-2435","addr":"경기도 용인시 기흥구 동백동 606-4번지 1층","indutype":"레저업소 - 헬스클럽","category":"leisure"}]},{"lat":"37.281960903","long":"127.15318102","imageIndex":13,"items":[{"name":"애플PC방","tel":"","addr":"경기도 용인시 기흥구 동백동 622-6번지 1층","indutype":"레저업소 - 기타레져업소","category":"leisure"}]},{"lat":"37.281600227","long":"127.16031803","imageIndex":13,"items":[{"name":"중앙탁구클럽","tel":"031-283-8979","addr":"경기도 용인시 기흥구 동백동 598-5중앙프라자204.205호","indutype":"레저업소 - 기타레져업소","category":"leisure"}]},{"lat":"37.281934638","long":"127.15954068","imageIndex":13,"items":[{"name":"태웅회관","tel":"031-281-1003","addr":"경기도 용인시 기흥구 동백동 598-8번지 경안빌딩 6층 602호","indutype":"레저업소 - 헬스클럽","category":"leisure"}]},{"lat":"37.281681828","long":"127.15993481","imageIndex":13,"items":[{"name":"플레이영점프짐","tel":"02-000-0000","addr":"경기도 용인시 기흥구 동백동 598-6번지 702호 701호,702호","indutype":"레저업소 - 기타레져업소","category":"leisure"}]}]