[{"lat":"37.841194066","long":"126.86928021","imageIndex":17,"items":[{"name":"(주)코리아환경스마트","tel":"070-4314-6424","addr":"경기도 파주시 법원읍 대능리 186번지","indutype":"주방용구 - 주방용구","category":"other"}]},{"lat":"37.848886271","long":"126.87577668","imageIndex":17,"items":[{"name":"BBin클럽","tel":"031-959-6200","addr":"경기도 파주시 법원읍 대능리 81-26번지","indutype":"문화.취미 - 문화취미기타","category":"other"},{"name":"법원지물","tel":"031-958-4670","addr":"경기도 파주시 법원읍 대능리 81-26","indutype":"직물 - 카페트,커튼,천막,지물","category":"other"}]},{"lat":"37.835609192","long":"126.86236079","imageIndex":17,"items":[{"name":"CP TECH","tel":"031-953-8845","addr":"경기도 파주시 법원읍 대능리 388-7번지","indutype":"전기제품 - 기타전기제품","category":"other"}]},{"lat":"37.849830117","long":"126.87380943","imageIndex":17,"items":[{"name":"HZM인터내셔널","tel":"031-945-4155","addr":"경기도 파주시 법원읍 대능리 86-10번지","indutype":"의류 - 정장","category":"other"}]},{"lat":"37.850271364","long":"126.87361551","imageIndex":17,"items":[{"name":"S.O휘트니스클럽","tel":"031-958-7307","addr":"경기도 파주시 법원읍 대능리 92-7번지 4층 1호 대성빌딩","indutype":"회원제형태 - 레져업소","category":"other"},{"name":"지현꽃방","tel":"019-***-****","addr":"경기도 파주시 법원읍 대능리 92-7번지","indutype":"문화.취미 - 화원","category":"other"}]},{"lat":"37.848999816","long":"126.87250426","imageIndex":17,"items":[{"name":"ㅋㅋㅋ","tel":"070-8150-8522","addr":"경기도 파주시 법원읍 대능리 94-104번지","indutype":"의류 - 정장","category":"other"},{"name":"노블레스","tel":"031-958-3500","addr":"경기도 파주시 법원읍 대능리 94-104번지","indutype":"의류 - 정장","category":"other"}]},{"lat":"37.849584592","long":"126.87175334","imageIndex":17,"items":[{"name":"개울꽃방","tel":"031-958-8326","addr":"경기도 파주시 법원읍 대능리 94-55번지","indutype":"문화.취미 - 화원","category":"other"}]},{"lat":"37.848750232","long":"126.8749475","imageIndex":17,"items":[{"name":"건설도료","tel":"031-958-0074","addr":"경기도 파주시 법원읍 대능리 81-41","indutype":"건축자재 - 페인트","category":"other"}]},{"lat":"37.849775412","long":"126.8732187","imageIndex":17,"items":[{"name":"금오전기.철물","tel":"031-959-5557","addr":"경기도 파주시 법원읍 대능리 92-15번지","indutype":"기타 - 기계공구","category":"other"}]},{"lat":"37.849027396","long":"126.87300414","imageIndex":17,"items":[{"name":"금옥당","tel":"031-958-0180","addr":"경기도 파주시 법원읍 대능리 85-18번지","indutype":"신변잡화 - 귀금속","category":"other"}]},{"lat":"37.842391349","long":"126.8607574","imageIndex":17,"items":[{"name":"남양공구1호점","tel":"031-959-0989","addr":"경기도 파주시 법원읍 대능리 318번지","indutype":"전기제품 - 기타전기제품","category":"other"}]},{"lat":"37.846248405","long":"126.86933926","imageIndex":17,"items":[{"name":"니나의시크릿가든","tel":"031-953-0191","addr":"경기도 파주시 법원읍 대능리 218-1번지","indutype":"문화.취미 - 문화취미기타","category":"other"}]},{"lat":"37.849549727","long":"126.87281007","imageIndex":17,"items":[{"name":"다담을예쁨","tel":"","addr":"경기도 파주시 법원읍 대능리 94-65번지","indutype":"문화.취미 - 문화취미기타","category":"other"}]},{"lat":"37.847807052","long":"126.86935917","imageIndex":17,"items":[{"name":"달빛공방 협동조합","tel":"","addr":"경기도 파주시 법원읍 대능리 245-58번지","indutype":"문화.취미 - 문화취미기타","category":"other"}]},{"lat":"37.84630786","long":"126.86619203","imageIndex":17,"items":[{"name":"대보타일","tel":"031-958-4646","addr":"경기도 파주시 법원읍 대능리 237-6번지","indutype":"건축자재 - 건축용 요업제품","category":"other"}]},{"lat":"37.849611189","long":"126.87136699","imageIndex":17,"items":[{"name":"대한상사","tel":"","addr":"경기도 파주시 법원읍 대능리 94-58번지","indutype":"기타 - 기계공구","category":"other"}]},{"lat":"37.849772263","long":"126.87038957","imageIndex":17,"items":[{"name":"더스타일(THE STYLE)","tel":"","addr":"경기도 파주시 법원읍 대능리 95-56번지","indutype":"의류 - 정장","category":"other"}]},{"lat":"37.850496324","long":"126.87336515","imageIndex":17,"items":[{"name":"동명상회","tel":"031-959-1698","addr":"경기도 파주시 법원읍 대능리 93-2번지","indutype":"신변잡화 - 기념품점","category":"other"}]},{"lat":"37.846580575","long":"126.86830476","imageIndex":17,"items":[{"name":"동아 천막사","tel":"031-959-9057","addr":"경기도 파주시 법원읍 대능리 228-7번지","indutype":"직물 - 카페트,커튼,천막,지물","category":"other"}]},{"lat":"37.849555884","long":"126.87025361","imageIndex":17,"items":[{"name":"동영유리샷시","tel":"031-959-6262","addr":"경기도 파주시 법원읍 대능리 95-7번지","indutype":"건축자재 - 보일러·펌프·샷시","category":"other"}]},{"lat":"37.839750279","long":"126.85967186","imageIndex":17,"items":[{"name":"동예공방","tel":"031-952-8005","addr":"경기도 파주시 법원읍 대능리 379-2","indutype":"문화.취미 - 민예·공예품","category":"other"}]},{"lat":"37.849188483","long":"126.87202673","imageIndex":17,"items":[{"name":"마이컴블루","tel":"070-7578-5888","addr":"경기도 파주시 법원읍 대능리 94-67번지","indutype":"사무통신 - 컴퓨터","category":"other"}]},{"lat":"37.848579079","long":"126.87497052","imageIndex":17,"items":[{"name":"문화인쇄소","tel":"031-958-1031","addr":"경기도 파주시 법원읍 대능리 81-14","indutype":"용역 서비스 - 사무서비스","category":"other"}]},{"lat":"37.83547113","long":"126.85269386","imageIndex":17,"items":[{"name":"미니스톱 법원행복점","tel":"031-1577-9621","addr":"경기도 파주시 법원읍 대능리 527-11번지","indutype":"유통업 영리 - 편 의 점","category":"other"}]},{"lat":"37.848946249","long":"126.87294747","imageIndex":17,"items":[{"name":"민지","tel":"031-958-1313","addr":"경기도 파주시 법원읍 대능리 85-19번지","indutype":"사무통신 - 통신기기","category":"other"}]},{"lat":"37.849550065","long":"126.87311684","imageIndex":17,"items":[{"name":"보금당","tel":"031-958-1477","addr":"경기도 파주시 법원읍 대능리 92-21","indutype":"신변잡화 - 시계","category":"other"}]},{"lat":"37.850190853","long":"126.8741383","imageIndex":17,"items":[{"name":"보디가드","tel":"031-958-0139","addr":"경기도 파주시 법원읍 대능리 89-17번지","indutype":"의류 - 내의판매","category":"other"}]},{"lat":"37.849191271","long":"126.87456043","imageIndex":17,"items":[{"name":"붕어사랑","tel":"","addr":"경기도 파주시 법원읍 대능리 87-13번지","indutype":"신변잡화 - 기타잡화","category":"other"}]},{"lat":"37.841439761","long":"126.86361077","imageIndex":17,"items":[{"name":"석천사","tel":"031-959-9514","addr":"경기도 파주시 법원읍 대능리 340-4","indutype":"신변잡화 - 기념품점","category":"other"}]},{"lat":"37.849640708","long":"126.87361661","imageIndex":17,"items":[{"name":"세븐일레븐파주법원점","tel":"","addr":"경기도 파주시 법원읍 대능리 86-15","indutype":"유통업 영리 - 편 의 점","category":"other"}]},{"lat":"37.848719198","long":"126.87131176","imageIndex":17,"items":[{"name":"소리상사","tel":"031-958-4482","addr":"경기도 파주시 법원읍 대능리 245-1","indutype":"건축자재 - 페인트","category":"other"}]},{"lat":"37.848299033","long":"126.87427793","imageIndex":17,"items":[{"name":"손편한 시스템","tel":"031-958-8669","addr":"경기도 파주시 법원읍 대능리 82-28번지","indutype":"신변잡화 - 기타잡화","category":"other"}]},{"lat":"37.848749961","long":"126.87469754","imageIndex":17,"items":[{"name":"씨유파주대능점","tel":"031-959-3509","addr":"경기도 파주시 법원읍 대능리 81-43 4/1","indutype":"유통업 영리 - 편 의 점","category":"other"}]},{"lat":"37.848937665","long":"126.87333379","imageIndex":17,"items":[{"name":"아가방법원점","tel":"031-958-9723","addr":"경기도 파주시 법원읍 대능리 85-11번지","indutype":"의류 - 아동의류","category":"other"},{"name":"토탈패션","tel":"31-958-3861","addr":"경기도 파주시 법원읍 대능리 85-11번지","indutype":"의류 - 정장","category":"other"}]},{"lat":"37.849665055","long":"126.87119646","imageIndex":17,"items":[{"name":"아트인테리어","tel":"031-958-5989","addr":"경기도 파주시 법원읍 대능리 94-60번지","indutype":"건축자재 - 인테리어전문","category":"other"}]},{"lat":"37.848884245","long":"126.87391334","imageIndex":17,"items":[{"name":"오병이어옷방","tel":"031-958-5357","addr":"경기도 파주시 법원읍 대능리 84-5번지","indutype":"의류 - 정장","category":"other"}]},{"lat":"37.848939639","long":"126.87514032","imageIndex":17,"items":[{"name":"왕대박텔레콤","tel":"031-958-4933","addr":"경기도 파주시 법원읍 대능리 81-34","indutype":"사무통신 - 통신기기","category":"other"}]},{"lat":"37.850027899","long":"126.87342278","imageIndex":17,"items":[{"name":"용사의 집","tel":"031-958-9898","addr":"경기도 파주시 법원읍 대능리 92-10번지","indutype":"신변잡화 - 기타잡화","category":"other"},{"name":"이지컴퓨터","tel":"","addr":"경기도 파주시 법원읍 대능리 92-10번지","indutype":"수리서비스 - 사무·통신기기수리","category":"other"}]},{"lat":"37.849333953","long":"126.87321948","imageIndex":17,"items":[{"name":"원앙금방","tel":"031-958-7272","addr":"경기도 파주시 법원읍 대능리 86-22번지","indutype":"신변잡화 - 귀금속","category":"other"}]},{"lat":"37.846608205","long":"126.87699627","imageIndex":17,"items":[{"name":"윙스문구법원점","tel":"031-958-6745","addr":"경기도 파주시 법원읍 대능리 70-2번지","indutype":"서적문구 - 문구용품","category":"other"}]},{"lat":"37.845107325","long":"126.87211347","imageIndex":17,"items":[{"name":"재경가구,굿모닝가구백화점","tel":"031-958-7088","addr":"경기도 파주시 법원읍 대능리 218-23번지","indutype":"가구 - 일반가구","category":"other"}]},{"lat":"37.848612073","long":"126.87219818","imageIndex":17,"items":[{"name":"종합보수공사","tel":"031-959-1113","addr":"경기도 파주시 법원읍 대능리 97-21번지","indutype":"수리서비스 - 기타수리서비스","category":"other"}]},{"lat":"37.843527692","long":"126.86172091","imageIndex":17,"items":[{"name":"종합중고가전","tel":"031-959-2254","addr":"경기도 파주시 법원읍 대능리 328-1","indutype":"전기제품 - 기타전기제품","category":"other"}]},{"lat":"37.848859365","long":"126.87589034","imageIndex":17,"items":[{"name":"주디&에코","tel":"031-958-0894","addr":"경기도 파주시 법원읍 대능리 81-1번지","indutype":"의류 - 정장","category":"other"}]},{"lat":"37.845529562","long":"126.8710334","imageIndex":17,"items":[{"name":"주식회사 케이알산업","tel":"031-959-7774","addr":"경기도 파주시 법원읍 대능리 218-24번지","indutype":"전기제품 - 기타전기제품","category":"other"}]},{"lat":"37.846608593","long":"126.87735984","imageIndex":17,"items":[{"name":"준카 주식회사","tel":"031-954-9099","addr":"경기도 파주시 법원읍 대능리 70-1번지","indutype":"여행 - 렌터카","category":"other"},{"name":"준카(주)법원지점","tel":"031-958-8119","addr":"경기도 파주시 법원읍 대능리 70-1번지","indutype":"여행 - 렌터카","category":"other"}]},{"lat":"37.848973152","long":"126.8728338","imageIndex":17,"items":[{"name":"차칸고양이","tel":"02-111-1111","addr":"경기도 파주시 법원읍 대능리 85-34번지","indutype":"신변잡화 - 액세서리","category":"other"}]},{"lat":"37.836662987","long":"126.85475896","imageIndex":17,"items":[{"name":"충성몰","tel":"031-832-1548","addr":"경기도 파주시 법원읍 대능리 432-9번지","indutype":"신변잡화 - 기념품점","category":"other"}]},{"lat":"37.836417303","long":"126.85283962","imageIndex":17,"items":[{"name":"친구네 낚시마트","tel":"031-959-9879","addr":"경기도 파주시 법원읍 대능리 525-2번지","indutype":"레져용품 - 스포츠·레져용품","category":"other"}]},{"lat":"37.849856596","long":"126.87330946","imageIndex":17,"items":[{"name":"크레파스","tel":"031-958-7643","addr":"경기도 파주시 법원읍 대능리 92-13번지","indutype":"의류 - 기타의류","category":"other"}]},{"lat":"37.836245879","long":"126.85264685","imageIndex":17,"items":[{"name":"태창기업","tel":"031-958-0422","addr":"경기도 파주시 법원읍 대능리 525-7번지","indutype":"기타 - 기계공구","category":"other"}]},{"lat":"37.833524391","long":"126.85214119","imageIndex":17,"items":[{"name":"털보벽지","tel":"031-959-9009","addr":"경기도 파주시 법원읍 대능리 542-2번지","indutype":"직물 - 카페트,커튼,천막,지물","category":"other"}]},{"lat":"37.839856754","long":"126.85833112","imageIndex":17,"items":[{"name":"파주가구종합재활용","tel":"031-953-4989","addr":"경기도 파주시 법원읍 대능리 473번지","indutype":"가구 - 일반가구","category":"other"}]},{"lat":"37.849251372","long":"126.87186755","imageIndex":17,"items":[{"name":"플라워뱅크","tel":"031-958-0937","addr":"경기도 파주시 법원읍 대능리 94-20번지","indutype":"문화.취미 - 화원","category":"other"}]},{"lat":"37.84916376","long":"126.87411737","imageIndex":17,"items":[{"name":"하나텔레콤","tel":"031-958-8845","addr":"경기도 파주시 법원읍 대능리 87-19번지","indutype":"사무통신 - 통신기기","category":"other"}]},{"lat":"37.849555692","long":"126.87008319","imageIndex":17,"items":[{"name":"한국사무용가구","tel":"031-953-2524","addr":"경기도 파주시 법원읍 대능리 95-63번지","indutype":"가구 - 기타가구","category":"other"}]},{"lat":"37.849302994","long":"126.86969733","imageIndex":17,"items":[{"name":"한보","tel":"031-958-7783","addr":"경기도 파주시 법원읍 대능리 95-9번지","indutype":"건축자재 - 건축용 요업제품","category":"other"}]},{"lat":"37.843023995","long":"126.86241489","imageIndex":17,"items":[{"name":"한영건설중기","tel":"031-958-2220","addr":"경기도 파주시 법원읍 대능리 329번지","indutype":"건축자재 - 기타건축자재","category":"other"}]}]