[{"lat":"37.06520739","long":"127.0581122","imageIndex":0,"items":[{"name":"2000세차장","tel":"031-664-2518","addr":"경기도 평택시 서정동 866-5번지","indutype":"자동차정비 유지 - 자동차정비","category":"car"}]},{"lat":"37.069849263","long":"127.05497831","imageIndex":0,"items":[{"name":"구선상사","tel":"031-667-9851","addr":"경기도 평택시 서정동 785번지 1 2층","indutype":"자동차정비 유지 - 자동차부품","category":"car"}]},{"lat":"37.066675975","long":"127.05841685","imageIndex":0,"items":[{"name":"금강세차장","tel":"031-662-3332","addr":"경기도 평택시 서정동 838-2번지","indutype":"자동차정비 유지 - 세차장","category":"car"}]},{"lat":"37.070127376","long":"127.05767722","imageIndex":0,"items":[{"name":"금호자동차공업사","tel":"031-665-2384","addr":"경기도 평택시 서정동 788-10번지","indutype":"자동차정비 유지 - 자동차정비","category":"car"},{"name":"스마일모터스","tel":"031-665-3423","addr":"경기도 평택시 서정동 788-10번지","indutype":"자동차정비 유지 - 자동차정비","category":"car"}]},{"lat":"37.071063973","long":"127.0587574","imageIndex":0,"items":[{"name":"넘버원타이어","tel":"031-668-1485","addr":"경기도 평택시 서정동 781-1번지","indutype":"자동차정비 유지 - 자동차시트·타이어","category":"car"}]},{"lat":"37.065095913","long":"127.0648922","imageIndex":0,"items":[{"name":"대광전자","tel":"031-664-4028","addr":"경기도 평택시 서정동 801-4번지","indutype":"자동차정비 유지 - 자동차부품","category":"car"}]},{"lat":"37.061152563","long":"127.05823294","imageIndex":0,"items":[{"name":"대길카서비스","tel":"031-662-8818","addr":"경기도 평택시 서정동 907-5번지","indutype":"자동차정비 유지 - 자동차정비","category":"car"}]},{"lat":"37.064515316","long":"127.05423258","imageIndex":0,"items":[{"name":"대림모터싸이클","tel":"031-668-5782","addr":"경기도 평택시 서정동 878-13번지","indutype":"자동차판매 - 이륜차판매","category":"car"}]},{"lat":"37.061684257","long":"127.05808716","imageIndex":0,"items":[{"name":"대영부분정비공업사","tel":"031-662-4090","addr":"경기도 평택시 서정동 907-2번지","indutype":"자동차정비 유지 - 자동차정비","category":"car"},{"name":"대영세차장","tel":"031-666-7712","addr":"경기도 평택시 서정동 907-2번지","indutype":"자동차정비 유지 - 세차장","category":"car"}]},{"lat":"37.060847565","long":"127.05523076","imageIndex":0,"items":[{"name":"덕성자동차정비공업사","tel":"031-611-1455","addr":"경기도 평택시 서정동 901-8번지","indutype":"자동차정비 유지 - 자동차정비","category":"car"}]},{"lat":"37.06359454","long":"127.05800984","imageIndex":0,"items":[{"name":"동양자동차정비공업사","tel":"031-664-8423","addr":"경기도 평택시 서정동 887-10번지","indutype":"자동차정비 유지 - 자동차정비","category":"car"},{"name":"쌍용서비스프라자서정코너","tel":"031-611-5582","addr":"경기도 평택시 서정동 887-10번지","indutype":"자동차정비 유지 - 자동차정비","category":"car"}]},{"lat":"37.068012406","long":"127.0519186","imageIndex":0,"items":[{"name":"디오워시","tel":"031-611-8333","addr":"경기도 평택시 서정동 539-14번지 가동 5호,6호","indutype":"자동차정비 유지 - 세차장","category":"car"}]},{"lat":"37.07114955","long":"127.04825481","imageIndex":0,"items":[{"name":"루페스 빅풋 디테일링센터 평택점","tel":"031-666-7365","addr":"경기도 평택시 서정동 570-61번지 1동 4,5호","indutype":"자동차정비 유지 - 카인테리어","category":"car"},{"name":"모터갱디자인(Motogangdesign)","tel":"031-8094-1119","addr":"경기도 평택시 서정동 570-61번지 1동 103호","indutype":"자동차정비 유지 - 카인테리어","category":"car"}]},{"lat":"37.064900835","long":"127.058528","imageIndex":0,"items":[{"name":"르노삼성자동차지정정비코너서정점","tel":"031-667-3599","addr":"경기도 평택시 서정동 865-16번지","indutype":"자동차정비 유지 - 자동차정비","category":"car"}]},{"lat":"37.067624295","long":"127.0534813","imageIndex":0,"items":[{"name":"만도상사","tel":"031-664-3557","addr":"경기도 평택시 서정동 506-6번지 고덕빌리지","indutype":"자동차정비 유지 - 자동차부품","category":"car"}]},{"lat":"37.072788604","long":"127.0504823","imageIndex":0,"items":[{"name":"명품카서비스","tel":"031-664-1811","addr":"경기도 평택시 서정동 557-47번지","indutype":"자동차정비 유지 - 자동차정비","category":"car"}]},{"lat":"37.061846237","long":"127.05853701","imageIndex":0,"items":[{"name":"모토코리아","tel":"031-525-3210","addr":"경기도 평택시 서정동 908-2번지 1층","indutype":"자동차정비 유지 - 자동차부품","category":"car"},{"name":"소낙스서비스경기총판","tel":"031-667-6363","addr":"경기도 평택시 서정동 908-2번지","indutype":"자동차정비 유지 - 카인테리어","category":"car"}]},{"lat":"37.065342328","long":"127.05858454","imageIndex":0,"items":[{"name":"복원달인송탄서정점","tel":"","addr":"경기도 평택시 서정동 865-18번지","indutype":"자동차정비 유지 - 자동차정비","category":"car"}]},{"lat":"37.068738991","long":"127.05928418","imageIndex":0,"items":[{"name":"부웅카프라자공업사","tel":"031-662-4872","addr":"경기도 평택시 서정동 792-14번지","indutype":"자동차정비 유지 - 자동차부품","category":"car"}]},{"lat":"37.070210088","long":"127.0540565","imageIndex":0,"items":[{"name":"삼부상사","tel":"031-665-1814","addr":"경기도 평택시 서정동 550-4번지","indutype":"자동차정비 유지 - 자동차부품","category":"car"}]},{"lat":"37.06509195","long":"127.05433416","imageIndex":0,"items":[{"name":"서부카센타","tel":"031-665-8015","addr":"경기도 평택시 서정동 878-16번지","indutype":"자동차정비 유지 - 카인테리어","category":"car"}]},{"lat":"37.060902211","long":"127.05389284","imageIndex":0,"items":[{"name":"서정자동차정비공업사","tel":"031-663-9976","addr":"경기도 평택시 서정동 897-6번지","indutype":"자동차정비 유지 - 자동차정비","category":"car"},{"name":"송탄종합차유리","tel":"031-664-5515","addr":"경기도 평택시 서정동 897-6번지","indutype":"자동차정비 유지 - 자동차부품","category":"car"}]},{"lat":"37.060820153","long":"127.05608523","imageIndex":0,"items":[{"name":"서정점기아오토큐","tel":"031-665-8585","addr":"경기도 평택시 서정동 902-23번지","indutype":"자동차정비 유지 - 자동차정비","category":"car"}]},{"lat":"37.069457528","long":"127.06395121","imageIndex":0,"items":[{"name":"센트럴파이온","tel":"031-663-3112","addr":"경기도 평택시 서정동 779-6번지","indutype":"자동차정비 유지 - 주차장","category":"car"}]},{"lat":"37.064793157","long":"127.05756095","imageIndex":0,"items":[{"name":"송탄상사","tel":"031-666-8388","addr":"경기도 평택시 서정동 869-2번지 지하층","indutype":"자동차정비 유지 - 자동차부품","category":"car"}]},{"lat":"37.068705017","long":"127.05475264","imageIndex":0,"items":[{"name":"송탄쎈타","tel":"031-665-1313","addr":"경기도 평택시 서정동 830-14번지","indutype":"자동차정비 유지 - 자동차부품","category":"car"},{"name":"쌍용자동차송탄부품대리점","tel":"031-667-5111","addr":"경기도 평택시 서정동 830-14번지","indutype":"자동차정비 유지 - 자동차부품","category":"car"}]},{"lat":"37.070127884","long":"127.056564","imageIndex":0,"items":[{"name":"스마일세차","tel":"031-665-3423","addr":"경기도 평택시 서정동 787-3번지","indutype":"자동차정비 유지 - 세차장","category":"car"}]},{"lat":"37.061017394","long":"127.05825532","imageIndex":0,"items":[{"name":"스카이모터스","tel":"031-663-1309","addr":"경기도 평택시 서정동 907-6번지","indutype":"자동차정비 유지 - 자동차정비","category":"car"}]},{"lat":"37.05851143","long":"127.06038966","imageIndex":0,"items":[{"name":"스팀마스터","tel":"02-0000-0000","addr":"경기도 평택시 서정동 260-11번지","indutype":"자동차정비 유지 - 세차장","category":"car"}]},{"lat":"37.063954953","long":"127.05803258","imageIndex":0,"items":[{"name":"신성모터스","tel":"031-666-2345","addr":"경기도 평택시 서정동 887-1번지 1층","indutype":"자동차정비 유지 - 자동차정비","category":"car"}]},{"lat":"37.063260838","long":"127.05867297","imageIndex":0,"items":[{"name":"에이에스제이(ASJ)","tel":"031-611-5697","addr":"경기도 평택시 서정동 864-7번지","indutype":"자동차정비 유지 - 자동차부품","category":"car"}]},{"lat":"37.070237187","long":"127.05389909","imageIndex":0,"items":[{"name":"영호모터스","tel":"031-667-4496","addr":"경기도 평택시 서정동 554-7번지","indutype":"자동차정비 유지 - 자동차정비","category":"car"}]},{"lat":"37.064235978","long":"127.05425487","imageIndex":0,"items":[{"name":"오토글로리","tel":"031-663-1127","addr":"경기도 평택시 서정동 879-20번지","indutype":"서비스업 - 자동차정비","category":"car"},{"name":"오토글로리 자동차정비공업사","tel":"031-664-3007","addr":"경기도 평택시 서정동 879-20번지","indutype":"자동차정비 유지 - 자동차정비","category":"car"}]},{"lat":"37.066711699","long":"127.05909153","imageIndex":0,"items":[{"name":"오토피아하노상사","tel":"031-666-1100","addr":"경기도 평택시 서정동 839번지","indutype":"자동차정비 유지 - 자동차시트·타이어","category":"car"}]},{"lat":"37.062983466","long":"127.05434398","imageIndex":0,"items":[{"name":"우창자동차정비공업사","tel":"031-662-6002","addr":"경기도 평택시 서정동 896-2","indutype":"자동차정비 유지 - 자동차정비","category":"car"}]},{"lat":"37.0703162","long":"127.05853196","imageIndex":0,"items":[{"name":"유로광택썬팅","tel":"031-668-4455","addr":"경기도 평택시 서정동 788-5번지","indutype":"자동차정비 유지 - 카인테리어","category":"car"}]},{"lat":"37.065041583","long":"127.06539813","imageIndex":0,"items":[{"name":"의정자동차공업사","tel":"031-664-2210","addr":"경기도 평택시 서정동 801-8번지","indutype":"자동차정비 유지 - 카인테리어","category":"car"}]},{"lat":"37.06651528","long":"127.05512221","imageIndex":0,"items":[{"name":"일신상사","tel":"031-666-1232","addr":"경기도 평택시 서정동 835-13번지","indutype":"자동차정비 유지 - 자동차부품","category":"car"}]},{"lat":"37.069513822","long":"127.05945342","imageIndex":0,"items":[{"name":"자동차랜드","tel":"031-664-0123","addr":"경기도 평택시 서정동 792-17번지","indutype":"자동차정비 유지 - 자동차정비","category":"car"},{"name":"자동차랜드세차장","tel":"","addr":"경기도 평택시 서정동 792-17번지","indutype":"자동차정비 유지 - 세차장","category":"car"}]},{"lat":"37.066515171","long":"127.05536958","imageIndex":0,"items":[{"name":"제일자동차공업사","tel":"031-663-9042","addr":"경기도 평택시 서정동 835-12번지","indutype":"자동차정비 유지 - 자동차정비","category":"car"}]},{"lat":"37.072543319","long":"127.05522755","imageIndex":0,"items":[{"name":"중앙부란자","tel":"031-662-3684","addr":"경기도 평택시 서정동 76-14","indutype":"자동차정비 유지 - 자동차정비","category":"car"}]},{"lat":"37.063315211","long":"127.05800963","imageIndex":0,"items":[{"name":"차사랑용품","tel":"031-611-0820","addr":"경기도 평택시 서정동 887-3번지","indutype":"자동차정비 유지 - 자동차부품","category":"car"},{"name":"차사랑자동차용품","tel":"031-611-8234","addr":"경기도 평택시 서정동 887-3번지","indutype":"소매업 - 자동차용품","category":"car"}]},{"lat":"37.069595131","long":"127.0590037","imageIndex":0,"items":[{"name":"차차차","tel":"031-668-7426","addr":"경기도 평택시 서정동 791-1번지","indutype":"자동차정비 유지 - 자동차정비","category":"car"}]},{"lat":"37.07051412","long":"127.05919554","imageIndex":0,"items":[{"name":"카스토리(carstory)","tel":"031-611-2113","addr":"경기도 평택시 서정동 789-4번지 자동차용품","indutype":"자동차정비 유지 - 자동차부품","category":"car"}]},{"lat":"37.071153909","long":"127.0591173","imageIndex":0,"items":[{"name":"카월드","tel":"031-668-9333","addr":"경기도 평택시 서정동 781-3,781-4양지상서면","indutype":"자동차정비 유지 - 카인테리어","category":"car"}]},{"lat":"37.069261552","long":"127.05939701","imageIndex":0,"items":[{"name":"카젠서비스","tel":"031-663-7554","addr":"경기도 평택시 서정동 792-16번지","indutype":"자동차정비 유지 - 자동차정비","category":"car"}]},{"lat":"37.066456495","long":"127.06492704","imageIndex":0,"items":[{"name":"평택시청 송탄출장소","tel":"031-8024-6303","addr":"경기도 평택시 서정동 800번지 평택시송탄출장소총무과주차장운영담당자","indutype":"자동차정비 유지 - 주차장","category":"car"},{"name":"평택시청송탄출장소이충레포츠공원주차부스","tel":"031-8024-6303","addr":"경기도 평택시 서정동 800번지 평택시청송탄출장소 2층 사회복지과 체육시설운영팀","indutype":"자동차정비 유지 - 주차장","category":"car"}]},{"lat":"37.066488079","long":"127.05550449","imageIndex":0,"items":[{"name":"하은상사","tel":"031-611-4624","addr":"경기도 평택시 서정동 835-11번지","indutype":"자동차정비 유지 - 자동차부품","category":"car"}]},{"lat":"37.062486252","long":"127.0579753","imageIndex":0,"items":[{"name":"한국GM동호지정서비스","tel":"031-667-1472","addr":"경기도 평택시 서정동 889-7번지","indutype":"자동차정비 유지 - 자동차정비","category":"car"}]},{"lat":"37.069072346","long":"127.05936314","imageIndex":0,"items":[{"name":"한국카서비스","tel":"031-667-2596","addr":"경기도 평택시 서정동 792-15번지","indutype":"자동차정비 유지 - 자동차정비","category":"car"}]},{"lat":"37.068065299","long":"127.0546735","imageIndex":0,"items":[{"name":"한국타이어송탄판매(주)","tel":"031-666-8542","addr":"경기도 평택시 서정동 830-20번지","indutype":"자동차정비 유지 - 자동차시트·타이어","category":"car"}]},{"lat":"37.070514538","long":"127.05830721","imageIndex":0,"items":[{"name":"형제세차장","tel":"031-664-2822","addr":"경기도 평택시 서정동 788-3번지","indutype":"자동차정비 유지 - 세차장","category":"car"}]},{"lat":"37.061350602","long":"127.05864908","imageIndex":0,"items":[{"name":"형제카서비스","tel":"031-662-8798","addr":"경기도 평택시 서정동 908-6번지","indutype":"자동차정비 유지 - 자동차정비","category":"car"}]},{"lat":"37.06359432","long":"127.05848207","imageIndex":0,"items":[{"name":"후퍼옵틱","tel":"031-662-7477","addr":"경기도 평택시 서정동 864-13번지","indutype":"자동차정비 유지 - 자동차부품","category":"car"}]}]