[{"lat":"37.740545204","long":"127.21830621","imageIndex":0,"items":[{"name":"(주)나우모터스","tel":"031-575-4648","addr":"경기도 남양주시 진접읍 진벌리 468-33번지","indutype":"자동차정비 유지 - 자동차부품","category":"car"}]},{"lat":"37.737765381","long":"127.23049386","imageIndex":0,"items":[{"name":"경원테크","tel":"031-575-0891","addr":"경기도 남양주시 진접읍 진벌리 165-1번지","indutype":"자동차정비 유지 - 자동차정비","category":"car"}]},{"lat":"37.74204371","long":"127.22161209","imageIndex":0,"items":[{"name":"나우·2nd","tel":"031-571-9156","addr":"경기도 남양주시 진접읍 진벌리 230-2번지 230-4 본지번내 건물과마당(전부)","indutype":"자동차정비 유지 - 자동차부품","category":"car"}]},{"lat":"37.742961899","long":"127.21713327","imageIndex":0,"items":[{"name":"뉴미래자동차공업사","tel":"031-571-2329","addr":"경기도 남양주시 진접읍 진벌리 506-22","indutype":"자동차정비 유지 - 자동차정비","category":"car"}]},{"lat":"37.740910077","long":"127.21583398","imageIndex":0,"items":[{"name":"애니카랜드진접점","tel":"031-527-2657","addr":"경기도 남양주시 진접읍 진벌리 629-6번지","indutype":"자동차정비 유지 - 자동차정비","category":"car"}]},{"lat":"37.740741104","long":"127.21460821","imageIndex":0,"items":[{"name":"영도특장","tel":"031-575-2292","addr":"경기도 남양주시 진접읍 진벌리 628번지 4동","indutype":"자동차판매 - 기타운송","category":"car"}]},{"lat":"37.74479822","long":"127.21303133","imageIndex":0,"items":[{"name":"예멋카","tel":"031-528-3858","addr":"경기도 남양주시 진접읍 진벌리 543-12번지 외2필지 103호","indutype":"자동차정비 유지 - 자동차정비","category":"car"}]},{"lat":"37.740797366","long":"127.21836367","imageIndex":0,"items":[{"name":"옐로우엠","tel":"031-575-4641","addr":"경기도 남양주시 진접읍 진벌리 468-1번지","indutype":"자동차정비 유지 - 자동차부품","category":"car"}]},{"lat":"37.740962574","long":"127.21669638","imageIndex":0,"items":[{"name":"임광자동차공업사","tel":"031-572-4970","addr":"경기도 남양주시 진접읍 진벌리 468-28번지 가동","indutype":"자동차정비 유지 - 자동차정비","category":"car"}]},{"lat":"37.736295539","long":"127.2311587","imageIndex":0,"items":[{"name":"주식회사엘티티","tel":"031-528-8372","addr":"경기도 남양주시 진접읍 진벌리 169-3번지","indutype":"자동차판매 - 기타운송","category":"car"}]},{"lat":"37.739770932","long":"127.22288741","imageIndex":0,"items":[{"name":"진벌카센타","tel":"031-528-5278","addr":"경기도 남양주시 진접읍 진벌리 257번지","indutype":"자동차정비 유지 - 자동차정비","category":"car"}]},{"lat":"37.735544084","long":"127.2137766","imageIndex":0,"items":[{"name":"진접현대자동차공업사","tel":"031-529-7890","addr":"경기도 남양주시 진접읍 진벌리 654-3번지","indutype":"자동차정비 유지 - 자동차정비","category":"car"},{"name":"진접현대자동차공업사","tel":"031-595-2520","addr":"경기도 남양주시 진접읍 진벌리 654-3번지","indutype":"자동차정비 유지 - 자동차정비","category":"car"},{"name":"진접현대자동차공업사","tel":"031-595-2520","addr":"경기도 남양주시 진접읍 진벌리 654-3번지","indutype":"자동차정비 유지 - 자동차정비","category":"car"}]},{"lat":"37.744014293","long":"127.21308585","imageIndex":0,"items":[{"name":"카사블링카(casbingcar)","tel":"070-4465-7757","addr":"경기도 남양주시 진접읍 진벌리 565-6번지 1층","indutype":"자동차정비 유지 - 카인테리어","category":"car"}]},{"lat":"37.743767111","long":"127.21527488","imageIndex":0,"items":[{"name":"한국자동차공업사(손세차장)","tel":"032-508-0742","addr":"경기도 남양주시 진접읍 진벌리 546-2","indutype":"자동차정비 유지 - 자동차정비","category":"car"}]},{"lat":"37.74338164","long":"127.21419594","imageIndex":0,"items":[{"name":"해온세차장","tel":"031-572-4149","addr":"경기도 남양주시 진접읍 진벌리 555-2번지","indutype":"자동차정비 유지 - 세차장","category":"car"}]}]