[{"lat":"37.838034153","long":"127.16344702","imageIndex":0,"items":[{"name":"㈜오토프로","tel":"541-1487","addr":"경기도 포천시 가산면 방축리 490-7번지","indutype":"서비스 - 자동차수리","category":"car"},{"name":"주식회사 오토프로","tel":"031-541-1487","addr":"경기도 포천시 가산면 방축리 490-7번지","indutype":"자동차정비 유지 - 자동차정비","category":"car"}]},{"lat":"37.837728514","long":"127.16294651","imageIndex":0,"items":[{"name":"가산윤활유","tel":"031-542-5798","addr":"경기도 포천시 가산면 방축리 492-4번지","indutype":"자동차정비 유지 - 윤활유 전문 판매","category":"car"}]},{"lat":"37.836918717","long":"127.16217228","imageIndex":0,"items":[{"name":"경기카센타","tel":"031-542-1871","addr":"경기도 포천시 가산면 방축리 501번지","indutype":"자동차정비 유지 - 자동차정비","category":"car"}]},{"lat":"37.839089058","long":"127.16935669","imageIndex":0,"items":[{"name":"극동밧데리","tel":"031-542-1702","addr":"경기도 포천시 가산면 방축리 362-1","indutype":"자동차정비 유지 - 자동차정비","category":"car"}]},{"lat":"37.83961617","long":"127.17247064","imageIndex":0,"items":[{"name":"디에스정공(주)","tel":"031-534-4923","addr":"경기도 포천시 가산면 방축리 130번지","indutype":"자동차판매 - 기타운송","category":"car"}]},{"lat":"37.839560782","long":"127.16705159","imageIndex":0,"items":[{"name":"메인텍","tel":"031-542-5720","addr":"경기도 포천시 가산면 방축리 398","indutype":"자동차정비 유지 - 자동차부품","category":"car"}]},{"lat":"37.837753573","long":"127.1643893","imageIndex":0,"items":[{"name":"이우자동차공업사","tel":"542-5879","addr":"경기도 포천시 가산면 방축리 484-2번지","indutype":"서비스 - 자동차 수리","category":"car"}]},{"lat":"37.837500702","long":"127.1648318","imageIndex":0,"items":[{"name":"이우카써비스","tel":"031-542-5879","addr":"경기도 포천시 가산면 방축리 484번지","indutype":"자동차정비 유지 - 자동차정비","category":"car"}]},{"lat":"37.843199376","long":"127.18030656","imageIndex":0,"items":[{"name":"자동차꾸미기","tel":"031-543-3903","addr":"경기도 포천시 가산면 방축리 12-3번지","indutype":"자동차정비 유지 - 자동차부품","category":"car"}]},{"lat":"37.842532683","long":"127.18030496","imageIndex":0,"items":[{"name":"제일카센타","tel":"031-544-9553","addr":"경기도 포천시 가산면 방축리 13-2번지","indutype":"자동차정비 유지 - 자동차정비","category":"car"}]},{"lat":"37.838535558","long":"127.16572016","imageIndex":0,"items":[{"name":"차차2급정비공업사","tel":"031-544-8929","addr":"경기도 포천시 가산면 방축리 401-12번지","indutype":"자동차정비 유지 - 자동차시트·타이어","category":"car"},{"name":"차차2급정비공업사","tel":"031-544-8929","addr":"경기도 포천시 가산면 방축리 401-12번지","indutype":"자동차정비 유지 - 자동차시트·타이어","category":"car"}]},{"lat":"37.838285758","long":"127.17038867","imageIndex":0,"items":[{"name":"포천상사","tel":"031-542-5488","addr":"경기도 포천시 가산면 방축리 356-3번지","indutype":"자동차정비 유지 - 자동차부품","category":"car"}]},{"lat":"37.839836931","long":"127.17554983","imageIndex":0,"items":[{"name":"풍양카센타","tel":"031-544-9535","addr":"경기도 포천시 가산면 방축리 144-11","indutype":"자동차정비 유지 - 자동차정비","category":"car"}]},{"lat":"37.837503804","long":"127.16255978","imageIndex":0,"items":[{"name":"프로세차장","tel":"031-532-6878","addr":"경기도 포천시 가산면 방축리 493-1번지","indutype":"자동차정비 유지 - 세차장","category":"car"}]},{"lat":"37.839807846","long":"127.1769471","imageIndex":0,"items":[{"name":"한신공압콤푸레샤","tel":"031-541-3306","addr":"경기도 포천시 가산면 방축리 44-20번지","indutype":"자동차정비 유지 - 자동차부품","category":"car"}]}]