[{"lat":"37.131720526","long":"126.90237461","imageIndex":16,"items":[{"name":"건반속고양이들음악학원","tel":"031-354-5595","addr":"경기도 화성시 향남읍 발안리 65-2번지 도화빌딩 2층 201호","indutype":"학원 - 예·체능계학원","category":"study"}]},{"lat":"37.127476796","long":"126.90262779","imageIndex":16,"items":[{"name":"관인발안무용학원","tel":"031-353-8518","addr":"경기도 화성시 향남읍 발안리 175-4번지 2층","indutype":"학원 - 예·체능계학원","category":"study"}]},{"lat":"37.130305574","long":"126.90201637","imageIndex":16,"items":[{"name":"김형학원","tel":"031-359-9359","addr":"경기도 화성시 향남읍 발안리 297번지 202호","indutype":"학원 - 보습학원","category":"study"},{"name":"발안아인스학원","tel":"070-7755-2389","addr":"경기도 화성시 향남읍 발안리 297번지 아카데미빌딩 201호","indutype":"회원제형태 - 학원","category":"study"},{"name":"신나는 아트 센타","tel":"031-354-4558","addr":"경기도 화성시 향남읍 발안리 297번지 아카데미프라자 4층 401호","indutype":"학원 - 기타 교육기관","category":"study"},{"name":"예문음악학원","tel":"031-353-2011","addr":"경기도 화성시 향남읍 발안리 297번지 아카데미 상가 404호","indutype":"학원 - 예·체능계학원","category":"study"},{"name":"용인대화성태권도장","tel":"031-353-3033","addr":"경기도 화성시 향남읍 발안리 297번지 발안아카데미 상가 403호","indutype":"학원 - 예·체능계학원","category":"study"},{"name":"윤선생영어교실 화성향남교육센터","tel":"031-354-2030","addr":"경기도 화성시 향남읍 발안리 297번지 아카데미프라자 111-1호","indutype":"학원 - 학습지 교육","category":"study"},{"name":"윤선생우리집앞 영어 발안학원","tel":"031-354-0510","addr":"경기도 화성시 향남읍 발안리 297번지 아카데미프라자 111호","indutype":"학원 - 보습학원","category":"study"}]},{"lat":"37.129252167","long":"126.90298556","imageIndex":16,"items":[{"name":"꿈을그리는아이들미술교습소","tel":"070-8031-4083","addr":"경기도 화성시 향남읍 발안리 305번지 화성발안우림필유 상가동 201호","indutype":"학원 - 예·체능계학원","category":"study"},{"name":"안나피아노교습소","tel":"031-353-0054","addr":"경기도 화성시 향남읍 발안리 305번지 상가동 204~205호","indutype":"학원 - 예·체능계학원","category":"study"}]},{"lat":"37.129920567","long":"126.90493154","imageIndex":16,"items":[{"name":"발안예일음악학원","tel":"031-366-0876","addr":"경기도 화성시 향남읍 발안리 139-5번지 2층 301호","indutype":"학원 - 예·체능계학원","category":"study"},{"name":"용인대우리i태권도","tel":"031-352-3233","addr":"경기도 화성시 향남읍 발안리 139-5번지 센트럴빌딩 404호","indutype":"학원 - 예·체능계학원","category":"study"},{"name":"탑브레인학원","tel":"031-354-5673","addr":"경기도 화성시 향남읍 발안리 139-5번지 401호","indutype":"회원제형태 - 학원","category":"study"}]},{"lat":"37.130919692","long":"126.90368109","imageIndex":16,"items":[{"name":"삼성영어 제암초학원","tel":"031-354-5047","addr":"경기도 화성시 향남읍 발안리 205-1번지 3층","indutype":"학원 - 보습학원","category":"study"},{"name":"해법영어학원","tel":"031-352-8205","addr":"경기도 화성시 향남읍 발안리 205-1번지","indutype":"학원 - 외국어학원","category":"study"}]},{"lat":"37.131252873","long":"126.90343308","imageIndex":16,"items":[{"name":"성균관대검도스쿨","tel":"031-352-5161","addr":"경기도 화성시 향남읍 발안리 40-10번지","indutype":"학원 - 예·체능계학원","category":"study"}]},{"lat":"37.13101571","long":"126.90004604","imageIndex":16,"items":[{"name":"아기숲어린이집[아이행복]","tel":"031-353-6936","addr":"경기도 화성시 향남읍 발안리 295번지 발안주공 105동 104호","indutype":"학원 - 유아원","category":"study"}]},{"lat":"37.129963539","long":"126.90244446","imageIndex":16,"items":[{"name":"우림필유어린이집[아이행복]","tel":"070-4414-1479","addr":"경기도 화성시 향남읍 발안리 305번지 화성발안우림필유 110동 103호","indutype":"학원 - 유아원","category":"study"}]},{"lat":"37.129711834","long":"126.9031425","imageIndex":16,"items":[{"name":"우림한양어린이집[아이행복]","tel":"031-359-8084","addr":"경기도 화성시 향남읍 발안리 305번지 화성발안우림필유 108동 102호","indutype":"학원 - 유아원","category":"study"}]}]