[{"lat":"37.642268928","long":"126.78784371","imageIndex":4,"items":[{"name":"곱창이야기 백석역점","tel":"070-8245-6695","addr":"경기도 고양시 일산동구 일산로","indutype":"일반휴게음식 - 일반한식","category":"restaurant"}]},{"lat":"37.654714143","long":"126.78940567","imageIndex":4,"items":[{"name":"또또닭강정","tel":"031-908-7992","addr":"경기도 고양시 일산동구 일산로","indutype":"일반휴게음식 - 일반한식","category":"restaurant"}]},{"lat":"37.654156099","long":"126.78971323","imageIndex":4,"items":[{"name":"로뎀나무","tel":"031-913-9131","addr":"경기도 고양시 일산동구 일산로","indutype":"일반휴게음식 - 서양음식","category":"restaurant"}]},{"lat":"37.654409575","long":"126.79038111","imageIndex":4,"items":[{"name":"브라운치킨","tel":"031-903-3334","addr":"경기도 고양시 일산동구 일산로","indutype":"일반휴게음식 - 스넥","category":"restaurant"}]},{"lat":"37.656713624","long":"126.7890373","imageIndex":4,"items":[{"name":"신전떡볶이","tel":"031-908-1878","addr":"경기도 고양시 일산동구 일산로","indutype":"일반휴게음식 - 스넥","category":"restaurant"}]},{"lat":"37.644462932","long":"126.79040944","imageIndex":4,"items":[{"name":"전주남문토종순대국백석","tel":"031-908-9003","addr":"경기도 고양시 일산동구 일산로","indutype":"일반휴게음식 - 일반한식","category":"restaurant"}]},{"lat":"37.656680967","long":"126.78595496","imageIndex":4,"items":[{"name":"카페투웰브피엠(마두점)","tel":"031-903-5151","addr":"경기도 고양시 일산동구 일산로","indutype":"일반휴게음식 - 스넥","category":"restaurant"}]},{"lat":"37.641772239","long":"126.78721065","imageIndex":4,"items":[{"name":"콘참치&맛스시","tel":"031-901-0103","addr":"경기도 고양시 일산동구 일산로","indutype":"일반휴게음식 - 일식·회집","category":"restaurant"}]}]