[{"lat":"37.240885957","long":"127.49668556","imageIndex":0,"items":[{"name":"골든24시셀프세차","tel":"031-632-8338","addr":"경기도 이천시 대월면 사동리 21-3","indutype":"자동차정비 유지 - 세차장","category":"car"}]},{"lat":"37.236559793","long":"127.49482046","imageIndex":0,"items":[{"name":"동우자동차공업사","tel":"031-637-1097","addr":"경기도 이천시 대월면 사동리 108-3번지 외2필지","indutype":"자동차정비 유지 - 자동차정비","category":"car"}]},{"lat":"37.2399958","long":"127.49624024","imageIndex":0,"items":[{"name":"멀티탑","tel":"031-635-1304","addr":"경기도 이천시 대월면 사동리 33-6번지","indutype":"자동차정비 유지 - 윤활유 전문 판매","category":"car"}]},{"lat":"37.232587222","long":"127.49459182","imageIndex":0,"items":[{"name":"베어자동차공업사","tel":"031-637-6377","addr":"경기도 이천시 대월면 사동리 175-16번지 베어자동차공업사","indutype":"자동차정비 유지 - 자동차정비","category":"car"},{"name":"이성토지개발","tel":"070-4686-9412","addr":"경기도 이천시 대월면 사동리 175-16번지","indutype":"자동차정비 유지 - 주차장","category":"car"}]},{"lat":"37.242745861","long":"127.48923686","imageIndex":0,"items":[{"name":"사동자동차공업사","tel":"031-634-1660","addr":"경기도 이천시 대월면 사동리 413번지","indutype":"자동차정비 유지 - 자동차정비","category":"car"}]},{"lat":"37.243361406","long":"127.49940657","imageIndex":0,"items":[{"name":"스피드메이트 이천한일점","tel":"031-635-5531","addr":"경기도 이천시 대월면 사동리 382-6번지","indutype":"자동차정비 유지 - 자동차정비","category":"car"},{"name":"엔진마을","tel":"070-4153-7860","addr":"경기도 이천시 대월면 사동리 382-6","indutype":"자동차정비 유지 - 자동차시트·타이어","category":"car"}]},{"lat":"37.242195676","long":"127.49806905","imageIndex":0,"items":[{"name":"원효자동차클럽","tel":"031-636-8005","addr":"경기도 이천시 대월면 사동리 360번지","indutype":"자동차정비 유지 - 자동차정비","category":"car"}]},{"lat":"37.239778763","long":"127.50073543","imageIndex":0,"items":[{"name":"주식회사 슈파워","tel":"031-637-0063","addr":"경기도 이천시 대월면 사동리 14-5번지 현대자동차서비스센터","indutype":"자동차정비 유지 - 윤활유 전문 판매","category":"car"}]},{"lat":"37.232137844","long":"127.49431845","imageIndex":0,"items":[{"name":"차차차 중고자동차매매상사","tel":"031-634-5762","addr":"경기도 이천시 대월면 사동리 175-18번지","indutype":"자동차판매 - 중고자동차판매","category":"car"}]},{"lat":"37.241745663","long":"127.49578957","imageIndex":0,"items":[{"name":"카톡","tel":"031-632-1233","addr":"경기도 이천시 대월면 사동리 347-273번지 (1층103-104호)","indutype":"자동차정비 유지 - 카인테리어","category":"car"}]},{"lat":"37.243779293","long":"127.49643395","imageIndex":0,"items":[{"name":"현대순정모터스","tel":"031-636-7222","addr":"경기도 이천시 대월면 사동리 351-2번지","indutype":"자동차정비 유지 - 자동차정비","category":"car"}]},{"lat":"37.237726735","long":"127.4958761","imageIndex":0,"items":[{"name":"현대카모터스","tel":"031-634-2838","addr":"경기도 이천시 대월면 사동리 106-1번지","indutype":"자동차정비 유지 - 자동차정비","category":"car"}]}]