[{"lat":"37.294321401","long":"127.04322317","imageIndex":13,"items":[{"name":"(주)셀내추럴코퍼레이션","tel":"031-251-3900","addr":"경기도 수원시 영통구 이의동 854번지 7층","indutype":"보건위생 - 화장품","category":"beauty"}]},{"lat":"37.300816876","long":"127.0458095","imageIndex":13,"items":[{"name":"(주)아이리스팜앤스킨링크","tel":"031-205-0227","addr":"경기도 수원시 영통구 이의동 1248-2번지 307호","indutype":"보건위생 - 화장품","category":"beauty"},{"name":"리안코리아","tel":"031-232-8880","addr":"경기도 수원시 영통구 이의동 1248-2번지 3동 701호","indutype":"보건위생 - 화장품","category":"beauty"}]},{"lat":"37.291510262","long":"127.0430525","imageIndex":13,"items":[{"name":"(주)애니덴","tel":"031-304-3416","addr":"경기도 수원시 영통구 이의동 906-5 경기중소기업종합지원센터 6층 비2","indutype":"보건위생 - 의료용품","category":"beauty"},{"name":"메디허브 주식회사","tel":"070-7629-2938","addr":"경기도 수원시 영통구 이의동 906-5번지 경기도중소기업지원센터 본관 502호","indutype":"보건위생 - 의료용품","category":"beauty"},{"name":"베니토(venito)","tel":"031-888-8627","addr":"경기도 수원시 영통구 이의동 906-5번지 차세대융합기술연구원 10층","indutype":"보건위생 - 안경","category":"beauty"},{"name":"주식회사 웰스케어","tel":"02-6931-0061","addr":"경기도 수원시 영통구 이의동 906-5번지 경기도중소기업지원센터 본관 507호","indutype":"보건위생 - 의료용품","category":"beauty"}]},{"lat":"37.290787808","long":"127.04760819","imageIndex":13,"items":[{"name":"3025 심리상담소","tel":"031-305-0312","addr":"경기도 수원시 영통구 이의동 1351-6번지 유니코어 2층 204호","indutype":"보건위생 - 기타대인서비스","category":"beauty"},{"name":"까사델마노","tel":"031-247-7400","addr":"경기도 수원시 영통구 이의동 1351-6번지 유니코어 알파동2층109호","indutype":"보건위생 - 화장품","category":"beauty"},{"name":"리가헤어","tel":"031-212-1211","addr":"경기도 수원시 영통구 이의동 1351-6번지 유니코어 1층1-206호","indutype":"보건위생 - 미용원","category":"beauty"},{"name":"변화하는공간","tel":"031-212-5799","addr":"경기도 수원시 영통구 이의동 1351-6번지 광교신도시유니코어 1동 108호","indutype":"보건위생 - 미용원","category":"beauty"},{"name":"오아시스헤어","tel":"070-4254-0160","addr":"경기도 수원시 영통구 이의동 1351-6번지 유니코어 102동 1-208호","indutype":"보건위생 - 미용원","category":"beauty"},{"name":"유헤어","tel":"070-2328-9420","addr":"경기도 수원시 영통구 이의동 1351-6번지 유니코어 1층 207호","indutype":"보건위생 - 미용원","category":"beauty"},{"name":"이룸심리상담연구소","tel":"031-546-1664","addr":"경기도 수원시 영통구 이의동 1351-6번지 유니코아 101동 2층 104호","indutype":"보건위생 - 기타대인서비스","category":"beauty"},{"name":"페르소나 바버샵","tel":"070-7543-0504","addr":"경기도 수원시 영통구 이의동 1351-6번지 2층 2-207호","indutype":"보건위생 - 이용원","category":"beauty"},{"name":"하루두피 수원광교점","tel":"031-267-1112","addr":"경기도 수원시 영통구 이의동 1351-6번지 1층 1-204,1-205호유니코어","indutype":"보건위생 - 화장품","category":"beauty"}]},{"lat":"37.301675738","long":"127.03692211","imageIndex":13,"items":[{"name":"HD센타,헤어휴","tel":"031-439-6663","addr":"경기도 수원시 영통구 이의동 산94-6번지 경기대학교 106호","indutype":"보건위생 - 미용원","category":"beauty"},{"name":"주헤어","tel":"031-285-8775","addr":"경기도 수원시 영통구 이의동 산94-6번지 경기대학교","indutype":"보건위생 - 미용원","category":"beauty"}]},{"lat":"37.289076719","long":"127.04527281","imageIndex":13,"items":[{"name":"JS메디칼","tel":"031-238-5352","addr":"경기도 수원시 영통구 이의동 1352번지 이의동에듀하임1309오피스텔 106동 1403호","indutype":"보건위생 - 의료용품","category":"beauty"}]},{"lat":"37.294371386","long":"127.05380191","imageIndex":13,"items":[{"name":"JYP Hair DD(김윤수)","tel":"031-3132-7562","addr":"경기도 수원시 영통구 이의동 1311-1번지 1층","indutype":"보건위생 - 미용원","category":"beauty"}]},{"lat":"37.30951193","long":"127.04530684","imageIndex":13,"items":[{"name":"S2헤어살롱","tel":"031-0000-0000","addr":"경기도 수원시 영통구 이의동 1197번지 E편한세상 101호","indutype":"보건위생 - 미용원","category":"beauty"}]},{"lat":"37.289337883","long":"127.0456451","imageIndex":13,"items":[{"name":"가람메드","tel":"031-211-7566","addr":"경기도 수원시 영통구 이의동 1352번지 에듀하임1309오피스텔 103동 2층 217호","indutype":"보건위생 - 의료용품","category":"beauty"},{"name":"네일스타일","tel":"031-213-1232","addr":"경기도 수원시 영통구 이의동 1352번지 에듀하임1309오피스텔 103동 121호","indutype":"보건위생 - 피부미용실","category":"beauty"},{"name":"어썸헤어","tel":"031-214-6566","addr":"경기도 수원시 영통구 이의동 1352번지 에듀하임1309오피스텔 103동 106호","indutype":"보건위생 - 미용원","category":"beauty"}]},{"lat":"37.30501531","long":"127.04672553","imageIndex":13,"items":[{"name":"가온힐조","tel":"031-214-7771","addr":"경기도 수원시 영통구 이의동 1201-2번지 드림스퀘어2 202호","indutype":"보건위생 - 미용원","category":"beauty"},{"name":"네일라미","tel":"031-0000-0000","addr":"경기도 수원시 영통구 이의동 1201-2번지 1층 103호","indutype":"보건위생 - 피부미용실","category":"beauty"}]},{"lat":"37.291850743","long":"127.04833059","imageIndex":13,"items":[{"name":"골든네일","tel":"031-216-8625","addr":"경기도 수원시 영통구 이의동 1331번지 광교푸르지오월드마크 1층 95호","indutype":"보건위생 - 피부미용실","category":"beauty"},{"name":"광교 온마음심리상담센터","tel":"031-000-0000","addr":"경기도 수원시 영통구 이의동 1331번지 광교푸르지오 월드마크, 월드스퀘어 204동 1층 1-112호","indutype":"보건위생 - 기타대인서비스","category":"beauty"},{"name":"구피샵 광교점","tel":"070-4649-1102","addr":"경기도 수원시 영통구 이의동 1331번지 광교푸르지오월드마크 204동 1-012호","indutype":"보건위생 - 미용원","category":"beauty"},{"name":"네일 그리고","tel":"02-885-6957","addr":"경기도 수원시 영통구 이의동 1331번지 광교푸르지오월드마크 204동 1층 45호","indutype":"보건위생 - 피부미용실","category":"beauty"},{"name":"네일로더","tel":"070-7758-1112","addr":"경기도 수원시 영통구 이의동 1331번지 광교푸르지오월드스퀘어 204동 지1층 B28호","indutype":"보건위생 - 피부미용실","category":"beauty"},{"name":"네일에뛰드 광교점","tel":"02-000-0000","addr":"경기도 수원시 영통구 이의동 1331번지 광교푸르지오 월드마크, 월드스퀘어 204동 1-096호","indutype":"보건위생 - 피부미용실","category":"beauty"},{"name":"노블 스킨케어","tel":"031-212-3011","addr":"경기도 수원시 영통구 이의동 1331번지 광교대우월드마크 204동 1층 114호","indutype":"보건위생 - 피부미용실","category":"beauty"},{"name":"더헤어샵(The hair shop)","tel":"070-467-4788","addr":"경기도 수원시 영통구 이의동 1331번지 광교푸르지오 월드마크, 월드스퀘어 204동 제비59호","indutype":"보건위생 - 미용원","category":"beauty"},{"name":"룩스365(LUX365)","tel":"031-211-3651","addr":"경기도 수원시 영통구 이의동 1331번지 광교푸르지오 월드마크, 월드스퀘어 204동 1층 61호","indutype":"보건위생 - 피부미용실","category":"beauty"},{"name":"리가네일","tel":"031-212-0211","addr":"경기도 수원시 영통구 이의동 1331번지 광교푸르지오 월드마크, 월드스퀘어 B1층 33호","indutype":"보건위생 - 피부미용실","category":"beauty"},{"name":"명품철학원","tel":"070-7420-1889","addr":"경기도 수원시 영통구 이의동 1331번지 광교푸르지오월드마크,월드스퀘어 204동 1층 15호","indutype":"보건위생 - 기타대인서비스","category":"beauty"},{"name":"버블스토리 광교점","tel":"031-211-1184","addr":"경기도 수원시 영통구 이의동 1331번지 광교푸르지오 월드마크, 월드스퀘어 1동 104호","indutype":"보건위생 - 미용원","category":"beauty"},{"name":"비앤비스킨케어","tel":"031-211-4625","addr":"경기도 수원시 영통구 이의동 1331번지 광교푸르지오 월드마크 204동1층 1-081호","indutype":"보건위생 - 피부미용실","category":"beauty"},{"name":"살롱드쥐원(G1)","tel":"02-0000-0000","addr":"경기도 수원시 영통구 이의동 1331번지 광교푸르지오 월드마크, 월드스퀘어 204동 1층 82호","indutype":"보건위생 - 미용원","category":"beauty"},{"name":"샵(#) 107","tel":"031-216-7107","addr":"경기도 수원시 영통구 이의동 1331번지 광교푸르지오 월드마크, 월드스퀘어 204동 B-07호","indutype":"보건위생 - 피부미용실","category":"beauty"},{"name":"서앤강헤어","tel":"031-217-1268","addr":"경기도 수원시 영통구 이의동 1331번지 광교푸르지오 월드마크,월드스퀘어 1층 1-65호","indutype":"보건위생 - 미용원","category":"beauty"},{"name":"손수미인","tel":"031-212-7088","addr":"경기도 수원시 영통구 이의동 1331번지 광교푸르지오 월드마크, 월드스퀘어","indutype":"보건위생 - 피부미용실","category":"beauty"},{"name":"스퀘어안경","tel":"031-214-2777","addr":"경기도 수원시 영통구 이의동 1331번지 광교푸르지오 204동 1-062호","indutype":"보건위생 - 안경","category":"beauty"},{"name":"아이템나인(EYETEM9)","tel":"031-291-7789","addr":"경기도 수원시 영통구 이의동 1331번지 광교푸르지오월드스퀘어 204동 1층 76호","indutype":"보건위생 - 안경","category":"beauty"},{"name":"알로하래쉬","tel":"","addr":"경기도 수원시 영통구 이의동 1331번지 광교푸르지오월드마크 204동 1층 85호","indutype":"보건위생 - 피부미용실","category":"beauty"},{"name":"올림픽수기체형센터","tel":"031-268-0675","addr":"경기도 수원시 영통구 이의동 1331번지 광교푸르지오 월드마크, 월드스퀘어 1층 121호","indutype":"보건위생 - 피부미용실","category":"beauty"},{"name":"왁싱아트(waxing art)","tel":"031-222-5535","addr":"경기도 수원시 영통구 이의동 1331번지 광교푸르지오월드스퀘어 204동 1층 43호","indutype":"보건위생 - 피부미용실","category":"beauty"},{"name":"운명사주까페","tel":"02-1577-0000","addr":"경기도 수원시 영통구 이의동 1331번지 광교 푸르지오 월드마크 204동 1층 39호","indutype":"보건위생 - 기타대인서비스","category":"beauty"},{"name":"율헤어","tel":"031-216-7708","addr":"경기도 수원시 영통구 이의동 1331번지 광교푸르지오월드스퀘어 204동 1층 1-72호","indutype":"보건위생 - 미용원","category":"beauty"},{"name":"이니스프리광교월드스퀘어점","tel":"031-211-7288","addr":"경기도 수원시 영통구 이의동 1331번지 광교푸르지오 월드마크, 월드스퀘어 B동 1층 62호","indutype":"보건위생 - 화장품","category":"beauty"},{"name":"제이이비탈모센터","tel":"031-224-7113","addr":"경기도 수원시 영통구 이의동 1331번지 광교푸르지오 월드마크,월드스퀘어 204동 1층 1-090호","indutype":"보건위생 - 피부미용실","category":"beauty"},{"name":"지니스안경 광교월드스퀘어점","tel":"","addr":"경기도 수원시 영통구 이의동 1331번지 광교푸르지오 월드마크, 월드스퀘어 204동 1-018호","indutype":"보건위생 - 안경","category":"beauty"},{"name":"크라이오랩 광교중앙역점","tel":"031-304-1864","addr":"경기도 수원시 영통구 이의동 1331번지 광교푸르지오월드마크 204동 1-111호","indutype":"보건위생 - 기타대인서비스","category":"beauty"},{"name":"타마시헤어 광교점","tel":"031-215-9978","addr":"경기도 수원시 영통구 이의동 1331번지 광교푸르지오 월드마크, 월드스퀘어 204동 1층 23호, 24호,25호","indutype":"보건위생 - 미용원","category":"beauty"}]},{"lat":"37.292570419","long":"127.05121811","imageIndex":13,"items":[{"name":"광교 덴마크보청기","tel":"031-257-9898","addr":"경기도 수원시 영통구 이의동 1325-1번지 402호","indutype":"보건위생 - 의료용품","category":"beauty"},{"name":"모모살롱","tel":"031-211-5745","addr":"경기도 수원시 영통구 이의동 1325-1번지 1층 101호","indutype":"보건위생 - 미용원","category":"beauty"}]},{"lat":"37.294181541","long":"127.05524535","imageIndex":13,"items":[{"name":"광교심리상담발달센터","tel":"031-255-5784","addr":"경기도 수원시 영통구 이의동 1318-2번지 4층","indutype":"보건위생 - 기타대인서비스","category":"beauty"}]},{"lat":"37.28576664","long":"127.05369462","imageIndex":13,"items":[{"name":"광교아동발달센터","tel":"031-212-2988","addr":"경기도 수원시 영통구 이의동 1340-1번지 402호","indutype":"보건위생 - 기타대인서비스","category":"beauty"},{"name":"다비치안경 광교롯데아울렛 앞점","tel":"031-211-3571","addr":"경기도 수원시 영통구 이의동 1340-1번지 104호 ,105,203호","indutype":"보건위생 - 안경","category":"beauty"}]},{"lat":"37.300123555","long":"127.04450077","imageIndex":13,"items":[{"name":"광교척추체형교정.피부","tel":"031-214-2230","addr":"경기도 수원시 영통구 이의동 1258번지 A동 207호","indutype":"보건위생 - 기타대인서비스","category":"beauty"},{"name":"네일포유","tel":"031-308-4231","addr":"경기도 수원시 영통구 이의동 1258번지 A동 110호","indutype":"보건위생 - 피부미용실","category":"beauty"},{"name":"더 루이","tel":"070-5696-6730","addr":"경기도 수원시 영통구 이의동 1258번지 2층 207호","indutype":"보건위생 - 미용재료","category":"beauty"},{"name":"살롱드지(Salonde G)","tel":"","addr":"경기도 수원시 영통구 이의동 1258번지 광교에코푸르지오 A동 205호","indutype":"보건위생 - 미용원","category":"beauty"}]},{"lat":"37.292651957","long":"127.05011294","imageIndex":13,"items":[{"name":"국가대표체형교정센터","tel":"031-213-1578","addr":"경기도 수원시 영통구 이의동 1322-5번지 센트럴프라자 303호","indutype":"보건위생 - 기타대인서비스","category":"beauty"},{"name":"얼짱몸짱 광교점","tel":"031-211-1998","addr":"경기도 수원시 영통구 이의동 1322-5번지 센트럴프라자 4층 408호","indutype":"보건위생 - 피부미용실","category":"beauty"},{"name":"얼짱몸짱광교점","tel":"031-211-1998","addr":"경기도 수원시 영통구 이의동 1322-5번지 센트럴프라자 408호","indutype":"보건위생 - 피부미용실","category":"beauty"},{"name":"이안건강관리실","tel":"031-213-7373","addr":"경기도 수원시 영통구 이의동 1322-5번지 센트럴프라자 3층 308,309,310호","indutype":"보건위생 - 의료용품","category":"beauty"},{"name":"주식회사 피앤와이컴퍼니","tel":"031-211-2113","addr":"경기도 수원시 영통구 이의동 1322-5번지 센트럴프라자 146-152,155,156,162,163호","indutype":"보건위생 - 화장품","category":"beauty"},{"name":"준오헤어","tel":"031-217-0605","addr":"경기도 수원시 영통구 이의동 1322-5번지 센트럴프라자 211호, 212호","indutype":"보건위생 - 미용원","category":"beauty"},{"name":"채비원수원점","tel":"031-293-8888","addr":"경기도 수원시 영통구 이의동 1322-5번지 402,403,404호","indutype":"보건위생 - 사우나","category":"beauty"},{"name":"황실","tel":"031-305-5608","addr":"경기도 수원시 영통구 이의동 1322-5번지 센트럴프라자 302호","indutype":"보건위생 - 피부미용실","category":"beauty"}]},{"lat":"37.300736016","long":"127.04516656","imageIndex":13,"items":[{"name":"글라스스토리 (경기대점)","tel":"031-212-1233","addr":"경기도 수원시 영통구 이의동 1248번지","indutype":"보건위생 - 안경","category":"beauty"},{"name":"헤어유니드","tel":"031-216-0315","addr":"경기도 수원시 영통구 이의동 1248번지 리치프라자 207호","indutype":"보건위생 - 미용원","category":"beauty"}]},{"lat":"37.292066488","long":"127.04961636","imageIndex":13,"items":[{"name":"글라스스토리 안경원","tel":"031-214-9191","addr":"경기도 수원시 영통구 이의동 1330-1번지 더블유타워 112호","indutype":"보건위생 - 안경","category":"beauty"},{"name":"샤보이컷트전문점","tel":"031-212-5085","addr":"경기도 수원시 영통구 이의동 1330-1번지 1층 103호","indutype":"보건위생 - 미용원","category":"beauty"},{"name":"이민헤어혼(광교점)","tel":"031-214-1166","addr":"경기도 수원시 영통구 이의동 1330-1번지 더블유타워 201호","indutype":"보건위생 - 미용원","category":"beauty"}]},{"lat":"37.291740042","long":"127.05461212","imageIndex":13,"items":[{"name":"김명진헤어클럽","tel":"031-214-0960","addr":"경기도 수원시 영통구 이의동 1326번지 e편한세상 광교 1동 203호","indutype":"보건위생 - 미용원","category":"beauty"},{"name":"앙포레모리노헤어","tel":"031-268-3141","addr":"경기도 수원시 영통구 이의동 1326번지 e편한세상 광교 201호","indutype":"보건위생 - 미용원","category":"beauty"}]},{"lat":"37.29026602","long":"127.04542008","imageIndex":13,"items":[{"name":"김앤안헤어","tel":"031-217-1722","addr":"경기도 수원시 영통구 이의동 1351번지 광교 경동 해피리움 107호","indutype":"보건위생 - 미용원","category":"beauty"}]},{"lat":"37.289094495","long":"127.04594945","imageIndex":13,"items":[{"name":"김채윤Beauty","tel":"031-223-5214","addr":"경기도 수원시 영통구 이의동 1352번지 에듀하임1309오피스텔 104동 101호","indutype":"보건위생 - 화장품","category":"beauty"},{"name":"니케네일","tel":"031-214-3400","addr":"경기도 수원시 영통구 이의동 1352번지 에듀하임1309오피스텔 104동 102호","indutype":"보건위생 - 피부미용실","category":"beauty"},{"name":"더마스튜디오 (Derma Studio)","tel":"031-449-6944","addr":"경기도 수원시 영통구 이의동 1352번지 에듀하임1309오피스텔 104동 113호","indutype":"보건위생 - 피부미용실","category":"beauty"},{"name":"지헤어","tel":"031-000-0000","addr":"경기도 수원시 영통구 이의동 1352번지 에듀하임1309오피스텔 104동 120호","indutype":"보건위생 - 미용원","category":"beauty"},{"name":"케어셀라헤나 광교점","tel":"031-216-3595","addr":"경기도 수원시 영통구 이의동 1352번지 에듀하임1309오피스텔 104동 104호","indutype":"보건위생 - 미용원","category":"beauty"}]},{"lat":"37.312175352","long":"127.05438922","imageIndex":13,"items":[{"name":"깔롱살롱","tel":"031-214-7185","addr":"경기도 수원시 영통구 이의동 1222번지","indutype":"보건위생 - 미용원","category":"beauty"}]},{"lat":"37.300286265","long":"127.04297822","imageIndex":13,"items":[{"name":"끌레르블랑","tel":"031-212-3421","addr":"경기도 수원시 영통구 이의동 1256-1번지 2층 223호","indutype":"보건위생 - 피부미용실","category":"beauty"},{"name":"네일 드 예라(NAil de Yera)","tel":"031-1111-1111","addr":"경기도 수원시 영통구 이의동 1256-1번지 테라스힐 G동 1층 116호","indutype":"보건위생 - 피부미용실","category":"beauty"},{"name":"헬로우컷","tel":"031-8001-1207","addr":"경기도 수원시 영통구 이의동 1256-1번지 테라스힐 상가 113호","indutype":"보건위생 - 미용원","category":"beauty"}]},{"lat":"37.297924651","long":"127.04563868","imageIndex":13,"items":[{"name":"네일라리","tel":"031-212-8841","addr":"경기도 수원시 영통구 이의동 1266-6번지 1층","indutype":"보건위생 - 피부미용실","category":"beauty"},{"name":"시크헤어","tel":"070-8885-7770","addr":"경기도 수원시 영통구 이의동 1266-6번지","indutype":"보건위생 - 미용원","category":"beauty"}]},{"lat":"37.300429205","long":"127.0464409","imageIndex":13,"items":[{"name":"네일쿡(NAIL COOK)","tel":"031-899-8677","addr":"경기도 수원시 영통구 이의동 1248-3번지 에이스광교타워1 4층414-2호","indutype":"보건위생 - 화장품","category":"beauty"},{"name":"이도상사","tel":"","addr":"경기도 수원시 영통구 이의동 1248-3번지 에이스광교타워 812호","indutype":"보건위생 - 화장품","category":"beauty"},{"name":"주식회사 바이오메듀스 (BIOMEDUX Co. Ltd)","tel":"031-899-8620","addr":"경기도 수원시 영통구 이의동 1248-3번지 에이스광교타워1 3층 308호,309호","indutype":"보건위생 - 의료용품","category":"beauty"},{"name":"주식회사 에스스킨","tel":"031-899-8661","addr":"경기도 수원시 영통구 이의동 1248-3번지 220호","indutype":"보건위생 - 화장품","category":"beauty"}]},{"lat":"37.291178306","long":"127.06127672","imageIndex":13,"items":[{"name":"노블레스헤어","tel":"031-243-6231","addr":"경기도 수원시 영통구 이의동 1304번지 근린생활시설등 104호","indutype":"보건위생 - 미용원","category":"beauty"},{"name":"리안","tel":"031-213-8890","addr":"경기도 수원시 영통구 이의동 1304번지 래미안광교 104호","indutype":"보건위생 - 미용원","category":"beauty"}]},{"lat":"37.287075065","long":"127.04895922","imageIndex":13,"items":[{"name":"노블헤어","tel":"031-111-1111","addr":"경기도 수원시 영통구 이의동 1353번지 상가 1동 101호 좌측","indutype":"보건위생 - 미용원","category":"beauty"}]},{"lat":"37.299204809","long":"127.04364308","imageIndex":13,"items":[{"name":"니하오","tel":"031-212-2598","addr":"경기도 수원시 영통구 이의동 1258-4번지 4층 401호","indutype":"보건위생 - 피부미용실","category":"beauty"},{"name":"물가에심기운심리상담센터","tel":"070-8831-1708","addr":"경기도 수원시 영통구 이의동 1258-4번지","indutype":"보건위생 - 기타대인서비스","category":"beauty"},{"name":"에비뉴헤어 경기대역점","tel":"031-216-7131","addr":"경기도 수원시 영통구 이의동 1258-4번지 2층 202호","indutype":"보건위생 - 미용원","category":"beauty"},{"name":"오샵","tel":"031-000-0000","addr":"경기도 수원시 영통구 이의동 1258-4번지 동진캠퍼스프라자 1층 109-1호","indutype":"보건위생 - 피부미용실","category":"beauty"}]},{"lat":"37.300483599","long":"127.04552734","imageIndex":13,"items":[{"name":"더 예쁜날","tel":"031-211-2268","addr":"경기도 수원시 영통구 이의동 1250번지 202호","indutype":"보건위생 - 미용원","category":"beauty"}]},{"lat":"37.29415491","long":"127.05433182","imageIndex":13,"items":[{"name":"더그레이헤어","tel":"031-953-3320","addr":"경기도 수원시 영통구 이의동 1312-3번지 1층,1층중 후면","indutype":"보건위생 - 미용원","category":"beauty"}]},{"lat":"37.289184098","long":"127.04730276","imageIndex":13,"items":[{"name":"더끌레르에스테틱","tel":"031-215-5660","addr":"경기도 수원시 영통구 이의동 1347-3번지 에듀프라자 306호","indutype":"보건위생 - 피부미용실","category":"beauty"},{"name":"더맑은스킨수원광교점","tel":"031-217-6268","addr":"경기도 수원시 영통구 이의동 1347-3번지 외1필지 에듀프라자 1층 102호","indutype":"보건위생 - 화장품","category":"beauty"},{"name":"헤나킹 수원광교센터","tel":"031-216-3595","addr":"경기도 수원시 영통구 이의동 1347-3번지 에듀프라자 5층 502호","indutype":"보건위생 - 이용원","category":"beauty"},{"name":"헤어베이직","tel":"031-212-3303","addr":"경기도 수원시 영통구 이의동 1347-3번지 에듀프라자 110호","indutype":"보건위생 - 미용원","category":"beauty"}]},{"lat":"37.285235261","long":"127.05316426","imageIndex":13,"items":[{"name":"더바른 체형관리","tel":"","addr":"경기도 수원시 영통구 이의동 1341-1번지 에듀메디컬 304호","indutype":"보건위생 - 피부미용실","category":"beauty"}]},{"lat":"37.294488884","long":"127.05294486","imageIndex":13,"items":[{"name":"더보뗌헤어","tel":"031-212-7750","addr":"경기도 수원시 영통구 이의동 1306-5번지 1층","indutype":"보건위생 - 미용원","category":"beauty"}]},{"lat":"37.287750182","long":"127.05060607","imageIndex":13,"items":[{"name":"더클래식헤어","tel":"031-211-6037","addr":"경기도 수원시 영통구 이의동 1344번지 자연앤힐스테이트 상가 1동 133호","indutype":"보건위생 - 미용원","category":"beauty"},{"name":"배배살롱","tel":"031-214-7546","addr":"경기도 수원시 영통구 이의동 1344번지 자연앤힐스테이트 지하2층 131호","indutype":"보건위생 - 미용원","category":"beauty"},{"name":"스타일남성컷","tel":"031-263-8696","addr":"경기도 수원시 영통구 이의동 1344번지 자연앤힐스테이트 상가 1동 134호","indutype":"보건위생 - 이용원","category":"beauty"},{"name":"오투헤어광교점","tel":"031-215-0253","addr":"경기도 수원시 영통구 이의동 1344번지 자연앤힐스테이트 상가 2동 202호","indutype":"보건위생 - 미용원","category":"beauty"},{"name":"올가스킨","tel":"031-000-0000","addr":"경기도 수원시 영통구 이의동 1344번지 자연앤힐스테이트 상가 1동 120호","indutype":"보건위생 - 화장품","category":"beauty"},{"name":"원트네일(want nail)","tel":"031-211-4223","addr":"경기도 수원시 영통구 이의동 1344번지 자연앤 힐스테이트상가 1동 101호","indutype":"보건위생 - 피부미용실","category":"beauty"},{"name":"피카소헤어","tel":"031-000-0000","addr":"경기도 수원시 영통구 이의동 1344번지 자연앤힐스테이트 제상가1층 제지하2층 제105호","indutype":"보건위생 - 미용원","category":"beauty"}]},{"lat":"37.286954208","long":"127.0576987","imageIndex":13,"items":[{"name":"두쏠아이 광교","tel":"","addr":"경기도 수원시 영통구 이의동 1336-1번지 B1층 8호","indutype":"보건위생 - 안경","category":"beauty"},{"name":"라온","tel":"","addr":"경기도 수원시 영통구 이의동 1336-1번지 광교엘포트아이파크 A동 5층 A533호","indutype":"보건위생 - 화장품","category":"beauty"},{"name":"미인케어(용인)","tel":"","addr":"경기도 수원시 영통구 이의동 1336-1번지 광교엘포트아이파크 A동 7층 22호","indutype":"보건위생 - 미용재료","category":"beauty"},{"name":"박승철헤어스튜디오 (광교엘포트몰점)","tel":"031-212-7778","addr":"경기도 수원시 영통구 이의동 1336-1번지 광교엘포트아이파크 지하1층 19,20호","indutype":"보건위생 - 미용원","category":"beauty"},{"name":"박준 뷰티랩 광교아이파크몰점","tel":"031-214-1091","addr":"경기도 수원시 영통구 이의동 1336-1번지 광교엘포트아이파크 3층 1호","indutype":"보건위생 - 미용원","category":"beauty"},{"name":"스파더엘(Spa The L)","tel":"031-212-5575","addr":"경기도 수원시 영통구 이의동 1336-1번지 광교엘포트아이파크 3층 303호","indutype":"보건위생 - 피부미용실","category":"beauty"},{"name":"오케타니모유육아 상담실","tel":"031-701-5866","addr":"경기도 수원시 영통구 이의동 1336-1번지 광교엘포트아이파크 B동 520호","indutype":"보건위생 - 기타대인서비스","category":"beauty"},{"name":"제이마리아 뷰티","tel":"","addr":"경기도 수원시 영통구 이의동 1336-1번지 B610호","indutype":"보건위생 - 미용재료","category":"beauty"},{"name":"포쉬네일광교","tel":"031-213-3011","addr":"경기도 수원시 영통구 이의동 1336-1번지 광교엘포트아이파크 3층","indutype":"보건위생 - 피부미용실","category":"beauty"}]},{"lat":"37.299952936","long":"127.04283142","imageIndex":13,"items":[{"name":"디디네일","tel":"","addr":"경기도 수원시 영통구 이의동 1256-3번지 U-city 1층 105호","indutype":"보건위생 - 피부미용실","category":"beauty"},{"name":"디디헤어(DIDI HAIR)","tel":"031-304-9771","addr":"경기도 수원시 영통구 이의동 1256-3번지 유시티 105~106호","indutype":"보건위생 - 미용원","category":"beauty"}]},{"lat":"37.28957246","long":"127.04477689","imageIndex":13,"items":[{"name":"라벤다헤어빈","tel":"031-213-0122","addr":"경기도 수원시 영통구 이의동 1352번지 광교에듀하임상가103동203호~204호 103동 203호","indutype":"보건위생 - 미용원","category":"beauty"},{"name":"슈가살롱","tel":"070-4649-1101","addr":"경기도 수원시 영통구 이의동 1352번지 에듀하임1309오피스텔 105동 제지하층 B102호","indutype":"보건위생 - 피부미용실","category":"beauty"},{"name":"오니크위","tel":"070-8849-6690","addr":"경기도 수원시 영통구 이의동 1352번지 에듀하임1309오피스텔 105동 B101호","indutype":"보건위생 - 피부미용실","category":"beauty"},{"name":"쥬뗌헤어","tel":"","addr":"경기도 수원시 영통구 이의동 1352번지 에듀하임1309오피스텔 상가 104동 106호","indutype":"보건위생 - 미용원","category":"beauty"}]},{"lat":"37.294010009","long":"127.05600085","imageIndex":13,"items":[{"name":"라본헤어(수원광교점)","tel":"031-216-1319","addr":"경기도 수원시 영통구 이의동 1319-11번지 지하1층,1층","indutype":"보건위생 - 미용원","category":"beauty"}]},{"lat":"37.293902158","long":"127.05539177","imageIndex":13,"items":[{"name":"레아킴(Reah Kim)","tel":"031-211-7479","addr":"경기도 수원시 영통구 이의동 1319-7번지 1층 101호","indutype":"보건위생 - 미용원","category":"beauty"}]},{"lat":"37.290597476","long":"127.05047254","imageIndex":13,"items":[{"name":"레푸스 광교점","tel":"031-215-8870","addr":"경기도 수원시 영통구 이의동 1332번지 Summit place 광교 A206호","indutype":"보건위생 - 의료용품","category":"beauty"},{"name":"세레니끄광교점","tel":"031-214-1580","addr":"경기도 수원시 영통구 이의동 1332번지 Summit place 광교 1층 C110호","indutype":"보건위생 - 화장품","category":"beauty"},{"name":"아리따움광교아브뉴프랑점","tel":"031-214-8148","addr":"경기도 수원시 영통구 이의동 1332번지 A동 114호 아브뉴프랑","indutype":"보건위생 - 화장품","category":"beauty"},{"name":"아브뉴안경 광교점","tel":"031-212-1599","addr":"경기도 수원시 영통구 이의동 1332번지 Summit place 광교 지하1층 AB11호","indutype":"보건위생 - 안경","category":"beauty"}]},{"lat":"37.292454128","long":"127.04910911","imageIndex":13,"items":[{"name":"루나헤어","tel":"031-212-4425","addr":"경기도 수원시 영통구 이의동 1330번지 서희스타힐스 209호","indutype":"보건위생 - 미용원","category":"beauty"},{"name":"수기","tel":"031-216-2722","addr":"경기도 수원시 영통구 이의동 1330번지 광교스타힐스오피스텔 3층 305호","indutype":"보건위생 - 피부미용실","category":"beauty"}]},{"lat":"37.299041811","long":"127.04594384","imageIndex":13,"items":[{"name":"루디아앤코주식회사","tel":"031-214-8253","addr":"경기도 수원시 영통구 이의동 1263-13번지 1층","indutype":"보건위생 - 화장품","category":"beauty"}]},{"lat":"37.298565036","long":"127.04377808","imageIndex":13,"items":[{"name":"린다헤어(Rindahair)","tel":"031-213-2399","addr":"경기도 수원시 영통구 이의동 1272-1번지 1층","indutype":"보건위생 - 미용원","category":"beauty"}]},{"lat":"37.297898742","long":"127.04241303","imageIndex":13,"items":[{"name":"마이더스","tel":"070-4282-7511","addr":"경기도 수원시 영통구 이의동 1275-8번지 3층","indutype":"보건위생 - 화장품","category":"beauty"}]},{"lat":"37.299151089","long":"127.04263925","imageIndex":13,"items":[{"name":"마크101","tel":"031-211-1015","addr":"경기도 수원시 영통구 이의동 1254-2번지 303호","indutype":"보건위생 - 미용원","category":"beauty"}]},{"lat":"37.288044605","long":"127.05736118","imageIndex":13,"items":[{"name":"머리못하는집 도청점","tel":"031-252-9177","addr":"경기도 수원시 영통구 이의동 1335번지 아이플렉스 140호","indutype":"보건위생 - 미용원","category":"beauty"},{"name":"클린보청기","tel":"031-216-9035","addr":"경기도 수원시 영통구 이의동 1335번지 아이플렉스 3층 303호","indutype":"보건위생 - 의료용품","category":"beauty"},{"name":"헤어그리다","tel":"031-215-5766","addr":"경기도 수원시 영통구 이의동 1335번지 아이플렉스 1층 120호","indutype":"보건위생 - 미용원","category":"beauty"}]},{"lat":"37.289070983","long":"127.05905349","imageIndex":13,"items":[{"name":"머리해헤어샵","tel":"031-225-0515","addr":"경기도 수원시 영통구 이의동 1334번지 광교센트럴타운60단지 상가동 101호","indutype":"보건위생 - 미용원","category":"beauty"}]},{"lat":"37.28882431","long":"127.04561098","imageIndex":13,"items":[{"name":"메이크오버","tel":"031-214-8242","addr":"경기도 수원시 영통구 이의동 1352번지 에듀하임 105동 B106호","indutype":"보건위생 - 피부미용실","category":"beauty"}]},{"lat":"37.291876777","long":"127.05085678","imageIndex":13,"items":[{"name":"모유육아상담실","tel":"031-217-8387","addr":"경기도 수원시 영통구 이의동 1325-5번지 엔에스코어빌딩 1동 402호","indutype":"보건위생 - 기타대인서비스","category":"beauty"}]},{"lat":"37.294290162","long":"127.05410636","imageIndex":13,"items":[{"name":"뮤헤어 광교점","tel":"031-211-3125","addr":"경기도 수원시 영통구 이의동 1312-7번지 1층 상가","indutype":"보건위생 - 미용원","category":"beauty"}]},{"lat":"37.307007655","long":"127.04369241","imageIndex":13,"items":[{"name":"미가온헤어","tel":"031-214-7676","addr":"경기도 수원시 영통구 이의동 1184번지 호반베르디움 B105호","indutype":"보건위생 - 미용원","category":"beauty"},{"name":"뷰티호텔253(BEAUTY HOTEL 253)","tel":"","addr":"경기도 수원시 영통구 이의동 1184번지 광교호반베르디움 상가 B109호","indutype":"보건위생 - 화장품","category":"beauty"}]},{"lat":"37.298258002","long":"127.04571782","imageIndex":13,"items":[{"name":"미뇽","tel":"031-212-2527","addr":"경기도 수원시 영통구 이의동 1265-6번지 1층","indutype":"보건위생 - 미용원","category":"beauty"}]},{"lat":"37.288733564","long":"127.04735888","imageIndex":13,"items":[{"name":"미스터힐링 광교지점","tel":"031-214-0926","addr":"경기도 수원시 영통구 이의동 1347-5번지","indutype":"보건위생 - 기타대인서비스","category":"beauty"},{"name":"에스떼케이","tel":"031-213-2044","addr":"경기도 수원시 영통구 이의동 1347-5번지 세븐스퀘어 4층 403호","indutype":"보건위생 - 피부미용실","category":"beauty"},{"name":"에스떼케이","tel":"031-213-2044","addr":"경기도 수원시 영통구 이의동 1347-5번지 세븐스퀘어 4층 403호","indutype":"보건위생 - 피부미용실","category":"beauty"}]},{"lat":"37.298042856","long":"127.04255972","imageIndex":13,"items":[{"name":"박승철헤어수원경기대점","tel":"031-215-7760","addr":"경기도 수원시 영통구 이의동 1275-7번지 경기캠퍼스타워 103호, 104호","indutype":"보건위생 - 미용원","category":"beauty"}]},{"lat":"37.300430096","long":"127.04394827","imageIndex":13,"items":[{"name":"베네하임 심리상담센터","tel":"031-217-9575","addr":"경기도 수원시 영통구 이의동 1257번지 201호","indutype":"보건위생 - 기타대인서비스","category":"beauty"}]},{"lat":"37.28937322","long":"127.04755097","imageIndex":13,"items":[{"name":"보두와 네일","tel":"","addr":"경기도 수원시 영통구 이의동 1347-2번지 지-타워 402호","indutype":"보건위생 - 피부미용실","category":"beauty"},{"name":"부바살롱","tel":"031-214-7034","addr":"경기도 수원시 영통구 이의동 1347-2번지 지타워 1층 104호","indutype":"보건위생 - 미용원","category":"beauty"}]},{"lat":"37.28957136","long":"127.04777663","imageIndex":13,"items":[{"name":"보보아안경원","tel":"031-212-3797","addr":"경기도 수원시 영통구 이의동 1347-1번지 105호","indutype":"보건위생 - 안경","category":"beauty"},{"name":"토리헤어 광교도청점","tel":"031-216-6766","addr":"경기도 수원시 영통구 이의동 1347-1번지 2층 202호","indutype":"보건위생 - 미용원","category":"beauty"}]},{"lat":"37.294488338","long":"127.05421927","imageIndex":13,"items":[{"name":"봄이오는날","tel":"","addr":"경기도 수원시 영통구 이의동 1312-1번지 102호","indutype":"보건위생 - 미용원","category":"beauty"},{"name":"여우스킨","tel":"031-000-0000","addr":"경기도 수원시 영통구 이의동 1312-1번지 104호","indutype":"보건위생 - 화장품","category":"beauty"}]},{"lat":"37.293650347","long":"127.05430892","imageIndex":13,"items":[{"name":"봉주르(bonjour)","tel":"031-213-7063","addr":"경기도 수원시 영통구 이의동 1319번지 1층 101호","indutype":"보건위생 - 피부미용실","category":"beauty"}]},{"lat":"37.306203555","long":"127.04961383","imageIndex":13,"items":[{"name":"뵈뵈헤어샵","tel":"031-217-9445","addr":"경기도 수원시 영통구 이의동 1212번지 광교신도시-5호반가든하임제상가동지하1층102호","indutype":"보건위생 - 미용원","category":"beauty"},{"name":"샤론영헤어샵","tel":"070-7755-4567","addr":"경기도 수원시 영통구 이의동 1212번지 호반가든하임 107호","indutype":"보건위생 - 미용원","category":"beauty"},{"name":"오땡큐(천연염색)","tel":"031-8013-8817","addr":"경기도 수원시 영통구 이의동 1212번지 호반가든하임","indutype":"보건위생 - 이용원","category":"beauty"},{"name":"향수기샵","tel":"031-234-6126","addr":"경기도 수원시 영통구 이의동 1212번지 호반가든하임 상가동 1층 110호","indutype":"보건위생 - 피부미용실","category":"beauty"}]},{"lat":"37.298591894","long":"127.04427435","imageIndex":13,"items":[{"name":"뷰티24/7","tel":"031-111-1111","addr":"경기도 수원시 영통구 이의동 1271-3번지 1층 101호","indutype":"보건위생 - 화장품","category":"beauty"}]},{"lat":"37.299122874","long":"127.04602284","imageIndex":13,"items":[{"name":"살롱드엠","tel":"031-212-9964","addr":"경기도 수원시 영통구 이의동 1263번지","indutype":"보건위생 - 미용원","category":"beauty"}]},{"lat":"37.29359648","long":"127.05385777","imageIndex":13,"items":[{"name":"살롱에이","tel":"031-215-1507","addr":"경기도 수원시 영통구 이의동 1321-11번지 지1층,1층","indutype":"보건위생 - 미용원","category":"beauty"}]},{"lat":"37.2941556","long":"127.05271908","imageIndex":13,"items":[{"name":"선스바버샵 (SUNS BARBERSHOP)","tel":"031-9141-8514","addr":"경기도 수원시 영통구 이의동 1309번지 1층 102호","indutype":"보건위생 - 미용원","category":"beauty"}]},{"lat":"37.2896086","long":"127.04449498","imageIndex":13,"items":[{"name":"심리치료연구소 봄빛","tel":"070-4065-4056","addr":"경기도 수원시 영통구 이의동 1352번지 에듀하임1309오피스텔 108동 603호","indutype":"보건위생 - 기타대인서비스","category":"beauty"}]},{"lat":"37.299844614","long":"127.04341785","imageIndex":13,"items":[{"name":"아리따움 경기대역점","tel":"031-214-4749","addr":"경기도 수원시 영통구 이의동 1257-3번지 이스턴타워 1층 107호","indutype":"보건위생 - 화장품","category":"beauty"},{"name":"에이치앤코헤어","tel":"031-257-0841","addr":"경기도 수원시 영통구 이의동 1257-3번지 이스턴타워 203호","indutype":"보건위생 - 미용원","category":"beauty"}]},{"lat":"37.286153132","long":"127.05586001","imageIndex":13,"items":[{"name":"아이룰즈(i Rulez)","tel":"031-211-4481","addr":"경기도 수원시 영통구 이의동 1338번지 광교센트럴푸르지오시티 B동 4층 415호","indutype":"보건위생 - 안경","category":"beauty"},{"name":"이가자헤어비스 광교롯데아울렛점","tel":"031-8064-2187","addr":"경기도 수원시 영통구 이의동 1338번지 1층","indutype":"보건위생 - 미용원","category":"beauty"},{"name":"피온 아동발달센터","tel":"031-000-0000","addr":"경기도 수원시 영통구 이의동 1338번지 광교센트럴푸르지오시티 A동 11층 7호","indutype":"보건위생 - 기타대인서비스","category":"beauty"},{"name":"허브","tel":"031-214-6732","addr":"경기도 수원시 영통구 이의동 1338번지 광교센트럴푸르지오시티 A동 0611호","indutype":"보건위생 - 화장품","category":"beauty"}]},{"lat":"37.294208225","long":"127.05602355","imageIndex":13,"items":[{"name":"에비뉴헤어","tel":"031-211-6131","addr":"경기도 수원시 영통구 이의동 1316-4번지 1층 및 지하1층","indutype":"보건위생 - 미용원","category":"beauty"}]},{"lat":"37.29951135","long":"127.04307931","imageIndex":13,"items":[{"name":"온더뷰티","tel":"070-3280-3289","addr":"경기도 수원시 영통구 이의동 1257-4번지 광교파인렉스2 3층 305호","indutype":"보건위생 - 미용원","category":"beauty"},{"name":"헤어더딥(광교경기대역점)","tel":"031-212-9050","addr":"경기도 수원시 영통구 이의동 1257-4번지 2층 204호","indutype":"보건위생 - 미용원","category":"beauty"}]},{"lat":"37.285299419","long":"127.05053686","imageIndex":13,"items":[{"name":"올가스킨","tel":"031-226-5788","addr":"경기도 수원시 영통구 이의동 1367번지 제상가 2동 지하1층 104호","indutype":"보건위생 - 피부미용실","category":"beauty"},{"name":"헤어바이문","tel":"031-212-3372","addr":"경기도 수원시 영통구 이의동 1367번지 자연앤자이 상가 2동 101호","indutype":"보건위생 - 미용원","category":"beauty"}]},{"lat":"37.29170549","long":"127.05108222","imageIndex":13,"items":[{"name":"올가스킨","tel":"070-7848-9303","addr":"경기도 수원시 영통구 이의동 1325-6번지 102호","indutype":"보건위생 - 화장품","category":"beauty"},{"name":"우리아이마음성장연구소","tel":"031-212-2155","addr":"경기도 수원시 영통구 이의동 1325-6번지 5층 1호","indutype":"보건위생 - 기타대인서비스","category":"beauty"}]},{"lat":"37.296072838","long":"127.0571414","imageIndex":13,"items":[{"name":"이유살롱","tel":"031-211-1029","addr":"경기도 수원시 영통구 이의동 1296-14번지 1층","indutype":"보건위생 - 미용원","category":"beauty"}]},{"lat":"37.292039048","long":"127.05064261","imageIndex":13,"items":[{"name":"이철헤어커커(경기도청역점)","tel":"031-203-2326","addr":"경기도 수원시 영통구 이의동 1325-4번지","indutype":"보건위생 - 미용원","category":"beauty"},{"name":"커커뷰티","tel":"031-203-2326","addr":"경기도 수원시 영통구 이의동 1325-4번지 108호","indutype":"보건위생 - 화장품","category":"beauty"}]},{"lat":"37.304321379","long":"127.04710863","imageIndex":13,"items":[{"name":"이츠글라시스안경(광교점)","tel":"031-212-8415","addr":"경기도 수원시 영통구 이의동 1202-3번지 1층 105-107호","indutype":"보건위생 - 안경","category":"beauty"}]},{"lat":"37.294875715","long":"127.05436615","imageIndex":13,"items":[{"name":"잉클링헤어살롱","tel":"031-223-5782","addr":"경기도 수원시 영통구 이의동 1306-14번지 101호","indutype":"보건위생 - 미용원","category":"beauty"}]},{"lat":"37.293956651","long":"127.05441063","imageIndex":13,"items":[{"name":"제이와이헤어(JY HAIR)","tel":"031-214-6788","addr":"경기도 수원시 영통구 이의동 1312-4번지 101호","indutype":"보건위생 - 미용원","category":"beauty"}]},{"lat":"37.298655197","long":"127.04360895","imageIndex":13,"items":[{"name":"주네일스토리","tel":"031-693-5889","addr":"경기도 수원시 영통구 이의동 1272번지 103호","indutype":"보건위생 - 피부미용실","category":"beauty"}]},{"lat":"37.2938146","long":"127.04930166","imageIndex":13,"items":[{"name":"주식회사피움바이오","tel":"031-8064-1910","addr":"경기도 수원시 영통구 이의동 1322-1번지 1507호","indutype":"보건위생 - 화장품","category":"beauty"}]},{"lat":"37.298482982","long":"127.04647361","imageIndex":13,"items":[{"name":"지원드림네트워크","tel":"02-444-2221","addr":"경기도 수원시 영통구 이의동 1244번지 202호","indutype":"보건위생 - 미용재료","category":"beauty"}]},{"lat":"37.305042708","long":"127.04572167","imageIndex":13,"items":[{"name":"찐네일","tel":"031-213-2128","addr":"경기도 수원시 영통구 이의동 1204번지 106호","indutype":"보건위생 - 피부미용실","category":"beauty"}]},{"lat":"37.295037449","long":"127.05539256","imageIndex":13,"items":[{"name":"최찬영 체형교정","tel":"031-211-6074","addr":"경기도 수원시 영통구 이의동 1314-4번지 1층 101호","indutype":"보건위생 - 피부미용실","category":"beauty"}]},{"lat":"37.298177048","long":"127.04533431","imageIndex":13,"items":[{"name":"쵸이스셀테라피","tel":"031-212-6787","addr":"경기도 수원시 영통구 이의동 1265-4번지 1층 101호","indutype":"보건위생 - 화장품","category":"beauty"}]},{"lat":"37.289662398","long":"127.04523931","imageIndex":13,"items":[{"name":"카머(Calmer)헤어살롱","tel":"031-000-0000","addr":"경기도 수원시 영통구 이의동 1352번지 에듀하임1309오피스텔 102동 111호","indutype":"보건위생 - 미용원","category":"beauty"}]},{"lat":"37.290815404","long":"127.04608576","imageIndex":13,"items":[{"name":"코아루네일","tel":"070-4150-1812","addr":"경기도 수원시 영통구 이의동 1351-2번지 114호","indutype":"보건위생 - 피부미용실","category":"beauty"}]},{"lat":"37.293678195","long":"127.05239171","imageIndex":13,"items":[{"name":"파란헤어","tel":"031-217-2774","addr":"경기도 수원시 영통구 이의동 1321-2번지","indutype":"보건위생 - 미용원","category":"beauty"}]},{"lat":"37.293705296","long":"127.05222256","imageIndex":13,"items":[{"name":"파란헤어 광교2호점","tel":"031-217-6688","addr":"경기도 수원시 영통구 이의동 1321-1번지 지하1, 1층","indutype":"보건위생 - 미용원","category":"beauty"}]},{"lat":"37.294010589","long":"127.05469262","imageIndex":13,"items":[{"name":"파코메리","tel":"031-212-6555","addr":"경기도 수원시 영통구 이의동 1313-6번지 1층 102호","indutype":"보건위생 - 피부미용실","category":"beauty"}]},{"lat":"37.295316806","long":"127.05530253","imageIndex":13,"items":[{"name":"프레스카","tel":"031-215-1306","addr":"경기도 수원시 영통구 이의동 1306-21번지 1층","indutype":"보건위생 - 미용원","category":"beauty"},{"name":"프레스카","tel":"","addr":"경기도 수원시 영통구 이의동 1306-21번지 202호","indutype":"보건위생 - 화장품","category":"beauty"}]},{"lat":"37.292877855","long":"127.04847782","imageIndex":13,"items":[{"name":"프리미엄 락타이","tel":"031-240-3677","addr":"경기도 수원시 영통구 이의동 1329번지 301호","indutype":"보건위생 - 화장품","category":"beauty"}]},{"lat":"37.294542807","long":"127.05327196","imageIndex":13,"items":[{"name":"하루헤어","tel":"031-905-9938","addr":"경기도 수원시 영통구 이의동 1306-7번지 102호","indutype":"보건위생 - 미용원","category":"beauty"},{"name":"헤어나오다(HAIRNAODA)","tel":"","addr":"경기도 수원시 영통구 이의동 1306-7번지 1층 101호","indutype":"보건위생 - 미용원","category":"beauty"}]},{"lat":"37.292404839","long":"127.05892064","imageIndex":13,"items":[{"name":"하르헤어","tel":"031-215-3332","addr":"경기도 수원시 영통구 이의동 1303번지 광교센트럴타운오드카운티 상가동 102호","indutype":"보건위생 - 미용원","category":"beauty"}]},{"lat":"37.294064576","long":"127.05486182","imageIndex":13,"items":[{"name":"행복한살롱","tel":"031-217-7727","addr":"경기도 수원시 영통구 이의동 1313-5번지 1층","indutype":"보건위생 - 미용원","category":"beauty"}]},{"lat":"37.299538083","long":"127.04394779","imageIndex":13,"items":[{"name":"헤라","tel":"031-211-3884","addr":"경기도 수원시 영통구 이의동 1258-3번지 광교파인렉스1차 상가 3층 302호","indutype":"보건위생 - 피부미용실","category":"beauty"}]},{"lat":"37.297763633","long":"127.04227761","imageIndex":13,"items":[{"name":"헤어더딥(광교경기대역점)","tel":"031-211-8070","addr":"경기도 수원시 영통구 이의동 1275-9번지 1층 103호","indutype":"보건위생 - 미용원","category":"beauty"}]},{"lat":"37.294183331","long":"127.05102741","imageIndex":13,"items":[{"name":"헤어더딥(프리미엄 광교카페거리점)","tel":"031-216-8090","addr":"경기도 수원시 영통구 이의동 1307번지 지하1층","indutype":"보건위생 - 미용원","category":"beauty"}]},{"lat":"37.284704157","long":"127.0519686","imageIndex":13,"items":[{"name":"헤어바이현진","tel":"031-212-3000","addr":"경기도 수원시 영통구 이의동 1369-1번지 광교프라자 202호","indutype":"보건위생 - 미용원","category":"beauty"}]},{"lat":"37.299871356","long":"127.0442525","imageIndex":13,"items":[{"name":"휴밍헤어","tel":"031-217-3409","addr":"경기도 수원시 영통구 이의동 1258-1번지 2층 202호 (이의동킴앤코시티하움)","indutype":"보건위생 - 미용원","category":"beauty"}]},{"lat":"37.289905811","long":"127.04485601","imageIndex":13,"items":[{"name":"휴스킨케어","tel":"031-892-2234","addr":"경기도 수원시 영통구 이의동 1352번지 에듀하임1309오피스텔 101동 111호","indutype":"보건위생 - 화장품","category":"beauty"}]}]