[{"lat":"37.266825418","long":"127.07430174","imageIndex":0,"items":[{"name":"(유)예원 애드카","tel":"031-273-8500","addr":"경기도 용인시 기흥구 영덕동 524-1번지","indutype":"자동차판매 - 기타운송","category":"car"},{"name":"밧데리마트","tel":"031-234-8422","addr":"경기도 용인시 기흥구 영덕동 524-1번지","indutype":"자동차정비 유지 - 자동차부품","category":"car"},{"name":"예원손세차장","tel":"031-211-6522","addr":"경기도 용인시 기흥구 영덕동 524-1번지 1층","indutype":"자동차정비 유지 - 세차장","category":"car"},{"name":"주식회사하이씨엔지","tel":"031-204-2989","addr":"경기도 용인시 기흥구 영덕동 524-1번지","indutype":"자동차정비 유지 - 자동차부품","category":"car"}]},{"lat":"37.267241934","long":"127.07082978","imageIndex":0,"items":[{"name":"(주)도이치아우토","tel":"031-214-0911","addr":"경기도 용인시 기흥구 영덕동 534-3번지","indutype":"자동차정비 유지 - 자동차부품","category":"car"},{"name":"(주)도이치아우토","tel":"02-1111-1111","addr":"경기도 용인시 기흥구 영덕동 534-3번지","indutype":"자동차판매 - 수입자동차","category":"car"}]},{"lat":"37.268237052","long":"127.09199206","imageIndex":0,"items":[{"name":"(주)부자자동차","tel":"031-278-2772","addr":"경기도 용인시 기흥구 영덕동 1266번지 A동W328호","indutype":"자동차판매 - 중고자동차판매","category":"car"},{"name":"(주)샵5모터스","tel":"031-000-0000","addr":"경기도 용인시 기흥구 영덕동 1266번지 A동 2층 W238호","indutype":"자동차판매 - 중고자동차판매","category":"car"},{"name":"(주)영모터스","tel":"031-5182-5252","addr":"경기도 용인시 기흥구 영덕동 1266번지 오토허브 A동 3층 에스360호","indutype":"자동차판매 - 중고자동차판매","category":"car"},{"name":"(주)오토허브 셀렉트","tel":"031-5182-5095","addr":"경기도 용인시 기흥구 영덕동 1266번지 오토허브 A동 1층 W119호","indutype":"자동차판매 - 중고자동차판매","category":"car"},{"name":"(주)이지오토","tel":"031-5182-5780","addr":"경기도 용인시 기흥구 영덕동 1266번지 A동 2층 W243호","indutype":"자동차판매 - 중고자동차판매","category":"car"},{"name":"(주)정도컴퍼니준","tel":"031-5182-5104","addr":"경기도 용인시 기흥구 영덕동 1266번지 A동 1층 엔104호","indutype":"자동차판매 - 중고자동차판매","category":"car"},{"name":"(주)카카오토 정비서비스","tel":"031-5182-5935","addr":"경기도 용인시 기흥구 영덕동 1266번지 C동 3층303-307호","indutype":"자동차정비 유지 - 자동차정비","category":"car"},{"name":"(주)플러스에이전시카","tel":"031-5182-5647","addr":"경기도 용인시 기흥구 영덕동 1266번지 A동 2층 엔225호","indutype":"자동차판매 - 중고자동차판매","category":"car"},{"name":"(주)화랑모터스","tel":"031-5182-5989","addr":"경기도 용인시 기흥구 영덕동 1266번지 남서울오토허브 A동 3층 N-308호","indutype":"자동차판매 - 중고자동차판매","category":"car"},{"name":"그랜드모터스 주식회사","tel":"031-5182-5199","addr":"경기도 용인시 기흥구 영덕동 1266번지 오토허브 에이동 에스348,에스349호","indutype":"자동차판매 - 중고자동차판매","category":"car"},{"name":"놀부타이어","tel":"","addr":"경기도 용인시 기흥구 영덕동 1266번지 오토허브 C동 지하1층 107호","indutype":"자동차정비 유지 - 자동차시트·타이어","category":"car"},{"name":"덴트 본","tel":"031-000-0000","addr":"경기도 용인시 기흥구 영덕동 1266번지 NS오토허브 C동 B112호","indutype":"자동차정비 유지 - 자동차정비","category":"car"},{"name":"라인모터스","tel":"070-8947-4490","addr":"경기도 용인시 기흥구 영덕동 1266번지 A동 2층 N219호","indutype":"자동차판매 - 중고자동차판매","category":"car"},{"name":"메카모터스 주식회사","tel":"031-5182-5888","addr":"경기도 용인시 기흥구 영덕동 1266번지 오토허브 에이동 에스363호 ,에스364호","indutype":"자동차판매 - 중고자동차판매","category":"car"},{"name":"베라카 중고차","tel":"031-5182-5261","addr":"경기도 용인시 기흥구 영덕동 1266번지 오토허브 A동 2층 S261호","indutype":"자동차판매 - 중고자동차판매","category":"car"},{"name":"브이아이피(VIP) 광택","tel":"031-5182-5899","addr":"경기도 용인시 기흥구 영덕동 1266번지 NS오토허브 C동 301호","indutype":"자동차정비 유지 - 카인테리어","category":"car"},{"name":"수빈 아빠 중고차","tel":"031-5182-5269","addr":"경기도 용인시 기흥구 영덕동 1266번지 NS오토허브 A동 2층 E270호","indutype":"자동차판매 - 중고자동차판매","category":"car"},{"name":"신안상사","tel":"031-5182-5951","addr":"경기도 용인시 기흥구 영덕동 1266번지 NS오토허브 C동 지하1층 8111호","indutype":"자동차정비 유지 - 자동차부품","category":"car"},{"name":"쏭카","tel":"031-5182-5264","addr":"경기도 용인시 기흥구 영덕동 1266번지 NS오토허브 A동 2층","indutype":"자동차판매 - 중고자동차판매","category":"car"},{"name":"엑스와이지 바이 페달링","tel":"031-5182-5931","addr":"경기도 용인시 기흥구 영덕동 1266번지 NS오토허브 C동 301호","indutype":"자동차정비 유지 - 세차장","category":"car"},{"name":"영모터스","tel":"031-5182-5361","addr":"경기도 용인시 기흥구 영덕동 1266번지 A동 3층 S361호","indutype":"자동차판매 - 중고자동차판매","category":"car"},{"name":"오토라인","tel":"031-5182-5600","addr":"경기도 용인시 기흥구 영덕동 1266번지 A동 2층 N201호","indutype":"자동차판매 - 중고자동차판매","category":"car"},{"name":"원모터스","tel":"031-548-0795","addr":"경기도 용인시 기흥구 영덕동 1266번지 오토허브 A동 2층 W120호","indutype":"자동차판매 - 중고자동차판매","category":"car"},{"name":"윈윈모터스","tel":"031-5182-5666","addr":"경기도 용인시 기흥구 영덕동 1266번지 오토허브 A동 3층 N318호","indutype":"자동차판매 - 중고자동차판매","category":"car"},{"name":"이안모터스","tel":"031-5182-5647","addr":"경기도 용인시 기흥구 영덕동 1266번지 A동,C동 2층 N225호","indutype":"자동차판매 - 중고자동차판매","category":"car"},{"name":"조이앤카","tel":"070-4686-9412","addr":"경기도 용인시 기흥구 영덕동 1266번지 C동 지하1층 B109호","indutype":"자동차정비 유지 - 자동차부품","category":"car"},{"name":"주식회사 내담네트웍스","tel":"02-6080-3683","addr":"경기도 용인시 기흥구 영덕동 1266번지 오토허브 A동 3층 N303호","indutype":"자동차판매 - 중고자동차판매","category":"car"},{"name":"주식회사 단암모터스","tel":"031-5182-5321","addr":"경기도 용인시 기흥구 영덕동 1266번지 NS오토허브 A동 엔321호","indutype":"자동차판매 - 중고자동차판매","category":"car"},{"name":"주식회사 롱탄","tel":"031-5182-5140","addr":"경기도 용인시 기흥구 영덕동 1266번지 A동 2층 엔204호","indutype":"자동차판매 - 중고자동차판매","category":"car"},{"name":"주식회사 모터허브자동차","tel":"031-111-1111","addr":"경기도 용인시 기흥구 영덕동 1266번지 A동 3층 W327호","indutype":"자동차판매 - 중고자동차판매","category":"car"},{"name":"주식회사 비앤에스","tel":"031-5182-5190","addr":"경기도 용인시 기흥구 영덕동 1266번지 A동 S249호","indutype":"자동차판매 - 중고자동차판매","category":"car"},{"name":"주식회사 썸카","tel":"031-5182-5326","addr":"경기도 용인시 기흥구 영덕동 1266번지 오토허브 더블유 A동 326호","indutype":"자동차판매 - 중고자동차판매","category":"car"},{"name":"주식회사 올뉴카","tel":"031-5182-5170","addr":"경기도 용인시 기흥구 영덕동 1266번지 A동 3층 S367호","indutype":"자동차판매 - 중고자동차판매","category":"car"},{"name":"주식회사 제이앤씨모터스","tel":"031-5182-5111","addr":"경기도 용인시 기흥구 영덕동 1266번지 NS오토허브 A동 1층 S128호","indutype":"자동차판매 - 중고자동차판매","category":"car"},{"name":"주식회사 중고나라","tel":"031-000-0000","addr":"경기도 용인시 기흥구 영덕동 1266번지 A동 N323호","indutype":"자동차판매 - 중고자동차판매","category":"car"},{"name":"주식회사 피에스비모터스","tel":"031-5182-5104","addr":"경기도 용인시 기흥구 영덕동 1266번지 A동 1층 엔104호","indutype":"자동차판매 - 중고자동차판매","category":"car"},{"name":"주식회사 휴먼오토","tel":"031-5182-5119","addr":"경기도 용인시 기흥구 영덕동 1266번지 에이동 1층 117호 더블유","indutype":"자동차판매 - 중고자동차판매","category":"car"},{"name":"주식회사마블모터스","tel":"031-000-0000","addr":"경기도 용인시 기흥구 영덕동 1266번지 A동 W121호","indutype":"자동차판매 - 중고자동차판매","category":"car"},{"name":"주식회사샵2모터스","tel":"031-5182-5125","addr":"경기도 용인시 기흥구 영덕동 1266번지 NS오토허브 A동 125호","indutype":"자동차판매 - 중고자동차판매","category":"car"},{"name":"차카차카 주식회사","tel":"031-5182-5313","addr":"경기도 용인시 기흥구 영덕동 1266번지 NS오토허브 A동 313호","indutype":"자동차판매 - 중고자동차판매","category":"car"},{"name":"차칸","tel":"","addr":"경기도 용인시 기흥구 영덕동 1266번지 A동 3층 S362호","indutype":"자동차판매 - 중고자동차판매","category":"car"},{"name":"천우인터내셔날(주)오토허브점","tel":"070-4235-3066","addr":"경기도 용인시 기흥구 영덕동 1266번지 A동 1층 N107호","indutype":"자동차판매 - 중고자동차판매","category":"car"},{"name":"카플러스","tel":"031-5182-5085","addr":"경기도 용인시 기흥구 영덕동 1266번지 오토히브 A동 2층 W233호","indutype":"자동차판매 - 중고자동차판매","category":"car"},{"name":"타워멀티샵","tel":"070-8851-8800","addr":"경기도 용인시 기흥구 영덕동 1266번지 C동 지하1층 114호 115호","indutype":"자동차정비 유지 - 자동차부품","category":"car"},{"name":"하나오토","tel":"031-5182-5222","addr":"경기도 용인시 기흥구 영덕동 1266번지 오토허브 A동 2층 N222호","indutype":"자동차판매 - 중고자동차판매","category":"car"}]},{"lat":"37.26835364","long":"127.09271373","imageIndex":0,"items":[{"name":"AUTOHUB SERVICE","tel":"031-5182-5777","addr":"경기도 용인시 기흥구 영덕동 1266번지 NS오토허브 C동 1층","indutype":"자동차정비 유지 - 자동차부품","category":"car"},{"name":"주식회사 닥터스워시","tel":"031-281-8979","addr":"경기도 용인시 기흥구 영덕동 21-1번지 NS오토허브 C동 3층 308호","indutype":"자동차정비 유지 - 세차장","category":"car"}]},{"lat":"37.268242043","long":"127.07088704","imageIndex":0,"items":[{"name":"MK타이어클럽","tel":"031-212-1108","addr":"경기도 용인시 기흥구 영덕동 780-5번지","indutype":"자동차정비 유지 - 자동차시트·타이어","category":"car"}]},{"lat":"37.273547786","long":"127.07313551","imageIndex":0,"items":[{"name":"OK모터스","tel":"031-205-3002","addr":"경기도 용인시 기흥구 영덕동 991-6번지","indutype":"자동차정비 유지 - 자동차정비","category":"car"}]},{"lat":"37.273682941","long":"127.07313563","imageIndex":0,"items":[{"name":"TNC자동차외형복원","tel":"031-212-1253","addr":"경기도 용인시 기흥구 영덕동 991-5번지 101호","indutype":"자동차정비 유지 - 카인테리어","category":"car"}]},{"lat":"37.265679527","long":"127.07688233","imageIndex":0,"items":[{"name":"광명모터스","tel":"031-204-1654","addr":"경기도 용인시 기흥구 영덕동 390-2번지","indutype":"회원제형태 - 자동차서비스","category":"car"},{"name":"광명세차장","tel":"031-202-0979","addr":"경기도 용인시 기흥구 영덕동 390-2번지","indutype":"자동차정비 유지 - 세차장","category":"car"}]},{"lat":"37.268151811","long":"127.07111244","imageIndex":0,"items":[{"name":"대명차유리","tel":"031-212-7772","addr":"경기도 용인시 기흥구 영덕동 780-6번지","indutype":"자동차정비 유지 - 자동차정비","category":"car"}]},{"lat":"37.268323246","long":"127.07069546","imageIndex":0,"items":[{"name":"대명카센타,차유리","tel":"031-212-7772","addr":"경기도 용인시 기흥구 영덕동 780-4번지","indutype":"자동차정비 유지 - 자동차정비","category":"car"},{"name":"슈퍼덴트칼라","tel":"031-212-7007","addr":"경기도 용인시 기흥구 영덕동 780-4번지","indutype":"자동차정비 유지 - 자동차정비","category":"car"}]},{"lat":"37.2808157","long":"127.07861108","imageIndex":0,"items":[{"name":"대성스팀세차 굿짱 3호점","tel":"031-8041-4866","addr":"경기도 용인시 기흥구 영덕동 952번지 흥덕마을11단지경남아너스빌","indutype":"자동차정비 유지 - 세차장","category":"car"}]},{"lat":"37.271376491","long":"127.07282908","imageIndex":0,"items":[{"name":"대신정공","tel":"031-213-3352","addr":"경기도 용인시 기흥구 영덕동 591번지","indutype":"자동차판매 - 기타운송","category":"car"},{"name":"성환자동차","tel":"031-213-3328","addr":"경기도 용인시 기흥구 영덕동 591번지","indutype":"자동차정비 유지 - 자동차정비","category":"car"}]},{"lat":"37.273541052","long":"127.06918931","imageIndex":0,"items":[{"name":"덴트샵","tel":"031-212-2384","addr":"경기도 용인시 기흥구 영덕동 1007-3번지 1층 102호","indutype":"자동차정비 유지 - 카인테리어","category":"car"}]},{"lat":"37.26782622","long":"127.07319784","imageIndex":0,"items":[{"name":"동화자동차유리","tel":"031-214-7769","addr":"경기도 용인시 기흥구 영덕동 544-1번지","indutype":"자동차정비 유지 - 자동차부품","category":"car"}]},{"lat":"37.270848663","long":"127.06610903","imageIndex":0,"items":[{"name":"때빼고광내차스팀세차","tel":"","addr":"경기도 용인시 기흥구 영덕동 1005번지 흥덕IT밸리 P동 202호,203호","indutype":"자동차정비 유지 - 세차장","category":"car"},{"name":"에스제이엘 주식회사 (SJL Co.,Ltd.)","tel":"031-269-8903","addr":"경기도 용인시 기흥구 영덕동 1005번지 컴플렉스동 704호","indutype":"자동차정비 유지 - 주차장","category":"car"},{"name":"연화그린텍주식회사","tel":"031-477-8541","addr":"경기도 용인시 기흥구 영덕동 1005번지 흥덕아이티밸리 콤플렉스동 14층 1401호","indutype":"자동차정비 유지 - 자동차부품","category":"car"},{"name":"유일모터스","tel":"031-224-7505","addr":"경기도 용인시 기흥구 영덕동 1005번지 지하층 흥덕IT밸리 190동 192호","indutype":"자동차정비 유지 - 자동차정비","category":"car"},{"name":"흥덕IT밸리관리위원회","tel":"031-8065-4100","addr":"경기도 용인시 기흥구 영덕동 1005번지","indutype":"자동차정비 유지 - 주차장","category":"car"}]},{"lat":"37.273512171","long":"127.07241389","imageIndex":0,"items":[{"name":"라이히스아우토반","tel":"031-211-6267","addr":"경기도 용인시 기흥구 영덕동 992-11번지 102호","indutype":"자동차정비 유지 - 자동차부품","category":"car"}]},{"lat":"37.272820167","long":"127.06930142","imageIndex":0,"items":[{"name":"마스타자동차안전카","tel":"031-205-8118","addr":"경기도 용인시 기흥구 영덕동 1008-6번지 101호","indutype":"자동차정비 유지 - 자동차정비","category":"car"}]},{"lat":"37.265335572","long":"127.09221411","imageIndex":0,"items":[{"name":"상천마린","tel":"031-206-6542","addr":"경기도 용인시 기흥구 영덕동 946번지 대영레이크빌 106동 1402호","indutype":"자동차정비 유지 - 윤활유 전문 판매","category":"car"}]},{"lat":"37.268044965","long":"127.06885754","imageIndex":0,"items":[{"name":"수원자동","tel":"031-213-0008","addr":"경기도 용인시 기흥구 영덕동 788-1번지","indutype":"자동차정비 유지 - 자동차부품","category":"car"}]},{"lat":"37.265694998","long":"127.09351101","imageIndex":0,"items":[{"name":"수원지아이티","tel":"031-890-7172","addr":"경기도 용인시 기흥구 영덕동 947번지 청현마을기흥데시앙","indutype":"자동차정비 유지 - 자동차정비","category":"car"}]},{"lat":"37.274042921","long":"127.07385756","imageIndex":0,"items":[{"name":"수원테크","tel":"031-211-5254","addr":"경기도 용인시 기흥구 영덕동 989-7번지 1층","indutype":"자동차정비 유지 - 카인테리어","category":"car"}]},{"lat":"37.275773196","long":"127.0733518","imageIndex":0,"items":[{"name":"스피드메이트 이마트흥덕점","tel":"031-211-2508","addr":"경기도 용인시 기흥구 영덕동 985-3번지 지하2층","indutype":"자동차정비 유지 - 자동차정비","category":"car"},{"name":"클린보이","tel":"031-212-3514","addr":"경기도 용인시 기흥구 영덕동 985-3번지 이마트주차장 B2층 내","indutype":"자동차정비 유지 - 세차장","category":"car"}]},{"lat":"37.273818195","long":"127.07296664","imageIndex":0,"items":[{"name":"안재운 카공업사","tel":"031-216-2211","addr":"경기도 용인시 기흥구 영덕동 991-11번지 1층","indutype":"자동차정비 유지 - 자동차정비","category":"car"}]},{"lat":"37.272962219","long":"127.07296584","imageIndex":0,"items":[{"name":"엔제이모터스(NJ MOTORS)","tel":"031-211-6441","addr":"경기도 용인시 기흥구 영덕동 1000-9번지","indutype":"자동차정비 유지 - 카인테리어","category":"car"}]},{"lat":"37.269541075","long":"127.08282763","imageIndex":0,"items":[{"name":"영덕모터스","tel":"031-206-2831","addr":"경기도 용인시 기흥구 영덕동 175-7번지","indutype":"자동차정비 유지 - 자동차정비","category":"car"}]},{"lat":"37.275824907","long":"127.07719669","imageIndex":0,"items":[{"name":"오토오아시스 흥덕점","tel":"031-216-6667","addr":"경기도 용인시 기흥구 영덕동 1027번지","indutype":"자동차정비 유지 - 자동차시트·타이어","category":"car"}]},{"lat":"37.26823529","long":"127.09430323","imageIndex":0,"items":[{"name":"위드지","tel":"","addr":"경기도 용인시 기흥구 영덕동 15번지 청현마을신일아파트","indutype":"자동차정비 유지 - 자동차부품","category":"car"}]},{"lat":"37.274822462","long":"127.08078116","imageIndex":0,"items":[{"name":"유타워 광택","tel":"031-211-1131","addr":"경기도 용인시 기흥구 영덕동 1029번지 U-TOWER B210호","indutype":"자동차정비 유지 - 카인테리어","category":"car"},{"name":"흥덕(유타워)카정비소","tel":"031-211-1131","addr":"경기도 용인시 기흥구 영덕동 1029번지 U-TOWER지하2층B210호","indutype":"자동차정비 유지 - 자동차정비","category":"car"},{"name":"흥덕유-타워 지식산업센터 관리단","tel":"031-627-5093","addr":"경기도 용인시 기흥구 영덕동 1029번지","indutype":"자동차정비 유지 - 주차장","category":"car"}]},{"lat":"37.267267368","long":"127.07355808","imageIndex":0,"items":[{"name":"저먼모터스(주)","tel":"031-206-7501","addr":"경기도 용인시 기흥구 영덕동 523번지","indutype":"자동차정비 유지 - 자동차정비","category":"car"}]},{"lat":"37.2772509","long":"127.07331936","imageIndex":0,"items":[{"name":"주식회사 나우비엠씨","tel":"031-211-4876","addr":"경기도 용인시 기흥구 영덕동 974-10번지 흥덕U프라자 3층","indutype":"자동차정비 유지 - 주차장","category":"car"}]},{"lat":"37.266462332","long":"127.09158411","imageIndex":0,"items":[{"name":"주식회사 메디쿠스 수원","tel":"031-281-5576","addr":"경기도 용인시 기흥구 영덕동 127번지","indutype":"자동차정비 유지 - 자동차부품","category":"car"}]},{"lat":"37.273432758","long":"127.06949363","imageIndex":0,"items":[{"name":"차고치는집","tel":"031-262-8538","addr":"경기도 용인시 기흥구 영덕동 1008-1번지 101호","indutype":"자동차정비 유지 - 자동차정비","category":"car"}]},{"lat":"37.2664625","long":"127.09135863","imageIndex":0,"items":[{"name":"칠성광택세차","tel":"","addr":"경기도 용인시 기흥구 영덕동 128-5번지 1층","indutype":"자동차정비 유지 - 세차장","category":"car"}]},{"lat":"37.268982037","long":"127.09572468","imageIndex":0,"items":[{"name":"카카워시 출장세차","tel":"","addr":"경기도 용인시 기흥구 영덕동 13번지 두진아파트","indutype":"자동차정비 유지 - 세차장","category":"car"}]},{"lat":"37.275550569","long":"127.06878517","imageIndex":0,"items":[{"name":"하이크리닝","tel":"070-8234-6791","addr":"경기도 용인시 기흥구 영덕동 흥덕택지개발지구1-1BL 휴먼시아흥덕마을104-1402","indutype":"자동차정비 유지 - 카인테리어","category":"car"}]},{"lat":"37.267735808","long":"127.07371636","imageIndex":0,"items":[{"name":"현대카네비","tel":"031-282-8288","addr":"경기도 용인시 기흥구 영덕동 545-5","indutype":"자동차정비 유지 - 자동차부품","category":"car"}]},{"lat":"37.267789904","long":"127.07366004","imageIndex":0,"items":[{"name":"현대카오디오","tel":"031-215-8289","addr":"경기도 용인시 기흥구 영덕동 545-3번지","indutype":"자동차정비 유지 - 카인테리어","category":"car"}]},{"lat":"37.272040506","long":"127.09049701","imageIndex":0,"items":[{"name":"후퍼옵틱 수원영통점","tel":"070-7633-8856","addr":"경기도 용인시 기흥구 영덕동 1111-4번지 1층","indutype":"자동차정비 유지 - 카인테리어","category":"car"}]},{"lat":"37.273962259","long":"127.07313589","imageIndex":0,"items":[{"name":"흥덕모터스","tel":"031-212-2422","addr":"경기도 용인시 기흥구 영덕동 991-3번지 1층","indutype":"자동차정비 유지 - 자동차정비","category":"car"}]}]