[{"lat":"37.007937582","long":"127.27345488","imageIndex":17,"items":[{"name":"금호복층유리","tel":"031-673-4906","addr":"경기도 안성시 숭인동 68번지","indutype":"건축자재 - 유리","category":"other"}]},{"lat":"37.00874733","long":"127.27398583","imageIndex":17,"items":[{"name":"만능하우징설비","tel":"031-676-6886","addr":"경기도 안성시 숭인동 12번지","indutype":"건축자재 - 인테리어전문","category":"other"}]},{"lat":"37.00780273","long":"127.27331958","imageIndex":17,"items":[{"name":"쌍둥이네농원","tel":"031-677-3897","addr":"경기도 안성시 숭인동 73번지 중앙연립 101호","indutype":"회원제형태 - 기타1","category":"other"}]},{"lat":"37.012131911","long":"127.27548101","imageIndex":17,"items":[{"name":"씨유안성동신점","tel":"031-674-1795","addr":"경기도 안성시 숭인동 88번지 동신아파트","indutype":"유통업 영리 - 편 의 점","category":"other"}]},{"lat":"37.008943841","long":"127.27473931","imageIndex":17,"items":[{"name":"안성시건강가정다문화가족지원센터/아이돌","tel":"031-674-0130","addr":"경기도 안성시 숭인동 296-5번지","indutype":"기타 - 비영리/대상","category":"other"}]},{"lat":"37.010243984","long":"127.27359789","imageIndex":17,"items":[{"name":"예림","tel":"031-671-0348","addr":"경기도 안성시 숭인동 24-1번지","indutype":"서적문구 - 출판 및 인쇄물","category":"other"}]},{"lat":"37.010216568","long":"127.27376633","imageIndex":17,"items":[{"name":"주식회사제이솔루션","tel":"031-675-5169","addr":"경기도 안성시 숭인동 23번지 1층","indutype":"기타 - 기계공구","category":"other"}]},{"lat":"37.009972461","long":"127.27412501","imageIndex":17,"items":[{"name":"하나정보통신","tel":"031-676-9647","addr":"경기도 안성시 숭인동 21번지","indutype":"사무통신 - 컴퓨터","category":"other"}]}]