[{"lat":"37.667299728","long":"126.79907163","imageIndex":16,"items":[{"name":"Y수학","tel":"031-906-7978","addr":"경기도 고양시 일산동구 숲속마을로","indutype":"회원제형태 - 학원","category":"study"}]},{"lat":"37.665881398","long":"126.79687673","imageIndex":16,"items":[{"name":"밀라노피아노교습소","tel":"031-908-1191","addr":"경기도 고양시 일산동구 숲속마을로","indutype":"학원 - 예·체능계학원","category":"study"}]},{"lat":"37.667239528","long":"126.80073791","imageIndex":16,"items":[{"name":"백쌤영어박쌤수학학원","tel":"031-909-1255","addr":"경기도 고양시 일산동구 숲속마을로","indutype":"회원제형태 - 학원","category":"study"}]},{"lat":"37.674172801","long":"126.8035869","imageIndex":16,"items":[{"name":"소리교육","tel":"031-903-2664","addr":"경기도 고양시 일산동구 숲속마을로","indutype":"학원 - 예·체능계학원","category":"study"}]},{"lat":"37.667325835","long":"126.79853885","imageIndex":16,"items":[{"name":"아이끌레르미술학원","tel":"031-902-0357","addr":"경기도 고양시 일산동구 숲속마을로","indutype":"학원 - 예·체능계학원","category":"study"}]},{"lat":"37.667938823","long":"126.79872986","imageIndex":16,"items":[{"name":"예음클래식피아노학원","tel":"031-906-5979","addr":"경기도 고양시 일산동구 숲속마을로","indutype":"학원 - 예·체능계학원","category":"study"}]},{"lat":"37.667326267","long":"126.7987882","imageIndex":16,"items":[{"name":"이상수최강수학학원","tel":"031-905-9918","addr":"경기도 고양시 일산동구 숲속마을로","indutype":"학원 - 보습학원","category":"study"},{"name":"행복을그리는아이미술교습소","tel":"070-8863-1581","addr":"경기도 고양시 일산동구 숲속마을로","indutype":"학원 - 예·체능계학원","category":"study"}]},{"lat":"37.667659681","long":"126.79882129","imageIndex":16,"items":[{"name":"힐링키즈교육","tel":"031-904-0532","addr":"경기도 고양시 일산동구 숲속마을로","indutype":"학원 - 기타 교육기관","category":"study"}]}]