[{"lat":"37.004217073","long":"127.15713776","imageIndex":7,"items":[{"name":"건국우유 평택.공도대리점","tel":"031-692-8778","addr":"경기도 안성시 공도읍 용두리 525-1 (3호)","indutype":"음료식품 - 기타음료식품","category":"food"}]},{"lat":"37.002524656","long":"127.16930151","imageIndex":7,"items":[{"name":"경북방앗간","tel":"031-618-2273","addr":"경기도 안성시 공도읍 용두리 138-3번지","indutype":"음료식품 - 기타음료식품","category":"food"}]},{"lat":"37.000190886","long":"127.1627468","imageIndex":7,"items":[{"name":"고향애","tel":"031-653-2538","addr":"경기도 안성시 공도읍 용두리 225번지","indutype":"음료식품 - 기타음료식품","category":"food"}]},{"lat":"37.006768296","long":"127.16958041","imageIndex":7,"items":[{"name":"공도약초건강원","tel":"031-653-2055","addr":"경기도 안성시 공도읍 용두리 104-2번지","indutype":"건강식품 - 기타건강식품","category":"food"}]},{"lat":"37.015496826","long":"127.16510483","imageIndex":7,"items":[{"name":"규남농장","tel":"031-351-8824","addr":"경기도 안성시 공도읍 용두리 378-4번지 1층","indutype":"음료식품 - 농·축·수산품","category":"food"}]},{"lat":"36.999213163","long":"127.16610378","imageIndex":7,"items":[{"name":"농업회사법인안성로컬푸드유통센터유한회사","tel":"031-656-0747","addr":"경기도 안성시 공도읍 용두리 265-3번지 컬푸드 유통센터","indutype":"음료식품 - 농·축·수산품","category":"food"}]},{"lat":"37.015800826","long":"127.16682468","imageIndex":7,"items":[{"name":"다나농장","tel":"031-618-3830","addr":"경기도 안성시 공도읍 용두리 382-9번지","indutype":"음료식품 - 농·축·수산품","category":"food"}]},{"lat":"37.005768145","long":"127.16955575","imageIndex":7,"items":[{"name":"대한민국만세축산","tel":"031-654-0464","addr":"경기도 안성시 공도읍 용두리 129-4번지","indutype":"음료식품 - 정육점","category":"food"}]},{"lat":"37.007714035","long":"127.16985212","imageIndex":7,"items":[{"name":"더블유앤케이크 (W&cake)","tel":"","addr":"경기도 안성시 공도읍 용두리 103-1번지 2층","indutype":"음료식품 - 제과점","category":"food"}]},{"lat":"37.00919064","long":"127.17066432","imageIndex":7,"items":[{"name":"델리퀸안성점","tel":"031-654-6630","addr":"경기도 안성시 공도읍 용두리 93-1번지","indutype":"음료식품 - 정육점","category":"food"}]},{"lat":"37.002074517","long":"127.16901966","imageIndex":7,"items":[{"name":"르쥬르뒤뺑","tel":"070-4795-1777","addr":"경기도 안성시 공도읍 용두리 157-3번지","indutype":"음료식품 - 제과점","category":"food"}]},{"lat":"36.998109775","long":"127.1556313","imageIndex":7,"items":[{"name":"백가농장","tel":"031-673-8445","addr":"경기도 안성시 공도읍 용두리 717-17","indutype":"음료식품 - 농·축·수산품","category":"food"}]},{"lat":"37.009712876","long":"127.17093512","imageIndex":7,"items":[{"name":"샘물떡방","tel":"031-618-1398","addr":"경기도 안성시 공도읍 용두리 73-1번지 1층 5,6~A,B,C호","indutype":"음료식품 - 제과점","category":"food"}]},{"lat":"37.00588541","long":"127.16946613","imageIndex":7,"items":[{"name":"셀프수산","tel":"031-692-6767","addr":"경기도 안성시 공도읍 용두리 104-10번지","indutype":"음료식품 - 농·축·수산품","category":"food"}]},{"lat":"36.999408306","long":"127.15485874","imageIndex":7,"items":[{"name":"쌍둥이떡방앗간","tel":"031-656-5053","addr":"경기도 안성시 공도읍 용두리 682-12","indutype":"음료식품 - 제과점","category":"food"}]},{"lat":"37.000689409","long":"127.16719667","imageIndex":7,"items":[{"name":"아저씨네 과일","tel":"031-111-1111","addr":"경기도 안성시 공도읍 용두리 755번지 안성공도우미린더퍼스트 112동 1003호","indutype":"음료식품 - 농·축·수산품","category":"food"},{"name":"클로버. (clover)37","tel":"070-0000-0000","addr":"경기도 안성시 공도읍 용두리 755번지 우미린더퍼스트 2동 103호","indutype":"음료식품 - 기타음료식품","category":"food"}]},{"lat":"37.010549399","long":"127.16552128","imageIndex":7,"items":[{"name":"안성비단잉어","tel":"031-658-3451","addr":"경기도 안성시 공도읍 용두리 395-2","indutype":"음료식품 - 농·축·수산품","category":"food"}]},{"lat":"37.013713057","long":"127.16485384","imageIndex":7,"items":[{"name":"재단법인 행복그린넷","tel":"070-7842-5155","addr":"경기도 안성시 공도읍 용두리 404-1번지","indutype":"음료식품 - 기타음료식품","category":"food"}]},{"lat":"37.001137864","long":"127.16869182","imageIndex":7,"items":[{"name":"청년과일","tel":"041-111-1111","addr":"경기도 안성시 공도읍 용두리 158-8번지 청당비전파크 106호","indutype":"음료식품 - 농·축·수산품","category":"food"},{"name":"헬로우슬라임 안성공도점","tel":"031-000-0000","addr":"경기도 안성시 공도읍 용두리 158-8번지 3층 청담비전파크 303호","indutype":"음료식품 - 기타음료식품","category":"food"}]},{"lat":"37.001383745","long":"127.16016536","imageIndex":7,"items":[{"name":"평택안성매일유기농대리점","tel":"031-657-5535","addr":"경기도 안성시 공도읍 용두리 238-7번지","indutype":"음료식품 - 기타음료식품","category":"food"}]},{"lat":"37.003295813","long":"127.15879865","imageIndex":7,"items":[{"name":"한국야쿠르트공도점","tel":"031-651-8521","addr":"경기도 안성시 공도읍 용두리 526-6 다동","indutype":"음료식품 - 기타음료식품","category":"food"}]}]