[{"lat":"37.158919543","long":"127.01953227","imageIndex":17,"items":[{"name":"(주)사랑의숲","tel":"031-366-4926","addr":"경기도 화성시 정남면 내리 82-2번지 1동","indutype":"문화.취미 - 화원","category":"other"}]},{"lat":"37.162136454","long":"127.0182045","imageIndex":17,"items":[{"name":"GS25정남내리점","tel":"","addr":"경기도 화성시 정남면 내리 48-1번지","indutype":"유통업 영리 - 편 의 점","category":"other"}]},{"lat":"37.162226047","long":"127.02175088","imageIndex":17,"items":[{"name":"경기폴리머","tel":"031-354-2146","addr":"경기도 화성시 정남면 내리 15-1번지","indutype":"직물 - 기타직물","category":"other"}]},{"lat":"37.153693938","long":"127.01583882","imageIndex":17,"items":[{"name":"대진특수용접","tel":"031-237-8334","addr":"경기도 화성시 정남면 내리 171-6번지","indutype":"용역 서비스 - 기타용역서비스","category":"other"}]},{"lat":"37.161388196","long":"127.02097385","imageIndex":17,"items":[{"name":"미니스톱화성내리점","tel":"031-1577-9621","addr":"경기도 화성시 정남면 내리 19-6번지","indutype":"유통업 영리 - 편 의 점","category":"other"}]},{"lat":"37.157532535","long":"127.01447731","imageIndex":17,"items":[{"name":"미엘","tel":"070-8262-1995","addr":"경기도 화성시 정남면 내리 129번지","indutype":"가구 - 일반가구","category":"other"}]},{"lat":"37.159532262","long":"127.01947611","imageIndex":17,"items":[{"name":"신성정밀","tel":"031-222-8535","addr":"경기도 화성시 정남면 내리 82번지","indutype":"전기제품 - 기타전기제품","category":"other"}]},{"lat":"37.160135994","long":"127.01925108","imageIndex":17,"items":[{"name":"신승특장차","tel":"031-366-6167","addr":"경기도 화성시 정남면 내리 77-13번지","indutype":"기타 - 기타 전문점","category":"other"}]},{"lat":"37.161892945","long":"127.01987067","imageIndex":17,"items":[{"name":"씨유화성정남내리점","tel":"080-080-3663","addr":"경기도 화성시 정남면 내리 64-2번지 1층","indutype":"유통업 영리 - 편 의 점","category":"other"}]},{"lat":"37.16217183","long":"127.02269656","imageIndex":17,"items":[{"name":"에이티엠 (A.T.M)","tel":"031-377-0095","addr":"경기도 화성시 정남면 내리 13번지","indutype":"전기제품 - 기타전기제품","category":"other"}]},{"lat":"37.157082221","long":"127.01209064","imageIndex":17,"items":[{"name":"엠에스티(MST)","tel":"031-354-4940","addr":"경기도 화성시 정남면 내리 187-3번지","indutype":"기타 - 기계공구","category":"other"}]},{"lat":"37.154720954","long":"127.01736997","imageIndex":17,"items":[{"name":"주식회사 나이스토탈","tel":"070-7686-1340","addr":"경기도 화성시 정남면 내리 160-8번지","indutype":"건축자재 - 인테리어전문","category":"other"}]},{"lat":"37.162532785","long":"127.01917279","imageIndex":17,"items":[{"name":"휴니웰(수원지사)","tel":"031-236-7553","addr":"경기도 화성시 정남면 내리 41-1","indutype":"신변잡화 - 기타잡화","category":"other"}]}]