[{"lat":"37.337894858","long":"127.09237895","imageIndex":7,"items":[{"name":"All Market","tel":"031-262-0707","addr":"경기도 용인시 수지구 동천동 941-1번지 1층 101, 102호","indutype":"유통업 영리 - 슈퍼마켓","category":"mart"},{"name":"Bon Market","tel":"031-896-7557","addr":"경기도 용인시 수지구 동천동 941-1,-2,-3,-4","indutype":"유통업 영리 - 슈퍼마켓","category":"mart"},{"name":"주식회사건명","tel":"031-264-3535","addr":"경기도 용인시 수지구 동천동 941-1번지 지스케어빌딩 202호","indutype":"유통업 영리 - 슈퍼마켓","category":"mart"}]},{"lat":"37.347393967","long":"127.08916246","imageIndex":7,"items":[{"name":"뱅가온","tel":"031-897-4959","addr":"경기도 용인시 수지구 동천동 87-14번지 104호","indutype":"유통업 영리 - 슈퍼마켓","category":"mart"}]},{"lat":"37.340288669","long":"127.09612835","imageIndex":7,"items":[{"name":"아이스비어","tel":"02-1234-1234","addr":"경기도 용인시 수지구 동천동 174-9번지","indutype":"유통업 영리 - 슈퍼마켓","category":"mart"}]},{"lat":"37.341033769","long":"127.0995486","imageIndex":7,"items":[{"name":"에이스마트","tel":"031-276-6296","addr":"경기도 용인시 수지구 동천동 198번지 상가 1층","indutype":"유통업 영리 - 슈퍼마켓","category":"mart"}]},{"lat":"37.3401771","long":"127.10040514","imageIndex":7,"items":[{"name":"우리마트","tel":"031-276-3800","addr":"경기도 용인시 수지구 동천동 325-11번지","indutype":"유통업 영리 - 슈퍼마켓","category":"mart"}]},{"lat":"37.339676014","long":"127.09608245","imageIndex":7,"items":[{"name":"이시돌마트","tel":"031-266-5562","addr":"경기도 용인시 수지구 동천동 355-3번지","indutype":"유통업 영리 - 슈퍼마켓","category":"mart"}]},{"lat":"37.341394314","long":"127.09937978","imageIndex":7,"items":[{"name":"주식회사 농수산식자재마트 용인점","tel":"031-261-8181","addr":"경기도 용인시 수지구 동천동 969번지 동천파크뷰 101동 106호","indutype":"유통업 영리 - 슈퍼마켓","category":"mart"}]},{"lat":"37.336518037","long":"127.09005276","imageIndex":7,"items":[{"name":"총각네야채가게수지동천점","tel":"031-264-5289","addr":"경기도 용인시 수지구 동천동 938번지 한빛마을래미안이스트팰리스2단지제상가동제2블럭24호","indutype":"유통업 영리 - 슈퍼마켓","category":"mart"}]},{"lat":"37.339981312","long":"127.09740314","imageIndex":7,"items":[{"name":"케어마트(CAREMART)","tel":"053-324-7202","addr":"경기도 용인시 수지구 동천동 913 영남네오빌아트상가 케어마트","indutype":"유통업 영리 - 슈퍼마켓","category":"mart"}]},{"lat":"37.335650605","long":"127.09332415","imageIndex":7,"items":[{"name":"한겨레초록마을동천점","tel":"031-264-6290","addr":"경기도 용인시 수지구 동천동 873-4,5에덴파크1층102","indutype":"유통업 영리 - 슈퍼마켓","category":"mart"}]}]