[{"lat":"37.97609385","long":"127.01006359","imageIndex":7,"items":[{"name":"감악산민물장어양식장","tel":"031-959-8899","addr":"경기도 파주시 적성면 적암리 157","indutype":"음료식품 - 농·축·수산품","category":"food"}]},{"lat":"37.979706592","long":"127.00909647","imageIndex":7,"items":[{"name":"수우원","tel":"031-958-9154","addr":"경기도 파주시 적성면 적암리 145-3번지","indutype":"음료식품 - 농·축·수산품","category":"food"},{"name":"수우원 교육농장","tel":"031-958-9154","addr":"경기도 파주시 적성면 적암리 145-3번지","indutype":"음료식품 - 농·축·수산품","category":"food"}]},{"lat":"37.990094299","long":"126.99953511","imageIndex":17,"items":[{"name":"경진환경","tel":"031-959-7789","addr":"경기도 파주시 적성면 적암리 254-1번지","indutype":"용역 서비스 - 종합용역","category":"other"}]},{"lat":"37.983679766","long":"127.00606903","imageIndex":17,"items":[{"name":"주식회사 전진산업","tel":"031-958-3532","addr":"경기도 파주시 적성면 적암리 115-4번지","indutype":"유통업 영리 - 기타유통업","category":"other"}]},{"lat":"37.985895876","long":"127.00962061","imageIndex":4,"items":[{"name":"뚱땡이네","tel":"031-959-6800","addr":"경기도 파주시 적성면 적암리 32-8번지","indutype":"일반휴게음식 - 일반한식","category":"restaurant"}]},{"lat":"37.981959048","long":"127.00170951","imageIndex":4,"items":[{"name":"스마일하우스","tel":"031-7503-5186","addr":"경기도 파주시 적성면 적암리 113-2번지","indutype":"일반휴게음식 - 일반한식","category":"restaurant"}]},{"lat":"37.985598333","long":"127.01297854","imageIndex":4,"items":[{"name":"아람만두","tel":"031-958-8988","addr":"경기도 파주시 적성면 적암리 24-1번지","indutype":"일반휴게음식 - 일반한식","category":"restaurant"}]},{"lat":"37.986427539","long":"127.00697979","imageIndex":8,"items":[{"name":"자연산약초","tel":"031-832-3949","addr":"경기도 파주시 적성면 적암리 40-4번지","indutype":"약국 - 한약방","category":"medical"}]},{"lat":"37.987589792","long":"127.0037584","imageIndex":16,"items":[{"name":"적암초등학교병설유치원[아이행복]","tel":"031-959-4441","addr":"경기도 파주시 적성면 적암리 83-2번지","indutype":"학원 - 유치원","category":"study"}]},{"lat":"37.985265093","long":"127.01173777","imageIndex":9,"items":[{"name":"파주종합가스","tel":"031-952-1333","addr":"경기도 파주시 적성면 적암리 25-1","indutype":"연료판매점 - LPG 취급점","category":"oil"}]}]