[{"lat":"37.253961271","long":"127.01791872","imageIndex":13,"items":[{"name":"007당구장","tel":"031-223-5214","addr":"경기도 수원시 권선구 세류동 1095-9번지 2층","indutype":"레저업소 - 당 구 장","category":"leisure"},{"name":"돌고래노래연습장","tel":"031-224-7036","addr":"경기도 수원시 권선구 세류동 1095-9번지 지층","indutype":"레저업소 - 노 래 방","category":"leisure"}]},{"lat":"37.256186485","long":"127.0203427","imageIndex":13,"items":[{"name":"01당구장","tel":"031-236-2295","addr":"경기도 수원시 권선구 세류동 1077-11번지 2층","indutype":"레저업소 - 당 구 장","category":"leisure"}]},{"lat":"37.253574513","long":"127.01086246","imageIndex":13,"items":[{"name":"CK 킥복싱MMA GYM","tel":"031-232-7797","addr":"경기도 수원시 권선구 세류동 544-35번지 4층","indutype":"레저업소 - 헬스클럽","category":"leisure"}]},{"lat":"37.263540154","long":"127.00514792","imageIndex":13,"items":[{"name":"KTV 노래연습장","tel":"031-235-8002","addr":"경기도 수원시 권선구 세류동 244-43번지","indutype":"레저업소 - 노 래 방","category":"leisure"},{"name":"토마토노래연습장","tel":"031-221-1014","addr":"경기도 수원시 권선구 세류동 244-43번지","indutype":"레저업소 - 노 래 방","category":"leisure"}]},{"lat":"37.250798633","long":"127.01806462","imageIndex":13,"items":[{"name":"MS노래연습장","tel":"031-225-3392","addr":"경기도 수원시 권선구 세류동 1120-4번지 지층","indutype":"레저업소 - 노 래 방","category":"leisure"},{"name":"엠에스(M.S)노래연습장","tel":"031-225-6760","addr":"경기도 수원시 권선구 세류동 1120-4번지","indutype":"레저업소 - 노 래 방","category":"leisure"}]},{"lat":"37.256989375","long":"127.01150534","imageIndex":13,"items":[{"name":"PRC클라이밍쎈타","tel":"031-4413-8848","addr":"경기도 수원시 권선구 세류동 531-2번지 3층","indutype":"레저업소 - 기타레져업소","category":"leisure"},{"name":"천구당구장","tel":"034-222-5141","addr":"경기도 수원시 권선구 세류동 531-2번지 2층","indutype":"레저업소 - 당 구 장","category":"leisure"}]},{"lat":"37.251961422","long":"127.0139169","imageIndex":13,"items":[{"name":"강산","tel":"031-236-3067","addr":"경기도 수원시 권선구 세류동 987-28번지","indutype":"레저업소 - 노 래 방","category":"leisure"}]},{"lat":"37.259215086","long":"127.0087776","imageIndex":13,"items":[{"name":"거기노래방","tel":"031-236-6551","addr":"경기도 수원시 권선구 세류동 443-27번지","indutype":"레저업소 - 노 래 방","category":"leisure"}]},{"lat":"37.259431048","long":"127.01300489","imageIndex":13,"items":[{"name":"고고당구장(GOGO)","tel":"031-238-4939","addr":"경기도 수원시 권선구 세류동 513번지 3층","indutype":"레저업소 - 당 구 장","category":"leisure"}]},{"lat":"37.261765072","long":"127.00712065","imageIndex":13,"items":[{"name":"고고피시카페(GOGO PC CAFE)","tel":"02-2222-2222","addr":"경기도 수원시 권선구 세류동 1277-2번지 501호","indutype":"레저업소 - 기타레져업소","category":"leisure"}]},{"lat":"37.260575366","long":"127.01289232","imageIndex":13,"items":[{"name":"고스트캐슬","tel":"070-2326-2056","addr":"경기도 수원시 권선구 세류동 172-13번지 2층","indutype":"레저업소 - 기타레져업소","category":"leisure"}]},{"lat":"37.259404077","long":"127.01228343","imageIndex":13,"items":[{"name":"고향노래연습장","tel":"","addr":"경기도 수원시 권선구 세류동 476-9번지","indutype":"레저업소 - 노 래 방","category":"leisure"}]},{"lat":"37.254466032","long":"127.0163971","imageIndex":13,"items":[{"name":"궁노래연습장","tel":"031-238-8502","addr":"경기도 수원시 권선구 세류동 1091-10번지 2층","indutype":"레저업소 - 노 래 방","category":"leisure"}]},{"lat":"37.254294966","long":"127.01520224","imageIndex":13,"items":[{"name":"금강산 노래연습장","tel":"031-3459-7005","addr":"경기도 수원시 권선구 세류동 1010-8번지 지하1층","indutype":"레저업소 - 노 래 방","category":"leisure"}]},{"lat":"37.25385322","long":"127.01733256","imageIndex":13,"items":[{"name":"금수강산노래연습장","tel":"031-2479-2869","addr":"경기도 수원시 권선구 세류동 1107번지 2층","indutype":"레저업소 - 노 래 방","category":"leisure"}]},{"lat":"37.250933821","long":"127.0178054","imageIndex":13,"items":[{"name":"노다지 노래연습장","tel":"031-224-2194","addr":"경기도 수원시 권선구 세류동 1119-29번지 지하1층","indutype":"레저업소 - 노 래 방","category":"leisure"}]},{"lat":"37.249600827","long":"127.01269925","imageIndex":13,"items":[{"name":"당구사랑","tel":"031-205-7165","addr":"경기도 수원시 권선구 세류동 975-11번지 201호","indutype":"레저업소 - 당 구 장","category":"leisure"}]},{"lat":"37.254655317","long":"127.01577717","imageIndex":13,"items":[{"name":"당구야놀자","tel":"070-8945-4939","addr":"경기도 수원시 권선구 세류동 1090-8번지","indutype":"레저업소 - 당 구 장","category":"leisure"}]},{"lat":"37.258520566","long":"127.01727709","imageIndex":13,"items":[{"name":"당구타임","tel":"031-221-6460","addr":"경기도 수원시 권선구 세류동 862번지 웰빙프라자 2층 204호","indutype":"레저업소 - 당 구 장","category":"leisure"},{"name":"당구타임","tel":"031-221-6460","addr":"경기도 수원시 권선구 세류동 862번지 웰빙프라자 204호","indutype":"레저업소 - 당 구 장","category":"leisure"},{"name":"뮤직 노래연습장","tel":"031-898-8186","addr":"경기도 수원시 권선구 세류동 862번지 205,206호","indutype":"레저업소 - 노 래 방","category":"leisure"},{"name":"아이디필라테스","tel":"031-234-3337","addr":"경기도 수원시 권선구 세류동 862번지 웰빙프라자 301호","indutype":"레저업소 - 헬스클럽","category":"leisure"},{"name":"어썸PC CAFE","tel":"070-3124-1769","addr":"경기도 수원시 권선구 세류동 862번지 웰빙프라자 4층 403호","indutype":"레저업소 - 기타레져업소","category":"leisure"},{"name":"웰빙스크린골프","tel":"031-237-7117","addr":"경기도 수원시 권선구 세류동 862번지 웰빙프라자 4층 401호","indutype":"레저업소 - 스크린골프","category":"leisure"}]},{"lat":"37.255628857","long":"127.01095285","imageIndex":13,"items":[{"name":"대물실내낚시터","tel":"031-223-2733","addr":"경기도 수원시 권선구 세류동 459-7번지","indutype":"레저업소 - 기타레져업소","category":"leisure"},{"name":"킹당구클럽","tel":"031-232-3945","addr":"경기도 수원시 권선구 세류동 459-7번지 2층","indutype":"레저업소 - 당 구 장","category":"leisure"}]},{"lat":"37.25413279","long":"127.01511204","imageIndex":13,"items":[{"name":"대장군 노래연습장","tel":"031-3588-0678","addr":"경기도 수원시 권선구 세류동 1010-7번지","indutype":"레저업소 - 노 래 방","category":"leisure"}]},{"lat":"37.258845562","long":"127.01055865","imageIndex":13,"items":[{"name":"럭셔리노래연습장","tel":"031-236-9593","addr":"경기도 수원시 권선구 세류동 470-1번지 지하","indutype":"레저업소 - 노 래 방","category":"leisure"}]},{"lat":"37.257907888","long":"127.01708534","imageIndex":13,"items":[{"name":"럭셔리노래연습장","tel":"070-8185-3296","addr":"경기도 수원시 권선구 세류동 881번지","indutype":"레저업소 - 노 래 방","category":"leisure"}]},{"lat":"37.24968188","long":"127.01317266","imageIndex":13,"items":[{"name":"레드PC방","tel":"","addr":"경기도 수원시 권선구 세류동 1139-22번지 2층","indutype":"레저업소 - 기타레져업소","category":"leisure"},{"name":"에이스노래연습장","tel":"031-239-1006","addr":"경기도 수원시 권선구 세류동 1139-22번지 지층","indutype":"레저업소 - 노 래 방","category":"leisure"}]},{"lat":"37.254132637","long":"127.01650976","imageIndex":13,"items":[{"name":"레인보우노래연습장","tel":"031-239-3194","addr":"경기도 수원시 권선구 세류동 1109번지 지층","indutype":"레저업소 - 노 래 방","category":"leisure"}]},{"lat":"37.256321716","long":"127.01981293","imageIndex":13,"items":[{"name":"맥스피드 PC 수원세류점","tel":"070-3465-2313","addr":"경기도 수원시 권선구 세류동 1076-3번지 3층 301호","indutype":"레저업소 - 기타레져업소","category":"leisure"},{"name":"센츄리3쿠션전용클럽","tel":"031-238-0043","addr":"경기도 수원시 권선구 세류동 1076-3번지 염광빌딩 지층 2호","indutype":"레저업소 - 당 구 장","category":"leisure"},{"name":"테마노래연습장","tel":"","addr":"경기도 수원시 권선구 세류동 1076-3번지 2층","indutype":"레저업소 - 노 래 방","category":"leisure"},{"name":"펀휘트니스","tel":"031-233-8265","addr":"경기도 수원시 권선구 세류동 1076-3번지 평화빌딩 4층 401,402호","indutype":"레저업소 - 헬스클럽","category":"leisure"}]},{"lat":"37.254546802","long":"127.01897841","imageIndex":13,"items":[{"name":"바디하우스","tel":"070-8111-5252","addr":"경기도 수원시 권선구 세류동 1096-10번지 2층","indutype":"레저업소 - 헬스클럽","category":"leisure"}]},{"lat":"37.253546624","long":"127.01922617","imageIndex":13,"items":[{"name":"버즈PC카페(Buzz PC cafe) 세류점","tel":"","addr":"경기도 수원시 권선구 세류동 1098-15번지 한희빌딩 1층","indutype":"레저업소 - 기타레져업소","category":"leisure"}]},{"lat":"37.251825707","long":"127.01884257","imageIndex":13,"items":[{"name":"버즈피시방 (BUZZ PC cafe)","tel":"070-6862-7722","addr":"경기도 수원시 권선구 세류동 1120-11번지 2층","indutype":"레저업소 - 기타레져업소","category":"leisure"},{"name":"앵두노래연습장","tel":"031-291-8607","addr":"경기도 수원시 권선구 세류동 1120-11번지 지층","indutype":"레저업소 - 노 래 방","category":"leisure"},{"name":"터미널당구장","tel":"031-245-9237","addr":"경기도 수원시 권선구 세류동 1120-11번지 3층","indutype":"레저업소 - 당 구 장","category":"leisure"}]},{"lat":"37.251547119","long":"127.01189923","imageIndex":13,"items":[{"name":"베러핏 (Better Fit)","tel":"031-233-8897","addr":"경기도 수원시 권선구 세류동 981-3번지 지하층","indutype":"레저업소 - 헬스클럽","category":"leisure"}]},{"lat":"37.255627875","long":"127.02013967","imageIndex":13,"items":[{"name":"본스크린골프","tel":"031-221-8210","addr":"경기도 수원시 권선구 세류동 1081-8번지","indutype":"레저업소 - 스크린골프","category":"leisure"}]},{"lat":"37.253627911","long":"127.01774958","imageIndex":13,"items":[{"name":"불야성노래연습장","tel":"031-222-4781","addr":"경기도 수원시 권선구 세류동 1105-15번지 지층","indutype":"레저업소 - 노 래 방","category":"leisure"}]},{"lat":"37.256682249","long":"127.01894504","imageIndex":13,"items":[{"name":"브이아이피 (VIP)노래연습장","tel":"","addr":"경기도 수원시 권선구 세류동 1075-10번지 대영빌딩 2층","indutype":"레저업소 - 노 래 방","category":"leisure"}]},{"lat":"37.260350123","long":"127.01272319","imageIndex":13,"items":[{"name":"뻐꾸기노래연습장","tel":"031-237-8760","addr":"경기도 수원시 권선구 세류동 477-15번지","indutype":"레저업소 - 노 래 방","category":"leisure"}]},{"lat":"37.254880961","long":"127.01152765","imageIndex":13,"items":[{"name":"뿜pc방","tel":"070-7665-9473","addr":"경기도 수원시 권선구 세류동 1023-4번지 3층","indutype":"레저업소 - 기타레져업소","category":"leisure"}]},{"lat":"37.244933315","long":"127.01453575","imageIndex":13,"items":[{"name":"선일노래연습장","tel":"031-224-1053","addr":"경기도 수원시 권선구 세류동 1146-7번지","indutype":"레저업소 - 노 래 방","category":"leisure"},{"name":"이글당구클럽","tel":"070-8234-4872","addr":"경기도 수원시 권선구 세류동 1146-7번지","indutype":"레저업소 - 당 구 장","category":"leisure"}]},{"lat":"37.244185431","long":"127.01480613","imageIndex":13,"items":[{"name":"세류게임장","tel":"031-298-5753","addr":"경기도 수원시 권선구 세류동 1146-12번지 3층","indutype":"레저업소 - 기타레져업소","category":"leisure"}]},{"lat":"37.25721466","long":"127.01111083","imageIndex":13,"items":[{"name":"세류헬스장","tel":"031-223-5706","addr":"경기도 수원시 권선구 세류동 465-9번지 3층","indutype":"레저업소 - 헬스클럽","category":"leisure"}]},{"lat":"37.261792115","long":"127.00675992","imageIndex":13,"items":[{"name":"센트럴당구클럽","tel":"031-225-8256","addr":"경기도 수원시 권선구 세류동 1277번지 A동 3층","indutype":"레저업소 - 당 구 장","category":"leisure"},{"name":"오픈탁구클럽","tel":"031-233-9872","addr":"경기도 수원시 권선구 세류동 1277번지 센트럴타운프라자 A동 2층 201,202호","indutype":"레저업소 - 기타레져업소","category":"leisure"}]},{"lat":"37.255763522","long":"127.01634097","imageIndex":13,"items":[{"name":"수 노래연습장","tel":"031-7202-0284","addr":"경기도 수원시 권선구 세류동 1090번지 지층","indutype":"레저업소 - 노 래 방","category":"leisure"}]},{"lat":"37.253123927","long":"127.01184305","imageIndex":13,"items":[{"name":"수다 노래연습장","tel":"031-7222-9209","addr":"경기도 수원시 권선구 세류동 1001-6번지 지층","indutype":"레저업소 - 노 래 방","category":"leisure"}]},{"lat":"37.261738022","long":"127.00763922","imageIndex":13,"items":[{"name":"쉿! 빵야빵야","tel":"031-222-1293","addr":"경기도 수원시 권선구 세류동 339-1번지 3층","indutype":"레저업소 - 기타레져업소","category":"leisure"}]},{"lat":"37.257123992","long":"127.01708519","imageIndex":13,"items":[{"name":"스카이브릿지카페(SKY BRIDGE CAFE)","tel":"070-8249-7334","addr":"경기도 수원시 권선구 세류동 1075번지 2층","indutype":"레저업소 - 기타레져업소","category":"leisure"},{"name":"허브노래연습장","tel":"070-8244-0076","addr":"경기도 수원시 권선구 세류동 1075번지 3층","indutype":"레저업소 - 노 래 방","category":"leisure"}]},{"lat":"37.259457567","long":"127.0178409","imageIndex":13,"items":[{"name":"스타핏","tel":"","addr":"경기도 수원시 권선구 세류동 854-1번지 창원빌딩 3층 우측","indutype":"레저업소 - 헬스클럽","category":"leisure"},{"name":"짱노래연습장","tel":"031-224-3542","addr":"경기도 수원시 권선구 세류동 854-1번지","indutype":"레저업소 - 노 래 방","category":"leisure"},{"name":"퀸 노래연습장","tel":"031-223-8563","addr":"경기도 수원시 권선구 세류동 854-1번지 창원빌딩 지하층","indutype":"레저업소 - 노 래 방","category":"leisure"}]},{"lat":"37.249240396","long":"127.01292463","imageIndex":13,"items":[{"name":"신곡노래연습장","tel":"031-237-1083","addr":"경기도 수원시 권선구 세류동 1141-1번지","indutype":"레저업소 - 노 래 방","category":"leisure"}]},{"lat":"37.254790466","long":"127.01583356","imageIndex":13,"items":[{"name":"신난다 노래연습장","tel":"031-232-1285","addr":"경기도 수원시 권선구 세류동 1090-7번지 지하1층","indutype":"레저업소 - 노 래 방","category":"leisure"}]},{"lat":"37.253348443","long":"127.01888798","imageIndex":13,"items":[{"name":"신수원당구장","tel":"031-245-3695","addr":"경기도 수원시 권선구 세류동 1103번지","indutype":"레저업소 - 당 구 장","category":"leisure"},{"name":"월드노래연습장","tel":"031-222-5292","addr":"경기도 수원시 권선구 세류동 1103번지 명성빌딩 3층","indutype":"레저업소 - 노 래 방","category":"leisure"}]},{"lat":"37.253268163","long":"127.01086242","imageIndex":13,"items":[{"name":"아이비스PC","tel":"","addr":"경기도 수원시 권선구 세류동 565-2번지 4층","indutype":"레저업소 - 기타레져업소","category":"leisure"}]},{"lat":"37.255457623","long":"127.01150517","imageIndex":13,"items":[{"name":"아프로pc","tel":"031-308-4727","addr":"경기도 수원시 권선구 세류동 537-3번지","indutype":"레저업소 - 기타레져업소","category":"leisure"}]},{"lat":"37.250627377","long":"127.01852672","imageIndex":13,"items":[{"name":"에스짐 트레이닝센터","tel":"031-302-0021","addr":"경기도 수원시 권선구 세류동 1121-4번지 리치타워 7층","indutype":"레저업소 - 헬스클럽","category":"leisure"}]},{"lat":"37.261431258","long":"127.01386191","imageIndex":13,"items":[{"name":"영원당구장","tel":"031-281-7273","addr":"경기도 수원시 권선구 세류동 149-3번지","indutype":"레저업소 - 당 구 장","category":"leisure"},{"name":"준킥복싱체육관","tel":"031-223-2426","addr":"경기도 수원시 권선구 세류동 149-3번지 3층","indutype":"레저업소 - 헬스클럽","category":"leisure"}]},{"lat":"37.250321605","long":"127.01325165","imageIndex":13,"items":[{"name":"예솔노래연습장","tel":"031-234-3309","addr":"경기도 수원시 권선구 세류동 974-8번지","indutype":"레저업소 - 노 래 방","category":"leisure"}]},{"lat":"37.248573662","long":"127.01256387","imageIndex":13,"items":[{"name":"예지","tel":"031-232-4832","addr":"경기도 수원시 권선구 세류동 1142번지","indutype":"레저업소 - 노 래 방","category":"leisure"}]},{"lat":"37.255132464","long":"127.01903489","imageIndex":13,"items":[{"name":"오디션 노래연습장","tel":"031-236-3508","addr":"경기도 수원시 권선구 세류동 1082-9번지 지하1층","indutype":"레저업소 - 노 래 방","category":"leisure"}]},{"lat":"37.248961133","long":"127.01222578","imageIndex":13,"items":[{"name":"우리동네당구장","tel":"031-222-0607","addr":"경기도 수원시 권선구 세류동 587-3번지 4층","indutype":"레저업소 - 당 구 장","category":"leisure"},{"name":"풀타임PC방","tel":"","addr":"경기도 수원시 권선구 세류동 587-3번지 3층","indutype":"레저업소 - 기타레져업소","category":"leisure"}]},{"lat":"37.261547804","long":"127.01900244","imageIndex":13,"items":[{"name":"유명스타노래방","tel":"031-225-8362","addr":"경기도 수원시 권선구 세류동 816-4번지","indutype":"레저업소 - 노 래 방","category":"leisure"}]},{"lat":"37.25904364","long":"127.01258775","imageIndex":13,"items":[{"name":"은노래연습장","tel":"031-233-7316","addr":"경기도 수원시 권선구 세류동 524-3번지 지하","indutype":"레저업소 - 노 래 방","category":"leisure"}]},{"lat":"37.25516027","long":"127.01167421","imageIndex":13,"items":[{"name":"인연노래연습장","tel":"031-221-2066","addr":"경기도 수원시 권선구 세류동 537-25번지","indutype":"레저업소 - 노 래 방","category":"leisure"}]},{"lat":"37.257268199","long":"127.0167245","imageIndex":13,"items":[{"name":"자유","tel":"031-224-6023","addr":"경기도 수원시 권선구 세류동 874-4번지","indutype":"레저업소 - 노 래 방","category":"leisure"}]},{"lat":"37.266044676","long":"127.0121377","imageIndex":13,"items":[{"name":"전원노래연습장","tel":"031-236-8061","addr":"경기도 수원시 권선구 세류동 97-113번지","indutype":"레저업소 - 노 래 방","category":"leisure"}]},{"lat":"37.25262811","long":"127.01469474","imageIndex":13,"items":[{"name":"조아서노래연습장","tel":"031-234-5580","addr":"경기도 수원시 권선구 세류동 1112-2번지 지하1층","indutype":"레저업소 - 노 래 방","category":"leisure"}]},{"lat":"37.260214383","long":"127.01822433","imageIndex":13,"items":[{"name":"준노래연습장","tel":"031-222-1163","addr":"경기도 수원시 권선구 세류동 845번지 웅희빌딩 2층","indutype":"레저업소 - 노 래 방","category":"leisure"}]},{"lat":"37.263540176","long":"127.00272415","imageIndex":13,"items":[{"name":"중화노래연습장","tel":"031-239-5188","addr":"경기도 수원시 권선구 세류동 179-1번지","indutype":"레저업소 - 노 래 방","category":"leisure"}]},{"lat":"37.26276529","long":"127.00317508","imageIndex":13,"items":[{"name":"즐거운노래연습장","tel":"031-235-3436","addr":"경기도 수원시 권선구 세류동 186-1번지 지층","indutype":"레저업소 - 노 래 방","category":"leisure"}]},{"lat":"37.24562708","long":"127.01484017","imageIndex":13,"items":[{"name":"즐거운노래연습장","tel":"031-255-3724","addr":"경기도 수원시 권선구 세류동 1146번지","indutype":"레저업소 - 노 래 방","category":"leisure"}]},{"lat":"37.259295958","long":"127.01222706","imageIndex":13,"items":[{"name":"진달래노래연습장","tel":"031-223-0074","addr":"경기도 수원시 권선구 세류동 476-12번지","indutype":"레저업소 - 노 래 방","category":"leisure"}]},{"lat":"37.253132662","long":"127.01495407","imageIndex":13,"items":[{"name":"청룡당구장","tel":"","addr":"경기도 수원시 권선구 세류동 1112번지 2층","indutype":"레저업소 - 당 구 장","category":"leisure"}]},{"lat":"37.253546731","long":"127.01842587","imageIndex":13,"items":[{"name":"첼로기획","tel":"031-236-2912","addr":"경기도 수원시 권선구 세류동 1104-18번지 지하1층","indutype":"레저업소 - 노 래 방","category":"leisure"}]},{"lat":"37.256097358","long":"127.01144888","imageIndex":13,"items":[{"name":"크라운짐","tel":"031-225-1279","addr":"경기도 수원시 권선구 세류동 533번지 2층","indutype":"레저업소 - 헬스클럽","category":"leisure"}]},{"lat":"37.25418728","long":"127.00981423","imageIndex":13,"items":[{"name":"클로바탁구장","tel":"031-8013-0599","addr":"경기도 수원시 권선구 세류동 542-3번지 원진빌딩 지하층","indutype":"레저업소 - 기타레져업소","category":"leisure"}]},{"lat":"37.252465749","long":"127.01634039","imageIndex":13,"items":[{"name":"태양 노래연습장","tel":"","addr":"경기도 수원시 권선구 세류동 1115-14번지 대우다세대주택 지층","indutype":"레저업소 - 노 래 방","category":"leisure"}]},{"lat":"37.259881027","long":"127.01803262","imageIndex":13,"items":[{"name":"팀플복싱","tel":"031-222-6313","addr":"경기도 수원시 권선구 세류동 845-4번지 승주빌딩 2층","indutype":"레저업소 - 헬스클럽","category":"leisure"}]},{"lat":"37.254573681","long":"127.02006052","imageIndex":13,"items":[{"name":"퍼스널트레이닝 마크","tel":"070-8778-3338","addr":"경기도 수원시 권선구 세류동 1099번지 1층","indutype":"레저업소 - 헬스클럽","category":"leisure"}]},{"lat":"37.254430115","long":"127.01525862","imageIndex":13,"items":[{"name":"피아노","tel":"031-223-3730","addr":"경기도 수원시 권선구 세류동 1010-6번지","indutype":"레저업소 - 노 래 방","category":"leisure"}]},{"lat":"37.261765078","long":"127.00695156","imageIndex":13,"items":[{"name":"피에스타 PC방 수원세류점","tel":"","addr":"경기도 수원시 권선구 세류동 1277-1번지 센트럴타운프라자 B동 2층 201호,202호","indutype":"레저업소 - 기타레져업소","category":"leisure"}]},{"lat":"37.264179807","long":"127.0077521","imageIndex":13,"items":[{"name":"황부자노래연습장","tel":"031-235-5047","addr":"경기도 수원시 권선구 세류동 230-62번지 지층","indutype":"레저업소 - 노 래 방","category":"leisure"},{"name":"황부자노래연습장","tel":"031-235-5047","addr":"경기도 수원시 권선구 세류동 230-62번지","indutype":"레저업소 - 노 래 방","category":"leisure"}]},{"lat":"37.261097501","long":"127.01736776","imageIndex":13,"items":[{"name":"황제노래연습장","tel":"031-239-2680","addr":"경기도 수원시 권선구 세류동 840번지 삼익아파트 2층","indutype":"레저업소 - 노 래 방","category":"leisure"}]},{"lat":"37.25365498","long":"127.01744524","imageIndex":13,"items":[{"name":"황진이 노래연습장","tel":"031-236-4472","addr":"경기도 수원시 권선구 세류동 1107-16번지 지층","indutype":"레저업소 - 노 래 방","category":"leisure"}]},{"lat":"37.260269034","long":"127.01266682","imageIndex":13,"items":[{"name":"힘쎈수달PC 세류점","tel":"031-0000-0000","addr":"경기도 수원시 권선구 세류동 477-14번지","indutype":"레저업소 - 기타레져업소","category":"leisure"}]}]