[{"lat":"37.272712603","long":"127.00617419","imageIndex":0,"items":[{"name":"SHINE AUTO PART(샤인오토파트)","tel":"031-248-0199","addr":"경기도 수원시 팔달구 고등동 67-5번지 1층 상가","indutype":"자동차정비 유지 - 자동차부품","category":"car"}]},{"lat":"37.27348751","long":"127.00524969","imageIndex":0,"items":[{"name":"SS모터스","tel":"031-252-2722","addr":"경기도 수원시 팔달구 고등동 37-7번지","indutype":"자동차정비 유지 - 자동차정비","category":"car"}]},{"lat":"37.278542262","long":"127.0057798","imageIndex":0,"items":[{"name":"강원상사","tel":"031-245-2565","addr":"경기도 수원시 팔달구 고등동 5-1번지","indutype":"자동차정비 유지 - 중장비수리","category":"car"}]},{"lat":"37.273460495","long":"127.00422368","imageIndex":0,"items":[{"name":"기가모터스","tel":"031-246-2467","addr":"경기도 수원시 팔달구 고등동 55-7번지","indutype":"자동차정비 유지 - 세차장","category":"car"}]},{"lat":"37.27276668","long":"127.00556536","imageIndex":0,"items":[{"name":"기능사종합카센타","tel":"031-246-8894","addr":"경기도 수원시 팔달구 고등동 58-1번지","indutype":"자동차정비 유지 - 카인테리어","category":"car"}]},{"lat":"37.278542288","long":"127.00442673","imageIndex":0,"items":[{"name":"김성준정비공업사","tel":"031-252-3869","addr":"경기도 수원시 팔달구 고등동 6-1번지","indutype":"자동차정비 유지 - 자동차정비","category":"car"}]},{"lat":"37.273181163","long":"127.00509183","imageIndex":0,"items":[{"name":"낙원모터스","tel":"031-893-2677","addr":"경기도 수원시 팔달구 고등동 57-8번지","indutype":"자동차정비 유지 - 자동차정비","category":"car"}]},{"lat":"37.273568597","long":"127.00547519","imageIndex":0,"items":[{"name":"만물자동차용품점","tel":"031-247-5551","addr":"경기도 수원시 팔달구 고등동 37-11번지","indutype":"자동차정비 유지 - 카인테리어","category":"car"}]},{"lat":"37.274433612","long":"127.00272412","imageIndex":0,"items":[{"name":"모터케이드","tel":"031-251-5179","addr":"경기도 수원시 팔달구 고등동 143-1번지 1층","indutype":"자동차정비 유지 - 자동차정비","category":"car"},{"name":"운트라모터스","tel":"070-8702-7774","addr":"경기도 수원시 팔달구 고등동 143-1번지","indutype":"자동차정비 유지 - 자동차부품","category":"car"}]},{"lat":"37.275010229","long":"127.00600516","imageIndex":0,"items":[{"name":"보쉬대훈카써비스","tel":"031-258-4271","addr":"경기도 수원시 팔달구 고등동 46-3번지","indutype":"자동차정비 유지 - 카인테리어","category":"car"}]},{"lat":"37.275460784","long":"127.00294962","imageIndex":0,"items":[{"name":"수원종합오토바이","tel":"031-242-2894","addr":"경기도 수원시 팔달구 고등동 139-22번지","indutype":"자동차판매 - 이륜차판매","category":"car"}]},{"lat":"37.27567703","long":"127.00302855","imageIndex":0,"items":[{"name":"슝슝모터스,세차타운","tel":"031-242-9229","addr":"경기도 수원시 팔달구 고등동 139-41번지","indutype":"자동차정비 유지 - 자동차정비","category":"car"}]},{"lat":"37.272235048","long":"127.00653496","imageIndex":0,"items":[{"name":"영진정비","tel":"031-253-5104","addr":"경기도 수원시 팔달구 고등동 69-6번지","indutype":"자동차정비 유지 - 자동차정비","category":"car"}]},{"lat":"37.2704871","long":"127.00137121","imageIndex":0,"items":[{"name":"진로유료주차장","tel":"031-247-6500","addr":"경기도 수원시 팔달구 고등동 248-7번지","indutype":"자동차정비 유지 - 주차장","category":"car"}]}]