[{"lat":"37.47473313","long":"126.8533169","imageIndex":17,"items":[{"name":"(자)경인운수","tel":"02-2684-7554","addr":"경기도 광명시 광명동 297-1번지","indutype":"여행 - 택시회사","category":"other"}]},{"lat":"37.47803853","long":"126.8595736","imageIndex":17,"items":[{"name":"(주)동남여행사","tel":"02-2616-2277","addr":"경기도 광명시 광명동 38-1번지","indutype":"여행 - 관광여행","category":"other"},{"name":"광명양복점","tel":"02-689-8418","addr":"경기도 광명시 광명동 38-1번지","indutype":"의류 - 맞춤복점","category":"other"},{"name":"송월타올대원상사","tel":"02-2682-5583","addr":"경기도 광명시 광명동 38-1번지 1층 2호","indutype":"신변잡화 - 기타잡화","category":"other"},{"name":"씨유광명세리점","tel":"02-2614-2949","addr":"경기도 광명시 광명동 38-1번지 1층 105호","indutype":"유통업 영리 - 편 의 점","category":"other"},{"name":"튜브","tel":"02-2689-1577","addr":"경기도 광명시 광명동 38-1번지 1층 11호","indutype":"의류 - 정장","category":"other"}]},{"lat":"37.47815783","long":"126.854045","imageIndex":17,"items":[{"name":"(주)리더스유니온","tel":"02-3273-7700","addr":"경기도 광명시 광명동 158-521번지 2층","indutype":"유통업 영리 - 기타유통업","category":"other"},{"name":"골드쥬얼리","tel":"02-2619-2626","addr":"경기도 광명시 광명동 158-521번지","indutype":"신변잡화 - 시계","category":"other"}]},{"lat":"37.47937608","long":"126.8555688","imageIndex":17,"items":[{"name":"(주)몽쉘베베","tel":"02-2206-8181","addr":"경기도 광명시 광명동 150-19번지 크로앙스 6012호","indutype":"용역 서비스 - 종합용역","category":"other"},{"name":"(주)주원에프앤씨 클라스마골프 크로앙스점","tel":"02-853-5253","addr":"경기도 광명시 광명동 150-19번지 크로앙스 2층 2184호","indutype":"의류 - 스포츠의류","category":"other"},{"name":"5짱","tel":"02-2067-8298","addr":"경기도 광명시 광명동 150-19번지 2172 (크로앙스2층2172호~2173호 ,광명동)","indutype":"의류 - 정장","category":"other"},{"name":"BYC엔젤","tel":"02-2067-8819","addr":"경기도 광명시 광명동 150-19번지 1층 1018-1020","indutype":"의류 - 내의판매","category":"other"},{"name":"G1쥬얼리","tel":"02-6498-5887","addr":"경기도 광명시 광명동 150-19번지 크로앙스 1층 1106호","indutype":"신변잡화 - 귀금속","category":"other"},{"name":"ISC","tel":"02-2067-8279","addr":"경기도 광명시 광명동 150-19번지 크로앙스내2층 2163호","indutype":"의류 - 정장","category":"other"},{"name":"가람과태양","tel":"070-7012-1354","addr":"경기도 광명시 광명동 150-19번지 지하1층 1011","indutype":"신변잡화 - 신발","category":"other"},{"name":"갤러리(의류)샵","tel":"02-000-0000","addr":"경기도 광명시 광명동 150-19번지 크로앙스 2084호","indutype":"의류 - 정장","category":"other"},{"name":"곱슬","tel":"02-2067-7847","addr":"경기도 광명시 광명동 150-19번지 광명크로앙스 1층 1121호","indutype":"신변잡화 - 액세서리","category":"other"},{"name":"공주네","tel":"02-2067-8234","addr":"경기도 광명시 광명동 150-19번지 크로앙스 2층 2162.2163호","indutype":"의류 - 정장","category":"other"},{"name":"광명시서적협동조합","tel":"02-2067-8950","addr":"경기도 광명시 광명동 150-19번지 크로앙스 4115호","indutype":"회원제형태 - 서적","category":"other"},{"name":"광명쥬비드","tel":"02-1111-1111","addr":"경기도 광명시 광명동 150-19번지 크로앙스 2층 2017호","indutype":"의류 - 정장","category":"other"},{"name":"광명화원","tel":"02-2625-6004","addr":"경기도 광명시 광명동 150-19번지 크로앙스 B01동 1121호","indutype":"문화.취미 - 화원","category":"other"},{"name":"그린패션","tel":"02-6672-1192","addr":"경기도 광명시 광명동 150-19광명크로앙스지하1층","indutype":"의류 - 정장","category":"other"},{"name":"깍쟁이","tel":"02-2067-8217","addr":"경기도 광명시 광명동 150-19크로앙스내2층2046호2047호","indutype":"의류 - 정장","category":"other"},{"name":"나인","tel":"02-2067-8370","addr":"경기도 광명시 광명동 150-19번지 크로앙스 3층 3111호","indutype":"의류 - 정장","category":"other"},{"name":"낙원상사","tel":"02-2067-8998","addr":"경기도 광명시 광명동 150-19크로앙스지층1084,1085호","indutype":"주방용구 - 기타주방용구","category":"other"},{"name":"논노후즈","tel":"02-2607-8355","addr":"경기도 광명시 광명동 150-19번지 크로앙스 3층 3105호","indutype":"의류 - 정장","category":"other"},{"name":"다음통신","tel":"02-2067-8778","addr":"경기도 광명시 광명동 150-19번지 크로앙스 4층","indutype":"사무통신 - 통신기기","category":"other"},{"name":"다호","tel":"02-2067-8566","addr":"경기도 광명시 광명동 150-19번지 크로앙스 2층 2068호","indutype":"의류 - 정장","category":"other"},{"name":"댑크로앙스","tel":"02-2067-8803","addr":"경기도 광명시 광명동 150-19광명크로앙스1105,1104,1098,1099,1100호","indutype":"의류 - 기타의류","category":"other"},{"name":"데코스","tel":"02-2067-8956","addr":"경기도 광명시 광명동 150-19크로앙스지하1층84.85호","indutype":"신변잡화 - 기타잡화","category":"other"},{"name":"데코스","tel":"02-2067-8955","addr":"경기도 광명시 광명동 150-19번지 크로앙스내 지하1층 1085호","indutype":"문화.취미 - 화원","category":"other"},{"name":"디데이","tel":"02-2067-8947","addr":"경기도 광명시 광명동 150-19번지 크로앙스 2층 2112호","indutype":"의류 - 정장","category":"other"},{"name":"또각또각","tel":"02-2067-8220","addr":"경기도 광명시 광명동 150-19번지 크로앙스 1층 1021호","indutype":"신변잡화 - 신발","category":"other"},{"name":"러빙","tel":"02-2067-8233","addr":"경기도 광명시 광명동 150-19번지 2층 2064,2065,2069,2070호","indutype":"의류 - 정장","category":"other"},{"name":"로미","tel":"02-2688-4052","addr":"경기도 광명시 광명동 150-19번지 크로앙스 2층 2016호","indutype":"의류 - 정장","category":"other"},{"name":"리골드 마트","tel":"02-2681-2833","addr":"경기도 광명시 광명동 150-19 크로앙스1층1025.1026호","indutype":"신변잡화 - 액세서리","category":"other"},{"name":"리블리주얼리","tel":"070-4922-1261","addr":"경기도 광명시 광명동 150-19번지 크로앙스 1층 1046호,1047호","indutype":"신변잡화 - 귀금속","category":"other"},{"name":"리트머스","tel":"02-2067-8250","addr":"경기도 광명시 광명동 150-19크로앙스2035~2036,2013,2078,2088호","indutype":"의류 - 정장","category":"other"},{"name":"마리","tel":"02-2067-8307","addr":"경기도 광명시 광명동 150-19 크로앙스 3층 장피엘(마리)","indutype":"의류 - 아동의류","category":"other"},{"name":"멋플러스","tel":"02-2067-8122","addr":"경기도 광명시 광명동 150-19번지 1078,1079 1층","indutype":"의류 - 기타의류","category":"other"},{"name":"멜로우피치","tel":"031-222-2222","addr":"경기도 광명시 광명동 150-19번지 크로앙스 1층 1003호","indutype":"신변잡화 - 기타잡화","category":"other"},{"name":"모꼬지","tel":"02-2067-8282","addr":"경기도 광명시 광명동 150-19번지 크로앙스 2층 2169호","indutype":"의류 - 정장","category":"other"},{"name":"모이몰른","tel":"02-2067-8377","addr":"경기도 광명시 광명동 150-19번지 크로앙스 3055호","indutype":"의류 - 아동의류","category":"other"},{"name":"미네뜨","tel":"02-2067-8845","addr":"경기도 광명시 광명동 150-19크로앙스1층1149,1150호","indutype":"신변잡화 - 액세서리","category":"other"},{"name":"미미","tel":"02-537-2794","addr":"경기도 광명시 광명동 150-19번지 광명크로앙스 1110호 1114호","indutype":"신변잡화 - 액세서리","category":"other"},{"name":"미진","tel":"02-2067-8866","addr":"경기도 광명시 광명동 150-19번지 크로앙스 1층 1053호","indutype":"의류 - 기타의류","category":"other"},{"name":"바디코리아","tel":"02-2067-8990","addr":"경기도 광명시 광명동 150-19번지 크로앙스 11076호","indutype":"레져용품 - 스포츠·레져용품","category":"other"},{"name":"바쉬","tel":"02-2067-8864","addr":"경기도 광명시 광명동 150-19번지 광명크로앙스 2층 135호 쉬즈","indutype":"의류 - 내의판매","category":"other"},{"name":"베비라","tel":"02-2067-8350","addr":"경기도 광명시 광명동 150-19번지 크로앙스 내 3층 3022호","indutype":"의류 - 아동의류","category":"other"},{"name":"보금당","tel":"02-2067-8844","addr":"경기도 광명시 광명동 150-19번지 크로앙스 1층 1112호 ,1109,1113호","indutype":"신변잡화 - 액세서리","category":"other"},{"name":"보디가드","tel":"02-2067-8833","addr":"경기도 광명시 광명동 150-19크로앙스1101.1102.1103.1106.1107.2172.2173호","indutype":"의류 - 내의판매","category":"other"},{"name":"브라가악기","tel":"02-2067-8513","addr":"경기도 광명시 광명동 150-19크로앙스5층","indutype":"레져용품 - 악기점","category":"other"},{"name":"블루 스카이 투어리즘","tel":"02-2067-8899","addr":"경기도 광명시 광명동 150-19번지 크로앙스 지하1층 1140호","indutype":"여행 - 관광여행","category":"other"},{"name":"빈티지샵","tel":"02-2607-8692","addr":"경기도 광명시 광명동 150-19번지 크로앙스 2134호","indutype":"의류 - 정장","category":"other"},{"name":"빛나리","tel":"02-2067-8806","addr":"경기도 광명시 광명동 150-19번지 크로앙스 1151호","indutype":"신변잡화 - 액세서리","category":"other"},{"name":"빛쥬얼리","tel":"02-2067-8821","addr":"경기도 광명시 광명동 150-19번지 크로앙스 1층 1036호","indutype":"신변잡화 - 귀금속","category":"other"},{"name":"뽐내기","tel":"02-2625-0220","addr":"경기도 광명시 광명동 150-19번지 크로앙스 2층 2159호","indutype":"의류 - 정장","category":"other"},{"name":"삐삐롱","tel":"02-2067-8299","addr":"경기도 광명시 광명동 150-19번지 크로앙스 2동 160호","indutype":"의류 - 정장","category":"other"},{"name":"사라제이 광명점","tel":"02-2689-2135","addr":"경기도 광명시 광명동 150-19번지 2층2117-2호 포함14,5구좌","indutype":"의류 - 정장","category":"other"},{"name":"사치","tel":"02-2067-8225","addr":"경기도 광명시 광명동 150-19번지 크로앙스 내 2층 2061호","indutype":"의류 - 정장","category":"other"},{"name":"새찬사랑","tel":"02-2067-8897","addr":"경기도 광명시 광명동 150-19번지 크로앙스 1층","indutype":"신변잡화 - 가방","category":"other"},{"name":"샌D","tel":"02-2060-9428","addr":"경기도 광명시 광명동 150-19번지 크로앙스 2층 2044호","indutype":"의류 - 정장","category":"other"},{"name":"샤인","tel":"02-2067-8256","addr":"경기도 광명시 광명동 150-19번지 크로앙스 2층 2090호","indutype":"의류 - 정장","category":"other"},{"name":"성보쥬얼리","tel":"02-2067-8860","addr":"경기도 광명시 광명동 150-19번지 크로앙스 1039호","indutype":"신변잡화 - 귀금속","category":"other"},{"name":"세이","tel":"02-2067-8288","addr":"경기도 광명시 광명동 150-19번지 광명크로앙스 2층","indutype":"의류 - 정장","category":"other"},{"name":"세이","tel":"02-595-8026","addr":"경기도 광명시 광명동 150-19번지 2층","indutype":"의류 - 정장","category":"other"},{"name":"수정악세사리","tel":"02-2067-8801","addr":"경기도 광명시 광명동 150-19번지","indutype":"신변잡화 - 액세서리","category":"other"},{"name":"슈스토리","tel":"02-2067-8830","addr":"경기도 광명시 광명동 150-19번지 크로앙스 1층 1066호","indutype":"신변잡화 - 신발","category":"other"},{"name":"슈즈랜드","tel":"02-2067-8946","addr":"경기도 광명시 광명동 150-19 크라망스지하1층118호,1119호,1120호","indutype":"신변잡화 - 신발","category":"other"},{"name":"스킨포유광명점","tel":"02-2067-8991","addr":"경기도 광명시 광명동 150-19번지 크로앙스내 B11126호","indutype":"회원제형태 - 기타4","category":"other"},{"name":"스타","tel":"02-2067-8211","addr":"경기도 광명시 광명동 150-19번지 크로앙스 내","indutype":"의류 - 정장","category":"other"},{"name":"스타일","tel":"02-2067-8225","addr":"경기도 광명시 광명동 150-19번지 크로앙스 내 2층 2067호","indutype":"신변잡화 - 기타잡화","category":"other"},{"name":"시드니","tel":"02-2067-8254","addr":"경기도 광명시 광명동 150-19번지 2층","indutype":"의류 - 정장","category":"other"},{"name":"신우통상","tel":"02-2067-8325","addr":"경기도 광명시 광명동 150-19번지 크로앙스 내 3층 3139호","indutype":"의류 - 정장","category":"other"},{"name":"쌘스","tel":"02-2067-8866","addr":"경기도 광명시 광명동 150-19번지 크로앙스 1층 1201호","indutype":"의류 - 기타의류","category":"other"},{"name":"쌘스","tel":"02-2067-8866","addr":"경기도 광명시 광명동 150-19번지 크로앙스 1022,1024,1052,1054,1055호","indutype":"의류 - 기타의류","category":"other"},{"name":"아가방","tel":"02-2067-8301","addr":"경기도 광명시 광명동 150-19번지 크로앙스 내 3층 3071호","indutype":"의류 - 아동의류","category":"other"},{"name":"아르페지오","tel":"02-2067-8500","addr":"경기도 광명시 광명동 150-19번지 크로앙스 내 5층 5009호","indutype":"직물 - 침구·수예점","category":"other"},{"name":"아름다운풍경","tel":"02-2067-8942","addr":"경기도 광명시 광명동 150-19번지 크로앙스내 B11068 1069호","indutype":"직물 - 침구·수예점","category":"other"},{"name":"아이러브슈즈","tel":"02-2067-8878","addr":"경기도 광명시 광명동 150-19번지 크로앙스 1층 105호","indutype":"신변잡화 - 신발","category":"other"},{"name":"아이러브플랫","tel":"02-2067-8878","addr":"경기도 광명시 광명동 150-19번지 크로앙스 1057호","indutype":"신변잡화 - 제화","category":"other"},{"name":"아이러브플렛","tel":"02-2067-8878","addr":"경기도 광명시 광명동 150-19번지 광명크로앙스 1층","indutype":"신변잡화 - 제화","category":"other"},{"name":"아이믹스뱅크","tel":"02-2067-8382","addr":"경기도 광명시 광명동 150-19번지 크로앙스 3016호","indutype":"의류 - 정장","category":"other"},{"name":"아프리카중고폰선불폰광명점","tel":"02-2688-7449","addr":"경기도 광명시 광명동 150-19번지 크로앙스 1층 1135호","indutype":"사무통신 - 통신기기","category":"other"},{"name":"알레르망","tel":"02-2067-8411","addr":"경기도 광명시 광명동 150-19번지 광명크로앙스 4층","indutype":"직물 - 침구·수예점","category":"other"},{"name":"애플핑크","tel":"02-2067-8306","addr":"경기도 광명시 광명동 150-19번지 광명크로앙스 3층 3049,3050호","indutype":"의류 - 아동의류","category":"other"},{"name":"에덴","tel":"031-3688-6263","addr":"경기도 광명시 광명동 150-19번지 광명크로앙스 2112호","indutype":"용역 서비스 - 부동산 중개·임대","category":"other"},{"name":"에듀윈교육문화센타","tel":"02-2067-8482","addr":"경기도 광명시 광명동 150-19번지 크로앙스 4층 4001호","indutype":"회원제형태 - 기타4","category":"other"},{"name":"에비뉴","tel":"02-2067-8206","addr":"경기도 광명시 광명동 150-19번지 크로앙스 2168호","indutype":"의류 - 정장","category":"other"},{"name":"에스에스","tel":"02-2067-8233","addr":"경기도 광명시 광명동 150-19번지 크로앙스 2층 2068호","indutype":"의류 - 정장","category":"other"},{"name":"에스에이치코리아(SH KOREA)","tel":"031-223-5214","addr":"경기도 광명시 광명동 150-19번지 크로앙스 2층 2119호","indutype":"의류 - 정장","category":"other"},{"name":"엘리스","tel":"02-2067-8340","addr":"경기도 광명시 광명동 150-19번지 크로앙스 3층 3102호","indutype":"의류 - 정장","category":"other"},{"name":"여우멋내기","tel":"02-2686-9337","addr":"경기도 광명시 광명동 150-19번지 크로앙스내2162호,2163호","indutype":"의류 - 정장","category":"other"},{"name":"연예인#","tel":"02-2067-8207","addr":"경기도 광명시 광명동 150-19번지 크로앙스 2층 2016호","indutype":"의류 - 정장","category":"other"},{"name":"영스룩","tel":"02-2067-8236","addr":"경기도 광명시 광명동 150-19번지 크로앙스내 2층 2008호","indutype":"의류 - 정장","category":"other"},{"name":"우먼창커텐","tel":"02-3397-7505","addr":"경기도 광명시 광명동 150-19번지 크로앙스 5층 14호","indutype":"직물 - 침구·수예점","category":"other"},{"name":"월드크린","tel":"02-2067-8988","addr":"경기도 광명시 광명동 150-19번지 지하1층 크로앙스 1005~1007호","indutype":"수리서비스 - 세탁소","category":"other"},{"name":"윈","tel":"02-2067-8293","addr":"경기도 광명시 광명동 150-19번지 크로앙스 2층 2002호","indutype":"의류 - 정장","category":"other"},{"name":"유리에유리상자","tel":"02-2067-8817","addr":"경기도 광명시 광명동 150-19번지 광명크로앙스 1층 1160호","indutype":"신변잡화 - 기타잡화","category":"other"},{"name":"이루뵈","tel":"070-2699-0807","addr":"경기도 광명시 광명동 150-19번지 크로앙스 2층 2139호, 2140호, 2142호, 2143호","indutype":"의류 - 정장","category":"other"},{"name":"이버","tel":"02-2067-8240","addr":"경기도 광명시 광명동 150-19번지 크로앙스 3층 2158호","indutype":"의류 - 정장","category":"other"},{"name":"이버","tel":"02-2067-8115","addr":"경기도 광명시 광명동 150-19번지 2층","indutype":"의류 - 정장","category":"other"},{"name":"이조통상","tel":"02-2067-8361","addr":"경기도 광명시 광명동 150-19번지 크로앙스 3층 3149호","indutype":"의류 - 정장","category":"other"},{"name":"이즈","tel":"02-2067-8271","addr":"경기도 광명시 광명동 150-19번지 크로앙스 2171호","indutype":"의류 - 정장","category":"other"},{"name":"전자담배토탈브랜드멀티샵","tel":"02-2067-8979","addr":"경기도 광명시 광명동 150-19번지 크로앙스내B1층1042","indutype":"기타 - 기타 전문점","category":"other"},{"name":"정준","tel":"02-2067-8977","addr":"경기도 광명시 광명동 150-19번지 3층","indutype":"의류 - 정장","category":"other"},{"name":"제이케이티파니(J.K TIFFANY)","tel":"02-898-0167","addr":"경기도 광명시 광명동 150-19번지 크로앙스 1층 1132,1133,1134호","indutype":"신변잡화 - 귀금속","category":"other"},{"name":"주주","tel":"02-2067-8220","addr":"경기도 광명시 광명동 150-19번지 크로앙스 내","indutype":"의류 - 정장","category":"other"},{"name":"지앤엘유통","tel":"02-2067-8922","addr":"경기도 광명시 광명동 150-19번지 크로앙스쇼핑몰 지하1층","indutype":"신변잡화 - 기타잡화","category":"other"},{"name":"지오다노","tel":"02-2067-8250","addr":"경기도 광명시 광명동 150-19번지 7.8 01116호","indutype":"의류 - 정장","category":"other"},{"name":"척척열쇠도장","tel":"02-2067-8818","addr":"경기도 광명시 광명동 150-19번지 광명크로앙스 1층 1121호","indutype":"용역 서비스 - 기타용역서비스","category":"other"},{"name":"체리","tel":"02-2067-8839","addr":"경기도 광명시 광명동 150-19번지 크로앙스 1층 1164호","indutype":"신변잡화 - 기타잡화","category":"other"},{"name":"컬리수","tel":"02-2067-8306","addr":"경기도 광명시 광명동 150-19번지 광명크로앙스 3층 컬리수","indutype":"의류 - 아동의류","category":"other"},{"name":"코디","tel":"02-2067-8820","addr":"경기도 광명시 광명동 150-19번지 크로앙스 1112호","indutype":"신변잡화 - 액세서리","category":"other"},{"name":"코디","tel":"02-2067-8588","addr":"경기도 광명시 광명동 150-19번지 크로앙스2009,2072,2073,2077","indutype":"의류 - 정장","category":"other"},{"name":"코코블랙","tel":"02-0000-0000","addr":"경기도 광명시 광명동 150-19번지 크로앙스 2040호","indutype":"의류 - 정장","category":"other"},{"name":"크로앙금시계A코너","tel":"02-2067-8808","addr":"경기도 광명시 광명동 150-19번지 크로앙스 1013호","indutype":"신변잡화 - 기타잡화","category":"other"},{"name":"크로앙스(미피)","tel":"02-2067-8349","addr":"경기도 광명시 광명동 150-19번지 크로앙스 내 3층 3049호","indutype":"의류 - 정장","category":"other"},{"name":"크로앙스문고","tel":"02-2067-8950","addr":"경기도 광명시 광명동 150-19크로앙스내지하1층","indutype":"회원제형태 - 서적","category":"other"},{"name":"크로앙스스튜디오","tel":"02-2067-8947","addr":"경기도 광명시 광명동 150-19크로앙스지하15-17호","indutype":"광학제품 - 사진관","category":"other"},{"name":"클랙잭","tel":"02-2067-8326","addr":"경기도 광명시 광명동 150-19번지 3층","indutype":"의류 - 스포츠의류","category":"other"},{"name":"탑 걸","tel":"02-2067-8004","addr":"경기도 광명시 광명동 150-19번지 크로앙스 2층 2048호","indutype":"의류 - 정장","category":"other"},{"name":"태영패션","tel":"02-2067-8897","addr":"경기도 광명시 광명동 150-19번지 1층 1029-1031호","indutype":"신변잡화 - 액세서리","category":"other"},{"name":"테크피아","tel":"02-2067-8485","addr":"경기도 광명시 광명동 150-19번지 크로앙스 내 4층 91호","indutype":"사무통신 - 통신기기","category":"other"},{"name":"토토에덴","tel":"02-2067-8311","addr":"경기도 광명시 광명동 150-19번지 크로앙스 3층 3091호","indutype":"의류 - 정장","category":"other"},{"name":"파보레금시계A코너","tel":"02-2067-7273","addr":"경기도 광명시 광명동 150-19번지 광명크러앙스 1층","indutype":"신변잡화 - 시계","category":"other"},{"name":"팜므파탈","tel":"070-2699-0807","addr":"경기도 광명시 광명동 150-19번지 크로앙스 2층 2146호","indutype":"의류 - 정장","category":"other"},{"name":"페리미츠","tel":"02-2067-8828","addr":"경기도 광명시 광명동 150-19번지 크로앙스 3층 3066호","indutype":"신변잡화 - 신발","category":"other"},{"name":"페리미츠","tel":"02-2067-8828","addr":"경기도 광명시 광명동 150-19번지","indutype":"의류 - 아동의류","category":"other"},{"name":"포시즌","tel":"02-2067-8797","addr":"경기도 광명시 광명동 150-19번지 크로앙스 2층","indutype":"의류 - 정장","category":"other"},{"name":"폰나라","tel":"","addr":"경기도 광명시 광명동 150-19번지 크로앙스 1층 1127호","indutype":"신변잡화 - 기타잡화","category":"other"},{"name":"폰짱테크피아","tel":"02-2067-8400","addr":"경기도 광명시 광명동 150-19번지 광명크로앙스4층71호,72호,09호10호","indutype":"사무통신 - 통신기기","category":"other"},{"name":"폴리파크 광명사거리점","tel":"070-4246-3913","addr":"경기도 광명시 광명동 150-19번지 크로앙스 B층 1127,1132호","indutype":"문화.취미 - 애완동물","category":"other"},{"name":"프로포즈","tel":"02-2067-8226","addr":"경기도 광명시 광명동 150-19번지 광명크로앙스 2056동 2057호","indutype":"의류 - 정장","category":"other"},{"name":"프리터블루","tel":"02-2615-7030","addr":"경기도 광명시 광명동 150-19번지 광명크로앙스내1층1062호,.1066호","indutype":"신변잡화 - 신발","category":"other"},{"name":"플래시안","tel":"02-2067-8122","addr":"경기도 광명시 광명동 150-19번지 크로앙스 1층 1071,1072호","indutype":"신변잡화 - 기타잡화","category":"other"},{"name":"피아트","tel":"02-2067-8770","addr":"경기도 광명시 광명동 150-19번지 광명크로앙스 2층 2141,2144호","indutype":"의류 - 정장","category":"other"},{"name":"하나로싸악","tel":"02-2067-8989","addr":"경기도 광명시 광명동 150-19번지 크로앙스내B층 1009호","indutype":"신변잡화 - 기타잡화","category":"other"},{"name":"한솔잉크광명점","tel":"02-2067-8458","addr":"경기도 광명시 광명동 150-19번지 크로앙스 내 4층 174호","indutype":"사무통신 - 기타 사무용품","category":"other"},{"name":"한컴CQ교실광명","tel":"02-2615-3838","addr":"경기도 광명시 광명동 150-19번지 크로앙스 5층","indutype":"회원제형태 - 서적","category":"other"},{"name":"헤레스","tel":"02-3688-6263","addr":"경기도 광명시 광명동 150-19번지 크로앙스내2층 2043호","indutype":"의류 - 정장","category":"other"},{"name":"홍보석","tel":"02-2067-8892","addr":"경기도 광명시 광명동 150-19.1층(001259.60.61)","indutype":"신변잡화 - 귀금속","category":"other"},{"name":"황실유럽자수","tel":"02-2611-8822","addr":"경기도 광명시 광명동 150-19번지 크로앙스 2층 2157호","indutype":"직물 - 침구·수예점","category":"other"}]},{"lat":"37.48639962","long":"126.8594559","imageIndex":17,"items":[{"name":"(주)바른엔지니어링","tel":"02-2617-6927","addr":"경기도 광명시 광명동 12-1번지","indutype":"기타 - 기타 전문점","category":"other"}]},{"lat":"37.47459752","long":"126.8460142","imageIndex":17,"items":[{"name":"(주)빌뮤직","tel":"02-2611-7102","addr":"경기도 광명시 광명동 236번지 남경빌딩 3층","indutype":"레져용품 - 악기점","category":"other"}]},{"lat":"37.47401976","long":"126.8520748","imageIndex":17,"items":[{"name":"(주)새얀텔레콤/특별할부","tel":"02-2613-0008","addr":"경기도 광명시 광명동 290-64번지","indutype":"사무통신 - 통신기기(무이자할부)","category":"other"},{"name":"전자담배","tel":"02-2066-9007","addr":"경기도 광명시 광명동 290-64번지","indutype":"기타 - 기타 전문점","category":"other"},{"name":"주식회사 새얀텔레콤","tel":"02-2613-0008","addr":"경기도 광명시 광명동 290-64번지 SK텔레콤","indutype":"사무통신 - 통신기기","category":"other"},{"name":"주식회사새얀텔레콤_PS","tel":"02-2613-0008","addr":"경기도 광명시 광명동 290-64번지","indutype":"사무통신 - 통신기기","category":"other"},{"name":"향기나라","tel":"02-2617-1800","addr":"경기도 광명시 광명동 290-64번지 1층","indutype":"문화.취미 - 화원","category":"other"}]},{"lat":"37.47276452","long":"126.8498503","imageIndex":17,"items":[{"name":"(주)서울윈인테리어","tel":"02-2688-0100","addr":"경기도 광명시 광명동 372-17번지","indutype":"건축자재 - 인테리어전문","category":"other"}]},{"lat":"37.47626401","long":"126.8526808","imageIndex":17,"items":[{"name":"(주)세종기획","tel":"02-2681-7133","addr":"경기도 광명시 광명동 295-23번지","indutype":"용역 서비스 - 종합용역","category":"other"},{"name":"진영모터상사","tel":"02-2060-7748","addr":"경기도 광명시 광명동 295-23번지","indutype":"전기제품 - 기타전기제품","category":"other"},{"name":"해모로","tel":"02-2618-8432","addr":"경기도 광명시 광명동 295-23번지","indutype":"사무통신 - 통신기기","category":"other"}]},{"lat":"37.48112243","long":"126.861648","imageIndex":17,"items":[{"name":"(주)신우소방","tel":"031-6348-2119","addr":"경기도 광명시 광명동 22-4번지 1층","indutype":"용역 서비스 - 기타용역서비스","category":"other"}]},{"lat":"37.46985342","long":"126.849178","imageIndex":17,"items":[{"name":"(주)아산양행경서영업소/특별할부","tel":"02-2616-6211","addr":"경기도 광명시 광명동 750번지","indutype":"사무통신 - 사무용 OA기기","category":"other"}]},{"lat":"37.4784877","long":"126.8584874","imageIndex":17,"items":[{"name":"(주)아이더광명사거리점","tel":"02-2625-8848","addr":"경기도 광명시 광명동 149-1번지 2층","indutype":"레져용품 - 스포츠·레져용품","category":"other"}]},{"lat":"37.48281758","long":"126.8553246","imageIndex":17,"items":[{"name":"(주)아이엔텍","tel":"02-2611-6101","addr":"경기도 광명시 광명동 97-1번지","indutype":"사무통신 - 기타 사무용품","category":"other"},{"name":"스마일에듀","tel":"02-2066-9654","addr":"경기도 광명시 광명동 97-1번지 한진 1층","indutype":"서적문구 - 기타서적문구","category":"other"}]},{"lat":"37.48124035","long":"126.854932","imageIndex":17,"items":[{"name":"(주)아폴로여행사","tel":"02-2618-2921","addr":"경기도 광명시 광명동 142-4번지","indutype":"여행 - 관광여행","category":"other"},{"name":"비단금침(레노마)","tel":"02-2060-4440","addr":"경기도 광명시 광명동 142-4번지 정겔러리 102호","indutype":"직물 - 침구·수예점","category":"other"},{"name":"삼보상사","tel":"02-2685-2896","addr":"경기도 광명시 광명동 142-4번지 1층 3호","indutype":"기타 - 기타 전문점","category":"other"}]},{"lat":"37.46895995","long":"126.8480381","imageIndex":17,"items":[{"name":"(주)엠에스엠테크","tel":"070-8690-2787","addr":"경기도 광명시 광명동 754-1번지 그린빌딩 201호","indutype":"전기제품 - 기타전기제품","category":"other"},{"name":"시온치과기공소","tel":"02-6402-7205","addr":"경기도 광명시 광명동 754-1번지 그린빌딩 301호","indutype":"기타의료기관 - 기타의료기관 및 기타","category":"other"}]},{"lat":"37.46782371","long":"126.8542915","imageIndex":17,"items":[{"name":"(주)우리씨에스산업","tel":"02-2689-5521","addr":"경기도 광명시 광명동 730-15번지 우덕빌라 1층 102호","indutype":"용역 서비스 - 종합용역","category":"other"}]},{"lat":"37.47115255","long":"126.8504867","imageIndex":17,"items":[{"name":"(주)이레정보시스템","tel":"02-6941-3332","addr":"경기도 광명시 광명동 374-51번지 1층","indutype":"용역 서비스 - 기타용역서비스","category":"other"},{"name":"우일조명","tel":"02-2613-2883","addr":"경기도 광명시 광명동 374-51번지","indutype":"건축자재 - 조명기구","category":"other"}]},{"lat":"37.4799588","long":"126.8532387","imageIndex":17,"items":[{"name":"(주)커피사랑닷컴(CoffeLove.com)","tel":"02-704-3991","addr":"경기도 광명시 광명동 158-195번지 광명리더스빌딩 1101,1102,1103,1104,1105호","indutype":"기타 - 기타 전문점","category":"other"},{"name":"J2(제이투)텔레콤","tel":"02-2688-7411","addr":"경기도 광명시 광명동 158-195번지 광명리더스빌딩 306호","indutype":"사무통신 - 통신기기","category":"other"},{"name":"REACL ZONE(리클존)","tel":"02-1577-8944","addr":"경기도 광명시 광명동 158-195 502호~503호","indutype":"용역 서비스 - 종합용역","category":"other"},{"name":"김한수세무회계사무소","tel":"02-2066-0935","addr":"경기도 광명시 광명동 158-195번지 광명리더스빌딩 402호","indutype":"용역 서비스 - 법률회계서비스(개인)","category":"other"},{"name":"엘아이지포에버","tel":"02-2900-3676","addr":"경기도 광명시 광명동 158-195번지 광명리더스빌딩 707호","indutype":"유통업 영리 - 기타유통업","category":"other"}]},{"lat":"37.49023454","long":"126.8642315","imageIndex":17,"items":[{"name":"(주)화신씨앤에스","tel":"02-2615-0027","addr":"경기도 광명시 광명동 6-38번지","indutype":"건축자재 - 기타건축자재","category":"other"}]},{"lat":"37.47681965","long":"126.8503508","imageIndex":17,"items":[{"name":"1,2,3기획","tel":"02-856-5376","addr":"경기도 광명시 광명동 285-17번지 광명맨션","indutype":"서적문구 - 일반서적","category":"other"}]},{"lat":"37.46879447","long":"126.8524584","imageIndex":17,"items":[{"name":"100g훈련소","tel":"070-4642-4109","addr":"경기도 광명시 광명동 724-13번지 2층","indutype":"회원제형태 - 레져업소","category":"other"}]},{"lat":"37.47767784","long":"126.8521014","imageIndex":17,"items":[{"name":"3000리호자전거광명대리점","tel":"02-2686-3737","addr":"경기도 광명시 광명동 200-6번지 한진상가 1동 1124호","indutype":"레져용품 - 스포츠·레져용품","category":"other"},{"name":"모던인테리어","tel":"02-2681-9599","addr":"경기도 광명시 광명동 200-6번지 한진상가 A동 1110호","indutype":"건축자재 - 인테리어전문","category":"other"},{"name":"법무사정의구사무소","tel":"02-2612-0222","addr":"경기도 광명시 광명동 200-6번지 한진타운상가A동1211호","indutype":"용역 서비스 - 법률회계서비스(개인)","category":"other"},{"name":"신용당","tel":"02-2616-5603","addr":"경기도 광명시 광명동 200-6번지 한진상가 A동 1101호","indutype":"신변잡화 - 귀금속","category":"other"},{"name":"책마을","tel":"02-2683-0016","addr":"경기도 광명시 광명동 200-6번지 한진상가 A-1108호","indutype":"사무통신 - 통신기기","category":"other"},{"name":"책마을/특별할부","tel":"02-2683-0016","addr":"경기도 광명시 광명동 200-6번지 한진상가 A-1108호","indutype":"사무통신 - 통신기기(무이자할부)","category":"other"},{"name":"한진세탁소","tel":"02-2689-5856","addr":"경기도 광명시 광명동 200-6번지 한진타운 A동 1119호","indutype":"수리서비스 - 세탁소","category":"other"}]},{"lat":"37.46143302","long":"126.8453183","imageIndex":17,"items":[{"name":"7동 삼다원","tel":"02-2684-8659","addr":"경기도 광명시 광명동 542","indutype":"문화.취미 - 화원","category":"other"},{"name":"윤플라워","tel":"02-2685-6817","addr":"경기도 광명시 광명동 542","indutype":"문화.취미 - 화원","category":"other"},{"name":"푸른농원","tel":"02-2616-3445","addr":"경기도 광명시 광명동 542","indutype":"문화.취미 - 화원","category":"other"}]},{"lat":"37.47907222","long":"126.8575705","imageIndex":17,"items":[{"name":"88Double eight","tel":"02-2688-6808","addr":"경기도 광명시 광명동 156-5번지 일층(김밥사랑)","indutype":"의류 - 정장","category":"other"},{"name":"동광도기타일상사","tel":"02-2619-1591","addr":"경기도 광명시 광명동 156-5번지","indutype":"건축자재 - 목재·석재·철물","category":"other"}]},{"lat":"37.48523989","long":"126.8615724","imageIndex":17,"items":[{"name":"At cony체험공방","tel":"02-6081-0072","addr":"경기도 광명시 광명동 19-7번지","indutype":"문화.취미 - 문화취미기타","category":"other"}]},{"lat":"37.47792766","long":"126.857324","imageIndex":17,"items":[{"name":"Best of Best","tel":"02-2685-9010","addr":"경기도 광명시 광명동 158-394번지 1층 일부","indutype":"사무통신 - 통신기기","category":"other"}]},{"lat":"37.4602423","long":"126.8511305","imageIndex":17,"items":[{"name":"CHEGO(최고)꽃도매","tel":"02-2611-6661","addr":"경기도 광명시 광명동 609-2번지 비닐하우스","indutype":"문화.취미 - 화원","category":"other"},{"name":"경향꽃백화점","tel":"02-2614-3645","addr":"경기도 광명시 광명동 609-2 101호","indutype":"문화.취미 - 화원","category":"other"},{"name":"영플라워","tel":"02-351-3251","addr":"경기도 광명시 광명동 609-2번지","indutype":"문화.취미 - 화원","category":"other"}]},{"lat":"37.46715369","long":"126.8517043","imageIndex":17,"items":[{"name":"CS토스비","tel":"02-2612-4987","addr":"경기도 광명시 광명동 736-6번지 광문아트빌라","indutype":"유통업 영리 - 기타유통업","category":"other"}]},{"lat":"37.47540536","long":"126.8505685","imageIndex":17,"items":[{"name":"Clean 서비스센터","tel":"02-2681-9486","addr":"경기도 광명시 광명동 282-14번지","indutype":"용역 서비스 - 종합용역","category":"other"}]},{"lat":"37.47112584","long":"126.8507354","imageIndex":17,"items":[{"name":"Dog sketch(도그스케치)","tel":"02-2618-1444","addr":"경기도 광명시 광명동 374-87번지 102호","indutype":"문화.취미 - 애완동물","category":"other"},{"name":"Dog sketch(도그스케치)","tel":"070-8802-0002","addr":"경기도 광명시 광명동 374-87번지 102호","indutype":"문화.취미 - 애완동물","category":"other"},{"name":"루나정보통신","tel":"070-4065-2153","addr":"경기도 광명시 광명동 374-87번지 1층 2호","indutype":"사무통신 - 통신기기","category":"other"}]},{"lat":"37.47840463","long":"126.8568709","imageIndex":17,"items":[{"name":"Dr아이픽스광명철산아이폰수리","tel":"02-6403-0070","addr":"경기도 광명시 광명동 158-490번지 3층","indutype":"수리서비스 - 사무·통신기기수리","category":"other"}]},{"lat":"37.48426229","long":"126.8578431","imageIndex":17,"items":[{"name":"E.S.P","tel":"02-2688-0177","addr":"경기도 광명시 광명동 59-1번지","indutype":"기타 - 기계공구","category":"other"}]},{"lat":"37.47423449","long":"126.8508987","imageIndex":17,"items":[{"name":"ELIN Generator","tel":"070-8622-3774","addr":"경기도 광명시 광명동 290-92번지 102호","indutype":"의류 - 정장","category":"other"}]},{"lat":"37.48209803","long":"126.856321","imageIndex":17,"items":[{"name":"ESM네트웍스","tel":"070-4705-0678","addr":"경기도 광명시 광명동 104-13번지 환지빌딩 201호","indutype":"신변잡화 - 기타잡화","category":"other"},{"name":"중앙불교만물사","tel":"02-2615-1170","addr":"경기도 광명시 광명동 104-13번지 1층","indutype":"신변잡화 - 기념품점","category":"other"}]},{"lat":"37.48012374","long":"126.8554317","imageIndex":17,"items":[{"name":"ESP마트","tel":"02-2613-6855","addr":"경기도 광명시 광명동 158-66번지","indutype":"의류 - 내의판매","category":"other"},{"name":"뉴밀라노","tel":"02-2611-8016","addr":"경기도 광명시 광명동 158-66번지","indutype":"의류 - 정장","category":"other"}]},{"lat":"37.46781886","long":"126.8504821","imageIndex":17,"items":[{"name":"Family주방가구","tel":"02-2066-7390","addr":"경기도 광명시 광명동 743-9번지 외 1필지 1층 8호","indutype":"주방용구 - 주방용구","category":"other"}]},{"lat":"37.46865176","long":"126.8536004","imageIndex":17,"items":[{"name":"GS25광명골드중앙점","tel":"","addr":"경기도 광명시 광명동 725-9번지","indutype":"유통업 영리 - 편 의 점","category":"other"}]},{"lat":"37.46768304","long":"126.8499624","imageIndex":17,"items":[{"name":"GS25광명광문점","tel":"","addr":"경기도 광명시 광명동 743번지","indutype":"유통업 영리 - 편 의 점","category":"other"},{"name":"상미사","tel":"02-2614-2979","addr":"경기도 광명시 광명동 743번지 1층","indutype":"건축자재 - 인테리어전문","category":"other"}]},{"lat":"37.47504585","long":"126.8512588","imageIndex":17,"items":[{"name":"GS25광명광오점","tel":"02-2006-2118","addr":"경기도 광명시 광명동 289-13번지","indutype":"유통업 영리 - 편 의 점","category":"other"}]},{"lat":"37.47209946","long":"126.8511517","imageIndex":17,"items":[{"name":"GS25광명삼영점","tel":"","addr":"경기도 광명시 광명동 374-10번지 5호","indutype":"유통업 영리 - 편 의 점","category":"other"},{"name":"브릭스","tel":"","addr":"경기도 광명시 광명동 374-10번지 2층 202호","indutype":"서적문구 - 완구점","category":"other"}]},{"lat":"37.48096055","long":"126.8545369","imageIndex":17,"items":[{"name":"GS25광명역점","tel":"02-2006-2118","addr":"경기도 광명시 광명동 143-7번지","indutype":"유통업 영리 - 편 의 점","category":"other"}]},{"lat":"37.47757374","long":"126.8552897","imageIndex":17,"items":[{"name":"GS25광명제일점","tel":"","addr":"경기도 광명시 광명동 158-647번지 금강빌라 101호","indutype":"유통업 영리 - 편 의 점","category":"other"}]},{"lat":"37.48437222","long":"126.8593241","imageIndex":17,"items":[{"name":"GS25광명타운점","tel":"02-2006-2118","addr":"경기도 광명시 광명동 65-11번지","indutype":"유통업 영리 - 편 의 점","category":"other"}]},{"lat":"37.48526206","long":"126.8575698","imageIndex":17,"items":[{"name":"GS25광명한결점","tel":"080-555-2525","addr":"경기도 광명시 광명동 46-16번지","indutype":"유통업 영리 - 편 의 점","category":"other"}]},{"lat":"37.47907381","long":"126.8516577","imageIndex":17,"items":[{"name":"GS25광명한진점","tel":"080-555-2525","addr":"경기도 광명시 광명동 158-1288번지","indutype":"유통업 영리 - 편 의 점","category":"other"}]},{"lat":"37.46715398","long":"126.8519304","imageIndex":17,"items":[{"name":"GS25광문초교점","tel":"080-555-2525","addr":"경기도 광명시 광명동 736-5번지 201(201호202호,광명7동736-5이림하텍빌라)","indutype":"유통업 영리 - 편 의 점","category":"other"}]},{"lat":"37.46068598","long":"126.8459076","imageIndex":17,"items":[{"name":"I Flower","tel":"02-2688-8228","addr":"경기도 광명시 광명동 620-1번지","indutype":"문화.취미 - 화원","category":"other"},{"name":"대성플라워","tel":"02-891-0405","addr":"경기도 광명시 광명동 620-1번지","indutype":"문화.취미 - 화원","category":"other"},{"name":"토지","tel":"02-2684-0311","addr":"경기도 광명시 광명동 620-1번지","indutype":"문화.취미 - 화원","category":"other"}]},{"lat":"37.47881908","long":"126.8568701","imageIndex":17,"items":[{"name":"In's","tel":"02-897-1291","addr":"경기도 광명시 광명동 150-7번지","indutype":"의류 - 정장","category":"other"},{"name":"이동우콜렉션","tel":"02-2617-6118","addr":"경기도 광명시 광명동 150-7번지","indutype":"의류 - 내의판매","category":"other"}]},{"lat":"37.47404022","long":"126.8470102","imageIndex":17,"items":[{"name":"JIN & DOG(진앤독)","tel":"02-2646-0000","addr":"경기도 광명시 광명동 243-1번지 1층 103호","indutype":"문화.취미 - 애완동물","category":"other"}]},{"lat":"37.48101672","long":"126.8562327","imageIndex":17,"items":[{"name":"JK coffee & machine ( 제이케이 커피앤머","tel":"02-000-0000","addr":"경기도 광명시 광명동 139-13번지 영하이츠빌라 지층 2호","indutype":"주방용구 - 주방용구","category":"other"}]},{"lat":"37.48160175","long":"126.855734","imageIndex":17,"items":[{"name":"K&L이너웨어","tel":"02-2060-3380","addr":"경기도 광명시 광명동 102-13번지 1층","indutype":"의류 - 정장","category":"other"}]},{"lat":"37.48959553","long":"126.8648207","imageIndex":17,"items":[{"name":"KOO도예공방","tel":"02-6291-3886","addr":"경기도 광명시 광명동 6-1번지 보은연립","indutype":"문화.취미 - 민예·공예품","category":"other"},{"name":"쌍방울광명센타","tel":"02-2689-0580","addr":"경기도 광명시 광명동 6-1번지","indutype":"의류 - 내의판매","category":"other"},{"name":"태양지물포","tel":"02-2685-0585","addr":"경기도 광명시 광명동 6-1번지","indutype":"직물 - 카페트,커튼,천막,지물","category":"other"}]},{"lat":"37.4833158","long":"126.8574832","imageIndex":17,"items":[{"name":"LG공조시스템","tel":"02-2686-3840","addr":"경기도 광명시 광명동 59-9번지","indutype":"전기제품 - 냉열기기","category":"other"},{"name":"기린열쇠","tel":"02-2689-7550","addr":"경기도 광명시 광명동 59-9번지","indutype":"건축자재 - 목재·석재·철물","category":"other"}]},{"lat":"37.4809564","long":"126.85846","imageIndex":17,"items":[{"name":"LG중앙전자/(주)중앙전자","tel":"02-2688-7280","addr":"경기도 광명시 광명동 113-8번지","indutype":"전기제품 - 가전제품","category":"other"}]},{"lat":"37.47509729","long":"126.8563234","imageIndex":17,"items":[{"name":"LS시스템","tel":"070-5043-5556","addr":"경기도 광명시 광명동 42-110번지 4층","indutype":"사무통신 - 통신기기","category":"other"}]},{"lat":"37.48504483","long":"126.8567675","imageIndex":17,"items":[{"name":"MAKING FURNITURE","tel":"02-2060-4964","addr":"경기도 광명시 광명동 50-9번지 1층","indutype":"가구 - 일반가구","category":"other"}]},{"lat":"37.48471152","long":"126.8568134","imageIndex":17,"items":[{"name":"MS전자","tel":"02-838-1300","addr":"경기도 광명시 광명동 50-19번지 1층","indutype":"전기제품 - 가전제품","category":"other"}]},{"lat":"37.48371173","long":"126.8570641","imageIndex":17,"items":[{"name":"OP(Obey&Praise)","tel":"02-2060-5276","addr":"경기도 광명시 광명동 58-11번지","indutype":"전기제품 - 가전제품","category":"other"}]},{"lat":"37.4728227","long":"126.853072","imageIndex":17,"items":[{"name":"PINK","tel":"070-4028-5042","addr":"경기도 광명시 광명동 334-33번지 1층","indutype":"의류 - 정장","category":"other"},{"name":"강남스타일","tel":"","addr":"경기도 광명시 광명동 334-33번지 1층 102호","indutype":"의류 - 기타의류","category":"other"},{"name":"뜨게사랑","tel":"02-769-1237","addr":"경기도 광명시 광명동 334-33번지","indutype":"직물 - 침구·수예점","category":"other"},{"name":"한복여행","tel":"02-6052-3733","addr":"경기도 광명시 광명동 334-33번지","indutype":"의류 - 맞춤복점","category":"other"}]},{"lat":"37.47795519","long":"126.8505746","imageIndex":17,"items":[{"name":"REMING(르밍)","tel":"","addr":"경기도 광명시 광명동 208-3번지 1층 2호","indutype":"의류 - 정장","category":"other"}]},{"lat":"37.47618128","long":"126.8585936","imageIndex":17,"items":[{"name":"S&K","tel":"032-427-2224","addr":"경기도 광명시 광명동 41-184번지","indutype":"의류 - 정장","category":"other"}]},{"lat":"37.48890056","long":"126.863793","imageIndex":17,"items":[{"name":"SB텔레콤","tel":"02-2060-7213","addr":"경기도 광명시 광명동 6-87번지 1층","indutype":"사무통신 - 통신기기","category":"other"}]},{"lat":"37.47835077","long":"126.8570406","imageIndex":17,"items":[{"name":"SEVEN STORY(세븐스토리)","tel":"02-2683-7771","addr":"경기도 광명시 광명동 158-487번지 1층","indutype":"신변잡화 - 신발","category":"other"},{"name":"SaSa(사사)","tel":"02-2619-9909","addr":"경기도 광명시 광명동 158-487번지","indutype":"의류 - 정장","category":"other"},{"name":"광명엔젤로타리클럽","tel":"02-2616-3622","addr":"경기도 광명시 광명동 158-487번지 4층","indutype":"기타 - 비영리/비대상","category":"other"},{"name":"글로벌패밀리","tel":"02-2060-9861","addr":"경기도 광명시 광명동 158-487번지 3층","indutype":"서적문구 - 출판 및 인쇄물","category":"other"},{"name":"신광명로타리클럽","tel":"02-2616-3622","addr":"경기도 광명시 광명동 158-487번지 4층","indutype":"기타 - 비영리/대상","category":"other"}]},{"lat":"37.48148376","long":"126.8550446","imageIndex":17,"items":[{"name":"SK텔레콤011","tel":"02-685-8058","addr":"경기도 광명시 광명동 142-2번지","indutype":"사무통신 - 통신기기","category":"other"},{"name":"이상봉앤틱가구","tel":"02-2687-1666","addr":"경기도 광명시 광명동 142-2번지","indutype":"가구 - 일반가구","category":"other"}]},{"lat":"37.47895915","long":"126.8609059","imageIndex":17,"items":[{"name":"Sen.J(센제이)","tel":"02-503-0337","addr":"경기도 광명시 광명동 32-89번지 201호","indutype":"회원제형태 - 기타4","category":"other"}]},{"lat":"37.48029171","long":"126.8528762","imageIndex":17,"items":[{"name":"Sun시스템","tel":"","addr":"경기도 광명시 광명동 158-155번지 우방빌라 301호","indutype":"용역 서비스 - 기타용역서비스","category":"other"}]},{"lat":"37.47926521","long":"126.8533757","imageIndex":17,"items":[{"name":"S댄스","tel":"02-2615-2616","addr":"경기도 광명시 광명동 158-811번지 4층","indutype":"회원제형태 - 레져업소","category":"other"}]},{"lat":"37.48151723","long":"126.8530095","imageIndex":17,"items":[{"name":"TJ테크","tel":"02-2612-6325","addr":"경기도 광명시 광명동 147-9번지 한솔빌라 102호","indutype":"사무통신 - 사무용 OA기기","category":"other"}]},{"lat":"37.47829692","long":"126.8572102","imageIndex":17,"items":[{"name":"Wire (와이어)","tel":"02-2642-2275","addr":"경기도 광명시 광명동 158-486번지","indutype":"신변잡화 - 액세서리","category":"other"},{"name":"올리버","tel":"02-2613-0042","addr":"경기도 광명시 광명동 158-486번지","indutype":"의류 - 정장","category":"other"}]},{"lat":"37.47465389","long":"126.8477664","imageIndex":17,"items":[{"name":"anDoo","tel":"031-503-8018","addr":"경기도 광명시 광명동 247-11번지 청운빌딩 1층 103호","indutype":"의류 - 정장","category":"other"}]},{"lat":"37.48024094","long":"126.855488","imageIndex":17,"items":[{"name":"m-story","tel":"02-2681-1214","addr":"경기도 광명시 광명동 158-67번지 1층","indutype":"의류 - 정장","category":"other"},{"name":"대도상회","tel":"02-2060-6152","addr":"경기도 광명시 광명동 158-67번지","indutype":"주방용구 - 주방용구","category":"other"},{"name":"아이디어","tel":"032-681-5179","addr":"경기도 광명시 광명동 158-67번지 2층","indutype":"신변잡화 - 기타잡화","category":"other"},{"name":"충남상회","tel":"02-2611-2855","addr":"경기도 광명시 광명동 158-67번지","indutype":"의류 - 정장","category":"other"}]},{"lat":"37.47762835","long":"126.8557305","imageIndex":17,"items":[{"name":"withclay","tel":"02-2612-8251","addr":"경기도 광명시 광명동 158-578번지","indutype":"문화.취미 - 민예·공예품","category":"other"}]},{"lat":"37.48187143","long":"126.8552361","imageIndex":17,"items":[{"name":"가구공장","tel":"02-2646-1811","addr":"경기도 광명시 광명동 101-8번지 1층","indutype":"가구 - 일반가구","category":"other"}]},{"lat":"37.48309747","long":"126.8557876","imageIndex":17,"items":[{"name":"가구백화점","tel":"02-2601-3334","addr":"경기도 광명시 광명동 93-5번지","indutype":"가구 - 일반가구","category":"other"}]},{"lat":"37.48001223","long":"126.8527411","imageIndex":17,"items":[{"name":"가나지물","tel":"02-2684-7696","addr":"경기도 광명시 광명동 158-201번지","indutype":"직물 - 카페트,커튼,천막,지물","category":"other"},{"name":"정은당","tel":"02-2613-1289","addr":"경기도 광명시 광명동 158-201","indutype":"신변잡화 - 시계","category":"other"}]},{"lat":"37.47745683","long":"126.8554595","imageIndex":17,"items":[{"name":"가예번역사","tel":"02-6104-6800","addr":"경기도 광명시 광명동 158-638번지 1층","indutype":"용역 서비스 - 사무서비스","category":"other"}]},{"lat":"37.48112453","long":"126.8489062","imageIndex":17,"items":[{"name":"가원화분나라","tel":"070-4036-7300","addr":"경기도 광명시 광명동 159-35번지 1층","indutype":"문화.취미 - 화원","category":"other"},{"name":"광명한일사","tel":"02-2617-4655","addr":"경기도 광명시 광명동 159-35번지","indutype":"전기제품 - 기타전기제품","category":"other"},{"name":"라인월드주식회사","tel":"02-898-5525","addr":"경기도 광명시 광명동 159-35번지 1층","indutype":"여행 - 관광여행","category":"other"}]},{"lat":"37.47105286","long":"126.8571678","imageIndex":17,"items":[{"name":"가위박사","tel":"02-2689-2949","addr":"경기도 광명시 광명동 713번지 광명중앙하이츠아파트","indutype":"수리서비스 - 기타수리서비스","category":"other"},{"name":"한국자원친환경","tel":"031-463-2746","addr":"경기도 광명시 광명동 713번지 광명중앙하이츠아파트","indutype":"신변잡화 - 기타잡화","category":"other"},{"name":"한컴CQ교실광명","tel":"02-2615-3838","addr":"경기도 광명시 광명동 713번지 광명중앙하이츠아파트","indutype":"회원제형태 - 서적","category":"other"}]},{"lat":"37.47146075","long":"126.851933","imageIndex":17,"items":[{"name":"가전지구공사","tel":"02-798-1143","addr":"경기도 광명시 광명동 324-49번지","indutype":"수리서비스 - 가정용품수리","category":"other"}]},{"lat":"37.48946021","long":"126.8646739","imageIndex":17,"items":[{"name":"간지나는걸","tel":"02-2611-2642","addr":"경기도 광명시 광명동 6-89번지","indutype":"의류 - 정장","category":"other"},{"name":"광복전자","tel":"02-2685-9561","addr":"경기도 광명시 광명동 6-89번지 1층 02호","indutype":"전기제품 - 가전제품","category":"other"}]},{"lat":"37.479074","long":"126.8590176","imageIndex":17,"items":[{"name":"간지여우","tel":"02-6369-6337","addr":"경기도 광명시 광명동 126-28번지","indutype":"의류 - 정장","category":"other"},{"name":"포인트","tel":"02-2686-9338","addr":"경기도 광명시 광명동 126-28번지 1층","indutype":"회원제형태 - 기타4","category":"other"}]},{"lat":"37.47987985","long":"126.8549347","imageIndex":17,"items":[{"name":"갈보리숙녀복","tel":"02-2625-3354","addr":"경기도 광명시 광명동 158-79번지","indutype":"의류 - 정장","category":"other"},{"name":"엄마방","tel":"02-2687-0654","addr":"경기도 광명시 광명동 158-79번지","indutype":"의류 - 정장","category":"other"}]},{"lat":"37.47423546","long":"126.8516561","imageIndex":17,"items":[{"name":"감동사진관","tel":"02-2689-7171","addr":"경기도 광명시 광명동 290-14번지 동진프라자 3층 3호","indutype":"광학제품 - 사진관","category":"other"},{"name":"사루비아(신발)","tel":"02-2685-5877","addr":"경기도 광명시 광명동 290-14번지 동진프라자 1층 4호","indutype":"신변잡화 - 신발","category":"other"},{"name":"토즈멤버십라운지 광명사거리 센터","tel":"02-2060-6661","addr":"경기도 광명시 광명동 290-14번지 동진프라자 7층 701호 일부","indutype":"용역 서비스 - 사무서비스","category":"other"}]},{"lat":"37.48056836","long":"126.8507954","imageIndex":17,"items":[{"name":"개굿","tel":"02-2066-0275","addr":"경기도 광명시 광명동 158-1102번지 1층","indutype":"문화.취미 - 애완동물","category":"other"}]},{"lat":"37.47990736","long":"126.8553191","imageIndex":17,"items":[{"name":"개나리상가","tel":"02-688-4544","addr":"경기도 광명시 광명동 158-64번지","indutype":"의류 - 정장","category":"other"},{"name":"개나리상가8호","tel":"02-2686-8515","addr":"경기도 광명시 광명동 158-64번지","indutype":"의류 - 정장","category":"other"},{"name":"금빛코리아","tel":"070-3287-2795","addr":"경기도 광명시 광명동 158-64번지 1층","indutype":"신변잡화 - 가방","category":"other"}]},{"lat":"37.47782144","long":"126.8588731","imageIndex":17,"items":[{"name":"개미꽃","tel":"02-2612-3546","addr":"경기도 광명시 광명동 158-304번지 해연빌딩 37동 1호","indutype":"문화.취미 - 화원","category":"other"},{"name":"리본클럽","tel":"02-2682-0371","addr":"경기도 광명시 광명동 158-304번지 해연빌딩 2층 1호","indutype":"신변잡화 - 기타잡화","category":"other"},{"name":"이브자리광명점","tel":"02-2060-0082","addr":"경기도 광명시 광명동 158-304번지","indutype":"직물 - 침구·수예점","category":"other"}]},{"lat":"37.47412801","long":"126.8521764","imageIndex":17,"items":[{"name":"개밥그룻 광명청고","tel":"02-2618-1877","addr":"경기도 광명시 광명동 290-35번지","indutype":"문화.취미 - 애완동물","category":"other"}]},{"lat":"37.48117921","long":"126.8564811","imageIndex":17,"items":[{"name":"개밥그릇","tel":"02-2682-1877","addr":"경기도 광명시 광명동 139-1번지","indutype":"문화.취미 - 애완동물","category":"other"}]},{"lat":"37.47737773","long":"126.8570651","imageIndex":17,"items":[{"name":"개밥그릇4동점","tel":"02-2684-1877","addr":"경기도 광명시 광명동 158-422번지","indutype":"문화.취미 - 애완동물","category":"other"}]},{"lat":"37.48087347","long":"126.8498451","imageIndex":17,"items":[{"name":"개봉천막사","tel":"02-2612-9074","addr":"경기도 광명시 광명동 158-1407번지","indutype":"직물 - 카페트,커튼,천막,지물","category":"other"}]},{"lat":"37.48495473","long":"126.8567677","imageIndex":17,"items":[{"name":"갤러리아","tel":"02-2613-7682","addr":"경기도 광명시 광명동 50-12번지","indutype":"가구 - 일반가구","category":"other"}]},{"lat":"37.46092899","long":"126.845715","imageIndex":17,"items":[{"name":"갤러리플라워","tel":"02-2625-3978","addr":"경기도 광명시 광명동 545-1번지","indutype":"문화.취미 - 화원","category":"other"},{"name":"광덕화원","tel":"02-2615-0236","addr":"경기도 광명시 광명동 545-1번지","indutype":"문화.취미 - 화원","category":"other"},{"name":"광명꽃단지8호","tel":"02-684-3333","addr":"경기도 광명시 광명동 545-1번지","indutype":"문화.취미 - 화원","category":"other"},{"name":"광명대농화분","tel":"02-2619-7200","addr":"경기도 광명시 광명동 545-1번지","indutype":"문화.취미 - 화원","category":"other"},{"name":"꽃파는형제","tel":"031-222-2310","addr":"경기도 광명시 광명동 545-1번지 1,2호","indutype":"문화.취미 - 화원","category":"other"},{"name":"대농농원","tel":"02-2689-2265","addr":"경기도 광명시 광명동 545-1번지 광명꽃직매장 6호","indutype":"문화.취미 - 화원","category":"other"},{"name":"대일농원","tel":"031-2625-4649","addr":"경기도 광명시 광명동 545-1번지","indutype":"문화.취미 - 화원","category":"other"},{"name":"드림플라워","tel":"02-2687-9191","addr":"경기도 광명시 광명동 545-1번지","indutype":"문화.취미 - 화원","category":"other"},{"name":"명품화분","tel":"02-2685-6668","addr":"경기도 광명시 광명동 545-1번지 광명화훼단지 19호","indutype":"신변잡화 - 기타잡화","category":"other"},{"name":"반월 꽃 난원","tel":"02-2625-0144","addr":"경기도 광명시 광명동 545-1번지","indutype":"문화.취미 - 화원","category":"other"},{"name":"봄날다육농산","tel":"02-2682-1315","addr":"경기도 광명시 광명동 545-1번지","indutype":"문화.취미 - 화원","category":"other"},{"name":"세종난원","tel":"02-2066-9661","addr":"경기도 광명시 광명동 545-1번지 광명꽃단지","indutype":"문화.취미 - 화원","category":"other"},{"name":"소울라인플라워","tel":"02-578-5087","addr":"경기도 광명시 광명동 545-1번지 27호","indutype":"문화.취미 - 화원","category":"other"},{"name":"에덴 꽃 도매","tel":"031-1577-2276","addr":"경기도 광명시 광명동 545-1번지","indutype":"문화.취미 - 화원","category":"other"},{"name":"에덴난원","tel":"02-2617-6667","addr":"경기도 광명시 광명동 545-1번지","indutype":"문화.취미 - 화원","category":"other"},{"name":"천왕화원","tel":"02-2688-0432","addr":"경기도 광명시 광명동 545-1번지","indutype":"문화.취미 - 화원","category":"other"},{"name":"한라식물원","tel":"02-2619-1800","addr":"경기도 광명시 광명동 545-1번지 29호","indutype":"문화.취미 - 화원","category":"other"}]},{"lat":"37.48010092","long":"126.8588461","imageIndex":17,"items":[{"name":"거성냉동","tel":"","addr":"경기도 광명시 광명동 128-23번지 1층","indutype":"용역 서비스 - 기타용역서비스","category":"other"}]},{"lat":"37.48768273","long":"126.8625402","imageIndex":17,"items":[{"name":"건일","tel":"02-2690-8424","addr":"경기도 광명시 광명동 10-33번지 지층","indutype":"전기제품 - 가전제품","category":"other"}]},{"lat":"37.4805961","long":"126.8585399","imageIndex":17,"items":[{"name":"경원장식","tel":"070-7617-3253","addr":"경기도 광명시 광명동 129-14번지 1층","indutype":"직물 - 카페트,커튼,천막,지물","category":"other"}]},{"lat":"37.48362419","long":"126.8591559","imageIndex":17,"items":[{"name":"경진기획","tel":"02-2678-1780","addr":"경기도 광명시 광명동 63-1번지 504","indutype":"서적문구 - 출판 및 인쇄물","category":"other"}]},{"lat":"37.4825704","long":"126.8594632","imageIndex":17,"items":[{"name":"경진토탈","tel":"02-2606-3504","addr":"경기도 광명시 광명동 84-14번지 라이프맨션","indutype":"전기제품 - 기타전기제품","category":"other"}]},{"lat":"37.47996111","long":"126.8550702","imageIndex":17,"items":[{"name":"경현네집","tel":"02-2684-9103","addr":"경기도 광명시 광명동 158-77번지","indutype":"의류 - 정장","category":"other"}]},{"lat":"37.46723883","long":"126.8478721","imageIndex":17,"items":[{"name":"계성상사","tel":"02-2685-7704","addr":"경기도 광명시 광명동 442-6번지","indutype":"농업 - 기타농업관련","category":"other"}]},{"lat":"37.47307501","long":"126.8530942","imageIndex":17,"items":[{"name":"고려불교백화점","tel":"02-2688-9706","addr":"경기도 광명시 광명동 337-71번지 동남마을빌라","indutype":"신변잡화 - 기념품점","category":"other"}]},{"lat":"37.48104365","long":"126.8490646","imageIndex":17,"items":[{"name":"고려상사","tel":"02-685-3758","addr":"경기도 광명시 광명동 159-75번지","indutype":"주방용구 - 주방용식기","category":"other"},{"name":"삼성스마트원","tel":"02-2060-0201","addr":"경기도 광명시 광명동 159-75번지","indutype":"전기제품 - 기타전기제품","category":"other"},{"name":"커스텀레드양복점","tel":"02-2611-3764","addr":"경기도 광명시 광명동 159-75번지 1층","indutype":"의류 - 맞춤복점","category":"other"}]},{"lat":"37.46799078","long":"126.851047","imageIndex":17,"items":[{"name":"고은사","tel":"02-2683-3778","addr":"경기도 광명시 광명동 738번지","indutype":"직물 - 침구·수예점","category":"other"}]},{"lat":"37.47934965","long":"126.8560437","imageIndex":17,"items":[{"name":"고향상회","tel":"02-2619-9896","addr":"경기도 광명시 광명동 150-50번지 1층","indutype":"의류 - 정장","category":"other"},{"name":"이수","tel":"02-3666-4527","addr":"경기도 광명시 광명동 150-50번지","indutype":"의류 - 내의판매","category":"other"},{"name":"중앙양품","tel":"02-2613-1897","addr":"경기도 광명시 광명동 150-50번지","indutype":"의류 - 정장","category":"other"}]},{"lat":"37.47981774","long":"126.8557036","imageIndex":17,"items":[{"name":"고현미한복집","tel":"02-687-7667","addr":"경기도 광명시 광명동 158-54번지","indutype":"의류 - 맞춤복점","category":"other"},{"name":"새올커텐","tel":"02-685-4568","addr":"경기도 광명시 광명동 158-54번지","indutype":"직물 - 카페트,커튼,천막,지물","category":"other"},{"name":"소라이불","tel":"02-2618-2537","addr":"경기도 광명시 광명동 158-54번지","indutype":"직물 - 침구·수예점","category":"other"},{"name":"태창한복","tel":"02-2688-0576","addr":"경기도 광명시 광명동 158-54번지","indutype":"의류 - 맞춤복점","category":"other"}]},{"lat":"37.47470997","long":"126.849315","imageIndex":17,"items":[{"name":"공간&디자인","tel":"","addr":"경기도 광명시 광명동 263-15번지 부원빌라 201호","indutype":"직물 - 카페트,커튼,천막,지물","category":"other"}]},{"lat":"37.48015032","long":"126.8550699","imageIndex":17,"items":[{"name":"공룡발","tel":"02-2684-9529","addr":"경기도 광명시 광명동 158-74번지","indutype":"신변잡화 - 신발","category":"other"}]},{"lat":"37.47356697","long":"126.8502896","imageIndex":17,"items":[{"name":"공명철물","tel":"02-2684-0892","addr":"경기도 광명시 광명동 347-7번지","indutype":"건축자재 - 목재·석재·철물","category":"other"},{"name":"금강화원","tel":"02-2681-3466","addr":"경기도 광명시 광명동 347-7번지","indutype":"문화.취미 - 화원","category":"other"},{"name":"백양메리야스","tel":"02-2689-0486","addr":"경기도 광명시 광명동 347-7번지","indutype":"의류 - 내의판매","category":"other"}]},{"lat":"37.4755123","long":"126.8567634","imageIndex":17,"items":[{"name":"공영철물전기","tel":"","addr":"경기도 광명시 광명동 42-2번지 석성연립 1동 106호","indutype":"전기제품 - 기타전기제품","category":"other"},{"name":"알뜰매장","tel":"02-2612-6173","addr":"경기도 광명시 광명동 42-2번지","indutype":"전기제품 - 기타전기제품","category":"other"},{"name":"하늘정수기","tel":"02-6052-7914","addr":"경기도 광명시 광명동 42-2번지 석성연립 113호","indutype":"주방용구 - 정수기","category":"other"},{"name":"현대냉동","tel":"02-682-1686","addr":"경기도 광명시 광명동 42-2번지 석성연립 101호","indutype":"전기제품 - 기타전기제품","category":"other"}]},{"lat":"37.47726872","long":"126.8563417","imageIndex":17,"items":[{"name":"공예카페","tel":"02-2683-4260","addr":"경기도 광명시 광명동 158-608번지 한신빌라 1층 2호","indutype":"문화.취미 - 민예·공예품","category":"other"}]},{"lat":"37.47341802","long":"126.8466271","imageIndex":17,"items":[{"name":"광명","tel":"02-2619-2277","addr":"경기도 광명시 광명동 785번지 광명해모로이연","indutype":"신변잡화 - 기타잡화","category":"other"},{"name":"메익 메이커스(MAKE MAKERS)","tel":"","addr":"경기도 광명시 광명동 785번지 광명해모로이연","indutype":"서적문구 - 기타서적문구","category":"other"}]},{"lat":"37.47898737","long":"126.8545408","imageIndex":17,"items":[{"name":"광명","tel":"02-2066-3164","addr":"경기도 광명시 광명동 158-513번지 3층","indutype":"회원제형태 - 레져업소","category":"other"},{"name":"법무사이복배사무소","tel":"02-685-9595","addr":"경기도 광명시 광명동 158-513번지","indutype":"용역 서비스 - 법률회계서비스(개인)","category":"other"},{"name":"세븐일레븐광명사거리점","tel":"031-1577-0711","addr":"경기도 광명시 광명동 158-513번지 광명빌딩 101호","indutype":"유통업 영리 - 편 의 점","category":"other"},{"name":"솔브","tel":"02-2684-8962","addr":"경기도 광명시 광명동 158-513번지","indutype":"의류 - 내의판매","category":"other"}]},{"lat":"37.47687768","long":"126.8534596","imageIndex":17,"items":[{"name":"광명 바이네르","tel":"","addr":"경기도 광명시 광명동 158-772번지 1층","indutype":"의류 - 정장","category":"other"}]},{"lat":"37.47967843","long":"126.8524026","imageIndex":17,"items":[{"name":"광명 행정사 사무소","tel":"02-2687-8588","addr":"경기도 광명시 광명동 158-850번지","indutype":"용역 서비스 - 법률회계서비스(개인)","category":"other"}]},{"lat":"37.48284585","long":"126.8563195","imageIndex":17,"items":[{"name":"광명2동우체국","tel":"031-619-0004","addr":"경기도 광명시 광명동 92-7번지","indutype":"용역 서비스 - 공공요금대행서비스/소","category":"other"}]},{"lat":"37.47904606","long":"126.8510924","imageIndex":17,"items":[{"name":"광명D.C생활용품","tel":"02-2686-1336","addr":"경기도 광명시 광명동 189-53번지","indutype":"신변잡화 - 기타잡화","category":"other"}]},{"lat":"37.48073691","long":"126.84876","imageIndex":17,"items":[{"name":"광명OA","tel":"02-2689-4438","addr":"경기도 광명시 광명동 163-2번지 대령오피스텔 401호","indutype":"가구 - 기타가구","category":"other"},{"name":"대신소방기술엔지니어링","tel":"02-2617-1190","addr":"경기도 광명시 광명동 163-2번지 대령오피스텔 102호","indutype":"기타 - 기타 전문점","category":"other"}]},{"lat":"37.48023659","long":"126.8520397","imageIndex":17,"items":[{"name":"광명건재철물","tel":"02-2612-2589","addr":"경기도 광명시 광명동 158-209번지 1층","indutype":"건축자재 - 목재·석재·철물","category":"other"},{"name":"승일인쇄","tel":"02-2682-9534","addr":"경기도 광명시 광명동 158-209번지 1층","indutype":"서적문구 - 출판 및 인쇄물","category":"other"}]},{"lat":"37.45726905","long":"126.8442985","imageIndex":17,"items":[{"name":"광명골재","tel":"02-2682-9491","addr":"경기도 광명시 광명동 647-3번지","indutype":"건축자재 - 기타건축자재","category":"other"}]},{"lat":"37.47642977","long":"126.8484636","imageIndex":17,"items":[{"name":"광명공조기","tel":"02-2614-2111","addr":"경기도 광명시 광명동 270-14번지 102호","indutype":"전기제품 - 냉열기기","category":"other"}]},{"lat":"37.47356733","long":"126.8505722","imageIndex":17,"items":[{"name":"광명그릇","tel":"02-2684-2599","addr":"경기도 광명시 광명동 346-51번지","indutype":"주방용구 - 주방용식기","category":"other"}]},{"lat":"37.47948368","long":"126.8551503","imageIndex":17,"items":[{"name":"광명꽃수족관","tel":"02-2625-6005","addr":"경기도 광명시 광명동 150-17번지","indutype":"문화.취미 - 화원","category":"other"},{"name":"광명비와이씨전문점","tel":"02-2612-1449","addr":"경기도 광명시 광명동 150-17번지","indutype":"의류 - 내의판매","category":"other"},{"name":"광은수족관","tel":"02-2060-7690","addr":"경기도 광명시 광명동 150-17번지 1층 2호","indutype":"문화.취미 - 수족관","category":"other"},{"name":"도그버디(광명점)","tel":"02-2612-0848","addr":"경기도 광명시 광명동 150-17번지 1층 130호","indutype":"문화.취미 - 애완동물","category":"other"},{"name":"블루(BLUE)","tel":"02-2682-6300","addr":"경기도 광명시 광명동 150-17번지","indutype":"의류 - 정장","category":"other"},{"name":"선이옷집","tel":"02-2687-2655","addr":"경기도 광명시 광명동 150-17번지 B점포 1층 127호","indutype":"의류 - 정장","category":"other"},{"name":"아이스케치스튜디오","tel":"02-2684-9879","addr":"경기도 광명시 광명동 150-17번지 2층","indutype":"광학제품 - 사진관","category":"other"},{"name":"이레패션","tel":"02-616-3628","addr":"경기도 광명시 광명동 150-17번지 1층 21호","indutype":"의류 - 정장","category":"other"},{"name":"좋은친구","tel":"02-2617-5934","addr":"경기도 광명시 광명동 150-17번지","indutype":"의류 - 정장","category":"other"},{"name":"쥬씨 광명사거리점","tel":"02-3666-4445","addr":"경기도 광명시 광명동 150-17번지 1층 101호","indutype":"신변잡화 - 기타잡화","category":"other"}]},{"lat":"37.48490339","long":"126.8589838","imageIndex":17,"items":[{"name":"광명누수탐지","tel":"02-2683-0969","addr":"경기도 광명시 광명동 40-23번지 1층","indutype":"용역 서비스 - 기타용역서비스","category":"other"}]},{"lat":"37.47392855","long":"126.8512045","imageIndex":17,"items":[{"name":"광명당","tel":"02-684-3555","addr":"경기도 광명시 광명동 290-52번지 새마을시장 B동 101호","indutype":"신변잡화 - 시계","category":"other"},{"name":"시원통신","tel":"02-2682-3700","addr":"경기도 광명시 광명동 290-52번지 내제1층 2호","indutype":"사무통신 - 통신기기","category":"other"}]},{"lat":"37.47191509","long":"126.8479416","imageIndex":17,"items":[{"name":"광명대광커텐","tel":"02-2688-8724","addr":"경기도 광명시 광명동 785번지 광명해모로이연 106동 2501호","indutype":"직물 - 카페트,커튼,천막,지물","category":"other"}]},{"lat":"37.48676343","long":"126.8622932","imageIndex":17,"items":[{"name":"광명란제리숙녀복","tel":"02-2612-2860","addr":"경기도 광명시 광명동 11-47번지","indutype":"의류 - 정장","category":"other"}]},{"lat":"37.469734","long":"126.8544347","imageIndex":17,"items":[{"name":"광명로타리클럽","tel":"02-2611-3690","addr":"경기도 광명시 광명동 720-7번지 에덴 상가 3층 302호","indutype":"기타 - 비영리/대상","category":"other"},{"name":"광명장미로타리클럽","tel":"02-2611-3690","addr":"경기도 광명시 광명동 720-7번지 에덴 상가 3층 302호","indutype":"기타 - 비영리/대상","category":"other"}]},{"lat":"37.48142955","long":"126.8478993","imageIndex":17,"items":[{"name":"광명목재","tel":"02-2612-0263","addr":"경기도 광명시 광명동 159-100","indutype":"건축자재 - 목재·석재·철물","category":"other"}]},{"lat":"37.47554567","long":"126.8546267","imageIndex":17,"items":[{"name":"광명문구","tel":"02-2616-3598","addr":"경기도 광명시 광명동 49-76번지","indutype":"서적문구 - 문구용품","category":"other"}]},{"lat":"37.47173884","long":"126.8509829","imageIndex":17,"items":[{"name":"광명바이크","tel":"070-7699-5041","addr":"경기도 광명시 광명동 374-178번지","indutype":"레져용품 - 스포츠·레져용품","category":"other"}]},{"lat":"37.48059681","long":"126.8519033","imageIndex":17,"items":[{"name":"광명보일러상사","tel":"02-2681-4545","addr":"경기도 광명시 광명동 158-217번지","indutype":"건축자재 - 보일러·펌프·샷시","category":"other"}]},{"lat":"37.46860002","long":"126.8484006","imageIndex":17,"items":[{"name":"광명상사","tel":"02-2619-7204","addr":"경기도 광명시 광명동 753.1층1호","indutype":"건축자재 - 페인트","category":"other"},{"name":"이마트24 광명교육청점","tel":"031-000-0000","addr":"경기도 광명시 광명동 753번지","indutype":"유통업 영리 - 편 의 점","category":"other"},{"name":"한일전기조명","tel":"02-2689-4700","addr":"경기도 광명시 광명동 753번지","indutype":"전기제품 - 기타전기제품","category":"other"}]},{"lat":"37.48040113","long":"126.8539049","imageIndex":17,"items":[{"name":"광명생태연구회","tel":"02-2613-6533","addr":"경기도 광명시 광명동 158-119번지 타운빌라 101호","indutype":"광학제품 - 사진관","category":"other"}]},{"lat":"37.47954364","long":"126.8526855","imageIndex":17,"items":[{"name":"광명소비조합","tel":"02-2618-5627","addr":"경기도 광명시 광명동 158-848번지","indutype":"주방용구 - 주방용구","category":"other"},{"name":"바크바크(BARK BARK)","tel":"070-4642-7579","addr":"경기도 광명시 광명동 158-848번지 103호","indutype":"문화.취미 - 애완동물","category":"other"},{"name":"희망인테리어","tel":"02-2682-0361","addr":"경기도 광명시 광명동 158-848번지 1층","indutype":"직물 - 카페트,커튼,천막,지물","category":"other"}]},{"lat":"37.46193588","long":"126.850901","imageIndex":17,"items":[{"name":"광명시공","tel":"02-2686-3782","addr":"경기도 광명시 광명동 572-11번지","indutype":"회원제형태 - 기타4","category":"other"}]},{"lat":"37.47287404","long":"126.8509354","imageIndex":17,"items":[{"name":"광명시학원연합회","tel":"02-2684-0448","addr":"경기도 광명시 광명동 346-46번지 현대타운 604호","indutype":"기타 - 비영리/대상","category":"other"},{"name":"광명천사요양원","tel":"02-2616-3581","addr":"경기도 광명시 광명동 346-46번지 501,503,504호","indutype":"기타의료기관 - 기타의료기관 및 기타","category":"other"},{"name":"바른옷장","tel":"031-8013-7014","addr":"경기도 광명시 광명동 346-46번지 광명현대타운 205호","indutype":"의류 - 정장","category":"other"},{"name":"빈스","tel":"070-4790-0193","addr":"경기도 광명시 광명동 346-46번지 광명현대타운 101호","indutype":"의류 - 정장","category":"other"},{"name":"아이펠마르 주식회사","tel":"070-8778-9288","addr":"경기도 광명시 광명동 346-46번지 광명현대타운 204호","indutype":"회원제형태 - 기타4","category":"other"}]},{"lat":"37.48001555","long":"126.8553754","imageIndex":17,"items":[{"name":"광명쌍방울","tel":"02-2612-4035","addr":"경기도 광명시 광명동 158-65번지","indutype":"의류 - 내의판매","category":"other"},{"name":"선진양품","tel":"02-2614-9945","addr":"경기도 광명시 광명동 158-65번지","indutype":"의류 - 정장","category":"other"},{"name":"영시스템","tel":"02-2613-4034","addr":"경기도 광명시 광명동 158-65번지","indutype":"의류 - 정장","category":"other"}]},{"lat":"37.47145803","long":"126.8498191","imageIndex":17,"items":[{"name":"광명액자","tel":"02-2619-1320","addr":"경기도 광명시 광명동 374-28번지","indutype":"문화.취미 - 화방·표구점","category":"other"}]},{"lat":"37.48084716","long":"126.8503991","imageIndex":17,"items":[{"name":"광명어르신보호센터","tel":"02-2067-4004","addr":"경기도 광명시 광명동 158-970번지","indutype":"기타의료기관 - 기타의료기관 및 기타","category":"other"},{"name":"광명종합사회복지관","tel":"02-2687-2921","addr":"경기도 광명시 광명동 158-970번지","indutype":"용역 서비스 - 기타용역서비스","category":"other"}]},{"lat":"37.47420581","long":"126.8496213","imageIndex":17,"items":[{"name":"광명에어컨","tel":"031-000-0000","addr":"경기도 광명시 광명동 263-23번지 303호","indutype":"용역 서비스 - 기타용역서비스","category":"other"}]},{"lat":"37.47895503","long":"126.8575142","imageIndex":17,"items":[{"name":"광명역공인중개사사무소","tel":"02-2683-2900","addr":"경기도 광명시 광명동 156-6번지","indutype":"용역 서비스 - 부동산 중개·임대","category":"other"}]},{"lat":"37.47410214","long":"126.8530921","imageIndex":17,"items":[{"name":"광명영인테리어","tel":"02-2618-0207","addr":"경기도 광명시 광명동 299-7번지 1층","indutype":"건축자재 - 목재·석재·철물","category":"other"},{"name":"디엘컴(DLcomm)","tel":"070-8631-2571","addr":"경기도 광명시 광명동 299-7번지 1층","indutype":"용역 서비스 - 종합용역","category":"other"}]},{"lat":"37.47374051","long":"126.8521206","imageIndex":17,"items":[{"name":"광명웨딩프라자","tel":"031-688-2020","addr":"경기도 광명시 광명동 344번지","indutype":"용역 서비스 - 혼례서비스","category":"other"}]},{"lat":"37.47248717","long":"126.851377","imageIndex":17,"items":[{"name":"광명자전거총판","tel":"02-2685-1812","addr":"경기도 광명시 광명동 339-15번지","indutype":"레져용품 - 스포츠·레져용품","category":"other"}]},{"lat":"37.47629675","long":"126.8501031","imageIndex":17,"items":[{"name":"광명전기철물설비","tel":"02-2618-2583","addr":"경기도 광명시 광명동 276-30번지 한신타운빌라 103호 광명전기철물","indutype":"건축자재 - 목재·석재·철물","category":"other"}]},{"lat":"37.4841507","long":"126.8550394","imageIndex":17,"items":[{"name":"광명제경","tel":"02-2634-6128","addr":"경기도 광명시 광명동 53-12번지","indutype":"건축자재 - 유리","category":"other"}]},{"lat":"37.47348408","long":"126.8488993","imageIndex":17,"items":[{"name":"광명제일데이케어센터","tel":"02-2682-7974","addr":"경기도 광명시 광명동 352-14번지 로얄프라자 5층","indutype":"기타의료기관 - 기타의료기관 및 기타","category":"other"},{"name":"광명한마음요양원","tel":"02-2060-7072","addr":"경기도 광명시 광명동 352-14번지 로얄프라자 8층","indutype":"기타의료기관 - 기타의료기관 및 기타","category":"other"},{"name":"씨유광명한진점","tel":"02-2688-4348","addr":"경기도 광명시 광명동 352-14번지 로얄프라자 102호","indutype":"유통업 영리 - 편 의 점","category":"other"},{"name":"안흥위생","tel":"02-2684-5555","addr":"경기도 광명시 광명동 352-14번지 로얄프라자 604호","indutype":"용역 서비스 - 종합용역","category":"other"},{"name":"한마음요양원","tel":"02-2060-7072","addr":"경기도 광명시 광명동 352-14번지 로얄프라자 501동 502호","indutype":"기타의료기관 - 기타의료기관 및 기타","category":"other"},{"name":"한마음요양원2","tel":"02-2060-7072","addr":"경기도 광명시 광명동 352-14번지 로얄프라자 503동 504호","indutype":"기타의료기관 - 기타의료기관 및 기타","category":"other"}]},{"lat":"37.47965449","long":"126.8548447","imageIndex":17,"items":[{"name":"광명제일산후조리원","tel":"02-2066-3548","addr":"경기도 광명시 광명동 158-81번지 현대아이타워9층 1","indutype":"기타의료기관 - 산후조리원","category":"other"},{"name":"속옷아울렛","tel":"02-2688-7849","addr":"경기도 광명시 광명동 158-81번지 현대아이타워 103호","indutype":"의류 - 내의판매","category":"other"}]},{"lat":"37.47726535","long":"126.8536511","imageIndex":17,"items":[{"name":"광명제일산후조리원신관","tel":"02-2616-2686","addr":"경기도 광명시 광명동 158-776번지","indutype":"기타의료기관 - 산후조리원","category":"other"}]},{"lat":"37.47518219","long":"126.8521855","imageIndex":17,"items":[{"name":"광명종합건재철물","tel":"02-2617-6807","addr":"경기도 광명시 광명동 293-32번지","indutype":"기타 - 기계공구","category":"other"},{"name":"영진상사","tel":"02-2686-0433","addr":"경기도 광명시 광명동 293-32번지","indutype":"의류 - 내의판매","category":"other"}]},{"lat":"37.45784691","long":"126.8452128","imageIndex":17,"items":[{"name":"광명종합공조","tel":"02-2615-0054","addr":"경기도 광명시 광명동 643번지 110호","indutype":"용역 서비스 - 기타용역서비스","category":"other"},{"name":"동양이끌림창호","tel":"02-2689-9852","addr":"경기도 광명시 광명동 643번지 101호","indutype":"건축자재 - 기타건축자재","category":"other"},{"name":"목향원","tel":"02-2613-3336","addr":"경기도 광명시 광명동 643번지","indutype":"문화.취미 - 화원","category":"other"},{"name":"청풍에어택","tel":"02-2615-5254","addr":"경기도 광명시 광명동 643번지 주아랜드 109호","indutype":"건축자재 - 기타건축자재","category":"other"}]},{"lat":"37.47893581","long":"126.856542","imageIndex":17,"items":[{"name":"광명주짓수리스펙트","tel":"02-2687-7977","addr":"경기도 광명시 광명동 150-11번지 4층","indutype":"회원제형태 - 레져업소","category":"other"},{"name":"비젼","tel":"02-2614-0882","addr":"경기도 광명시 광명동 150-11번지 1층","indutype":"의류 - 기타의류","category":"other"},{"name":"유지아이지","tel":"02-2060-7789","addr":"경기도 광명시 광명동 150-11번지 1층 두번째 점포","indutype":"의류 - 정장","category":"other"}]},{"lat":"37.47773329","long":"126.8604899","imageIndex":17,"items":[{"name":"광명중고","tel":"02-2618-6581","addr":"경기도 광명시 광명동 33-46번지","indutype":"전기제품 - 가전제품","category":"other"}]},{"lat":"37.47768222","long":"126.8555722","imageIndex":17,"items":[{"name":"광명중고폰 매입판매 소녀폰","tel":"02-2066-0418","addr":"경기도 광명시 광명동 158-565번지 1층","indutype":"사무통신 - 통신기기","category":"other"}]},{"lat":"37.47593121","long":"126.846181","imageIndex":17,"items":[{"name":"광명중앙라이온스클럽","tel":"02-2613-5563","addr":"경기도 광명시 광명동 233-3번지 현월프라자 302호","indutype":"기타 - 비영리/대상","category":"other"}]},{"lat":"37.47868459","long":"126.8574017","imageIndex":17,"items":[{"name":"광명지업사","tel":"02-2682-7709","addr":"경기도 광명시 광명동 150-2번지","indutype":"직물 - 카페트,커튼,천막,지물","category":"other"},{"name":"레노마키즈","tel":"02-2611-3343","addr":"경기도 광명시 광명동 150-2번지 1층","indutype":"의류 - 스포츠의류","category":"other"},{"name":"보석장","tel":"02-2614-9850","addr":"경기도 광명시 광명동 150-2번지 1층","indutype":"신변잡화 - 귀금속","category":"other"},{"name":"에이치텔레콤","tel":"","addr":"경기도 광명시 광명동 150-2번지 1층 코너 점포1간","indutype":"사무통신 - 통신기기","category":"other"}]},{"lat":"37.48042965","long":"126.8550919","imageIndex":17,"items":[{"name":"광명진미사","tel":"02-2684-7761","addr":"경기도 광명시 광명동 158-70번지","indutype":"건축자재 - 목재·석재·철물","category":"other"}]},{"lat":"37.48454283","long":"126.8588489","imageIndex":17,"items":[{"name":"광명철물","tel":"02-2682-5672","addr":"경기도 광명시 광명동 40-9번지 상가주택 101호","indutype":"건축자재 - 목재·석재·철물","category":"other"}]},{"lat":"37.46946304","long":"126.853904","imageIndex":17,"items":[{"name":"광명청년회의소(JC)","tel":"02-2617-6064","addr":"경기도 광명시 광명동 720-11번지 한성빌딩 3층","indutype":"기타 - 비영리/대상","category":"other"},{"name":"중앙서적","tel":"02-2613-5576","addr":"경기도 광명시 광명동 720-11번지","indutype":"서적문구 - 일반서적","category":"other"}]},{"lat":"37.48862092","long":"126.8635109","imageIndex":17,"items":[{"name":"광명청담피부관리스킨케어","tel":"070-7502-4300","addr":"경기도 광명시 광명동 9-68번지","indutype":"회원제형태 - 기타1","category":"other"}]},{"lat":"37.47165661","long":"126.8501013","imageIndex":17,"items":[{"name":"광명컴퓨터","tel":"02-2684-0258","addr":"경기도 광명시 광명동 374-180번지","indutype":"사무통신 - 컴퓨터","category":"other"},{"name":"우성인쇄산업","tel":"02-2612-3511","addr":"경기도 광명시 광명동 374-180번지","indutype":"서적문구 - 출판 및 인쇄물","category":"other"}]},{"lat":"37.48817891","long":"126.8630707","imageIndex":17,"items":[{"name":"광명컴퓨터","tel":"02-2618-1114","addr":"경기도 광명시 광명동 9-65번지 1층","indutype":"사무통신 - 컴퓨터","category":"other"},{"name":"보령지물포","tel":"02-2688-9953","addr":"경기도 광명시 광명동 9-65번지","indutype":"직물 - 카페트,커튼,천막,지물","category":"other"},{"name":"지에이치리폼","tel":"02-111-1111","addr":"경기도 광명시 광명동 9-65번지 1층","indutype":"수리서비스 - 세탁소","category":"other"}]},{"lat":"37.47859889","long":"126.8537049","imageIndex":17,"items":[{"name":"광명크리스챤서점","tel":"02-2619-5727","addr":"경기도 광명시 광명동 158-795번지","indutype":"서적문구 - 전문서적","category":"other"}]},{"lat":"37.47871339","long":"126.8588487","imageIndex":17,"items":[{"name":"광명타일","tel":"02-2683-6005","addr":"경기도 광명시 광명동 126-23번지 금반석시티빌라 102호","indutype":"건축자재 - 건축용 요업제품","category":"other"},{"name":"피아노조율","tel":"02-2687-2356","addr":"경기도 광명시 광명동 126-23번지 금반석빌라13차 201호","indutype":"레져용품 - 피아노대리점","category":"other"}]},{"lat":"37.47748941","long":"126.8599816","imageIndex":17,"items":[{"name":"광명피아OA퍼니처","tel":"02-685-3225","addr":"경기도 광명시 광명동 158-237번지","indutype":"가구 - 일반가구","category":"other"},{"name":"도덕전자","tel":"02-685-3030","addr":"경기도 광명시 광명동 158-237번지","indutype":"전기제품 - 가전제품","category":"other"},{"name":"순광종합건설, 참사랑","tel":"02-2689-7602","addr":"경기도 광명시 광명동 158-237번지","indutype":"회원제형태 - 기타4","category":"other"}]},{"lat":"37.46127048","long":"126.8450474","imageIndex":17,"items":[{"name":"광명화원","tel":"02-2681-1155","addr":"경기도 광명시 광명동 539-11번지 1층","indutype":"문화.취미 - 화원","category":"other"}]},{"lat":"37.47373367","long":"126.8468526","imageIndex":17,"items":[{"name":"광명희망라이온스클럽","tel":"02-000-0000","addr":"경기도 광명시 광명동 244-18번지","indutype":"기타 - 비영리/비대상","category":"other"}]},{"lat":"37.47243236","long":"126.8507893","imageIndex":17,"items":[{"name":"광명힐링","tel":"02-2686-8875","addr":"경기도 광명시 광명동 346-36번지 백석빌딩 3층","indutype":"회원제형태 - 기타4","category":"other"}]},{"lat":"37.48898178","long":"126.8639059","imageIndex":17,"items":[{"name":"광복철물","tel":"02-2613-1314","addr":"경기도 광명시 광명동 6-86번지","indutype":"기타 - 기계공구","category":"other"}]},{"lat":"37.48881785","long":"126.862425","imageIndex":17,"items":[{"name":"광선전기","tel":"02-2688-5407","addr":"경기도 광명시 광명동 9-36번지 청암아트빌","indutype":"전기제품 - 기타전기제품","category":"other"}]},{"lat":"37.48384574","long":"126.856148","imageIndex":17,"items":[{"name":"광성도기타일","tel":"02-2614-6175","addr":"경기도 광명시 광명동 56-4번지","indutype":"건축자재 - 건축용 요업제품","category":"other"}]},{"lat":"37.46037977","long":"126.84601","imageIndex":17,"items":[{"name":"광일화원","tel":"031-2060-3533","addr":"경기도 광명시 광명동 619-3번지","indutype":"문화.취미 - 화원","category":"other"},{"name":"심원화원","tel":"02-2682-5080","addr":"경기도 광명시 광명동 619-3번지","indutype":"문화.취미 - 화원","category":"other"}]},{"lat":"37.48107158","long":"126.856877","imageIndex":17,"items":[{"name":"광정보통신","tel":"02-2616-4549","addr":"경기도 광명시 광명동 138-1번지","indutype":"사무통신 - 통신기기","category":"other"}]},{"lat":"37.46988013","long":"126.8489293","imageIndex":17,"items":[{"name":"광해유리","tel":"02-2688-6667","addr":"경기도 광명시 광명동 752번지","indutype":"건축자재 - 유리","category":"other"}]},{"lat":"37.46760151","long":"126.8496235","imageIndex":17,"items":[{"name":"구두고치는마을","tel":"02-2615-9294","addr":"경기도 광명시 광명동 747-7번지 청구아트빌라 1층 4호","indutype":"수리서비스 - 신변잡화수리","category":"other"},{"name":"승주장식","tel":"02-2611-5710","addr":"경기도 광명시 광명동 747-7번지 청구아트빌라 1층 2호","indutype":"직물 - 카페트,커튼,천막,지물","category":"other"}]},{"lat":"37.47987205","long":"126.855907","imageIndex":17,"items":[{"name":"구정주단","tel":"02-2683-8946","addr":"경기도 광명시 광명동 158-50번지","indutype":"의류 - 맞춤복점","category":"other"},{"name":"은주네한복","tel":"02-2613-6509","addr":"경기도 광명시 광명동 158-50번지","indutype":"의류 - 정장","category":"other"},{"name":"이시연한복","tel":"02-2060-1880","addr":"경기도 광명시 광명동 158-50번지","indutype":"의류 - 맞춤복점","category":"other"}]},{"lat":"37.48662837","long":"126.8623726","imageIndex":17,"items":[{"name":"국민서관","tel":"02-2686-8595","addr":"경기도 광명시 광명동 11-48번지 1층","indutype":"서적문구 - 기타서적문구","category":"other"}]},{"lat":"37.46958559","long":"126.851089","imageIndex":17,"items":[{"name":"국제 에띠임","tel":"070-6147-2177","addr":"경기도 광명시 광명동 778번지 영화아이닉스아파트","indutype":"의류 - 내의판매","category":"other"}]},{"lat":"37.47593043","long":"126.8525119","imageIndex":17,"items":[{"name":"국제광고","tel":"02-2688-4400","addr":"경기도 광명시 광명동 294-12번지","indutype":"건축자재 - 인테리어전문","category":"other"},{"name":"프리모","tel":"02-2616-1929","addr":"경기도 광명시 광명동 294-12번지","indutype":"수리서비스 - 신변잡화수리","category":"other"}]},{"lat":"37.48006899","long":"126.8548778","imageIndex":17,"items":[{"name":"국제복장","tel":"02-2683-2474","addr":"경기도 광명시 광명동 158-1406","indutype":"의류 - 정장","category":"other"}]},{"lat":"37.46212828","long":"126.8464359","imageIndex":17,"items":[{"name":"그레이스꽃집","tel":"02-2686-6655","addr":"경기도 광명시 광명동 548-1광명꽃단지26","indutype":"문화.취미 - 화원","category":"other"}]},{"lat":"37.47343272","long":"126.8509907","imageIndex":17,"items":[{"name":"그린코아","tel":"02-685-0949","addr":"경기도 광명시 광명동 346-9번지","indutype":"신변잡화 - 신발","category":"other"}]},{"lat":"37.4728757","long":"126.8522354","imageIndex":17,"items":[{"name":"금강꽃화원","tel":"02-2616-4949","addr":"경기도 광명시 광명동 337-40번지 영신연립 106호","indutype":"문화.취미 - 화원","category":"other"},{"name":"챈스","tel":"02-2611-7757","addr":"경기도 광명시 광명동 337-40번지 B동 102호","indutype":"의류 - 정장","category":"other"},{"name":"티엘에스케이(TLSK)","tel":"02-836-0689","addr":"경기도 광명시 광명동 337-40번지 영신연립 B동 201호","indutype":"건축자재 - 목재·석재·철물","category":"other"}]},{"lat":"37.48256637","long":"126.8561844","imageIndex":17,"items":[{"name":"금보당","tel":"02-2613-5679","addr":"경기도 광명시 광명동 102-1번지 더프라임타워 1층 103호","indutype":"신변잡화 - 귀금속","category":"other"}]},{"lat":"37.48120607","long":"126.8563453","imageIndex":17,"items":[{"name":"금성지물","tel":"02-2687-7090","addr":"경기도 광명시 광명동 139-15번지 상가주택","indutype":"직물 - 카페트,커튼,천막,지물","category":"other"},{"name":"대박DREAM","tel":"02-2687-7876","addr":"경기도 광명시 광명동 139-15번지 1층 2호","indutype":"신변잡화 - 기타잡화","category":"other"}]},{"lat":"37.47926157","long":"126.8576832","imageIndex":17,"items":[{"name":"기념타올","tel":"02-2613-8913","addr":"경기도 광명시 광명동 156-14번지","indutype":"유통업 영리 - 기타유통업","category":"other"}]},{"lat":"37.48034978","long":"126.8560644","imageIndex":17,"items":[{"name":"길미","tel":"02-2681-6141","addr":"경기도 광명시 광명동 158-1274번지","indutype":"의류 - 정장","category":"other"},{"name":"호남공예","tel":"02-681-8666","addr":"경기도 광명시 광명동 158-1274번지","indutype":"문화.취미 - 민예·공예품","category":"other"}]},{"lat":"37.47901138","long":"126.8521552","imageIndex":17,"items":[{"name":"길조종합인테리어","tel":"02-2683-4691","addr":"경기도 광명시 광명동 158-891번지 1층","indutype":"직물 - 카페트,커튼,천막,지물","category":"other"}]},{"lat":"37.47579144","long":"126.8566272","imageIndex":17,"items":[{"name":"길투데코","tel":"031-111-1111","addr":"경기도 광명시 광명동 43-71번지 101호","indutype":"건축자재 - 인테리어전문","category":"other"},{"name":"명인수입잡화","tel":"02-2615-4351","addr":"경기도 광명시 광명동 43-71번지","indutype":"신변잡화 - 기타잡화","category":"other"}]},{"lat":"37.4784064","long":"126.858318","imageIndex":17,"items":[{"name":"김상희우리옷","tel":"02-2683-7517","addr":"경기도 광명시 광명동 149-3번지","indutype":"의류 - 맞춤복점","category":"other"},{"name":"케이투(K2)광명사거리점","tel":"070-4616-6001","addr":"경기도 광명시 광명동 149-3번지","indutype":"의류 - 스포츠의류","category":"other"}]},{"lat":"37.48029597","long":"126.856268","imageIndex":17,"items":[{"name":"김주희자수고전방","tel":"02-2612-2697","addr":"경기도 광명시 광명동 158-1006번지","indutype":"직물 - 침구·수예점","category":"other"},{"name":"명동수입상품","tel":"02-2616-3636","addr":"경기도 광명시 광명동 158-1006번지","indutype":"신변잡화 - 기타잡화","category":"other"}]},{"lat":"37.47504675","long":"126.8519597","imageIndex":17,"items":[{"name":"까메오","tel":"070-8265-8253","addr":"경기도 광명시 광명동 293-30번지 1층","indutype":"의류 - 정장","category":"other"}]},{"lat":"37.47815277","long":"126.8572105","imageIndex":17,"items":[{"name":"깜상","tel":"02-3666-3334","addr":"경기도 광명시 광명동 158-485번지","indutype":"의류 - 정장","category":"other"},{"name":"보성정보통신","tel":"02-2615-3670","addr":"경기도 광명시 광명동 158-485번지","indutype":"사무통신 - 통신기기","category":"other"}]},{"lat":"37.47590779","long":"126.8489282","imageIndex":17,"items":[{"name":"꼬맹이옷가게","tel":"070-8756-5543","addr":"경기도 광명시 광명동 273-51번지","indutype":"의류 - 정장","category":"other"}]},{"lat":"37.47637811","long":"126.8574627","imageIndex":17,"items":[{"name":"꼬미방","tel":"070-7420-1981","addr":"경기도 광명시 광명동 43-34번지 백마빌딩 1층","indutype":"의류 - 아동의류","category":"other"},{"name":"씨앤에스정보기술","tel":"02-3666-2935","addr":"경기도 광명시 광명동 43-34번지 백마빌딩 1층 102호","indutype":"사무통신 - 컴퓨터","category":"other"}]},{"lat":"37.46493118","long":"126.8470404","imageIndex":17,"items":[{"name":"꽃나라","tel":"02-2688-4001","addr":"경기도 광명시 광명동 482-1번지","indutype":"문화.취미 - 화원","category":"other"},{"name":"봄날화원","tel":"02-2619-3888","addr":"경기도 광명시 광명동 482-1번지 1호","indutype":"문화.취미 - 화원","category":"other"},{"name":"진도꽃화원","tel":"02-2619-5401","addr":"경기도 광명시 광명동 482-1번지 2호","indutype":"문화.취미 - 화원","category":"other"}]},{"lat":"37.48087333","long":"126.849732","imageIndex":17,"items":[{"name":"꽃담","tel":"02-838-4727","addr":"경기도 광명시 광명동 158-971번지","indutype":"문화.취미 - 화원","category":"other"},{"name":"명진에어컨","tel":"02-1600-2432","addr":"경기도 광명시 광명동 158-971번지 2층","indutype":"용역 서비스 - 기타용역서비스","category":"other"},{"name":"호림과학","tel":"02-2619-0564","addr":"경기도 광명시 광명동 158-971번지 2층","indutype":"서적문구 - 기타서적문구","category":"other"}]},{"lat":"37.45843118","long":"126.8441831","imageIndex":17,"items":[{"name":"꽃밭에서돌이랑","tel":"02-2688-9194","addr":"경기도 광명시 광명동 650-3번지","indutype":"문화.취미 - 화원","category":"other"}]},{"lat":"37.47234518","long":"126.853073","imageIndex":17,"items":[{"name":"꽃하나","tel":"02-3666-2100","addr":"경기도 광명시 광명동 333-17번지","indutype":"문화.취미 - 화원","category":"other"}]},{"lat":"37.46073877","long":"126.8449581","imageIndex":17,"items":[{"name":"꽃향기","tel":"02-2060-5088","addr":"경기도 광명시 광명동 621-2번지","indutype":"문화.취미 - 화원","category":"other"},{"name":"뜰안(애)꽃누리","tel":"02-2060-1829","addr":"경기도 광명시 광명동 621-2번지 [광명동]","indutype":"문화.취미 - 화원","category":"other"}]},{"lat":"37.4828224","long":"126.8592366","imageIndex":17,"items":[{"name":"꿈꾸는 공방 늘","tel":"02-2688-8360","addr":"경기도 광명시 광명동 63-24번지","indutype":"문화.취미 - 민예·공예품","category":"other"}]},{"lat":"37.47556982","long":"126.852343","imageIndex":17,"items":[{"name":"꿈꾸는 별 책방","tel":"","addr":"경기도 광명시 광명동 294-16번지 1층","indutype":"서적문구 - 일반서적","category":"other"}]},{"lat":"37.47885131","long":"126.8538175","imageIndex":17,"items":[{"name":"나나텔레콤","tel":"02-2613-1764","addr":"경기도 광명시 광명동 158-793번지 1층 일부호","indutype":"사무통신 - 통신기기","category":"other"}]},{"lat":"37.47751577","long":"126.8594276","imageIndex":17,"items":[{"name":"나눔통신","tel":"070-8621-2525","addr":"경기도 광명시 광명동 158-1162번지 2","indutype":"사무통신 - 통신기기","category":"other"}]},{"lat":"37.46909927","long":"126.8512595","imageIndex":17,"items":[{"name":"나담. 꽃","tel":"","addr":"경기도 광명시 광명동 783번지 광명휴먼림아파트","indutype":"문화.취미 - 화원","category":"other"}]},{"lat":"37.47390066","long":"126.8505376","imageIndex":17,"items":[{"name":"나드리","tel":"02-2683-8605","addr":"경기도 광명시 광명동 290-85번지 1층","indutype":"의류 - 정장","category":"other"}]},{"lat":"37.47357217","long":"126.8543706","imageIndex":17,"items":[{"name":"나라광고","tel":"02-2611-0328","addr":"경기도 광명시 광명동 301-34번지","indutype":"건축자재 - 인테리어전문","category":"other"}]},{"lat":"37.4782091","long":"126.8590645","imageIndex":17,"items":[{"name":"나르지오 광명점","tel":"02-2060-5600","addr":"경기도 광명시 광명동 37-1번지 1층","indutype":"신변잡화 - 신발","category":"other"},{"name":"빅뱅광명점","tel":"02-2611-0160","addr":"경기도 광명시 광명동 37-1번지 202호","indutype":"서적문구 - 일반서적","category":"other"},{"name":"프라임통신","tel":"02-2681-3101","addr":"경기도 광명시 광명동 37-1번지 7호","indutype":"사무통신 - 통신기기","category":"other"}]},{"lat":"37.47807225","long":"126.8505178","imageIndex":17,"items":[{"name":"나스텍","tel":"02-2611-7949","addr":"경기도 광명시 광명동 209-11번지","indutype":"사무통신 - 컴퓨터","category":"other"}]},{"lat":"37.48087977","long":"126.8547858","imageIndex":17,"items":[{"name":"남도전기","tel":"02-2618-1458","addr":"경기도 광명시 광명동 142-7번지 수성빌딩 1층","indutype":"건축자재 - 조명기구","category":"other"}]},{"lat":"37.4749033","long":"126.8525139","imageIndex":17,"items":[{"name":"남부지물종합상사","tel":"02-2612-1064","addr":"경기도 광명시 광명동 290-19번지","indutype":"직물 - 카페트,커튼,천막,지물","category":"other"}]},{"lat":"37.47032101","long":"126.8555188","imageIndex":17,"items":[{"name":"냥이댕이","tel":"","addr":"경기도 광명시 광명동 719-7번지 제일빌라지 B02호","indutype":"문화.취미 - 애완동물","category":"other"}]},{"lat":"37.48901631","long":"126.8626282","imageIndex":17,"items":[{"name":"네오시스템","tel":"02-2613-6150","addr":"경기도 광명시 광명동 9-21번지 수정아트빌라","indutype":"수리서비스 - 사무·통신기기수리","category":"other"}]},{"lat":"37.47978971","long":"126.854901","imageIndex":17,"items":[{"name":"네잎크로바","tel":"02-2613-1922","addr":"경기도 광명시 광명동 158-80번지","indutype":"신변잡화 - 가방","category":"other"},{"name":"민들레","tel":"02-2685-2785","addr":"경기도 광명시 광명동 158-80번지","indutype":"의류 - 정장","category":"other"},{"name":"수입브랜드","tel":"070-4714-0672","addr":"경기도 광명시 광명동 158-80번지 1층","indutype":"의류 - 정장","category":"other"},{"name":"씨유광명사거리점","tel":"02-1577-8007","addr":"경기도 광명시 광명동 158-80번지 1층","indutype":"유통업 영리 - 편 의 점","category":"other"},{"name":"옷방스토리","tel":"02-2687-5982","addr":"경기도 광명시 광명동 158-80번지 1층","indutype":"의류 - 정장","category":"other"},{"name":"훈이네집(숙녀복)","tel":"02-2611-0717","addr":"경기도 광명시 광명동 158-80번지","indutype":"의류 - 정장","category":"other"}]},{"lat":"37.47826615","long":"126.854203","imageIndex":17,"items":[{"name":"네잎클로버","tel":"02-2066-2084","addr":"경기도 광명시 광명동 158-520번지 대명프라자 5층","indutype":"광학제품 - 사진관","category":"other"},{"name":"두드림심리지원센터","tel":"02-2688-0188","addr":"경기도 광명시 광명동 158-520번지 대명프라자 12층","indutype":"용역 서비스 - 사무서비스","category":"other"},{"name":"클로버사진편집","tel":"02-2066-2084","addr":"경기도 광명시 광명동 158-520번지 대명프라자 12층","indutype":"광학제품 - 사진관","category":"other"}]},{"lat":"37.47812266","long":"126.847714","imageIndex":17,"items":[{"name":"노리야요리야","tel":"02-2688-1517","addr":"경기도 광명시 광명동 214-12번지 1층","indutype":"문화.취미 - 문화취미기타","category":"other"}]},{"lat":"37.47343074","long":"126.8494533","imageIndex":17,"items":[{"name":"노블리의 핸드빌 (창작제분소)","tel":"","addr":"경기도 광명시 광명동 350-7번지 남매연립 103호","indutype":"가구 - 기타가구","category":"other"}]},{"lat":"37.47807264","long":"126.8579908","imageIndex":17,"items":[{"name":"노스페이스 광명점","tel":"02-2617-0318","addr":"경기도 광명시 광명동 158-376번지","indutype":"의류 - 스포츠의류","category":"other"}]},{"lat":"37.47712672","long":"126.8580943","imageIndex":17,"items":[{"name":"녹색인테리어","tel":"02-2613-8602","addr":"경기도 광명시 광명동 158-349번지","indutype":"건축자재 - 인테리어전문","category":"other"}]},{"lat":"37.48342011","long":"126.861768","imageIndex":17,"items":[{"name":"녹색자동화산업","tel":"02-2617-2669","addr":"경기도 광명시 광명동 78-3번지 젤라빌라 가동 402호","indutype":"기타 - 기계공구","category":"other"}]},{"lat":"37.47643595","long":"126.8532683","imageIndex":17,"items":[{"name":"뉴광명애견용품","tel":"02-2060-7577","addr":"경기도 광명시 광명동 158-1428번지","indutype":"문화.취미 - 애완동물","category":"other"}]},{"lat":"37.47859477","long":"126.857628","imageIndex":17,"items":[{"name":"뉴발란스 광명","tel":"02-2625-4154","addr":"경기도 광명시 광명동 149-11번지","indutype":"레져용품 - 스포츠·레져용품","category":"other"},{"name":"한빛세무회계사무소","tel":"031-687-6205","addr":"경기도 광명시 광명동 149-11번지","indutype":"용역 서비스 - 법률회계서비스(개인)","category":"other"}]},{"lat":"37.47379241","long":"126.8504361","imageIndex":17,"items":[{"name":"뉴스","tel":"02-2619-4738","addr":"경기도 광명시 광명동 347-4번지","indutype":"의류 - 정장","category":"other"},{"name":"마마스토리","tel":"02-2616-9003","addr":"경기도 광명시 광명동 347-4번지","indutype":"의류 - 정장","category":"other"}]},{"lat":"37.47171246","long":"126.8514916","imageIndex":17,"items":[{"name":"뉴클래식","tel":"","addr":"경기도 광명시 광명동 324-24번지 1층 101호","indutype":"의류 - 정장","category":"other"}]},{"lat":"37.47482125","long":"126.8589806","imageIndex":17,"items":[{"name":"느루 플라워","tel":"","addr":"경기도 광명시 광명동 41-112번지","indutype":"문화.취미 - 화원","category":"other"}]},{"lat":"37.48134854","long":"126.8549884","imageIndex":17,"items":[{"name":"늘푸른숲","tel":"02-859-5172","addr":"경기도 광명시 광명동 142-3번지 광명오피스텔 905호","indutype":"문화.취미 - 화원","category":"other"},{"name":"키토피아씽크","tel":"02-2618-4166","addr":"경기도 광명시 광명동 142-3번지","indutype":"주방용구 - 주방용구","category":"other"}]},{"lat":"37.48287797","long":"126.8604802","imageIndex":17,"items":[{"name":"니드플러스","tel":"070-8639-1765","addr":"경기도 광명시 광명동 69-7번지 오일빌라","indutype":"사무통신 - 컴퓨터","category":"other"}]},{"lat":"37.47165743","long":"126.8507343","imageIndex":17,"items":[{"name":"니치타임(NICHE TIME)","tel":"031-000-0000","addr":"경기도 광명시 광명동 374-72번지 1동","indutype":"용역 서비스 - 종합용역","category":"other"},{"name":"빛소리국악사","tel":"02-2681-7617","addr":"경기도 광명시 광명동 374-72번지 1층 2호","indutype":"레져용품 - 악기점","category":"other"}]},{"lat":"37.47940127","long":"126.854099","imageIndex":17,"items":[{"name":"니콜리아 (광명사거리역점)","tel":"031-000-0000","addr":"경기도 광명시 광명동 158-211번지 지하2층","indutype":"의류 - 정장","category":"other"},{"name":"스타일랩(STYLELAB)_광명사거리","tel":"02-498-9621","addr":"경기도 광명시 광명동 158-211번지 지하2층 748-2706호","indutype":"의류 - 정장","category":"other"}]},{"lat":"37.48209933","long":"126.8573725","imageIndex":17,"items":[{"name":"니하오출입국번역사무소","tel":"02-6349-1317","addr":"경기도 광명시 광명동 103-12번지","indutype":"용역 서비스 - 사무서비스","category":"other"}]},{"lat":"37.4730857","long":"126.8474192","imageIndex":17,"items":[{"name":"다례","tel":"02-1111-1111","addr":"경기도 광명시 광명동 785번지 광명해모로이연 109동 1702호","indutype":"문화.취미 - 문화취미기타","category":"other"}]},{"lat":"37.4672627","long":"126.8524049","imageIndex":17,"items":[{"name":"다모아(영아트)","tel":"02-2613-5893","addr":"경기도 광명시 광명동 726-11번지 명보빌라 상가 103호","indutype":"서적문구 - 문구용품","category":"other"}]},{"lat":"37.47367982","long":"126.847011","imageIndex":17,"items":[{"name":"다모아산업개발","tel":"02-2617-5223","addr":"경기도 광명시 광명동 243-5번지 2층 202-1호","indutype":"건축자재 - 인테리어전문","category":"other"}]},{"lat":"37.47262526","long":"126.8536829","imageIndex":17,"items":[{"name":"다보","tel":"02-2613-4270","addr":"경기도 광명시 광명동 333-19번지 한빛아트빌","indutype":"신변잡화 - 시계","category":"other"},{"name":"만물열쇠","tel":"02-2614-6171","addr":"경기도 광명시 광명동 333-19번지 한빛아트빌 1층 101호","indutype":"수리서비스 - 기타수리서비스","category":"other"}]},{"lat":"37.48301711","long":"126.8563757","imageIndex":17,"items":[{"name":"다빈치가구","tel":"02-2614-4483","addr":"경기도 광명시 광명동 92-6번지","indutype":"가구 - 일반가구","category":"other"}]},{"lat":"37.47629641","long":"126.8498431","imageIndex":17,"items":[{"name":"다솜건축인테리어","tel":"070-7536-0404","addr":"경기도 광명시 광명동 276-35번지","indutype":"건축자재 - 인테리어전문","category":"other"}]},{"lat":"37.47141095","long":"126.8482592","imageIndex":17,"items":[{"name":"다온","tel":"","addr":"경기도 광명시 광명동 785번지 광명해모로이연 103동 404호","indutype":"건축자재 - 인테리어전문","category":"other"}]},{"lat":"37.46819225","long":"126.8536013","imageIndex":17,"items":[{"name":"다올","tel":"070-7313-5413","addr":"경기도 광명시 광명동 728-6번지 동북아가든빌라 5동 401호","indutype":"의류 - 내의판매","category":"other"}]},{"lat":"37.47429635","long":"126.8499603","imageIndex":17,"items":[{"name":"다우인테리어","tel":"02-2614-0482","addr":"경기도 광명시 광명동 267-7번지","indutype":"건축자재 - 인테리어전문","category":"other"}]},{"lat":"37.47762859","long":"126.8488455","imageIndex":17,"items":[{"name":"달달한오후","tel":"02-1111-1111","addr":"경기도 광명시 광명동 213-4번지 1층","indutype":"문화.취미 - 민예·공예품","category":"other"}]},{"lat":"37.48020978","long":"126.8594564","imageIndex":17,"items":[{"name":"달리다굼","tel":"02-2611-5878","addr":"경기도 광명시 광명동 126-61번지","indutype":"회원제형태 - 기타4","category":"other"}]},{"lat":"37.48726739","long":"126.8617947","imageIndex":17,"items":[{"name":"대덕설비","tel":"02-688-9955","addr":"경기도 광명시 광명동 10-77번지","indutype":"수리서비스 - 기타수리서비스","category":"other"}]},{"lat":"37.47996197","long":"126.8557599","imageIndex":17,"items":[{"name":"대도상회","tel":"02-2686-9949","addr":"경기도 광명시 광명동 158-55번지","indutype":"의류 - 정장","category":"other"},{"name":"춘천상회","tel":"02-2618-2891","addr":"경기도 광명시 광명동 158-55번지","indutype":"의류 - 맞춤복점","category":"other"}]},{"lat":"37.47668359","long":"126.8567612","imageIndex":17,"items":[{"name":"대동기획","tel":"02-2060-0709","addr":"경기도 광명시 광명동 158-450번지","indutype":"용역 서비스 - 종합용역","category":"other"}]},{"lat":"37.47587321","long":"126.857181","imageIndex":17,"items":[{"name":"대동지물포","tel":"02-2612-8610","addr":"경기도 광명시 광명동 41-316번지","indutype":"직물 - 카페트,커튼,천막,지물","category":"other"}]},{"lat":"37.46868518","long":"126.851543","imageIndex":17,"items":[{"name":"대림설비","tel":"02-2614-5153","addr":"경기도 광명시 광명동 739-6번지","indutype":"건축자재 - 인테리어전문","category":"other"},{"name":"쎄븐세탁","tel":"02-2617-5169","addr":"경기도 광명시 광명동 739-6번지","indutype":"수리서비스 - 세탁소","category":"other"},{"name":"제임스퍼니처","tel":"02-2689-9630","addr":"경기도 광명시 광명동 739-6번지","indutype":"가구 - 일반가구","category":"other"}]},{"lat":"37.47329276","long":"126.854292","imageIndex":17,"items":[{"name":"대명종합상사","tel":"02-2684-8523","addr":"경기도 광명시 광명동 301-27번지","indutype":"유통업 영리 - 기타유통업","category":"other"}]},{"lat":"37.47965653","long":"126.856484","imageIndex":17,"items":[{"name":"대성상회","tel":"02-2684-5071","addr":"경기도 광명시 광명동 158-22","indutype":"회원제형태 - 기타1","category":"other"}]},{"lat":"37.47749102","long":"126.8613157","imageIndex":17,"items":[{"name":"대성엔지니어링","tel":"02-898-1161","addr":"경기도 광명시 광명동 33-79번지","indutype":"건축자재 - 보일러·펌프·샷시","category":"other"}]},{"lat":"37.47012362","long":"126.8490983","imageIndex":17,"items":[{"name":"대신소방감리공사","tel":"02-2613-4066","addr":"경기도 광명시 광명동 751-1번지 형제빌딩 202호","indutype":"기타 - 기타 전문점","category":"other"}]},{"lat":"37.47790761","long":"126.8556848","imageIndex":17,"items":[{"name":"대영지업사","tel":"02-2619-9694","addr":"경기도 광명시 광명동 158-567번지","indutype":"직물 - 카페트,커튼,천막,지물","category":"other"}]},{"lat":"37.4799617","long":"126.8555451","imageIndex":17,"items":[{"name":"대영커텐","tel":"02-2682-3319","addr":"경기도 광명시 광명동 158-60번지","indutype":"직물 - 카페트,커튼,천막,지물","category":"other"},{"name":"오성한복","tel":"02-2614-3456","addr":"경기도 광명시 광명동 158-60번지","indutype":"의류 - 맞춤복점","category":"other"}]},{"lat":"37.47745521","long":"126.8615079","imageIndex":17,"items":[{"name":"대원앵글","tel":"02-685-8151","addr":"경기도 광명시 광명동 33-68번지","indutype":"기타 - 기계공구","category":"other"}]},{"lat":"37.47184607","long":"126.8502931","imageIndex":17,"items":[{"name":"대지 공인중개사 사무소","tel":"02-2681-5700","addr":"경기도 광명시 광명동 374-46번지 일양빌딩","indutype":"용역 서비스 - 부동산 중개·임대","category":"other"},{"name":"시현문고&교재","tel":"02-6081-8581","addr":"경기도 광명시 광명동 374-46번지 일양빌딩","indutype":"서적문구 - 과학기자재","category":"other"},{"name":"폴해피니스","tel":"02-2614-2704","addr":"경기도 광명시 광명동 374-46번지 3층","indutype":"회원제형태 - 서적","category":"other"}]},{"lat":"37.47560232","long":"126.8567067","imageIndex":17,"items":[{"name":"대한공영설비","tel":"02-2612-6926","addr":"경기도 광명시 광명동 42-1 1층","indutype":"용역 서비스 - 기타용역서비스","category":"other"}]},{"lat":"37.46662915","long":"126.8501793","imageIndex":17,"items":[{"name":"대한벨트","tel":"02-6083-8293","addr":"경기도 광명시 광명동 746-10번지 광진빌라 301호","indutype":"수리서비스 - 기타수리서비스","category":"other"},{"name":"유로기계","tel":"02-2613-7695","addr":"경기도 광명시 광명동 746-10번지 광진빌라 402호","indutype":"기타 - 기계공구","category":"other"}]},{"lat":"37.48037825","long":"126.8500948","imageIndex":17,"items":[{"name":"대흥건재","tel":"02-2612-2110","addr":"경기도 광명시 광명동 158-920번지","indutype":"건축자재 - 목재·석재·철물","category":"other"}]},{"lat":"37.47417836","long":"126.8492935","imageIndex":17,"items":[{"name":"더그린","tel":"02-2611-0525","addr":"경기도 광명시 광명동 263-33번지","indutype":"문화.취미 - 화원","category":"other"}]},{"lat":"37.48260171","long":"126.855619","imageIndex":17,"items":[{"name":"더디자인","tel":"02-2060-9822","addr":"경기도 광명시 광명동 101-2번지","indutype":"가구 - 기타가구","category":"other"},{"name":"에몬스가구 광명점","tel":"02-2060-4469","addr":"경기도 광명시 광명동 101-2번지","indutype":"가구 - 일반가구","category":"other"}]},{"lat":"37.47459738","long":"126.8528424","imageIndex":17,"items":[{"name":"더크린세상","tel":"02-2613-3222","addr":"경기도 광명시 광명동 296-4번지 1층","indutype":"수리서비스 - 세탁소","category":"other"},{"name":"조선일보 광명지국","tel":"02-2612-5638","addr":"경기도 광명시 광명동 296-4번지 2층","indutype":"서적문구 - 정기간행물","category":"other"}]},{"lat":"37.47825135","long":"126.8496696","imageIndex":17,"items":[{"name":"덕추정사","tel":"02-2614-6777","addr":"경기도 광명시 광명동 178-5번지 장미연립 가동 107호","indutype":"기타 - 비영리/대상","category":"other"}]},{"lat":"37.48115021","long":"126.8548983","imageIndex":17,"items":[{"name":"데코라인광명점","tel":"02-2687-0262","addr":"경기도 광명시 광명동 142-5번지 데코라인가구 1층","indutype":"가구 - 일반가구","category":"other"}]},{"lat":"37.48512588","long":"126.8567334","imageIndex":17,"items":[{"name":"도기랑냥이랑 광명점","tel":"02-2682-8777","addr":"경기도 광명시 광명동 50-17번지","indutype":"문화.취미 - 애완동물","category":"other"}]},{"lat":"37.47170944","long":"126.8491516","imageIndex":17,"items":[{"name":"도리바리 가죽공방","tel":"02-7798-9026","addr":"경기도 광명시 광명동 374-173번지","indutype":"신변잡화 - 가방","category":"other"},{"name":"미리내","tel":"070-7725-0406","addr":"경기도 광명시 광명동 374-173번지 1층 2호","indutype":"문화.취미 - 민예·공예품","category":"other"}]},{"lat":"37.48234836","long":"126.8547603","imageIndex":17,"items":[{"name":"도배방","tel":"02-2614-3181","addr":"경기도 광명시 광명동 99-5번지 성신빌라","indutype":"건축자재 - 인테리어전문","category":"other"}]},{"lat":"37.48523479","long":"126.8573777","imageIndex":17,"items":[{"name":"도시기획","tel":"02-2611-8884","addr":"경기도 광명시 광명동 47-1번지","indutype":"건축자재 - 인테리어전문","category":"other"}]},{"lat":"37.48528956","long":"126.8579542","imageIndex":17,"items":[{"name":"도아전자","tel":"02-2686-6455","addr":"경기도 광명시 광명동 45-16번지 2층","indutype":"전기제품 - 기타전기제품","category":"other"}]},{"lat":"37.48193001","long":"126.8588991","imageIndex":17,"items":[{"name":"동광세탁소","tel":"02-2613-4374","addr":"경기도 광명시 광명동 85-7번지","indutype":"수리서비스 - 세탁소","category":"other"}]},{"lat":"37.47510043","long":"126.8588783","imageIndex":17,"items":[{"name":"동네디자인","tel":"070-8268-9476","addr":"경기도 광명시 광명동 41-277번지 202호","indutype":"용역 서비스 - 사무서비스","category":"other"}]},{"lat":"37.48201566","long":"126.8552923","imageIndex":17,"items":[{"name":"동서가구","tel":"02-2612-2104","addr":"경기도 광명시 광명동 101-7번지","indutype":"가구 - 일반가구","category":"other"}]},{"lat":"37.47785131","long":"126.8538986","imageIndex":17,"items":[{"name":"동서전기건설공사","tel":"02-2688-0404","addr":"경기도 광명시 광명동 158-785번지","indutype":"건축자재 - 조명기구","category":"other"}]},{"lat":"37.47573498","long":"126.8547055","imageIndex":17,"items":[{"name":"동아일보 광명센터","tel":"031-2060-1923","addr":"경기도 광명시 광명동 49-114번지 지층","indutype":"서적문구 - 정기간행물","category":"other"}]},{"lat":"37.48401046","long":"126.8582054","imageIndex":17,"items":[{"name":"동양커텐레일","tel":"031-681-6766","addr":"경기도 광명시 광명동 60-3번지","indutype":"기타 - 기계공구","category":"other"}]},{"lat":"37.4717928","long":"126.8509036","imageIndex":17,"items":[{"name":"동영테크놀로지 광명대리점","tel":"02-111-1111","addr":"경기도 광명시 광명동 374-71번지","indutype":"주방용구 - 주방용구","category":"other"}]},{"lat":"37.47796034","long":"126.8546219","imageIndex":17,"items":[{"name":"동원건축","tel":"02-2613-2913","addr":"경기도 광명시 광명동 158-536번지","indutype":"용역 서비스 - 기타용역서비스","category":"other"},{"name":"십자가선교센터","tel":"02-2685-0423","addr":"경기도 광명시 광명동 158-536번지 3층","indutype":"서적문구 - 출판 및 인쇄물","category":"other"}]},{"lat":"37.47304543","long":"126.8510933","imageIndex":17,"items":[{"name":"동원전기조명","tel":"02-2681-0879","addr":"경기도 광명시 광명동 346-48번지","indutype":"건축자재 - 조명기구","category":"other"}]},{"lat":"37.47748555","long":"126.849705","imageIndex":17,"items":[{"name":"동일엔지니어링","tel":"02-2625-7535","addr":"경기도 광명시 광명동 211-23번지","indutype":"기타 - 기계공구","category":"other"}]},{"lat":"37.47417922","long":"126.8499605","imageIndex":17,"items":[{"name":"동진공업사","tel":"031-000-0000","addr":"경기도 광명시 광명동 267-8번지 103호","indutype":"용역 서비스 - 기타용역서비스","category":"other"}]},{"lat":"37.4683511","long":"126.8509897","imageIndex":17,"items":[{"name":"동환전기","tel":"02-2683-6529","addr":"경기도 광명시 광명동 739-11번지","indutype":"전기제품 - 기타전기제품","category":"other"},{"name":"워시맨","tel":"","addr":"경기도 광명시 광명동 739-11번지 1층","indutype":"수리서비스 - 세탁소","category":"other"}]},{"lat":"37.46062576","long":"126.8480666","imageIndex":17,"items":[{"name":"두림케미칼(주)","tel":"02-2689-7288","addr":"경기도 광명시 광명동 554-1번지","indutype":"신변잡화 - 기타잡화","category":"other"},{"name":"청암시스템","tel":"031-684-9905","addr":"경기도 광명시 광명동 554-1번지","indutype":"회원제형태 - 레져업소","category":"other"}]},{"lat":"37.47434733","long":"126.8475974","imageIndex":17,"items":[{"name":"둘리상회","tel":"02-2060-4740","addr":"경기도 광명시 광명동 247-22번지","indutype":"신변잡화 - 기타잡화","category":"other"}]},{"lat":"37.4731827","long":"126.845825","imageIndex":17,"items":[{"name":"디딤돌프리마켓 협동조합","tel":"031-000-0000","addr":"경기도 광명시 광명동 785번지 광명해모로이연 5층 504호","indutype":"문화.취미 - 민예·공예품","category":"other"},{"name":"플레이광명점","tel":"02-2066-8988","addr":"경기도 광명시 광명동 785번지 광명해모로이연 209동 215호 215,216호","indutype":"서적문구 - 완구점","category":"other"},{"name":"해모로세탁소","tel":"02-2688-6444","addr":"경기도 광명시 광명동 785번지 광명해모로이연 상가동 112호","indutype":"수리서비스 - 세탁소","category":"other"}]},{"lat":"37.48909812","long":"126.8632386","imageIndex":17,"items":[{"name":"디딤인테리어","tel":"02-2612-4497","addr":"경기도 광명시 광명동 9-5번지 대광빌라 B01호","indutype":"건축자재 - 인테리어전문","category":"other"}]},{"lat":"37.47792904","long":"126.8584546","imageIndex":17,"items":[{"name":"디스커버리 광명점","tel":"02-2611-8312","addr":"경기도 광명시 광명동 158-307번지","indutype":"레져용품 - 스포츠·레져용품","category":"other"}]},{"lat":"37.47062759","long":"126.8557103","imageIndex":17,"items":[{"name":"디지탈O.A시스템","tel":"02-2617-3211","addr":"경기도 광명시 광명동 717-1번지","indutype":"사무통신 - 사무용 OA기기","category":"other"}]},{"lat":"37.47426698","long":"126.8552058","imageIndex":17,"items":[{"name":"디지털HP","tel":"02-2612-8694","addr":"경기도 광명시 광명동 산55-4번지","indutype":"사무통신 - 컴퓨터","category":"other"}]},{"lat":"37.47182093","long":"126.8517627","imageIndex":17,"items":[{"name":"디지털정보통신","tel":"02-2617-3211","addr":"경기도 광명시 광명동 324-21번지","indutype":"사무통신 - 사무용 OA기기","category":"other"}]},{"lat":"37.47998346","long":"126.8513732","imageIndex":17,"items":[{"name":"라이프케어 (라이프케어)","tel":"02-2066-6800","addr":"경기도 광명시 광명동 158-857번지 2층","indutype":"전기제품 - 기타전기제품","category":"other"}]},{"lat":"37.4827106","long":"126.8562407","imageIndex":17,"items":[{"name":"라자가구","tel":"02-2688-8806","addr":"경기도 광명시 광명동 92-10번지","indutype":"가구 - 일반가구","category":"other"}]},{"lat":"37.47896079","long":"126.8549026","imageIndex":17,"items":[{"name":"라젤로","tel":"02-2683-9898","addr":"경기도 광명시 광명동 158-512번지","indutype":"레져용품 - 스포츠·레져용품","category":"other"},{"name":"요가라테스","tel":"02-2612-3031","addr":"경기도 광명시 광명동 158-512번지 5층","indutype":"회원제형태 - 레져업소","category":"other"}]},{"lat":"37.45615195","long":"126.8444026","imageIndex":17,"items":[{"name":"란플라워(꽃집)","tel":"031-386-5414","addr":"경기도 광명시 광명동 674-1번지","indutype":"문화.취미 - 화원","category":"other"},{"name":"오아시스다육농장","tel":"02-2617-0050","addr":"경기도 광명시 광명동 674-1번지","indutype":"문화.취미 - 화원","category":"other"}]},{"lat":"37.47739968","long":"126.8602871","imageIndex":17,"items":[{"name":"랑무에타이체육관","tel":"070-8171-5027","addr":"경기도 광명시 광명동 158-235번지 대성빌딩 4층","indutype":"회원제형태 - 레져업소","category":"other"},{"name":"한국실용공예디자인협회","tel":"070-4103-7442","addr":"경기도 광명시 광명동 158-235번지 대성빌딩 5층","indutype":"직물 - 침구·수예점","category":"other"}]},{"lat":"37.46765207","long":"126.8539302","imageIndex":17,"items":[{"name":"러브밤비니","tel":"070-8628-2939","addr":"경기도 광명시 광명동 730-10번지","indutype":"의류 - 아동의류","category":"other"}]},{"lat":"37.47707034","long":"126.8491293","imageIndex":17,"items":[{"name":"레디꼴","tel":"070-8241-6358","addr":"경기도 광명시 광명동 270-169번지 강서빌라 가동 401호","indutype":"의류 - 정장","category":"other"}]},{"lat":"37.48398994","long":"126.8561816","imageIndex":17,"items":[{"name":"레디포바이크 (R4B)","tel":"02-6406-0808","addr":"경기도 광명시 광명동 56-3번지 1층","indutype":"레져용품 - 스포츠·레져용품","category":"other"}]},{"lat":"37.48990154","long":"126.8645374","imageIndex":17,"items":[{"name":"레몬트리","tel":"02-6094-0152","addr":"경기도 광명시 광명동 6-109번지","indutype":"의류 - 정장","category":"other"}]},{"lat":"37.48104282","long":"126.8554864","imageIndex":17,"items":[{"name":"레이디가구","tel":"02-2688-8656","addr":"경기도 광명시 광명동 141-6번지","indutype":"가구 - 일반가구","category":"other"}]},{"lat":"37.47940043","long":"126.853432","imageIndex":17,"items":[{"name":"로타리페인트","tel":"02-2612-1157","addr":"경기도 광명시 광명동 158-809번지","indutype":"건축자재 - 페인트","category":"other"}]},{"lat":"37.48420759","long":"126.8573231","imageIndex":17,"items":[{"name":"루디아샵","tel":"032-622-7128","addr":"경기도 광명시 광명동 58-15번지 1층","indutype":"의류 - 정장","category":"other"}]},{"lat":"37.48737594","long":"126.8621563","imageIndex":17,"items":[{"name":"루트시스템(ROOTSYSTEM)","tel":"02-686-5605","addr":"경기도 광명시 광명동 10-38번지","indutype":"사무통신 - 컴퓨터","category":"other"}]},{"lat":"37.48006919","long":"126.8550361","imageIndex":17,"items":[{"name":"르까프광명점","tel":"02-2618-2517","addr":"경기도 광명시 광명동 158-75번지","indutype":"레져용품 - 스포츠·레져용품","category":"other"},{"name":"시대패션","tel":"02-2689-3725","addr":"경기도 광명시 광명동 158-75번지","indutype":"의류 - 정장","category":"other"}]},{"lat":"37.47860199","long":"126.8561808","imageIndex":17,"items":[{"name":"르꼬끄 광명점","tel":"02-2615-2010","addr":"경기도 광명시 광명동 158-498번지","indutype":"레져용품 - 스포츠·레져용품","category":"other"},{"name":"신광명 휠라","tel":"02-2619-3672","addr":"경기도 광명시 광명동 158-498번지","indutype":"레져용품 - 스포츠·레져용품","category":"other"},{"name":"제롤라모","tel":"02-682-3612","addr":"경기도 광명시 광명동 158-498번지","indutype":"의류 - 정장","category":"other"}]},{"lat":"37.46165935","long":"126.8461317","imageIndex":17,"items":[{"name":"리본플라워","tel":"02-2686-5075","addr":"경기도 광명시 광명동 547-1광명7동화훼단지31","indutype":"문화.취미 - 화원","category":"other"},{"name":"새천년꽃백화점","tel":"02-2060-4700","addr":"경기도 광명시 광명동 547-1 31","indutype":"문화.취미 - 화원","category":"other"}]},{"lat":"37.47401786","long":"126.8505939","imageIndex":17,"items":[{"name":"마당발","tel":"02-2682-5156","addr":"경기도 광명시 광명동 290-84번지 1층","indutype":"신변잡화 - 신발","category":"other"}]},{"lat":"37.48050595","long":"126.8585061","imageIndex":17,"items":[{"name":"마리앤모리 광명초교점","tel":"02-2686-1777","addr":"경기도 광명시 광명동 129-10번지 창일연립 가동 102호","indutype":"사무통신 - 통신기기","category":"other"}]},{"lat":"37.47851408","long":"126.857956","imageIndex":17,"items":[{"name":"마지끄","tel":"02-2617-7669","addr":"경기도 광명시 광명동 149-7번지","indutype":"의류 - 정장","category":"other"},{"name":"체이스컬트","tel":"","addr":"경기도 광명시 광명동 149-7번지 광명빌딩 1층 101호","indutype":"의류 - 정장","category":"other"},{"name":"트라이","tel":"","addr":"경기도 광명시 광명동 149-7번지 광명빌딩","indutype":"의류 - 정장","category":"other"}]},{"lat":"37.47884415","long":"126.8552872","imageIndex":17,"items":[{"name":"마코","tel":"02-2689-0248","addr":"경기도 광명시 광명동 158-508번지","indutype":"레져용품 - 스포츠·레져용품","category":"other"}]},{"lat":"37.4835714","long":"126.8602075","imageIndex":17,"items":[{"name":"만드는 미니","tel":"","addr":"경기도 광명시 광명동 68-15번지 선문하이츠 101호","indutype":"문화.취미 - 민예·공예품","category":"other"}]},{"lat":"37.47946314","long":"126.8531492","imageIndex":17,"items":[{"name":"만물열쇠","tel":"02-2683-4046","addr":"경기도 광명시 광명동 158-1349번지 코너 1층","indutype":"수리서비스 - 기타수리서비스","category":"other"},{"name":"케이.엠스케일","tel":"02-2684-8293","addr":"경기도 광명시 광명동 158-1349번지","indutype":"사무통신 - 컴퓨터","category":"other"}]},{"lat":"37.48848561","long":"126.8633754","imageIndex":17,"items":[{"name":"만보토탈패션","tel":"","addr":"경기도 광명시 광명동 9-10번지","indutype":"신변잡화 - 신발","category":"other"}]},{"lat":"37.49082123","long":"126.8651237","imageIndex":17,"items":[{"name":"매직아트","tel":"02-2614-1484","addr":"경기도 광명시 광명동 5-71번지 서능빌라 101호","indutype":"문화.취미 - 문화취미기타","category":"other"}]},{"lat":"37.4785679","long":"126.8577637","imageIndex":17,"items":[{"name":"맨발로","tel":"02-2687-3927","addr":"경기도 광명시 광명동 149-14번지 2층","indutype":"신변잡화 - 신발","category":"other"}]},{"lat":"37.47753863","long":"126.856036","imageIndex":17,"items":[{"name":"맵시드레스","tel":"02-2613-0866","addr":"경기도 광명시 광명동 158-1020번지 1층","indutype":"수리서비스 - 세탁소","category":"other"}]},{"lat":"37.47976131","long":"126.8538157","imageIndex":17,"items":[{"name":"메디칼산후조리원","tel":"02-2066-3548","addr":"경기도 광명시 광명동 158-189번지 솔목타워 9층 901호","indutype":"기타의료기관 - 산후조리원","category":"other"},{"name":"유메인바디핏","tel":"02-2625-7119","addr":"경기도 광명시 광명동 158-189번지 솔목타워 6층 601호","indutype":"회원제형태 - 레져업소","category":"other"}]},{"lat":"37.47526106","long":"126.8504557","imageIndex":17,"items":[{"name":"메이블룸","tel":"02-2066-0302","addr":"경기도 광명시 광명동 281-19번지","indutype":"문화.취미 - 화원","category":"other"},{"name":"한도","tel":"02-2683-4342","addr":"경기도 광명시 광명동 281-19번지 1층","indutype":"용역 서비스 - 법률회계서비스(개인)","category":"other"}]},{"lat":"37.47232003","long":"126.8475564","imageIndex":17,"items":[{"name":"메이애드(Mayad)","tel":"070-8160-7974","addr":"경기도 광명시 광명동 785번지 광명해모로이연","indutype":"용역 서비스 - 종합용역","category":"other"}]},{"lat":"37.47434868","long":"126.8486262","imageIndex":17,"items":[{"name":"메이커유명할인매장","tel":"02-2612-1089","addr":"경기도 광명시 광명동 262-32번지 1층","indutype":"의류 - 정장","category":"other"},{"name":"지여니네","tel":"070-4842-4927","addr":"경기도 광명시 광명동 262-32번지 1층","indutype":"의류 - 정장","category":"other"}]},{"lat":"37.48457368","long":"126.8620146","imageIndex":17,"items":[{"name":"메자미","tel":"","addr":"경기도 광명시 광명동 76-17번지 금강연립 101호","indutype":"신변잡화 - 액세서리","category":"other"}]},{"lat":"37.47432103","long":"126.8481514","imageIndex":17,"items":[{"name":"메타젠","tel":"02-2689-2989","addr":"경기도 광명시 광명동 259-28번지","indutype":"서적문구 - 과학기자재","category":"other"},{"name":"이홍","tel":"070-4325-8006","addr":"경기도 광명시 광명동 259-28번지 1층 2호","indutype":"의류 - 정장","category":"other"}]},{"lat":"37.48079241","long":"126.8569906","imageIndex":17,"items":[{"name":"명금당","tel":"02-2611-7990","addr":"경기도 광명시 광명동 136-18번지","indutype":"신변잡화 - 귀금속","category":"other"}]},{"lat":"37.4821509","long":"126.8553712","imageIndex":17,"items":[{"name":"명품가구갤러리","tel":"02-2617-4100","addr":"경기도 광명시 광명동 101-6번지 1층","indutype":"가구 - 일반가구","category":"other"},{"name":"모자이크","tel":"02-2615-8983","addr":"경기도 광명시 광명동 101-6번지","indutype":"가구 - 일반가구","category":"other"},{"name":"일룸광명점","tel":"02-2684-7726","addr":"경기도 광명시 광명동 101-6번지","indutype":"가구 - 일반가구","category":"other"}]},{"lat":"37.46451662","long":"126.8469622","imageIndex":17,"items":[{"name":"모노플라워","tel":"02-2068-1630","addr":"경기도 광명시 광명동 482-6번지 1층","indutype":"문화.취미 - 화원","category":"other"},{"name":"프로방스플라워갤러리","tel":"02-2060-2508","addr":"경기도 광명시 광명동 482-6 3,4호","indutype":"문화.취미 - 화원","category":"other"}]},{"lat":"37.47534936","long":"126.8561533","imageIndex":17,"items":[{"name":"모델아이","tel":"","addr":"경기도 광명시 광명동 43-11번지 1층 101호","indutype":"의류 - 아동의류","category":"other"}]},{"lat":"37.47901112","long":"126.859176","imageIndex":17,"items":[{"name":"모토쿨(MOTO COOL)","tel":"02-000-0000","addr":"경기도 광명시 광명동 126-12번지 1층","indutype":"수리서비스 - 레져용품수리","category":"other"}]},{"lat":"37.47278058","long":"126.8483468","imageIndex":17,"items":[{"name":"몬테소리","tel":"02-2687-3689","addr":"경기도 광명시 광명동 785번지 광명해모로이연","indutype":"서적문구 - 정기간행물","category":"other"},{"name":"아트레인보우공방","tel":"","addr":"경기도 광명시 광명동 785번지 광명해모로이연 104동 703호","indutype":"문화.취미 - 민예·공예품","category":"other"}]},{"lat":"37.48112745","long":"126.8583467","imageIndex":17,"items":[{"name":"무진유통","tel":"02-2687-6230","addr":"경기도 광명시 광명동 113-12번지 원진빌라 B01호","indutype":"회원제형태 - 기타4","category":"other"}]},{"lat":"37.47990276","long":"126.8516786","imageIndex":17,"items":[{"name":"무한타올 대동판촉","tel":"02-2060-7131","addr":"경기도 광명시 광명동 158-855번지","indutype":"직물 - 옷감·직물","category":"other"}]},{"lat":"37.46715459","long":"126.8524051","imageIndex":17,"items":[{"name":"문방사우","tel":"02-2616-0181","addr":"경기도 광명시 광명동 726-4번지 현대빌라","indutype":"서적문구 - 문구용품","category":"other"}]},{"lat":"37.48837716","long":"126.8630929","imageIndex":17,"items":[{"name":"뮤호","tel":"","addr":"경기도 광명시 광명동 9-27번지 세림빌라 103호","indutype":"문화.취미 - 화원","category":"other"},{"name":"푸름지기","tel":"02-269-4793","addr":"경기도 광명시 광명동 9-27번지 세림빌라 203, 3/4","indutype":"용역 서비스 - 기타용역서비스","category":"other"}]},{"lat":"37.47568547","long":"126.8583797","imageIndex":17,"items":[{"name":"미광냉동인테리어","tel":"","addr":"경기도 광명시 광명동 41-190번지","indutype":"건축자재 - 인테리어전문","category":"other"}]},{"lat":"37.47887757","long":"126.8532069","imageIndex":17,"items":[{"name":"미니스톱광명역점","tel":"02-2612-8643","addr":"경기도 광명시 광명동 158-815번지 1층 1호","indutype":"유통업 영리 - 편 의 점","category":"other"},{"name":"토브스킨","tel":"02-2612-1121","addr":"경기도 광명시 광명동 158-815번지 2층","indutype":"회원제형태 - 기타4","category":"other"}]},{"lat":"37.48084821","long":"126.8584037","imageIndex":17,"items":[{"name":"미니스톱광명점","tel":"02-2687-7419","addr":"경기도 광명시 광명동 113-9번지","indutype":"유통업 영리 - 편 의 점","category":"other"}]},{"lat":"37.46887592","long":"126.8527408","imageIndex":17,"items":[{"name":"미니옷장(클로젯)","tel":"","addr":"경기도 광명시 광명동 724-7번지 1층 104호","indutype":"의류 - 정장","category":"other"}]},{"lat":"37.48031733","long":"126.8517682","imageIndex":17,"items":[{"name":"미래광고","tel":"02-2613-9941","addr":"경기도 광명시 광명동 158-219번지 1층","indutype":"건축자재 - 인테리어전문","category":"other"}]},{"lat":"37.48007316","long":"126.8510678","imageIndex":17,"items":[{"name":"미래광고","tel":"02-2613-9941","addr":"경기도 광명시 광명동 158-859번지","indutype":"용역 서비스 - 종합용역","category":"other"}]},{"lat":"37.48115141","long":"126.8487931","imageIndex":17,"items":[{"name":"미래사","tel":"02-2682-8413","addr":"경기도 광명시 광명동 159-38번지","indutype":"건축자재 - 인테리어전문","category":"other"}]},{"lat":"37.46868535","long":"126.8516786","imageIndex":17,"items":[{"name":"미래전기조명","tel":"02-2613-5236","addr":"경기도 광명시 광명동 739-7번지 아리안 상가 301호","indutype":"전기제품 - 기타전기제품","category":"other"}]},{"lat":"37.47965619","long":"126.8562127","imageIndex":17,"items":[{"name":"미선상회","tel":"02-2615-7150","addr":"경기도 광명시 광명동 158-40번지","indutype":"의류 - 내의판매","category":"other"}]},{"lat":"37.48217928","long":"126.8564565","imageIndex":17,"items":[{"name":"미요킴","tel":"031-000-0000","addr":"경기도 광명시 광명동 104-14번지 1층","indutype":"문화.취미 - 애완동물","category":"other"}]},{"lat":"37.48104561","long":"126.8577363","imageIndex":17,"items":[{"name":"민들레","tel":"","addr":"경기도 광명시 광명동 110-8번지 1층","indutype":"의류 - 정장","category":"other"}]},{"lat":"37.46757286","long":"126.8483801","imageIndex":17,"items":[{"name":"민스바이크","tel":"032-819-8688","addr":"경기도 광명시 광명동 747번지 1층 2층","indutype":"레져용품 - 스포츠·레져용품","category":"other"}]},{"lat":"37.48318134","long":"126.8580374","imageIndex":17,"items":[{"name":"믿음설비열쇠","tel":"02-2682-1382","addr":"경기도 광명시 광명동 61-28번지 1층","indutype":"건축자재 - 목재·석재·철물","category":"other"}]},{"lat":"37.47414665","long":"126.8526624","imageIndex":17,"items":[{"name":"믿음수산","tel":"070-7583-5654","addr":"경기도 광명시 광명동 337-7번지 금성그랜드빌리지 나동 101호","indutype":"회원제형태 - 기타1","category":"other"}]},{"lat":"37.48010204","long":"126.8525148","imageIndex":17,"items":[{"name":"바로전산","tel":"02-685-4525","addr":"경기도 광명시 광명동 158-1015번지","indutype":"사무통신 - 컴퓨터","category":"other"}]},{"lat":"37.48243111","long":"126.8560942","imageIndex":17,"items":[{"name":"바로크가구","tel":"02-2619-9111","addr":"경기도 광명시 광명동 102-3번지","indutype":"가구 - 일반가구","category":"other"}]},{"lat":"37.48081632","long":"126.8544806","imageIndex":17,"items":[{"name":"바이더웨이광명역점","tel":"02-2614-4234","addr":"경기도 광명시 광명동 158-92번지 101호","indutype":"유통업 영리 - 편 의 점","category":"other"}]},{"lat":"37.47471394","long":"126.8524013","imageIndex":17,"items":[{"name":"바이더웨이광명푸른점","tel":"02-2688-6949","addr":"경기도 광명시 광명동 290-20번지","indutype":"유통업 영리 - 편 의 점","category":"other"},{"name":"세븐일레븐광명푸른점","tel":"","addr":"경기도 광명시 광명동 290-20번지","indutype":"유통업 영리 - 편 의 점","category":"other"}]},{"lat":"37.47268382","long":"126.8501557","imageIndex":17,"items":[{"name":"바이오솔루션코리아","tel":"02-2614-7555","addr":"경기도 광명시 광명동 373-1번지 1층","indutype":"서적문구 - 과학기자재","category":"other"},{"name":"성일건설","tel":"","addr":"경기도 광명시 광명동 373-1번지 1층","indutype":"건축자재 - 인테리어전문","category":"other"}]},{"lat":"37.48237102","long":"126.8585138","imageIndex":17,"items":[{"name":"바이오솔루션코리아","tel":"02-2614-7555","addr":"경기도 광명시 광명동 86-20번지 201호","indutype":"서적문구 - 과학기자재","category":"other"}]},{"lat":"37.47435294","long":"126.859151","imageIndex":17,"items":[{"name":"바인더","tel":"070-7664-1138","addr":"경기도 광명시 광명동 41-138번지 우성빌라 지하1층 1호","indutype":"회원제형태 - 사무서비스","category":"other"}]},{"lat":"37.46703027","long":"126.853841","imageIndex":17,"items":[{"name":"박스클린","tel":"02-2684-7284","addr":"경기도 광명시 광명동 734번지 상우2차아파트","indutype":"용역 서비스 - 종합용역","category":"other"}]},{"lat":"37.48168281","long":"126.8557113","imageIndex":17,"items":[{"name":"박홍근홈패션","tel":"02-2617-1231","addr":"경기도 광명시 광명동 102-12번지 1층","indutype":"직물 - 침구·수예점","category":"other"}]},{"lat":"37.47787953","long":"126.8548482","imageIndex":17,"items":[{"name":"백 (baak)","tel":"02-6402-7325","addr":"경기도 광명시 광명동 158-537번지 2층 202호","indutype":"의류 - 정장","category":"other"}]},{"lat":"37.48487569","long":"126.8584299","imageIndex":17,"items":[{"name":"백금누수탐지","tel":"","addr":"경기도 광명시 광명동 44-12번지 청구빌라 201호","indutype":"용역 서비스 - 기타용역서비스","category":"other"}]},{"lat":"37.48135018","long":"126.849211","imageIndex":17,"items":[{"name":"백두암","tel":"02-2614-1678","addr":"경기도 광명시 광명동 159-79번지 삼원빌라 지층 2호","indutype":"기타 - 비영리/대상","category":"other"}]},{"lat":"37.47748403","long":"126.8555952","imageIndex":17,"items":[{"name":"백양사","tel":"02-2613-3052","addr":"경기도 광명시 광명동 158-636번지","indutype":"수리서비스 - 세탁소","category":"other"}]},{"lat":"37.48376524","long":"126.856623","imageIndex":17,"items":[{"name":"번영복권방","tel":"02-2614-3937","addr":"경기도 광명시 광명동 57-11번지 1층 3호","indutype":"유통업 영리 - 기타유통업","category":"other"}]},{"lat":"37.48409813","long":"126.8562379","imageIndex":17,"items":[{"name":"베네치아가구(광명대리점)","tel":"02-2613-1859","addr":"경기도 광명시 광명동 56-2번지 1층 좌측","indutype":"가구 - 일반가구","category":"other"}]},{"lat":"37.47968041","long":"126.8539628","imageIndex":17,"items":[{"name":"보디가드","tel":"02-2614-7722","addr":"경기도 광명시 광명동 158-188번지 1층 2호","indutype":"의류 - 내의판매","category":"other"}]},{"lat":"37.48021342","long":"126.8550923","imageIndex":17,"items":[{"name":"보림수예점","tel":"02-2619-1844","addr":"경기도 광명시 광명동 158-73번지 일부 1층","indutype":"직물 - 침구·수예점","category":"other"}]},{"lat":"37.47217993","long":"126.8506768","imageIndex":17,"items":[{"name":"보안열쇠","tel":"031-1111-1111","addr":"경기도 광명시 광명동 374-40번지 1층","indutype":"건축자재 - 목재·석재·철물","category":"other"},{"name":"옷이날개","tel":"02-2687-6924","addr":"경기도 광명시 광명동 374-40번지 1층","indutype":"의류 - 정장","category":"other"},{"name":"현대사진관","tel":"02-2615-9696","addr":"경기도 광명시 광명동 374-40번지","indutype":"광학제품 - 사진관","category":"other"}]},{"lat":"37.47629689","long":"126.8573498","imageIndex":17,"items":[{"name":"보일러마트","tel":"02-2689-9511","addr":"경기도 광명시 광명동 43-38번지 1층","indutype":"건축자재 - 보일러·펌프·샷시","category":"other"}]},{"lat":"37.45984633","long":"126.8446209","imageIndex":17,"items":[{"name":"복댕이미 플라워","tel":"02-2687-0078","addr":"경기도 광명시 광명동 633-2번지","indutype":"문화.취미 - 화원","category":"other"},{"name":"한국플라워","tel":"02-2611-4149","addr":"경기도 광명시 광명동 633-2번지","indutype":"문화.취미 - 화원","category":"other"}]},{"lat":"37.48992961","long":"126.8654307","imageIndex":17,"items":[{"name":"봄","tel":"02-2682-2556","addr":"경기도 광명시 광명동 5-40번지","indutype":"의류 - 정장","category":"other"}]},{"lat":"37.4780158","long":"126.8557411","imageIndex":17,"items":[{"name":"부광전기건설","tel":"02-2682-0956","addr":"경기도 광명시 광명동 158-568번지","indutype":"건축자재 - 조명기구","category":"other"}]},{"lat":"37.47971004","long":"126.856043","imageIndex":17,"items":[{"name":"부부상회","tel":"02-2614-6542","addr":"경기도 광명시 광명동 158-43번지 1층","indutype":"직물 - 침구·수예점","category":"other"},{"name":"제일침구","tel":"02-683-2352","addr":"경기도 광명시 광명동 158-43번지","indutype":"직물 - 침구·수예점","category":"other"}]},{"lat":"37.48007037","long":"126.8559858","imageIndex":17,"items":[{"name":"부부수예점","tel":"02-2613-2892","addr":"경기도 광명시 광명동 158-1172번지","indutype":"직물 - 침구·수예점","category":"other"}]},{"lat":"37.48742783","long":"126.8603471","imageIndex":17,"items":[{"name":"부흥장식","tel":"02-687-1644","addr":"경기도 광명시 광명동 7-62번지 문화연립 101호","indutype":"직물 - 카페트,커튼,천막,지물","category":"other"}]},{"lat":"37.48001881","long":"126.8508418","imageIndex":17,"items":[{"name":"북앤드로잉","tel":"070-8777-3745","addr":"경기도 광명시 광명동 158-932번지 1층","indutype":"서적문구 - 일반서적","category":"other"}]},{"lat":"37.47809953","long":"126.8578777","imageIndex":17,"items":[{"name":"블랙야크","tel":"02-2060-0415","addr":"경기도 광명시 광명동 158-377번지 1층","indutype":"레져용품 - 스포츠·레져용품","category":"other"},{"name":"한빛텔레콤","tel":"02-2612-0250","addr":"경기도 광명시 광명동 158-377번지","indutype":"사무통신 - 통신기기","category":"other"}]},{"lat":"37.47224132","long":"126.8493766","imageIndex":17,"items":[{"name":"블룸스앤드","tel":"","addr":"경기도 광명시 광명동 372-47번지 한국하이츠 1층","indutype":"문화.취미 - 화원","category":"other"}]},{"lat":"37.47779218","long":"126.8499305","imageIndex":17,"items":[{"name":"비기닝","tel":"070-2699-0807","addr":"경기도 광명시 광명동 208-19번지 1층 2호","indutype":"의류 - 정장","category":"other"}]},{"lat":"37.47124078","long":"126.8490395","imageIndex":17,"items":[{"name":"비누원","tel":"02-2296-5416","addr":"경기도 광명시 광명동 380-8번지","indutype":"신변잡화 - 기타잡화","category":"other"}]},{"lat":"37.47290192","long":"126.8516023","imageIndex":17,"items":[{"name":"비만체형","tel":"02-2685-5428","addr":"경기도 광명시 광명동 340-6번지","indutype":"회원제형태 - 기타4","category":"other"},{"name":"중앙헬스","tel":"02-687-1706","addr":"경기도 광명시 광명동 340-6번지","indutype":"회원제형태 - 레져업소","category":"other"}]},{"lat":"37.48479532","long":"126.859018","imageIndex":17,"items":[{"name":"비와이씨(BYC)속옷","tel":"02-859-7372","addr":"경기도 광명시 광명동 40-6번지 한양빌라 102호","indutype":"의류 - 내의판매","category":"other"}]},{"lat":"37.47079008","long":"126.8559587","imageIndex":17,"items":[{"name":"비주얼101(visual 101)","tel":"02-2264-3244","addr":"경기도 광명시 광명동 716-10 대원빌리지 402호","indutype":"용역 서비스 - 종합용역","category":"other"}]},{"lat":"37.47287648","long":"126.8528458","imageIndex":17,"items":[{"name":"비타민큐","tel":"070-8631-2571","addr":"경기도 광명시 광명동 337-57번지 문영시티빌라 1층 2호","indutype":"용역 서비스 - 사무서비스","category":"other"}]},{"lat":"37.47840377","long":"126.8490927","imageIndex":17,"items":[{"name":"빅소(Bigso)","tel":"02-2611-2426","addr":"경기도 광명시 광명동 176-6번지 1호","indutype":"신변잡화 - 기타잡화","category":"other"}]},{"lat":"37.48126821","long":"126.855599","imageIndex":17,"items":[{"name":"빈티지","tel":"","addr":"경기도 광명시 광명동 141-3번지 1층","indutype":"의류 - 정장","category":"other"}]},{"lat":"37.47610173","long":"126.852602","imageIndex":17,"items":[{"name":"빈티지마켓","tel":"02-0000-0000","addr":"경기도 광명시 광명동 294-2번지 1층","indutype":"의류 - 정장","category":"other"}]},{"lat":"37.47657385","long":"126.8554613","imageIndex":17,"items":[{"name":"뽀아이","tel":"02-899-7323","addr":"경기도 광명시 광명동 158-715번지 대송빌라","indutype":"의류 - 아동의류","category":"other"}]},{"lat":"37.48029545","long":"126.8558497","imageIndex":17,"items":[{"name":"사계절가방","tel":"02-2066-1318","addr":"경기도 광명시 광명동 158-1318번지","indutype":"신변잡화 - 가방","category":"other"},{"name":"샤넬 악세사리","tel":"02-2612-5122","addr":"경기도 광명시 광명동 158-1318번지","indutype":"신변잡화 - 액세서리","category":"other"}]},{"lat":"37.47490729","long":"126.848625","imageIndex":17,"items":[{"name":"사계절공조","tel":"02-2066-8218","addr":"경기도 광명시 광명동 258-15번지 진주빌라","indutype":"전기제품 - 냉열기기","category":"other"}]},{"lat":"37.47222161","long":"126.8480766","imageIndex":17,"items":[{"name":"사우전드앤원(Thousand&One)","tel":"031-000-0000","addr":"경기도 광명시 광명동 785번지 광명해모로이연 105동 1901호","indutype":"신변잡화 - 액세서리","category":"other"}]},{"lat":"37.47132352","long":"126.8503167","imageIndex":17,"items":[{"name":"산돌테크","tel":"02-858-8768","addr":"경기도 광명시 광명동 374-49번지 301호","indutype":"의류 - 정장","category":"other"}]},{"lat":"37.46968181","long":"126.8488505","imageIndex":17,"items":[{"name":"삼성목재","tel":"02-683-0994","addr":"경기도 광명시 광명동 752-1번지","indutype":"건축자재 - 기타건축자재","category":"other"},{"name":"태진타일","tel":"02-2612-8708","addr":"경기도 광명시 광명동 752-1번지","indutype":"건축자재 - 건축용 요업제품","category":"other"}]},{"lat":"37.47468437","long":"126.8575677","imageIndex":17,"items":[{"name":"삼성유통","tel":"02-2685-7562","addr":"경기도 광명시 광명동 301-62번지 하나빌라 B01호","indutype":"회원제형태 - 기타4","category":"other"}]},{"lat":"37.48287208","long":"126.855675","imageIndex":17,"items":[{"name":"삼익가구 광명점","tel":"02-2060-1214","addr":"경기도 광명시 광명동 93-7번지","indutype":"가구 - 일반가구","category":"other"},{"name":"엠디자인","tel":"02-865-4841","addr":"경기도 광명시 광명동 93-7번지 3층","indutype":"직물 - 침구·수예점","category":"other"},{"name":"인더라인25","tel":"070-7012-8760","addr":"경기도 광명시 광명동 93-7번지 1층","indutype":"유통업 영리 - 편 의 점","category":"other"}]},{"lat":"37.47143186","long":"126.8504861","imageIndex":17,"items":[{"name":"삼진공사","tel":"02-2685-9994","addr":"경기도 광명시 광명동 374-9번지","indutype":"건축자재 - 기타건축자재","category":"other"}]},{"lat":"37.4793517","long":"126.8577056","imageIndex":17,"items":[{"name":"상도지물포","tel":"02-2684-1457","addr":"경기도 광명시 광명동 156-3번지","indutype":"직물 - 카페트,커튼,천막,지물","category":"other"}]},{"lat":"37.47193423","long":"126.8488007","imageIndex":17,"items":[{"name":"상상톡톡","tel":"031-432-8507","addr":"경기도 광명시 광명동 785번지 광명해모로이연 102동 2002호","indutype":"서적문구 - 기타서적문구","category":"other"}]},{"lat":"37.48229058","long":"126.8590454","imageIndex":17,"items":[{"name":"새날기획","tel":"02-2689-0752","addr":"경기도 광명시 광명동 85-4번지 재 1층 제2호","indutype":"용역 서비스 - 종합용역","category":"other"}]},{"lat":"37.47848958","long":"126.8600363","imageIndex":17,"items":[{"name":"새론테크","tel":"02-2682-5130","addr":"경기도 광명시 광명동 30-12번지","indutype":"서적문구 - 과학기자재","category":"other"},{"name":"새론테크/원격지","tel":"02-2682-5130","addr":"경기도 광명시 광명동 30-12번지","indutype":"기타 - 기타 전문점","category":"other"}]},{"lat":"37.46876727","long":"126.8523228","imageIndex":17,"items":[{"name":"생활용품할인점(도깨비마트)","tel":"02-2625-8114","addr":"경기도 광명시 광명동 724-14번지 101호","indutype":"신변잡화 - 기타잡화","category":"other"},{"name":"선두","tel":"02-2625-8114","addr":"경기도 광명시 광명동 724-14번지","indutype":"유통업 영리 - 기타유통업","category":"other"}]},{"lat":"37.48370995","long":"126.8556282","imageIndex":17,"items":[{"name":"샤론","tel":"","addr":"경기도 광명시 광명동 94-16번지 봉원빌라 지층 1호","indutype":"신변잡화 - 기타잡화","category":"other"}]},{"lat":"37.47101773","long":"126.8507356","imageIndex":17,"items":[{"name":"샤인인테리어","tel":"02-2686-6040","addr":"경기도 광명시 광명동 374-88번지 1층 1호","indutype":"건축자재 - 인테리어전문","category":"other"}]},{"lat":"37.48371139","long":"126.8567927","imageIndex":17,"items":[{"name":"샤인홈패션","tel":"02-2619-3550","addr":"경기도 광명시 광명동 57-7번지 1층 왼쪽가게","indutype":"직물 - 침구·수예점","category":"other"}]},{"lat":"37.47246134","long":"126.8523154","imageIndex":17,"items":[{"name":"서광기업","tel":"02-2614-1557","addr":"경기도 광명시 광명동 338-26번지","indutype":"건축자재 - 인테리어전문","category":"other"},{"name":"파란감","tel":"","addr":"경기도 광명시 광명동 338-26번지","indutype":"의류 - 정장","category":"other"}]},{"lat":"37.47960188","long":"126.8560093","imageIndex":17,"items":[{"name":"서광혼수방","tel":"02-2612-7471","addr":"경기도 광명시 광명동 158-42번지","indutype":"직물 - 침구·수예점","category":"other"}]},{"lat":"37.47365786","long":"126.8508999","imageIndex":17,"items":[{"name":"서일정보통신","tel":"02-2060-5010","addr":"경기도 광명시 광명동 346-1번지 1층 3호","indutype":"사무통신 - 통신기기","category":"other"}]},{"lat":"37.47212991","long":"126.8538421","imageIndex":17,"items":[{"name":"서호건설","tel":"02-2682-4878","addr":"경기도 광명시 광명동 305-58번지 1층","indutype":"용역 서비스 - 기타용역서비스","category":"other"}]},{"lat":"37.47459202","long":"126.8557478","imageIndex":17,"items":[{"name":"석천상사","tel":"","addr":"경기도 광명시 광명동 777번지 팰리스필1차아파트","indutype":"유통업 영리 - 기타유통업","category":"other"}]},{"lat":"37.48409476","long":"126.860851","imageIndex":17,"items":[{"name":"선라이즈(sunrise)","tel":"02-2688-8858","addr":"경기도 광명시 광명동 71-14번지 금호빌라 B01호","indutype":"기타 - 기계공구","category":"other"}]},{"lat":"37.47401523","long":"126.8556246","imageIndex":17,"items":[{"name":"선인테크","tel":"02-2060-3164","addr":"경기도 광명시 광명동 301-96번지 덕산빌라 105호","indutype":"주방용구 - 주방용구","category":"other"}]},{"lat":"37.47454591","long":"126.8549","imageIndex":17,"items":[{"name":"성민건설","tel":"02-2685-2313","addr":"경기도 광명시 광명동 298-27번지","indutype":"건축자재 - 기타건축자재","category":"other"}]},{"lat":"37.47518026","long":"126.850682","imageIndex":17,"items":[{"name":"성심건강원","tel":"02-2060-3357","addr":"경기도 광명시 광명동 282-7번지","indutype":"기타의료기관 - 기타의료기관 및 기타","category":"other"},{"name":"최수연패션","tel":"02-897-3815","addr":"경기도 광명시 광명동 282-7번지 1층","indutype":"의류 - 정장","category":"other"}]},{"lat":"37.48779006","long":"126.8618729","imageIndex":17,"items":[{"name":"성현상사","tel":"02-2687-8228","addr":"경기도 광명시 광명동 10-54번지 1층","indutype":"유통업 영리 - 기타유통업","category":"other"}]},{"lat":"37.46971705","long":"126.8552826","imageIndex":17,"items":[{"name":"성현타이어","tel":"02-2685-1297","addr":"경기도 광명시 광명동 732번지 중앙하이츠아파트","indutype":"회원제형태 - 기타3","category":"other"}]},{"lat":"37.47126968","long":"126.8504864","imageIndex":17,"items":[{"name":"세븐일레븐광명명문고점","tel":"","addr":"경기도 광명시 광명동 374-50번지","indutype":"유통업 영리 - 편 의 점","category":"other"}]},{"lat":"37.48787217","long":"126.8627321","imageIndex":17,"items":[{"name":"세븐일레븐광명본점","tel":"","addr":"경기도 광명시 광명동 10-29번지 제지층제비01호","indutype":"유통업 영리 - 편 의 점","category":"other"}]},{"lat":"37.47754328","long":"126.8598233","imageIndex":17,"items":[{"name":"세븐일레븐광명소원점","tel":"","addr":"경기도 광명시 광명동 158-238번지","indutype":"유통업 영리 - 편 의 점","category":"other"},{"name":"지더블유(GW)","tel":"070-7799-6824","addr":"경기도 광명시 광명동 158-238번지 103호","indutype":"사무통신 - 통신기기","category":"other"}]},{"lat":"37.48304585","long":"126.8577663","imageIndex":17,"items":[{"name":"세븐일레븐광명은재점","tel":"","addr":"경기도 광명시 광명동 89-1번지 1층","indutype":"유통업 영리 - 편 의 점","category":"other"}]},{"lat":"37.46792927","long":"126.8522679","imageIndex":17,"items":[{"name":"소나무 철물점","tel":"02-2617-0072","addr":"경기도 광명시 광명동 726-13번지 상가 1층","indutype":"건축자재 - 목재·석재·철물","category":"other"}]},{"lat":"37.47043205","long":"126.8507142","imageIndex":17,"items":[{"name":"소리마트","tel":"02-2687-6924","addr":"경기도 광명시 광명동 374-146번지 1층","indutype":"신변잡화 - 기타잡화","category":"other"}]},{"lat":"37.47112437","long":"126.8567042","imageIndex":17,"items":[{"name":"손님이네","tel":"070-7743-3545","addr":"경기도 광명시 광명동 714-2번지 현대빌리지 라동 401호","indutype":"신변잡화 - 가방","category":"other"}]},{"lat":"37.48297017","long":"126.8548608","imageIndex":17,"items":[{"name":"솔솔에어컨","tel":"031-922-8546","addr":"경기도 광명시 광명동 97-5번지 대우아트빌라 A동 202호","indutype":"용역 서비스 - 기타용역서비스","category":"other"}]},{"lat":"37.477624","long":"126.8595179","imageIndex":17,"items":[{"name":"솔악기사","tel":"02-2617-2460","addr":"경기도 광명시 광명동 158-240번지","indutype":"레져용품 - 악기점","category":"other"}]},{"lat":"37.48637546","long":"126.8618416","imageIndex":17,"items":[{"name":"수정꽃","tel":"070-7006-5010","addr":"경기도 광명시 광명동 11-130번지 1층","indutype":"문화.취미 - 화원","category":"other"}]},{"lat":"37.47857328","long":"126.8622068","imageIndex":17,"items":[{"name":"숙명아트페인팅 아카데미연구소","tel":"070-6566-3460","addr":"경기도 광명시 광명동 32-180번지 대경베스트빌라 502호","indutype":"문화.취미 - 문화취미기타","category":"other"}]},{"lat":"37.48065066","long":"126.8589581","imageIndex":17,"items":[{"name":"순에스테틱","tel":"02-2689-1836","addr":"경기도 광명시 광명동 117-9번지 1층","indutype":"회원제형태 - 기타4","category":"other"}]},{"lat":"37.47971162","long":"126.8573206","imageIndex":17,"items":[{"name":"숲속향기","tel":"","addr":"경기도 광명시 광명동 157-12번지 1층","indutype":"문화.취미 - 화원","category":"other"},{"name":"쥬비드","tel":"02-2689-7897","addr":"경기도 광명시 광명동 157-12번지 1층","indutype":"의류 - 내의판매","category":"other"}]},{"lat":"37.4752081","long":"126.851315","imageIndex":17,"items":[{"name":"슈슈팩토리","tel":"","addr":"경기도 광명시 광명동 288-120번지 1층","indutype":"의류 - 정장","category":"other"}]},{"lat":"37.46840541","long":"126.8511818","imageIndex":17,"items":[{"name":"슈퍼스타","tel":"02-2060-1216","addr":"경기도 광명시 광명동 739-10번지 지층","indutype":"용역 서비스 - 종합용역","category":"other"}]},{"lat":"37.47398635","long":"126.8471573","imageIndex":17,"items":[{"name":"스마트유통","tel":"02-2689-9700","addr":"경기도 광명시 광명동 246-42번지 102호","indutype":"건축자재 - 목재·석재·철물","category":"other"}]},{"lat":"37.47410233","long":"126.8532391","imageIndex":17,"items":[{"name":"스카이","tel":"02-2682-5356","addr":"경기도 광명시 광명동 299-5번지 호지 지하층","indutype":"직물 - 카페트,커튼,천막,지물","category":"other"}]},{"lat":"37.48109943","long":"126.857544","imageIndex":17,"items":[{"name":"스카이정보통신","tel":"02-2625-0250","addr":"경기도 광명시 광명동 110-9번지 1층","indutype":"사무통신 - 통신기기","category":"other"},{"name":"이레종합광고","tel":"02-2688-9797","addr":"경기도 광명시 광명동 110-9번지 1층","indutype":"용역 서비스 - 종합용역","category":"other"}]},{"lat":"37.48368076","long":"126.8612362","imageIndex":17,"items":[{"name":"스코넷 엔지니어링","tel":"031-000-0000","addr":"경기도 광명시 광명동 71-20번지","indutype":"수리서비스 - 기타수리서비스","category":"other"}]},{"lat":"37.47760116","long":"126.8485403","imageIndex":17,"items":[{"name":"스텔란테","tel":"070-8877-0469","addr":"경기도 광명시 광명동 213-7번지 대령빌라 301호","indutype":"의류 - 내의판매","category":"other"}]},{"lat":"37.47671028","long":"126.8564898","imageIndex":17,"items":[{"name":"스포츠애드컴","tel":"02-6223-4297","addr":"경기도 광명시 광명동 158-461번지","indutype":"건축자재 - 인테리어전문","category":"other"},{"name":"아이원기획","tel":"02-6407-6303","addr":"경기도 광명시 광명동 158-461번지 3층","indutype":"용역 서비스 - 종합용역","category":"other"}]},{"lat":"37.48268267","long":"126.8555171","imageIndex":17,"items":[{"name":"시온컴","tel":"02-2688-5983","addr":"경기도 광명시 광명동 101-13번지","indutype":"사무통신 - 컴퓨터","category":"other"}]},{"lat":"37.48012446","long":"126.8560083","imageIndex":17,"items":[{"name":"시장꽃집","tel":"02-2613-0316","addr":"경기도 광명시 광명동 158-48번지","indutype":"문화.취미 - 화원","category":"other"}]},{"lat":"37.47432244","long":"126.8492367","imageIndex":17,"items":[{"name":"시흥농자재","tel":"031-404-6727","addr":"경기도 광명시 광명동 263-30번지 대우빌리지","indutype":"용역 서비스 - 기타용역서비스","category":"other"}]},{"lat":"37.47873913","long":"126.8506295","imageIndex":17,"items":[{"name":"시흥엔젤홈유기견보호소","tel":"02-2060-2488","addr":"경기도 광명시 광명동 189-66번지 1층","indutype":"문화.취미 - 애완동물","category":"other"},{"name":"씨유광명스타점","tel":"080-080-3663","addr":"경기도 광명시 광명동 189-66번지 1층","indutype":"유통업 영리 - 편 의 점","category":"other"}]},{"lat":"37.48556887","long":"126.8579537","imageIndex":17,"items":[{"name":"신광건축설비","tel":"02-2688-0898","addr":"경기도 광명시 광명동 12-48번지","indutype":"용역 서비스 - 종합용역","category":"other"}]},{"lat":"37.45773756","long":"126.8442976","imageIndex":17,"items":[{"name":"신광명","tel":"02-2611-2302","addr":"경기도 광명시 광명동 648-4번지","indutype":"건축자재 - 목재·석재·철물","category":"other"},{"name":"청파농원","tel":"02-2637-7323","addr":"경기도 광명시 광명동 648-4번지","indutype":"문화.취미 - 화원","category":"other"},{"name":"황해자연석꽃농원","tel":"02-2683-2302","addr":"경기도 광명시 광명동 648-4번지","indutype":"문화.취미 - 화원","category":"other"}]},{"lat":"37.47462724","long":"126.855092","imageIndex":17,"items":[{"name":"신광유통","tel":"02-2619-1771","addr":"경기도 광명시 광명동 49-117번지","indutype":"사무통신 - 사무용 OA기기","category":"other"}]},{"lat":"37.48129495","long":"126.8483179","imageIndex":17,"items":[{"name":"신명이티에스 주식회사","tel":"02-2066-5356","addr":"경기도 광명시 광명동 159-57번지 3층","indutype":"건축자재 - 조명기구","category":"other"}]},{"lat":"37.47109788","long":"126.850012","imageIndex":17,"items":[{"name":"신성배관철물","tel":"031-2683-4832","addr":"경기도 광명시 광명동 374-57번지","indutype":"건축자재 - 목재·석재·철물","category":"other"}]},{"lat":"37.48087916","long":"126.8616485","imageIndex":17,"items":[{"name":"신성케미칼","tel":"02-2686-4631","addr":"경기도 광명시 광명동 24-31번지 공주빌라 302호","indutype":"직물 - 기타직물","category":"other"}]},{"lat":"37.4764044","long":"126.8497412","imageIndex":17,"items":[{"name":"신앙촌상회","tel":"02-6012-0300","addr":"경기도 광명시 광명동 273-58번지 102호","indutype":"신변잡화 - 기타잡화","category":"other"}]},{"lat":"37.48078831","long":"126.8467362","imageIndex":17,"items":[{"name":"신우건설기계","tel":"02-2681-1184","addr":"경기도 광명시 광명동 679-98번지","indutype":"기타 - 기계공구","category":"other"}]},{"lat":"37.48468354","long":"126.8560446","imageIndex":17,"items":[{"name":"신의한수","tel":"02-111-1111","addr":"경기도 광명시 광명동 52-4번지 화영하이츠 301호","indutype":"용역 서비스 - 사무서비스","category":"other"}]},{"lat":"37.48123258","long":"126.855927","imageIndex":17,"items":[{"name":"신진상회","tel":"02-2625-4424","addr":"경기도 광명시 광명동 140-13번지","indutype":"의류 - 내의판매","category":"other"}]},{"lat":"37.48062941","long":"126.8492351","imageIndex":17,"items":[{"name":"신화공구","tel":"02-2066-0989","addr":"경기도 광명시 광명동 185-8번지 1층","indutype":"기타 - 기계공구","category":"other"}]},{"lat":"37.47778849","long":"126.8541022","imageIndex":17,"items":[{"name":"써니공조","tel":"","addr":"경기도 광명시 광명동 158-786번지 금반석시티빌20차 601호","indutype":"용역 서비스 - 기타용역서비스","category":"other"}]},{"lat":"37.47493335","long":"126.8478788","imageIndex":17,"items":[{"name":"쏘울덕","tel":"070-8708-6275","addr":"경기도 광명시 광명동 259-11번지 101호","indutype":"의류 - 정장","category":"other"}]},{"lat":"37.47084739","long":"126.8514029","imageIndex":17,"items":[{"name":"씨니크 (CIINIQUE)","tel":"070-4104-4915","addr":"경기도 광명시 광명동 374-141번지 중앙하이츠3차 상가동 1층 103호","indutype":"의류 - 정장","category":"other"}]},{"lat":"37.48112625","long":"126.8573743","imageIndex":17,"items":[{"name":"씨엔","tel":"070-8264-5129","addr":"경기도 광명시 광명동 109-7번지 102호","indutype":"의류 - 정장","category":"other"}]},{"lat":"37.48587875","long":"126.8608702","imageIndex":17,"items":[{"name":"씨유광명1동점","tel":"02-2619-8199","addr":"경기도 광명시 광명동 20-1번지 1층","indutype":"유통업 영리 - 편 의 점","category":"other"}]},{"lat":"37.46865693","long":"126.8505935","imageIndex":17,"items":[{"name":"씨유광명도덕점","tel":"031-898-6569","addr":"경기도 광명시 광명동 741-5번지 대명빌딩 1층","indutype":"유통업 영리 - 편 의 점","category":"other"}]},{"lat":"37.4811291","long":"126.8524563","imageIndex":17,"items":[{"name":"씨유광명미성점","tel":"080-080-3663","addr":"경기도 광명시 광명동 158-185번지 1층","indutype":"유통업 영리 - 편 의 점","category":"other"}]},{"lat":"37.47721157","long":"126.8538773","imageIndex":17,"items":[{"name":"씨유광명새론점","tel":"031-898-6568","addr":"경기도 광명시 광명동 158-775번지 1층","indutype":"유통업 영리 - 편 의 점","category":"other"}]},{"lat":"37.48039933","long":"126.8597387","imageIndex":17,"items":[{"name":"씨유광명센터점","tel":"02-2066-8174","addr":"경기도 광명시 광명동 123-20번지","indutype":"유통업 영리 - 편 의 점","category":"other"}]},{"lat":"37.47843014","long":"126.8556498","imageIndex":17,"items":[{"name":"씨유광명중앙점","tel":"02-2066-1185","addr":"경기도 광명시 광명동 158-558번지 1층","indutype":"유통업 영리 - 편 의 점","category":"other"}]},{"lat":"37.47523917","long":"126.8544917","imageIndex":17,"items":[{"name":"씨유광명타운점","tel":"080-080-3663","addr":"경기도 광명시 광명동 49-79번지 1층","indutype":"유통업 영리 - 편 의 점","category":"other"}]},{"lat":"37.47318254","long":"126.8526304","imageIndex":17,"items":[{"name":"씨유광명필점","tel":"02-2066-6744","addr":"경기도 광명시 광명동 337-33번지","indutype":"유통업 영리 - 편 의 점","category":"other"}]},{"lat":"37.48843144","long":"126.8632851","imageIndex":17,"items":[{"name":"씨유광명행복점","tel":"02-2611-8267","addr":"경기도 광명시 광명동 9-44번지 1층","indutype":"유통업 영리 - 편 의 점","category":"other"}]},{"lat":"37.48001513","long":"126.8550362","imageIndex":17,"items":[{"name":"씨티크럽","tel":"02-2612-2068","addr":"경기도 광명시 광명동 158-76번지","indutype":"의류 - 정장","category":"other"}]},{"lat":"37.48444805","long":"126.8624445","imageIndex":17,"items":[{"name":"씨피 시스템즈(CP SYSTEMS)","tel":"","addr":"경기도 광명시 광명동 76-21번지 신양주택 A동 B02호","indutype":"용역 서비스 - 기타용역서비스","category":"other"}]},{"lat":"37.47934873","long":"126.8482654","imageIndex":17,"items":[{"name":"씽크온 주방가구","tel":"","addr":"경기도 광명시 광명동 172-38번지 산장전원빌라 2층 1호","indutype":"주방용구 - 주방용구","category":"other"}]},{"lat":"37.48143046","long":"126.8556552","imageIndex":17,"items":[{"name":"아날도바시니","tel":"02-2615-2067","addr":"경기도 광명시 광명동 141-1번지","indutype":"의류 - 정장","category":"other"}]},{"lat":"37.4842071","long":"126.8569274","imageIndex":17,"items":[{"name":"아놀드헬스","tel":"02-2612-3111","addr":"경기도 광명시 광명동 57-2번지 4층","indutype":"회원제형태 - 레져업소","category":"other"}]},{"lat":"37.48248943","long":"126.8595651","imageIndex":17,"items":[{"name":"아라숍","tel":"02-2612-7071","addr":"경기도 광명시 광명동 84-1 라이프빌라 202 11/5","indutype":"회원제형태 - 기타4","category":"other"},{"name":"자이로소프텍","tel":"02-2613-2638","addr":"경기도 광명시 광명동 84-1번지 라이프빌라 106호","indutype":"용역 서비스 - 소프트웨어","category":"other"}]},{"lat":"37.47996222","long":"126.8559634","imageIndex":17,"items":[{"name":"아름다운","tel":"02-355-8034","addr":"경기도 광명시 광명동 158-49번지","indutype":"의류 - 정장","category":"other"}]},{"lat":"37.45624316","long":"126.8452388","imageIndex":17,"items":[{"name":"아름드리플라워","tel":"02-2688-9911","addr":"경기도 광명시 광명동 672-1","indutype":"문화.취미 - 화원","category":"other"}]},{"lat":"37.48056642","long":"126.8492917","imageIndex":17,"items":[{"name":"아름상사","tel":"02-2682-8187","addr":"경기도 광명시 광명동 185-3번지 KCC페인트","indutype":"건축자재 - 페인트","category":"other"}]},{"lat":"37.48051081","long":"126.8551483","imageIndex":17,"items":[{"name":"아모르","tel":"02-2614-1100","addr":"경기도 광명시 광명동 158-69번지","indutype":"가구 - 일반가구","category":"other"}]},{"lat":"37.47356837","long":"126.8513748","imageIndex":17,"items":[{"name":"아울렛D.C마트","tel":"02-2685-5515","addr":"경기도 광명시 광명동 342-12번지 지하층","indutype":"신변잡화 - 기타잡화","category":"other"}]},{"lat":"37.48337867","long":"126.8573134","imageIndex":17,"items":[{"name":"아이디어미용실","tel":"02-2612-9730","addr":"경기도 광명시 광명동 59-10번지","indutype":"신변잡화 - 기타잡화","category":"other"}]},{"lat":"37.48076739","long":"126.85863","imageIndex":17,"items":[{"name":"아이디어인쇄","tel":"02-2686-2108","addr":"경기도 광명시 광명동 116-10번지 1층","indutype":"서적문구 - 출판 및 인쇄물","category":"other"}]},{"lat":"37.47615296","long":"126.8575423","imageIndex":17,"items":[{"name":"아이온뱅크","tel":"02-323-2277","addr":"경기도 광명시 광명동 41-174번지 1층 102호 상사","indutype":"사무통신 - 통신기기","category":"other"}]},{"lat":"37.48998974","long":"126.8629316","imageIndex":17,"items":[{"name":"아이텍","tel":"02-2688-1586","addr":"경기도 광명시 광명동 7-97번지","indutype":"건축자재 - 기타건축자재","category":"other"}]},{"lat":"37.4743493","long":"126.849101","imageIndex":17,"items":[{"name":"아지트","tel":"02-2615-6097","addr":"경기도 광명시 광명동 263-27번지","indutype":"의류 - 정장","category":"other"},{"name":"효성전기건설공사","tel":"02-2616-4107","addr":"경기도 광명시 광명동 263-27번지","indutype":"용역 서비스 - 기타용역서비스","category":"other"}]},{"lat":"37.48448779","long":"126.8580462","imageIndex":17,"items":[{"name":"아트정보통신","tel":"02-6465-3737","addr":"경기도 광명시 광명동 45-9번지 1층","indutype":"사무통신 - 통신기기","category":"other"}]},{"lat":"37.48990209","long":"126.8650123","imageIndex":17,"items":[{"name":"안 디자인","tel":"02-2687-5900","addr":"경기도 광명시 광명동 5-41번지","indutype":"건축자재 - 인테리어전문","category":"other"}]},{"lat":"37.47379286","long":"126.8507865","imageIndex":17,"items":[{"name":"안나수이","tel":"02-2682-9811","addr":"경기도 광명시 광명동 679-71번지","indutype":"의류 - 정장","category":"other"}]},{"lat":"37.48590515","long":"126.86035","imageIndex":17,"items":[{"name":"안전열쇠","tel":"02-2616-6929","addr":"경기도 광명시 광명동 12-6번지 보은빌라 102호","indutype":"건축자재 - 목재·석재·철물","category":"other"}]},{"lat":"37.48992805","long":"126.8640964","imageIndex":17,"items":[{"name":"알누르","tel":"","addr":"경기도 광명시 광명동 6-35번지 양지빌라 203호","indutype":"신변잡화 - 액세서리","category":"other"}]},{"lat":"37.48098376","long":"126.8587313","imageIndex":17,"items":[{"name":"압구정명품구제","tel":"02-835-3155","addr":"경기도 광명시 광명동 116-12번지 1층","indutype":"의류 - 정장","category":"other"},{"name":"예진토탈인테리어","tel":"02-2618-5171","addr":"경기도 광명시 광명동 116-12번지 1층","indutype":"직물 - 카페트,커튼,천막,지물","category":"other"}]},{"lat":"37.4814044","long":"126.8564354","imageIndex":17,"items":[{"name":"액시즈트레이드(Axis Trade)","tel":"070-8232-1944","addr":"경기도 광명시 광명동 105-9번지 1층","indutype":"사무통신 - 통신기기","category":"other"}]},{"lat":"37.47668276","long":"126.8560942","imageIndex":17,"items":[{"name":"엄마의 마음","tel":"02-862-5080","addr":"경기도 광명시 광명동 158-613번지 201호","indutype":"신변잡화 - 기타잡화","category":"other"}]},{"lat":"37.47472461","long":"126.8467375","imageIndex":17,"items":[{"name":"에듀뱅크","tel":"02-2616-3451","addr":"경기도 광명시 광명동 784번지 제일풍경채아파트","indutype":"회원제형태 - 서적","category":"other"}]},{"lat":"37.48026752","long":"126.8551262","imageIndex":17,"items":[{"name":"에듀케어","tel":"031-384-8889","addr":"경기도 광명시 광명동 158-72번지","indutype":"레져용품 - 스포츠·레져용품","category":"other"}]},{"lat":"37.47948951","long":"126.8526291","imageIndex":17,"items":[{"name":"에벤에셀기업","tel":"02-2687-4675","addr":"경기도 광명시 광명동 158-847번지","indutype":"신변잡화 - 시계","category":"other"}]},{"lat":"37.46893284","long":"126.8550128","imageIndex":17,"items":[{"name":"에스테틱","tel":"02-2614-5557","addr":"경기도 광명시 광명동 732번지 광명중앙하이츠 상가 209호","indutype":"회원제형태 - 기타4","category":"other"}]},{"lat":"37.4842377","long":"126.8598444","imageIndex":17,"items":[{"name":"에스티유통","tel":"070-4157-4652","addr":"경기도 광명시 광명동 66-3번지 대림하이츠 303호","indutype":"회원제형태 - 기타3","category":"other"}]},{"lat":"37.4768788","long":"126.8543528","imageIndex":17,"items":[{"name":"에어컨나라","tel":"02-2681-0904","addr":"경기도 광명시 광명동 158-750번지 광명쉐르빌 B02호","indutype":"전기제품 - 냉열기기","category":"other"}]},{"lat":"37.47826285","long":"126.8588157","imageIndex":17,"items":[{"name":"에이빌리지","tel":"070-4297-0090","addr":"경기도 광명시 광명동 126-18번지","indutype":"의류 - 정장","category":"other"}]},{"lat":"37.48021265","long":"126.8544818","imageIndex":17,"items":[{"name":"에이스유통","tel":"02-2688-1996","addr":"경기도 광명시 광명동 158-87번지 1층","indutype":"서적문구 - 문구용품","category":"other"},{"name":"에이스유통","tel":"02-2688-1996","addr":"경기도 광명시 광명동 158-87번지 1층","indutype":"서적문구 - 문구용품","category":"other"}]},{"lat":"37.48084619","long":"126.8567644","imageIndex":17,"items":[{"name":"에이스이불집","tel":"02-2066-7963","addr":"경기도 광명시 광명동 138-3번지 1층","indutype":"직물 - 침구·수예점","category":"other"}]},{"lat":"37.47717886","long":"126.8494343","imageIndex":17,"items":[{"name":"에이원","tel":"","addr":"경기도 광명시 광명동 270-137번지 201호","indutype":"가구 - 기타가구","category":"other"}]},{"lat":"37.48298725","long":"126.8614523","imageIndex":17,"items":[{"name":"에이큐(AQ)","tel":"02-2614-2306","addr":"경기도 광명시 광명동 78-58번지 인화연립 201호","indutype":"신변잡화 - 액세서리","category":"other"}]},{"lat":"37.47406706","long":"126.8538496","imageIndex":17,"items":[{"name":"에코플러스","tel":"031-1800-6860","addr":"경기도 광명시 광명동 298-8번지 103호","indutype":"용역 서비스 - 종합용역","category":"other"}]},{"lat":"37.47604487","long":"126.8575651","imageIndex":17,"items":[{"name":"엔샵컴퓨터","tel":"","addr":"경기도 광명시 광명동 41-372번지 지층","indutype":"사무통신 - 컴퓨터","category":"other"}]},{"lat":"37.47871141","long":"126.8572321","imageIndex":17,"items":[{"name":"엘레강스 스포츠","tel":"02-2611-5116","addr":"경기도 광명시 광명동 150-3번지","indutype":"레져용품 - 스포츠·레져용품","category":"other"}]},{"lat":"37.48790586","long":"126.8607646","imageIndex":17,"items":[{"name":"엘레망스","tel":"02-883-7728","addr":"경기도 광명시 광명동 7-58번지 진우빌라 지층","indutype":"신변잡화 - 신발","category":"other"}]},{"lat":"37.47673345","long":"126.8534034","imageIndex":17,"items":[{"name":"엘리트광명점","tel":"02-2686-8691","addr":"경기도 광명시 광명동 158-771번지 1층","indutype":"의류 - 기타의류","category":"other"}]},{"lat":"37.47629512","long":"126.8559253","imageIndex":17,"items":[{"name":"엠신디코리아","tel":"031-419-5114","addr":"경기도 광명시 광명동 158-699번지 쌍용빌라","indutype":"회원제형태 - 기타4","category":"other"}]},{"lat":"37.4734533","long":"126.8460505","imageIndex":17,"items":[{"name":"엠케이퍼니처","tel":"02-6396-8666","addr":"경기도 광명시 광명동 785번지 광명해모로이연","indutype":"가구 - 일반가구","category":"other"}]},{"lat":"37.4833241","long":"126.8569065","imageIndex":17,"items":[{"name":"여성의류할인매장","tel":"02-2616-6678","addr":"경기도 광명시 광명동 91-14번지 1층","indutype":"의류 - 정장","category":"other"}]},{"lat":"37.47612662","long":"126.8509288","imageIndex":17,"items":[{"name":"여쉬","tel":"070-4256-3976","addr":"경기도 광명시 광명동 276-6번지 삼성빌라","indutype":"의류 - 정장","category":"other"}]},{"lat":"37.48612895","long":"126.8591511","imageIndex":17,"items":[{"name":"연수샵","tel":"070-4018-2124","addr":"경기도 광명시 광명동 12-26번지 성해빌라","indutype":"회원제형태 - 기타1","category":"other"}]},{"lat":"37.47490827","long":"126.8493711","imageIndex":17,"items":[{"name":"연에스테틱","tel":"02-2612-2388","addr":"경기도 광명시 광명동 266-4번지 1층","indutype":"회원제형태 - 기타4","category":"other"}]},{"lat":"37.47329407","long":"126.8482892","imageIndex":17,"items":[{"name":"열린사회","tel":"02-2625-0770","addr":"경기도 광명시 광명동 352-37번지","indutype":"용역 서비스 - 종합용역","category":"other"}]},{"lat":"37.48045891","long":"126.8497668","imageIndex":17,"items":[{"name":"영광기업","tel":"02-2060-4727","addr":"경기도 광명시 광명동 158-922번지 효성빌딩","indutype":"용역 서비스 - 기타용역서비스","category":"other"},{"name":"현대전파사","tel":"02-2682-3022","addr":"경기도 광명시 광명동 158-922번지","indutype":"수리서비스 - 기타수리서비스","category":"other"}]},{"lat":"37.47407253","long":"126.8510686","imageIndex":17,"items":[{"name":"영광비니루","tel":"02-684-1929","addr":"경기도 광명시 광명동 290-12번지 삼성아트빌7차","indutype":"직물 - 카페트,커튼,천막,지물","category":"other"}]},{"lat":"37.47773411","long":"126.8538423","imageIndex":17,"items":[{"name":"영광상사","tel":"02-2683-4767","addr":"경기도 광명시 광명동 158-784번지 1층","indutype":"건축자재 - 페인트","category":"other"}]},{"lat":"37.48128993","long":"126.8585951","imageIndex":17,"items":[{"name":"영동천막,앵글","tel":"02-2682-6635","addr":"경기도 광명시 광명동 113-4.1층4","indutype":"직물 - 카페트,커튼,천막,지물","category":"other"}]},{"lat":"37.47724014","long":"126.8550982","imageIndex":17,"items":[{"name":"영빈시스템","tel":"02-1577-3913","addr":"경기도 광명시 광명동 158-650번지 승화빌라 101호","indutype":"회원제형태 - 기타4","category":"other"}]},{"lat":"37.48043124","long":"126.8563695","imageIndex":17,"items":[{"name":"영상플레이어.MP3.USB.SD","tel":"","addr":"경기도 광명시 광명동 138-8번지 1층 일부","indutype":"전기제품 - 가전제품","category":"other"}]},{"lat":"37.48807072","long":"126.8630144","imageIndex":17,"items":[{"name":"영원전기 자전거","tel":"02-2681-4383","addr":"경기도 광명시 광명동 9-29번지","indutype":"레져용품 - 스포츠·레져용품","category":"other"}]},{"lat":"37.47710234","long":"126.8529957","imageIndex":17,"items":[{"name":"영진광고기획","tel":"02-2615-1560","addr":"경기도 광명시 광명동 200-6번지 한진 B동 2305-1호 상가","indutype":"용역 서비스 - 종합용역","category":"other"},{"name":"유명스튜디오","tel":"02-681-2110","addr":"경기도 광명시 광명동 200-6번지 한진상가 B-2201호","indutype":"광학제품 - 사진관","category":"other"}]},{"lat":"37.47704385","long":"126.8566474","imageIndex":17,"items":[{"name":"예담스튜디오","tel":"02-2689-7666","addr":"경기도 광명시 광명동 158-468번지","indutype":"광학제품 - 사진관","category":"other"}]},{"lat":"37.47690703","long":"126.8482591","imageIndex":17,"items":[{"name":"예림공방","tel":"","addr":"경기도 광명시 광명동 227-7번지 호성빌딩 103호","indutype":"문화.취미 - 문화취미기타","category":"other"}]},{"lat":"37.47527395","long":"126.8465328","imageIndex":17,"items":[{"name":"예술은행","tel":"02-6015-3173","addr":"경기도 광명시 광명동 779번지 현진에버빌아파트","indutype":"문화.취미 - 화방·표구점","category":"other"}]},{"lat":"37.47754002","long":"126.8571552","imageIndex":17,"items":[{"name":"예술하우스 타플","tel":"02-2619-4666","addr":"경기도 광명시 광명동 158-409번지","indutype":"레져용품 - 악기점","category":"other"}]},{"lat":"37.47462186","long":"126.8508527","imageIndex":17,"items":[{"name":"오로라","tel":"070-2699-0870","addr":"경기도 광명시 광명동 290-36번지 신한하이츠 501호","indutype":"의류 - 내의판매","category":"other"}]},{"lat":"37.48237743","long":"126.8563996","imageIndex":17,"items":[{"name":"오로라문방구","tel":"02-2688-5856","addr":"경기도 광명시 광명동 103-7번지 1층","indutype":"서적문구 - 문구용품","category":"other"}]},{"lat":"37.48945657","long":"126.8615984","imageIndex":17,"items":[{"name":"오메가 특수효과","tel":"02-2613-1240","addr":"경기도 광명시 광명동 7-20번지 우성주택","indutype":"용역 서비스 - 기타용역서비스","category":"other"}]},{"lat":"37.4778168","long":"126.8551197","imageIndex":17,"items":[{"name":"옥색신","tel":"02-2066-5582","addr":"경기도 광명시 광명동 158-1039번지 101호","indutype":"수리서비스 - 세탁소","category":"other"}]},{"lat":"37.4789626","long":"126.8563497","imageIndex":17,"items":[{"name":"올포유광명점","tel":"02-2060-3113","addr":"경기도 광명시 광명동 150-14번지","indutype":"레져용품 - 스포츠·레져용품","category":"other"},{"name":"완전당","tel":"02-2613-2209","addr":"경기도 광명시 광명동 150-14번지","indutype":"신변잡화 - 시계","category":"other"}]},{"lat":"37.47412452","long":"126.8494632","imageIndex":17,"items":[{"name":"옷방","tel":"02-2611-7654","addr":"경기도 광명시 광명동 263-34번지 우성빌딩 1층 5호","indutype":"의류 - 정장","category":"other"}]},{"lat":"37.48356702","long":"126.8566234","imageIndex":17,"items":[{"name":"와우컴퍼니","tel":"02-6349-2532","addr":"경기도 광명시 광명동 57-9번지 2층","indutype":"신변잡화 - 기타잡화","category":"other"},{"name":"재건건재","tel":"02-2612-2309","addr":"경기도 광명시 광명동 57-9번지 1층","indutype":"건축자재 - 기타건축자재","category":"other"}]},{"lat":"37.48017808","long":"126.8556577","imageIndex":17,"items":[{"name":"왕실침구커텐","tel":"02-2687-1616","addr":"경기도 광명시 광명동 158-58번지","indutype":"직물 - 침구·수예점","category":"other"}]},{"lat":"37.48929548","long":"126.8625146","imageIndex":17,"items":[{"name":"요리조리쿡","tel":"","addr":"경기도 광명시 광명동 9-19번지 천금주택 102호","indutype":"문화.취미 - 문화취미기타","category":"other"}]},{"lat":"37.47271257","long":"126.8514896","imageIndex":17,"items":[{"name":"용성전기조명","tel":"02-2625-5562","addr":"경기도 광명시 광명동 339-1번지","indutype":"전기제품 - 기타전기제품","category":"other"}]},{"lat":"37.47320846","long":"126.8517599","imageIndex":17,"items":[{"name":"우광통신","tel":"02-2060-8977","addr":"경기도 광명시 광명동 342-7번지 1층","indutype":"사무통신 - 통신기기","category":"other"}]},{"lat":"37.46107345","long":"126.8528807","imageIndex":17,"items":[{"name":"우동화원","tel":"02-2060-2882","addr":"경기도 광명시 광명동 588-2번지","indutype":"문화.취미 - 화원","category":"other"}]},{"lat":"37.47544175","long":"126.8580071","imageIndex":17,"items":[{"name":"우리공조","tel":"02-2697-6263","addr":"경기도 광명시 광명동 41-1번지 동방연립 4동 201호","indutype":"수리서비스 - 가정용품수리","category":"other"}]},{"lat":"37.47837736","long":"126.8566787","imageIndex":17,"items":[{"name":"우리난청오티콘보청기광명점","tel":"02-2681-7100","addr":"경기도 광명시 광명동 158-491번지 누가빌딩 3층","indutype":"기타의료기관 - 기타의료기관 및 기타","category":"other"}]},{"lat":"37.47764163","long":"126.8519658","imageIndex":17,"items":[{"name":"우리열쇠","tel":"02-2686-1403","addr":"경기도 광명시 광명동 200-6번지 한진아파트","indutype":"기타 - 기계공구","category":"other"}]},{"lat":"37.47127005","long":"126.850769","imageIndex":17,"items":[{"name":"우리하우징","tel":"02-2066-9934","addr":"경기도 광명시 광명동 374-85번지","indutype":"직물 - 카페트,커튼,천막,지물","category":"other"}]},{"lat":"37.47220847","long":"126.8518524","imageIndex":17,"items":[{"name":"우림통상","tel":"02-2611-8283","addr":"경기도 광명시 광명동 339-2번지 극동메모리스 101동 203호","indutype":"의류 - 정장","category":"other"}]},{"lat":"37.48176393","long":"126.8557337","imageIndex":17,"items":[{"name":"우아미가구","tel":"02-2688-4688","addr":"경기도 광명시 광명동 102-11번지 1층","indutype":"가구 - 일반가구","category":"other"}]},{"lat":"37.47295802","long":"126.8532074","imageIndex":17,"items":[{"name":"우의정보통신","tel":"070-8750-5820","addr":"경기도 광명시 광명동 334-29번지","indutype":"사무통신 - 통신기기","category":"other"}]},{"lat":"37.47870904","long":"126.8553214","imageIndex":17,"items":[{"name":"우일종합시스템","tel":"02-2619-4897","addr":"경기도 광명시 광명동 158-1070번지 1층 1호","indutype":"용역 서비스 - 기타용역서비스","category":"other"}]},{"lat":"37.4590713","long":"126.8444869","imageIndex":17,"items":[{"name":"우정조경","tel":"02-2615-8252","addr":"경기도 광명시 광명동 634-2","indutype":"건축자재 - 인테리어전문","category":"other"}]},{"lat":"37.48060174","long":"126.8558152","imageIndex":17,"items":[{"name":"우정포장봉투","tel":"02-2619-4002","addr":"경기도 광명시 광명동 140-7번지","indutype":"건축자재 - 기타건축자재","category":"other"},{"name":"정이모아","tel":"02-2618-7790","addr":"경기도 광명시 광명동 140-7번지","indutype":"직물 - 침구·수예점","category":"other"},{"name":"진용콜렉션","tel":"02-2615-9663","addr":"경기도 광명시 광명동 140-7번지","indutype":"의류 - 정장","category":"other"}]},{"lat":"37.4897106","long":"126.8630678","imageIndex":17,"items":[{"name":"우주상사","tel":"02-2615-8221","addr":"경기도 광명시 광명동 6-46번지","indutype":"레져용품 - 스포츠·레져용품","category":"other"}]},{"lat":"37.48048431","long":"126.8555667","imageIndex":17,"items":[{"name":"움부리쿠스","tel":"02-2682-2778","addr":"경기도 광명시 광명동 158-30광명중앙시장5-13","indutype":"의류 - 내의판매","category":"other"}]},{"lat":"37.47799136","long":"126.8506763","imageIndex":17,"items":[{"name":"원더우먼","tel":"070-8621-0273","addr":"경기도 광명시 광명동 208-1번지 1층","indutype":"의류 - 정장","category":"other"}]},{"lat":"37.46773735","long":"126.8501545","imageIndex":17,"items":[{"name":"원디자인","tel":"02-3666-3232","addr":"경기도 광명시 광명동 743-1번지 2층","indutype":"용역 서비스 - 종합용역","category":"other"}]},{"lat":"37.4810147","long":"126.8475949","imageIndex":17,"items":[{"name":"원디자인","tel":"02-2614-5900","addr":"경기도 광명시 광명동 159-106번지","indutype":"용역 서비스 - 종합용역","category":"other"}]},{"lat":"37.47371171","long":"126.8507415","imageIndex":17,"items":[{"name":"원앙당","tel":"02-2685-3221","addr":"경기도 광명시 광명동 346번지","indutype":"신변잡화 - 귀금속","category":"other"}]},{"lat":"37.4696792","long":"126.853847","imageIndex":17,"items":[{"name":"원일냉열","tel":"070-8031-4038","addr":"경기도 광명시 광명동 720-3번지 신한빌라 401호","indutype":"용역 서비스 - 기타용역서비스","category":"other"}]},{"lat":"37.47367843","long":"126.8529008","imageIndex":17,"items":[{"name":"원진설비","tel":"02-2668-3795","addr":"경기도 광명시 광명동 337-21번지 청운빌라 102호","indutype":"용역 서비스 - 기타용역서비스","category":"other"}]},{"lat":"37.48351607","long":"126.8591561","imageIndex":17,"items":[{"name":"원프러스원","tel":"02-2683-3747","addr":"경기도 광명시 광명동 63-18번지 1층","indutype":"전기제품 - 가전제품","category":"other"},{"name":"중고세상재활용","tel":"02-2684-7766","addr":"경기도 광명시 광명동 63-18번지 101호","indutype":"신변잡화 - 기타잡화","category":"other"}]},{"lat":"37.4757087","long":"126.8482616","imageIndex":17,"items":[{"name":"월드컴퓨터세탁","tel":"02-2612-0028","addr":"경기도 광명시 광명동 258-1 1층","indutype":"수리서비스 - 세탁소","category":"other"}]},{"lat":"37.46196379","long":"126.8447068","imageIndex":17,"items":[{"name":"월드플라워","tel":"02-2612-9014","addr":"경기도 광명시 광명동 541번지","indutype":"문화.취미 - 화원","category":"other"}]},{"lat":"37.47834878","long":"126.8554352","imageIndex":17,"items":[{"name":"월엔티비","tel":"02-1522-7925","addr":"경기도 광명시 광명동 158-1133번지 102호","indutype":"용역 서비스 - 기타용역서비스","category":"other"}]},{"lat":"37.47096117","long":"126.8558793","imageIndex":17,"items":[{"name":"위즈","tel":"","addr":"경기도 광명시 광명동 716-1번지","indutype":"건축자재 - 조명기구","category":"other"}]},{"lat":"37.47778898","long":"126.8544866","imageIndex":17,"items":[{"name":"윙크펫","tel":"02-6080-9424","addr":"경기도 광명시 광명동 158-664번지 외1필지","indutype":"문화.취미 - 애완동물","category":"other"}]},{"lat":"37.47834776","long":"126.8546212","imageIndex":17,"items":[{"name":"유노커뮤니케이션즈","tel":"070-7807-6056","addr":"경기도 광명시 광명동 158-526번지 보문빌딩 5층 502호","indutype":"용역 서비스 - 종합용역","category":"other"}]},{"lat":"37.46711447","long":"126.8492401","imageIndex":17,"items":[{"name":"유리나라,샷시","tel":"031-318-1787","addr":"경기도 광명시 광명동 746-15번지 제일빌라 101동 301호","indutype":"건축자재 - 보일러·펌프·샷시","category":"other"}]},{"lat":"37.48593308","long":"126.8610962","imageIndex":17,"items":[{"name":"유성냉동","tel":"02-2625-8909","addr":"경기도 광명시 광명동 17-14번지","indutype":"전기제품 - 냉열기기","category":"other"}]},{"lat":"37.47068433","long":"126.8507137","imageIndex":17,"items":[{"name":"유스포츠","tel":"02-2613-5107","addr":"경기도 광명시 광명동 374-186번지","indutype":"레져용품 - 스포츠·레져용품","category":"other"}]},{"lat":"37.48110095","long":"126.8587876","imageIndex":17,"items":[{"name":"유어스캔들","tel":"02-898-1828","addr":"경기도 광명시 광명동 116-13번지 1층","indutype":"신변잡화 - 기타잡화","category":"other"}]},{"lat":"37.47021299","long":"126.8555981","imageIndex":17,"items":[{"name":"유진이네 명품 구제","tel":"","addr":"경기도 광명시 광명동 719-8번지 1층 2호","indutype":"의류 - 기타의류","category":"other"}]},{"lat":"37.47853913","long":"126.8563506","imageIndex":17,"items":[{"name":"유투(U2)","tel":"02-2687-0123","addr":"경기도 광명시 광명동 158-495번지","indutype":"의류 - 정장","category":"other"},{"name":"평안광명스포츠","tel":"02-2682-4782","addr":"경기도 광명시 광명동 158-495번지","indutype":"레져용품 - 스포츠·레져용품","category":"other"}]},{"lat":"37.47840021","long":"126.8533436","imageIndex":17,"items":[{"name":"윤희정에스테틱","tel":"070-4130-8249","addr":"경기도 광명시 광명동 158-799번지 두성노빌리아오피스텔 501호","indutype":"회원제형태 - 기타4","category":"other"}]},{"lat":"37.4804077","long":"126.8592073","imageIndex":17,"items":[{"name":"은성토탈인테리어","tel":"02-2617-0482","addr":"경기도 광명시 광명동 127-14번지","indutype":"건축자재 - 목재·석재·철물","category":"other"},{"name":"컴덱스","tel":"02-2066-8940","addr":"경기도 광명시 광명동 127-14번지 1층","indutype":"사무통신 - 사무용 OA기기","category":"other"}]},{"lat":"37.47390002","long":"126.8500402","imageIndex":17,"items":[{"name":"은혜상회","tel":"02-2612-1844","addr":"경기도 광명시 광명동 348-3번지","indutype":"의류 - 내의판매","category":"other"}]},{"lat":"37.47393603","long":"126.8500175","imageIndex":17,"items":[{"name":"은혜상회","tel":"02-2613-1844","addr":"경기도 광명시 광명동 679-66번지","indutype":"의류 - 내의판매","category":"other"},{"name":"환희신발","tel":"02-2682-7088","addr":"경기도 광명시 광명동 679-66번지","indutype":"신변잡화 - 신발","category":"other"}]},{"lat":"37.47235281","long":"126.8519877","imageIndex":17,"items":[{"name":"은혜종합공사","tel":"02-2683-1106","addr":"경기도 광명시 광명동 338-30번지","indutype":"건축자재 - 기타건축자재","category":"other"}]},{"lat":"37.47787272","long":"126.8495121","imageIndex":17,"items":[{"name":"은혜지물포","tel":"02-2618-1900","addr":"경기도 광명시 광명동 175-3번지 1층","indutype":"직물 - 카페트,커튼,천막,지물","category":"other"}]},{"lat":"37.47651707","long":"126.8532908","imageIndex":17,"items":[{"name":"은희 스킨케어","tel":"02-2612-0287","addr":"경기도 광명시 광명동 158-769번지","indutype":"회원제형태 - 기타4","category":"other"}]},{"lat":"37.4764849","long":"126.8492888","imageIndex":17,"items":[{"name":"을지종합","tel":"02-2613-7494","addr":"경기도 광명시 광명동 273-31번지","indutype":"수리서비스 - 기타수리서비스","category":"other"}]},{"lat":"37.47242756","long":"126.847104","imageIndex":17,"items":[{"name":"이노우에","tel":"02-6015-7227","addr":"경기도 광명시 광명동 785번지 광명해모로이연","indutype":"신변잡화 - 기타잡화","category":"other"}]},{"lat":"37.48892633","long":"126.8627301","imageIndex":17,"items":[{"name":"이레사이언스","tel":"02-2686-8946","addr":"경기도 광명시 광명동 9-22번지 고려주택 B-2","indutype":"수리서비스 - 기타수리서비스","category":"other"}]},{"lat":"37.47876899","long":"126.8528454","imageIndex":17,"items":[{"name":"이레피부관리실","tel":"02-2682-1246","addr":"경기도 광명시 광명동 158-820번지","indutype":"회원제형태 - 기타4","category":"other"}]},{"lat":"37.46926568","long":"126.847574","imageIndex":17,"items":[{"name":"이레홈케어","tel":"","addr":"경기도 광명시 광명동 755-7번지 신흥맨션2차 401호","indutype":"용역 서비스 - 종합용역","category":"other"}]},{"lat":"37.46934717","long":"126.8478791","imageIndex":17,"items":[{"name":"이룸","tel":"02-862-5080","addr":"경기도 광명시 광명동 755-3번지 대흥빌라트 102호","indutype":"신변잡화 - 기타잡화","category":"other"}]},{"lat":"37.47378674","long":"126.8461063","imageIndex":17,"items":[{"name":"이림ENG","tel":"","addr":"경기도 광명시 광명동 785번지 광명해모로이연 114동 1602호","indutype":"용역 서비스 - 기타용역서비스","category":"other"}]},{"lat":"37.47671205","long":"126.8579256","imageIndex":17,"items":[{"name":"이뻐해줄개","tel":"02-2686-1446","addr":"경기도 광명시 광명동 158-372번지 1층","indutype":"문화.취미 - 애완동물","category":"other"}]},{"lat":"37.48476494","long":"126.8562932","imageIndex":17,"items":[{"name":"이석 D.F 산업","tel":"02-2611-7220","addr":"경기도 광명시 광명동 51-4번지 1층 101호,1층창고","indutype":"가구 - 일반가구","category":"other"}]},{"lat":"37.47393233","long":"126.8541777","imageIndex":17,"items":[{"name":"이선공방","tel":"02-2684-2965","addr":"경기도 광명시 광명동 301-33번지 103호","indutype":"신변잡화 - 기타잡화","category":"other"}]},{"lat":"37.47626854","long":"126.8562872","imageIndex":17,"items":[{"name":"이슬이네","tel":"02-2682-9488","addr":"경기도 광명시 광명동 158-1493번지 청명빌딩 1,2층","indutype":"가구 - 일반가구","category":"other"}]},{"lat":"37.47181879","long":"126.8572341","imageIndex":17,"items":[{"name":"이유(2.YOU)","tel":"","addr":"경기도 광명시 광명동 713번지 광명중앙하이츠아파트","indutype":"신변잡화 - 액세서리","category":"other"}]},{"lat":"37.47746252","long":"126.8600947","imageIndex":17,"items":[{"name":"이정숙우리옷","tel":"02-2614-4265","addr":"경기도 광명시 광명동 158-1175번지","indutype":"의류 - 맞춤복점","category":"other"}]},{"lat":"37.47043511","long":"126.8461586","imageIndex":17,"items":[{"name":"이지홈케어","tel":"02-1111-1111","addr":"경기도 광명시 광명동 758-5번지 낙원아트빌 501호","indutype":"용역 서비스 - 종합용역","category":"other"}]},{"lat":"37.48879122","long":"126.8627643","imageIndex":17,"items":[{"name":"이쯤","tel":"","addr":"경기도 광명시 광명동 9-23번지 중앙하이츠빌라 102호","indutype":"문화.취미 - 문화취미기타","category":"other"}]},{"lat":"37.46673787","long":"126.8506426","imageIndex":17,"items":[{"name":"인 유품정리","tel":"02-2616-1799","addr":"경기도 광명시 광명동 746-7번지 우월빌라 A동 B02호","indutype":"회원제형태 - 기타4","category":"other"}]},{"lat":"37.47762596","long":"126.8538199","imageIndex":17,"items":[{"name":"인견옷","tel":"02-2613-2108","addr":"경기도 광명시 광명동 158-781번지 101호","indutype":"의류 - 정장","category":"other"},{"name":"태광건업","tel":"02-2613-7070","addr":"경기도 광명시 광명동 158-781번지","indutype":"건축자재 - 건축용 요업제품","category":"other"}]},{"lat":"37.4767392","long":"126.8508484","imageIndex":17,"items":[{"name":"인쇄나라","tel":"02-6053-5189","addr":"경기도 광명시 광명동 276-10번지","indutype":"서적문구 - 출판 및 인쇄물","category":"other"}]},{"lat":"37.47904063","long":"126.8539076","imageIndex":17,"items":[{"name":"인하서적","tel":"02-2685-5982","addr":"경기도 광명시 광명동 158-791번지 지하1층","indutype":"서적문구 - 일반서적","category":"other"}]},{"lat":"37.48620447","long":"126.8620116","imageIndex":17,"items":[{"name":"일등기업","tel":"02-2625-9936","addr":"경기도 광명시 광명동 16-1번지 1층","indutype":"건축자재 - 보일러·펌프·샷시","category":"other"}]},{"lat":"37.47648824","long":"126.8518777","imageIndex":17,"items":[{"name":"일번지세탁소","tel":"02-2060-1247","addr":"경기도 광명시 광명동 288-16번지 1층","indutype":"수리서비스 - 세탁소","category":"other"}]},{"lat":"37.47307377","long":"126.8521219","imageIndex":17,"items":[{"name":"임마누엘광고기획","tel":"02-2613-6245","addr":"경기도 광명시 광명동 342-18번지 1층","indutype":"용역 서비스 - 종합용역","category":"other"}]},{"lat":"37.47893393","long":"126.8550383","imageIndex":17,"items":[{"name":"임수남임대","tel":"02-2614-1049","addr":"경기도 광명시 광명동 158-509번지","indutype":"신변잡화 - 신발","category":"other"}]},{"lat":"37.48404476","long":"126.8567921","imageIndex":17,"items":[{"name":"잉글랜드제화","tel":"02-686-7120","addr":"경기도 광명시 광명동 57-3번지","indutype":"신변잡화 - 제화","category":"other"},{"name":"토탈패션","tel":"02-2618-7120","addr":"경기도 광명시 광명동 57-3번지 승화빌딩 1층","indutype":"의류 - 정장","category":"other"}]},{"lat":"37.47970955","long":"126.8556473","imageIndex":17,"items":[{"name":"자매수예","tel":"02-2689-4494","addr":"경기도 광명시 광명동 158-53번지 1층","indutype":"직물 - 침구·수예점","category":"other"}]},{"lat":"37.46776842","long":"126.8533195","imageIndex":17,"items":[{"name":"자연미","tel":"02-2060-3438","addr":"경기도 광명시 광명동 729번지 대왕하이츠빌라 101호","indutype":"회원제형태 - 기타4","category":"other"}]},{"lat":"37.47923895","long":"126.8539863","imageIndex":17,"items":[{"name":"작은얼굴인약손명가(광명점)","tel":"02-2066-1733","addr":"경기도 광명시 광명동 158-789번지 203호","indutype":"회원제형태 - 기타4","category":"other"}]},{"lat":"37.48001655","long":"126.8561781","imageIndex":17,"items":[{"name":"잔디","tel":"02-2688-1253","addr":"경기도 광명시 광명동 158-46번지","indutype":"의류 - 정장","category":"other"}]},{"lat":"37.48226689","long":"126.8618154","imageIndex":17,"items":[{"name":"장석중기","tel":"","addr":"경기도 광명시 광명동 79-9번지 오성빌라 301호","indutype":"수리서비스 - 기타수리서비스","category":"other"}]},{"lat":"37.47401451","long":"126.8480164","imageIndex":17,"items":[{"name":"재우테크","tel":"02-2611-3832","addr":"경기도 광명시 광명동 247-32번지 1층","indutype":"주방용구 - 주방용구","category":"other"}]},{"lat":"37.47228884","long":"126.851287","imageIndex":17,"items":[{"name":"전국가전가구재활용","tel":"02-2681-7282","addr":"경기도 광명시 광명동 346-5번지","indutype":"전기제품 - 가전제품","category":"other"}]},{"lat":"37.48348511","long":"126.8559565","imageIndex":17,"items":[{"name":"정.콜렉션가구","tel":"02-2615-6555","addr":"경기도 광명시 광명동 93-2번지","indutype":"가구 - 일반가구","category":"other"}]},{"lat":"37.47609898","long":"126.850454","imageIndex":17,"items":[{"name":"정우애드팜","tel":"070-8712-5271","addr":"경기도 광명시 광명동 276-39번지","indutype":"농업 - 비료,사료,종자","category":"other"}]},{"lat":"37.48062865","long":"126.8557133","imageIndex":17,"items":[{"name":"정운상회","tel":"02-2612-8428","addr":"경기도 광명시 광명동 140-8번지","indutype":"의류 - 기타의류","category":"other"}]},{"lat":"37.46754723","long":"126.849454","imageIndex":17,"items":[{"name":"정해산업보건연구소(주)","tel":"02-2038-7678","addr":"경기도 광명시 광명동 747-6번지 2층","indutype":"기타의료기관 - 기타의료기관 및 기타","category":"other"}]},{"lat":"37.47842762","long":"126.8609521","imageIndex":17,"items":[{"name":"제이 앤 케이(JNK)","tel":"02-2625-1611","addr":"경기도 광명시 광명동 32-46번지 대림빌리지 402호","indutype":"레져용품 - 스포츠·레져용품","category":"other"}]},{"lat":"37.47876341","long":"126.85557","imageIndex":17,"items":[{"name":"제이디엑스 광명점","tel":"02-2613-8208","addr":"경기도 광명시 광명동 158-504번지","indutype":"의류 - 스포츠의류","category":"other"},{"name":"크로커다일 레이디","tel":"02-2683-1401","addr":"경기도 광명시 광명동 158-504번지 1층","indutype":"레져용품 - 스포츠·레져용품","category":"other"}]},{"lat":"37.47409482","long":"126.8544261","imageIndex":17,"items":[{"name":"제이디자인","tel":"02-6205-4930","addr":"경기도 광명시 광명동 298-2번지 1층 103호","indutype":"서적문구 - 출판 및 인쇄물","category":"other"}]},{"lat":"37.47176276","long":"126.8556403","imageIndex":17,"items":[{"name":"제이아트(J ART)","tel":"","addr":"경기도 광명시 광명동 309-1번지 광명신원아파트","indutype":"문화.취미 - 화랑","category":"other"}]},{"lat":"37.48634817","long":"126.8616269","imageIndex":17,"items":[{"name":"제이앤월드","tel":"070-7789-8017","addr":"경기도 광명시 광명동 11-122번지","indutype":"신변잡화 - 액세서리","category":"other"}]},{"lat":"37.47940218","long":"126.8548226","imageIndex":17,"items":[{"name":"제이에스에듀","tel":"02-2613-0388","addr":"경기도 광명시 광명동 158-85번지 403호","indutype":"서적문구 - 일반서적","category":"other"},{"name":"한국문화센터","tel":"02-2619-2772","addr":"경기도 광명시 광명동 158-85번지","indutype":"문화.취미 - 문화취미기타","category":"other"}]},{"lat":"37.48154402","long":"126.8528172","imageIndex":17,"items":[{"name":"제이에이치홀딩스","tel":"02-6404-3727","addr":"경기도 광명시 광명동 148-1번지 2층","indutype":"의류 - 정장","category":"other"}]},{"lat":"37.4696798","long":"126.8543218","imageIndex":17,"items":[{"name":"제이엠티(JMT)","tel":"02-2614-7410","addr":"경기도 광명시 광명동 720-8번지 대영빌딩","indutype":"신변잡화 - 기타잡화","category":"other"},{"name":"혜은설비","tel":"032-208-7379","addr":"경기도 광명시 광명동 720-8번지 대영빌딩 4층","indutype":"용역 서비스 - 기타용역서비스","category":"other"}]},{"lat":"37.48262557","long":"126.8603789","imageIndex":17,"items":[{"name":"제이케이강업","tel":"02-2684-6001","addr":"경기도 광명시 광명동 69-9번지","indutype":"건축자재 - 기타건축자재","category":"other"}]},{"lat":"37.47982203","long":"126.8519614","imageIndex":17,"items":[{"name":"제일광고","tel":"02-2687-9947","addr":"경기도 광명시 광명동 158-853번지","indutype":"용역 서비스 - 종합용역","category":"other"},{"name":"한스인력","tel":"02-1688-2573","addr":"경기도 광명시 광명동 158-853번지 4층","indutype":"용역 서비스 - 종합용역","category":"other"}]},{"lat":"37.48012426","long":"126.85585","imageIndex":17,"items":[{"name":"제일상사","tel":"02-2611-3504","addr":"경기도 광명시 광명동 158-57번지 1층","indutype":"의류 - 정장","category":"other"},{"name":"제일상사","tel":"02-2611-3504","addr":"경기도 광명시 광명동 158-57번지 1층","indutype":"의류 - 내의판매","category":"other"}]},{"lat":"37.46884721","long":"126.8514296","imageIndex":17,"items":[{"name":"제일현수막","tel":"02-2685-4256","addr":"경기도 광명시 광명동 419-14번지 1층","indutype":"용역 서비스 - 종합용역","category":"other"}]},{"lat":"37.47506974","long":"126.8559051","imageIndex":17,"items":[{"name":"조선일보북광명지국","tel":"02-2066-7672","addr":"경기도 광명시 광명동 43-32번지 1층","indutype":"서적문구 - 정기간행물","category":"other"}]},{"lat":"37.48218239","long":"126.8589891","imageIndex":17,"items":[{"name":"조아패션","tel":"031-000-0000","addr":"경기도 광명시 광명동 85-5번지 1층","indutype":"의류 - 정장","category":"other"}]},{"lat":"37.47803952","long":"126.8603989","imageIndex":17,"items":[{"name":"조은미소","tel":"02-895-4370","addr":"경기도 광명시 광명동 32-120번지","indutype":"유통업 영리 - 기타유통업","category":"other"}]},{"lat":"37.47854094","long":"126.8578203","imageIndex":17,"items":[{"name":"조이너스","tel":"02-2681-6768","addr":"경기도 광명시 광명동 149-10번지 1층","indutype":"의류 - 스포츠의류","category":"other"}]},{"lat":"37.46126315","long":"126.8532647","imageIndex":17,"items":[{"name":"조이제빙기","tel":"02-2618-5870","addr":"경기도 광명시 광명동 586-1번지","indutype":"주방용구 - 주방용구","category":"other"}]},{"lat":"37.47060317","long":"126.8506573","imageIndex":17,"items":[{"name":"조이텔레콤","tel":"02-722-4887","addr":"경기도 광명시 광명동 374-151번지","indutype":"사무통신 - 통신기기","category":"other"}]},{"lat":"37.47420524","long":"126.8491804","imageIndex":17,"items":[{"name":"조화꽃집","tel":"02-2066-4117","addr":"경기도 광명시 광명동 263-29번지 1층","indutype":"문화.취미 - 화원","category":"other"}]},{"lat":"37.48126022","long":"126.8493242","imageIndex":17,"items":[{"name":"종합특장","tel":"02-481-9799","addr":"경기도 광명시 광명동 159-72번지 금반석씨티빌 B동 301호","indutype":"회원제형태 - 기타4","category":"other"}]},{"lat":"37.48573332","long":"126.8598189","imageIndex":17,"items":[{"name":"좋은번호","tel":"02-2066-6305","addr":"경기도 광명시 광명동 12-180번지 2층","indutype":"기타 - 기타 전문점","category":"other"}]},{"lat":"37.47681881","long":"126.8568174","imageIndex":17,"items":[{"name":"주식회사 글로벌패밀리","tel":"02-2060-9861","addr":"경기도 광명시 광명동 158-449번지 2층","indutype":"서적문구 - 출판 및 인쇄물","category":"other"}]},{"lat":"37.48101706","long":"126.8494039","imageIndex":17,"items":[{"name":"주식회사 머신컴퍼니","tel":"02-2617-8277","addr":"경기도 광명시 광명동 159-22번지 1층","indutype":"주방용구 - 주방용구","category":"other"}]},{"lat":"37.48160096","long":"126.8551009","imageIndex":17,"items":[{"name":"주식회사 몽트리","tel":"02-2615-1616","addr":"경기도 광명시 광명동 142-1번지","indutype":"가구 - 일반가구","category":"other"}]},{"lat":"37.46884746","long":"126.8516218","imageIndex":17,"items":[{"name":"주식회사 엠씨에프","tel":"070-8868-3560","addr":"경기도 광명시 광명동 419-10번지 B01호","indutype":"신변잡화 - 기타잡화","category":"other"}]},{"lat":"37.4842679","long":"126.8550957","imageIndex":17,"items":[{"name":"주식회사 팀모레타","tel":"070-4823-0908","addr":"경기도 광명시 광명동 53-13번지 201호","indutype":"용역 서비스 - 종합용역","category":"other"}]},{"lat":"37.47878905","long":"126.854462","imageIndex":17,"items":[{"name":"주식회사 포원솔루션그룹","tel":"031-000-0000","addr":"경기도 광명시 광명동 158-514번지 1101호","indutype":"용역 서비스 - 기타용역서비스","category":"other"}]},{"lat":"37.48365605","long":"126.8557639","imageIndex":17,"items":[{"name":"주식회사광명일보","tel":"02-2687-7711","addr":"경기도 광명시 광명동 94-1번지 2층","indutype":"용역 서비스 - 종합용역","category":"other"}]},{"lat":"37.47607153","long":"126.8572598","imageIndex":17,"items":[{"name":"주식회사늘푸른가게","tel":"02-2686-8994","addr":"경기도 광명시 광명동 692-2번지","indutype":"신변잡화 - 기타잡화","category":"other"}]},{"lat":"37.46751943","long":"126.8488663","imageIndex":17,"items":[{"name":"주식회사우먼센스","tel":"055-375-8329","addr":"경기도 광명시 광명동 747-19번지 리츠펠리스 B동 101호","indutype":"주방용구 - 주방용구","category":"other"}]},{"lat":"37.47487683","long":"126.8529549","imageIndex":17,"items":[{"name":"주연테크","tel":"070-7736-7929","addr":"경기도 광명시 광명동 295-42번지 대송빌라 201호","indutype":"사무통신 - 컴퓨터","category":"other"}]},{"lat":"37.46135226","long":"126.8524846","imageIndex":17,"items":[{"name":"중고왕국","tel":"","addr":"경기도 광명시 광명동 593-4번지","indutype":"신변잡화 - 기타잡화","category":"other"}]},{"lat":"37.48209758","long":"126.8559592","imageIndex":17,"items":[{"name":"중소기업가구","tel":"02-2618-3366","addr":"경기도 광명시 광명동 102-17번지 1층","indutype":"가구 - 일반가구","category":"other"}]},{"lat":"37.47990196","long":"126.858236","imageIndex":17,"items":[{"name":"중신번역여행사","tel":"02-3666-9718","addr":"경기도 광명시 광명동 129-8번지 1층","indutype":"여행 - 관광여행","category":"other"}]},{"lat":"37.47974133","long":"126.8522668","imageIndex":17,"items":[{"name":"중앙오토바이","tel":"02-2687-5146","addr":"경기도 광명시 광명동 158-851번지","indutype":"수리서비스 - 기타수리서비스","category":"other"}]},{"lat":"37.48132275","long":"126.8559833","imageIndex":17,"items":[{"name":"중앙유리","tel":"02-2684-3846","addr":"경기도 광명시 광명동 140-14번지","indutype":"건축자재 - 유리","category":"other"}]},{"lat":"37.46801879","long":"126.8518156","imageIndex":17,"items":[{"name":"중앙종합인테리어","tel":"02-2686-1933","addr":"경기도 광명시 광명동 738-5.1층1","indutype":"직물 - 카페트,커튼,천막,지물","category":"other"},{"name":"탁소","tel":"","addr":"경기도 광명시 광명동 738-5번지 1동","indutype":"의류 - 정장","category":"other"}]},{"lat":"37.46359712","long":"126.8466024","imageIndex":17,"items":[{"name":"지2(G2)서비스센터","tel":"02-2684-4720","addr":"경기도 광명시 광명동 506-1번지","indutype":"수리서비스 - 사무·통신기기수리","category":"other"}]},{"lat":"37.46410412","long":"126.8484551","imageIndex":17,"items":[{"name":"지우유통","tel":"050-1111-1111","addr":"경기도 광명시 광명동 504번지","indutype":"신변잡화 - 기타잡화","category":"other"}]},{"lat":"37.46854282","long":"126.8529562","imageIndex":17,"items":[{"name":"진 인테리어","tel":"02-2612-0472","addr":"경기도 광명시 광명동 725-5번지","indutype":"건축자재 - 인테리어전문","category":"other"}]},{"lat":"37.47590403","long":"126.8530094","imageIndex":17,"items":[{"name":"진성기업","tel":"02-2683-0730","addr":"경기도 광명시 광명동 295-11번지","indutype":"건축자재 - 인테리어전문","category":"other"}]},{"lat":"37.48348387","long":"126.8623445","imageIndex":17,"items":[{"name":"진영기전","tel":"031-2616-3330","addr":"경기도 광명시 광명동 77-14번지","indutype":"기타 - 기타 전문점","category":"other"}]},{"lat":"37.48287844","long":"126.8608759","imageIndex":17,"items":[{"name":"진영시스템","tel":"","addr":"경기도 광명시 광명동 70-6번지 목화빌라 201호","indutype":"용역 서비스 - 기타용역서비스","category":"other"}]},{"lat":"37.46801405","long":"126.8481531","imageIndex":17,"items":[{"name":"진주방화문","tel":"02-2617-2100","addr":"경기도 광명시 광명동 753-5번지","indutype":"건축자재 - 기타건축자재","category":"other"}]},{"lat":"37.47140515","long":"126.8507348","imageIndex":17,"items":[{"name":"짧냥이네","tel":"031-111-1111","addr":"경기도 광명시 광명동 374-74번지 1층","indutype":"문화.취미 - 애완동물","category":"other"}]},{"lat":"37.47385171","long":"126.8475419","imageIndex":17,"items":[{"name":"착한 사랑가게","tel":"02-6339-8319","addr":"경기도 광명시 광명동 246-56번지 1층 101호","indutype":"의류 - 기타의류","category":"other"}]},{"lat":"37.47429432","long":"126.8554544","imageIndex":17,"items":[{"name":"천국천사","tel":"070-4219-6444","addr":"경기도 광명시 광명동 301-12번지","indutype":"신변잡화 - 기타잡화","category":"other"}]},{"lat":"37.48187264","long":"126.8562084","imageIndex":17,"items":[{"name":"천동약사암","tel":"02-2618-7242","addr":"경기도 광명시 광명동 104-11번지 승화빌라 302호","indutype":"기타 - 기타 전문점","category":"other"}]},{"lat":"37.47854682","long":"126.8552878","imageIndex":17,"items":[{"name":"천사","tel":"070-8160-8401","addr":"경기도 광명시 광명동 158-544번지 1층","indutype":"건축자재 - 건축용 요업제품","category":"other"}]},{"lat":"37.47920732","long":"126.8503799","imageIndex":17,"items":[{"name":"천지납골장묘토탈서비스","tel":"031-1522-5171","addr":"경기도 광명시 광명동 186-11번지 전원주택 101호","indutype":"용역 서비스 - 가례서비스업","category":"other"}]},{"lat":"37.48101374","long":"126.8468714","imageIndex":17,"items":[{"name":"청광기전","tel":"031-985-8476","addr":"경기도 광명시 광명동 776-16번지","indutype":"기타 - 기계공구","category":"other"}]},{"lat":"37.48187907","long":"126.8541507","imageIndex":17,"items":[{"name":"청수셀프빨래방","tel":"02-2684-3706","addr":"경기도 광명시 광명동 145-1번지 1층","indutype":"수리서비스 - 세탁소","category":"other"}]},{"lat":"37.46915586","long":"126.8532376","imageIndex":17,"items":[{"name":"청하정보통신","tel":"02-2684-1063","addr":"경기도 광명시 광명동 724-3번지","indutype":"사무통신 - 통신기기","category":"other"}]},{"lat":"37.47901645","long":"126.85618","imageIndex":17,"items":[{"name":"쵸콜렛","tel":"02-2618-1935","addr":"경기도 광명시 광명동 150-15번지","indutype":"의류 - 정장","category":"other"}]},{"lat":"37.4807135","long":"126.8587658","imageIndex":17,"items":[{"name":"쵸콜렛","tel":"02-2618-1935","addr":"경기도 광명시 광명동 116-9번지","indutype":"의류 - 정장","category":"other"}]},{"lat":"37.48248562","long":"126.8564559","imageIndex":17,"items":[{"name":"축복철물공구건재","tel":"02-2613-0424","addr":"경기도 광명시 광명동 103-19번지 1층","indutype":"회원제형태 - 기타4","category":"other"}]},{"lat":"37.46190995","long":"126.8517601","imageIndex":17,"items":[{"name":"충북상회","tel":"02-2614-9936","addr":"경기도 광명시 광명동 575-23번지","indutype":"신변잡화 - 기타잡화","category":"other"}]},{"lat":"37.47084513","long":"126.8496508","imageIndex":17,"items":[{"name":"캐리어광명센타","tel":"02-2613-8282","addr":"경기도 광명시 광명동 375-2번지","indutype":"수리서비스 - 기타수리서비스","category":"other"}]},{"lat":"37.47262911","long":"126.8567691","imageIndex":17,"items":[{"name":"캔들피아","tel":"","addr":"경기도 광명시 광명동 306-8번지 현대아파트","indutype":"신변잡화 - 기타잡화","category":"other"}]},{"lat":"37.47743296","long":"126.8580146","imageIndex":17,"items":[{"name":"캣츠아이","tel":"02-2683-2121","addr":"경기도 광명시 광명동 158-402번지 102호","indutype":"회원제형태 - 기타4","category":"other"}]},{"lat":"37.4786493","long":"126.8508445","imageIndex":17,"items":[{"name":"컴2119","tel":"02-2683-1192","addr":"경기도 광명시 광명동 189-68번지 현대빌라 301호","indutype":"회원제형태 - 기타4","category":"other"}]},{"lat":"37.47190156","long":"126.8514008","imageIndex":17,"items":[{"name":"컴수리119","tel":"02-6052-5119","addr":"경기도 광명시 광명동 324-12번지","indutype":"수리서비스 - 사무·통신기기수리","category":"other"}]},{"lat":"37.48165114","long":"126.8592614","imageIndex":17,"items":[{"name":"컴퓨터119","tel":"02-2689-2704","addr":"경기도 광명시 광명동 114-5번지 2층","indutype":"사무통신 - 컴퓨터","category":"other"}]},{"lat":"37.47504072","long":"126.8473134","imageIndex":17,"items":[{"name":"코닉","tel":"070-4118-1291","addr":"경기도 광명시 광명동 779번지 현진에버빌아파트","indutype":"회원제형태 - 기타4","category":"other"}]},{"lat":"37.46999059","long":"126.8507377","imageIndex":17,"items":[{"name":"코디박","tel":"02-2614-6249","addr":"경기도 광명시 광명동 419-60번지 정다움아파트","indutype":"건축자재 - 보일러·펌프·샷시","category":"other"}]},{"lat":"37.46171146","long":"126.8515457","imageIndex":17,"items":[{"name":"코리아엔지니어링","tel":"02-2681-8998","addr":"경기도 광명시 광명동 572-13번지","indutype":"용역 서비스 - 기타용역서비스","category":"other"}]},{"lat":"37.47596175","long":"126.848849","imageIndex":17,"items":[{"name":"코코비","tel":"02-807-4902","addr":"경기도 광명시 광명동 273-28","indutype":"신변잡화 - 기타잡화","category":"other"}]},{"lat":"37.47337473","long":"126.8479612","imageIndex":17,"items":[{"name":"크는나무","tel":"02-862-7256","addr":"경기도 광명시 광명동 353-3번지 2층","indutype":"회원제형태 - 기타4","category":"other"}]},{"lat":"37.47745643","long":"126.8480997","imageIndex":17,"items":[{"name":"크리스탈","tel":"02-6013-7234","addr":"경기도 광명시 광명동 216-22번지 B02호","indutype":"의류 - 정장","category":"other"}]},{"lat":"37.47445871","long":"126.8500956","imageIndex":17,"items":[{"name":"크린데이","tel":"02-2060-5080","addr":"경기도 광명시 광명동 281-41번지","indutype":"수리서비스 - 세탁소","category":"other"}]},{"lat":"37.46204361","long":"126.8505956","imageIndex":17,"items":[{"name":"크린데이 무인세탁함 구로점","tel":"02-2060-1934","addr":"경기도 광명시 광명동 572-36번지","indutype":"수리서비스 - 세탁소","category":"other"}]},{"lat":"37.4723809","long":"126.8528242","imageIndex":17,"items":[{"name":"크린아트세탁소","tel":"02-2681-2395","addr":"경기도 광명시 광명동 338번지 1층","indutype":"수리서비스 - 세탁소","category":"other"}]},{"lat":"37.47659558","long":"126.851267","imageIndex":17,"items":[{"name":"크린에이드","tel":"02-2682-9548","addr":"경기도 광명시 광명동 285-5번지","indutype":"수리서비스 - 세탁소","category":"other"}]},{"lat":"37.47376205","long":"126.8478813","imageIndex":17,"items":[{"name":"크린토피아 광명광화로점","tel":"070-8182-8283","addr":"경기도 광명시 광명동 246-54번지","indutype":"수리서비스 - 세탁소","category":"other"}]},{"lat":"37.47610366","long":"126.8471303","imageIndex":17,"items":[{"name":"클린디데이","tel":"02-6082-8245","addr":"경기도 광명시 광명동 779번지 현진에버빌아파트","indutype":"용역 서비스 - 종합용역","category":"other"}]},{"lat":"37.48765375","long":"126.8609008","imageIndex":17,"items":[{"name":"클린한케어","tel":"031-000-0000","addr":"경기도 광명시 광명동 7-159번지","indutype":"용역 서비스 - 종합용역","category":"other"}]},{"lat":"37.4771548","long":"126.8517407","imageIndex":17,"items":[{"name":"킴스시스템","tel":"031-000-0000","addr":"경기도 광명시 광명동 200-6번지 한진아파트","indutype":"사무통신 - 컴퓨터","category":"other"}]},{"lat":"37.4822384","long":"126.8605944","imageIndex":17,"items":[{"name":"탑스보안","tel":"","addr":"경기도 광명시 광명동 81-1번지 무지개빌라 101호","indutype":"전기제품 - 기타전기제품","category":"other"}]},{"lat":"37.49031635","long":"126.864842","imageIndex":17,"items":[{"name":"태림위생","tel":"02-2625-8808","addr":"경기도 광명시 광명동 5-87번지","indutype":"용역 서비스 - 종합용역","category":"other"}]},{"lat":"37.45581873","long":"126.8445163","imageIndex":17,"items":[{"name":"태성주방","tel":"02-2066-4589","addr":"경기도 광명시 광명동 674-3번지 104호","indutype":"주방용구 - 주방용식기","category":"other"},{"name":"해강화원","tel":"02-2614-9411","addr":"경기도 광명시 광명동 674-3번지","indutype":"문화.취미 - 화원","category":"other"}]},{"lat":"37.47153934","long":"126.8499885","imageIndex":17,"items":[{"name":"태양소방산업","tel":"02-2625-9119","addr":"경기도 광명시 광명동 374-181번지 2층","indutype":"용역 서비스 - 기타용역서비스","category":"other"}]},{"lat":"37.47821356","long":"126.8483243","imageIndex":17,"items":[{"name":"텔플러스","tel":"02-2613-7475","addr":"경기도 광명시 광명동 171-11청운하이츠빌라102,8/5","indutype":"사무통신 - 통신기기","category":"other"}]},{"lat":"37.48557124","long":"126.8598984","imageIndex":17,"items":[{"name":"토너선명해","tel":"070-8748-7234","addr":"경기도 광명시 광명동 21-19번지","indutype":"사무통신 - 기타 사무용품","category":"other"}]},{"lat":"37.46871296","long":"126.8521307","imageIndex":17,"items":[{"name":"토다라바 킥복싱 짐","tel":"02-6403-2012","addr":"경기도 광명시 광명동 724-9번지 우진빌딩 5층","indutype":"회원제형태 - 레져업소","category":"other"}]},{"lat":"37.48462731","long":"126.8616527","imageIndex":17,"items":[{"name":"토마스","tel":"02-2067-8349","addr":"경기도 광명시 광명동 74-24번지 대우빌라 B02호","indutype":"의류 - 정장","category":"other"}]},{"lat":"37.47609755","long":"126.8493461","imageIndex":17,"items":[{"name":"토탈LED","tel":"02-2635-3600","addr":"경기도 광명시 광명동 273-16번지 한신빌라지층-1","indutype":"회원제형태 - 기타4","category":"other"}]},{"lat":"37.46837994","long":"126.8524027","imageIndex":17,"items":[{"name":"토탈미래","tel":"02-2611-4949","addr":"경기도 광명시 광명동 725-1번지","indutype":"직물 - 카페트,커튼,천막,지물","category":"other"}]},{"lat":"37.47543069","long":"126.8563453","imageIndex":17,"items":[{"name":"통일사","tel":"02-2685-5944","addr":"경기도 광명시 광명동 43-75번지","indutype":"용역 서비스 - 종합용역","category":"other"}]},{"lat":"37.48693445","long":"126.8621572","imageIndex":17,"items":[{"name":"트레저리","tel":"02-2682-9091","addr":"경기도 광명시 광명동 11-46번지 금반석빌라 502호","indutype":"회원제형태 - 서적","category":"other"}]},{"lat":"37.47590684","long":"126.8552365","imageIndex":17,"items":[{"name":"트윈트레이드","tel":"","addr":"경기도 광명시 광명동 158-1259번지 명문빌라 201호","indutype":"신변잡화 - 기타잡화","category":"other"}]},{"lat":"37.48051604","long":"126.8521522","imageIndex":17,"items":[{"name":"티담(T-DAM)","tel":"070-8844-2429","addr":"경기도 광명시 광명동 158-180번지 302호","indutype":"용역 서비스 - 사무서비스","category":"other"}]},{"lat":"37.48106847","long":"126.84738","imageIndex":17,"items":[{"name":"티앤에스플러스 (주)","tel":"02-823-2031","addr":"경기도 광명시 광명동 159-110번지 크리스탈빌딩 1층","indutype":"사무통신 - 컴퓨터","category":"other"}]},{"lat":"37.46251575","long":"126.8534317","imageIndex":17,"items":[{"name":"티제이티(주)","tel":"02-6406-0086","addr":"경기도 광명시 광명동 580번지","indutype":"기타 - 기계공구","category":"other"}]},{"lat":"37.47959683","long":"126.8592314","imageIndex":17,"items":[{"name":"팔팔세탁소","tel":"02-2681-9162","addr":"경기도 광명시 광명동 126-34번지","indutype":"수리서비스 - 세탁소","category":"other"}]},{"lat":"37.47390555","long":"126.8473722","imageIndex":17,"items":[{"name":"팻바와친구들","tel":"02-6083-0079","addr":"경기도 광명시 광명동 246-57번지","indutype":"레져용품 - 스포츠·레져용품","category":"other"}]},{"lat":"37.47290421","long":"126.8533997","imageIndex":17,"items":[{"name":"펌블펫솝 (Pumble Pet Soap)","tel":"","addr":"경기도 광명시 광명동 334-30번지 2층","indutype":"문화.취미 - 문화취미기타","category":"other"}]},{"lat":"37.48070924","long":"126.8553175","imageIndex":17,"items":[{"name":"편한세무사사무소","tel":"02-2616-2616","addr":"경기도 광명시 광명동 141-10번지 대원빌딩 402호","indutype":"용역 서비스 - 법률회계서비스(개인)","category":"other"}]},{"lat":"37.47559547","long":"126.851269","imageIndex":17,"items":[{"name":"포라우스","tel":"02-2625-7100","addr":"경기도 광명시 광명동 288-88번지 한양빌라 포라우스","indutype":"문화.취미 - 애완동물","category":"other"}]},{"lat":"37.46809757","long":"126.8500181","imageIndex":17,"items":[{"name":"포마이돌(For my doll)","tel":"02-2625-7729","addr":"경기도 광명시 광명동 742-11번지","indutype":"서적문구 - 완구점","category":"other"}]},{"lat":"37.47317886","long":"126.849759","imageIndex":17,"items":[{"name":"폰스쿨(해모로점)","tel":"02-6081-8243","addr":"경기도 광명시 광명동 348-12번지","indutype":"사무통신 - 통신기기","category":"other"}]},{"lat":"37.46918641","long":"126.8489646","imageIndex":17,"items":[{"name":"푸른유통","tel":"02-1111-1111","addr":"경기도 광명시 광명동 749번지 이림빌리지 나동 102호","indutype":"유통업 영리 - 기타유통업","category":"other"}]},{"lat":"37.48268242","long":"126.8553136","imageIndex":17,"items":[{"name":"프뢰벨가베교육원","tel":"02-2617-7779","addr":"경기도 광명시 광명동 97-2번지","indutype":"회원제형태 - 서적","category":"other"},{"name":"해성드림","tel":"02-323-4735","addr":"경기도 광명시 광명동 97-2번지 203호","indutype":"유통업 영리 - 기타유통업","category":"other"}]},{"lat":"37.47626941","long":"126.8569881","imageIndex":17,"items":[{"name":"플러스냉난방","tel":"02-2683-3967","addr":"경기도 광명시 광명동 43-45번지","indutype":"용역 서비스 - 기타용역서비스","category":"other"}]},{"lat":"37.47676211","long":"126.8547035","imageIndex":17,"items":[{"name":"플러스서비스(잠실점)","tel":"02-3468-8138","addr":"경기도 광명시 광명동 158-737번지 금호파크빌라 301호","indutype":"사무통신 - 컴퓨터","category":"other"}]},{"lat":"37.45996234","long":"126.8506224","imageIndex":17,"items":[{"name":"플로라아트","tel":"02-2612-4106","addr":"경기도 광명시 광명동 609번지","indutype":"문화.취미 - 화원","category":"other"}]},{"lat":"37.47968476","long":"126.8574563","imageIndex":17,"items":[{"name":"하나둘피부앤바디","tel":"02-2612-1204","addr":"경기도 광명시 광명동 157-1번지","indutype":"회원제형태 - 기타4","category":"other"}]},{"lat":"37.47462809","long":"126.8487047","imageIndex":17,"items":[{"name":"하나시스템","tel":"02-2688-6548","addr":"경기도 광명시 광명동 263-6번지 지층 2호","indutype":"수리서비스 - 사무·통신기기수리","category":"other"}]},{"lat":"37.47196445","long":"126.851265","imageIndex":17,"items":[{"name":"하나카드기","tel":"070-7006-5011","addr":"경기도 광명시 광명동 324-11번지 2층","indutype":"사무통신 - 통신기기","category":"other"}]},{"lat":"37.47359903","long":"126.8472372","imageIndex":17,"items":[{"name":"하얀세탁소","tel":"02-2683-2309","addr":"경기도 광명시 광명동 243-9","indutype":"수리서비스 - 세탁소","category":"other"}]},{"lat":"37.47762641","long":"126.8471836","imageIndex":17,"items":[{"name":"학교앞문구점","tel":"02-2615-2332","addr":"경기도 광명시 광명동 226-2번지","indutype":"서적문구 - 문구용품","category":"other"}]},{"lat":"37.48248445","long":"126.8555175","imageIndex":17,"items":[{"name":"한국몬테소리연구소","tel":"02-2285-2207","addr":"경기도 광명시 광명동 101-3번지 4층","indutype":"회원제형태 - 서적","category":"other"}]},{"lat":"37.47545831","long":"126.8497092","imageIndex":17,"items":[{"name":"한국유리","tel":"02-2619-5052","addr":"경기도 광명시 광명동 277-29번지 103호","indutype":"건축자재 - 유리","category":"other"}]},{"lat":"37.47162261","long":"126.851684","imageIndex":17,"items":[{"name":"한국전기","tel":"02-2689-7004","addr":"경기도 광명시 광명동 324-30번지 쌍투스빌라 101호","indutype":"전기제품 - 기타전기제품","category":"other"}]},{"lat":"37.46748384","long":"126.8492055","imageIndex":17,"items":[{"name":"한마음욕실인테리어","tel":"02-2611-7001","addr":"경기도 광명시 광명동 747-4번지 1층","indutype":"건축자재 - 인테리어전문","category":"other"}]},{"lat":"37.4776021","long":"126.8563524","imageIndex":17,"items":[{"name":"한미네츄렐","tel":"02-6934-4363","addr":"경기도 광명시 광명동 158-595번지 월드빌라 201호","indutype":"의류 - 내의판매","category":"other"}]},{"lat":"37.4785455","long":"126.8542364","imageIndex":17,"items":[{"name":"한반도투데이","tel":"02-2682-2682","addr":"경기도 광명시 광명동 158-516번지 C&A빌딩","indutype":"서적문구 - 정기간행물","category":"other"}]},{"lat":"37.47560059","long":"126.8482618","imageIndex":17,"items":[{"name":"한빛인테리어","tel":"02-2688-6156","addr":"경기도 광명시 광명동 258-3번지","indutype":"건축자재 - 인테리어전문","category":"other"}]},{"lat":"37.48396107","long":"126.8620723","imageIndex":17,"items":[{"name":"한빛홈케어","tel":"02-845-2078","addr":"경기도 광명시 광명동 74-10번지 성원베스트빌 202호","indutype":"용역 서비스 - 종합용역","category":"other"}]},{"lat":"37.47610155","long":"126.852455","imageIndex":17,"items":[{"name":"한산시스템","tel":"02-687-3604","addr":"경기도 광명시 광명동 288-54번지","indutype":"전기제품 - 냉열기기","category":"other"}]},{"lat":"37.48448294","long":"126.8614834","imageIndex":17,"items":[{"name":"한성전기","tel":"02-2066-0092","addr":"경기도 광명시 광명동 73-2번지 홈런빌 B01호","indutype":"용역 서비스 - 기타용역서비스","category":"other"}]},{"lat":"37.48040284","long":"126.8552616","imageIndex":17,"items":[{"name":"한솔주방","tel":"031-2688-6294","addr":"경기도 광명시 광명동 158-1370번지","indutype":"주방용구 - 주방용구","category":"other"}]},{"lat":"37.47870708","long":"126.8537612","imageIndex":17,"items":[{"name":"한아름화원","tel":"02-2688-4235","addr":"경기도 광명시 광명동 158-794번지","indutype":"문화.취미 - 화원","category":"other"},{"name":"흥농씨앗","tel":"02-2684-1277","addr":"경기도 광명시 광명동 158-794번지","indutype":"농업 - 비료,사료,종자","category":"other"}]},{"lat":"37.46729811","long":"126.8519075","imageIndex":17,"items":[{"name":"한양광고","tel":"02-2612-6074","addr":"경기도 광명시 광명동 736-4번지","indutype":"용역 서비스 - 종합용역","category":"other"}]},{"lat":"37.47987153","long":"126.8554887","imageIndex":17,"items":[{"name":"한진그릇백화점","tel":"02-2685-9967","addr":"경기도 광명시 광명동 158-61번지","indutype":"주방용구 - 주방용식기","category":"other"}]},{"lat":"37.48129676","long":"126.85682","imageIndex":17,"items":[{"name":"합동유통","tel":"02-2616-1750","addr":"경기도 광명시 광명동 106-8번지","indutype":"신변잡화 - 기타잡화","category":"other"}]},{"lat":"37.4622703","long":"126.8517141","imageIndex":17,"items":[{"name":"해드림","tel":"02-304-8009","addr":"경기도 광명시 광명동 572-21번지","indutype":"용역 서비스 - 종합용역","category":"other"}]},{"lat":"37.46101904","long":"126.8525983","imageIndex":17,"items":[{"name":"해피특공대","tel":"","addr":"경기도 광명시 광명동 593번지","indutype":"용역 서비스 - 기타용역서비스","category":"other"}]},{"lat":"37.48107254","long":"126.8576571","imageIndex":17,"items":[{"name":"행복공인중개사사무소","tel":"02-2615-8899","addr":"경기도 광명시 광명동 110-20번지 1층","indutype":"용역 서비스 - 부동산 중개·임대","category":"other"}]},{"lat":"37.4777366","long":"126.8487662","imageIndex":17,"items":[{"name":"향기비꽃농원","tel":"","addr":"경기도 광명시 광명동 213-3번지 대흥빌라 303호","indutype":"문화.취미 - 화원","category":"other"}]},{"lat":"37.47643315","long":"126.8510751","imageIndex":17,"items":[{"name":"헤븐 라이프","tel":"","addr":"경기도 광명시 광명동 276-3번지 삼미빌라 B02호","indutype":"용역 서비스 - 가례서비스업","category":"other"}]},{"lat":"37.45948606","long":"126.8515954","imageIndex":17,"items":[{"name":"현SPORTS","tel":"02-898-3695","addr":"경기도 광명시 광명동 605-1","indutype":"레져용품 - 스포츠·레져용품","category":"other"}]},{"lat":"37.4806238","long":"126.8590938","imageIndex":17,"items":[{"name":"현대부동산","tel":"02-2612-1910","addr":"경기도 광명시 광명동 117-8","indutype":"용역 서비스 - 부동산 중개·임대","category":"other"},{"name":"현대지물","tel":"02-2682-0543","addr":"경기도 광명시 광명동 117-8번지","indutype":"직물 - 카페트,커튼,천막,지물","category":"other"}]},{"lat":"37.47434788","long":"126.8480157","imageIndex":17,"items":[{"name":"현대의류","tel":"02-2619-3928","addr":"경기도 광명시 광명동 259-25번지 수동빌딩 1층 2호","indutype":"의류 - 정장","category":"other"}]},{"lat":"37.48029299","long":"126.8612086","imageIndex":17,"items":[{"name":"현브리스","tel":"031-483-3060","addr":"경기도 광명시 광명동 24-45번지 2층 동","indutype":"의류 - 내의판매","category":"other"}]},{"lat":"37.47965567","long":"126.8557944","imageIndex":17,"items":[{"name":"현우봉투","tel":"02-2612-0524","addr":"경기도 광명시 광명동 158-52번지","indutype":"신변잡화 - 기타잡화","category":"other"}]},{"lat":"37.47398357","long":"126.8591857","imageIndex":17,"items":[{"name":"현인테리어","tel":"031-468-8996","addr":"경기도 광명시 광명동 41-154번지 삼우빌라 202호","indutype":"건축자재 - 인테리어전문","category":"other"}]},{"lat":"37.47560116","long":"126.8557684","imageIndex":17,"items":[{"name":"혹달린 신발","tel":"02-2209-6572","addr":"경기도 광명시 광명동 49-24번지 지층 1호","indutype":"회원제형태 - 기타4","category":"other"}]},{"lat":"37.48112394","long":"126.8555089","imageIndex":17,"items":[{"name":"혼수방가구점","tel":"02-2612-9956","addr":"경기도 광명시 광명동 141-5번지","indutype":"가구 - 일반가구","category":"other"}]},{"lat":"37.47982393","long":"126.8534538","imageIndex":17,"items":[{"name":"홀릭광명점","tel":"02-2617-8447","addr":"경기도 광명시 광명동 158-193번지","indutype":"신변잡화 - 기타잡화","category":"other"}]},{"lat":"37.47763036","long":"126.8573472","imageIndex":17,"items":[{"name":"홈 더 케어","tel":"","addr":"경기도 광명시 광명동 158-407번지 LG빌라 102호","indutype":"용역 서비스 - 종합용역","category":"other"}]},{"lat":"37.47821861","long":"126.852236","imageIndex":17,"items":[{"name":"홈스데이","tel":"02-2685-0238","addr":"경기도 광명시 광명동 200-6번지 한진아파트","indutype":"회원제형태 - 기타4","category":"other"}]},{"lat":"37.47373966","long":"126.8514536","imageIndex":17,"items":[{"name":"홈스마일","tel":"02-2686-8126","addr":"경기도 광명시 광명동 342-1번지 101호","indutype":"직물 - 침구·수예점","category":"other"}]},{"lat":"37.47318454","long":"126.8542131","imageIndex":17,"items":[{"name":"홍은전자","tel":"02-682-0206","addr":"경기도 광명시 광명동 301-28번지","indutype":"전기제품 - 가전제품","category":"other"}]},{"lat":"37.47308065","long":"126.8504601","imageIndex":17,"items":[{"name":"휴먼사이언스","tel":"02-2615-1144","addr":"경기도 광명시 광명동 346-20번지 삼하빌라 A동 202호","indutype":"서적문구 - 과학기자재","category":"other"}]},{"lat":"37.47328891","long":"126.8512624","imageIndex":17,"items":[{"name":"휴먼헬스","tel":"02-2682-6688","addr":"경기도 광명시 광명동 340-5번지 5층","indutype":"회원제형태 - 레져업소","category":"other"}]},{"lat":"37.4775466","long":"126.8481561","imageIndex":17,"items":[{"name":"희성기업","tel":"02-1661-9076","addr":"경기도 광명시 광명동 216-21번지 대승빌라 5층","indutype":"용역 서비스 - 종합용역","category":"other"}]},{"lat":"37.4759345","long":"126.8486794","imageIndex":17,"items":[{"name":"희우모피","tel":"02-834-3726","addr":"경기도 광명시 광명동 269-17번지 102호","indutype":"의류 - 기타의류","category":"other"}]},{"lat":"37.46790316","long":"126.8529914","imageIndex":17,"items":[{"name":"힉스엘이디","tel":"02-2683-9077","addr":"경기도 광명시 광명동 727-1번지 삼익빌라 403호","indutype":"건축자재 - 조명기구","category":"other"}]},{"lat":"37.47631786","long":"126.8525111","imageIndex":17,"items":[{"name":"힐링스킨샵","tel":"02-6012-6957","addr":"경기도 광명시 광명동 288-180번지 장수빌라 102호","indutype":"회원제형태 - 기타4","category":"other"}]}]