[{"lat":"37.24515255","long":"126.96336722","imageIndex":8,"items":[{"name":"가나수치과의원","tel":"031-295-2221","addr":"경기도 수원시 권선구 오목천동 369-3번지 2층","indutype":"의원 - 치과의원","category":"medical"}]},{"lat":"37.245378194","long":"126.96453925","imageIndex":8,"items":[{"name":"다솔한의원","tel":"031-292-0883","addr":"경기도 수원시 권선구 오목천동 314-11번지","indutype":"의원 - 한의원","category":"medical"}]},{"lat":"37.245964235","long":"126.96569983","imageIndex":8,"items":[{"name":"동인당한의원","tel":"031-242-2726","addr":"경기도 수원시 권선구 오목천동 314-18번지","indutype":"의원 - 한의원","category":"medical"}]},{"lat":"37.244882372","long":"126.96376183","imageIndex":8,"items":[{"name":"바다약국","tel":"070-8246-7072","addr":"경기도 수원시 권선구 오목천동 500-1번지","indutype":"약국 - 약국","category":"medical"},{"name":"성모플러스이비인후과","tel":"031-227-8841","addr":"경기도 수원시 권선구 오목천동 500-1번지","indutype":"의원 - 의원","category":"medical"}]},{"lat":"37.245657735","long":"126.96522662","imageIndex":8,"items":[{"name":"사랑이가득한치과의원","tel":"031-295-2804","addr":"경기도 수원시 권선구 오목천동 314-48번지 대유빌딩 401호","indutype":"의원 - 치과의원","category":"medical"},{"name":"센타약국","tel":"031-296-0064","addr":"경기도 수원시 권선구 오목천동 314-48번지 대유빌딩 108,109호","indutype":"약국 - 약국","category":"medical"},{"name":"신성제약주식회사메디칼사업부","tel":"031-245-6170","addr":"경기도 수원시 권선구 오목천동 314-48번지 대유빌딩 402호","indutype":"약국 - 제약회사","category":"medical"},{"name":"연세해맑은소아과의원","tel":"031-291-4288","addr":"경기도 수원시 권선구 오목천동 314-48번지 대유빌딩 302호","indutype":"의원 - 의원","category":"medical"}]},{"lat":"37.24609946","long":"126.96592518","imageIndex":8,"items":[{"name":"신뢰치과의원","tel":"031-245-7575","addr":"경기도 수원시 권선구 오목천동 314-20번지 3층","indutype":"의원 - 치과의원","category":"medical"},{"name":"오목천한마음약국","tel":"031-227-0559","addr":"경기도 수원시 권선구 오목천동 314-20번지 1층","indutype":"약국 - 약국","category":"medical"},{"name":"최태혁내과의원","tel":"031-294-1700","addr":"경기도 수원시 권선구 오목천동 314-20번지 2층","indutype":"의원 - 의원","category":"medical"}]},{"lat":"37.245241991","long":"126.96142862","imageIndex":8,"items":[{"name":"양지메디컬의원","tel":"031-294-6781","addr":"경기도 수원시 권선구 오목천동 362번지","indutype":"의원 - 의원","category":"medical"}]},{"lat":"37.243764942","long":"126.96331159","imageIndex":8,"items":[{"name":"열린의원","tel":"031-296-7579","addr":"경기도 수원시 권선구 오목천동 472-16번지","indutype":"의원 - 의원","category":"medical"},{"name":"행복나눔약국","tel":"031-294-0052","addr":"경기도 수원시 권선구 오목천동 472-16번지","indutype":"약국 - 약국","category":"medical"}]},{"lat":"37.245404802","long":"126.96325438","imageIndex":8,"items":[{"name":"이형근의원","tel":"031-295-8400","addr":"경기도 수원시 권선구 오목천동 367-30번지","indutype":"의원 - 의원","category":"medical"},{"name":"하나약국","tel":"031-292-5146","addr":"경기도 수원시 권선구 오목천동 367-30번지","indutype":"약국 - 약국","category":"medical"}]},{"lat":"37.240577281","long":"126.969816","imageIndex":8,"items":[{"name":"프라임치과의원","tel":"031-296-2080","addr":"경기도 수원시 권선구 오목천동 213-1번지 3층 301호","indutype":"의원 - 치과의원","category":"medical"}]},{"lat":"37.244458905","long":"126.9638184","imageIndex":8,"items":[{"name":"한성수한의원","tel":"031-296-0194","addr":"경기도 수원시 권선구 오목천동 498-5번지","indutype":"의원 - 한의원","category":"medical"}]},{"lat":"37.245603104","long":"126.96347969","imageIndex":8,"items":[{"name":"행복한치과","tel":"031-294-5252","addr":"경기도 수원시 권선구 오목천동 320-3번지 2층","indutype":"의원 - 치과의원","category":"medical"}]}]