[{"lat":"37.652108192","long":"127.17953369","imageIndex":0,"items":[{"name":"덴트칼라","tel":"031-575-7233","addr":"경기도 남양주시 진건읍 사능리 633-34","indutype":"자동차정비 유지 - 카인테리어","category":"car"}]},{"lat":"37.656500327","long":"127.18839476","imageIndex":0,"items":[{"name":"모터수","tel":"02-941-2673","addr":"경기도 남양주시 진건읍 사능리 285-2번지","indutype":"자동차정비 유지 - 자동차부품","category":"car"}]},{"lat":"37.652777089","long":"127.18981332","imageIndex":0,"items":[{"name":"믿음자동차공업사","tel":"031-111-1111","addr":"경기도 남양주시 진건읍 사능리 264-8번지","indutype":"자동차정비 유지 - 자동차정비","category":"car"}]},{"lat":"37.656915711","long":"127.17591866","imageIndex":0,"items":[{"name":"사능렉카 주식회사","tel":"031-533-4949","addr":"경기도 남양주시 진건읍 사능리 653-1번지","indutype":"자동차정비 유지 - 견인서비스","category":"car"},{"name":"사능렉카주식회사","tel":"031-533-4949","addr":"경기도 남양주시 진건읍 사능리 653-1번지","indutype":"자동차정비 유지 - 견인서비스","category":"car"},{"name":"전국대형부품","tel":"031-574-5008","addr":"경기도 남양주시 진건읍 사능리 653-1번지","indutype":"자동차정비 유지 - 자동차부품","category":"car"}]},{"lat":"37.650496006","long":"127.17916726","imageIndex":0,"items":[{"name":"사능카엔샵","tel":"031-573-4127","addr":"경기도 남양주시 진건읍 사능리 590-6번지","indutype":"자동차정비 유지 - 자동차정비","category":"car"}]},{"lat":"37.649860536","long":"127.18817428","imageIndex":0,"items":[{"name":"승언자동차공업사","tel":"031-573-5252","addr":"경기도 남양주시 진건읍 사능리 247-8번지","indutype":"자동차정비 유지 - 세차장","category":"car"}]},{"lat":"37.64055533","long":"127.19822358","imageIndex":0,"items":[{"name":"옵션플러스","tel":"070-7405-0532","addr":"경기도 남양주시 진건읍 사능리 109-38번지 1동","indutype":"자동차정비 유지 - 자동차부품","category":"car"}]},{"lat":"37.654777967","long":"127.18356295","imageIndex":0,"items":[{"name":"장현자동차공업사","tel":"031-571-4003","addr":"경기도 남양주시 진건읍 사능리 395-8번지 1층","indutype":"자동차정비 유지 - 자동차정비","category":"car"}]}]