[{"lat":"37.199108966","long":"127.11421299","imageIndex":8,"items":[{"name":"가람약국","tel":"031-377-7674","addr":"경기도 화성시 청계동 536번지 카림애비뉴 상가 1128호,1129호","indutype":"약국 - 약국","category":"medical"},{"name":"동탄본정형외과재활의학과의원","tel":"031-8077-2444","addr":"경기도 화성시 청계동 536번지 시범반도유보라아이비파크4.0 2028호 ,2029,2030,2031,2032,2033,2034호","indutype":"의원 - 의원","category":"medical"},{"name":"동탄진맥한의원","tel":"031-831-8331","addr":"경기도 화성시 청계동 536번지 카림애비뉴 2층 018호","indutype":"의원 - 한의원","category":"medical"},{"name":"어울림 교정과 구강외과 치과의원","tel":"031-8077-2628","addr":"경기도 화성시 청계동 536번지 시범 반도유보라 아이비파크4.0 2019호-2022호","indutype":"의원 - 치과의원","category":"medical"},{"name":"어울림 교정과 구강외과 치과의원","tel":"031-8077-2628","addr":"경기도 화성시 청계동 536번지 시범 반도유보라 아이비파크4.0 2019호-2022호","indutype":"의원 - 치과의원","category":"medical"},{"name":"어울림약국","tel":"031-8043-1651","addr":"경기도 화성시 청계동 536번지 카림에비뉴 지하1층 19,20호","indutype":"약국 - 약국","category":"medical"}]},{"lat":"37.200776013","long":"127.11408027","imageIndex":8,"items":[{"name":"경희선한의원","tel":"031-377-5123","addr":"경기도 화성시 청계동 534-2번지 피추프라자 4층 401호","indutype":"의원 - 한의원","category":"medical"}]},{"lat":"37.200414887","long":"127.11483442","imageIndex":8,"items":[{"name":"나무약국","tel":"031-377-6169","addr":"경기도 화성시 청계동 535-6번지 디스퀘어 109호","indutype":"약국 - 약국","category":"medical"},{"name":"리더스동물병원","tel":"031-372-7550","addr":"경기도 화성시 청계동 535-6번지 디스퀘어빌딩 2층 203호","indutype":"기타의료기관 - 동물병원","category":"medical"},{"name":"연세윤손치과의원","tel":"031-377-2248","addr":"경기도 화성시 청계동 535-6번지 디스퀘어 5층 503호, 504호","indutype":"의원 - 치과의원","category":"medical"},{"name":"원소아청소년과의원","tel":"031-374-8270","addr":"경기도 화성시 청계동 535-6번지 5층","indutype":"의원 - 의원","category":"medical"},{"name":"자연행복한의원","tel":"031-372-9955","addr":"경기도 화성시 청계동 535-6번지 디스퀘어빌딩 404호","indutype":"의원 - 한의원","category":"medical"}]},{"lat":"37.200218254","long":"127.11313328","imageIndex":8,"items":[{"name":"동탄 온가족치과","tel":"031-8043-4000","addr":"경기도 화성시 청계동 535-1번지 301호","indutype":"의원 - 치과의원","category":"medical"},{"name":"동탄바른이치과","tel":"031-372-2811","addr":"경기도 화성시 청계동 535-1번지 포트센트럴시티 404호","indutype":"의원 - 치과의원","category":"medical"},{"name":"동탄중앙동물병원","tel":"031-373-7524","addr":"경기도 화성시 청계동 535-1번지 포트센트럴시티 201호","indutype":"기타의료기관 - 동물병원","category":"medical"}]},{"lat":"37.199965911","long":"127.11318923","imageIndex":8,"items":[{"name":"동탄미소소아청소년과","tel":"031-375-9393","addr":"경기도 화성시 청계동 535-2번지 403호","indutype":"의원 - 의원","category":"medical"},{"name":"센텀프라자약국","tel":"031-378-4667","addr":"경기도 화성시 청계동 535-2번지 센텀프라자 110,111호","indutype":"약국 - 약국","category":"medical"},{"name":"신우정형외과의원","tel":"031-373-0082","addr":"경기도 화성시 청계동 535-2번지 센텀프라자 504호","indutype":"의원 - 의원","category":"medical"},{"name":"어울림한의원","tel":"031-372-0175","addr":"경기도 화성시 청계동 535-2번지 303호","indutype":"의원 - 한의원","category":"medical"}]},{"lat":"37.200109298","long":"127.11402297","imageIndex":8,"items":[{"name":"동탄어린이치과의원","tel":"031-377-5275","addr":"경기도 화성시 청계동 535-4번지 405,406호","indutype":"의원 - 치과의원","category":"medical"}]},{"lat":"37.200667316","long":"127.11468836","imageIndex":8,"items":[{"name":"동탄에이스치과","tel":"031-376-0028","addr":"경기도 화성시 청계동 535-7번지 범환프라자 501,502호","indutype":"의원 - 치과의원","category":"medical"}]},{"lat":"37.200632237","long":"127.11366329","imageIndex":8,"items":[{"name":"동탄치과","tel":"031-377-2871","addr":"경기도 화성시 청계동 534-1번지 4층 401,402호","indutype":"의원 - 치과의원","category":"medical"},{"name":"아이조아한의원 동탄점","tel":"031-374-9775","addr":"경기도 화성시 청계동 534-1번지 405호","indutype":"의원 - 한의원","category":"medical"}]},{"lat":"37.201501653","long":"127.10883225","imageIndex":8,"items":[{"name":"동탄푸른약국","tel":"031-378-0513","addr":"경기도 화성시 청계동 531-3번지 101호","indutype":"약국 - 약국","category":"medical"},{"name":"연세준삼육오의원","tel":"031-378-7555","addr":"경기도 화성시 청계동 531-3번지 201호","indutype":"의원 - 의원","category":"medical"},{"name":"연세준삼육오의원","tel":"031-378-7555","addr":"경기도 화성시 청계동 531-3번지 201호","indutype":"의원 - 의원","category":"medical"},{"name":"참조은치과의원","tel":"031-378-2822","addr":"경기도 화성시 청계동 531-3번지 3층 303호","indutype":"의원 - 치과의원","category":"medical"}]},{"lat":"37.201660586","long":"127.10218664","imageIndex":8,"items":[{"name":"박영준치과","tel":"031-372-7528","addr":"경기도 화성시 청계동 514-4번지 리더스프라자 3층 305호","indutype":"의원 - 치과의원","category":"medical"},{"name":"반디소아청소년과","tel":"031-000-0000","addr":"경기도 화성시 청계동 514-4번지 403호404호","indutype":"의원 - 의원","category":"medical"},{"name":"수앤유 이비인후과","tel":"031-919-4072","addr":"경기도 화성시 청계동 514-4번지 401-403호","indutype":"의원 - 의원","category":"medical"},{"name":"청계경희한의원","tel":"031-376-1075","addr":"경기도 화성시 청계동 514-4번지","indutype":"의원 - 한의원","category":"medical"}]},{"lat":"37.200109604","long":"127.11369632","imageIndex":8,"items":[{"name":"서울련치과","tel":"031-374-1253","addr":"경기도 화성시 청계동 535-3번지 403,404호","indutype":"의원 - 치과의원","category":"medical"}]},{"lat":"37.202083676","long":"127.10266029","imageIndex":8,"items":[{"name":"서울팀치과의원","tel":"031-373-2820","addr":"경기도 화성시 청계동 514-2번지 403호","indutype":"의원 - 치과의원","category":"medical"},{"name":"하늘숲한의원","tel":"031-378-2818","addr":"경기도 화성시 청계동 514-2번지 301호","indutype":"의원 - 한의원","category":"medical"}]},{"lat":"37.200244062","long":"127.11443993","imageIndex":8,"items":[{"name":"우림한의원","tel":"031-8077-2510","addr":"경기도 화성시 청계동 535-5번지 미추프라자 301호","indutype":"의원 - 한의원","category":"medical"}]}]