[{"lat":"37.392383968","long":"126.80582593","imageIndex":17,"items":[{"name":"2FACE(투페이스)","tel":"070-8942-0315","addr":"경기도 시흥시 하중동 865-1번지 1층","indutype":"개인서비스업 - 네일아트","category":"other"}]},{"lat":"37.395245261","long":"126.80349208","imageIndex":17,"items":[{"name":"OK점핑다이어트","tel":"","addr":"경기도 시흥시 하중동 852-1번지 유영빌딩 6층 602호","indutype":"스포츠및여가관련서비스업 - 건강기능식","category":"other"}]},{"lat":"37.399078548","long":"126.80054559","imageIndex":17,"items":[{"name":"관곡지약국","tel":"031-435-3445","addr":"경기도 시흥시 하중동 825-3번지 녹향치과 102호","indutype":"보건업 - 양약","category":"other"}]},{"lat":"37.40063554","long":"126.79952496","imageIndex":17,"items":[{"name":"국민축산유통","tel":"031-480-4423","addr":"경기도 시흥시 하중동 819-2번지 1층","indutype":"소매업 - 식육","category":"other"}]},{"lat":"37.391444316","long":"126.80427003","imageIndex":17,"items":[{"name":"귀한과일","tel":"","addr":"경기도 시흥시 하중동 878-1번지 N PLUS빌 아파트 107호","indutype":"소매업 - 과일","category":"other"}]},{"lat":"37.392465528","long":"126.80610803","imageIndex":17,"items":[{"name":"꿈나무 피아노 음악교습소","tel":"031-404-1567","addr":"경기도 시흥시 하중동 864-1번지 1층 101호","indutype":"교육서비스업 - 교습소","category":"other"}]},{"lat":"37.392806328","long":"126.80515856","imageIndex":17,"items":[{"name":"다연시스템","tel":"031-317-2651","addr":"경기도 시흥시 하중동 535-4번지","indutype":"소매업 - PC및주변기기","category":"other"},{"name":"명동D.C마트","tel":"","addr":"경기도 시흥시 하중동 535-4번지 1층","indutype":"소매업 - 생활용품, 잡화","category":"other"}]},{"lat":"37.394382026","long":"126.80452202","imageIndex":17,"items":[{"name":"대박공인중개사사무소","tel":"031-313-3366","addr":"경기도 시흥시 하중동 856-1번지 1층 101호","indutype":"개인서비스업 - 부동산중개업","category":"other"},{"name":"미친건어물","tel":"","addr":"경기도 시흥시 하중동 856-1번지 111호","indutype":"소매업 - 건어물","category":"other"},{"name":"이룸부동산","tel":"031-317-0303","addr":"경기도 시흥시 하중동 856-1번지 102호","indutype":"개인서비스업 - 부동산중개업","category":"other"},{"name":"한빛치과","tel":"031-318-2875","addr":"경기도 시흥시 하중동 856-1 조은프라자 203호","indutype":"보건업 - 치과","category":"other"}]},{"lat":"37.394193137","long":"126.8047145","imageIndex":17,"items":[{"name":"대성","tel":"031-317-7050","addr":"경기도 시흥시 하중동 856-3번지 하중랜드빌딩 102호","indutype":"소매업 - 보일러","category":"other"},{"name":"주식회사 오즈","tel":"1668-1318","addr":"경기도 시흥시 하중동 856-3번지 하중랜드빌딩 202호","indutype":"개인서비스업 - 강사양성,마술사양성","category":"other"},{"name":"하중 B.Y.C","tel":"031-317-2815","addr":"경기도 시흥시 하중동 856-3번지","indutype":"소매업 - 란제리","category":"other"}]},{"lat":"37.393221261","long":"126.80543979","imageIndex":17,"items":[{"name":"대성정보통신","tel":"031-435-9011","addr":"경기도 시흥시 하중동 857-6번지 훼미리타운 101호","indutype":"소매업 - 휴대폰","category":"other"},{"name":"부동산(쿡)공인중개사","tel":"031-404-9900","addr":"경기도 시흥시 하중동 857-6번지","indutype":"개인서비스업 - 부동산중개","category":"other"},{"name":"참마루미트","tel":"031-317-1686","addr":"경기도 시흥시 하중동 857-6번지 훼미리타운 106호","indutype":"소매업 - 육류소매업","category":"other"},{"name":"하중문구","tel":"031-317-6025","addr":"경기도 시흥시 하중동 857-6번지 훼미리타운 104호","indutype":"소매업 - 문구","category":"other"}]},{"lat":"37.3939952","long":"126.80488441","imageIndex":17,"items":[{"name":"더만나 과일","tel":"","addr":"경기도 시흥시 하중동 856-5번지 102호","indutype":"소매업 - 과일","category":"other"},{"name":"에녹시스템","tel":"031-317-9569","addr":"경기도 시흥시 하중동 856-5번지 2층 201호","indutype":"소매업 - 전자품","category":"other"},{"name":"하중통신","tel":"070-7766-8257","addr":"경기도 시흥시 하중동 856-5번지 101호","indutype":"소매업 - 통신기기","category":"other"}]},{"lat":"37.392278116","long":"126.80719261","imageIndex":17,"items":[{"name":"린피아노교습소","tel":"","addr":"경기도 시흥시 하중동 869-1번지 103호","indutype":"교육서비스업 - 피아노","category":"other"}]},{"lat":"37.394357731","long":"126.80615955","imageIndex":17,"items":[{"name":"미쁘다 아뜰리에","tel":"070-8810-6080","addr":"경기도 시흥시 하중동 855번지","indutype":"소매업 - 천연비누外","category":"other"},{"name":"보물창고","tel":"","addr":"경기도 시흥시 하중동 855번지 참이슬아파트 상가동 204호","indutype":"개인서비스업 - 공방","category":"other"},{"name":"참이슬반찬","tel":"031-317-0019","addr":"경기도 시흥시 하중동 855번지 참이슬아파트 102호","indutype":"소매업 - 반찬","category":"other"},{"name":"참이슬셀프스킨케어","tel":"031-435-8885","addr":"경기도 시흥시 하중동 855번지 상가-302호","indutype":"개인서비스업 - 피부관리","category":"other"},{"name":"하얀나라세탁소","tel":"031-317-8711","addr":"경기도 시흥시 하중동 855번지 참이슬아파트 상가","indutype":"개인서비스업 - 세탁,수선","category":"other"},{"name":"한양 떡방앗간","tel":"","addr":"경기도 시흥시 하중동 855번지","indutype":"제조업 - 떡","category":"other"}]},{"lat":"37.393914242","long":"126.80496367","imageIndex":17,"items":[{"name":"부영유통","tel":"031-504-0900","addr":"경기도 시흥시 하중동 856-6번지 제일빌딩 105호","indutype":"소매업 - 계란,쌀","category":"other"},{"name":"제일내과의원","tel":"031-404-2228","addr":"경기도 시흥시 하중동 856-6번지 제일빌딩 2층 101호","indutype":"보건업 - 내과","category":"other"},{"name":"한국체대 정도태권도장","tel":"031-317-7106","addr":"경기도 시흥시 하중동 856-6번지 제일빌딩 4층","indutype":"교육서비스업 - 태권도","category":"other"}]},{"lat":"37.390691281","long":"126.80655307","imageIndex":17,"items":[{"name":"빛나리 광고","tel":"031-435-0203","addr":"경기도 시흥시 하중동 873-4번지 법조타운 101호","indutype":"소매업 - 간판","category":"other"},{"name":"하나더하기","tel":"031-314-3600","addr":"경기도 시흥시 하중동 873-4번지 503호","indutype":"소매업 - 도소매","category":"other"}]},{"lat":"37.391409903","long":"126.80524128","imageIndex":17,"items":[{"name":"시흥 국민스포츠","tel":"031-318-8246","addr":"경기도 시흥시 하중동 880-1번지","indutype":"소매업 - 스포츠용품","category":"other"}]},{"lat":"37.400749546","long":"126.80837903","imageIndex":17,"items":[{"name":"시흥시 곤충산업연구회","tel":"","addr":"경기도 시흥시 하중동 271번지","indutype":"개인서비스업 - 곤충관련서비스","category":"other"},{"name":"시흥연생산자 영농조합법인","tel":"031-318-5335","addr":"경기도 시흥시 하중동 271번지 1층","indutype":"소매업 - 연생및판매","category":"other"}]},{"lat":"37.391191484","long":"126.80394322","imageIndex":17,"items":[{"name":"시흥시장독대협동조합","tel":"031-404-1300","addr":"경기도 시흥시 하중동 877-1번지 유림프라자 105호","indutype":"제조업 - 장류","category":"other"}]},{"lat":"37.392384795","long":"126.80632281","imageIndex":17,"items":[{"name":"알드림","tel":"","addr":"경기도 시흥시 하중동 864-3번지 1층","indutype":"소매업 - 식용란","category":"other"}]},{"lat":"37.393527282","long":"126.80524701","imageIndex":17,"items":[{"name":"엘리(ELLY)","tel":"","addr":"경기도 시흥시 하중동 857-3번지 101호","indutype":"소매업 - 의류","category":"other"}]},{"lat":"37.399221237","long":"126.79968689","imageIndex":17,"items":[{"name":"연성가구매장","tel":"031-505-8189","addr":"경기도 시흥시 하중동 831-5번지","indutype":"소매업 - 가구","category":"other"}]},{"lat":"37.392969206","long":"126.80557596","imageIndex":17,"items":[{"name":"연성검도관","tel":"031-435-2866","addr":"경기도 시흥시 하중동 861-1번지 윤영빌딩 4층 401호","indutype":"교육서비스업 - 검도관","category":"other"},{"name":"홍용기공인중개사사무소","tel":"031-317-7017","addr":"경기도 시흥시 하중동 861-1번지","indutype":"개인서비스업 - 부동산중개","category":"other"}]},{"lat":"37.392158905","long":"126.80593945","imageIndex":17,"items":[{"name":"연성골프존","tel":"031-318-0755","addr":"경기도 시흥시 하중동 865-3번지 한샌빌딩 302호","indutype":"스포츠및여가관련서비스업 - 골프연습장","category":"other"}]},{"lat":"37.398826654","long":"126.80077214","imageIndex":17,"items":[{"name":"용인대태권도","tel":"","addr":"경기도 시흥시 하중동 825-5번지 3층","indutype":"교육서비스업 - 태권도","category":"other"}]},{"lat":"37.395604919","long":"126.8030507","imageIndex":17,"items":[{"name":"정석세차장","tel":"031-317-9050","addr":"경기도 시흥시 하중동 851-1번지","indutype":"개인서비스업 - 세차, 광택","category":"other"}]},{"lat":"37.393635308","long":"126.80519026","imageIndex":17,"items":[{"name":"참조은요양원","tel":"031-313-2434","addr":"경기도 시흥시 하중동 857-2번지 영산빌딩 2층","indutype":"보건업 - 요양원","category":"other"},{"name":"홍성한우","tel":"031-317-0498","addr":"경기도 시흥시 하중동 857-2번지 연성빌딩 1층","indutype":"소매업 - 식육","category":"other"}]},{"lat":"37.395389098","long":"126.80329972","imageIndex":17,"items":[{"name":"초콜릿PC","tel":"","addr":"경기도 시흥시 하중동 851-3번지 2층","indutype":"개인서비스업 - PC방","category":"other"}]},{"lat":"37.39199565","long":"126.8052962","imageIndex":17,"items":[{"name":"카이로스통상(아르페지오)","tel":"031-317-8966","addr":"경기도 시흥시 하중동 654-1번지 1층 2호","indutype":"소매업 - 침구류","category":"other"}]},{"lat":"37.393410246","long":"126.80530378","imageIndex":17,"items":[{"name":"코코뷰티","tel":"031-507-7785","addr":"경기도 시흥시 하중동 857-4번지","indutype":"소매업 - 화장품,잡화","category":"other"}]},{"lat":"37.391555645","long":"126.80618946","imageIndex":17,"items":[{"name":"크리스탈 안경","tel":"031-404-0026","addr":"경기도 시흥시 하중동 866-2번지","indutype":"소매업 - 안경","category":"other"}]},{"lat":"37.399275064","long":"126.79955122","imageIndex":17,"items":[{"name":"크린토피아 시흥하중점","tel":"031-435-0243","addr":"경기도 시흥시 하중동 831-4번지 예찬빌딩 1층 102호","indutype":"소매업 - 세탁업","category":"other"}]},{"lat":"37.390444902","long":"126.80469049","imageIndex":17,"items":[{"name":"평화당구장","tel":"","addr":"경기도 시흥시 하중동 875-1번지 501~503호","indutype":"스포츠및여가관련서비스업 - 당구장","category":"other"}]},{"lat":"37.392969206","long":"126.80557596","imageIndex":4,"items":[{"name":"59쌀피자 하중동점","tel":"031-317-5952","addr":"경기도 시흥시 하중동 861-1번지 1층","indutype":"음식점업 - 기타음식","category":"restaurant"}]},{"lat":"37.398242562","long":"126.80168848","imageIndex":4,"items":[{"name":"고려왕족발","tel":"031-503-3263","addr":"경기도 시흥시 하중동 827번지","indutype":"음식점업 - 한식","category":"restaurant"}]},{"lat":"37.40063554","long":"126.79952496","imageIndex":4,"items":[{"name":"국민정육점식당","tel":"031-480-4423","addr":"경기도 시흥시 하중동 819-2번지","indutype":"음식점업 - 한식","category":"restaurant"}]},{"lat":"37.392158905","long":"126.80593945","imageIndex":4,"items":[{"name":"깡돈","tel":"","addr":"경기도 시흥시 하중동 865-3번지 한샘빌딩 103호","indutype":"음식점업 - 한식","category":"restaurant"},{"name":"비비큐 하중동점","tel":"031-317-7196","addr":"경기도 시흥시 하중동 865-3번지","indutype":"음식점업 - 음식점","category":"restaurant"},{"name":"펀비어킹 시흥하중점","tel":"031-315-4485","addr":"경기도 시흥시 하중동 865-3번지 한샘빌딩 102호","indutype":"음식점업 - 기타주점업","category":"restaurant"}]},{"lat":"37.393410246","long":"126.80530378","imageIndex":4,"items":[{"name":"늘 가던 곳","tel":"031-312-7764","addr":"경기도 시흥시 하중동 857-4번지 103호","indutype":"음식점업 - 커피전문점","category":"restaurant"}]},{"lat":"37.39105144","long":"126.80640533","imageIndex":4,"items":[{"name":"다온국수","tel":"","addr":"경기도 시흥시 하중동 873-1번지 106호","indutype":"음식점업 - 기타음식","category":"restaurant"},{"name":"천사의섬초밥전문점","tel":"031-317-7434","addr":"경기도 시흥시 하중동 873-1번지 102호","indutype":"음식점업 - 음식점","category":"restaurant"},{"name":"카페하루 ","tel":"070-4300-4185","addr":"경기도 시흥시 하중동 873-1번지 109호","indutype":"음식점업 - 커피","category":"restaurant"}]},{"lat":"37.399665493","long":"126.80130069","imageIndex":4,"items":[{"name":"델리양베이커리(델리앙)","tel":"031-317-1479","addr":"경기도 시흥시 하중동 826-1번지 동아아파트","indutype":"음식점업 - 제과점","category":"restaurant"}]},{"lat":"37.394805403","long":"126.80446444","imageIndex":4,"items":[{"name":"락궁","tel":"031-404-5528","addr":"경기도 시흥시 하중동 854-6번지 1층","indutype":"음식점업 - 중식","category":"restaurant"}]},{"lat":"37.390444902","long":"126.80469049","imageIndex":4,"items":[{"name":"모아통오리한마리","tel":"031-311-3866","addr":"경기도 시흥시 하중동 875-1번지","indutype":"음식점업 - 한식","category":"restaurant"},{"name":"아구찜","tel":"031-410-4604","addr":"경기도 시흥시 하중동 875-1번지 조은프라자 107호","indutype":"음식점업 - 한식","category":"restaurant"}]},{"lat":"37.399131369","long":"126.79982266","imageIndex":4,"items":[{"name":"박가네갈비찜","tel":"031-318-2225","addr":"경기도 시흥시 하중동 831-6번지 영화빌딩 101호","indutype":"음식점업 - 한식","category":"restaurant"}]},{"lat":"37.398826654","long":"126.80077214","imageIndex":4,"items":[{"name":"밸리카페","tel":"031-318-1442","addr":"경기도 시흥시 하중동 825-5번지 하중순복음교회 101호","indutype":"음식점업 - 커피숍","category":"restaurant"}]},{"lat":"37.391862268","long":"126.80635805","imageIndex":4,"items":[{"name":"벼슬구지뼈다귀감자탕","tel":"031-318-8199","addr":"경기도 시흥시 하중동 867-12번지","indutype":"음식점업 - 한식","category":"restaurant"}]},{"lat":"37.391745232","long":"126.80641482","imageIndex":4,"items":[{"name":"북촌순두부와 생고기","tel":"031-404-5926","addr":"경기도 시흥시 하중동 867-11번지 1층","indutype":"음식점업 - 한식","category":"restaurant"}]},{"lat":"37.39983125","long":"126.798138","imageIndex":4,"items":[{"name":"산록원","tel":"031-317-0823","addr":"경기도 시흥시 하중동 329-1번지","indutype":"음식점업 - 한식","category":"restaurant"}]},{"lat":"37.395165065","long":"126.80402306","imageIndex":4,"items":[{"name":"새벽시장회센터","tel":"031-317-3003","addr":"경기도 시흥시 하중동 853-7번지","indutype":"음식점업 - 회","category":"restaurant"}]},{"lat":"37.394193137","long":"126.8047145","imageIndex":4,"items":[{"name":"술창고비어","tel":"","addr":"경기도 시흥시 하중동 856-3번지","indutype":"음식점업 - 기타주점","category":"restaurant"},{"name":"우리동네국밥집","tel":"031-313-8853","addr":"경기도 시흥시 하중동 856-3번지 하중랜드빌딩 107호","indutype":"음식점업 - 한식","category":"restaurant"}]},{"lat":"37.394938406","long":"126.80318798","imageIndex":4,"items":[{"name":"시흥각","tel":"031-317-1012","addr":"경기도 시흥시 하중동 451-1번지","indutype":"음식점업 - 중화요리","category":"restaurant"},{"name":"신가네불닭","tel":"031-317-1529","addr":"경기도 시흥시 하중동 451-1번지","indutype":"음식점업 - 기타음식","category":"restaurant"},{"name":"자연인 약초마을","tel":"","addr":"경기도 시흥시 하중동 451-1번지 1층","indutype":"음식점업 - 건강원","category":"restaurant"}]},{"lat":"37.395245965","long":"126.80390992","imageIndex":4,"items":[{"name":"신숯불꼼장어 하중점","tel":"031-317-1774","addr":"경기도 시흥시 하중동 853-8번지 1층","indutype":"음식점업 - 한식","category":"restaurant"}]},{"lat":"37.391444316","long":"126.80427003","imageIndex":4,"items":[{"name":"안동양반찜닭","tel":"031-317-7882","addr":"경기도 시흥시 하중동 878-1번지 N PLUS빌 아파트","indutype":"음식점업 - 한식","category":"restaurant"},{"name":"하중역","tel":"031-312-5788","addr":"경기도 시흥시 하중동 878-1번지 N PLUS빌 아파트","indutype":"음식점업 - 일반음식점","category":"restaurant"}]},{"lat":"37.392690911","long":"126.80618649","imageIndex":4,"items":[{"name":"엠마우스","tel":"","addr":"경기도 시흥시 하중동 862-3번지 1층","indutype":"음식점업 - 휴게음식점","category":"restaurant"}]},{"lat":"37.398771743","long":"126.80027537","imageIndex":4,"items":[{"name":"여기식당","tel":"031-318-3692","addr":"경기도 시흥시 하중동 829-3번지","indutype":"음식점업 - 한식","category":"restaurant"}]},{"lat":"37.398943591","long":"126.80065889","imageIndex":4,"items":[{"name":"연꽃호프","tel":"","addr":"경기도 시흥시 하중동 825-4번지","indutype":"음식점업 - 호프","category":"restaurant"},{"name":"헤베(HeBe)","tel":"","addr":"경기도 시흥시 하중동 825-4번지 시흥시새마을회관 1층 103호","indutype":"음식점업 - 기타주점","category":"restaurant"}]},{"lat":"37.400749546","long":"126.80837903","imageIndex":4,"items":[{"name":"연다정(시흥시노인종합복지관)","tel":"070-7771-3005","addr":"경기도 시흥시 하중동 271번지 시흥시 생명농업기술센터","indutype":"음식점업 - 기타음식료, 카페","category":"restaurant"}]},{"lat":"37.399996352","long":"126.79983162","imageIndex":4,"items":[{"name":"연잎명태조림","tel":"031-318-2911","addr":"경기도 시흥시 하중동 821-8번지 1층 101호","indutype":"음식점업 - 한식","category":"restaurant"}]},{"lat":"37.391249529","long":"126.80632577","imageIndex":4,"items":[{"name":"옛날장터치킨하중점","tel":"031-317-9257","addr":"경기도 시흥시 하중동 866-4번지 한솔빌딩 1층","indutype":"음식점업 - 치킨","category":"restaurant"},{"name":"춘자네두루치기 삼겹살","tel":"031-404-3404","addr":"경기도 시흥시 하중동 866-4번지 한솔빌딩 105호","indutype":"음식점업 - 음식점","category":"restaurant"}]},{"lat":"37.390609403","long":"126.80607901","imageIndex":4,"items":[{"name":"와우김밥","tel":"","addr":"경기도 시흥시 하중동 874-6번지","indutype":"음식점업 - 분식","category":"restaurant"},{"name":"커피에 반하다","tel":"031-435-8808","addr":"경기도 시흥시 하중동 874-6번지 원웅빌딩 1층 103호","indutype":"음식점업 - 커피숍","category":"restaurant"},{"name":"푸코 피제리아","tel":"031-509-8992","addr":"경기도 시흥시 하중동 874-6번지 원웅빌딩 2층 201호","indutype":"음식점업 - 레스토랑(이탈리안)","category":"restaurant"}]},{"lat":"37.399717506","long":"126.80010342","imageIndex":4,"items":[{"name":"요거프레소 관곡지로점","tel":"031-317-7007","addr":"경기도 시흥시 하중동 823-7번지","indutype":"음식점업 - 카페","category":"restaurant"}]},{"lat":"37.394382026","long":"126.80452202","imageIndex":4,"items":[{"name":"우리콩손두부","tel":"031-318-5919","addr":"경기도 시흥시 하중동 856-1번지 1층 110호","indutype":"음식점업 - 한식","category":"restaurant"}]},{"lat":"37.400131638","long":"126.79991031","imageIndex":4,"items":[{"name":"윤가네민물촌","tel":"031-317-5585","addr":"경기도 시흥시 하중동 821-9번지","indutype":"음식점업 - 한식","category":"restaurant"}]},{"lat":"37.394940269","long":"126.80429469","imageIndex":4,"items":[{"name":"이가네샤브샤브","tel":"031-313-3939","addr":"경기도 시흥시 하중동 854-8번지","indutype":"음식점업 - 한식","category":"restaurant"}]},{"lat":"37.393914242","long":"126.80496367","imageIndex":4,"items":[{"name":"이디야커피 시흥하중점","tel":"031-313-2223","addr":"경기도 시흥시 하중동 856-6번지 102~103호","indutype":"음식점업 - 커피, 휴게음식","category":"restaurant"}]},{"lat":"37.391331089","long":"126.80660787","imageIndex":4,"items":[{"name":"장수왕족발","tel":"031-404-3536","addr":"경기도 시흥시 하중동 867-8번지 101호","indutype":"음식점업 - 한식","category":"restaurant"}]},{"lat":"37.392357502","long":"126.80616478","imageIndex":4,"items":[{"name":"장수웰빙쌈밥","tel":"031-317-9189","addr":"경기도 시흥시 하중동 864-6번지","indutype":"음식점업 - 한식","category":"restaurant"}]},{"lat":"37.391409903","long":"126.80524128","imageIndex":4,"items":[{"name":"재은푸드","tel":"","addr":"경기도 시흥시 하중동 880-1번지 흥국민체육센터 지하층 스낵바","indutype":"음식점업 - 휴게음식점","category":"restaurant"}]},{"lat":"37.393635308","long":"126.80519026","imageIndex":4,"items":[{"name":"참이슬분식","tel":"","addr":"경기도 시흥시 하중동 857-2번지 연성빌딩 103호","indutype":"음식점업 - 분식","category":"restaurant"}]},{"lat":"37.391610156","long":"126.80646034","imageIndex":4,"items":[{"name":"청정맛집","tel":"031-435-3130","addr":"경기도 시흥시 하중동 867-10번지","indutype":"음식점업 - 한식","category":"restaurant"},{"name":"한지식당","tel":"031-317-2216","addr":"경기도 시흥시 하중동 867-10번지","indutype":"음식점업 - 한식","category":"restaurant"}]},{"lat":"37.400190478","long":"126.80810942","imageIndex":4,"items":[{"name":"카페연","tel":"031-435-0345","addr":"경기도 시흥시 하중동 272번지","indutype":"음식점업 - 카페","category":"restaurant"}]},{"lat":"37.391411579","long":"126.8062463","imageIndex":4,"items":[{"name":"컬쳐인","tel":"031-317-5058","addr":"경기도 시흥시 하중동 866-3번지 연성프라자 103호","indutype":"음식점업 - 커피, 공예품","category":"restaurant"}]},{"lat":"37.40060975","long":"126.80024783","imageIndex":4,"items":[{"name":"토시래 시흥하중점","tel":"031-318-7825","addr":"경기도 시흥시 하중동 822-2번지","indutype":"음식점업 - 한식","category":"restaurant"}]},{"lat":"37.398636728","long":"126.80035479","imageIndex":4,"items":[{"name":"트윈스","tel":"031-317-2772","addr":"경기도 시흥시 하중동 829-4번지 103~104호","indutype":"음식점업 - 기타음식","category":"restaurant"}]},{"lat":"37.39199565","long":"126.8052962","imageIndex":4,"items":[{"name":"파파수제돈까스 시흥점","tel":"031-311-3283","addr":"경기도 시흥시 하중동 654-1번지 1층 2호","indutype":"음식점업 - 돈가스","category":"restaurant"}]},{"lat":"37.394686506","long":"126.80341451","imageIndex":4,"items":[{"name":"포도나무집","tel":"031-317-3066","addr":"경기도 시흥시 하중동 446-5번지","indutype":"음식점업 - 한식","category":"restaurant"}]},{"lat":"37.392051667","long":"126.80647048","imageIndex":4,"items":[{"name":"포차앤치킨매니아하중점","tel":"031-435-9255","addr":"경기도 시흥시 하중동 867-2번지 1층","indutype":"음식점업 - 치킨, 호프","category":"restaurant"}]},{"lat":"37.395164361","long":"126.80360522","imageIndex":4,"items":[{"name":"피시채널피시방","tel":"","addr":"경기도 시흥시 하중동 852-2번지","indutype":"개인서비스업 - PC방, 기타음식","category":"restaurant"}]},{"lat":"37.394357731","long":"126.80615955","imageIndex":7,"items":[{"name":"K-할인마트","tel":"031-317-5550","addr":"경기도 시흥시 하중동 855번지 참이슬아파트 상가 101호","indutype":"소매업 - 슈퍼","category":"mart"}]},{"lat":"37.398996607","long":"126.80004889","imageIndex":7,"items":[{"name":"㈜다연홈마트","tel":"031-312-3990","addr":"경기도 시흥시 하중동 829-1번지","indutype":"소매업 - 슈퍼","category":"mart"}]},{"lat":"37.390886073","long":"126.80449735","imageIndex":7,"items":[{"name":"데코빌마트","tel":"031-404-6820","addr":"경기도 시흥시 하중동 878-4번지 데코빌아파트","indutype":"소매업 - 슈퍼마켓","category":"mart"}]},{"lat":"37.398242562","long":"126.80168848","imageIndex":7,"items":[{"name":"코사마트 성원점","tel":"031-317-6080","addr":"경기도 시흥시 하중동 827번지","indutype":"소매업 - 슈퍼마켓","category":"mart"}]},{"lat":"37.393914242","long":"126.80496367","imageIndex":16,"items":[{"name":"YBM잉글루영어수학전문학원","tel":"031-503-5255","addr":"경기도 시흥시 하중동 856-6번지 3층","indutype":"교육서비스업 - 보습학원","category":"study"}]},{"lat":"37.393743278","long":"126.80509964","imageIndex":16,"items":[{"name":"스마트 이 어학원","tel":"031-504-4424","addr":"경기도 시흥시 하중동 857-1번지","indutype":"교육서비스업 - 어학원","category":"study"}]},{"lat":"37.394382026","long":"126.80452202","imageIndex":16,"items":[{"name":"에듀엠 수학학원","tel":"031-317-9160","addr":"경기도 시흥시 하중동 856-1번지 304호","indutype":"교육서비스업 - 보습학원(수학)","category":"study"}]},{"lat":"37.398242562","long":"126.80168848","imageIndex":16,"items":[{"name":"연성소리샘음악학원","tel":"031-503-8700","addr":"경기도 시흥시 하중동 827번지 성원A상가 204~206호","indutype":"교육서비스업 - 음악학원","category":"study"}]},{"lat":"37.392582057","long":"126.80574637","imageIndex":16,"items":[{"name":"하중잉글리쉬무무영어전문학원","tel":"031-435-9973","addr":"경기도 시흥시 하중동 861-4번지 2층","indutype":"교육서비스업 - 보습학원(영어)","category":"study"}]},{"lat":"37.395632598","long":"126.80343459","imageIndex":0,"items":[{"name":"기아오토큐 하중점","tel":"031-404-8581","addr":"경기도 시흥시 하중동 850-6번지","indutype":"개인서비스업 - 자동차정비","category":"car"}]},{"lat":"37.397494863","long":"126.80176953","imageIndex":0,"items":[{"name":"연성카센타","tel":"031-317-7848","addr":"경기도 시흥시 하중동 456-3번지 연성카프라자","indutype":"개인서비스업 - 자동차정비","category":"car"}]},{"lat":"37.395245261","long":"126.80349208","imageIndex":0,"items":[{"name":"유영자동차공업사","tel":"031-404-8177","addr":"경기도 시흥시 하중동 852-1번지","indutype":"개인서비스업 - 자동차수리","category":"car"}]},{"lat":"37.39966269","long":"126.79966311","imageIndex":0,"items":[{"name":"재영오토밋션","tel":"031-313-2468","addr":"경기도 시흥시 하중동 824-1번지","indutype":"개인서비스업 - 자동차전문정비","category":"car"}]},{"lat":"37.391997325","long":"126.80630123","imageIndex":0,"items":[{"name":"한국자동차정비센타","tel":"031-318-8525","addr":"경기도 시흥시 하중동 867-1번지 1,2층","indutype":"개인서비스업 - 카센터, 자동차 타이","category":"car"}]},{"lat":"37.399303374","long":"126.80029652","imageIndex":8,"items":[{"name":"녹향의원","tel":"031-310-5300","addr":"경기도 시흥시 하중동 825-1번지","indutype":"보건업 - 의원","category":"medical"}]},{"lat":"37.399078548","long":"126.80054559","imageIndex":8,"items":[{"name":"새오름치과의원","tel":"031-318-2890","addr":"경기도 시흥시 하중동 825-3번지","indutype":"보건업 - 치과의원","category":"medical"}]},{"lat":"37.39105144","long":"126.80640533","imageIndex":8,"items":[{"name":"약손한의원","tel":"031-492-1676","addr":"경기도 시흥시 하중동 873-1번지 202호","indutype":"보건업 - 한의원","category":"medical"}]},{"lat":"37.393914242","long":"126.80496367","imageIndex":8,"items":[{"name":"하중약국","tel":"031-404-1237","addr":"경기도 시흥시 하중동 856-6번지 제일빌딩 101호","indutype":"보건업 - 약국","category":"medical"}]},{"lat":"37.392582057","long":"126.80574637","imageIndex":13,"items":[{"name":"로즈헤어샵","tel":"031-318-8008","addr":"경기도 시흥시 하중동 861-4번지 육일빌딩 101호","indutype":"개인서비스업 - 미용업","category":"beauty"}]},{"lat":"37.393221261","long":"126.80543979","imageIndex":13,"items":[{"name":"박진헤어크리닉","tel":"","addr":"경기도 시흥시 하중동 857-6번지 훼미리타운 202호","indutype":"개인서비스업 - 미용업","category":"beauty"}]},{"lat":"37.393914242","long":"126.80496367","imageIndex":13,"items":[{"name":"아이비헤어","tel":"031-506-2050","addr":"경기도 시흥시 하중동 856-6번지 제일빌딩 1층","indutype":"개인서비스업 - 미용업","category":"beauty"}]},{"lat":"37.394805782","long":"126.8046903","imageIndex":7,"items":[{"name":"에스제이(SJ)푸드","tel":"031-313-4856","addr":"경기도 시흥시 하중동 854-4번지 102호","indutype":"소매업 - 식품,식자재","category":"food"}]}]