[{"lat":"37.4579082","long":"127.1618735","imageIndex":17,"items":[{"name":"강화쌀가게","tel":"031-732-7252","addr":"경기도 성남시 수정구 양지동 479번지","indutype":"","category":"other"},{"name":"농장정육점","tel":"031-745-9340","addr":"경기도 성남시 수정구 양지동 479번지","indutype":"","category":"other"}]},{"lat":"37.456358","long":"127.1622093","imageIndex":17,"items":[{"name":"고창공업사유리","tel":"031-731-6351","addr":"경기도 성남시 수정구 양지동 549번지","indutype":"","category":"other"}]},{"lat":"37.4581938","long":"127.1638973","imageIndex":17,"items":[{"name":"금성스튜디오","tel":"031-743-1014","addr":"경기도 성남시 수정구 양지동 235번지","indutype":"","category":"other"},{"name":"아리따움 성남을지대","tel":"031-744-9528","addr":"경기도 성남시 수정구 양지동 235번지","indutype":"","category":"other"}]},{"lat":"37.4564118","long":"127.1624242","imageIndex":17,"items":[{"name":"꼬독이","tel":"031-733-3889","addr":"경기도 성남시 수정구 양지동 547번지","indutype":"","category":"other"}]},{"lat":"37.4563038","long":"127.1623448","imageIndex":17,"items":[{"name":"다한우복돼지","tel":"","addr":"경기도 성남시 수정구 양지동 548번지","indutype":"","category":"other"},{"name":"무교동낙지 춘천닭갈비","tel":"031-731-8219","addr":"경기도 성남시 수정구 양지동 548번지","indutype":"","category":"other"}]},{"lat":"37.4558288","long":"127.1603999","imageIndex":17,"items":[{"name":"대원유리폐인트","tel":"031-749-2433","addr":"경기도 성남시 수정구 양지동 748번지","indutype":"","category":"other"},{"name":"조이헤어라인","tel":"031-602-5701","addr":"경기도 성남시 수정구 양지동 748번지","indutype":"","category":"other"}]},{"lat":"37.4586618","long":"127.1642374","imageIndex":17,"items":[{"name":"리더스 타운 영어 학원","tel":"031-604-0605","addr":"경기도 성남시 수정구 양지동 226번지","indutype":"","category":"other"}]},{"lat":"37.4567178","long":"127.1626509","imageIndex":17,"items":[{"name":"리버스 영수 전문 학원","tel":"031-732-1162","addr":"경기도 성남시 수정구 양지동 544번지","indutype":"","category":"other"}]},{"lat":"37.4613251","long":"127.1668993","imageIndex":17,"items":[{"name":"마불로스구이","tel":"031-748-0808","addr":"경기도 성남시 수정구 양지동 211-1번지","indutype":"","category":"other"}]},{"lat":"37.4579957","long":"127.1637612","imageIndex":17,"items":[{"name":"모닝글로리","tel":"031-732-8011","addr":"경기도 성남시 수정구 양지동 528번지","indutype":"","category":"other"},{"name":"성남시민약국","tel":"031-734-4995","addr":"경기도 성남시 수정구 양지동 528번지","indutype":"","category":"other"}]},{"lat":"37.4571319","long":"127.1629004","imageIndex":17,"items":[{"name":"미가문헤어패션","tel":"031-734-9871","addr":"경기도 성남시 수정구 양지동 540번지","indutype":"","category":"other"},{"name":"호동이네국물닭발","tel":"031-734-4686","addr":"경기도 성남시 수정구 양지동 540번지","indutype":"","category":"other"}]},{"lat":"37.4632409","long":"127.1692885","imageIndex":17,"items":[{"name":"밀숲 남한산성점","tel":"031-747-6470","addr":"경기도 성남시 수정구 양지동 6번지 굿모닝파크빌","indutype":"","category":"other"}]},{"lat":"37.4584111","long":"127.1630953","imageIndex":17,"items":[{"name":"산모피아","tel":"031-730-2995","addr":"경기도 성남시 수정구 양지동 454번지","indutype":"","category":"other"}]},{"lat":"37.4581041","long":"127.1635693","imageIndex":17,"items":[{"name":"산성음악학원","tel":"031-742-0841","addr":"경기도 성남시 수정구 양지동 526번지","indutype":"","category":"other"}]},{"lat":"37.4549718","long":"127.1612344","imageIndex":17,"items":[{"name":"산성화원","tel":"031-741-0975","addr":"경기도 성남시 수정구 양지동 867번지","indutype":"","category":"other"}]},{"lat":"37.4584653","long":"127.1629824","imageIndex":17,"items":[{"name":"산울림음악학원","tel":"031-731-9111","addr":"경기도 성남시 수정구 양지동 453번지","indutype":"","category":"other"}]},{"lat":"37.4561328","long":"127.1622089","imageIndex":17,"items":[{"name":"새아씨방","tel":"031-734-8043","addr":"경기도 성남시 수정구 양지동 851번지","indutype":"","category":"other"}]},{"lat":"37.4571861","long":"127.1627875","imageIndex":17,"items":[{"name":"수&미 Flower","tel":"031-732-0803","addr":"경기도 성남시 수정구 양지동 536번지","indutype":"","category":"other"}]},{"lat":"37.4565198","long":"127.1625148","imageIndex":17,"items":[{"name":"스시안","tel":"031-731-0455","addr":"경기도 성남시 수정구 양지동 546번지","indutype":"","category":"other"}]},{"lat":"37.4621081","long":"127.1675114","imageIndex":17,"items":[{"name":"아이네일샵","tel":"031-744-5539","addr":"경기도 성남시 수정구 양지동 39번지","indutype":"","category":"other"}]},{"lat":"37.4554399","long":"127.1615406","imageIndex":17,"items":[{"name":"안경과사람들","tel":"031-749-2988","addr":"경기도 성남시 수정구 양지동 856번지","indutype":"","category":"other"},{"name":"황실귀금속","tel":"031-743-1316","addr":"경기도 성남시 수정구 양지동 856번지","indutype":"","category":"other"}]},{"lat":"37.4573299","long":"127.1630704","imageIndex":17,"items":[{"name":"안경나라(서울보건대점)","tel":"031-732-4001","addr":"경기도 성남시 수정구 양지동 535번지","indutype":"","category":"other"},{"name":"해물짬뽕나라 (은행점)","tel":"031-755-9645","addr":"경기도 성남시 수정구 양지동 535번지","indutype":"","category":"other"}]},{"lat":"37.4576913","long":"127.1623704","imageIndex":17,"items":[{"name":"양지정육점","tel":"031-732-1703","addr":"경기도 성남시 수정구 양지동 487번지 한별빌리지3차","indutype":"","category":"other"}]},{"lat":"37.4584377","long":"127.1634231","imageIndex":17,"items":[{"name":"엘림헤어","tel":"031-733-6890","addr":"경기도 성남시 수정구 양지동 270번지","indutype":"","category":"other"}]},{"lat":"37.4625773","long":"127.1670716","imageIndex":17,"items":[{"name":"연주네감자탕","tel":"031-745-9013","addr":"경기도 성남시 수정구 양지동 108번지","indutype":"","category":"other"}]},{"lat":"37.4573577","long":"127.1624827","imageIndex":17,"items":[{"name":"영일학원","tel":"031-743-7291","addr":"경기도 성남시 수정구 양지동 592번지 진우","indutype":"","category":"other"}]},{"lat":"37.4611902","long":"127.1667295","imageIndex":17,"items":[{"name":"영칼라스튜디오","tel":"031-744-4288","addr":"경기도 성남시 수정구 양지동 211번지","indutype":"","category":"other"}]},{"lat":"37.4583027","long":"127.1632646","imageIndex":17,"items":[{"name":"예림음악학원","tel":"031-742-6824","addr":"경기도 성남시 수정구 양지동 503번지","indutype":"","category":"other"}]},{"lat":"37.4558809","long":"127.1619258","imageIndex":17,"items":[{"name":"유한지업사","tel":"031-747-8987","addr":"경기도 성남시 수정구 양지동 854번지","indutype":"","category":"other"}]},{"lat":"37.4568798","long":"127.1628208","imageIndex":17,"items":[{"name":"육감만족 (성남은행점)","tel":"031-734-9212","addr":"경기도 성남시 수정구 양지동 542번지","indutype":"","category":"other"}]},{"lat":"37.462746","long":"127.16879","imageIndex":17,"items":[{"name":"전주식당 양지점","tel":"031-743-9849","addr":"경기도 성남시 수정구 양지동 25번지","indutype":"","category":"other"}]},{"lat":"37.4586911","long":"127.1625421","imageIndex":17,"items":[{"name":"진로할인마트","tel":"031-731-9285","addr":"경기도 성남시 수정구 양지동 448번지","indutype":"","category":"other"}]},{"lat":"37.4565482","long":"127.1614864","imageIndex":17,"items":[{"name":"진로할인마트 (양지2호점)","tel":"031-748-8889","addr":"경기도 성남시 수정구 양지동 814번지","indutype":"","category":"other"}]},{"lat":"37.4577168","long":"127.163512","imageIndex":17,"items":[{"name":"청담동말자싸롱 을지대점","tel":"031-748-1987","addr":"경기도 성남시 수정구 양지동 531번지","indutype":"","category":"other"}]},{"lat":"37.4570237","long":"127.1629793","imageIndex":17,"items":[{"name":"통통쭈꾸미","tel":"031-745-2274","addr":"경기도 성남시 수정구 양지동 541번지","indutype":"","category":"other"}]},{"lat":"37.4582747","long":"127.1640105","imageIndex":17,"items":[{"name":"파리바게트 성남은행점","tel":"031-735-9582","addr":"경기도 성남시 수정구 양지동 232번지","indutype":"","category":"other"}]},{"lat":"37.4551609","long":"127.1613139","imageIndex":17,"items":[{"name":"피자마루","tel":"031-745-1082","addr":"경기도 성남시 수정구 양지동 857번지","indutype":"","category":"other"}]},{"lat":"37.4556649","long":"127.1617332","imageIndex":17,"items":[{"name":"하나로안경콘택트","tel":"031-747-2093","addr":"경기도 성남시 수정구 양지동 855번지","indutype":"","category":"other"}]},{"lat":"37.4621894","long":"127.1673985","imageIndex":17,"items":[{"name":"한양유통","tel":"031-741-0907","addr":"경기도 성남시 수정구 양지동 69번지","indutype":"","category":"other"}]},{"lat":"37.4585267","long":"127.1641806","imageIndex":17,"items":[{"name":"합격의독서실","tel":"031-733-9786","addr":"경기도 성남시 수정구 양지동 229번지","indutype":"","category":"other"}]},{"lat":"37.4578248","long":"127.1635913","imageIndex":17,"items":[{"name":"홍익서점","tel":"031-743-4983","addr":"경기도 성남시 수정구 양지동 530번지","indutype":"","category":"other"}]}]