[{"lat":"37.172622699","long":"127.65038599","imageIndex":17,"items":[{"name":"(주)삼부고속관광","tel":"031-732-4977","addr":"경기도 여주시 점동면 덕평리 387-9번지","indutype":"여행 - 관광여행","category":"other"}]},{"lat":"37.166182597","long":"127.6433394","imageIndex":17,"items":[{"name":"누룽지도예","tel":"031-883-4906","addr":"경기도 여주시 점동면 덕평리 572-17번지","indutype":"문화.취미 - 민예·공예품","category":"other"}]},{"lat":"37.180951603","long":"127.66283276","imageIndex":17,"items":[{"name":"엄지알뜰가전","tel":"031-1111-1111","addr":"경기도 여주시 점동면 덕평리 166-2번지","indutype":"전기제품 - 가전제품","category":"other"}]},{"lat":"37.16592714","long":"127.64558898","imageIndex":9,"items":[{"name":"경수주유소","tel":"031-884-0266","addr":"경기도 여주시 점동면 덕평리 575-1번지","indutype":"연료판매점 - SK주유소","category":"oil"}]},{"lat":"37.1794019756","long":"127.6628080189","imageIndex":5,"items":[{"name":"꿈의궁전","tel":"031-881-6876","addr":"경기도 여주시 점동면 덕평리 170-6번지","indutype":"숙박업 - 여관/기타숙박업","category":"hotel"}]},{"lat":"37.193285388","long":"127.65492105","imageIndex":7,"items":[{"name":"노총매점","tel":"031-884-9911","addr":"경기도 여주시 점동면 덕평리 9-2번지","indutype":"음료식품 - 기타음료식품","category":"food"}]},{"lat":"37.170507186","long":"127.65332914","imageIndex":7,"items":[{"name":"농업회사법인자연애주식회사","tel":"031-884-3375","addr":"경기도 여주시 점동면 덕평리 428-11번지","indutype":"음료식품 - 농·축·수산품","category":"food"}]},{"lat":"37.165096597","long":"127.6425534","imageIndex":4,"items":[{"name":"미식가","tel":"031-884-1635","addr":"경기도 여주시 점동면 덕평리 578-10번지","indutype":"일반휴게음식 - 일반한식","category":"restaurant"}]},{"lat":"37.192148373","long":"127.66174763","imageIndex":4,"items":[{"name":"방촌묵집","tel":"031-884-1459","addr":"경기도 여주시 점동면 덕평리 2-4번지","indutype":"일반휴게음식 - 일반한식","category":"restaurant"}]},{"lat":"37.175175499","long":"127.66130746","imageIndex":4,"items":[{"name":"솔밭촌","tel":"031-884-5677","addr":"경기도 여주시 점동면 덕평리 283-1번지","indutype":"일반휴게음식 - 일반한식","category":"restaurant"}]},{"lat":"37.179760675","long":"127.66311518","imageIndex":4,"items":[{"name":"중화요리홍도","tel":"031-881-0708","addr":"경기도 여주시 점동면 덕평리 169-4번지","indutype":"일반휴게음식 - 중국식","category":"restaurant"}]},{"lat":"37.166651204","long":"127.64830847","imageIndex":4,"items":[{"name":"한추어탕","tel":"031-883-7006","addr":"경기도 여주시 점동면 덕평리 557-8번지","indutype":"일반휴게음식 - 일반한식","category":"restaurant"}]},{"lat":"37.179950573","long":"127.65974988","imageIndex":4,"items":[{"name":"현대PC식당","tel":"","addr":"경기도 여주시 점동면 덕평리 188-5번지","indutype":"일반휴게음식 - 일반한식","category":"restaurant"}]}]