[{"lat":"37.061821619","long":"127.18888204","imageIndex":17,"items":[{"name":"(주)만파","tel":"031-676-9212","addr":"경기도 안성시 양성면 동항리 522-4번지","indutype":"기타 - 기계공구","category":"other"},{"name":"만파코리아","tel":"031-676-9212","addr":"경기도 안성시 양성면 동항리 522-4번지","indutype":"문화.취미 - 민예·공예품","category":"other"}]},{"lat":"37.064936262","long":"127.18502175","imageIndex":17,"items":[{"name":"(주)윈.인터내셔널","tel":"031-663-7490","addr":"경기도 안성시 양성면 동항리 821-9번지","indutype":"농업 - 농기계","category":"other"}]},{"lat":"37.0703749","long":"127.19315342","imageIndex":17,"items":[{"name":"(주)타카쇼","tel":"031-674-6150","addr":"경기도 안성시 양성면 동항리 산30-5번지","indutype":"건축자재 - 인테리어전문","category":"other"}]},{"lat":"37.064708065","long":"127.1810184","imageIndex":17,"items":[{"name":"English For Fun","tel":"031-676-6840","addr":"경기도 안성시 양성면 동항리 820-9","indutype":"서적문구 - 출판 및 인쇄물","category":"other"},{"name":"윈엔윈(주)","tel":"031-671-0894","addr":"경기도 안성시 양성면 동항리 820-9번지","indutype":"레져용품 - 스포츠·레져용품","category":"other"}]},{"lat":"37.061373898","long":"127.18708201","imageIndex":17,"items":[{"name":"GS25안성동항점","tel":"","addr":"경기도 안성시 양성면 동항리 632-5번지","indutype":"유통업 영리 - 편 의 점","category":"other"}]},{"lat":"37.063908679","long":"127.19663406","imageIndex":17,"items":[{"name":"GS25안성양성점","tel":"02-2006-2485","addr":"경기도 안성시 양성면 동항리 182-1","indutype":"유통업 영리 - 편 의 점","category":"other"}]},{"lat":"37.05835329","long":"127.19407904","imageIndex":17,"items":[{"name":"Han-Green 바이오텍","tel":"031-672-6400","addr":"경기도 안성시 양성면 동항리 690-4번지","indutype":"농업 - 비료,사료,종자","category":"other"}]},{"lat":"37.058464104","long":"127.19240413","imageIndex":17,"items":[{"name":"e~좋은컴퓨터","tel":"031-676-9789","addr":"경기도 안성시 양성면 동항리 681-3번지","indutype":"사무통신 - 컴퓨터","category":"other"}]},{"lat":"37.058181146","long":"127.19466324","imageIndex":17,"items":[{"name":"경희건재","tel":"031-674-0698","addr":"경기도 안성시 양성면 동항리 693-4번지","indutype":"건축자재 - 기타건축자재","category":"other"}]},{"lat":"37.059766112","long":"127.19521814","imageIndex":17,"items":[{"name":"김종규공인중개사","tel":"031-672-2480","addr":"경기도 안성시 양성면 동항리 294-1번지","indutype":"용역 서비스 - 부동산 중개·임대","category":"other"}]},{"lat":"37.058352219","long":"127.19474237","imageIndex":17,"items":[{"name":"다길이엔씨 주식회사","tel":"02-525-3117","addr":"경기도 안성시 양성면 동항리 693-1번지 거산빌딩 201호","indutype":"용역 서비스 - 기타용역서비스","category":"other"}]},{"lat":"37.056933978","long":"127.19694237","imageIndex":17,"items":[{"name":"다다산업","tel":"031-674-3214","addr":"경기도 안성시 양성면 동항리 265-1번지","indutype":"건축자재 - 기타건축자재","category":"other"}]},{"lat":"37.067102572","long":"127.19407851","imageIndex":17,"items":[{"name":"드림 친환경농자재","tel":"031-673-8753","addr":"경기도 안성시 양성면 동항리 70번지","indutype":"농업 - 비료,사료,종자","category":"other"}]},{"lat":"37.06390242","long":"127.18346765","imageIndex":17,"items":[{"name":"렉산폴리켐","tel":"031-427-1605","addr":"경기도 안성시 양성면 동항리 822-1번지 동향2일반산업단지 산업5-2중 2동","indutype":"건축자재 - 기타건축자재","category":"other"}]},{"lat":"37.059602479","long":"127.19610593","imageIndex":17,"items":[{"name":"세븐일레븐양성터미널점","tel":"031-1577-0711","addr":"경기도 안성시 양성면 동항리 296-1번지","indutype":"유통업 영리 - 편 의 점","category":"other"}]},{"lat":"37.057712833","long":"127.19451591","imageIndex":17,"items":[{"name":"신발장터","tel":"031-673-8931","addr":"경기도 안성시 양성면 동항리 695번지","indutype":"신변잡화 - 신발","category":"other"},{"name":"안성맞춤플라워","tel":"031-674-3159","addr":"경기도 안성시 양성면 동항리 695번지","indutype":"문화.취미 - 화원","category":"other"}]},{"lat":"37.058235881","long":"127.19424739","imageIndex":17,"items":[{"name":"씨유안성양성대로점","tel":"031-677-3988","addr":"경기도 안성시 양성면 동항리 690-6번지 1층","indutype":"유통업 영리 - 편 의 점","category":"other"}]},{"lat":"37.058207832","long":"127.19487692","imageIndex":17,"items":[{"name":"아이엘 유통","tel":"","addr":"경기도 안성시 양성면 동항리 693-3번지 1층 7호","indutype":"신변잡화 - 기타잡화","category":"other"}]},{"lat":"37.058432002","long":"127.19555206","imageIndex":17,"items":[{"name":"양성건재","tel":"031-674-2516","addr":"경기도 안성시 양성면 동항리 288-11","indutype":"건축자재 - 기타건축자재","category":"other"}]},{"lat":"37.057379606","long":"127.19441388","imageIndex":17,"items":[{"name":"양성농협경제사업부","tel":"031-672-2772","addr":"경기도 안성시 양성면 동항리 696-1","indutype":"농업 - 농기계","category":"other"},{"name":"우진종합건재","tel":"031-673-7608","addr":"경기도 안성시 양성면 동항리 696-1번지","indutype":"건축자재 - 기타건축자재","category":"other"}]},{"lat":"37.059099477","long":"127.19512652","imageIndex":17,"items":[{"name":"양성농협하나로마트","tel":"031-672-2774","addr":"경기도 안성시 양성면 동항리 292번지 양성농업협동조합","indutype":"유통업 비영리 - 농협하나로클럽","category":"other"}]},{"lat":"37.057403078","long":"127.19660628","imageIndex":17,"items":[{"name":"양성맞춤판넬","tel":"031-671-5404","addr":"경기도 안성시 양성면 동항리 266-1번지","indutype":"건축자재 - 기타건축자재","category":"other"}]},{"lat":"37.05948684","long":"127.19518371","imageIndex":17,"items":[{"name":"양성우체국","tel":"031-672-2000","addr":"경기도 안성시 양성면 동항리 293-1번지","indutype":"용역 서비스 - 공공요금대행서비스/소","category":"other"}]},{"lat":"37.070068401","long":"127.19877497","imageIndex":17,"items":[{"name":"에버그린수목장","tel":"031-673-4785","addr":"경기도 안성시 양성면 동항리 110-8","indutype":"용역 서비스 - 가례서비스업","category":"other"}]},{"lat":"37.059769394","long":"127.19318315","imageIndex":17,"items":[{"name":"원상사","tel":"031-671-7895","addr":"경기도 안성시 양성면 동항리 366번지 성원빌 1층 2호","indutype":"유통업 영리 - 기타유통업","category":"other"}]},{"lat":"37.058630289","long":"127.19551883","imageIndex":17,"items":[{"name":"유마이더스","tel":"","addr":"경기도 안성시 양성면 동항리 288-1번지 2층","indutype":"가구 - 기타가구","category":"other"}]},{"lat":"37.059157072","long":"127.19293427","imageIndex":17,"items":[{"name":"주식회사 골드존","tel":"031-657-2570","addr":"경기도 안성시 양성면 동항리 369번지","indutype":"의류 - 정장","category":"other"}]},{"lat":"37.064095128","long":"127.18116313","imageIndex":17,"items":[{"name":"주식회사 아쎈시스템","tel":"070-9976-2408","addr":"경기도 안성시 양성면 동항리 568번지","indutype":"전기제품 - 냉열기기","category":"other"}]},{"lat":"37.0503537","long":"127.19848822","imageIndex":17,"items":[{"name":"하민산업","tel":"031-674-2175","addr":"경기도 안성시 양성면 동항리 777번지","indutype":"기타 - 기계공구","category":"other"}]},{"lat":"37.06223851","long":"127.1873427","imageIndex":17,"items":[{"name":"한일자원","tel":"031-672-7516","addr":"경기도 안성시 양성면 동항리 529번지 가동","indutype":"신변잡화 - 기타잡화","category":"other"}]},{"lat":"37.057854028","long":"127.19634884","imageIndex":17,"items":[{"name":"현대전기","tel":"031-673-1884","addr":"경기도 안성시 양성면 동항리 269-1번지","indutype":"건축자재 - 보일러·펌프·샷시","category":"other"}]},{"lat":"37.060517173","long":"127.17557812","imageIndex":4,"items":[{"name":"(주)창진산장휴게소","tel":"031-674-7676","addr":"경기도 안성시 양성면 동항리 601-1번지","indutype":"일반휴게음식 - 일반한식","category":"restaurant"}]},{"lat":"37.059431278","long":"127.1961055","imageIndex":4,"items":[{"name":"BB도시락","tel":"031-673-3361","addr":"경기도 안성시 양성면 동항리 296-11번지","indutype":"일반휴게음식 - 일반한식","category":"restaurant"}]},{"lat":"37.060797264","long":"127.19276971","imageIndex":4,"items":[{"name":"가보한방오리백숙","tel":"031-111-1111","addr":"경기도 안성시 양성면 동항리 471번지","indutype":"일반휴게음식 - 일반한식","category":"restaurant"}]},{"lat":"37.061403553","long":"127.18538434","imageIndex":4,"items":[{"name":"강릉해변메밀막국수","tel":"","addr":"경기도 안성시 양성면 동항리 631번지 1층","indutype":"일반휴게음식 - 일반한식","category":"restaurant"}]},{"lat":"37.05912847","long":"127.19391234","imageIndex":4,"items":[{"name":"곱창비어","tel":"031-674-0166","addr":"경기도 안성시 양성면 동항리 345-3번지","indutype":"일반휴게음식 - 일반한식","category":"restaurant"},{"name":"맛나리","tel":"031-677-7252","addr":"경기도 안성시 양성면 동항리 345-3번지 1층","indutype":"일반휴게음식 - 일반한식","category":"restaurant"}]},{"lat":"37.058487868","long":"127.19443915","imageIndex":4,"items":[{"name":"교동짬뽕","tel":"031-677-1246","addr":"경기도 안성시 양성면 동항리 691-2번지","indutype":"일반휴게음식 - 중국식","category":"restaurant"},{"name":"영심이치킨","tel":"031-674-7915","addr":"경기도 안성시 양성면 동항리 691-2번지","indutype":"일반휴게음식 - 주점","category":"restaurant"}]},{"lat":"37.060460195","long":"127.18940715","imageIndex":4,"items":[{"name":"궁중해물탕","tel":"031-671-0761","addr":"경기도 안성시 양성면 동항리 640-5번지","indutype":"일반휴게음식 - 일반한식","category":"restaurant"}]},{"lat":"37.059769394","long":"127.19318315","imageIndex":4,"items":[{"name":"꼬꼬닭갈비","tel":"031-672-6694","addr":"경기도 안성시 양성면 동항리 366번지","indutype":"일반휴게음식 - 일반한식","category":"restaurant"}]},{"lat":"37.060154385","long":"127.19471318","imageIndex":4,"items":[{"name":"다복다방","tel":"031-671-5457","addr":"경기도 안성시 양성면 동항리 390-2번지 D동 1층","indutype":"일반휴게음식 - 서양음식","category":"restaurant"}]},{"lat":"37.061539816","long":"127.18466509","imageIndex":4,"items":[{"name":"다정원","tel":"031-674-3682","addr":"경기도 안성시 양성면 동항리 590-2","indutype":"일반휴게음식 - 일반한식","category":"restaurant"}]},{"lat":"37.061881113","long":"127.18538548","imageIndex":4,"items":[{"name":"도라지골","tel":"031-674-8292","addr":"경기도 안성시 양성면 동항리 587-5번지","indutype":"일반휴게음식 - 일반한식","category":"restaurant"},{"name":"도라지골","tel":"031-674-8292","addr":"경기도 안성시 양성면 동항리 587-5번지","indutype":"일반휴게음식 - 일반한식","category":"restaurant"}]},{"lat":"37.0587404","long":"127.19429363","imageIndex":4,"items":[{"name":"동광식당","tel":"031-672-2890","addr":"경기도 안성시 양성면 동항리 347-1번지","indutype":"일반휴게음식 - 일반한식","category":"restaurant"}]},{"lat":"37.059209927","long":"127.19368769","imageIndex":4,"items":[{"name":"들녁포장마차","tel":"031-674-2340","addr":"경기도 안성시 양성면 동항리 357-2번지","indutype":"일반휴게음식 - 일반한식","category":"restaurant"}]},{"lat":"37.063128264","long":"127.18297109","imageIndex":4,"items":[{"name":"만델링","tel":"031-673-9914","addr":"경기도 안성시 양성면 동항리 576번지","indutype":"일반휴게음식 - 서양음식","category":"restaurant"}]},{"lat":"37.059768816","long":"127.19354292","imageIndex":4,"items":[{"name":"맛있는밥상","tel":"031-671-7279","addr":"경기도 안성시 양성면 동항리 362번지 대양빌라 101호","indutype":"일반휴게음식 - 일반한식","category":"restaurant"}]},{"lat":"37.061075483","long":"127.18776713","imageIndex":4,"items":[{"name":"방축역돔회직판장","tel":"031-673-4780","addr":"경기도 안성시 양성면 동항리 642-4","indutype":"일반휴게음식 - 일식·회집","category":"restaurant"}]},{"lat":"37.065983648","long":"127.19507642","imageIndex":4,"items":[{"name":"백년황태","tel":"031-674-9600","addr":"경기도 안성시 양성면 동항리 81-5번지","indutype":"일반휴게음식 - 일반한식","category":"restaurant"}]},{"lat":"37.059630678","long":"127.18394098","imageIndex":4,"items":[{"name":"베짜타연못","tel":"031-672-6767","addr":"경기도 안성시 양성면 동항리 622번지","indutype":"일반휴게음식 - 일반한식","category":"restaurant"}]},{"lat":"37.055965401","long":"127.19412926","imageIndex":4,"items":[{"name":"별난돼지 김치찌개&뒷고기","tel":"031-673-5058","addr":"경기도 안성시 양성면 동항리 701번지","indutype":"일반휴게음식 - 일반한식","category":"restaurant"}]},{"lat":"37.059487513","long":"127.19476772","imageIndex":4,"items":[{"name":"별이네닭강정 간식","tel":"031-674-8259","addr":"경기도 안성시 양성면 동항리 336번지","indutype":"일반휴게음식 - 일반한식","category":"restaurant"},{"name":"양성다방","tel":"031-672-2876","addr":"경기도 안성시 양성면 동항리 336번지","indutype":"일반휴게음식 - 서양음식","category":"restaurant"}]},{"lat":"37.059157072","long":"127.19293427","imageIndex":4,"items":[{"name":"비비큐양성점","tel":"031-673-5552","addr":"경기도 안성시 양성면 동항리 369","indutype":"일반휴게음식 - 주점","category":"restaurant"},{"name":"양성식당","tel":"","addr":"경기도 안성시 양성면 동항리 369번지","indutype":"일반휴게음식 - 일반한식","category":"restaurant"},{"name":"자매한식부페","tel":"031-673-6002","addr":"경기도 안성시 양성면 동항리 369번지","indutype":"일반휴게음식 - 일반한식","category":"restaurant"}]},{"lat":"37.059182189","long":"127.19412609","imageIndex":4,"items":[{"name":"수라이브7080","tel":"031-672-5505","addr":"경기도 안성시 양성면 동항리 344-3번지 1층","indutype":"일반휴게음식 - 주점","category":"restaurant"}]},{"lat":"37.062296195","long":"127.19638261","imageIndex":4,"items":[{"name":"시골막국수","tel":"031-672-6008","addr":"경기도 안성시 양성면 동항리 201번지 1층","indutype":"일반휴게음식 - 일반한식","category":"restaurant"}]},{"lat":"37.06129782","long":"127.18382126","imageIndex":4,"items":[{"name":"시골집","tel":"031-672-4135","addr":"경기도 안성시 양성면 동항리 593-1","indutype":"일반휴게음식 - 일반한식","category":"restaurant"}]},{"lat":"37.058180473","long":"127.19507923","imageIndex":4,"items":[{"name":"신바람난 찐빵집손만두","tel":"031-675-2883","addr":"경기도 안성시 양성면 동항리 726번지","indutype":"일반휴게음식 - 일반한식","category":"restaurant"},{"name":"양성골손만두","tel":"031-674-9981","addr":"경기도 안성시 양성면 동항리 726","indutype":"일반휴게음식 - 일반한식","category":"restaurant"},{"name":"종가집 손만두","tel":"031-675-6202","addr":"경기도 안성시 양성면 동항리 726번지 1층","indutype":"일반휴게음식 - 일반한식","category":"restaurant"}]},{"lat":"37.059016921","long":"127.19602575","imageIndex":4,"items":[{"name":"심가네 참숯돼지갈비","tel":"041-000-0000","addr":"경기도 안성시 양성면 동항리 296-14번지 1동","indutype":"일반휴게음식 - 일반한식","category":"restaurant"}]},{"lat":"37.059345392","long":"127.19349689","imageIndex":4,"items":[{"name":"암행어사","tel":"031-674-8232","addr":"경기도 안성시 양성면 동항리 356","indutype":"일반휴게음식 - 일반한식","category":"restaurant"},{"name":"은하수커피숍","tel":"031-672-3327","addr":"경기도 안성시 양성면 동항리 356번지 1층","indutype":"일반휴게음식 - 서양음식","category":"restaurant"}]},{"lat":"37.060017456","long":"127.19018184","imageIndex":4,"items":[{"name":"약수터식당/(주)약수터","tel":"031-672-4728","addr":"경기도 안성시 양성면 동항리 655번지","indutype":"일반휴게음식 - 일반한식","category":"restaurant"}]},{"lat":"37.060794044","long":"127.19477101","imageIndex":4,"items":[{"name":"양성반점","tel":"031-673-3993","addr":"경기도 안성시 양성면 동항리 396번지","indutype":"일반휴게음식 - 중국식","category":"restaurant"}]},{"lat":"37.059852","long":"127.19223893","imageIndex":4,"items":[{"name":"양평뚝배기해장국","tel":"031-674-2371","addr":"경기도 안성시 양성면 동항리 653-3","indutype":"일반휴게음식 - 일반한식","category":"restaurant"}]},{"lat":"37.055183381","long":"127.19848937","imageIndex":4,"items":[{"name":"옛날오리","tel":"031-672-0380","addr":"경기도 안성시 양성면 동항리 254-1번지 1동 1층","indutype":"일반휴게음식 - 일반한식","category":"restaurant"}]},{"lat":"37.060658703","long":"127.1948831","imageIndex":4,"items":[{"name":"완산골명가 양성점","tel":"031-672-2951","addr":"경기도 안성시 양성면 동항리 393-1번지","indutype":"일반휴게음식 - 일반한식","category":"restaurant"}]},{"lat":"37.060543083","long":"127.1994588","imageIndex":4,"items":[{"name":"이가네닭개장","tel":"031-673-6426","addr":"경기도 안성시 양성면 동항리 218-2번지 1층","indutype":"일반휴게음식 - 일반한식","category":"restaurant"}]},{"lat":"37.063100685","long":"127.18333082","imageIndex":4,"items":[{"name":"이상진의별난면옥","tel":"031-674-8674","addr":"경기도 안성시 양성면 동항리 576-12","indutype":"일반휴게음식 - 일반한식","category":"restaurant"}]},{"lat":"37.058517142","long":"127.1930451","imageIndex":4,"items":[{"name":"이은희엄마김밥","tel":"031-674-7179","addr":"경기도 안성시 양성면 동항리 682번지","indutype":"일반휴게음식 - 일반한식","category":"restaurant"}]},{"lat":"37.059269143","long":"127.19607136","imageIndex":4,"items":[{"name":"정가네돼지국밥2호점","tel":"031-677-7879","addr":"경기도 안성시 양성면 동항리 296-6번지","indutype":"일반휴게음식 - 일반한식","category":"restaurant"}]},{"lat":"37.05987631","long":"127.1939367","imageIndex":4,"items":[{"name":"정석통바베큐족구이","tel":"031-674-8285","addr":"경기도 안성시 양성면 동항리 363-3번지","indutype":"일반휴게음식 - 일반한식","category":"restaurant"}]},{"lat":"37.058432002","long":"127.19555206","imageIndex":4,"items":[{"name":"정인자엄마치킨","tel":"031-676-9984","addr":"경기도 안성시 양성면 동항리 288-11번지","indutype":"일반휴게음식 - 스넥","category":"restaurant"}]},{"lat":"37.059378293","long":"127.19544202","imageIndex":4,"items":[{"name":"짬뽕김선생","tel":"031-673-2220","addr":"경기도 안성시 양성면 동항리 295-4번지","indutype":"일반휴게음식 - 중국식","category":"restaurant"},{"name":"카페(cafe) ㄱ해","tel":"031-677-0179","addr":"경기도 안성시 양성면 동항리 295-4번지","indutype":"일반휴게음식 - 서양음식","category":"restaurant"},{"name":"한식기사뷔페 (양성점)","tel":"031-677-9533","addr":"경기도 안성시 양성면 동항리 295-4번지","indutype":"일반휴게음식 - 일반한식","category":"restaurant"},{"name":"호식이두마리치킨양성점","tel":"031-672-9902","addr":"경기도 안성시 양성면 동항리 295-4번지 가동 1층","indutype":"일반휴게음식 - 스넥","category":"restaurant"}]},{"lat":"37.059935924","long":"127.19607305","imageIndex":4,"items":[{"name":"찬푸드","tel":"031-675-7003","addr":"경기도 안성시 양성면 동항리 316-6번지","indutype":"일반휴게음식 - 일반한식","category":"restaurant"}]},{"lat":"37.067491021","long":"127.19346105","imageIndex":4,"items":[{"name":"치킨밥양성점","tel":"031-671-9255","addr":"경기도 안성시 양성면 동항리 63-1","indutype":"일반휴게음식 - 주점","category":"restaurant"}]},{"lat":"37.05824183","long":"127.19613621","imageIndex":4,"items":[{"name":"커피유 (Coffee u)","tel":"031-673-5249","addr":"경기도 안성시 양성면 동항리 268-1번지 가동 1층 103호","indutype":"일반휴게음식 - 서양음식","category":"restaurant"}]},{"lat":"37.063908679","long":"127.19663406","imageIndex":4,"items":[{"name":"하오츠반점","tel":"031-671-2292","addr":"경기도 안성시 양성면 동항리 182-1번지 1층","indutype":"일반휴게음식 - 중국식","category":"restaurant"}]},{"lat":"37.056933978","long":"127.19694237","imageIndex":4,"items":[{"name":"한방 반계 삼계탕","tel":"031-675-7279","addr":"경기도 안성시 양성면 동항리 265-1번지 1층","indutype":"일반휴게음식 - 일반한식","category":"restaurant"}]},{"lat":"37.05665925","long":"127.19410852","imageIndex":4,"items":[{"name":"향교골뼈해장국","tel":"031-674-0708","addr":"경기도 안성시 양성면 동항리 699-1","indutype":"일반휴게음식 - 일반한식","category":"restaurant"}]},{"lat":"37.067379571","long":"127.19551847","imageIndex":4,"items":[{"name":"향교골손두부","tel":"031-674-2095","addr":"경기도 안성시 양성면 동항리 96-1","indutype":"일반휴게음식 - 일반한식","category":"restaurant"}]},{"lat":"37.060570122","long":"127.19393844","imageIndex":0,"items":[{"name":"21세기자동차정비공업사","tel":"031-674-6207","addr":"경기도 안성시 양성면 동항리 382-1","indutype":"자동차정비 유지 - 자동차정비","category":"car"}]},{"lat":"37.06448495","long":"127.19688289","imageIndex":0,"items":[{"name":"양성자동차정비","tel":"031-673-6969","addr":"경기도 안성시 양성면 동항리 170-3번지","indutype":"자동차정비 유지 - 자동차정비","category":"car"}]},{"lat":"37.055325107","long":"127.19446493","imageIndex":0,"items":[{"name":"에이치케이운송","tel":"","addr":"경기도 안성시 양성면 동항리 702번지","indutype":"자동차정비 유지 - 자동차부품","category":"car"}]},{"lat":"37.058847945","long":"127.19465368","imageIndex":7,"items":[{"name":"고향마트","tel":"031-674-9943","addr":"경기도 안성시 양성면 동항리 342-1번지","indutype":"유통업 영리 - 슈퍼마켓","category":"mart"}]},{"lat":"37.05987631","long":"127.1939367","imageIndex":7,"items":[{"name":"미성슈퍼","tel":"031-673-6987","addr":"경기도 안성시 양성면 동항리 363-3","indutype":"유통업 영리 - 슈퍼마켓","category":"mart"}]},{"lat":"37.05987631","long":"127.1939367","imageIndex":13,"items":[{"name":"내맘에봄","tel":"031-675-8902","addr":"경기도 안성시 양성면 동항리 363-3번지","indutype":"보건위생 - 미용원","category":"beauty"}]},{"lat":"37.058181146","long":"127.19466324","imageIndex":13,"items":[{"name":"머리나라헤어라인","tel":"031-673-1480","addr":"경기도 안성시 양성면 동항리 693-4번지","indutype":"보건위생 - 미용원","category":"beauty"}]},{"lat":"37.060153657","long":"127.1951629","imageIndex":13,"items":[{"name":"티지헤어","tel":"031-671-4556","addr":"경기도 안성시 양성면 동항리 322번지","indutype":"보건위생 - 미용원","category":"beauty"}]},{"lat":"37.05912847","long":"127.19391234","imageIndex":13,"items":[{"name":"뉴스타노래연습장","tel":"031-672-2941","addr":"경기도 안성시 양성면 동항리 345-3번지 2층","indutype":"레저업소 - 노 래 방","category":"leisure"},{"name":"스타노래연습장","tel":"031-672-2941","addr":"경기도 안성시 양성면 동항리 345-3번지","indutype":"레저업소 - 노 래 방","category":"leisure"}]},{"lat":"37.063346261","long":"127.17574194","imageIndex":13,"items":[{"name":"안성홀스라이딩","tel":"02-545-1714","addr":"경기도 안성시 양성면 동항리 600-18번지 2층","indutype":"레저업소 - 기타레져업소","category":"leisure"}]},{"lat":"37.059378293","long":"127.19544202","imageIndex":13,"items":[{"name":"양성당구클럽","tel":"","addr":"경기도 안성시 양성면 동항리 295-4번지 2층","indutype":"레저업소 - 당 구 장","category":"leisure"}]},{"lat":"37.075042899","long":"127.19282772","imageIndex":13,"items":[{"name":"주식회사 골프존카운티(안성더블유)","tel":"031-670-0500","addr":"경기도 안성시 양성면 동항리 25-1번지","indutype":"레저업소 - 골프경기장","category":"leisure"}]},{"lat":"37.059935924","long":"127.19607305","imageIndex":13,"items":[{"name":"타미나당구장","tel":"070-4131-8088","addr":"경기도 안성시 양성면 동항리 316-6번지","indutype":"레저업소 - 당 구 장","category":"leisure"}]},{"lat":"37.061821619","long":"127.18888204","imageIndex":16,"items":[{"name":"만파통나무공예학원","tel":"031-676-9212","addr":"경기도 안성시 양성면 동항리 522-4번지","indutype":"학원 - 기능학원","category":"study"}]},{"lat":"37.060261747","long":"127.19518566","imageIndex":16,"items":[{"name":"새한학원","tel":"031-673-7384","addr":"경기도 안성시 양성면 동항리 321-1번지","indutype":"학원 - 보습학원","category":"study"}]},{"lat":"37.063100308","long":"127.19504666","imageIndex":16,"items":[{"name":"양성중학교","tel":"031-670-7973","addr":"경기도 안성시 양성면 동항리 415번지","indutype":"학원 - 초중고교육기관","category":"study"}]},{"lat":"37.061902578","long":"127.19462763","imageIndex":16,"items":[{"name":"양성초등학교","tel":"031-670-7972","addr":"경기도 안성시 양성면 동항리 420번지 양성초등학교","indutype":"학원 - 초중고교육기관","category":"study"},{"name":"양성초병설유치원[아이행복]","tel":"031-670-7800","addr":"경기도 안성시 양성면 동항리 420번지","indutype":"학원 - 유치원","category":"study"}]},{"lat":"37.060238135","long":"127.18146892","imageIndex":5,"items":[{"name":"베르사유","tel":"031-671-0113","addr":"경기도 안성시 양성면 동항리 616","indutype":"숙박업 - 여관/기타숙박업","category":"hotel"}]},{"lat":"37.061405466","long":"127.18413633","imageIndex":5,"items":[{"name":"쉐르빌","tel":"031-671-2221","addr":"경기도 안성시 양성면 동항리 590","indutype":"숙박업 - 여관/기타숙박업","category":"hotel"}]},{"lat":"37.061710344","long":"127.18510399","imageIndex":5,"items":[{"name":"젠모텔","tel":"031-673-0653","addr":"경기도 안성시 양성면 동항리 589번지","indutype":"숙박업 - 여관/기타숙박업","category":"hotel"}]},{"lat":"37.05824183","long":"127.19613621","imageIndex":8,"items":[{"name":"소망의원","tel":"031-674-9977","addr":"경기도 안성시 양성면 동항리 268-1번지 101호","indutype":"의원 - 의원","category":"medical"},{"name":"은혜약국","tel":"031-672-9005","addr":"경기도 안성시 양성면 동항리 268-1번지","indutype":"약국 - 약국","category":"medical"}]},{"lat":"37.059378293","long":"127.19544202","imageIndex":8,"items":[{"name":"양성한의원","tel":"031-675-8001","addr":"경기도 안성시 양성면 동항리 295-4번지","indutype":"의원 - 한의원","category":"medical"}]},{"lat":"37.058181146","long":"127.19466324","imageIndex":8,"items":[{"name":"좋은동물병원","tel":"031-671-0175","addr":"경기도 안성시 양성면 동항리 693-4번지","indutype":"기타의료기관 - 동물병원","category":"medical"}]},{"lat":"37.060741845","long":"127.18205475","imageIndex":9,"items":[{"name":"양성(하나)가스","tel":"031-674-2664","addr":"경기도 안성시 양성면 동항리 599번지","indutype":"연료판매점 - LPG 취급점","category":"oil"}]},{"lat":"37.059099477","long":"127.19512652","imageIndex":9,"items":[{"name":"양성농협주유소","tel":"031-674-2771","addr":"경기도 안성시 양성면 동항리 292번지","indutype":"연료판매점 - 주유소","category":"oil"}]},{"lat":"37.059487513","long":"127.19476772","imageIndex":7,"items":[{"name":"양성과일","tel":"","addr":"경기도 안성시 양성면 동항리 336번지","indutype":"음료식품 - 농·축·수산품","category":"food"}]},{"lat":"37.061488945","long":"127.19409815","imageIndex":7,"items":[{"name":"오뚜기수산","tel":"031-672-0985","addr":"경기도 안성시 양성면 동항리 424-1번지","indutype":"음료식품 - 농·축·수산품","category":"food"}]}]