[{"lat":"37.469677819","long":"126.80937622","imageIndex":8,"items":[{"name":"경희범박한의원","tel":"032-347-6675","addr":"경기도 부천시 범박동 44-16번지 보람월드프라자 305호","indutype":"의원 - 한의원","category":"medical"},{"name":"선린의원","tel":"032-343-0075","addr":"경기도 부천시 범박동 44-16번지 보람월드프라자 3층 302호","indutype":"의원 - 의원","category":"medical"},{"name":"소사명인치과의원","tel":"032-342-2275","addr":"경기도 부천시 범박동 44-16번지 보람월드프라자 303호","indutype":"의원 - 치과의원","category":"medical"}]},{"lat":"37.471128972","long":"126.80971161","imageIndex":8,"items":[{"name":"꿈꾸는아이 치과의원","tel":"032-345-1275","addr":"경기도 부천시 범박동 155-2번지 현대리치모아 4층 410호","indutype":"의원 - 치과의원","category":"medical"},{"name":"다나은 약국","tel":"032-342-8252","addr":"경기도 부천시 범박동 155-2번지 현대리치모아 4층 406호","indutype":"약국 - 약국","category":"medical"},{"name":"닥터두 (Dr.Doo) 안과의원","tel":"032-241-2027","addr":"경기도 부천시 범박동 155-2번지 현대리치모아 409호","indutype":"의원 - 의원","category":"medical"},{"name":"드림성모이비인후과의원","tel":"032-343-9724","addr":"경기도 부천시 범박동 155-2번지 현대리치모아 4층 412호","indutype":"의원 - 의원","category":"medical"},{"name":"메디팜유경약국","tel":"032-342-8252","addr":"경기도 부천시 범박동 155-2번지 현대리치모아 4층 406호","indutype":"약국 - 약국","category":"medical"},{"name":"현대약국","tel":"032-348-2348","addr":"경기도 부천시 범박동 155-2번지 현대리치모아 405호","indutype":"약국 - 약국","category":"medical"},{"name":"힐링한의원","tel":"032-342-3242","addr":"경기도 부천시 범박동 155-2번지 현대리치모아 404호","indutype":"의원 - 한의원","category":"medical"}]},{"lat":"37.472983349","long":"126.80868941","imageIndex":8,"items":[{"name":"노엘동물병원","tel":"032-247-7575","addr":"경기도 부천시 범박동 32-6번지 광림빌딩 2층","indutype":"기타의료기관 - 동물병원","category":"medical"},{"name":"탄탄이치과","tel":"032-345-7522","addr":"경기도 부천시 범박동 32-6번지 광림빌딩 3층","indutype":"의원 - 치과의원","category":"medical"}]},{"lat":"37.471208691","long":"126.80887488","imageIndex":8,"items":[{"name":"맥한의원","tel":"032-343-0700","addr":"경기도 부천시 범박동 35-1번지 영플러스빌딩 301호","indutype":"의원 - 한의원","category":"medical"}]},{"lat":"37.471010528","long":"126.8089093","imageIndex":8,"items":[{"name":"메디의원","tel":"032-342-3114","addr":"경기도 부천시 범박동 35-3번지 2층 ,3층","indutype":"의원 - 의원","category":"medical"},{"name":"현대다사랑약국","tel":"032-344-4200","addr":"경기도 부천시 범박동 35-3번지 1층 101호","indutype":"약국 - 약국","category":"medical"}]}]