[{"lat":"37.827645708","long":"127.05359812","imageIndex":7,"items":[{"name":"궁중떡집","tel":"031-858-8090","addr":"경기도 양주시 회정동 870-1번지 5","indutype":"음료식품 - 제과점","category":"food"}]},{"lat":"37.83044776","long":"127.05331606","imageIndex":7,"items":[{"name":"더건강제환원","tel":"070-7435-3993","addr":"경기도 양주시 회정동 421-18번지 1층 일부","indutype":"음료식품 - 기타음료식품","category":"food"}]},{"lat":"37.850781484","long":"127.05448885","imageIndex":7,"items":[{"name":"명품백화점","tel":"031-864-2911","addr":"경기도 양주시 회정동 17-7번지 상가일부","indutype":"음료식품 - 기타음료식품","category":"food"}]},{"lat":"37.829808101","long":"127.05329291","imageIndex":7,"items":[{"name":"솔건강원","tel":"031-859-2722","addr":"경기도 양주시 회정동 421-12번지 1층 일부","indutype":"건강식품 - 기타건강식품","category":"food"}]},{"lat":"37.829032943","long":"127.05409886","imageIndex":7,"items":[{"name":"안심정육점","tel":"031-868-9831","addr":"경기도 양주시 회정동 391-1번지 1층","indutype":"음료식품 - 정육점","category":"food"}]},{"lat":"37.84058305","long":"127.05401596","imageIndex":7,"items":[{"name":"양주경찰서 상조회","tel":"031-869-9480","addr":"경기도 양주시 회정동 84-7번지 양주경찰서","indutype":"음료식품 - 기타음료식품","category":"food"}]},{"lat":"37.827862207","long":"127.05296219","imageIndex":7,"items":[{"name":"우리도니2호점","tel":"031-858-3560","addr":"경기도 양주시 회정동 349-2번지 1층","indutype":"음료식품 - 정육점","category":"food"}]},{"lat":"37.828168493","long":"127.0530419","imageIndex":7,"items":[{"name":"정관장홍삼양주점","tel":"031-859-2385","addr":"경기도 양주시 회정동 347번지","indutype":"건강식품 - 홍삼제품","category":"food"},{"name":"정관장홍삼양주점","tel":"031-859-2385","addr":"경기도 양주시 회정동 347번지","indutype":"건강식품 - 홍삼제품","category":"food"}]}]