[{"lat":"37.000156965","long":"127.07902841","imageIndex":13,"items":[{"name":"그린골프연습장","tel":"02-0000-0000","addr":"경기도 평택시 세교동 568-3번지 그린프라자빌딩 지층","indutype":"레저업소 - 골프연습장","category":"leisure"},{"name":"앵콜 노래연습장","tel":"031-657-8778","addr":"경기도 평택시 세교동 568-3번지 2층","indutype":"레저업소 - 노 래 방","category":"leisure"},{"name":"킹당구장","tel":"","addr":"경기도 평택시 세교동 568-3번지 3층","indutype":"레저업소 - 당 구 장","category":"leisure"},{"name":"킹당구장","tel":"031-657-9795","addr":"경기도 평택시 세교동 568-3번지 3층","indutype":"레저업소 - 당 구 장","category":"leisure"}]},{"lat":"36.999327474","long":"127.07981398","imageIndex":13,"items":[{"name":"기모찌 노래연습장","tel":"070-7799-8858","addr":"경기도 평택시 세교동 569-3번지","indutype":"레저업소 - 노 래 방","category":"leisure"},{"name":"민 당구클럽","tel":"031-657-4172","addr":"경기도 평택시 세교동 569-3번지 2층","indutype":"레저업소 - 당 구 장","category":"leisure"}]},{"lat":"36.999994054","long":"127.08014045","imageIndex":13,"items":[{"name":"내고향노래연습장","tel":"031-657-4729","addr":"경기도 평택시 세교동 567-15번지","indutype":"레저업소 - 노 래 방","category":"leisure"}]},{"lat":"36.999435479","long":"127.08000507","imageIndex":13,"items":[{"name":"뉴차차차노래연습장","tel":"031-618-8621","addr":"경기도 평택시 세교동 566-10번지","indutype":"레저업소 - 노 래 방","category":"leisure"}]},{"lat":"36.99912913","long":"127.0799823","imageIndex":13,"items":[{"name":"동양당구장","tel":"031-656-1668","addr":"경기도 평택시 세교동 569-4번지 3층","indutype":"레저업소 - 당 구 장","category":"leisure"},{"name":"벌떼노래연습장","tel":"031-692-9977","addr":"경기도 평택시 세교동 569-4번지","indutype":"레저업소 - 노 래 방","category":"leisure"}]},{"lat":"37.000102343","long":"127.0798934","imageIndex":13,"items":[{"name":"두꺼비노래연습장","tel":"031-657-5331","addr":"경기도 평택시 세교동 561-10번지 지하","indutype":"레저업소 - 노 래 방","category":"leisure"}]},{"lat":"36.999858313","long":"127.08102782","imageIndex":13,"items":[{"name":"따봉노래연습장","tel":"031-651-9934","addr":"경기도 평택시 세교동 566-1번지","indutype":"레저업소 - 노 래 방","category":"leisure"}]},{"lat":"36.999048128","long":"127.07983617","imageIndex":13,"items":[{"name":"레인보우 당구클럽","tel":"031-000-0000","addr":"경기도 평택시 세교동 569-7번지 덕성빌딩 지하1층","indutype":"레저업소 - 당 구 장","category":"leisure"}]},{"lat":"37.010132229","long":"127.09139776","imageIndex":13,"items":[{"name":"메이져골프클럽","tel":"031-651-0752","addr":"경기도 평택시 세교동 7-2번지 남부빌딩 4층 전체","indutype":"레저업소 - 골프연습장","category":"leisure"}]},{"lat":"37.008797044","long":"127.08083473","imageIndex":13,"items":[{"name":"블랙홀 당구클럽","tel":"031-618-4939","addr":"경기도 평택시 세교동 543번지 2층","indutype":"레저업소 - 당 구 장","category":"leisure"}]},{"lat":"36.999858527","long":"127.08070203","imageIndex":13,"items":[{"name":"빵빵노래연습장","tel":"031-654-5529","addr":"경기도 평택시 세교동 566-16번지","indutype":"레저업소 - 노 래 방","category":"leisure"}]},{"lat":"36.999524345","long":"127.08189252","imageIndex":13,"items":[{"name":"사이버노래연습장","tel":"031-658-4255","addr":"경기도 평택시 세교동 563-1번지 지하층 지","indutype":"레저업소 - 노 래 방","category":"leisure"}]},{"lat":"37.0006874","long":"127.08087139","imageIndex":13,"items":[{"name":"수정노래연습장","tel":"031-111-1111","addr":"경기도 평택시 세교동 561-1번지","indutype":"레저업소 - 노 래 방","category":"leisure"}]},{"lat":"37.00010205","long":"127.08034278","imageIndex":13,"items":[{"name":"신도시노래연습장","tel":"031-691-1316","addr":"경기도 평택시 세교동 567-17번지 지층","indutype":"레저업소 - 노 래 방","category":"leisure"}]},{"lat":"36.999552872","long":"127.07961199","imageIndex":13,"items":[{"name":"싸이 노래연습장","tel":"031-651-6434","addr":"경기도 평택시 세교동 569-2번지","indutype":"레저업소 - 노 래 방","category":"leisure"}]},{"lat":"36.999742024","long":"127.07972453","imageIndex":13,"items":[{"name":"엔젤노래연습장","tel":"031-651-6050","addr":"경기도 평택시 세교동 567-11번지","indutype":"레저업소 - 노 래 방","category":"leisure"}]},{"lat":"37.004409034","long":"127.08053814","imageIndex":13,"items":[{"name":"예무관","tel":"031-656-9091","addr":"경기도 평택시 세교동 255번지","indutype":"레저업소 - 헬스클럽","category":"leisure"}]},{"lat":"36.999605493","long":"127.08181396","imageIndex":13,"items":[{"name":"월드컵노래방","tel":"031-657-2266","addr":"경기도 평택시 세교동 563번지","indutype":"레저업소 - 노 래 방","category":"leisure"}]},{"lat":"36.99985058","long":"127.07906181","imageIndex":13,"items":[{"name":"제이요가","tel":"031-691-8211","addr":"경기도 평택시 세교동 569-13번지 2층","indutype":"레저업소 - 헬스클럽","category":"leisure"}]},{"lat":"36.999715167","long":"127.07945488","imageIndex":13,"items":[{"name":"중앙당구장","tel":"070-8295-5464","addr":"경기도 평택시 세교동 569-1번지 2층","indutype":"레저업소 - 당 구 장","category":"leisure"}]},{"lat":"37.006817664","long":"127.07617005","imageIndex":13,"items":[{"name":"초롱이벤트","tel":"","addr":"경기도 평택시 세교동 432-62번지 장미타운 25동 101호","indutype":"레저업소 - 기타레져업소","category":"leisure"}]},{"lat":"37.000498109","long":"127.0809723","imageIndex":13,"items":[{"name":"카라노래방","tel":"031-656-1142","addr":"경기도 평택시 세교동 562번지","indutype":"레저업소 - 노 래 방","category":"leisure"}]},{"lat":"36.998939803","long":"127.08013938","imageIndex":13,"items":[{"name":"킹노래연습장","tel":"031-658-6347","addr":"경기도 평택시 세교동 569-5번지","indutype":"레저업소 - 노 래 방","category":"leisure"}]},{"lat":"36.99999436","long":"127.07966861","imageIndex":13,"items":[{"name":"팡팡노래연습장","tel":"031-657-6626","addr":"경기도 평택시 세교동 561-12번지","indutype":"레저업소 - 노 래 방","category":"leisure"}]},{"lat":"37.000580769","long":"127.07855699","imageIndex":13,"items":[{"name":"평택복싱세교점","tel":"031-663-5128","addr":"경기도 평택시 세교동 568번지 3층","indutype":"레저업소 - 헬스클럽","category":"leisure"}]},{"lat":"36.999551764","long":"127.08130836","imageIndex":13,"items":[{"name":"핑크노래연습장","tel":"031-654-8163","addr":"경기도 평택시 세교동 565-1번지 지층 전체","indutype":"레저업소 - 노 래 방","category":"leisure"}]},{"lat":"37.000048923","long":"127.07889349","imageIndex":13,"items":[{"name":"황제당구장","tel":"031-657-7082","addr":"경기도 평택시 세교동 568-4번지 5층","indutype":"레저업소 - 당 구 장","category":"leisure"}]}]