[{"lat":"37.737464939","long":"127.41956498","imageIndex":7,"items":[{"name":"(주)차오름물류지점","tel":"031-584-6684","addr":"경기도 가평군 청평면 청평리 432-22","indutype":"유통업 영리 - 슈퍼마켓","category":"mart"},{"name":"차오름물류 지점㈜(레몬마트청평점)","tel":"031-584-6684","addr":"경기도 가평군 청평면 청평리 432-22번지","indutype":"유통업 영리 - 슈퍼마켓","category":"mart"}]},{"lat":"37.735745894","long":"127.41650368","imageIndex":7,"items":[{"name":"365할인마트","tel":"031-584-0225","addr":"경기도 가평군 청평면 청평리 434-11번지","indutype":"유통업 영리 - 슈퍼마켓","category":"mart"}]},{"lat":"37.732330065","long":"127.42195247","imageIndex":7,"items":[{"name":"광명매점","tel":"031-584-2329","addr":"경기도 가평군 청평면 청평리 92-27","indutype":"유통업 영리 - 슈퍼마켓","category":"mart"}]},{"lat":"37.737268392","long":"127.41653484","imageIndex":7,"items":[{"name":"아자스포츠편의점","tel":"031-584-9815","addr":"경기도 가평군 청평면 청평리 446-1","indutype":"유통업 영리 - 슈퍼마켓","category":"mart"}]},{"lat":"37.727663403","long":"127.41420142","imageIndex":7,"items":[{"name":"우리마트","tel":"031-585-0747","addr":"경기도 가평군 청평면 청평리 715번지","indutype":"유통업 영리 - 슈퍼마켓","category":"mart"}]},{"lat":"37.736436106","long":"127.41750584","imageIndex":7,"items":[{"name":"주)365할인마트","tel":"031-585-8051","addr":"경기도 가평군 청평면 청평리 319-90","indutype":"유통업 영리 - 슈퍼마켓","category":"mart"}]},{"lat":"37.73285926","long":"127.41495617","imageIndex":7,"items":[{"name":"청일마트","tel":"031-584-9219","addr":"경기도 가평군 청평면 청평리 76-6번지","indutype":"유통업 영리 - 슈퍼마켓","category":"mart"}]},{"lat":"37.736049517","long":"127.41470159","imageIndex":7,"items":[{"name":"청평DC마트","tel":"031-584-5900","addr":"경기도 가평군 청평면 청평리 445-4번지","indutype":"유통업영리 - 슈퍼마켓","category":"mart"}]},{"lat":"37.738494178","long":"127.41639417","imageIndex":7,"items":[{"name":"청평DC마트","tel":"031-584-2572","addr":"경기도 가평군 청평면 청평리 445-4번지","indutype":"유통업 영리 - 슈퍼마켓","category":"mart"}]},{"lat":"37.733608324","long":"127.42478437","imageIndex":7,"items":[{"name":"플러스25시마트","tel":"","addr":"경기도 가평군 청평면 청평리 128-13번지","indutype":"유통업 영리 - 슈퍼마켓","category":"mart"}]},{"lat":"37.741354826","long":"127.42272944","imageIndex":7,"items":[{"name":"행복마트","tel":"03-111-1111","addr":"경기도 가평군 청평면 청평리 301-4번지 네오오피스텔 2층 203호","indutype":"유통업 영리 - 슈퍼마켓","category":"mart"}]}]