[{"lat":"37.851456228","long":"127.50616049","imageIndex":4,"items":[{"name":"다주리진곰탕","tel":"070-7778-2407","addr":"경기도 가평군 가평읍 마장리 710-3번지","indutype":"일반휴게음식 - 일반한식","category":"restaurant"}]},{"lat":"37.846978975","long":"127.50607325","imageIndex":4,"items":[{"name":"두메막국수","tel":"031-582-4188","addr":"경기도 가평군 가평읍 마장리 800-14번지","indutype":"일반휴게음식 - 일반한식","category":"restaurant"}]},{"lat":"37.859259092","long":"127.51640647","imageIndex":4,"items":[{"name":"벌떡장어","tel":"031-581-5335","addr":"경기도 가평군 가평읍 마장리 373번지","indutype":"일반휴게음식 - 일반한식","category":"restaurant"},{"name":"벌떡장어","tel":"031-581-5335","addr":"경기도 가평군 가평읍 마장리 373번지 외1필지","indutype":"일반휴게음식 - 일반한식","category":"restaurant"}]},{"lat":"37.846588357","long":"127.50046943","imageIndex":4,"items":[{"name":"소나무집","tel":"","addr":"경기도 가평군 가평읍 마장리 833-2번지 1층","indutype":"일반휴게음식 - 일반한식","category":"restaurant"}]},{"lat":"37.86731265","long":"127.52068997","imageIndex":4,"items":[{"name":"손수 쌈과 함께","tel":"031-582-5609","addr":"경기도 가평군 가평읍 마장리 175번지","indutype":"일반휴게음식 - 일반한식","category":"restaurant"}]},{"lat":"37.857395893","long":"127.51393912","imageIndex":4,"items":[{"name":"앙크바르만커피하우스","tel":"031-582-5878","addr":"경기도 가평군 가평읍 마장리 337-3번지 1층","indutype":"일반휴게음식 - 서양음식","category":"restaurant"},{"name":"청대문","tel":"031-582-5157","addr":"경기도 가평군 가평읍 마장리 337-3번지","indutype":"일반휴게음식 - 일반한식","category":"restaurant"}]},{"lat":"37.844902442","long":"127.5049912","imageIndex":4,"items":[{"name":"오방불고기","tel":"","addr":"경기도 가평군 가평읍 마장리 738-1번지 청산식당 가동 1층","indutype":"일반휴게음식 - 일반한식","category":"restaurant"}]},{"lat":"37.853147839","long":"127.50666057","imageIndex":4,"items":[{"name":"원조곰탕사골","tel":"031-584-6109","addr":"경기도 가평군 가평읍 마장리 396-21번지","indutype":"일반휴게음식 - 일반한식","category":"restaurant"}]},{"lat":"37.85870478","long":"127.51749349","imageIndex":4,"items":[{"name":"웬장어","tel":"031-582-2565","addr":"경기도 가평군 가평읍 마장리 376","indutype":"일반휴게음식 - 일반한식","category":"restaurant"}]},{"lat":"37.858059849","long":"127.52279561","imageIndex":4,"items":[{"name":"이모네추어탕","tel":"031-581-4457","addr":"경기도 가평군 가평읍 마장리 105번지","indutype":"일반휴게음식 - 일반한식","category":"restaurant"}]},{"lat":"37.859010142","long":"127.51771152","imageIndex":4,"items":[{"name":"장수뼈해장국","tel":"031-582-2122","addr":"경기도 가평군 가평읍 마장리 375번지","indutype":"일반휴게음식 - 일반한식","category":"restaurant"}]},{"lat":"37.843983228","long":"127.50505313","imageIndex":4,"items":[{"name":"차이나타운","tel":"031-582-5501","addr":"경기도 가평군 가평읍 마장리 737-5번지","indutype":"일반휴게음식 - 중국식","category":"restaurant"}]},{"lat":"37.860869586","long":"127.51896309","imageIndex":4,"items":[{"name":"찬미네해물칼국수","tel":"031-582-8289","addr":"경기도 가평군 가평읍 마장리 121-1번지","indutype":"일반휴게음식 - 일반한식","category":"restaurant"},{"name":"찬미네해물칼국수","tel":"031-582-8289","addr":"경기도 가평군 가평읍 마장리 121-1번지","indutype":"일반휴게음식 - 일반한식","category":"restaurant"},{"name":"파주닭국수","tel":"031-581-1000","addr":"경기도 가평군 가평읍 마장리 712-9번지","indutype":"일반휴게음식-일반한식","category":"restaurant"}]},{"lat":"37.857643456","long":"127.51502032","imageIndex":4,"items":[{"name":"투에이","tel":"031-581-6606","addr":"경기도 가평군 가평읍 마장리 340번지 B,D동","indutype":"일반휴게음식 - 서양음식","category":"restaurant"}]},{"lat":"37.85206066","long":"127.50597144","imageIndex":4,"items":[{"name":"파주 닭국수 가평점","tel":"031-581-1000","addr":"경기도 가평군 가평읍 마장리 712-9번지 외 1C동","indutype":"일반휴게음식 - 일반한식","category":"restaurant"}]}]