[{"lat":"36.999300473","long":"127.11392104","imageIndex":4,"items":[{"name":"#고깃집","tel":"031-691-5213","addr":"경기도 평택시 비전동 1106번지 골든타워 129호","indutype":"음식점 - 한식","category":"restaurant"},{"name":"골든푸드","tel":"031-691-3741","addr":"경기도 평택시 비전동 1106번지 골든타워 122,123호","indutype":"일반휴게음식 - 일반한식","category":"restaurant"},{"name":"국수집","tel":"031-691-7110","addr":"경기도 평택시 비전동 1106번지 골든타워 127호","indutype":"일반휴게음식 - 일반한식","category":"restaurant"},{"name":"노군꼬치 소사벌점","tel":"032-1234-5678","addr":"경기도 평택시 비전동 1106번지 골든타워 118호","indutype":"일반휴게음식 - 일반한식","category":"restaurant"},{"name":"도누리왕십리곱창소사벌점","tel":"031-657-2729","addr":"경기도 평택시 비전동 1106번지 골든타워 117호","indutype":"일반휴게음식 - 일반한식","category":"restaurant"},{"name":"소소화","tel":"070-4230-9299","addr":"경기도 평택시 비전동 1106번지 골든타워 1층 129호 130","indutype":"일반휴게음식 - 일반한식","category":"restaurant"},{"name":"수신닭발평택소사벌","tel":"031-691-5502","addr":"경기도 평택시 비전동 1106번지 골든타워 116호","indutype":"일반휴게음식 - 일반한식","category":"restaurant"},{"name":"수육국밥과철판소사점","tel":"031-652-6660","addr":"경기도 평택시 비전동 1106번지 골든타워 103~105호","indutype":"일반휴게음식 - 일반한식","category":"restaurant"},{"name":"슈가맨","tel":"031-655-5210","addr":"경기도 평택시 비전동 1106번지 골든타워 1층 114호","indutype":"일반휴게음식 - 일반한식","category":"restaurant"},{"name":"탠미미마라탕","tel":"031-653-8898","addr":"경기도 평택시 비전동 1106번지 골든타워 119호","indutype":"일반휴게음식 - 중국식","category":"restaurant"},{"name":"파스쿠찌","tel":"031-654-8497","addr":"경기도 평택시 비전동 1106번지 1층 111~113호","indutype":"일반휴게음식 - 서양음식","category":"restaurant"},{"name":"프라이바오 소사벌점","tel":"031-691-5356","addr":"경기도 평택시 비전동 1106번지 골든타워 102호","indutype":"일반휴게음식 - 일반한식","category":"restaurant"}]},{"lat":"36.999551758","long":"127.1149999","imageIndex":4,"items":[{"name":"(HOT)핫","tel":"","addr":"경기도 평택시 비전동 1109-1번지 2층 204호","indutype":"일반휴게음식 - 일반한식","category":"restaurant"},{"name":"kaybe's PUB(케이비스펍)","tel":"","addr":"경기도 평택시 비전동 1109-1번지 201호","indutype":"일반휴게음식 - 서양음식","category":"restaurant"},{"name":"고기원칙 소사벌점","tel":"031-657-1286","addr":"경기도 평택시 비전동 1109-1번지 파크에비뉴 104,105,106","indutype":"일반휴게음식 - 일반한식","category":"restaurant"},{"name":"국제상회 (평택점)","tel":"031-651-8991","addr":"경기도 평택시 비전동 1109-1번지 112,113호","indutype":"일반휴게음식 - 일반한식","category":"restaurant"},{"name":"나무오향족발","tel":"031-657-1978","addr":"경기도 평택시 비전동 1109-1번지 107호,108호","indutype":"일반휴게음식 - 일반한식","category":"restaurant"},{"name":"나무오향족발","tel":"031-655-5114","addr":"경기도 평택시 비전동 1109-1번지","indutype":"음식점 - 한식","category":"restaurant"},{"name":"마약생고기","tel":"031-657-9912","addr":"경기도 평택시 비전동 1109-1번지","indutype":"음식점 - 한식","category":"restaurant"},{"name":"미각양꼬치","tel":"031-747-8874","addr":"경기도 평택시 비전동 1109-1번지 101,102호","indutype":"일반휴게음식 - 중국식","category":"restaurant"},{"name":"미각양꼬치","tel":"031-618-1236","addr":"경기도 평택시 비전동 1109-1번지","indutype":"음식점 - 중식","category":"restaurant"},{"name":"스누피","tel":"031-000-0000","addr":"경기도 평택시 비전동 1109-1번지 304호","indutype":"일반휴게음식 - 주점","category":"restaurant"},{"name":"왕빈자삼파전소사벌점","tel":"031-652-8259","addr":"경기도 평택시 비전동 1109-1번지 103호","indutype":"일반휴게음식 - 일반한식","category":"restaurant"},{"name":"왕빈자파전","tel":"031-657-7233","addr":"경기도 평택시 비전동 1109-1번지","indutype":"음식점 - 한식","category":"restaurant"},{"name":"육회본가 소사벌점","tel":"031-665-3955","addr":"경기도 평택시 비전동 1109-1번지","indutype":"음식점 - 한식","category":"restaurant"},{"name":"육회본가(소사벌점)","tel":"031-654-4760","addr":"경기도 평택시 비전동 1109-1번지 111호","indutype":"일반휴게음식 - 일반한식","category":"restaurant"},{"name":"진곱창","tel":"031-652-3393","addr":"경기도 평택시 비전동 1109-1번지 파크애비뉴 109,110호","indutype":"일반휴게음식 - 일반한식","category":"restaurant"},{"name":"판다훠궈","tel":"070-4354-8910","addr":"경기도 평택시 비전동 1109-1번지 202호","indutype":"일반휴게음식 - 중국식","category":"restaurant"}]},{"lat":"37.003213835","long":"127.11097198","imageIndex":4,"items":[{"name":"1045블러썸","tel":"031-8376-8878","addr":"경기도 평택시 비전동 1045-2번지 1층","indutype":"일반휴게음식 - 서양음식","category":"restaurant"}]},{"lat":"36.997074603","long":"127.11416495","imageIndex":4,"items":[{"name":"11월","tel":"031-654-3559","addr":"경기도 평택시 비전동 870-6번지","indutype":"일반휴게음식 - 일반한식","category":"restaurant"},{"name":"생4.5%","tel":"031-657-2177","addr":"경기도 평택시 비전동 870-6번지","indutype":"일반휴게음식 - 주점","category":"restaurant"},{"name":"하루","tel":"031-655-6183","addr":"경기도 평택시 비전동 870-6번지","indutype":"일반휴게음식 - 서양음식","category":"restaurant"}]},{"lat":"37.009380157","long":"127.10761","imageIndex":4,"items":[{"name":"195피자 주식회사","tel":"031-654-1959","addr":"경기도 평택시 비전동 47-12번지 1층","indutype":"일반휴게음식 - 서양음식","category":"restaurant"},{"name":"파리바게뜨만세로점","tel":"031-618-9656","addr":"경기도 평택시 비전동 47-12번지","indutype":"음식점 - 제과점","category":"restaurant"},{"name":"활어청춘","tel":"031-618-8355","addr":"경기도 평택시 비전동 47-12번지","indutype":"일반휴게음식 - 일식·회집","category":"restaurant"}]},{"lat":"37.002384185","long":"127.11170106","imageIndex":4,"items":[{"name":"1982돈까스","tel":"031-618-0013","addr":"경기도 평택시 비전동 1049-2번지 101호","indutype":"음식점 - 양식","category":"restaurant"},{"name":"프로이드컴퍼니(Proid Company)","tel":"02-1111-1111","addr":"경기도 평택시 비전동 1049-2번지","indutype":"일반휴게음식 - 서양음식","category":"restaurant"}]},{"lat":"37.00118472","long":"127.11283404","imageIndex":4,"items":[{"name":"1987루프탑엔라운지소사벌점","tel":"031-653-1987","addr":"경기도 평택시 비전동 1092번지 쏘울플러스 801호","indutype":"일반휴게음식 - 일반한식","category":"restaurant"},{"name":"곱창사랑","tel":"031-665-8895","addr":"경기도 평택시 비전동 1092번지 1층 122호","indutype":"일반휴게음식 - 일반한식","category":"restaurant"},{"name":"구팔한우","tel":"031-655-9247","addr":"경기도 평택시 비전동 1092번지 쏘울플러스 208호","indutype":"음식점 - 일반","category":"restaurant"},{"name":"구팔한우 평택소사벌점","tel":"031-652-3898","addr":"경기도 평택시 비전동 1092번지 쏘울플러스 208호","indutype":"일반휴게음식 - 일반한식","category":"restaurant"},{"name":"꼬꼬아찌숯불치킨 소사벌점","tel":"031-691-0070","addr":"경기도 평택시 비전동 1092번지 101호","indutype":"일반휴게음식 - 일반한식","category":"restaurant"},{"name":"대동국수(소사벌점)","tel":"031-691-3111","addr":"경기도 평택시 비전동 1092번지 104호","indutype":"일반휴게음식 - 일반한식","category":"restaurant"},{"name":"도쿄스테이크 평택소사벌점","tel":"031-658-7730","addr":"경기도 평택시 비전동 1092번지 202호","indutype":"일반휴게음식 - 일식·회집","category":"restaurant"},{"name":"마왕족발","tel":"031-657-5892","addr":"경기도 평택시 비전동 1092번지 106호","indutype":"일반휴게음식 - 일반한식","category":"restaurant"},{"name":"메리스트릿120 (Mary street.120)","tel":"","addr":"경기도 평택시 비전동 1092번지 120호","indutype":"일반휴게음식 - 서양음식","category":"restaurant"},{"name":"비에고커피","tel":"031-258-6980","addr":"경기도 평택시 비전동 1092번지 115호","indutype":"일반휴게음식 - 서양음식","category":"restaurant"},{"name":"소녀시대(BAR)","tel":"","addr":"경기도 평택시 비전동 1092번지 쏘울플러스 303호","indutype":"일반휴게음식 - 주점","category":"restaurant"},{"name":"아라참치","tel":"031-618-5501","addr":"경기도 평택시 비전동 1092번지 102,103호","indutype":"일반휴게음식 - 일식·회집","category":"restaurant"},{"name":"우에노클래스","tel":"031-653-7176","addr":"경기도 평택시 비전동 1092번지 쏘울플러스 121호","indutype":"일반휴게음식 - 주점","category":"restaurant"},{"name":"유달리카페평택점","tel":"031-652-0106","addr":"경기도 평택시 비전동 1092번지 112 ,113호","indutype":"일반휴게음식 - 서양음식","category":"restaurant"},{"name":"유달리카페평택점","tel":"031-652-6367","addr":"경기도 평택시 비전동 1092번지 쏘울플러스 1층 112,113호","indutype":"음식점 - 커피","category":"restaurant"},{"name":"육회생각","tel":"02-000-0000","addr":"경기도 평택시 비전동 1092번지 1층 105호","indutype":"일반휴게음식 - 일반한식","category":"restaurant"},{"name":"이쁜여자","tel":"","addr":"경기도 평택시 비전동 1092번지 201호","indutype":"일반휴게음식 - 일반한식","category":"restaurant"}]},{"lat":"37.0063304","long":"127.10194325","imageIndex":4,"items":[{"name":"1인용 평택점","tel":"070-6483-4983","addr":"경기도 평택시 비전동 982-5번지 1층 101호","indutype":"일반휴게음식 - 일반한식","category":"restaurant"}]},{"lat":"36.999687522","long":"127.11435974","imageIndex":4,"items":[{"name":"2도비어 평택소사점","tel":"031-651-8717","addr":"경기도 평택시 비전동 1107번지 좋은프라자1차 108호","indutype":"일반휴게음식 - 주점","category":"restaurant"},{"name":"서서한우곱창","tel":"031-692-0205","addr":"경기도 평택시 비전동 1107번지 좋은프라자1차 106.107호","indutype":"음식점 - 한식","category":"restaurant"},{"name":"서서한우곱창","tel":"031-655-3309","addr":"경기도 평택시 비전동 1107번지 좋은프라자1차 106,107호","indutype":"일반휴게음식 - 일반한식","category":"restaurant"},{"name":"세계맥주휴게소","tel":"","addr":"경기도 평택시 비전동 1107번지 좋은프라자1차 4층 휴게소","indutype":"음식점 - 호프","category":"restaurant"},{"name":"스시리꾸","tel":"031-691-2992","addr":"경기도 평택시 비전동 1107번지 좋은프라자1차 101호","indutype":"일반휴게음식 - 일식·회집","category":"restaurant"},{"name":"스시리꾸","tel":"031-654-8245","addr":"경기도 평택시 비전동 1107번지 좋은프라자 101호","indutype":"음식점 - 일식","category":"restaurant"},{"name":"에스앤에스락당구클럽","tel":"031-657-9797","addr":"경기도 평택시 비전동 1107번지 좋은프라자1차 501호","indutype":"일반휴게음식 - 일반한식","category":"restaurant"},{"name":"화화왕갈비평택점","tel":"031-692-4423","addr":"경기도 평택시 비전동 1107번지 2층","indutype":"음식점 - 한식","category":"restaurant"},{"name":"휴게소","tel":"031-652-3282","addr":"경기도 평택시 비전동 1107번지 좋은프라자1차 401,402호","indutype":"일반휴게음식 - 주점","category":"restaurant"}]},{"lat":"36.992576709","long":"127.11580969","imageIndex":4,"items":[{"name":"2온스","tel":"070-4233-3772","addr":"경기도 평택시 비전동 886번지 1층","indutype":"일반휴게음식 - 서양음식","category":"restaurant"},{"name":"2온스커피","tel":"","addr":"경기도 평택시 비전동 886번지 1층","indutype":"음식점 - 커피","category":"restaurant"}]},{"lat":"36.994769744","long":"127.11213956","imageIndex":4,"items":[{"name":"3050라이브","tel":"031-656-8548","addr":"경기도 평택시 비전동 831-8번지 2층","indutype":"일반휴게음식 - 주점","category":"restaurant"},{"name":"사쿠라로","tel":"","addr":"경기도 평택시 비전동 831-8번지 1층","indutype":"일반휴게음식 - 일식·회집","category":"restaurant"}]},{"lat":"37.000050574","long":"127.11152922","imageIndex":4,"items":[{"name":"323교동꼬막짬뽕","tel":"033-653-5256","addr":"경기도 평택시 비전동 1090-1번지 삼성타워 203호","indutype":"일반휴게음식 - 일반한식","category":"restaurant"},{"name":"등초마라탕","tel":"","addr":"경기도 평택시 비전동 1090-1번지 삼성타워 1층 108호","indutype":"일반휴게음식 - 일반한식","category":"restaurant"},{"name":"미남커피소사벌점","tel":"034-658-6634","addr":"경기도 평택시 비전동 1090-1번지 삼성타워 104호","indutype":"일반휴게음식 - 서양음식","category":"restaurant"},{"name":"미남커피소사벌점","tel":"031-692-6633","addr":"경기도 평택시 비전동 1090-1번지 삼성타워 104호","indutype":"음식점 - 카페","category":"restaurant"},{"name":"백년갈비","tel":"050-4457-9941","addr":"경기도 평택시 비전동 1090-1번지 삼성타워 201호","indutype":"음식점 - 일반","category":"restaurant"},{"name":"백년갈비 소사점","tel":"031-657-9340","addr":"경기도 평택시 비전동 1090-1번지 삼성타워 1동 201호","indutype":"일반휴게음식 - 일반한식","category":"restaurant"},{"name":"본죽평택소사벌점","tel":"031-657-6288","addr":"경기도 평택시 비전동 1090-1번지 삼성타워 1층 105호","indutype":"일반휴게음식 - 일반한식","category":"restaurant"},{"name":"정정당당김밥떡볶이","tel":"031-651-5116","addr":"경기도 평택시 비전동 1090-1번지 삼성타워 109호","indutype":"일반휴게음식 - 스넥","category":"restaurant"}]},{"lat":"36.999688707","long":"127.11309027","imageIndex":4,"items":[{"name":"367하우스 평택점","tel":"031-656-3672","addr":"경기도 평택시 비전동 1105번지 프라우빌딩 2층206호일부,207호","indutype":"일반휴게음식 - 일반한식","category":"restaurant"},{"name":"눈꽃","tel":"031-618-0002","addr":"경기도 평택시 비전동 1105번지 프라우빌딩 3층 305,306(가)호","indutype":"일반휴게음식 - 일식·회집","category":"restaurant"},{"name":"디저트39 평택소사벌점","tel":"031-654-6558","addr":"경기도 평택시 비전동 1105번지 프라우빌딩 111-가호","indutype":"일반휴게음식 - 서양음식","category":"restaurant"},{"name":"소담촌 평택소사벌점","tel":"031-692-5575","addr":"경기도 평택시 비전동 1105번지 프라우빌딩 3층 302-나,303,304호","indutype":"일반휴게음식 - 일반한식","category":"restaurant"},{"name":"퀴즈노스비전점","tel":"031-656-5995","addr":"경기도 평택시 비전동 1105번지 프라우빌딩 105,106-가호","indutype":"일반휴게음식 - 서양음식","category":"restaurant"}]},{"lat":"37.001489921","long":"127.11408151","imageIndex":4,"items":[{"name":"39돈가스","tel":"070-7797-3939","addr":"경기도 평택시 비전동 1098번지 101호","indutype":"일반휴게음식 - 서양음식","category":"restaurant"},{"name":"곱창더하기","tel":"031-618-7790","addr":"경기도 평택시 비전동 1098번지 112호","indutype":"일반휴게음식 - 일반한식","category":"restaurant"},{"name":"낭만집","tel":"031-691-1316","addr":"경기도 평택시 비전동 1098번지 116호","indutype":"일반휴게음식 - 일반한식","category":"restaurant"},{"name":"용갈생막창","tel":"031-691-2219","addr":"경기도 평택시 비전동 1098번지 117,118호","indutype":"일반휴게음식 - 일반한식","category":"restaurant"},{"name":"육사육구 소사벌점","tel":"031-656-6469","addr":"경기도 평택시 비전동 1098번지 110,111호","indutype":"일반휴게음식 - 일반한식","category":"restaurant"},{"name":"이차돌 평택소사벌점","tel":"031-651-0512","addr":"경기도 평택시 비전동 1098번지 스타타워 113,114호","indutype":"일반휴게음식 - 일반한식","category":"restaurant"},{"name":"이차돌 평택소사벌점","tel":"031-651-9672","addr":"경기도 평택시 비전동 1098번지 스타타워 113, 114호","indutype":"음식점 - 한식","category":"restaurant"},{"name":"제나스파이","tel":"031-655-8182","addr":"경기도 평택시 비전동 1098번지 스타타워 106호","indutype":"일반휴게음식 - 서양음식","category":"restaurant"},{"name":"제나스파이","tel":"","addr":"경기도 평택시 비전동 1098번지 106호","indutype":"음식점 - 제과점","category":"restaurant"}]},{"lat":"37.00351862","long":"127.11269134","imageIndex":4,"items":[{"name":"8도씨","tel":"","addr":"경기도 평택시 비전동 1053-7번지","indutype":"일반휴게음식 - 서양음식","category":"restaurant"}]},{"lat":"36.993437027","long":"127.11119405","imageIndex":4,"items":[{"name":"BBQ치킨 비전중앙점","tel":"031-655-0771","addr":"경기도 평택시 비전동 835-3번지","indutype":"음식점 - 치킨","category":"restaurant"},{"name":"맛있는 전시회","tel":"","addr":"경기도 평택시 비전동 835-3번지","indutype":"일반휴게음식 - 일반한식","category":"restaurant"},{"name":"맛있는전시회","tel":"031-652-7100","addr":"경기도 평택시 비전동 835-3번지 101호","indutype":"음식점 - 회","category":"restaurant"},{"name":"비비큐 (BBQ)평택비전점","tel":"031-618-7717","addr":"경기도 평택시 비전동 835-3번지 1층","indutype":"일반휴게음식 - 스넥","category":"restaurant"},{"name":"암소막창","tel":"031-657-4646","addr":"경기도 평택시 비전동 835-3번지 상가 1층 102호","indutype":"일반휴게음식 - 일반한식","category":"restaurant"},{"name":"암소막창","tel":"031-657-5122","addr":"경기도 평택시 비전동 835-3번지 102호","indutype":"음식점 - 한식","category":"restaurant"}]},{"lat":"37.006023727","long":"127.10231362","imageIndex":4,"items":[{"name":"BHC비전중앙점","tel":"031-654-8898","addr":"경기도 평택시 비전동 982-9번지","indutype":"음식점 - 치킨","category":"restaurant"},{"name":"비에이치씨 (BHC)비전중앙점","tel":"031-654-9294","addr":"경기도 평택시 비전동 982-9번지","indutype":"일반휴게음식 - 스넥","category":"restaurant"}]},{"lat":"36.993943804","long":"127.10877958","imageIndex":4,"items":[{"name":"BIJEON BOOK CAFE/비전동북카페협동조합","tel":"031-653-5557","addr":"경기도 평택시 비전동 210-5번지","indutype":"일반휴게음식 - 서양음식","category":"restaurant"}]},{"lat":"36.994526197","long":"127.10217508","imageIndex":4,"items":[{"name":"KT식당","tel":"031-618-0221","addr":"경기도 평택시 비전동 251-15번지 8층","indutype":"일반휴게음식 - 위탁급식업","category":"restaurant"},{"name":"아울리레","tel":"","addr":"경기도 평택시 비전동 251-15번지 KT한국통신 1층","indutype":"일반휴게음식 - 서양음식","category":"restaurant"},{"name":"아울리레","tel":"031-654-4737","addr":"경기도 평택시 비전동 251-15번지 1층","indutype":"음식점 - 카페","category":"restaurant"}]},{"lat":"36.995689525","long":"127.11138821","imageIndex":4,"items":[{"name":"TMB닭숯불바베큐","tel":"031-692-8292","addr":"경기도 평택시 비전동 829-2,1층상가서쪽2","indutype":"일반휴게음식 - 주점","category":"restaurant"},{"name":"코바코","tel":"031-651-6600","addr":"경기도 평택시 비전동 829-2번지","indutype":"음식점 - 일식","category":"restaurant"},{"name":"티엪비숯불닭바베큐","tel":"031-656-4998","addr":"경기도 평택시 비전동 829-2번지","indutype":"음식점 - 한식","category":"restaurant"}]},{"lat":"37.004131885","long":"127.11210801","imageIndex":4,"items":[{"name":"bhc CHICKEN.BEER.PLATE","tel":"031-655-6709","addr":"경기도 평택시 비전동 1055-7번지","indutype":"일반휴게음식 - 스넥","category":"restaurant"}]},{"lat":"36.991714529","long":"127.11277547","imageIndex":4,"items":[{"name":"㈜다님길 위드커피 1호점","tel":"031-618-5255","addr":"경기도 평택시 비전동 846번지 신관 1층","indutype":"음식점 - 카페","category":"restaurant"},{"name":"량꼬치","tel":"","addr":"경기도 평택시 비전동 846번지 일원","indutype":"일반휴게음식 - 일반한식","category":"restaurant"},{"name":"위드커피(주)다님길","tel":"031-655-9321","addr":"경기도 평택시 비전동 846번지 1층 신관","indutype":"일반휴게음식 - 스넥","category":"restaurant"}]},{"lat":"37.003994209","long":"127.10480512","imageIndex":4,"items":[{"name":"가르텐(소사벌점)","tel":"031-655-1636","addr":"경기도 평택시 비전동 1013번지 205,206호","indutype":"일반휴게음식 - 주점","category":"restaurant"},{"name":"김밥킹 (소사벌점)","tel":"031-651-6117","addr":"경기도 평택시 비전동 1013번지 태성빌딩 106호","indutype":"일반휴게음식 - 일반한식","category":"restaurant"},{"name":"명랑핫도그 평택 소사벌점","tel":"","addr":"경기도 평택시 비전동 1013번지 태성빌딩 111호","indutype":"일반휴게음식 - 스넥","category":"restaurant"},{"name":"미남커피","tel":"","addr":"경기도 평택시 비전동 1013번지 태성빌딩 1층 103호","indutype":"음식점 - 카페","category":"restaurant"},{"name":"미남커피","tel":"031-692-6633","addr":"경기도 평택시 비전동 1013번지 태성빌딩 1층 103호","indutype":"일반휴게음식 - 서양음식","category":"restaurant"},{"name":"셀렉토커피 소사벌점","tel":"031-657-3223","addr":"경기도 평택시 비전동 1013번지 태성빌딩 110호","indutype":"음식점 - 커피","category":"restaurant"},{"name":"셀렉토커피평택소사벌점","tel":"031-658-7845","addr":"경기도 평택시 비전동 1013번지 태성빌딩 110호","indutype":"일반휴게음식 - 서양음식","category":"restaurant"},{"name":"오백국수 평택점/사회적협동조합 평택지역","tel":"031-652-4788","addr":"경기도 평택시 비전동 1013번지 태성빌딩 102호","indutype":"일반휴게음식 - 일반한식","category":"restaurant"},{"name":"유여사의밥집","tel":"031-656-1809","addr":"경기도 평택시 비전동 1013번지 태성빌딩 308호","indutype":"일반휴게음식 - 일반한식","category":"restaurant"},{"name":"유여사의밥집","tel":"070-4189-1487","addr":"경기도 평택시 비전동 1013번지","indutype":"음식점 - 한식","category":"restaurant"},{"name":"장똘뱅이옛날치킨(소사벌점)","tel":"031-618-9971","addr":"경기도 평택시 비전동 1013번지 태성빌딩 105호","indutype":"일반휴게음식 - 스넥","category":"restaurant"},{"name":"장뜰뱅이옛날치킨","tel":"031-657-5525","addr":"경기도 평택시 비전동 1013번지 태성빌딩 105호","indutype":"음식점 - 치킨","category":"restaurant"},{"name":"홍루이젠 평택소사벌점","tel":"070-7600-1513","addr":"경기도 평택시 비전동 1013번지 태성빌딩 1층 109호","indutype":"일반휴게음식 - 서양음식","category":"restaurant"}]},{"lat":"36.994553839","long":"127.11175731","imageIndex":4,"items":[{"name":"가르텐비어(비전점)","tel":"031-655-7920","addr":"경기도 평택시 비전동 832-5번지","indutype":"일반휴게음식 - 주점","category":"restaurant"},{"name":"운암명가부대찌개","tel":"","addr":"경기도 평택시 비전동 832-5번지","indutype":"음식점 - 한식","category":"restaurant"},{"name":"운암명가부대찌개","tel":"031-653-9233","addr":"경기도 평택시 비전동 832-5번지","indutype":"일반휴게음식 - 일반한식","category":"restaurant"}]},{"lat":"36.999272819","long":"127.11458382","imageIndex":4,"items":[{"name":"가리헌 갈비","tel":"","addr":"경기도 평택시 비전동 1108-1번지 1층","indutype":"음식점 - 한식","category":"restaurant"},{"name":"크렘라운지 101","tel":"031-653-7770","addr":"경기도 평택시 비전동 1108-1번지 1층","indutype":"음식점 - 카페","category":"restaurant"}]},{"lat":"36.997581839","long":"127.0893611","imageIndex":4,"items":[{"name":"가마골","tel":"031-653-9869","addr":"경기도 평택시 비전동 550번지","indutype":"일반휴게음식 - 일반한식","category":"restaurant"}]},{"lat":"36.992079746","long":"127.10747395","imageIndex":4,"items":[{"name":"가마솥식당","tel":"031-651-6141","addr":"경기도 평택시 비전동 191-4번지 진우빌딩","indutype":"일반휴게음식 - 일반한식","category":"restaurant"},{"name":"무쇠솥(가마솥)식당","tel":"031-655-0290","addr":"경기도 평택시 비전동 191-4번지","indutype":"음식점 - 한식","category":"restaurant"},{"name":"큐비전점","tel":"031-658-2688","addr":"경기도 평택시 비전동 191-4번지 진우빌딩 2층","indutype":"일반휴게음식 - 일반한식","category":"restaurant"},{"name":"투플러스","tel":"031-658-2688","addr":"경기도 평택시 비전동 191-4번지","indutype":"일반휴게음식 - 스넥","category":"restaurant"},{"name":"팔롬비니","tel":"031-653-7250","addr":"경기도 평택시 비전동 191-4번지","indutype":"음식점 - 카페","category":"restaurant"}]},{"lat":"36.992769907","long":"127.11155257","imageIndex":4,"items":[{"name":"가배마루 커피하우스","tel":"031-655-6414","addr":"경기도 평택시 비전동 838-5번지","indutype":"일반휴게음식 - 서양음식","category":"restaurant"},{"name":"가배마루카페","tel":"","addr":"경기도 평택시 비전동 838-5번지","indutype":"음식점 - 카페","category":"restaurant"}]},{"lat":"37.001300433","long":"127.1143621","imageIndex":4,"items":[{"name":"가장맛있는족발 배다리점","tel":"031-692-9009","addr":"경기도 평택시 비전동 1098-1번지","indutype":"음식점 - 한식","category":"restaurant"},{"name":"가장맛있는족발 배다리점","tel":"031-651-6647","addr":"경기도 평택시 비전동 1098-1번지 106,107호","indutype":"일반휴게음식 - 일반한식","category":"restaurant"},{"name":"두루마리","tel":"031-657-2212","addr":"경기도 평택시 비전동 1098-1번지 희성프라자 109호","indutype":"일반휴게음식 - 서양음식","category":"restaurant"},{"name":"두루마리","tel":"031-657-2212","addr":"경기도 평택시 비전동 1098-1번지 희성프라자 109호","indutype":"일반휴게음식 - 서양음식","category":"restaurant"},{"name":"모로미쿠시소사벌점","tel":"02-111-1111","addr":"경기도 평택시 비전동 1098-1번지 희성프라자 104호","indutype":"일반휴게음식 - 주점","category":"restaurant"},{"name":"소담초밥","tel":"031-655-3660","addr":"경기도 평택시 비전동 1098-1번지 1층","indutype":"음식점 - 일식","category":"restaurant"},{"name":"소담초밥","tel":"031-655-3779","addr":"경기도 평택시 비전동 1098-1번지 희성프라자 103호","indutype":"일반휴게음식 - 일식·회집","category":"restaurant"}]},{"lat":"37.00288515","long":"127.10566872","imageIndex":4,"items":[{"name":"가장맛있는족발 소사벌점","tel":"031-655-5805","addr":"경기도 평택시 비전동 1070번지 103,4,5,204호","indutype":"일반휴게음식 - 일반한식","category":"restaurant"},{"name":"가장맛있는족발소사벌점","tel":"031-647-6474","addr":"경기도 평택시 비전동 1070번지 103-5호, 204호","indutype":"음식점 - 한식","category":"restaurant"}]},{"lat":"36.993774735","long":"127.09544529","imageIndex":4,"items":[{"name":"감나무집","tel":"031-655-6209","addr":"경기도 평택시 비전동 732-8번지","indutype":"음식점 - 한식","category":"restaurant"},{"name":"대운해신탕","tel":"031-654-2773","addr":"경기도 평택시 비전동 732-8번지","indutype":"일반휴게음식 - 일반한식","category":"restaurant"}]},{"lat":"36.992603613","long":"127.11594452","imageIndex":4,"items":[{"name":"감미옥","tel":"031-656-6345","addr":"경기도 평택시 비전동 886-1번지","indutype":"일반휴게음식 - 일반한식","category":"restaurant"},{"name":"감미옥","tel":"","addr":"경기도 평택시 비전동 886-1번지","indutype":"음식점 - 한식","category":"restaurant"}]},{"lat":"36.999830894","long":"127.09419439","imageIndex":4,"items":[{"name":"강남찜탕1970","tel":"031-656-3737","addr":"경기도 평택시 비전동 790-1번지 1층","indutype":"일반휴게음식 - 일반한식","category":"restaurant"},{"name":"호랑이샐러드","tel":"031-651-0415","addr":"경기도 평택시 비전동 790-1번지 1층","indutype":"일반휴게음식 - 서양음식","category":"restaurant"}]},{"lat":"36.999192599","long":"127.10352925","imageIndex":4,"items":[{"name":"강정이네","tel":"031-651-9969","addr":"경기도 평택시 비전동 804번지 신세계타운 105호","indutype":"일반휴게음식 - 일반한식","category":"restaurant"}]},{"lat":"36.999774681","long":"127.09694672","imageIndex":4,"items":[{"name":"강촌매운탕","tel":"031-666-0301","addr":"경기도 평택시 비전동 799-3번지","indutype":"일반휴게음식 - 일반한식","category":"restaurant"},{"name":"돈뼈랑감자탕","tel":"031-652-4030","addr":"경기도 평택시 비전동 799-3번지 1층","indutype":"일반휴게음식 - 일반한식","category":"restaurant"}]},{"lat":"36.993106323","long":"127.09750018","imageIndex":4,"items":[{"name":"강촌식당","tel":"031-657-7851","addr":"경기도 평택시 비전동 746-16번지","indutype":"음식점 - 한식","category":"restaurant"},{"name":"비전강촌","tel":"031-657-2535","addr":"경기도 평택시 비전동 746-16번지 1층","indutype":"일반휴게음식 - 일반한식","category":"restaurant"}]},{"lat":"36.993025557","long":"127.09708445","imageIndex":4,"items":[{"name":"개구리분식","tel":"031-653-1387","addr":"경기도 평택시 비전동 739-12번지","indutype":"일반휴게음식 - 스넥","category":"restaurant"}]},{"lat":"36.992742463","long":"127.11200186","imageIndex":4,"items":[{"name":"개나리식당","tel":"031-658-7393","addr":"경기도 평택시 비전동 834-9번지 1층","indutype":"일반휴게음식 - 일반한식","category":"restaurant"},{"name":"안양해장국","tel":"031-651-4555","addr":"경기도 평택시 비전동 834-9번지","indutype":"일반휴게음식 - 일반한식","category":"restaurant"},{"name":"안양해장국","tel":"031-653-9992","addr":"경기도 평택시 비전동 834-9번지","indutype":"음식점 - 한식","category":"restaurant"}]},{"lat":"36.997246404","long":"127.10339188","imageIndex":4,"items":[{"name":"개성손만두(평택점)","tel":"031-655-6583","addr":"경기도 평택시 비전동 818번지 1층","indutype":"일반휴게음식 - 일반한식","category":"restaurant"}]},{"lat":"36.991105806","long":"127.10836002","imageIndex":4,"items":[{"name":"개성집평택점","tel":"031-692-9211","addr":"경기도 평택시 비전동 196-2번지 조일빌딩 1층","indutype":"일반휴게음식 - 일반한식","category":"restaurant"}]},{"lat":"36.992941541","long":"127.11108101","imageIndex":4,"items":[{"name":"갯벌낙지","tel":"031-656-7736","addr":"경기도 평택시 비전동 837-3번지","indutype":"일반휴게음식 - 일반한식","category":"restaurant"},{"name":"갯벌낙지","tel":"031-653-5811","addr":"경기도 평택시 비전동 837-3번지","indutype":"음식점 - 한식","category":"restaurant"}]},{"lat":"36.996851171","long":"127.10191972","imageIndex":4,"items":[{"name":"거기","tel":"031-654-8253","addr":"경기도 평택시 비전동 810번지 1층","indutype":"일반휴게음식 - 일반한식","category":"restaurant"},{"name":"거기","tel":"031-655-9004","addr":"경기도 평택시 비전동 810번지 101호","indutype":"음식점 - 치킨","category":"restaurant"},{"name":"오신집","tel":"031-653-2535","addr":"경기도 평택시 비전동 810번지","indutype":"음식점 - 한식","category":"restaurant"},{"name":"오신집식당","tel":"031-656-4710","addr":"경기도 평택시 비전동 810번지","indutype":"일반휴게음식 - 일반한식","category":"restaurant"},{"name":"한가네뼈다귀감자탕","tel":"031-652-6675","addr":"경기도 평택시 비전동 810번지 1층","indutype":"일반휴게음식 - 일반한식","category":"restaurant"}]},{"lat":"37.008767817","long":"127.10717097","imageIndex":4,"items":[{"name":"게랑회랑소사벌점","tel":"031-658-1577","addr":"경기도 평택시 비전동 59-8번지 101동 109호","indutype":"일반휴게음식 - 일식·회집","category":"restaurant"},{"name":"백정홈서비스","tel":"031-651-5636","addr":"경기도 평택시 비전동 59-8번지","indutype":"일반휴게음식 - 일반한식","category":"restaurant"},{"name":"이우철낙원진갈비","tel":"031-657-7500","addr":"경기도 평택시 비전동 59-8번지 센띠에로 1동 2층 202호","indutype":"일반휴게음식 - 일반한식","category":"restaurant"},{"name":"이우철낙원진갈비","tel":"031-657-3300","addr":"경기도 평택시 비전동 59-8번지 센띠에로 1동 2층 202호","indutype":"음식점 - 한식","category":"restaurant"},{"name":"찜통","tel":"","addr":"경기도 평택시 비전동 59-8번지 112호","indutype":"일반휴게음식 - 일반한식","category":"restaurant"},{"name":"찜통","tel":"070-7808-8881","addr":"경기도 평택시 비전동 59-8번지 센피에로 112호","indutype":"음식점 - 한식","category":"restaurant"}]},{"lat":"36.999912207","long":"127.11497796","imageIndex":4,"items":[{"name":"경성술집","tel":"031-657-1987","addr":"경기도 평택시 비전동 1109번지","indutype":"음식점 - 한식","category":"restaurant"},{"name":"경성술집소사벌점","tel":"031-111-1111","addr":"경기도 평택시 비전동 1109번지 좋은프라자2 1층 109호","indutype":"일반휴게음식 - 주점","category":"restaurant"},{"name":"고래몽(평택점)","tel":"","addr":"경기도 평택시 비전동 1109번지 좋은프라자2 2층 205호","indutype":"일반휴게음식 - 일식·회집","category":"restaurant"},{"name":"더진국 소사벌점","tel":"031-618-9085","addr":"경기도 평택시 비전동 1109번지 좋은프라자2차 203호","indutype":"음식점 - 한식","category":"restaurant"},{"name":"더진국소사벌점","tel":"031-618-3909","addr":"경기도 평택시 비전동 1109번지 좋은프라자2차 2층 203호","indutype":"일반휴게음식 - 일반한식","category":"restaurant"},{"name":"동경야시장 소사벌점","tel":"","addr":"경기도 평택시 비전동 1109번지 좋은프라자2 2층 201호","indutype":"일반휴게음식 - 주점","category":"restaurant"},{"name":"민혁이네외국포차평택점","tel":"031-653-5591","addr":"경기도 평택시 비전동 1109번지 좋은프라자2차 206호","indutype":"일반휴게음식 - 주점","category":"restaurant"},{"name":"오륜집","tel":"031-656-9205","addr":"경기도 평택시 비전동 1109번지 좋은프라자2 101호","indutype":"일반휴게음식 - 일반한식","category":"restaurant"},{"name":"오유메","tel":"","addr":"경기도 평택시 비전동 1109번지 좋은프라자2 108호","indutype":"일반휴게음식 - 일반한식","category":"restaurant"},{"name":"원시인 갈비","tel":"031-655-8595","addr":"경기도 평택시 비전동 1109번지 좋은프라자2 204호","indutype":"일반휴게음식 - 일반한식","category":"restaurant"},{"name":"원시인갈비","tel":"031-657-8484","addr":"경기도 평택시 비전동 1109번지 좋은프라자 2층 204호","indutype":"음식점 - 한식","category":"restaurant"},{"name":"자담치킨소사벌점","tel":"","addr":"경기도 평택시 비전동 1109번지 좋은프라자2차 106,107호","indutype":"음식점 - 치킨","category":"restaurant"},{"name":"자담치킨소사벌점","tel":"031-651-9950","addr":"경기도 평택시 비전동 1109번지 106호, 107호","indutype":"일반휴게음식 - 일반한식","category":"restaurant"},{"name":"조개품은 돼지","tel":"031-655-3864","addr":"경기도 평택시 비전동 1109번지 좋은프라자2차","indutype":"음식점 - 한식","category":"restaurant"},{"name":"조개품은돼지","tel":"031-653-7770","addr":"경기도 평택시 비전동 1109번지 비전프라자2차 110호,111호","indutype":"일반휴게음식 - 일반한식","category":"restaurant"},{"name":"투썸플레이스 소사벌점","tel":"031-692-8788","addr":"경기도 평택시 비전동 1109번지 1층","indutype":"일반휴게음식 - 서양음식","category":"restaurant"},{"name":"투썸플레이스 평택소사벌점","tel":"031-657-6402","addr":"경기도 평택시 비전동 1109번지 좋은프라자2 112동 116호","indutype":"음식점 - 커피","category":"restaurant"},{"name":"호박닭발","tel":"031-651-6647","addr":"경기도 평택시 비전동 1109번지 좋은프라자2 104호","indutype":"음식점 - 한식","category":"restaurant"},{"name":"호박닭발 비전점","tel":"031-657-4016","addr":"경기도 평택시 비전동 1109번지 좋은프라자2차 104,105호","indutype":"일반휴게음식 - 일반한식","category":"restaurant"},{"name":"홍춘천","tel":"031-651-5992","addr":"경기도 평택시 비전동 1109번지 102, 103호","indutype":"일반휴게음식 - 일반한식","category":"restaurant"},{"name":"홍춘천닭갈비","tel":"031-654-7354","addr":"경기도 평택시 비전동 1109번지 좋은프라자2 102,103호","indutype":"음식점 - 한식","category":"restaurant"}]},{"lat":"37.000887002","long":"127.11322681","imageIndex":4,"items":[{"name":"경성주막1929소사벌점","tel":"031-655-1683","addr":"경기도 평택시 비전동 1092-1번지 아토시티 106호 107호","indutype":"일반휴게음식 - 서양음식","category":"restaurant"},{"name":"곱깨비 소사벌점","tel":"031-651-0922","addr":"경기도 평택시 비전동 1092-1번지 아토시티 108호","indutype":"일반휴게음식 - 일반한식","category":"restaurant"},{"name":"리차징(Recharging)","tel":"070-4120-3456","addr":"경기도 평택시 비전동 1092-1번지 아토시티 1층 113호","indutype":"일반휴게음식 - 서양음식","category":"restaurant"},{"name":"무쏘소사벌점","tel":"031-618-4221","addr":"경기도 평택시 비전동 1092-1번지 아토시티 110호,111호","indutype":"일반휴게음식 - 일반한식","category":"restaurant"},{"name":"배부장찌개","tel":"","addr":"경기도 평택시 비전동 1092-1번지 아토시티 1층 112호","indutype":"음식점 - 한식","category":"restaurant"},{"name":"배부장찌개 평택점","tel":"031-656-9577","addr":"경기도 평택시 비전동 1092-1번지 아토시티 1층 112호","indutype":"일반휴게음식 - 일반한식","category":"restaurant"},{"name":"북경성양꼬치","tel":"031-655-5929","addr":"경기도 평택시 비전동 1092-1번지 아토시티 101호","indutype":"일반휴게음식 - 일반한식","category":"restaurant"},{"name":"사나이김밥(평택소사벌점)","tel":"031-655-9285","addr":"경기도 평택시 비전동 1092-1번지 아토시티 105호","indutype":"일반휴게음식 - 일반한식","category":"restaurant"},{"name":"전주본가얼큰이갈비찌개&쪽갈비","tel":"031-618-9990","addr":"경기도 평택시 비전동 1092-1번지 아토시티 120호","indutype":"일반휴게음식 - 일반한식","category":"restaurant"},{"name":"투다리소사벌점","tel":"031-657-8012","addr":"경기도 평택시 비전동 1092-1번지 아토시티 116호","indutype":"일반휴게음식 - 일반한식","category":"restaurant"},{"name":"툰앤존소사벌점","tel":"031-691-0851","addr":"경기도 평택시 비전동 1092-1번지 7층 701,702호","indutype":"일반휴게음식 - 스넥","category":"restaurant"}]},{"lat":"37.002128272","long":"127.10564523","imageIndex":4,"items":[{"name":"경아두마리치킨 소사벌점","tel":"031-618-9290","addr":"경기도 평택시 비전동 1070-4번지 골든플라자2 1층 108호","indutype":"일반휴게음식 - 스넥","category":"restaurant"},{"name":"닭봉씨","tel":"031-691-9595","addr":"경기도 평택시 비전동 1070-4번지 골든프라자2 105호","indutype":"일반휴게음식 - 스넥","category":"restaurant"},{"name":"더착한돈까스","tel":"031-692-4423","addr":"경기도 평택시 비전동 1070-4번지 101호 102호","indutype":"일반휴게음식 - 일반한식","category":"restaurant"},{"name":"더착한돈까스","tel":"031-655-6213","addr":"경기도 평택시 비전동 1070-4번지 101,102호","indutype":"음식점 - 양식","category":"restaurant"},{"name":"불스떡볶이소사벌점","tel":"031-651-5482","addr":"경기도 평택시 비전동 1070-4번지 1층","indutype":"일반휴게음식 - 스넥","category":"restaurant"},{"name":"불스떡볶이소사벌점","tel":"031-654-6992","addr":"경기도 평택시 비전동 1070-4번지 1층","indutype":"음식점 - 분식","category":"restaurant"},{"name":"서민족발","tel":"031-658-7799","addr":"경기도 평택시 비전동 1070-4번지 골든프라자2","indutype":"일반휴게음식 - 주점","category":"restaurant"},{"name":"아리아떼","tel":"031-000-0000","addr":"경기도 평택시 비전동 1070-4번지 골든플라자2 104호","indutype":"일반휴게음식 - 서양음식","category":"restaurant"},{"name":"청년홍게","tel":"031-691-8243","addr":"경기도 평택시 비전동 1070-4번지 골든프라자2,103호","indutype":"일반휴게음식 - 일반한식","category":"restaurant"}]},{"lat":"36.996189841","long":"127.10608659","imageIndex":4,"items":[{"name":"계동치킨(비전점)","tel":"031-651-9595","addr":"경기도 평택시 비전동 823-3번지 1층","indutype":"일반휴게음식 - 스넥","category":"restaurant"}]},{"lat":"37.000824749","long":"127.1123392","imageIndex":4,"items":[{"name":"고기꾼","tel":"031-655-4221","addr":"경기도 평택시 비전동 1090-5번지 골든프라자7차 1동107-110호","indutype":"일반휴게음식 - 일반한식","category":"restaurant"},{"name":"롱커피","tel":"031-111-1111","addr":"경기도 평택시 비전동 1090-5번지 골든프라자-7 115호","indutype":"일반휴게음식 - 서양음식","category":"restaurant"},{"name":"마이디","tel":"031-658-6186","addr":"경기도 평택시 비전동 1090-5번지 골든프라자-7 307호","indutype":"일반휴게음식 - 주점","category":"restaurant"},{"name":"먹태랑노가리","tel":"031-618-4466","addr":"경기도 평택시 비전동 1090-5번지 골든프라자-7 1동 201호","indutype":"일반휴게음식 - 주점","category":"restaurant"},{"name":"수산물창고","tel":"031-618-8019","addr":"경기도 평택시 비전동 1090-5번지 골든프라자-7 105호","indutype":"일반휴게음식 - 일식·회집","category":"restaurant"},{"name":"스시노백쉐프(평택비전점)","tel":"","addr":"경기도 평택시 비전동 1090-5번지 골든프라자-7 202호","indutype":"음식점 - 일식","category":"restaurant"},{"name":"스시노백쉐프(평택비전점)","tel":"070-8785-7142","addr":"경기도 평택시 비전동 1090-5번지 골든프라자-7 202호","indutype":"일반휴게음식 - 일식·회집","category":"restaurant"},{"name":"신비전닭발(직화명가)","tel":"031-658-1001","addr":"경기도 평택시 비전동 1090-5번지 골든프라자-7 113,114호","indutype":"일반휴게음식 - 일반한식","category":"restaurant"},{"name":"크래프트마켓","tel":"031-652-2356","addr":"경기도 평택시 비전동 1090-5번지 골든프라자-7 207호","indutype":"일반휴게음식 - 일반한식","category":"restaurant"},{"name":"해송","tel":"031-658-8836","addr":"경기도 평택시 비전동 1090-5번지 303 ,304,305","indutype":"일반휴게음식 - 일반한식","category":"restaurant"}]},{"lat":"36.993553967","long":"127.10106171","imageIndex":4,"items":[{"name":"고기마루","tel":"031-652-3227","addr":"경기도 평택시 비전동 756-2번지","indutype":"일반휴게음식 - 일반한식","category":"restaurant"},{"name":"이향","tel":"031-618-8284","addr":"경기도 평택시 비전동 756-2번지","indutype":"일반휴게음식 - 중국식","category":"restaurant"}]},{"lat":"36.992520754","long":"127.10805868","imageIndex":4,"items":[{"name":"고깃집","tel":"031-657-3649","addr":"경기도 평택시 비전동 144-51번지 1층","indutype":"일반휴게음식 - 일반한식","category":"restaurant"}]},{"lat":"36.998857851","long":"127.11508875","imageIndex":4,"items":[{"name":"고니회전초밥","tel":"031-654-2207","addr":"경기도 평택시 비전동 1102-3번지 로데오 1103더브리지 113호","indutype":"일반휴게음식 - 일식·회집","category":"restaurant"},{"name":"홍리마라탕 평택비전점","tel":"031-655-6662","addr":"경기도 평택시 비전동 1102-3번지 1층","indutype":"일반휴게음식 - 중국식","category":"restaurant"}]},{"lat":"36.991854992","long":"127.10688952","imageIndex":4,"items":[{"name":"고래불","tel":"031-668-6426","addr":"경기도 평택시 비전동 190-1번지 1층","indutype":"일반휴게음식 - 일반한식","category":"restaurant"},{"name":"고래불","tel":"031-618-8585","addr":"경기도 평택시 비전동 190-1번지","indutype":"음식점 - 일식","category":"restaurant"},{"name":"맨발의청춘","tel":"031-656-5354","addr":"경기도 평택시 비전동 190-1번지","indutype":"일반휴게음식 - 일반한식","category":"restaurant"}]},{"lat":"36.995685925","long":"127.09425684","imageIndex":4,"items":[{"name":"고려정","tel":"031-656-3456","addr":"경기도 평택시 비전동 603-2번지","indutype":"음식점 - 한식","category":"restaurant"}]},{"lat":"36.994274126","long":"127.11217255","imageIndex":4,"items":[{"name":"고미","tel":"031-654-3824","addr":"경기도 평택시 비전동 833-1번지","indutype":"일반휴게음식 - 주점","category":"restaurant"},{"name":"투썸플레이스평택점","tel":"031-651-8405","addr":"경기도 평택시 비전동 833-1번지","indutype":"일반휴게음식 - 서양음식","category":"restaurant"}]},{"lat":"37.003660505","long":"127.10516419","imageIndex":4,"items":[{"name":"고봉민김밥인(소사벌점)","tel":"031-652-5522","addr":"경기도 평택시 비전동 1013-1번지 우리타워 105호","indutype":"일반휴게음식 - 스넥","category":"restaurant"},{"name":"꼽창꼽창 소사벌점","tel":"070-4062-1324","addr":"경기도 평택시 비전동 1013-1번지 우리타워 114호","indutype":"일반휴게음식 - 일반한식","category":"restaurant"},{"name":"명장도너츠","tel":"031-654-2491","addr":"경기도 평택시 비전동 1013-1번지 우리타워 110호","indutype":"일반휴게음식 - 서양음식","category":"restaurant"},{"name":"명장도너츠","tel":"031-656-3838","addr":"경기도 평택시 비전동 1013-1번지 우리타워 110호","indutype":"음식점 - 도너츠","category":"restaurant"},{"name":"빽다방평택소사벌1호점","tel":"031-618-1518","addr":"경기도 평택시 비전동 1013-1번지 우리타워 107호","indutype":"일반휴게음식 - 서양음식","category":"restaurant"},{"name":"뺑드상떼","tel":"031-653-5189","addr":"경기도 평택시 비전동 1013-1번지 우리타워 112호","indutype":"음식점 - 제과점","category":"restaurant"}]},{"lat":"36.999831481","long":"127.11458464","imageIndex":4,"items":[{"name":"고부기 평택본점","tel":"070-8805-3648","addr":"경기도 평택시 비전동 1107-1번지 H탑3빌딩 2층 201호","indutype":"일반휴게음식 - 서양음식","category":"restaurant"},{"name":"나나","tel":"","addr":"경기도 평택시 비전동 1107-1번지 H탑3빌딩 301호","indutype":"일반휴게음식 - 일반한식","category":"restaurant"},{"name":"따르시오","tel":"031-652-7289","addr":"경기도 평택시 비전동 1107-1번지 H탑3 빌딩 106호","indutype":"음식점 - 일반","category":"restaurant"},{"name":"뚱보집 소시벌점","tel":"031-655-9119","addr":"경기도 평택시 비전동 1107-1번지 H탑3빌딩 106호","indutype":"일반휴게음식 - 일반한식","category":"restaurant"},{"name":"맛있는술집 여기미술관","tel":"031-657-7353","addr":"경기도 평택시 비전동 1107-1번지 탑3빌딩 107호,108호,109호","indutype":"일반휴게음식 - 주점","category":"restaurant"},{"name":"미술관","tel":"031-654-6698","addr":"경기도 평택시 비전동 1107-1번지","indutype":"음식점 - 한식","category":"restaurant"},{"name":"산카이","tel":"","addr":"경기도 평택시 비전동 1107-1번지 H탑3 빌딩 103,104,105호","indutype":"음식점 - 일반","category":"restaurant"},{"name":"산카이소사벌점","tel":"031-652-7289","addr":"경기도 평택시 비전동 1107-1번지 에이치탑3빌딩 103호,104호,105호","indutype":"일반휴게음식 - 일반한식","category":"restaurant"},{"name":"오바","tel":"031-652-0058","addr":"경기도 평택시 비전동 1107-1번지 H탑3빌딩 204호","indutype":"일반휴게음식 - 주점","category":"restaurant"},{"name":"황소곱창","tel":"070-8986-2548","addr":"경기도 평택시 비전동 1107-1번지 H탑3빌딩 101호","indutype":"일반휴게음식 - 일반한식","category":"restaurant"},{"name":"황소곱창구이","tel":"","addr":"경기도 평택시 비전동 1107-1번지","indutype":"음식점 - 한식","category":"restaurant"}]},{"lat":"36.996135991","long":"127.10583938","imageIndex":4,"items":[{"name":"고수의비법","tel":"031-655-0979","addr":"경기도 평택시 비전동 823-1번지 1층","indutype":"일반휴게음식 - 일반한식","category":"restaurant"}]},{"lat":"36.995519332","long":"127.08805566","imageIndex":4,"items":[{"name":"고시음식점","tel":"031-653-6359","addr":"경기도 평택시 비전동 633-38번지","indutype":"일반휴게음식 - 일반한식","category":"restaurant"}]},{"lat":"36.999825224","long":"127.11161878","imageIndex":4,"items":[{"name":"고씨네 평택소사벌점","tel":"031-657-9340","addr":"경기도 평택시 비전동 1090번지 1층","indutype":"음식점 - 일식","category":"restaurant"},{"name":"고씨네카레소사벌점","tel":"070-8185-0726","addr":"경기도 평택시 비전동 1090번지","indutype":"일반휴게음식 - 일식·회집","category":"restaurant"}]},{"lat":"36.99294108","long":"127.11158651","imageIndex":4,"items":[{"name":"고추장삼겹살","tel":"031-652-2551","addr":"경기도 평택시 비전동 838-3번지","indutype":"음식점 - 한식","category":"restaurant"},{"name":"딸부자고추장삼겹살","tel":"031-651-3265","addr":"경기도 평택시 비전동 838-3번지","indutype":"일반휴게음식 - 일반한식","category":"restaurant"}]},{"lat":"37.002824152","long":"127.1133869","imageIndex":4,"items":[{"name":"곤드레박","tel":"031-618-8855","addr":"경기도 평택시 비전동 1061-2번지 한울채 1동","indutype":"일반휴게음식 - 일반한식","category":"restaurant"}]},{"lat":"37.000192583","long":"127.11386617","imageIndex":4,"items":[{"name":"곱선생소사벌점","tel":"0507-1411-6426","addr":"경기도 평택시 비전동 1100번지 미투빌딩 104호","indutype":"일반휴게음식 - 일반한식","category":"restaurant"},{"name":"뉴욕야시장 소사벌점","tel":"070-8838-0726","addr":"경기도 평택시 비전동 1100번지 미투빌딩 101호","indutype":"음식점 - 일반","category":"restaurant"},{"name":"뉴욕야시장평택소사벌점","tel":"031-691-0080","addr":"경기도 평택시 비전동 1100번지 미투빌딩 101호","indutype":"일반휴게음식 - 일반한식","category":"restaurant"},{"name":"레드바(Red bar)","tel":"","addr":"경기도 평택시 비전동 1100번지 미투빌딩 4층 405,406호","indutype":"일반휴게음식 - 서양음식","category":"restaurant"},{"name":"레드바(Red bar)","tel":"","addr":"경기도 평택시 비전동 1100번지 미투빌딩 4층 405,406호","indutype":"일반휴게음식 - 서양음식","category":"restaurant"},{"name":"임창정의 소주한잔 평택점","tel":"070-4286-4737","addr":"경기도 평택시 비전동 1100번지 미투빌딩 109호","indutype":"일반휴게음식 - 주점","category":"restaurant"},{"name":"잇쇼 타마루","tel":"031-691-0080","addr":"경기도 평택시 비전동 1100번지 미투빌딩 203호","indutype":"음식점 - 일반","category":"restaurant"},{"name":"타마루소사벌점","tel":"031-654-4747","addr":"경기도 평택시 비전동 1100번지 미투빌딩 203호","indutype":"일반휴게음식 - 일반한식","category":"restaurant"},{"name":"펀비어킹 평택 소사벌점","tel":"031-000-0000","addr":"경기도 평택시 비전동 1100번지 미투빌딩 305,306호","indutype":"일반휴게음식 - 주점","category":"restaurant"}]},{"lat":"37.000661453","long":"127.11352982","imageIndex":4,"items":[{"name":"곱창고","tel":"031-683-8537","addr":"경기도 평택시 비전동 1092-2번지 쏘울스퀘어 101호","indutype":"음식점 - 일반","category":"restaurant"},{"name":"곱창고(소사벌점)","tel":"031-652-7733","addr":"경기도 평택시 비전동 1092-2번지","indutype":"일반휴게음식 - 일반한식","category":"restaurant"},{"name":"돌배기집 소사벌점","tel":"031-651-5550","addr":"경기도 평택시 비전동 1092-2번지 쏘울스퀘어 205호,206호","indutype":"일반휴게음식 - 일반한식","category":"restaurant"},{"name":"방순남명인시골통닭평택비전점","tel":"031-652-1992","addr":"경기도 평택시 비전동 1092-2번지 쏘울스퀘어 117호","indutype":"일반휴게음식 - 스넥","category":"restaurant"},{"name":"배다리생고기","tel":"031-657-9901","addr":"경기도 평택시 비전동 1092-2번지 115,116호","indutype":"일반휴게음식 - 일반한식","category":"restaurant"},{"name":"새마을식당소사벌점","tel":"031-653-0883","addr":"경기도 평택시 비전동 1092-2번지 204호,205호","indutype":"일반휴게음식 - 일반한식","category":"restaurant"},{"name":"정진원의커피볶는집소사벌점","tel":"031-656-7955","addr":"경기도 평택시 비전동 1092-2번지 111호, 112호, 207호, 208호","indutype":"일반휴게음식 - 서양음식","category":"restaurant"},{"name":"족발야시장 (소사벌점)","tel":"031-651-4369","addr":"경기도 평택시 비전동 1092-2번지 쏘울스퀘어 108,109호","indutype":"일반휴게음식 - 일반한식","category":"restaurant"},{"name":"한솥 소사벌점","tel":"031-655-5055","addr":"경기도 평택시 비전동 1092-2번지 쏘울스퀘어 113호","indutype":"일반휴게음식 - 일반한식","category":"restaurant"},{"name":"홍참치","tel":"031-683-8537","addr":"경기도 평택시 비전동 1092-2번지 쏘울스퀘어 2층 201호","indutype":"일반휴게음식 - 일반한식","category":"restaurant"},{"name":"홍참치","tel":"","addr":"경기도 평택시 비전동 1092-2번지 쏘울스퀘어 201호","indutype":"음식점 - 일반","category":"restaurant"}]},{"lat":"36.996939851","long":"127.10361615","imageIndex":4,"items":[{"name":"곱창골","tel":"031-658-9392","addr":"경기도 평택시 비전동 816-6번지 1층","indutype":"일반휴게음식 - 일반한식","category":"restaurant"},{"name":"노스타떡볶이","tel":"031-653-6648","addr":"경기도 평택시 비전동 816-6번지 1층","indutype":"일반휴게음식 - 스넥","category":"restaurant"}]},{"lat":"36.992720356","long":"127.11636033","imageIndex":4,"items":[{"name":"곱창친구","tel":"031-654-7236","addr":"경기도 평택시 비전동 886-4번지 1층","indutype":"일반휴게음식 - 일반한식","category":"restaurant"},{"name":"도란도란","tel":"031-654-5279","addr":"경기도 평택시 비전동 886-4번지 1층","indutype":"일반휴게음식 - 주점","category":"restaurant"}]},{"lat":"36.99352698","long":"127.11136268","imageIndex":4,"items":[{"name":"공작새 포차","tel":"031-652-0049","addr":"경기도 평택시 비전동 835-4번지","indutype":"음식점 - 한식","category":"restaurant"},{"name":"공작새포차본점","tel":"031-656-4889","addr":"경기도 평택시 비전동 835-4번지","indutype":"일반휴게음식 - 일반한식","category":"restaurant"}]},{"lat":"36.996297538","long":"127.10658102","imageIndex":4,"items":[{"name":"공작새포차","tel":"031-657-9292","addr":"경기도 평택시 비전동 823-7번지","indutype":"일반휴게음식 - 일반한식","category":"restaurant"}]},{"lat":"36.996579065","long":"127.09284244","imageIndex":4,"items":[{"name":"과일&안주","tel":"031-654-3973","addr":"경기도 평택시 비전동 608-21번지 1층","indutype":"일반휴게음식 - 일반한식","category":"restaurant"}]},{"lat":"37.002579484","long":"127.10485941","imageIndex":4,"items":[{"name":"광닭발","tel":"031-653-0565","addr":"경기도 평택시 비전동 1027-2번지 보령프라자 101호","indutype":"일반휴게음식 - 일반한식","category":"restaurant"},{"name":"토프레소 소사벌점","tel":"031-658-7845","addr":"경기도 평택시 비전동 1027-2번지 보령프라자 102호","indutype":"음식점 - 커피","category":"restaurant"},{"name":"토프레소소사벌점","tel":"031-654-1740","addr":"경기도 평택시 비전동 1027-2번지 보령프라자 102호","indutype":"일반휴게음식 - 서양음식","category":"restaurant"}]},{"lat":"37.00874037","long":"127.10764283","imageIndex":4,"items":[{"name":"교자품은닭개장","tel":"031-651-3589","addr":"경기도 평택시 비전동 59-12번지 1층","indutype":"일반휴게음식 - 일반한식","category":"restaurant"}]},{"lat":"36.996137287","long":"127.10433405","imageIndex":4,"items":[{"name":"교촌치킨비전1호점","tel":"031-658-1255","addr":"경기도 평택시 비전동 272-7번지 1층","indutype":"일반휴게음식 - 스넥","category":"restaurant"}]},{"lat":"37.000019903","long":"127.09447547","imageIndex":4,"items":[{"name":"교촌치킨비전2호점","tel":"031-618-3668","addr":"경기도 평택시 비전동 793-7번지","indutype":"일반휴게음식 - 스넥","category":"restaurant"}]},{"lat":"36.99335519","long":"127.11200273","imageIndex":4,"items":[{"name":"국산콩촌두부","tel":"031-657-0888","addr":"경기도 평택시 비전동 834-1번지","indutype":"음식점 - 한식","category":"restaurant"},{"name":"국산콩촌두부","tel":"031-652-5909","addr":"경기도 평택시 비전동 834-1번지","indutype":"일반휴게음식 - 일반한식","category":"restaurant"},{"name":"왕십리","tel":"031-657-5660","addr":"경기도 평택시 비전동 834-1번지","indutype":"음식점 - 일반","category":"restaurant"},{"name":"왕십리선술집","tel":"031-691-8988","addr":"경기도 평택시 비전동 834-1번지","indutype":"일반휴게음식 - 일반한식","category":"restaurant"},{"name":"조은참치","tel":"031-651-6544","addr":"경기도 평택시 비전동 834-1번지","indutype":"음식점 - 일식","category":"restaurant"},{"name":"하누팜","tel":"031-692-1516","addr":"경기도 평택시 비전동 834-1번지","indutype":"음식점 - 한식","category":"restaurant"},{"name":"하누팜 비전점","tel":"031-618-6692","addr":"경기도 평택시 비전동 834-1번지 2층","indutype":"일반휴게음식 - 일반한식","category":"restaurant"}]},{"lat":"36.995436608","long":"127.11206187","imageIndex":4,"items":[{"name":"국수나무 뉴코아점","tel":"031-618-1135","addr":"경기도 평택시 비전동 831-1번지","indutype":"음식점 - 한식","category":"restaurant"},{"name":"국수나무뉴코아점","tel":"031-653-5553","addr":"경기도 평택시 비전동 831-1번지 1층","indutype":"일반휴게음식 - 일반한식","category":"restaurant"},{"name":"설빙(비전점)","tel":"031-658-5679","addr":"경기도 평택시 비전동 831-1번지 2층","indutype":"일반휴게음식 - 서양음식","category":"restaurant"}]},{"lat":"37.00285867","long":"127.1050283","imageIndex":4,"items":[{"name":"국수나무소사벌점","tel":"031-692-0666","addr":"경기도 평택시 비전동 1027-1번지 비전타워 1동 104호","indutype":"일반휴게음식 - 스넥","category":"restaurant"},{"name":"도야몽","tel":"031-0000-0000","addr":"경기도 평택시 비전동 1027-1번지 비전타워 106호","indutype":"일반휴게음식 - 일반한식","category":"restaurant"},{"name":"불닭발땡초동대문엽기떡볶이(평택소사벌점)","tel":"031-656-3592","addr":"경기도 평택시 비전동 1027-1번지 비전타워 101호","indutype":"일반휴게음식 - 일반한식","category":"restaurant"},{"name":"엘리해드메이드카페","tel":"","addr":"경기도 평택시 비전동 1027-1번지 비전타워 303호","indutype":"일반휴게음식 - 서양음식","category":"restaurant"},{"name":"역용쌀국수","tel":"031-654-6044","addr":"경기도 평택시 비전동 1027-1번지 비전타워 201호","indutype":"일반휴게음식 - 서양음식","category":"restaurant"},{"name":"치어스 비전점","tel":"031-618-3579","addr":"경기도 평택시 비전동 1027-1번지 비전타워 1동 201호","indutype":"일반휴게음식 - 서양음식","category":"restaurant"},{"name":"킹콩쥬스(소사벌점)","tel":"031-672-3755","addr":"경기도 평택시 비전동 1027-1번지 비전타워","indutype":"음식점 - 카페","category":"restaurant"},{"name":"킹콩쥬스앤커피(소사벌점)","tel":"031-652-1199","addr":"경기도 평택시 비전동 1027-1번지 비전타워 103호","indutype":"음식점 - 커피","category":"restaurant"},{"name":"킹콩쥬스앤커피(소사벌점)","tel":"","addr":"경기도 평택시 비전동 1027-1번지 비전타워 103호","indutype":"일반휴게음식 - 서양음식","category":"restaurant"},{"name":"패밀리꼬마김밥 소사벌점","tel":"031-654-5288","addr":"경기도 평택시 비전동 1027-1번지 비전타워 1동 102호","indutype":"일반휴게음식 - 일반한식","category":"restaurant"}]},{"lat":"36.99077194","long":"127.10888751","imageIndex":4,"items":[{"name":"굽네치킨","tel":"031-656-9492","addr":"경기도 평택시 비전동 855-1번지","indutype":"일반휴게음식 - 스넥","category":"restaurant"}]},{"lat":"37.005933554","long":"127.10239215","imageIndex":4,"items":[{"name":"굽네치킨 소사벌점","tel":"031-651-9294","addr":"경기도 평택시 비전동 982-10번지","indutype":"일반휴게음식 - 스넥","category":"restaurant"},{"name":"분식이이래도되는가 (비전점)","tel":"031-691-2030","addr":"경기도 평택시 비전동 982-10번지","indutype":"일반휴게음식 - 스넥","category":"restaurant"}]},{"lat":"36.999744645","long":"127.10066524","imageIndex":4,"items":[{"name":"굿성비키친","tel":"031-654-3145","addr":"경기도 평택시 비전동 800-1번지 은행아파트 103호","indutype":"일반휴게음식 - 일반한식","category":"restaurant"}]},{"lat":"36.999794998","long":"127.09400336","imageIndex":4,"items":[{"name":"굿푸드","tel":"031-653-3289","addr":"경기도 평택시 비전동 790-7번지","indutype":"일반휴게음식 - 일반한식","category":"restaurant"}]},{"lat":"37.004995458","long":"127.10355937","imageIndex":4,"items":[{"name":"궁중칼국수","tel":"031-618-5322","addr":"경기도 평택시 비전동 996번지 SK타워 204호","indutype":"일반휴게음식 - 일반한식","category":"restaurant"},{"name":"토정삼계탕소사벌관","tel":"031-658-3323","addr":"경기도 평택시 비전동 996번지 SK타워 108.109호","indutype":"일반휴게음식 - 일반한식","category":"restaurant"}]},{"lat":"37.002718646","long":"127.11053313","imageIndex":4,"items":[{"name":"규방카페 다홍","tel":"070-4108-2532","addr":"경기도 평택시 비전동 1043-6번지 1층","indutype":"일반휴게음식 - 서양음식","category":"restaurant"}]},{"lat":"37.002880665","long":"127.11072435","imageIndex":4,"items":[{"name":"그문","tel":"","addr":"경기도 평택시 비전동 1046번지 1층","indutype":"일반휴게음식 - 서양음식","category":"restaurant"}]},{"lat":"36.995382699","long":"127.11189329","imageIndex":4,"items":[{"name":"금탑떡볶이","tel":"","addr":"경기도 평택시 비전동 831번지 1층","indutype":"음식점 - 분식","category":"restaurant"},{"name":"금탑떡볶이","tel":"031-652-2310","addr":"경기도 평택시 비전동 831번지 1층","indutype":"일반휴게음식 - 스넥","category":"restaurant"}]},{"lat":"36.994523398","long":"127.09444642","imageIndex":4,"items":[{"name":"길카페","tel":"","addr":"경기도 평택시 비전동 615-1번지","indutype":"음식점 - 카페","category":"restaurant"},{"name":"와이(Y)디톡카페","tel":"02-1111-1111","addr":"경기도 평택시 비전동 615-1번지 1층","indutype":"일반휴게음식 - 서양음식","category":"restaurant"},{"name":"와이(Y)디톡카페","tel":"031-618-9985","addr":"경기도 평택시 비전동 615-1번지 1층","indutype":"음식점 - 카페","category":"restaurant"},{"name":"우마이 돈까스","tel":"","addr":"경기도 평택시 비전동 615-1번지","indutype":"음식점 - 양식","category":"restaurant"},{"name":"우마이돈까스","tel":"031-652-1199","addr":"경기도 평택시 비전동 615-1번지 1층","indutype":"일반휴게음식 - 스넥","category":"restaurant"},{"name":"우마이돈까스","tel":"031-652-6633","addr":"경기도 평택시 비전동 615-1번지 1층","indutype":"음식점 - 분식","category":"restaurant"},{"name":"초롱문구","tel":"031-654-6779","addr":"경기도 평택시 비전동 615-1번지","indutype":"일반휴게음식 - 스넥","category":"restaurant"}]},{"lat":"36.993832602","long":"127.11217192","imageIndex":4,"items":[{"name":"김밥나라 뉴코아점","tel":"031-653-7535","addr":"경기도 평택시 비전동 842-1번지","indutype":"음식점 - 분식","category":"restaurant"},{"name":"김밥나라뉴코아점","tel":"031-651-1034","addr":"경기도 평택시 비전동 842-1번지","indutype":"일반휴게음식 - 스넥","category":"restaurant"},{"name":"본죽뉴코아점","tel":"031-654-6288","addr":"경기도 평택시 비전동 842-1번지","indutype":"일반휴게음식 - 일반한식","category":"restaurant"}]},{"lat":"37.001329915","long":"127.11172203","imageIndex":4,"items":[{"name":"김밥나라(비전점)","tel":"031-692-8545","addr":"경기도 평택시 비전동 1066번지 티에스원주차빌딩 108호","indutype":"일반휴게음식 - 스넥","category":"restaurant"},{"name":"비전동소한마리","tel":"031-652-0089","addr":"경기도 평택시 비전동 1066번지 티에스원주차빌딩 203,204호","indutype":"일반휴게음식 - 일반한식","category":"restaurant"},{"name":"빠네뚜","tel":"031-668-0668","addr":"경기도 평택시 비전동 1066번지 티에스원주차빌딩 106호","indutype":"일반휴게음식 - 서양음식","category":"restaurant"},{"name":"속초붉은대게","tel":"031-657-7778","addr":"경기도 평택시 비전동 1066번지 티에스원주차빌딩 118호","indutype":"일반휴게음식 - 일반한식","category":"restaurant"},{"name":"엔젤리너스 소사벌점(주식회사 티에스원)","tel":"","addr":"경기도 평택시 비전동 1066번지","indutype":"음식점 - 휴게음식","category":"restaurant"},{"name":"엔젤리너스(소사벌점)/주식회사 티에스원","tel":"031-655-7148","addr":"경기도 평택시 비전동 1066번지 티에스원주차빌딩","indutype":"일반휴게음식 - 서양음식","category":"restaurant"},{"name":"올라페리체 ora felice","tel":"031-656-2533","addr":"경기도 평택시 비전동 1066번지 티에스원 124호","indutype":"일반휴게음식 - 서양음식","category":"restaurant"},{"name":"올라펠리체","tel":"","addr":"경기도 평택시 비전동 1066번지 티에스원 124호","indutype":"음식점 - 레스토랑","category":"restaurant"},{"name":"월남쌈김상사 소사벌점","tel":"031-618-9249","addr":"경기도 평택시 비전동 1066번지 티에스원주차빌딩 205호 ,206,207호","indutype":"일반휴게음식 - 일반한식","category":"restaurant"},{"name":"월남쌈김상사소사벌점","tel":"031-692-0505","addr":"경기도 평택시 비전동 1066번지","indutype":"음식점 - 한식","category":"restaurant"},{"name":"육미촌소사벌점","tel":"","addr":"경기도 평택시 비전동 1066번지","indutype":"음식점 - 한식","category":"restaurant"},{"name":"청년다방(평택소사벌점)","tel":"031-4045-8624","addr":"경기도 평택시 비전동 1066번지 티에스원주차빌딩 1층 110호","indutype":"일반휴게음식 - 스넥","category":"restaurant"},{"name":"최네집(평택소사벌점)","tel":"031-651-8807","addr":"경기도 평택시 비전동 1066번지 티에스원주차빌딩 201호,202호","indutype":"일반휴게음식 - 일반한식","category":"restaurant"},{"name":"커피스완","tel":"","addr":"경기도 평택시 비전동 1066번지 티에스원주차빌딩 111호","indutype":"일반휴게음식 - 서양음식","category":"restaurant"},{"name":"타요키즈카페(평택소사벌점)","tel":"031-655-9455","addr":"경기도 평택시 비전동 1066번지 티에스원주차빌딩 2층","indutype":"일반휴게음식 - 서양음식","category":"restaurant"}]},{"lat":"36.996190316","long":"127.09452705","imageIndex":4,"items":[{"name":"김밥세상","tel":"031-653-3771","addr":"경기도 평택시 비전동 603-8번지","indutype":"일반휴게음식 - 스넥","category":"restaurant"},{"name":"신전떡볶이","tel":"031-654-0724","addr":"경기도 평택시 비전동 603-8번지","indutype":"일반휴게음식 - 스넥","category":"restaurant"},{"name":"신전떡볶이","tel":"031-341-1120","addr":"경기도 평택시 비전동 603-8번지","indutype":"일반휴게음식 - 스넥","category":"restaurant"}]},{"lat":"37.002354304","long":"127.104758","imageIndex":4,"items":[{"name":"김밥천국카페 평택소사벌점","tel":"031-618-9588","addr":"경기도 평택시 비전동 1027-3번지 골든프라자 106호","indutype":"음식점 - 분식","category":"restaurant"},{"name":"김밥천국카페평택소사벌점","tel":"031-655-1279","addr":"경기도 평택시 비전동 1027-3번지 골든프라자 106호","indutype":"일반휴게음식 - 스넥","category":"restaurant"},{"name":"데일리 피쉬","tel":"031-654-5252","addr":"경기도 평택시 비전동 1027-3번지 골든프라자 1층 107호","indutype":"일반휴게음식 - 일반한식","category":"restaurant"},{"name":"데일리피쉬","tel":"031-658-3939","addr":"경기도 평택시 비전동 1027-3번지 골든프라자 107호","indutype":"음식점 - 한식","category":"restaurant"},{"name":"파리바게뜨 평택소사벌점","tel":"031-652-7750","addr":"경기도 평택시 비전동 1027-3번지 골든프라자","indutype":"음식점 - 제과점","category":"restaurant"}]},{"lat":"36.992383307","long":"127.10017278","imageIndex":4,"items":[{"name":"김밥타운","tel":"031-654-4588","addr":"경기도 평택시 비전동 760-8번지","indutype":"일반휴게음식 - 스넥","category":"restaurant"}]},{"lat":"36.999688247","long":"127.11358458","imageIndex":4,"items":[{"name":"김뽁분식","tel":"031-653-2999","addr":"경기도 평택시 비전동 1105-2번지 골든프라자IV 104호","indutype":"일반휴게음식 - 스넥","category":"restaurant"},{"name":"김뽁분식","tel":"031-656-5171","addr":"경기도 평택시 비전동 1105-2번지","indutype":"음식점 - 분식","category":"restaurant"},{"name":"냉면장인고깃집 (비전점)","tel":"031-657-0291","addr":"경기도 평택시 비전동 1105-2번지","indutype":"일반휴게음식 - 일반한식","category":"restaurant"},{"name":"누나홀닭 (소사벌점)","tel":"031-657-3512","addr":"경기도 평택시 비전동 1105-2번지 골든프라자 101,102호","indutype":"일반휴게음식 - 일반한식","category":"restaurant"},{"name":"마린보이코다리조림평택점","tel":"","addr":"경기도 평택시 비전동 1105-2번지 골든프라자-IV 2층 203호","indutype":"일반휴게음식 - 일반한식","category":"restaurant"},{"name":"오롯이스시","tel":"031-7467-2339","addr":"경기도 평택시 비전동 1105-2번지 골든프라자-IV 111호","indutype":"일반휴게음식 - 일식·회집","category":"restaurant"},{"name":"장인","tel":"","addr":"경기도 평택시 비전동 1105-2번지 골든프라자 1동 103호","indutype":"일반휴게음식 - 일식·회집","category":"restaurant"},{"name":"장인횟집","tel":"031-655-3309","addr":"경기도 평택시 비전동 1105-2번지 골든프라자4차 103호","indutype":"음식점 - 일식","category":"restaurant"},{"name":"전라도한식뷔페 (소사벌점)","tel":"031-655-4167","addr":"경기도 평택시 비전동 1105-2번지 골든프라자-IV 204호","indutype":"일반휴게음식 - 일반한식","category":"restaurant"},{"name":"초이참치","tel":"031-655-3955","addr":"경기도 평택시 비전동 1105-2번지 108,109호","indutype":"일반휴게음식 - 일식·회집","category":"restaurant"},{"name":"파리바게트소사벌상업지구점","tel":"031-656-2529","addr":"경기도 평택시 비전동 1105-2번지 골든4차","indutype":"음식점 - 제과점","category":"restaurant"},{"name":"포아이니평택소사벌점","tel":"","addr":"경기도 평택시 비전동 1105-2번지 골든4차 108호","indutype":"음식점 - 베트남음식","category":"restaurant"}]},{"lat":"36.999462065","long":"127.11456163","imageIndex":4,"items":[{"name":"김작가의 이중생활","tel":"070-8868-2345","addr":"경기도 평택시 비전동 1108번지 탑2빌딩 202호","indutype":"일반휴게음식 - 주점","category":"restaurant"},{"name":"비턴 평택소사벌점","tel":"031-656-3688","addr":"경기도 평택시 비전동 1108번지 탑2빌딩 2층 201호","indutype":"일반휴게음식 - 주점","category":"restaurant"},{"name":"삼삼해","tel":"031-657-7353","addr":"경기도 평택시 비전동 1108번지","indutype":"음식점 - 한식","category":"restaurant"},{"name":"삼삼해","tel":"02-0000-0000","addr":"경기도 평택시 비전동 1108번지 105호","indutype":"일반휴게음식 - 일반한식","category":"restaurant"},{"name":"아웃닭 소사벌점","tel":"031-657-5670","addr":"경기도 평택시 비전동 1108번지 103,104호","indutype":"일반휴게음식 - 스넥","category":"restaurant"},{"name":"에스","tel":"031-656-2684","addr":"경기도 평택시 비전동 1108번지 203호","indutype":"일반휴게음식 - 일반한식","category":"restaurant"},{"name":"제주도세기","tel":"031-653-2533","addr":"경기도 평택시 비전동 1108번지 101,102호","indutype":"일반휴게음식 - 일반한식","category":"restaurant"},{"name":"제주애한판","tel":"","addr":"경기도 평택시 비전동 1108번지 HTOP2빌딩 101호","indutype":"음식점 - 일반","category":"restaurant"},{"name":"카페코지룸","tel":"","addr":"경기도 평택시 비전동 1108번지 5층 501호","indutype":"일반휴게음식 - 서양음식","category":"restaurant"},{"name":"플레이바","tel":"","addr":"경기도 평택시 비전동 1108번지 3층 304호","indutype":"일반휴게음식 - 칵테일바","category":"restaurant"}]},{"lat":"37.002185496","long":"127.1121951","imageIndex":4,"items":[{"name":"까사디루카","tel":"","addr":"경기도 평택시 비전동 1060번지","indutype":"일반휴게음식 - 서양음식","category":"restaurant"}]},{"lat":"37.003218652","long":"127.09453549","imageIndex":4,"items":[{"name":"깡통치킨(비전점)","tel":"031-618-0886","addr":"경기도 평택시 비전동 1005번지 휴먼시아1단지 상가동 104호","indutype":"일반휴게음식 - 일반한식","category":"restaurant"},{"name":"해물섬포차","tel":"031-655-0860","addr":"경기도 평택시 비전동 1005번지 휴먼시아1단지 상가동 105호","indutype":"일반휴게음식 - 일반한식","category":"restaurant"}]},{"lat":"36.991664199","long":"127.10866409","imageIndex":4,"items":[{"name":"깨계닭별난맛집","tel":"031-658-3320","addr":"경기도 평택시 비전동 205-12번지 1층","indutype":"일반휴게음식 - 일반한식","category":"restaurant"}]},{"lat":"37.001411546","long":"127.11113795","imageIndex":4,"items":[{"name":"꼬꼬댁갈비비전점","tel":"031-654-2086","addr":"경기도 평택시 비전동 1067-1번지","indutype":"음식점 - 한식","category":"restaurant"},{"name":"꼬꼬댁갈비비전점","tel":"031-691-1007","addr":"경기도 평택시 비전동 1067-1번지","indutype":"일반휴게음식 - 일반한식","category":"restaurant"}]},{"lat":"37.007021748","long":"127.10486534","imageIndex":4,"items":[{"name":"꼬꼬팜(이곡점)","tel":"031-618-1566","addr":"경기도 평택시 비전동 968번지 엘에이치이곡마을6단지 상가동 103호","indutype":"일반휴게음식 - 스넥","category":"restaurant"}]},{"lat":"36.992214857","long":"127.1075303","imageIndex":4,"items":[{"name":"꼼장어와 쭈꾸미 참숯구이","tel":"031-657-9696","addr":"경기도 평택시 비전동 191-3번지","indutype":"음식점 - 한식","category":"restaurant"},{"name":"꼼장어와쭈꾸미참숯구이","tel":"031-651-4415","addr":"경기도 평택시 비전동 191-3번지","indutype":"일반휴게음식 - 일반한식","category":"restaurant"}]},{"lat":"36.999578184","long":"127.11564029","imageIndex":4,"items":[{"name":"꼼지락 평택","tel":"031-654-0884","addr":"경기도 평택시 비전동 1102번지 에이치탑5 404호","indutype":"일반휴게음식 - 서양음식","category":"restaurant"},{"name":"닭치고짜글","tel":"031-000-0000","addr":"경기도 평택시 비전동 1102번지 에이치탑5 106호","indutype":"일반휴게음식 - 일반한식","category":"restaurant"},{"name":"닭치고짜글","tel":"031-655-5034","addr":"경기도 평택시 비전동 1102번지 에이치탑5 106호","indutype":"음식점 - 한식","category":"restaurant"},{"name":"라무진(평택소사벌점)","tel":"031-654-9233","addr":"경기도 평택시 비전동 1102번지 에이치탑5 103호","indutype":"일반휴게음식 - 일반한식","category":"restaurant"},{"name":"만식이네와인포차평택소사벌점","tel":"070-6258-7839","addr":"경기도 평택시 비전동 1102번지 에이치탑5 108호","indutype":"일반휴게음식 - 서양음식","category":"restaurant"},{"name":"세븐플로어카페","tel":"","addr":"경기도 평택시 비전동 1102번지 에이치탑5 704호","indutype":"음식점 - 카페","category":"restaurant"},{"name":"세븐플로어카페","tel":"031-656-4686","addr":"경기도 평택시 비전동 1102번지 에이치탑5 704호","indutype":"일반휴게음식 - 서양음식","category":"restaurant"},{"name":"소미양 (소사벌점)","tel":"031-657-3881","addr":"경기도 평택시 비전동 1102번지 에이치탑5 204호","indutype":"일반휴게음식 - 일반한식","category":"restaurant"},{"name":"전주밥상양푼이동태찌개","tel":"031-654-2552","addr":"경기도 평택시 비전동 1102번지 에이치탑5 201호","indutype":"일반휴게음식 - 일반한식","category":"restaurant"},{"name":"해늘찹쌀순대","tel":"","addr":"경기도 평택시 비전동 1102번지","indutype":"음식점 - 한식","category":"restaurant"}]},{"lat":"37.001525415","long":"127.11466576","imageIndex":4,"items":[{"name":"꽃다온","tel":"","addr":"경기도 평택시 비전동 1097-1번지 203호~204호","indutype":"일반휴게음식 - 일반한식","category":"restaurant"},{"name":"노랑통닭(소사벌점)","tel":"","addr":"경기도 평택시 비전동 1097-1번지 105,106호","indutype":"일반휴게음식 - 일반한식","category":"restaurant"},{"name":"브로스팬","tel":"031-652-7762","addr":"경기도 평택시 비전동 1097-1번지 108호","indutype":"일반휴게음식 - 일반한식","category":"restaurant"},{"name":"브로스펜","tel":"031-651-5992","addr":"경기도 평택시 비전동 1097-1번지 108호","indutype":"음식점 - 일반","category":"restaurant"},{"name":"용범이네인계동껍데기평택동소사벌점","tel":"","addr":"경기도 평택시 비전동 1097-1번지 스마일타워 1층 109호","indutype":"일반휴게음식 - 일반한식","category":"restaurant"},{"name":"우심","tel":"","addr":"경기도 평택시 비전동 1097-1번지 104호","indutype":"일반휴게음식 - 일반한식","category":"restaurant"}]},{"lat":"37.00279668","long":"127.11385872","imageIndex":4,"items":[{"name":"꽃담","tel":"031-655-1143","addr":"경기도 평택시 비전동 1057-8번지 101호","indutype":"일반휴게음식 - 서양음식","category":"restaurant"}]},{"lat":"37.004553438","long":"127.10414301","imageIndex":4,"items":[{"name":"꽃마름평택소사벌점","tel":"031-652-8766","addr":"경기도 평택시 비전동 1012-2번지 3층 302호, 303호, 304호","indutype":"음식점 - 한식","category":"restaurant"},{"name":"떼루와앤아리랑핫도그","tel":"031-691-1950","addr":"경기도 평택시 비전동 1012-2번지 우성메디피아 111호","indutype":"일반휴게음식 - 스넥","category":"restaurant"},{"name":"맘스터치(평택소사벌점)","tel":"031-652-7750","addr":"경기도 평택시 비전동 1012-2번지 101,102호","indutype":"일반휴게음식 - 서양음식","category":"restaurant"},{"name":"맘스터치평택소사벌점","tel":"031-651-8081","addr":"경기도 평택시 비전동 1012-2번지","indutype":"음식점 - 햄버거","category":"restaurant"},{"name":"써브웨이 평택소사벌점","tel":"031-651-2122","addr":"경기도 평택시 비전동 1012-2번지 우성메디피아 110호","indutype":"일반휴게음식 - 서양음식","category":"restaurant"}]},{"lat":"37.002908823","long":"127.10947733","imageIndex":4,"items":[{"name":"꽃차&마카롱가게","tel":"031-692-0999","addr":"경기도 평택시 비전동 1037-5번지 101호","indutype":"일반휴게음식 - 서양음식","category":"restaurant"}]},{"lat":"36.992718285","long":"127.11850587","imageIndex":4,"items":[{"name":"나라분식&국수","tel":"031-658-0889","addr":"경기도 평택시 비전동 882-6번지","indutype":"음식점 - 분식","category":"restaurant"},{"name":"나리분식&국수","tel":"031-653-5060","addr":"경기도 평택시 비전동 882-6번지 1층","indutype":"일반휴게음식 - 일반한식","category":"restaurant"}]},{"lat":"36.997771585","long":"127.08864234","imageIndex":4,"items":[{"name":"나이로비","tel":"","addr":"경기도 평택시 비전동 471-2번지","indutype":"음식점 - 커피","category":"restaurant"},{"name":"나이로비","tel":"031-656-6707","addr":"경기도 평택시 비전동 471-2번지","indutype":"일반휴게음식 - 일반한식","category":"restaurant"}]},{"lat":"36.999269753","long":"127.09736177","imageIndex":4,"items":[{"name":"나카이돈까스","tel":"031-655-7139","addr":"경기도 평택시 비전동 801-4번지 1층","indutype":"일반휴게음식 - 일반한식","category":"restaurant"}]},{"lat":"37.004824417","long":"127.10336815","imageIndex":4,"items":[{"name":"낙지나라해물탕해물찜","tel":"031-618-4346","addr":"경기도 평택시 비전동 996-1번지 1층","indutype":"일반휴게음식 - 일반한식","category":"restaurant"}]},{"lat":"36.995410593","long":"127.11094971","imageIndex":4,"items":[{"name":"낙지박사","tel":"031-657-5239","addr":"경기도 평택시 비전동 829-9번지","indutype":"일반휴게음식 - 일반한식","category":"restaurant"},{"name":"낙지박사","tel":"031-684-3355","addr":"경기도 평택시 비전동 829-9번지","indutype":"음식점 - 한식","category":"restaurant"}]},{"lat":"36.999299427","long":"127.11503323","imageIndex":4,"items":[{"name":"낙지볶음개미집","tel":"","addr":"경기도 평택시 비전동 1109-2번지","indutype":"음식점 - 한식","category":"restaurant"},{"name":"낙지볶음개미집평택소사벌점","tel":"031-653-8844","addr":"경기도 평택시 비전동 1109-2번지 탑1빌딩 103,104,105호","indutype":"일반휴게음식 - 일반한식","category":"restaurant"},{"name":"베이직","tel":"031-691-0175","addr":"경기도 평택시 비전동 1109-2번지 탑1빌딩 5층 501호","indutype":"일반휴게음식 - 서양음식","category":"restaurant"},{"name":"부산가야밀면","tel":"031-657-7840","addr":"경기도 평택시 비전동 1109-2번지 탑1빌딩 202호","indutype":"일반휴게음식 - 일반한식","category":"restaurant"},{"name":"성원램양꼬치","tel":"031-654-6698","addr":"경기도 평택시 비전동 1109-2번지 탑1빌딩 1층 102호","indutype":"일반휴게음식 - 일반한식","category":"restaurant"},{"name":"성원램양꼬치","tel":"031-654-4760","addr":"경기도 평택시 비전동 1109-2번지","indutype":"음식점 - 중식","category":"restaurant"},{"name":"장도참치","tel":"031-653-0340","addr":"경기도 평택시 비전동 1109-2번지 탑1빌딩 101호","indutype":"일반휴게음식 - 일반한식","category":"restaurant"},{"name":"피자연합평택점","tel":"031-223-5214","addr":"경기도 평택시 비전동 1109-2번지 탑1빌딩 204호","indutype":"일반휴게음식 - 서양음식","category":"restaurant"},{"name":"화로명가","tel":"031-655-8721","addr":"경기도 평택시 비전동 1109-2번지 H탑빌딩 107호","indutype":"일반휴게음식 - 일반한식","category":"restaurant"}]},{"lat":"37.00105119","long":"127.1110588","imageIndex":4,"items":[{"name":"난장피쉬","tel":"031-618-1939","addr":"경기도 평택시 비전동 1068-2번지 1층","indutype":"일반휴게음식 - 일식·회집","category":"restaurant"}]},{"lat":"37.000463969","long":"127.11272066","imageIndex":4,"items":[{"name":"남백정뒷고기","tel":"031-656-7865","addr":"경기도 평택시 비전동 1091-2번지 124호,125호","indutype":"일반휴게음식 - 일반한식","category":"restaurant"},{"name":"두껍삼","tel":"031-653-9279","addr":"경기도 평택시 비전동 1091-2번지 강일타운 113,114,115,116호","indutype":"일반휴게음식 - 일반한식","category":"restaurant"},{"name":"배다리감자탕","tel":"031-665-2760","addr":"경기도 평택시 비전동 1091-2번지","indutype":"음식점 - 한식","category":"restaurant"},{"name":"배다리감자탕","tel":"031-692-3300","addr":"경기도 평택시 비전동 1091-2번지 강일타운 209~210호","indutype":"일반휴게음식 - 일반한식","category":"restaurant"},{"name":"소가","tel":"031-691-2992","addr":"경기도 평택시 비전동 1091-2번지 강일타운 122호","indutype":"음식점 - 일식","category":"restaurant"},{"name":"소가","tel":"031-000-0000","addr":"경기도 평택시 비전동 1091-2번지 강일타운 122호","indutype":"일반휴게음식 - 일반한식","category":"restaurant"},{"name":"슈팅존카페","tel":"031-691-0907","addr":"경기도 평택시 비전동 1091-2번지 강일타운 1동 4층 408호","indutype":"일반휴게음식 - 서양음식","category":"restaurant"},{"name":"써브웨이 평택비전점","tel":"","addr":"경기도 평택시 비전동 1091-2번지 강일타운 127,128호","indutype":"일반휴게음식 - 서양음식","category":"restaurant"},{"name":"써브웨이평택비전점","tel":"031-652-3808","addr":"경기도 평택시 비전동 1091-2번지 127,128호","indutype":"음식점 - 샌드위치","category":"restaurant"},{"name":"작은전집","tel":"031-656-6917","addr":"경기도 평택시 비전동 1091-2번지 강일타운 126호","indutype":"일반휴게음식 - 일반한식","category":"restaurant"},{"name":"제이제이 (JJ)셔플라운지","tel":"031-651-4650","addr":"경기도 평택시 비전동 1091-2번지 강일타운 403호","indutype":"일반휴게음식 - 주점","category":"restaurant"},{"name":"탐앤탐스커피(언데드소사점)","tel":"031-658-7197","addr":"경기도 평택시 비전동 1091-2번지 강일타운 101호,102호,103호","indutype":"일반휴게음식 - 서양음식","category":"restaurant"},{"name":"투더문BAR","tel":"031-652-2689","addr":"경기도 평택시 비전동 1091-2번지 강일타운 5층 504호,505호","indutype":"일반휴게음식 - 일반한식","category":"restaurant"},{"name":"포항아지매소사벌점","tel":"031-653-3708","addr":"경기도 평택시 비전동 1091-2번지 강일타운","indutype":"음식점 - 한식","category":"restaurant"},{"name":"포항아지매소사벌점","tel":"031-655-6103","addr":"경기도 평택시 비전동 1091-2번지 강일타운 107호","indutype":"일반휴게음식 - 일반한식","category":"restaurant"},{"name":"필바든치킨(소사벌점)","tel":"031-655-9242","addr":"경기도 평택시 비전동 1091-2번지 강일타운 112호","indutype":"일반휴게음식 - 스넥","category":"restaurant"}]},{"lat":"37.000327586","long":"127.11403488","imageIndex":4,"items":[{"name":"낭만치맥(평택소사벌점)","tel":"070-7543-2776","addr":"경기도 평택시 비전동 1100-1번지 1층 102호","indutype":"일반휴게음식 - 스넥","category":"restaurant"},{"name":"식이네오류동껍데기","tel":"","addr":"경기도 평택시 비전동 1100-1번지 103호","indutype":"일반휴게음식 - 일반한식","category":"restaurant"},{"name":"지금보고싶다 소사벌점","tel":"02-0000-0000","addr":"경기도 평택시 비전동 1100-1번지","indutype":"일반휴게음식 - 주점","category":"restaurant"},{"name":"캑터스가든","tel":"070-8711-0011","addr":"경기도 평택시 비전동 1100-1번지","indutype":"일반휴게음식 - 서양음식","category":"restaurant"}]},{"lat":"36.991026293","long":"127.10656263","imageIndex":4,"items":[{"name":"네네치킨 비전1호점","tel":"031-651-4479","addr":"경기도 평택시 비전동 764-8번지","indutype":"일반휴게음식 - 스넥","category":"restaurant"},{"name":"튀어라김떡순","tel":"031-655-0306","addr":"경기도 평택시 비전동 764-8번지","indutype":"일반휴게음식 - 스넥","category":"restaurant"}]},{"lat":"37.005718178","long":"127.10133576","imageIndex":4,"items":[{"name":"네네치킨소사벌점","tel":"031-692-9292","addr":"경기도 평택시 비전동 984-1번지","indutype":"일반휴게음식 - 스넥","category":"restaurant"}]},{"lat":"37.002464879","long":"127.11213933","imageIndex":4,"items":[{"name":"네발로킹바베큐","tel":"031-692-0193","addr":"경기도 평택시 비전동 1050-4번지","indutype":"일반휴게음식 - 일반한식","category":"restaurant"}]},{"lat":"37.005934201","long":"127.10161692","imageIndex":4,"items":[{"name":"네오피자 평택1호","tel":"031-653-2486","addr":"경기도 평택시 비전동 983-3번지 1층","indutype":"일반휴게음식 - 서양음식","category":"restaurant"},{"name":"네오피자평택1호점","tel":"031-651-7530","addr":"경기도 평택시 비전동 983-3번지","indutype":"음식점 - 피자","category":"restaurant"}]},{"lat":"36.993440927","long":"127.09597286","imageIndex":4,"items":[{"name":"노걸대 위드유(WITH YOU) 홈외식 비전점","tel":"031-653-6665","addr":"경기도 평택시 비전동 739-25번지 준엘리시아 201동 101호","indutype":"일반휴게음식 - 일반한식","category":"restaurant"}]},{"lat":"36.997940017","long":"127.11375056","imageIndex":4,"items":[{"name":"노걸대위드유 평택소사벌점","tel":"031-675-3003","addr":"경기도 평택시 비전동 868-2번지 1층","indutype":"일반휴게음식 - 일반한식","category":"restaurant"},{"name":"소보야","tel":"031-651-6558","addr":"경기도 평택시 비전동 868-2번지 1층","indutype":"일반휴게음식 - 서양음식","category":"restaurant"}]},{"lat":"37.000073846","long":"127.11556238","imageIndex":4,"items":[{"name":"노니","tel":"031-691-2432","addr":"경기도 평택시 비전동 1101-3번지 3층 304호","indutype":"일반휴게음식 - 주점","category":"restaurant"},{"name":"달콤돈가스","tel":"031-652-7855","addr":"경기도 평택시 비전동 1101-3번지 303호","indutype":"일반휴게음식 - 일반한식","category":"restaurant"},{"name":"달콤돈가스","tel":"031-651-6327","addr":"경기도 평택시 비전동 1101-3번지 레이크타워 303호","indutype":"음식점 - 돈가스","category":"restaurant"},{"name":"담담","tel":"031-618-1213","addr":"경기도 평택시 비전동 1101-3번지 201,202호","indutype":"일반휴게음식 - 일반한식","category":"restaurant"},{"name":"담담","tel":"","addr":"경기도 평택시 비전동 1101-3번지 2층","indutype":"음식점 - 한식","category":"restaurant"},{"name":"버드소리","tel":"","addr":"경기도 평택시 비전동 1101-3번지 레이크타워 301호,302호","indutype":"일반휴게음식 - 서양음식","category":"restaurant"},{"name":"슈슈봉봉 평택점","tel":"031-692-0505","addr":"경기도 평택시 비전동 1101-3번지 8층","indutype":"일반휴게음식 - 일반한식","category":"restaurant"},{"name":"슈슈봉봉평택점","tel":"","addr":"경기도 평택시 비전동 1101-3번지 8층","indutype":"음식점 - 한식","category":"restaurant"},{"name":"짚신매운갈비찜소사벌점","tel":"031-692-0109","addr":"경기도 평택시 비전동 1101-3번지 레이크타워 108,109호","indutype":"일반휴게음식 - 일반한식","category":"restaurant"}]},{"lat":"36.999659197","long":"127.09483454","imageIndex":4,"items":[{"name":"노랑버스 키즈방방 (비전점)","tel":"031-618-1838","addr":"경기도 평택시 비전동 487-13번지 2층 203,204호","indutype":"일반휴게음식 - 일반한식","category":"restaurant"},{"name":"도미노피자평택점","tel":"031-658-3082","addr":"경기도 평택시 비전동 487-13번지 101호","indutype":"일반휴게음식 - 서양음식","category":"restaurant"},{"name":"통티닭강정(비전2호점)","tel":"031-657-0345","addr":"경기도 평택시 비전동 487-13번지 비전21빌(103-2호)","indutype":"일반휴게음식 - 스넥","category":"restaurant"}]},{"lat":"36.997886831","long":"127.11280682","imageIndex":4,"items":[{"name":"노블","tel":"031-654-1535","addr":"경기도 평택시 비전동 866-13번지 1층","indutype":"일반휴게음식 - 일반한식","category":"restaurant"},{"name":"삼형제식품","tel":"031-651-8996","addr":"경기도 평택시 비전동 866-13번지 1층","indutype":"일반휴게음식 - 서양음식","category":"restaurant"}]},{"lat":"37.002051458","long":"127.11097034","imageIndex":4,"items":[{"name":"노이(noi)","tel":"","addr":"경기도 평택시 비전동 1048-7번지","indutype":"일반휴게음식 - 서양음식","category":"restaurant"}]},{"lat":"36.994770198","long":"127.11164528","imageIndex":4,"items":[{"name":"노인과바다","tel":"031-656-8766","addr":"경기도 평택시 비전동 832-6번지 층가동가호","indutype":"일반휴게음식 - 일반한식","category":"restaurant"},{"name":"피노키오숯불바베큐","tel":"031-654-9870","addr":"경기도 평택시 비전동 832-6번지 1층","indutype":"일반휴게음식 - 일반한식","category":"restaurant"}]},{"lat":"37.001303643","long":"127.11089064","imageIndex":4,"items":[{"name":"녹색집","tel":"031-686-6441","addr":"경기도 평택시 비전동 1068번지 1층","indutype":"일반휴게음식 - 일반한식","category":"restaurant"},{"name":"녹색집","tel":"031-618-2708","addr":"경기도 평택시 비전동 1068번지 1층","indutype":"음식점 - 한식","category":"restaurant"}]},{"lat":"36.996245865","long":"127.10380621","imageIndex":4,"items":[{"name":"논두렁밭두렁비전점","tel":"031-652-9288","addr":"경기도 평택시 비전동 817-5번지","indutype":"일반휴게음식 - 주점","category":"restaurant"},{"name":"통키스","tel":"070-4194-9721","addr":"경기도 평택시 비전동 817-5번지","indutype":"일반휴게음식 - 일반한식","category":"restaurant"}]},{"lat":"37.001859021","long":"127.09325311","imageIndex":4,"items":[{"name":"놀부감자탕","tel":"031-655-7757","addr":"경기도 평택시 비전동 786-1번지","indutype":"일반휴게음식 - 일반한식","category":"restaurant"}]},{"lat":"36.997020899","long":"127.10367243","imageIndex":4,"items":[{"name":"놀이터","tel":"031-652-8520","addr":"경기도 평택시 비전동 816-7번지 1층","indutype":"일반휴게음식 - 서양음식","category":"restaurant"},{"name":"놀이터","tel":"031-656-6333","addr":"경기도 평택시 비전동 816-7번지 1층","indutype":"음식점 - 커피","category":"restaurant"}]},{"lat":"36.999434294","long":"127.09436243","imageIndex":4,"items":[{"name":"놀코치킨비전점","tel":"031-651-5269","addr":"경기도 평택시 비전동 487-33번지 1층","indutype":"일반휴게음식 - 일반한식","category":"restaurant"}]},{"lat":"37.005662932","long":"127.10275132","imageIndex":4,"items":[{"name":"뉴강남푸드","tel":"031-618-1589","addr":"경기도 평택시 비전동 988-2번지 1층","indutype":"일반휴게음식 - 일반한식","category":"restaurant"},{"name":"배달삼겹직구삼 평택점","tel":"031-652-1589","addr":"경기도 평택시 비전동 988-2번지 1층","indutype":"일반휴게음식 - 일반한식","category":"restaurant"}]},{"lat":"36.996858262","long":"127.11425451","imageIndex":4,"items":[{"name":"뉴부메랑","tel":"031-655-1134","addr":"경기도 평택시 비전동 873-1번지","indutype":"일반휴게음식 - 주점","category":"restaurant"},{"name":"라니호프","tel":"031-655-8818","addr":"경기도 평택시 비전동 873-1번지 1층","indutype":"일반휴게음식 - 주점","category":"restaurant"}]},{"lat":"36.992935728","long":"127.11728178","imageIndex":4,"items":[{"name":"뉴잔비어","tel":"031-656-1163","addr":"경기도 평택시 비전동 883-2번지","indutype":"일반휴게음식 - 일반한식","category":"restaurant"},{"name":"떴다김밥.돈가스","tel":"031-655-1924","addr":"경기도 평택시 비전동 883-2번지","indutype":"일반휴게음식 - 스넥","category":"restaurant"},{"name":"떴다김밥돈가스","tel":"031-656-1153","addr":"경기도 평택시 비전동 883-2번지","indutype":"음식점 - 분식","category":"restaurant"}]},{"lat":"36.997769515","long":"127.11299763","imageIndex":4,"items":[{"name":"뉴티아라","tel":"031-657-6919","addr":"경기도 평택시 비전동 866-3번지 1층","indutype":"일반휴게음식 - 주점","category":"restaurant"}]},{"lat":"36.997164414","long":"127.11447963","imageIndex":4,"items":[{"name":"늘푸른바다","tel":"031-654-4934","addr":"경기도 평택시 비전동 870-4번지","indutype":"음식점 - 한식","category":"restaurant"},{"name":"늘푸른바다","tel":"031-655-3725","addr":"경기도 평택시 비전동 870-4번지","indutype":"일반휴게음식 - 일반한식","category":"restaurant"}]},{"lat":"36.996767973","long":"127.09325832","imageIndex":4,"items":[{"name":"다래성","tel":"031-657-1137","addr":"경기도 평택시 비전동 605-10번지 1층","indutype":"일반휴게음식 - 중국식","category":"restaurant"}]},{"lat":"36.992774151","long":"127.11664124","imageIndex":4,"items":[{"name":"다오래우렁쌈밥","tel":"031-658-8409","addr":"경기도 평택시 비전동 886-6번지","indutype":"음식점 - 한식","category":"restaurant"},{"name":"오늘한잔","tel":"02-1577-0000","addr":"경기도 평택시 비전동 886-6번지 1층","indutype":"일반휴게음식 - 일반한식","category":"restaurant"},{"name":"진상갈비","tel":"031-692-0890","addr":"경기도 평택시 비전동 886-6번지","indutype":"일반휴게음식 - 일반한식","category":"restaurant"}]},{"lat":"36.99324815","long":"127.11081185","imageIndex":4,"items":[{"name":"다정수산","tel":"031-651-6607","addr":"경기도 평택시 비전동 835번지 1층","indutype":"일반휴게음식 - 일반한식","category":"restaurant"},{"name":"다정수산","tel":"031-656-9881","addr":"경기도 평택시 비전동 835번지","indutype":"음식점 - 일식","category":"restaurant"}]},{"lat":"37.000353942","long":"127.11475392","imageIndex":4,"items":[{"name":"단","tel":"","addr":"경기도 평택시 비전동 1101번지 102호","indutype":"일반휴게음식 - 일반한식","category":"restaurant"},{"name":"대박숯불닭갈비","tel":"031-657-6121","addr":"경기도 평택시 비전동 1101번지 105호","indutype":"일반휴게음식 - 일반한식","category":"restaurant"},{"name":"문어집","tel":"","addr":"경기도 평택시 비전동 1101번지 104호","indutype":"일반휴게음식 - 일반한식","category":"restaurant"},{"name":"벨라바","tel":"031-1544-1449","addr":"경기도 평택시 비전동 1101번지 203호","indutype":"일반휴게음식 - 주점","category":"restaurant"},{"name":"석쇠꾼 소사벌점","tel":"031-657-1022","addr":"경기도 평택시 비전동 1101번지 굿1101프라자 106호,107호","indutype":"일반휴게음식 - 일반한식","category":"restaurant"},{"name":"소사벌연탄갈비","tel":"031-653-0777","addr":"경기도 평택시 비전동 1101번지 107호","indutype":"음식점 - 한식","category":"restaurant"},{"name":"쇼메이소사벌점","tel":"02-0000-0000","addr":"경기도 평택시 비전동 1101번지 에스엘프라자 101,102,103호","indutype":"일반휴게음식 - 일반한식","category":"restaurant"},{"name":"조니","tel":"031-691-8223","addr":"경기도 평택시 비전동 1101번지 301호","indutype":"일반휴게음식 - 칵테일바","category":"restaurant"},{"name":"카툰공감 평택소사벌점","tel":"031-654-2299","addr":"경기도 평택시 비전동 1101번지 굿1101프라자 3층 302호","indutype":"일반휴게음식 - 일반한식","category":"restaurant"},{"name":"포차어게인소사벌점","tel":"031-657-7773","addr":"경기도 평택시 비전동 1101번지 201,202호","indutype":"일반휴게음식 - 주점","category":"restaurant"}]},{"lat":"36.997328766","long":"127.10188664","imageIndex":4,"items":[{"name":"단골식당","tel":"031-658-3135","addr":"경기도 평택시 비전동 808-8번지 1층","indutype":"일반휴게음식 - 일반한식","category":"restaurant"}]},{"lat":"36.993995426","long":"127.10114091","imageIndex":4,"items":[{"name":"단골식당","tel":"031-656-4936","addr":"경기도 평택시 비전동 751-8번지","indutype":"음식점 - 한식","category":"restaurant"}]},{"lat":"36.996830892","long":"127.11461395","imageIndex":4,"items":[{"name":"단지내","tel":"031-652-2335","addr":"경기도 평택시 비전동 873-4번지","indutype":"일반휴게음식 - 스넥","category":"restaurant"},{"name":"베라체","tel":"","addr":"경기도 평택시 비전동 873-4번지","indutype":"일반휴게음식 - 일반한식","category":"restaurant"}]},{"lat":"36.99274619","long":"127.10786803","imageIndex":4,"items":[{"name":"달공소","tel":"","addr":"경기도 평택시 비전동 217-16번지 1층","indutype":"일반휴게음식 - 서양음식","category":"restaurant"},{"name":"둘마니치킨 비전점","tel":"031-656-5948","addr":"경기도 평택시 비전동 217-16번지 1층","indutype":"음식점 - 치킨","category":"restaurant"}]},{"lat":"37.002493562","long":"127.11033059","imageIndex":4,"items":[{"name":"달달하우스","tel":"070-8944-5020","addr":"경기도 평택시 비전동 1042-1번지","indutype":"음식점 - 휴게음식","category":"restaurant"}]},{"lat":"37.005159795","long":"127.10099799","imageIndex":4,"items":[{"name":"달보드레","tel":"031-658-5751","addr":"경기도 평택시 비전동 985-7번지 1층","indutype":"일반휴게음식 - 주점","category":"restaurant"},{"name":"달보드레","tel":"031-654-6108","addr":"경기도 평택시 비전동 985-7번지","indutype":"음식점 - 한식","category":"restaurant"}]},{"lat":"37.002192722","long":"127.11411624","imageIndex":4,"items":[{"name":"달빛상회","tel":"031-000-0000","addr":"경기도 평택시 비전동 1095번지 로얄프라자 1층 118호","indutype":"일반휴게음식 - 일반한식","category":"restaurant"},{"name":"대게나라 평택점","tel":"031-658-1115","addr":"경기도 평택시 비전동 1095번지 로얄프라자 201~204호","indutype":"일반휴게음식 - 일반한식","category":"restaurant"},{"name":"더웨스트펍","tel":"031-657-7868","addr":"경기도 평택시 비전동 1095번지 로얄프라자 207호, 208호","indutype":"일반휴게음식 - 서양음식","category":"restaurant"},{"name":"메콩타이 평택소사벌점","tel":"031-616-2336","addr":"경기도 평택시 비전동 1095번지 로얄프라자 301,302,303호","indutype":"일반휴게음식 - 일반한식","category":"restaurant"},{"name":"메콩타이 평택소사벌점(배민)","tel":"031-618-2336","addr":"경기도 평택시 비전동 1095번지 로얄프라자 301동 303호","indutype":"일반휴게음식 - 일반한식","category":"restaurant"},{"name":"모던통닭 평택소사벌점","tel":"031-658-0077","addr":"경기도 평택시 비전동 1095번지 로얄프라자 116,117호","indutype":"일반휴게음식 - 스넥","category":"restaurant"},{"name":"성경만두요리전문점 평택점","tel":"031-656-5022","addr":"경기도 평택시 비전동 1095번지 로얄프라자 304호","indutype":"일반휴게음식 - 일반한식","category":"restaurant"},{"name":"소프레소","tel":"031-656-7395","addr":"경기도 평택시 비전동 1095번지 로얄프라자 113호","indutype":"음식점 - 커피","category":"restaurant"},{"name":"소프레소(소사벌점)","tel":"031-691-2112","addr":"경기도 평택시 비전동 1095번지 로얄프라자 1동 1층 113호","indutype":"일반휴게음식 - 서양음식","category":"restaurant"},{"name":"파파1215(PAPA1215)","tel":"031-651-1215","addr":"경기도 평택시 비전동 1095번지 로얄프라자 207,208호","indutype":"일반휴게음식 - 일반한식","category":"restaurant"},{"name":"화통삼","tel":"031-618-1213","addr":"경기도 평택시 비전동 1095번지 로얄프라자 110호","indutype":"음식점 - 한식","category":"restaurant"},{"name":"화통삼(소사벌점)","tel":"031-618-9262","addr":"경기도 평택시 비전동 1095번지 로얄프라자 1층","indutype":"일반휴게음식 - 일반한식","category":"restaurant"}]},{"lat":"37.002493684","long":"127.11019577","imageIndex":4,"items":[{"name":"달자매","tel":"","addr":"경기도 평택시 비전동 1042번지 센트럴하우스빌 1층","indutype":"음식점 - 디저트","category":"restaurant"},{"name":"달자매","tel":"070-8944-5010","addr":"경기도 평택시 비전동 1042번지 센트럴하우스빌 1층","indutype":"일반휴게음식 - 서양음식","category":"restaurant"}]},{"lat":"37.004469363","long":"127.09680645","imageIndex":4,"items":[{"name":"달콤정류장","tel":"031-651-1617","addr":"경기도 평택시 비전동 1004번지 가상각동 1층 103호","indutype":"음식점 - 카페","category":"restaurant"}]},{"lat":"36.992329058","long":"127.10039738","imageIndex":4,"items":[{"name":"달콤한 찹쌀꽈베기","tel":"070-8224-7014","addr":"경기도 평택시 비전동 760-7번지 1층","indutype":"일반휴게음식 - 스넥","category":"restaurant"}]},{"lat":"36.998492384","long":"127.08872178","imageIndex":4,"items":[{"name":"대구왕뽈찜 코다리회냉면","tel":"02-0000-0000","addr":"경기도 평택시 비전동 468번지 1층","indutype":"일반휴게음식 - 일반한식","category":"restaurant"},{"name":"도토리묵밥","tel":"031-618-9227","addr":"경기도 평택시 비전동 468번지","indutype":"음식점 - 한식","category":"restaurant"}]},{"lat":"36.997218826","long":"127.11410899","imageIndex":4,"items":[{"name":"대덕골보쌈.칼국수","tel":"031-665-3030","addr":"경기도 평택시 비전동 870-1번지 1층","indutype":"일반휴게음식 - 일반한식","category":"restaurant"},{"name":"시즌","tel":"031-655-2483","addr":"경기도 평택시 비전동 870-1번지","indutype":"일반휴게음식 - 주점","category":"restaurant"}]},{"lat":"37.002158536","long":"127.09036616","imageIndex":4,"items":[{"name":"대명감자탕","tel":"031-655-5141","addr":"경기도 평택시 비전동 778번지","indutype":"일반휴게음식 - 일반한식","category":"restaurant"}]},{"lat":"36.993247566","long":"127.11145215","imageIndex":4,"items":[{"name":"대박순대국","tel":"031-655-7796","addr":"경기도 평택시 비전동 835-8번지","indutype":"음식점 - 한식","category":"restaurant"},{"name":"대박순대국","tel":"031-653-7736","addr":"경기도 평택시 비전동 835-8번지","indutype":"일반휴게음식 - 일반한식","category":"restaurant"},{"name":"리더스뮤직스토리","tel":"031-691-6599","addr":"경기도 평택시 비전동 835-8번지","indutype":"일반휴게음식 - 일반한식","category":"restaurant"}]},{"lat":"37.002133379","long":"127.11006045","imageIndex":4,"items":[{"name":"대장군","tel":"031-653-5245","addr":"경기도 평택시 비전동 1048번지","indutype":"일반휴게음식 - 일반한식","category":"restaurant"}]},{"lat":"36.998632637","long":"127.09397951","imageIndex":4,"items":[{"name":"대중김밥","tel":"","addr":"경기도 평택시 비전동 462-3번지 102호","indutype":"음식점 - 일반","category":"restaurant"},{"name":"대중김밥","tel":"031-654-2003","addr":"경기도 평택시 비전동 462-3번지 102호","indutype":"일반휴게음식 - 일반한식","category":"restaurant"},{"name":"자란골감자탕","tel":"031-657-1866","addr":"경기도 평택시 비전동 462-3번지","indutype":"일반휴게음식 - 일반한식","category":"restaurant"}]},{"lat":"36.99471258","long":"127.09450281","imageIndex":4,"items":[{"name":"더 기타","tel":"031-651-8160","addr":"경기도 평택시 비전동 613-5번지 1층","indutype":"일반휴게음식 - 서양음식","category":"restaurant"}]},{"lat":"37.002381535","long":"127.11455466","imageIndex":4,"items":[{"name":"더리터 소사벌지구점","tel":"031-652-7321","addr":"경기도 평택시 비전동 1096번지 108호","indutype":"일반휴게음식 - 서양음식","category":"restaurant"},{"name":"땅땅치킨 소사벌점","tel":"031-652-9295","addr":"경기도 평택시 비전동 1096번지 강일빌딩 118호","indutype":"일반휴게음식 - 스넥","category":"restaurant"},{"name":"주식회사 인기명평택소사벌점","tel":"031-652-1952","addr":"경기도 평택시 비전동 1096번지 강인빌딩 111,112,113호","indutype":"일반휴게음식 - 일반한식","category":"restaurant"},{"name":"해천죽전문점","tel":"","addr":"경기도 평택시 비전동 1096번지 117호","indutype":"음식점 - 죽","category":"restaurant"},{"name":"해천죽전문점","tel":"031-656-3339","addr":"경기도 평택시 비전동 1096번지 강일빌딩 117호","indutype":"일반휴게음식 - 일반한식","category":"restaurant"},{"name":"히루커피","tel":"070-4354-8910","addr":"경기도 평택시 비전동 1096번지 116호","indutype":"일반휴게음식 - 서양음식","category":"restaurant"},{"name":"히루커피","tel":"","addr":"경기도 평택시 비전동 1096번지 116호","indutype":"음식점 - 커피","category":"restaurant"}]},{"lat":"36.995495629","long":"127.09563835","imageIndex":4,"items":[{"name":"더발코니","tel":"031-692-3127","addr":"경기도 평택시 비전동 736-1번지","indutype":"일반휴게음식 - 서양음식","category":"restaurant"},{"name":"카페더발코니","tel":"031-656-6461","addr":"경기도 평택시 비전동 736-1번지","indutype":"음식점 - 커피","category":"restaurant"}]},{"lat":"36.999103584","long":"127.11247155","imageIndex":4,"items":[{"name":"더웨이 센트럴돔점","tel":"","addr":"경기도 평택시 비전동 1104번지 2층 2092호","indutype":"일반휴게음식 - 서양음식","category":"restaurant"},{"name":"디 오아시스(THE OASIS)","tel":"02-1577-0000","addr":"경기도 평택시 비전동 1104번지 2층 2071호","indutype":"일반휴게음식 - 서양음식","category":"restaurant"},{"name":"록시드갸토(평택센트럴점)","tel":"","addr":"경기도 평택시 비전동 1104번지 2층 센트럴돔 2014호","indutype":"일반휴게음식 - 서양음식","category":"restaurant"},{"name":"비엔나커피하우스 평택센트럴돔점","tel":"070-4656-1683","addr":"경기도 평택시 비전동 1104번지 1044호","indutype":"일반휴게음식 - 서양음식","category":"restaurant"},{"name":"카페86","tel":"031-000-0000","addr":"경기도 평택시 비전동 1104번지 2043호","indutype":"일반휴게음식 - 서양음식","category":"restaurant"},{"name":"카페눈","tel":"031-653-0060","addr":"경기도 평택시 비전동 1104번지 2층 2066호","indutype":"음식점 - 카페","category":"restaurant"},{"name":"카페눈","tel":"031-630-2828","addr":"경기도 평택시 비전동 1104번지 2층 2066호","indutype":"일반휴게음식 - 서양음식","category":"restaurant"},{"name":"카페홉슈크림","tel":"","addr":"경기도 평택시 비전동 1104번지 평택가로수길센트럴동 2층 2016호","indutype":"음식점 - 카페","category":"restaurant"},{"name":"카페홉슈크림","tel":"","addr":"경기도 평택시 비전동 1104번지 2층 2016호","indutype":"일반휴게음식 - 서양음식","category":"restaurant"},{"name":"향원훠궈 샤브샤브","tel":"031-630-2678","addr":"경기도 평택시 비전동 1104번지 2026-2027호","indutype":"일반휴게음식 - 중국식","category":"restaurant"}]},{"lat":"36.991080288","long":"127.10664134","imageIndex":4,"items":[{"name":"더줌","tel":"031-656-0414","addr":"경기도 평택시 비전동 764-7번지","indutype":"일반휴게음식 - 일반한식","category":"restaurant"}]},{"lat":"37.002245722","long":"127.10528588","imageIndex":4,"items":[{"name":"더테이블","tel":"031-681-4999","addr":"경기도 평택시 비전동 1070-3번지 골든프라자5차 204호","indutype":"일반휴게음식 - 일반한식","category":"restaurant"},{"name":"뽕뜨락피자(비전점)","tel":"031-654-7440","addr":"경기도 평택시 비전동 1070-3번지 106호","indutype":"음식점 - 피자","category":"restaurant"},{"name":"뽕뜨락피자(비전점)","tel":"031-654-6992","addr":"경기도 평택시 비전동 1070-3번지 106호","indutype":"일반휴게음식 - 서양음식","category":"restaurant"},{"name":"신참떡볶이","tel":"031-657-7577","addr":"경기도 평택시 비전동 1070-3번지 1층 107호","indutype":"일반휴게음식 - 스넥","category":"restaurant"},{"name":"지지고 평택소사벌점","tel":"031-654-9225","addr":"경기도 평택시 비전동 1070-3번지 105호","indutype":"일반휴게음식 - 일반한식","category":"restaurant"},{"name":"치르치르","tel":"031-658-7567","addr":"경기도 평택시 비전동 1070-3번지 102호 103","indutype":"일반휴게음식 - 스넥","category":"restaurant"}]},{"lat":"37.004852292","long":"127.10236827","imageIndex":4,"items":[{"name":"데이오프커피","tel":"031-978-3330","addr":"경기도 평택시 비전동 992-1번지 101호","indutype":"일반휴게음식 - 서양음식","category":"restaurant"}]},{"lat":"37.003663475","long":"127.11195005","imageIndex":4,"items":[{"name":"델템포","tel":"031-656-9355","addr":"경기도 평택시 비전동 1054-3번지 1층","indutype":"일반휴게음식 - 서양음식","category":"restaurant"}]},{"lat":"37.002825513","long":"127.11191515","imageIndex":4,"items":[{"name":"도니가웃소","tel":"031-656-1386","addr":"경기도 평택시 비전동 1052-3번지","indutype":"음식점 - 한식","category":"restaurant"},{"name":"도니가웃소","tel":"070-8807-1179","addr":"경기도 평택시 비전동 1052-3번지","indutype":"일반휴게음식 - 일반한식","category":"restaurant"}]},{"lat":"37.003020766","long":"127.10514087","imageIndex":4,"items":[{"name":"도로시 명품찹쌀꽈배기","tel":"","addr":"경기도 평택시 비전동 1027번지 103호","indutype":"일반휴게음식 - 서양음식","category":"restaurant"},{"name":"도로시명품찹쌀꽈배기","tel":"031-653-5288","addr":"경기도 평택시 비전동 1027번지 103호","indutype":"음식점 - 핫도그","category":"restaurant"},{"name":"마리웨일237 평택소사벌점","tel":"031-657-1513","addr":"경기도 평택시 비전동 1027번지 A동 106호","indutype":"음식점 - 커피","category":"restaurant"},{"name":"마리웨일237평택소사벌점","tel":"031-657-4274","addr":"경기도 평택시 비전동 1027번지 A동 106호","indutype":"일반휴게음식 - 서양음식","category":"restaurant"},{"name":"백채평택비전점","tel":"","addr":"경기도 평택시 비전동 1027번지 A동 101호102호","indutype":"일반휴게음식 - 일반한식","category":"restaurant"}]},{"lat":"36.995608151","long":"127.11169141","imageIndex":4,"items":[{"name":"돈뼈랑감자탕비전점","tel":"031-691-6688","addr":"경기도 평택시 비전동 829-6번지","indutype":"일반휴게음식 - 일반한식","category":"restaurant"},{"name":"비전","tel":"031-691-4931","addr":"경기도 평택시 비전동 829-6번지","indutype":"일반휴게음식 - 일반한식","category":"restaurant"}]},{"lat":"36.991637067","long":"127.10877638","imageIndex":4,"items":[{"name":"돈사랑","tel":"031-691-9292","addr":"경기도 평택시 비전동 205-20번지","indutype":"음식점 - 한식","category":"restaurant"},{"name":"돈사랑","tel":"031-651-6600","addr":"경기도 평택시 비전동 205-20번지","indutype":"일반휴게음식 - 일반한식","category":"restaurant"}]},{"lat":"36.998795875","long":"127.11392031","imageIndex":4,"items":[{"name":"돔베초밥 평택소사벌점","tel":"031-618-8867","addr":"경기도 평택시 비전동 1103-1번지 더테라스 209~211호","indutype":"일반휴게음식 - 일식·회집","category":"restaurant"},{"name":"뜨억분짜 평택점","tel":"031-000-0000","addr":"경기도 평택시 비전동 1103-1번지 로데오1103 더테라스 2층 213호","indutype":"일반휴게음식 - 서양음식","category":"restaurant"},{"name":"방배김밥라이스쉐프","tel":"031-653-4101","addr":"경기도 평택시 비전동 1103-1번지 127호","indutype":"일반휴게음식 - 스넥","category":"restaurant"},{"name":"여기 화덕","tel":"02-1111-1111","addr":"경기도 평택시 비전동 1103-1번지 1동 2층 212호","indutype":"일반휴게음식 - 일반한식","category":"restaurant"},{"name":"유가네닭갈비평택소사벌점","tel":"031-654-9980","addr":"경기도 평택시 비전동 1103-1번지 215호","indutype":"일반휴게음식 - 일반한식","category":"restaurant"},{"name":"팔공티(PALGONG TEA)","tel":"","addr":"경기도 평택시 비전동 1103-1번지 1동 126호","indutype":"일반휴게음식 - 서양음식","category":"restaurant"}]},{"lat":"36.995660335","long":"127.11372478","imageIndex":4,"items":[{"name":"동성슈퍼","tel":"031-651-3534","addr":"경기도 평택시 비전동 877번지 동성한아름","indutype":"일반휴게음식 - 칵테일바","category":"restaurant"},{"name":"청궁식당","tel":"031-652-7881","addr":"경기도 평택시 비전동 877번지 동성한아름 상가 지하층 1호","indutype":"일반휴게음식 - 중국식","category":"restaurant"}]},{"lat":"36.995018882","long":"127.09458181","imageIndex":4,"items":[{"name":"동일한분식","tel":"031-654-6806","addr":"경기도 평택시 비전동 613-7번지","indutype":"일반휴게음식 - 스넥","category":"restaurant"}]},{"lat":"36.992772235","long":"127.09836473","imageIndex":4,"items":[{"name":"동해장","tel":"031-651-2353","addr":"경기도 평택시 비전동 747-20번지","indutype":"일반휴게음식 - 중국식","category":"restaurant"}]},{"lat":"37.002247902","long":"127.09136615","imageIndex":4,"items":[{"name":"돼지예찬","tel":"031-658-7678","addr":"경기도 평택시 비전동 777-5번지","indutype":"일반휴게음식 - 일반한식","category":"restaurant"}]},{"lat":"36.997525494","long":"127.11378366","imageIndex":4,"items":[{"name":"돼지왕자김치공주","tel":"031-658-4817","addr":"경기도 평택시 비전동 868-8번지","indutype":"일반휴게음식 - 일반한식","category":"restaurant"},{"name":"비어사케","tel":"","addr":"경기도 평택시 비전동 868-8번지","indutype":"일반휴게음식 - 주점","category":"restaurant"}]},{"lat":"37.002302217","long":"127.09102917","imageIndex":4,"items":[{"name":"두레면옥","tel":"","addr":"경기도 평택시 비전동 777-3번지","indutype":"음식점 - 한식","category":"restaurant"}]},{"lat":"36.99421813","long":"127.11425066","imageIndex":4,"items":[{"name":"두리감자탕","tel":"031-655-6526","addr":"경기도 평택시 비전동 878-2번지","indutype":"일반휴게음식 - 일반한식","category":"restaurant"}]},{"lat":"36.99657794","long":"127.09431407","imageIndex":4,"items":[{"name":"두번째나무","tel":"","addr":"경기도 평택시 비전동 604-4번지 1층","indutype":"일반휴게음식 - 서양음식","category":"restaurant"}]},{"lat":"36.993356054","long":"127.11105913","imageIndex":4,"items":[{"name":"두찜비전점","tel":"","addr":"경기도 평택시 비전동 835-2번지 1층","indutype":"일반휴게음식 - 일반한식","category":"restaurant"},{"name":"태성닭발","tel":"","addr":"경기도 평택시 비전동 835-2번지","indutype":"음식점 - 한식","category":"restaurant"}]},{"lat":"36.992800254","long":"127.1078681","imageIndex":4,"items":[{"name":"둘마니치킨튀족비전점","tel":"031-000-0000","addr":"경기도 평택시 비전동 209-33번지 1층 우측상가","indutype":"일반휴게음식 - 스넥","category":"restaurant"}]},{"lat":"37.002774436","long":"127.10861207","imageIndex":4,"items":[{"name":"드레스카페","tel":"031-652-6367","addr":"경기도 평택시 비전동 1039번지 1층","indutype":"일반휴게음식 - 서양음식","category":"restaurant"},{"name":"어드레스카페","tel":"","addr":"경기도 평택시 비전동 1039번지","indutype":"음식점 - 커피","category":"restaurant"}]},{"lat":"36.993302112","long":"127.11092426","imageIndex":4,"items":[{"name":"등대참치","tel":"031-618-7688","addr":"경기도 평택시 비전동 835-1번지","indutype":"일반휴게음식 - 일반한식","category":"restaurant"},{"name":"혜성참치","tel":"031-657-4646","addr":"경기도 평택시 비전동 835-1번지","indutype":"음식점 - 일식","category":"restaurant"}]},{"lat":"37.002078714","long":"127.11072321","imageIndex":4,"items":[{"name":"디센트","tel":"","addr":"경기도 평택시 비전동 1048-5번지","indutype":"음식점 - 커피","category":"restaurant"},{"name":"디센트","tel":"031-2884-0627","addr":"경기도 평택시 비전동 1048-5번지 1층","indutype":"일반휴게음식 - 서양음식","category":"restaurant"}]},{"lat":"37.005275567","long":"127.10263846","imageIndex":4,"items":[{"name":"디플러스","tel":"031-682-7770","addr":"경기도 평택시 비전동 993-7번지 1층","indutype":"일반휴게음식 - 일반한식","category":"restaurant"}]},{"lat":"36.996742855","long":"127.10214426","imageIndex":4,"items":[{"name":"딜리 홈","tel":"070-4221-4343","addr":"경기도 평택시 비전동 811번지 1층 101호","indutype":"일반휴게음식 - 일반한식","category":"restaurant"}]},{"lat":"37.002130394","long":"127.09186034","imageIndex":4,"items":[{"name":"딜리버리킹(Delivery king)","tel":"031-618-7111","addr":"경기도 평택시 비전동 783-1번지 1층","indutype":"일반휴게음식 - 일반한식","category":"restaurant"}]},{"lat":"37.001823735","long":"127.09225319","imageIndex":4,"items":[{"name":"딜리버리킹평택점","tel":"","addr":"경기도 평택시 비전동 782-1번지 1층","indutype":"일반휴게음식 - 일반한식","category":"restaurant"}]},{"lat":"36.994051732","long":"127.1090044","imageIndex":4,"items":[{"name":"따따정","tel":"","addr":"경기도 평택시 비전동 210-19번지 1층","indutype":"일반휴게음식 - 서양음식","category":"restaurant"},{"name":"따따정","tel":"031-658-4944","addr":"경기도 평택시 비전동 210-19번지 1층","indutype":"음식점 - 디저트","category":"restaurant"}]},{"lat":"36.995411357","long":"127.0878421","imageIndex":4,"items":[{"name":"땡집","tel":"02-1111-1111","addr":"경기도 평택시 비전동 633-6번지 1층","indutype":"일반휴게음식 - 일반한식","category":"restaurant"}]},{"lat":"37.001968344","long":"127.09166916","imageIndex":4,"items":[{"name":"땡큐호","tel":"","addr":"경기도 평택시 비전동 781번지 101호","indutype":"일반휴게음식 - 일식·회집","category":"restaurant"},{"name":"풍각쟁이Mr'K","tel":"070-4001-9359","addr":"경기도 평택시 비전동 781번지","indutype":"일반휴게음식 - 일반한식","category":"restaurant"}]},{"lat":"36.991632457","long":"127.10372148","imageIndex":4,"items":[{"name":"떡군이네 떡볶이 평택점","tel":"031-655-0110","addr":"경기도 평택시 비전동 762-12번지 1층","indutype":"일반휴게음식 - 스넥","category":"restaurant"}]},{"lat":"36.993775684","long":"127.09422085","imageIndex":4,"items":[{"name":"또래오래치킨비전점","tel":"031-654-7773","addr":"경기도 평택시 비전동 617-1번지 부원맨션 502호","indutype":"일반휴게음식 - 스넥","category":"restaurant"},{"name":"피자스쿨","tel":"031-618-7222","addr":"경기도 평택시 비전동 617-1","indutype":"일반휴게음식 - 서양음식","category":"restaurant"},{"name":"피자스쿨 평택비전점","tel":"031-656-8799","addr":"경기도 평택시 비전동 617-1번지 부원맨션","indutype":"음식점 - 피자","category":"restaurant"}]},{"lat":"37.006024215","long":"127.10172939","imageIndex":4,"items":[{"name":"또로롱","tel":"","addr":"경기도 평택시 비전동 983-2번지 101호","indutype":"일반휴게음식 - 서양음식","category":"restaurant"}]},{"lat":"37.000241953","long":"127.09855381","imageIndex":4,"items":[{"name":"또와분식","tel":"031-656-0982","addr":"경기도 평택시 비전동 800번지 한성아파트","indutype":"음식점 - 분식","category":"restaurant"},{"name":"박군치킨본점","tel":"031-656-3853","addr":"경기도 평택시 비전동 800번지 한성아파트 106호","indutype":"음식점 - 치킨","category":"restaurant"}]},{"lat":"36.996327076","long":"127.10367151","imageIndex":4,"items":[{"name":"뚱순이네","tel":"031-686-7942","addr":"경기도 평택시 비전동 817-6번지","indutype":"일반휴게음식 - 일반한식","category":"restaurant"}]},{"lat":"36.991441309","long":"127.11586417","imageIndex":4,"items":[{"name":"라비츠커피","tel":"031-692-9076","addr":"경기도 평택시 비전동 887번지 상가동 105호","indutype":"일반휴게음식 - 서양음식","category":"restaurant"}]},{"lat":"37.001994684","long":"127.09259043","imageIndex":4,"items":[{"name":"러브레터치킨.피자 비전점","tel":"031-657-0566","addr":"경기도 평택시 비전동 783-6번지 1층","indutype":"일반휴게음식 - 스넥","category":"restaurant"},{"name":"푸드월드","tel":"031-654-0989","addr":"경기도 평택시 비전동 783-6번지 1층","indutype":"일반휴게음식 - 일반한식","category":"restaurant"}]},{"lat":"36.995824253","long":"127.11186022","imageIndex":4,"items":[{"name":"레드레스토랑","tel":"031-657-7739","addr":"경기도 평택시 비전동 829-4번지","indutype":"일반휴게음식 - 서양음식","category":"restaurant"},{"name":"압구정김밥","tel":"031-653-7736","addr":"경기도 평택시 비전동 829-4번지","indutype":"음식점 - 한식","category":"restaurant"}]},{"lat":"36.999325832","long":"127.11569609","imageIndex":4,"items":[{"name":"레전드푸드","tel":"","addr":"경기도 평택시 비전동 1102-1번지 504호 일부","indutype":"일반휴게음식 - 일반한식","category":"restaurant"},{"name":"쪽찌소사벌점","tel":"031-654-7677","addr":"경기도 평택시 비전동 1102-1번지 112,113호","indutype":"일반휴게음식 - 일반한식","category":"restaurant"}]},{"lat":"37.002381673","long":"127.10436482","imageIndex":4,"items":[{"name":"로라방앗간","tel":"031-651-0059","addr":"경기도 평택시 비전동 1027-4번지 105호","indutype":"일반휴게음식 - 스넥","category":"restaurant"},{"name":"로라방앗간","tel":"031-652-6486","addr":"경기도 평택시 비전동 1027-4번지 105호","indutype":"음식점 - 분식","category":"restaurant"},{"name":"앤(ANNE)김밥","tel":"031-651-4333","addr":"경기도 평택시 비전동 1027-4번지 남현빌딩 108호","indutype":"일반휴게음식 - 스넥","category":"restaurant"}]},{"lat":"37.000353677","long":"127.11503478","imageIndex":4,"items":[{"name":"로이403","tel":"031-654-4033","addr":"경기도 평택시 비전동 1101-1번지 제이앤제이아트컨벤션 1층 102호","indutype":"일반휴게음식 - 서양음식","category":"restaurant"},{"name":"세븐브로이펍 평택소사벌점","tel":"031-654-2491","addr":"경기도 평택시 비전동 1101-1번지 1층","indutype":"일반휴게음식 - 주점","category":"restaurant"}]},{"lat":"37.005384783","long":"127.10133533","imageIndex":4,"items":[{"name":"로즈힙케이크","tel":"","addr":"경기도 평택시 비전동 986-6번지 1층","indutype":"일반휴게음식 - 서양음식","category":"restaurant"}]},{"lat":"37.004274509","long":"127.10367077","imageIndex":4,"items":[{"name":"롯데리아(비전점)","tel":"031-657-1303","addr":"경기도 평택시 비전동 1012번지 제이타워 1층 103호","indutype":"일반휴게음식 - 서양음식","category":"restaurant"},{"name":"바우네나주곰탕평택본점","tel":"031-616-8229","addr":"경기도 평택시 비전동 1012번지","indutype":"음식점 - 한식","category":"restaurant"},{"name":"바우네나주곰탕평택본점","tel":"031-657-7227","addr":"경기도 평택시 비전동 1012번지 제이타워 1층 104호","indutype":"일반휴게음식 - 일반한식","category":"restaurant"}]},{"lat":"37.002580759","long":"127.11349889","imageIndex":4,"items":[{"name":"루트커피","tel":"070-7757-2488","addr":"경기도 평택시 비전동 1062번지 1층","indutype":"일반휴게음식 - 서양음식","category":"restaurant"},{"name":"루트커피","tel":"031-655-3779","addr":"경기도 평택시 비전동 1062번지 1층","indutype":"음식점 - 카페","category":"restaurant"}]},{"lat":"37.001104977","long":"127.11136221","imageIndex":4,"items":[{"name":"리골레토시카고피자(소사점)","tel":"031-691-6533","addr":"경기도 평택시 비전동 1067-4번지","indutype":"일반휴게음식 - 서양음식","category":"restaurant"}]},{"lat":"37.00596142","long":"127.10139225","imageIndex":4,"items":[{"name":"리얼하노이","tel":"031-111-1111","addr":"경기도 평택시 비전동 983-5번지 1층","indutype":"일반휴게음식 - 일반한식","category":"restaurant"},{"name":"해두리치킨 비전점","tel":"031-663-0447","addr":"경기도 평택시 비전동 983-5번지","indutype":"일반휴게음식 - 스넥","category":"restaurant"}]},{"lat":"36.9917199","long":"127.1068107","imageIndex":4,"items":[{"name":"릴리","tel":"","addr":"경기도 평택시 비전동 766-1번지 1층","indutype":"일반휴게음식 - 서양음식","category":"restaurant"},{"name":"릴리","tel":"031-658-2688","addr":"경기도 평택시 비전동 766-1번지","indutype":"음식점 - 카페","category":"restaurant"}]},{"lat":"36.995661978","long":"127.11194986","imageIndex":4,"items":[{"name":"림스치킨","tel":"031-657-7942","addr":"경기도 평택시 비전동 829-5번지","indutype":"일반휴게음식 - 주점","category":"restaurant"},{"name":"바다양푼이동태탕찜","tel":"031-656-3911","addr":"경기도 평택시 비전동 829-5번지","indutype":"음식점 - 한식","category":"restaurant"},{"name":"바다양푼이동태탕찜(비전점)","tel":"031-653-1424","addr":"경기도 평택시 비전동 829-5번지","indutype":"일반휴게음식 - 일반한식","category":"restaurant"},{"name":"커피에반하다","tel":"","addr":"경기도 평택시 비전동 829-5번지","indutype":"일반휴게음식 - 서양음식","category":"restaurant"}]},{"lat":"36.99399194","long":"127.09422111","imageIndex":4,"items":[{"name":"마녀떡볶이","tel":"031-654-8548","addr":"경기도 평택시 비전동 615-4번지","indutype":"일반휴게음식 - 스넥","category":"restaurant"}]},{"lat":"36.996912956","long":"127.11358056","imageIndex":4,"items":[{"name":"마실","tel":"031-657-0002","addr":"경기도 평택시 비전동 871-8번지","indutype":"일반휴게음식 - 서양음식","category":"restaurant"},{"name":"마실커피숍","tel":"031-653-4183","addr":"경기도 평택시 비전동 871-8번지 1층","indutype":"음식점 - 카페","category":"restaurant"}]},{"lat":"36.997020686","long":"127.1140076","imageIndex":4,"items":[{"name":"마이라이프소풍","tel":"031-654-6478","addr":"경기도 평택시 비전동 870-7번지 1층","indutype":"일반휴게음식 - 일반한식","category":"restaurant"}]},{"lat":"36.996495183","long":"127.10725532","imageIndex":4,"items":[{"name":"막걸리엔전","tel":"031-618-3354","addr":"경기도 평택시 비전동 825-2번지","indutype":"일반휴게음식 - 일반한식","category":"restaurant"},{"name":"시그널피자평택점","tel":"031-652-1989","addr":"경기도 평택시 비전동 825-2번지 101호","indutype":"음식점 - 피자","category":"restaurant"},{"name":"시그널피자평택점","tel":"031-656-9998","addr":"경기도 평택시 비전동 825-2번지 101호","indutype":"일반휴게음식 - 서양음식","category":"restaurant"},{"name":"청춘국물닭발","tel":"","addr":"경기도 평택시 비전동 825-2번지","indutype":"일반휴게음식 - 일반한식","category":"restaurant"},{"name":"치요남 비전점","tel":"031-651-2829","addr":"경기도 평택시 비전동 825-2번지 1층 102호","indutype":"일반휴게음식 - 스넥","category":"restaurant"}]},{"lat":"36.997463553","long":"127.09092248","imageIndex":4,"items":[{"name":"만나식당","tel":"","addr":"경기도 평택시 비전동 585번지 1층","indutype":"일반휴게음식 - 서양음식","category":"restaurant"}]},{"lat":"36.99663636","long":"127.08847255","imageIndex":4,"items":[{"name":"만남식당","tel":"031-652-3974","addr":"경기도 평택시 비전동 629-4번지","indutype":"일반휴게음식 - 일반한식","category":"restaurant"}]},{"lat":"37.000545904","long":"127.11181079","imageIndex":4,"items":[{"name":"만두와모밀","tel":"031-111-1111","addr":"경기도 평택시 비전동 1090-3번지 메가타워 101호","indutype":"일반휴게음식 - 일반한식","category":"restaurant"},{"name":"봉봉키즈 평택점","tel":"031-655-5684","addr":"경기도 평택시 비전동 1090-3번지 메가타워 402호","indutype":"일반휴게음식 - 서양음식","category":"restaurant"},{"name":"엄마의 돈까스","tel":"031-652-3898","addr":"경기도 평택시 비전동 1090-3번지 메가타워 304호","indutype":"음식점 - 양식","category":"restaurant"},{"name":"엄마의돈까스","tel":"031-652-6524","addr":"경기도 평택시 비전동 1090-3번지 메가타워 3층 304호","indutype":"일반휴게음식 - 서양음식","category":"restaurant"},{"name":"이디야커피 (비전점)","tel":"031-618-0770","addr":"경기도 평택시 비전동 1090-3번지 메가타워 106호","indutype":"일반휴게음식 - 서양음식","category":"restaurant"},{"name":"화우","tel":"031-655-2929","addr":"경기도 평택시 비전동 1090-3번지 메가타워 107,108호","indutype":"일반휴게음식 - 일반한식","category":"restaurant"}]},{"lat":"36.994714265","long":"127.11366724","imageIndex":4,"items":[{"name":"맘스터치 비전점","tel":"031-651-0089","addr":"경기도 평택시 비전동 877-4번지 1층","indutype":"일반휴게음식 - 서양음식","category":"restaurant"}]},{"lat":"36.994414818","long":"127.09503043","imageIndex":4,"items":[{"name":"맛분식","tel":"031-652-1199","addr":"경기도 평택시 비전동 733번지","indutype":"음식점 - 분식","category":"restaurant"}]},{"lat":"36.99146969","long":"127.10439525","imageIndex":4,"items":[{"name":"맛있는분식","tel":"031-657-2333","addr":"경기도 평택시 비전동 763-9번지","indutype":"일반휴게음식 - 스넥","category":"restaurant"}]},{"lat":"36.992770338","long":"127.11108077","imageIndex":4,"items":[{"name":"맛촌장","tel":"031-658-5455","addr":"경기도 평택시 비전동 143-23번지 1층","indutype":"일반휴게음식 - 일반한식","category":"restaurant"},{"name":"맛촌장","tel":"031-651-0305","addr":"경기도 평택시 비전동 143-23번지","indutype":"음식점 - 한식","category":"restaurant"}]},{"lat":"36.997102097","long":"127.1136707","imageIndex":4,"items":[{"name":"메종드크렘","tel":"070-8659-9518","addr":"경기도 평택시 비전동 871-6번지 상가 1층","indutype":"일반휴게음식 - 서양음식","category":"restaurant"}]},{"lat":"36.999551727","long":"127.09398061","imageIndex":4,"items":[{"name":"멕시카나 비전1점","tel":"031-654-9994","addr":"경기도 평택시 비전동 790-4번지","indutype":"일반휴게음식 - 스넥","category":"restaurant"},{"name":"열혈분식 평택점","tel":"031-657-5773","addr":"경기도 평택시 비전동 790-4번지","indutype":"일반휴게음식 - 스넥","category":"restaurant"},{"name":"와이블랙 비전2점","tel":"070-7543-0260","addr":"경기도 평택시 비전동 790-4번지 1층","indutype":"일반휴게음식 - 서양음식","category":"restaurant"}]},{"lat":"37.005240519","long":"127.10144749","imageIndex":4,"items":[{"name":"멕시카나 평택중앙점","tel":"","addr":"경기도 평택시 비전동 986-3번지","indutype":"일반휴게음식 - 스넥","category":"restaurant"}]},{"lat":"37.004690316","long":"127.10210965","imageIndex":4,"items":[{"name":"멜로우","tel":"070-4201-8116","addr":"경기도 평택시 비전동 992-3번지","indutype":"음식점 - 커피","category":"restaurant"},{"name":"멜로우","tel":"031-654-5348","addr":"경기도 평택시 비전동 992-3번지","indutype":"일반휴게음식 - 서양음식","category":"restaurant"}]},{"lat":"36.994193288","long":"127.1118916","imageIndex":4,"items":[{"name":"명륜진사갈비 비전점","tel":"031-655-6420","addr":"경기도 평택시 비전동 833-2번지 103호, 104호","indutype":"일반휴게음식 - 일반한식","category":"restaurant"}]},{"lat":"37.003715109","long":"127.10453511","imageIndex":4,"items":[{"name":"명인만두 소사벌점","tel":"031-655-4091","addr":"경기도 평택시 비전동 1015-5번지 홍익빌딩 1층","indutype":"음식점 - 한식","category":"restaurant"},{"name":"명인만두 소사벌점","tel":"031-657-1809","addr":"경기도 평택시 비전동 1015-5번지 홍익빌딩 1층","indutype":"일반휴게음식 - 일반한식","category":"restaurant"},{"name":"카페베네 소사벌점","tel":"031-655-2397","addr":"경기도 평택시 비전동 1015-5번지","indutype":"일반휴게음식 - 서양음식","category":"restaurant"},{"name":"카페베네소사벌점","tel":"","addr":"경기도 평택시 비전동 1015-5번지","indutype":"음식점 - 카페","category":"restaurant"}]},{"lat":"37.00227506","long":"127.09119766","imageIndex":4,"items":[{"name":"명품관","tel":"031-657-1712","addr":"경기도 평택시 비전동 777-4번지 1층 좌측","indutype":"일반휴게음식 - 중국식","category":"restaurant"},{"name":"야식공장(평택점)","tel":"031-665-9201","addr":"경기도 평택시 비전동 777-4번지","indutype":"일반휴게음식 - 일반한식","category":"restaurant"}]},{"lat":"36.99490795","long":"127.09814272","imageIndex":4,"items":[{"name":"명품수제 닭꼬치","tel":"","addr":"경기도 평택시 비전동 743-6번지 구림홈타운 204호","indutype":"일반휴게음식 - 일반한식","category":"restaurant"}]},{"lat":"36.992548352","long":"127.10741842","imageIndex":4,"items":[{"name":"모모","tel":"031-653-6224","addr":"경기도 평택시 비전동 217-3번지 1층","indutype":"일반휴게음식 - 일반한식","category":"restaurant"},{"name":"모모수제청","tel":"031-652-3509","addr":"경기도 평택시 비전동 217-3번지","indutype":"음식점 - 커피","category":"restaurant"},{"name":"착한고깃집","tel":"031-652-7772","addr":"경기도 평택시 비전동 217-3번지 1층","indutype":"음식점 - 한식","category":"restaurant"}]},{"lat":"37.003132984","long":"127.11070223","imageIndex":4,"items":[{"name":"모어모스트","tel":"031-000-0000","addr":"경기도 평택시 비전동 1045번지 오렌지하우스 101호","indutype":"일반휴게음식 - 서양음식","category":"restaurant"}]},{"lat":"36.995991794","long":"127.09489753","imageIndex":4,"items":[{"name":"몬스터푸드","tel":"031-618-6997","addr":"경기도 평택시 비전동 602-7번지","indutype":"일반휴게음식 - 일반한식","category":"restaurant"},{"name":"제이비전점/(주)제이","tel":"070-4247-1980","addr":"경기도 평택시 비전동 602-7번지 1층","indutype":"일반휴게음식 - 서양음식","category":"restaurant"},{"name":"허갈닭갈비평택점","tel":"031-618-6002","addr":"경기도 평택시 비전동 602-7번지 1층","indutype":"일반휴게음식 - 스넥","category":"restaurant"}]},{"lat":"37.002157769","long":"127.11294778","imageIndex":4,"items":[{"name":"문스빨간떡볶이 앤 빨간김밥","tel":"031-655-6223","addr":"경기도 평택시 비전동 1063번지 1층","indutype":"일반휴게음식 - 일반한식","category":"restaurant"}]},{"lat":"36.994852654","long":"127.08789764","imageIndex":4,"items":[{"name":"문전국시","tel":"070-4763-5713","addr":"경기도 평택시 비전동 633-16번지 1층","indutype":"일반휴게음식 - 일반한식","category":"restaurant"}]},{"lat":"36.993131266","long":"127.11053085","imageIndex":4,"items":[{"name":"문주훈의 문스갈비 비전점","tel":"031-655-5075","addr":"경기도 평택시 비전동 836번지","indutype":"일반휴게음식 - 일반한식","category":"restaurant"}]},{"lat":"36.996270162","long":"127.10697417","imageIndex":4,"items":[{"name":"미가촌순대국","tel":"031-656-6777","addr":"경기도 평택시 비전동 825-17번지","indutype":"음식점 - 한식","category":"restaurant"},{"name":"청춘상회","tel":"031-651-5225","addr":"경기도 평택시 비전동 825-17번지 102호","indutype":"일반휴게음식 - 일반한식","category":"restaurant"}]},{"lat":"36.996270624","long":"127.10644618","imageIndex":4,"items":[{"name":"미가촌순대국","tel":"031-618-1915","addr":"경기도 평택시 비전동 823-6번지 1층","indutype":"일반휴게음식 - 일반한식","category":"restaurant"},{"name":"정성김밥","tel":"031-656-2667","addr":"경기도 평택시 비전동 823-6번지","indutype":"일반휴게음식 - 스넥","category":"restaurant"}]},{"lat":"37.003635884","long":"127.1125567","imageIndex":4,"items":[{"name":"미국언니","tel":"031-652-7183","addr":"경기도 평택시 비전동 1053-6번지 1층","indutype":"일반휴게음식 - 서양음식","category":"restaurant"}]},{"lat":"37.003158577","long":"127.11227514","imageIndex":4,"items":[{"name":"미니훠궈","tel":"070-7543-0616","addr":"경기도 평택시 비전동 1053-11번지 1층","indutype":"일반휴게음식 - 중국식","category":"restaurant"}]},{"lat":"36.997381271","long":"127.11383962","imageIndex":4,"items":[{"name":"미드커피","tel":"","addr":"경기도 평택시 비전동 868-7번지 1층","indutype":"일반휴게음식 - 서양음식","category":"restaurant"}]},{"lat":"36.998077965","long":"127.08862021","imageIndex":4,"items":[{"name":"미성식당","tel":"031-651-7456","addr":"경기도 평택시 비전동 470-4번지","indutype":"음식점 - 한식","category":"restaurant"},{"name":"미성식당","tel":"031-651-5171","addr":"경기도 평택시 비전동 470-4번지","indutype":"일반휴게음식 - 일반한식","category":"restaurant"}]},{"lat":"37.004327932","long":"127.10442358","imageIndex":4,"items":[{"name":"미앤미케익 평택점","tel":"031-655-1040","addr":"경기도 평택시 비전동 1012-3번지 폴리프라자 107호","indutype":"음식점 - 디저트","category":"restaurant"},{"name":"이바돔감자탕","tel":"031-651-7534","addr":"경기도 평택시 비전동 1012-3번지 폴리프라자 2층","indutype":"음식점 - 한식","category":"restaurant"},{"name":"이바돔감자탕 (평택소사벌점)","tel":"031-657-3223","addr":"경기도 평택시 비전동 1012-3번지 폴리프라자 201,202,203,204,205호","indutype":"일반휴게음식 - 일반한식","category":"restaurant"},{"name":"치앤강","tel":"","addr":"경기도 평택시 비전동 1012-3번지 폴리프라자 107호","indutype":"일반휴게음식 - 일반한식","category":"restaurant"},{"name":"킹콩떡볶이","tel":"031-654-3224","addr":"경기도 평택시 비전동 1012-3번지 폴리프라자 109호","indutype":"음식점 - 분식","category":"restaurant"},{"name":"킹콩떡볶이","tel":"031-618-2930","addr":"경기도 평택시 비전동 1012-3번지 폴리프라자 109호","indutype":"일반휴게음식 - 일반한식","category":"restaurant"}]},{"lat":"36.993247443","long":"127.11158695","imageIndex":4,"items":[{"name":"미이네밥집","tel":"031-691-1316","addr":"경기도 평택시 비전동 835-7번지 1층","indutype":"일반휴게음식 - 일반한식","category":"restaurant"},{"name":"선지해장국&전주돌솥콩나물","tel":"031-657-7484","addr":"경기도 평택시 비전동 835-7번지","indutype":"음식점 - 한식","category":"restaurant"},{"name":"선지해장국&전주돌솥콩나물","tel":"031-616-1881","addr":"경기도 평택시 비전동 835-7번지","indutype":"일반휴게음식 - 일반한식","category":"restaurant"}]},{"lat":"36.991053452","long":"127.10641664","imageIndex":4,"items":[{"name":"민카페","tel":"031-651-7011","addr":"경기도 평택시 비전동 764-9번지 1층","indutype":"일반휴게음식 - 서양음식","category":"restaurant"}]},{"lat":"37.004519272","long":"127.10191843","imageIndex":4,"items":[{"name":"바오돈까스 비전점","tel":"031-655-4283","addr":"경기도 평택시 비전동 991-5번지","indutype":"일반휴게음식 - 서양음식","category":"restaurant"}]},{"lat":"36.994419642","long":"127.11070117","imageIndex":4,"items":[{"name":"박군치킨 경남아너스빌점","tel":"031-655-8077","addr":"경기도 평택시 비전동 931번지 비전경남아너스빌 상가동 105호","indutype":"일반휴게음식 - 스넥","category":"restaurant"},{"name":"평택회수산","tel":"031-692-6464","addr":"경기도 평택시 비전동 931번지 비전경남아너스빌 상가동 101호","indutype":"일반휴게음식 - 일식·회집","category":"restaurant"}]},{"lat":"37.00138738","long":"127.10794731","imageIndex":4,"items":[{"name":"박군치킨 백년가약점","tel":"031-655-9989","addr":"경기도 평택시 비전동 1083번지 강일타워 104호","indutype":"일반휴게음식 - 스넥","category":"restaurant"},{"name":"뺑드오웰","tel":"031-652-8881","addr":"경기도 평택시 비전동 1083번지 강일타워 107동 108호","indutype":"음식점 - 제과점","category":"restaurant"},{"name":"평택아라횟집","tel":"031-655-2114","addr":"경기도 평택시 비전동 1083번지 강일타워 115동 118호","indutype":"일반휴게음식 - 일반한식","category":"restaurant"}]},{"lat":"37.002078969","long":"127.11044235","imageIndex":4,"items":[{"name":"반가의 소반","tel":"031-655-0919","addr":"경기도 평택시 비전동 1048-3번지","indutype":"일반휴게음식 - 일반한식","category":"restaurant"}]},{"lat":"37.000158166","long":"127.11211356","imageIndex":4,"items":[{"name":"반하는 보쌈 & 밥상","tel":"031-654-2003","addr":"경기도 평택시 비전동 1091번지 골든프라자6차 202호","indutype":"음식점 - 일반","category":"restaurant"},{"name":"반하는보쌈&밥상","tel":"031-657-9940","addr":"경기도 평택시 비전동 1091번지 2층 202호 골든프라자6","indutype":"일반휴게음식 - 일반한식","category":"restaurant"}]},{"lat":"37.001186402","long":"127.11100282","imageIndex":4,"items":[{"name":"방스시","tel":"031-618-0038","addr":"경기도 평택시 비전동 1068-1번지 1층","indutype":"일반휴게음식 - 일식·회집","category":"restaurant"}]},{"lat":"36.99807523","long":"127.11369458","imageIndex":4,"items":[{"name":"배꼽시계","tel":"031-692-0233","addr":"경기도 평택시 비전동 868-1번지 1층","indutype":"일반휴게음식 - 일반한식","category":"restaurant"}]},{"lat":"36.997075942","long":"127.11272702","imageIndex":4,"items":[{"name":"배다리","tel":"031-618-0944","addr":"경기도 평택시 비전동 865-9번지","indutype":"음식점 - 한식","category":"restaurant"},{"name":"배다리","tel":"031-658-2300","addr":"경기도 평택시 비전동 865-9번지 1층","indutype":"일반휴게음식 - 일반한식","category":"restaurant"}]},{"lat":"36.991713877","long":"127.10333967","imageIndex":4,"items":[{"name":"배달삼겹돼지되지","tel":"031-618-8591","addr":"경기도 평택시 비전동 762-17번지 102호","indutype":"일반휴게음식 - 일반한식","category":"restaurant"},{"name":"봉구스밥버거 신한점","tel":"031-657-5388","addr":"경기도 평택시 비전동 762-17번지","indutype":"음식점 - 밥버거","category":"restaurant"},{"name":"봉구스밥버거 신한점","tel":"031-652-0199","addr":"경기도 평택시 비전동 762-17번지 1층 1호","indutype":"일반휴게음식 - 일반한식","category":"restaurant"}]},{"lat":"37.005438567","long":"127.10167245","imageIndex":4,"items":[{"name":"배달의쌀국수","tel":"031-654-8288","addr":"경기도 평택시 비전동 986-1번지","indutype":"일반휴게음식 - 서양음식","category":"restaurant"}]},{"lat":"37.002356506","long":"127.0907259","imageIndex":4,"items":[{"name":"백두산 갑오징어 코다리조림","tel":"031-652-2043","addr":"경기도 평택시 비전동 777-1번지","indutype":"일반휴게음식 - 일반한식","category":"restaurant"}]},{"lat":"36.99541524","long":"127.09472833","imageIndex":4,"items":[{"name":"버시랑","tel":"031-691-0787","addr":"경기도 평택시 비전동 602-6번지","indutype":"음식점 - 일반","category":"restaurant"}]},{"lat":"37.002746135","long":"127.1100276","imageIndex":4,"items":[{"name":"벌키(Bulky)","tel":"","addr":"경기도 평택시 비전동 1043-9번지 1층","indutype":"일반휴게음식 - 서양음식","category":"restaurant"}]},{"lat":"36.995022601","long":"127.1115333","imageIndex":4,"items":[{"name":"베아트센터","tel":"031-654-4642","addr":"경기도 평택시 비전동 832-7번지","indutype":"일반휴게음식 - 서양음식","category":"restaurant"}]},{"lat":"36.99265741","long":"127.11622543","imageIndex":4,"items":[{"name":"베이스캠프(비전점)","tel":"031-653-5609","addr":"경기도 평택시 비전동 886-3번지","indutype":"일반휴게음식 - 일반한식","category":"restaurant"},{"name":"쭈꾸미세상","tel":"031-657-4316","addr":"경기도 평택시 비전동 886-3번지","indutype":"음식점 - 한식","category":"restaurant"},{"name":"쭈꾸미세상","tel":"031-618-5255","addr":"경기도 평택시 비전동 886-3번지 1층","indutype":"일반휴게음식 - 일반한식","category":"restaurant"}]},{"lat":"36.999747516","long":"127.09711521","imageIndex":4,"items":[{"name":"베이커리윤","tel":"031-651-2279","addr":"경기도 평택시 비전동 799-4번지 1층","indutype":"음식점 - 제과점","category":"restaurant"}]},{"lat":"37.001497273","long":"127.09497157","imageIndex":4,"items":[{"name":"베이클보쌈&갈릭보쌈","tel":"031-658-3990","addr":"경기도 평택시 비전동 795-2번지 1층","indutype":"일반휴게음식 - 일반한식","category":"restaurant"}]},{"lat":"36.991716933","long":"127.11969507","imageIndex":4,"items":[{"name":"벽산가나안식당","tel":"","addr":"경기도 평택시 비전동 889번지 벽산 상가 지하","indutype":"음식점 - 한식","category":"restaurant"},{"name":"벽산가나안식당","tel":"031-656-6599","addr":"경기도 평택시 비전동 889번지 벽산 상가 지하3층 4호","indutype":"일반휴게음식 - 일반한식","category":"restaurant"},{"name":"장수식당","tel":"031-655-6202","addr":"경기도 평택시 비전동 889번지 상가 201~203","indutype":"음식점 - 한식","category":"restaurant"},{"name":"평택반점","tel":"031-655-6202","addr":"경기도 평택시 비전동 889번지 벽산 상가 204호","indutype":"일반휴게음식 - 중국식","category":"restaurant"},{"name":"평택반점","tel":"031-652-3609","addr":"경기도 평택시 비전동 889번지 벽산상가 204호","indutype":"음식점 - 중식","category":"restaurant"},{"name":"행복식당","tel":"031-651-1060","addr":"경기도 평택시 비전동 889번지 벽산아파트","indutype":"음식점 - 한식","category":"restaurant"}]},{"lat":"36.9931064","long":"127.11783246","imageIndex":4,"items":[{"name":"별이네","tel":"031-654-1211","addr":"경기도 평택시 비전동 883-6번지 1층","indutype":"일반휴게음식 - 일반한식","category":"restaurant"},{"name":"우이동족발","tel":"031-618-5820","addr":"경기도 평택시 비전동 883-6번지","indutype":"음식점 - 한식","category":"restaurant"},{"name":"우이동족발","tel":"031-618-8595","addr":"경기도 평택시 비전동 883-6번지","indutype":"일반휴게음식 - 일반한식","category":"restaurant"}]},{"lat":"36.996966884","long":"127.11372668","imageIndex":4,"items":[{"name":"별푸른밤","tel":"031-658-8847","addr":"경기도 평택시 비전동 871-7번지 101호","indutype":"음식점 - 카페","category":"restaurant"},{"name":"별푸른밤","tel":"070-1478-1236","addr":"경기도 평택시 비전동 871-7번지 101호","indutype":"일반휴게음식 - 서양음식","category":"restaurant"}]},{"lat":"37.004743445","long":"127.10322199","imageIndex":4,"items":[{"name":"보네르바게트","tel":"031-652-6245","addr":"경기도 평택시 비전동 996-2번지","indutype":"음식점 - 제과점","category":"restaurant"},{"name":"삼포집소사벌점","tel":"031-655-9257","addr":"경기도 평택시 비전동 996-2번지 1층","indutype":"일반휴게음식 - 일반한식","category":"restaurant"}]},{"lat":"37.002434859","long":"127.10538725","imageIndex":4,"items":[{"name":"본가왕뼈감자탕평택법원점","tel":"031-618-0889","addr":"경기도 평택시 비전동 1070-2번지 샤르망프라자 2층 201호","indutype":"일반휴게음식 - 일반한식","category":"restaurant"},{"name":"부부만두","tel":"031-665-1010","addr":"경기도 평택시 비전동 1070-2번지 샤르망프라자 107호","indutype":"일반휴게음식 - 일반한식","category":"restaurant"},{"name":"빅스타피자 비전점","tel":"031-654-7440","addr":"경기도 평택시 비전동 1070-2번지 샤르망프라자 105호","indutype":"일반휴게음식 - 서양음식","category":"restaurant"},{"name":"빅스타피자비전점","tel":"031-657-3350","addr":"경기도 평택시 비전동 1070-2번지 샤르망프라자 105호","indutype":"음식점 - 피자","category":"restaurant"}]},{"lat":"36.993161269","long":"127.09638815","imageIndex":4,"items":[{"name":"본도시락 평택역점","tel":"031-656-4282","addr":"경기도 평택시 비전동 739-17번지 1층","indutype":"일반휴게음식 - 일반한식","category":"restaurant"}]},{"lat":"37.001380585","long":"127.09438723","imageIndex":4,"items":[{"name":"본평택면옥","tel":"031-656-7566","addr":"경기도 평택시 비전동 787-10번지 1층","indutype":"일반휴게음식 - 일반한식","category":"restaurant"},{"name":"본평택면옥","tel":"031-657-5508","addr":"경기도 평택시 비전동 787-10번지 1층","indutype":"음식점 - 한식","category":"restaurant"}]},{"lat":"36.993964796","long":"127.09436711","imageIndex":4,"items":[{"name":"봉구스밥버거(평택점)","tel":"031-656-2113","addr":"경기도 평택시 비전동 615-10번지 1층","indutype":"일반휴게음식 - 스넥","category":"restaurant"}]},{"lat":"36.994469117","long":"127.09472719","imageIndex":4,"items":[{"name":"부산무봤나 떡볶이","tel":"","addr":"경기도 평택시 비전동 730-1번지","indutype":"음식점 - 분식","category":"restaurant"},{"name":"부산무봤나떡볶이","tel":"031-692-2070","addr":"경기도 평택시 비전동 730-1번지 1층","indutype":"일반휴게음식 - 스넥","category":"restaurant"}]},{"lat":"37.001492713","long":"127.11105942","imageIndex":4,"items":[{"name":"부자곱","tel":"031-653-9066","addr":"경기도 평택시 비전동 1067번지 1층","indutype":"음식점 - 한식","category":"restaurant"},{"name":"부자곱","tel":"031-654-2086","addr":"경기도 평택시 비전동 1067번지 1층","indutype":"일반휴게음식 - 일반한식","category":"restaurant"}]},{"lat":"36.996994356","long":"127.11325489","imageIndex":4,"items":[{"name":"북새통","tel":"031-657-0267","addr":"경기도 평택시 비전동 871-3번지","indutype":"일반휴게음식 - 주점","category":"restaurant"},{"name":"정희네막창구이","tel":"031-656-4796","addr":"경기도 평택시 비전동 871-3번지 1층","indutype":"일반휴게음식 - 일반한식","category":"restaurant"},{"name":"정희네막창구이","tel":"031-656-4567","addr":"경기도 평택시 비전동 871-3번지 1층","indutype":"음식점 - 한식","category":"restaurant"}]},{"lat":"36.997048169","long":"127.11352458","imageIndex":4,"items":[{"name":"북새통","tel":"031-658-5150","addr":"경기도 평택시 비전동 871-5번지 1층","indutype":"음식점 - 한식","category":"restaurant"}]},{"lat":"37.000049602","long":"127.11258525","imageIndex":4,"items":[{"name":"북촌손만두소사점","tel":"031-657-7781","addr":"경기도 평택시 비전동 1091-4번지 102호","indutype":"일반휴게음식 - 일반한식","category":"restaurant"},{"name":"일도참치소사벌점","tel":"031-651-3066","addr":"경기도 평택시 비전동 1091-4번지 2층 202호","indutype":"일반휴게음식 - 일식·회집","category":"restaurant"},{"name":"카페밸런스","tel":"02-000-0000","addr":"경기도 평택시 비전동 1091-4번지 303호","indutype":"일반휴게음식 - 서양음식","category":"restaurant"}]},{"lat":"36.99258109","long":"127.10072346","imageIndex":4,"items":[{"name":"불로만숯불바베큐비전점","tel":"031-652-3589","addr":"경기도 평택시 비전동 760-3번지 쌍동빌딩 2층","indutype":"일반휴게음식 - 스넥","category":"restaurant"},{"name":"우동집","tel":"031-691-2000","addr":"경기도 평택시 비전동 760-3번지","indutype":"음식점 - 한식","category":"restaurant"},{"name":"케이콜라보김밥 평택비전점","tel":"","addr":"경기도 평택시 비전동 760-3번지 쌍동빌딩","indutype":"일반휴게음식 - 스넥","category":"restaurant"},{"name":"헤븐","tel":"031-609-5019","addr":"경기도 평택시 비전동 760-3번지 쌍동빌딩","indutype":"일반휴게음식 - 일반한식","category":"restaurant"},{"name":"헤븐떡볶이","tel":"070-4111-0033","addr":"경기도 평택시 비전동 760-3번지","indutype":"음식점 - 분식","category":"restaurant"}]},{"lat":"37.002247771","long":"127.11306026","imageIndex":4,"items":[{"name":"브릭스키친 소사벌점","tel":"041-111-1111","addr":"경기도 평택시 비전동 1063-1번지 1층","indutype":"일반휴게음식 - 서양음식","category":"restaurant"}]},{"lat":"36.993409636","long":"127.11158718","imageIndex":4,"items":[{"name":"블랙","tel":"031-654-1457","addr":"경기도 평택시 비전동 835-6번지","indutype":"일반휴게음식 - 일반한식","category":"restaurant"},{"name":"신동해해물탕","tel":"0504-3142-1584","addr":"경기도 평택시 비전동 835-6번지","indutype":"음식점 - 한식","category":"restaurant"},{"name":"신동해해물탕","tel":"031-654-1255","addr":"경기도 평택시 비전동 835-6번지","indutype":"일반휴게음식 - 일반한식","category":"restaurant"}]},{"lat":"36.992548409","long":"127.11713516","imageIndex":4,"items":[{"name":"비스트로 핀","tel":"","addr":"경기도 평택시 비전동 884번지 102호","indutype":"일반휴게음식 - 칵테일바","category":"restaurant"}]},{"lat":"36.993241124","long":"127.118282","imageIndex":4,"items":[{"name":"비에이치씨(BHC)비전점","tel":"031-658-7990","addr":"경기도 평택시 비전동 882-1번지 1층","indutype":"일반휴게음식 - 주점","category":"restaurant"}]},{"lat":"36.995743353","long":"127.11164667","imageIndex":4,"items":[{"name":"비전사쿠사쿠뉴코아점","tel":"031-668-0717","addr":"경기도 평택시 비전동 829-3번지 1층","indutype":"일반휴게음식 - 스넥","category":"restaurant"},{"name":"압구정김밥","tel":"031-657-6221","addr":"경기도 평택시 비전동 829-3번지","indutype":"일반휴게음식 - 스넥","category":"restaurant"},{"name":"컵오브커피비전2동점","tel":"031-651-1813","addr":"경기도 평택시 비전동 829-3번지 1층","indutype":"일반휴게음식 - 서양음식","category":"restaurant"}]},{"lat":"36.999938893","long":"127.09436303","imageIndex":4,"items":[{"name":"비전투다리","tel":"031-651-3363","addr":"경기도 평택시 비전동 793-8번지","indutype":"일반휴게음식 - 주점","category":"restaurant"}]},{"lat":"36.996796204","long":"127.11316473","imageIndex":4,"items":[{"name":"비전폐계닭","tel":"031-662-6396","addr":"경기도 평택시 비전동 871-11번지","indutype":"음식점 - 한식","category":"restaurant"},{"name":"비전폐계닭퓨전포차","tel":"031-656-4225","addr":"경기도 평택시 비전동 871-11번지","indutype":"일반휴게음식 - 일반한식","category":"restaurant"}]},{"lat":"36.996796844","long":"127.09080937","imageIndex":4,"items":[{"name":"비전화로구이","tel":"031-657-7044","addr":"경기도 평택시 비전동 626-73번지","indutype":"음식점 - 한식","category":"restaurant"}]},{"lat":"36.996769712","long":"127.09094415","imageIndex":4,"items":[{"name":"비전화로구이","tel":"031-616-8229","addr":"경기도 평택시 비전동 626-74번지 B동","indutype":"일반휴게음식 - 일반한식","category":"restaurant"},{"name":"카페콜마르","tel":"070-4212-8555","addr":"경기도 평택시 비전동 626-74번지","indutype":"일반휴게음식 - 일반한식","category":"restaurant"},{"name":"피자루트","tel":"031-657-2929","addr":"경기도 평택시 비전동 626-74번지","indutype":"일반휴게음식 - 서양음식","category":"restaurant"}]},{"lat":"36.996213051","long":"127.08820247","imageIndex":4,"items":[{"name":"비젼비어","tel":"031-651-0925","addr":"경기도 평택시 비전동 630-12번지 비전빌딩","indutype":"일반휴게음식 - 주점","category":"restaurant"},{"name":"토프레소 비전프라자점","tel":"031-655-1223","addr":"경기도 평택시 비전동 630-12번지 비전빌딩","indutype":"일반휴게음식 - 서양음식","category":"restaurant"}]},{"lat":"36.992934997","long":"127.10834008","imageIndex":4,"items":[{"name":"빈스본","tel":"031-656-8542","addr":"경기도 평택시 비전동 205-10번지","indutype":"음식점 - 카페","category":"restaurant"}]},{"lat":"36.992413359","long":"127.10722728","imageIndex":4,"items":[{"name":"빈스본","tel":"031-656-5948","addr":"경기도 평택시 비전동 191-2번지","indutype":"일반휴게음식 - 서양음식","category":"restaurant"},{"name":"육하원칙","tel":"02-1577-9654","addr":"경기도 평택시 비전동 191-2번지 호담빌딩 1층","indutype":"일반휴게음식 - 일반한식","category":"restaurant"},{"name":"육하원칙","tel":"070-4090-0522","addr":"경기도 평택시 비전동 191-2번지","indutype":"음식점 - 일반","category":"restaurant"},{"name":"착한고깃집","tel":"031-658-9881","addr":"경기도 평택시 비전동 191-2번지","indutype":"일반휴게음식 - 일반한식","category":"restaurant"}]},{"lat":"36.992692354","long":"127.10760959","imageIndex":4,"items":[{"name":"빨간자전거","tel":"031-653-1101","addr":"경기도 평택시 비전동 217-4번지 1층 101호","indutype":"일반휴게음식 - 스넥","category":"restaurant"}]},{"lat":"36.992331927","long":"127.10760909","imageIndex":4,"items":[{"name":"빨강+떡볶이","tel":"031-651-3941","addr":"경기도 평택시 비전동 191-1번지","indutype":"일반휴게음식 - 스넥","category":"restaurant"},{"name":"빨강떡볶이","tel":"031-618-0430","addr":"경기도 평택시 비전동 191-1번지","indutype":"음식점 - 분식","category":"restaurant"}]},{"lat":"36.993187256","long":"127.11807972","imageIndex":4,"items":[{"name":"뽀끼스타","tel":"031-653-9788","addr":"경기도 평택시 비전동 882번지","indutype":"일반휴게음식 - 스넥","category":"restaurant"}]},{"lat":"36.995217048","long":"127.09467192","imageIndex":4,"items":[{"name":"뽀야네 한식탕","tel":"031-691-8809","addr":"경기도 평택시 비전동 613-1번지","indutype":"음식점 - 한식","category":"restaurant"},{"name":"이삭토스트","tel":"031-657-2033","addr":"경기도 평택시 비전동 613-1번지","indutype":"일반휴게음식 - 스넥","category":"restaurant"}]},{"lat":"36.997768888","long":"127.11367167","imageIndex":4,"items":[{"name":"사계절영양탕","tel":"031-653-8079","addr":"경기도 평택시 비전동 868-10번지","indutype":"일반휴게음식 - 일반한식","category":"restaurant"}]},{"lat":"36.996633725","long":"127.1033349","imageIndex":4,"items":[{"name":"사또식당","tel":"031-655-9103","addr":"경기도 평택시 비전동 817-10번지 1층","indutype":"일반휴게음식 - 일반한식","category":"restaurant"},{"name":"사또식당","tel":"","addr":"경기도 평택시 비전동 817-10번지","indutype":"음식점 - 한식","category":"restaurant"}]},{"lat":"36.99216591","long":"127.10155419","imageIndex":4,"items":[{"name":"사랑채","tel":"031-657-9985","addr":"경기도 평택시 비전동 761-7번지","indutype":"일반휴게음식 - 일반한식","category":"restaurant"}]},{"lat":"36.992880784","long":"127.11819159","imageIndex":4,"items":[{"name":"산마루집","tel":"031-657-0052","addr":"경기도 평택시 비전동 882-9번지 1층","indutype":"일반휴게음식 - 일반한식","category":"restaurant"}]},{"lat":"36.992080308","long":"127.10683366","imageIndex":4,"items":[{"name":"산막골","tel":"031-654-5533","addr":"경기도 평택시 비전동 221-16번지 1층","indutype":"음식점 - 한식","category":"restaurant"},{"name":"산막골","tel":"031-656-0537","addr":"경기도 평택시 비전동 221-16번지","indutype":"일반휴게음식 - 일반한식","category":"restaurant"}]},{"lat":"37.000216773","long":"127.09622827","imageIndex":4,"items":[{"name":"산삼창 비전점","tel":"031-658-5969","addr":"경기도 평택시 비전동 483-70번지 1층","indutype":"일반휴게음식 - 스넥","category":"restaurant"}]},{"lat":"36.991744824","long":"127.10919216","imageIndex":4,"items":[{"name":"산앤들","tel":"031-657-8839","addr":"경기도 평택시 비전동 854-13번지","indutype":"일반휴게음식 - 일반한식","category":"restaurant"}]},{"lat":"36.998272339","long":"127.09381057","imageIndex":4,"items":[{"name":"산지촌","tel":"031-654-5515","addr":"경기도 평택시 비전동 598-12번지","indutype":"일반휴게음식 - 일반한식","category":"restaurant"}]},{"lat":"37.002023359","long":"127.09038848","imageIndex":4,"items":[{"name":"산청한식탕","tel":"031-692-0119","addr":"경기도 평택시 비전동 432-1번지","indutype":"음식점 - 한식","category":"restaurant"},{"name":"산청해물","tel":"031-658-7766","addr":"경기도 평택시 비전동 432-1번지","indutype":"일반휴게음식 - 일반한식","category":"restaurant"}]},{"lat":"36.99694025","long":"127.10314433","imageIndex":4,"items":[{"name":"삼성","tel":"031-653-3747","addr":"경기도 평택시 비전동 818-2번지 3층","indutype":"일반휴게음식 - 일반한식","category":"restaurant"}]},{"lat":"36.992747248","long":"127.1165064","imageIndex":4,"items":[{"name":"삼정식당","tel":"031-656-6345","addr":"경기도 평택시 비전동 886-5번지","indutype":"음식점 - 한식","category":"restaurant"},{"name":"삼정식당","tel":"031-657-5757","addr":"경기도 평택시 비전동 886-5번지","indutype":"일반휴게음식 - 일반한식","category":"restaurant"}]},{"lat":"37.003546605","long":"127.10133296","imageIndex":4,"items":[{"name":"상하이문","tel":"031-652-5599","addr":"경기도 평택시 비전동 1003-2번지 2층","indutype":"음식점 - 중식","category":"restaurant"}]},{"lat":"36.996212816","long":"127.08852825","imageIndex":4,"items":[{"name":"새온돌방","tel":"031-656-6225","addr":"경기도 평택시 비전동 630-10번지","indutype":"일반휴게음식 - 일반한식","category":"restaurant"}]},{"lat":"37.001823705","long":"127.11366632","imageIndex":4,"items":[{"name":"샐러드핏 소사럭키점","tel":"","addr":"경기도 평택시 비전동 1094-1번지 좋은메디타워 104호","indutype":"일반휴게음식 - 서양음식","category":"restaurant"},{"name":"샐러드핏 소사럭키점","tel":"031-655-7879","addr":"경기도 평택시 비전동 1094-1번지 좋은메디타워 104호","indutype":"음식점 - 양식","category":"restaurant"},{"name":"어썸브루(AWESOME BREW)","tel":"031-691-1995","addr":"경기도 평택시 비전동 1094-1번지 좋은메디타워 113 114 115호","indutype":"일반휴게음식 - 서양음식","category":"restaurant"},{"name":"연안식당 평택소사벌점","tel":"031-655-1022","addr":"경기도 평택시 비전동 1094-1번지 1층 107,108호","indutype":"일반휴게음식 - 일반한식","category":"restaurant"},{"name":"예향정평택소사벌점","tel":"031-654-0103","addr":"경기도 평택시 비전동 1094-1번지 좋은메디타워 203호","indutype":"일반휴게음식 - 일반한식","category":"restaurant"},{"name":"인근주민소사벌","tel":"031-657-8181","addr":"경기도 평택시 비전동 1094-1번지 좋은메디타워 110,111,112호","indutype":"일반휴게음식 - 일반한식","category":"restaurant"},{"name":"코미니소사벌점","tel":"031-653-0510","addr":"경기도 평택시 비전동 1094-1번지 좋은메디타워 106호","indutype":"일반휴게음식 - 일반한식","category":"restaurant"},{"name":"프시케","tel":"","addr":"경기도 평택시 비전동 1094-1번지 좋은메디타워 1동 105호","indutype":"음식점 - 떡카페","category":"restaurant"},{"name":"프시케,롱","tel":"031-657-0402","addr":"경기도 평택시 비전동 1094-1번지 좋은메디타워 105호","indutype":"일반휴게음식 - 일반한식","category":"restaurant"}]},{"lat":"36.992881934","long":"127.11700086","imageIndex":4,"items":[{"name":"샐프레소","tel":"031-655-1924","addr":"경기도 평택시 비전동 883번지","indutype":"음식점 - 커피","category":"restaurant"},{"name":"샐프레소","tel":"031-654-2386","addr":"경기도 평택시 비전동 883번지 1층","indutype":"일반휴게음식 - 서양음식","category":"restaurant"}]},{"lat":"37.006240218","long":"127.10203302","imageIndex":4,"items":[{"name":"생생돈까스(소사벌점)","tel":"031-652-3345","addr":"경기도 평택시 비전동 982-6번지 101호","indutype":"일반휴게음식 - 서양음식","category":"restaurant"}]},{"lat":"37.004997138","long":"127.10155953","imageIndex":4,"items":[{"name":"생선장수 평택점","tel":"031-654-1605","addr":"경기도 평택시 비전동 990-5번지 101호","indutype":"일반휴게음식 - 일반한식","category":"restaurant"}]},{"lat":"37.000302057","long":"127.11241709","imageIndex":4,"items":[{"name":"생활맥주 평택소사벌점","tel":"031-653-0553","addr":"경기도 평택시 비전동 1091-1번지 시티타워 103호","indutype":"음식점 - 호프","category":"restaurant"},{"name":"생활맥주 평택소사벌점","tel":"031-657-3350","addr":"경기도 평택시 비전동 1091-1번지 시티프라자 103호","indutype":"일반휴게음식 - 주점","category":"restaurant"},{"name":"신스쭈꾸미소사벌점","tel":"031-655-8926","addr":"경기도 평택시 비전동 1091-1번지 시티프라자 104호,105호","indutype":"일반휴게음식 - 일반한식","category":"restaurant"},{"name":"엠","tel":"031-000-0000","addr":"경기도 평택시 비전동 1091-1번지 시티프라자 302호","indutype":"일반휴게음식 - 일반한식","category":"restaurant"},{"name":"전주콩나물 김치찌개","tel":"032-657-7403","addr":"경기도 평택시 비전동 1091-1번지 시티프라자 106호","indutype":"일반휴게음식 - 일반한식","category":"restaurant"},{"name":"찌개야식","tel":"031-692-4215","addr":"경기도 평택시 비전동 1091-1번지 시티프라자 102호","indutype":"일반휴게음식 - 일반한식","category":"restaurant"},{"name":"찌개야식","tel":"031-657-1022","addr":"경기도 평택시 비전동 1091-1번지 시티프라자 102호","indutype":"음식점 - 한식","category":"restaurant"}]},{"lat":"36.999941837","long":"127.11219189","imageIndex":4,"items":[{"name":"서가앤쿡평택점","tel":"031-691-5888","addr":"경기도 평택시 비전동 1091-5번지 중앙프라자 2층","indutype":"일반휴게음식 - 서양음식","category":"restaurant"},{"name":"에이프릴핍스","tel":"031-652-0106","addr":"경기도 평택시 비전동 1091-5번지 중앙프라자 107호","indutype":"음식점 - 커피, 마카롱","category":"restaurant"},{"name":"에이프릴핍스","tel":"031-000-0000","addr":"경기도 평택시 비전동 1091-5번지 중앙프라자 107호","indutype":"일반휴게음식 - 서양음식","category":"restaurant"}]},{"lat":"37.005356266","long":"127.10311044","imageIndex":4,"items":[{"name":"서울감자탕","tel":"032-651-4988","addr":"경기도 평택시 비전동 988-6번지 YOUNG HOUSE 1층 101호","indutype":"일반휴게음식 - 일반한식","category":"restaurant"}]},{"lat":"37.000219173","long":"127.11433805","imageIndex":4,"items":[{"name":"서울식당","tel":"","addr":"경기도 평택시 비전동 1100-3번지 에스엘프라자 104,105호","indutype":"일반휴게음식 - 일반한식","category":"restaurant"},{"name":"쇼메이소사벌점","tel":"031-655-1143","addr":"경기도 평택시 비전동 1100-3번지 에스엘프라자 101,102,103호","indutype":"음식점 - 일반","category":"restaurant"},{"name":"스트리트 8","tel":"","addr":"경기도 평택시 비전동 1100-3번지 에스엘프라자 601호","indutype":"음식점 - 양식","category":"restaurant"},{"name":"스트리트8","tel":"","addr":"경기도 평택시 비전동 1100-3번지 에스엘프라자 6층 601호","indutype":"일반휴게음식 - 일반한식","category":"restaurant"},{"name":"킨지 평택점","tel":"031-618-6167","addr":"경기도 평택시 비전동 1100-3번지 에스엘프라자 202호","indutype":"일반휴게음식 - 일반한식","category":"restaurant"},{"name":"핑크타이거","tel":"031-658-0788","addr":"경기도 평택시 비전동 1100-3번지 외 1필지 에스엘프라자","indutype":"일반휴게음식 - 일반한식","category":"restaurant"}]},{"lat":"36.992968317","long":"127.11136188","imageIndex":4,"items":[{"name":"석쇠장인의 상다리어택","tel":"031-657-9507","addr":"경기도 평택시 비전동 838-10번지 1층","indutype":"일반휴게음식 - 일반한식","category":"restaurant"}]},{"lat":"36.991080631","long":"127.10624818","imageIndex":4,"items":[{"name":"석일식당","tel":"031-657-1235","addr":"경기도 평택시 비전동 764-10번지 2층","indutype":"음식점 - 한식","category":"restaurant"},{"name":"석일식당","tel":"031-652-9101","addr":"경기도 평택시 비전동 764-10번지 2층","indutype":"일반휴게음식 - 일반한식","category":"restaurant"}]},{"lat":"36.999829964","long":"127.09539646","imageIndex":4,"items":[{"name":"성찬","tel":"031-658-2482","addr":"경기도 평택시 비전동 487번지","indutype":"일반휴게음식 - 일반한식","category":"restaurant"},{"name":"쿠웨이트 떡볶이","tel":"031-655-0356","addr":"경기도 평택시 비전동 487번지 107호","indutype":"일반휴게음식 - 스넥","category":"restaurant"}]},{"lat":"37.001969157","long":"127.11228467","imageIndex":4,"items":[{"name":"센시빌리티","tel":"","addr":"경기도 평택시 비전동 1064-5번지 1층","indutype":"일반휴게음식 - 일반한식","category":"restaurant"},{"name":"포트커피","tel":"","addr":"경기도 평택시 비전동 1064-5번지 1층","indutype":"일반휴게음식 - 서양음식","category":"restaurant"}]},{"lat":"37.002386153","long":"127.10953277","imageIndex":4,"items":[{"name":"소사면옥","tel":"","addr":"경기도 평택시 비전동 1040-1번지 1층 소사벌택지지구 608블럭 2롯트","indutype":"음식점 - 한식","category":"restaurant"},{"name":"소사면옥","tel":"031-666-3946","addr":"경기도 평택시 비전동 1040-1번지 1층 소사벌택지지구","indutype":"일반휴게음식 - 일반한식","category":"restaurant"}]},{"lat":"36.99274305","long":"127.11136156","imageIndex":4,"items":[{"name":"솔잎","tel":"031-692-7383","addr":"경기도 평택시 비전동 838-8번지","indutype":"일반휴게음식 - 일반한식","category":"restaurant"}]},{"lat":"36.99538214","long":"127.11249991","imageIndex":4,"items":[{"name":"송사부수제쌀고로케뉴코아평택점","tel":"","addr":"경기도 평택시 비전동 830-1번지 뉴코아아울렛백화점 지하1층 킴스클럽","indutype":"일반휴게음식 - 일반한식","category":"restaurant"},{"name":"포메인평택뉴코아점","tel":"031-650-6577","addr":"경기도 평택시 비전동 830-1번지 7층","indutype":"일반휴게음식 - 서양음식","category":"restaurant"}]},{"lat":"36.992940678","long":"127.11202461","imageIndex":4,"items":[{"name":"송탄1번가부대찌개","tel":"031-8094-1998","addr":"경기도 평택시 비전동 834-3번지","indutype":"음식점 - 한식","category":"restaurant"},{"name":"송탄일번가부대찌개평택본점","tel":"031-655-0081","addr":"경기도 평택시 비전동 834-3번지 전진빌딩 1층 1호","indutype":"일반휴게음식 - 일반한식","category":"restaurant"}]},{"lat":"36.9932467","long":"127.11239574","imageIndex":4,"items":[{"name":"송탄부대찌개","tel":"031-651-0090","addr":"경기도 평택시 비전동 843-3번지","indutype":"음식점 - 한식","category":"restaurant"},{"name":"송탄부대찌개(비전점)","tel":"031-657-4317","addr":"경기도 평택시 비전동 843-3번지","indutype":"일반휴게음식 - 일반한식","category":"restaurant"}]},{"lat":"37.003051459","long":"127.11117398","imageIndex":4,"items":[{"name":"쇼쿠지","tel":"031-111-1111","addr":"경기도 평택시 비전동 1046-3번지 1층","indutype":"일반휴게음식 - 일식·회집","category":"restaurant"}]},{"lat":"37.001768915","long":"127.11444142","imageIndex":4,"items":[{"name":"숙달돼지평택본점","tel":"031-653-3392","addr":"경기도 평택시 비전동 1097번지 104-107호","indutype":"일반휴게음식 - 일반한식","category":"restaurant"},{"name":"오리진","tel":"031-654-5984","addr":"경기도 평택시 비전동 1097번지 1층 108~109호","indutype":"일반휴게음식 - 일반한식","category":"restaurant"},{"name":"와우소문난감자탕","tel":"031-655-9690","addr":"경기도 평택시 비전동 1097번지 스페이스스퀘어 201호","indutype":"일반휴게음식 - 일반한식","category":"restaurant"}]},{"lat":"37.004771524","long":"127.10197493","imageIndex":4,"items":[{"name":"순수치킨 비전점","tel":"031-665-1560","addr":"경기도 평택시 비전동 992-4번지 101호","indutype":"음식점 - 치킨","category":"restaurant"},{"name":"청년피자평택소사벌점","tel":"","addr":"경기도 평택시 비전동 992-4번지 1층 102호","indutype":"음식점 - 양식","category":"restaurant"},{"name":"청년피자평택소사벌점","tel":"070-4922-1261","addr":"경기도 평택시 비전동 992-4번지 1층 102호","indutype":"일반휴게음식 - 서양음식","category":"restaurant"},{"name":"치킨플러스 비전점","tel":"031-630-2616","addr":"경기도 평택시 비전동 992-4번지 101호","indutype":"음식점 - 치킨","category":"restaurant"},{"name":"치킨플러스 비전점","tel":"031-653-0060","addr":"경기도 평택시 비전동 992-4번지 101호","indutype":"일반휴게음식 - 스넥","category":"restaurant"}]},{"lat":"36.996498517","long":"127.10339089","imageIndex":4,"items":[{"name":"술생각","tel":"031-618-1530","addr":"경기도 평택시 비전동 817-8번지","indutype":"일반휴게음식 - 주점","category":"restaurant"},{"name":"술생각","tel":"031-656-3442","addr":"경기도 평택시 비전동 817-8번지","indutype":"음식점 - 호프","category":"restaurant"}]},{"lat":"36.997742608","long":"127.11286278","imageIndex":4,"items":[{"name":"쉼푸드","tel":"031-651-6603","addr":"경기도 평택시 비전동 866-12번지","indutype":"일반휴게음식 - 일반한식","category":"restaurant"}]},{"lat":"37.002409755","long":"127.11328519","imageIndex":4,"items":[{"name":"스시아키","tel":"031-654-7003","addr":"경기도 평택시 비전동 1063-3번지 102호","indutype":"일반휴게음식 - 일식·회집","category":"restaurant"}]},{"lat":"36.993132941","long":"127.118338","imageIndex":4,"items":[{"name":"스시유","tel":"031-651-4352","addr":"경기도 평택시 비전동 882-2번지 1층","indutype":"음식점 - 일식","category":"restaurant"}]},{"lat":"37.002548103","long":"127.10980263","imageIndex":4,"items":[{"name":"스시향 비전점","tel":"031-684-0646","addr":"경기도 평택시 비전동 1041번지 퀸즈타워 2층 113호","indutype":"일반휴게음식 - 일식·회집","category":"restaurant"},{"name":"스시향 비전점","tel":"","addr":"경기도 평택시 비전동 1041번지 퀸즈타월 113호","indutype":"음식점 - 일식","category":"restaurant"}]},{"lat":"37.000297957","long":"127.09611603","imageIndex":4,"items":[{"name":"스테이크파이터","tel":"031-656-8977","addr":"경기도 평택시 비전동 483-9번지","indutype":"음식점 - 스테이크","category":"restaurant"},{"name":"스테이크파이터","tel":"031-654-8245","addr":"경기도 평택시 비전동 483-9번지","indutype":"일반휴게음식 - 서양음식","category":"restaurant"}]},{"lat":"37.001969395","long":"127.11202628","imageIndex":4,"items":[{"name":"스팀펑크","tel":"031-618-7021","addr":"경기도 평택시 비전동 1064-3번지","indutype":"일반휴게음식 - 서양음식","category":"restaurant"}]},{"lat":"37.002051324","long":"127.11111639","imageIndex":4,"items":[{"name":"스펠","tel":"031-652-1178","addr":"경기도 평택시 비전동 1048-8번지 1층","indutype":"일반휴게음식 - 서양음식","category":"restaurant"}]},{"lat":"37.002853959","long":"127.1103648","imageIndex":4,"items":[{"name":"슬잼","tel":"","addr":"경기도 평택시 비전동 1043-4번지 101호","indutype":"일반휴게음식 - 서양음식","category":"restaurant"}]},{"lat":"37.00249343","long":"127.11047664","imageIndex":4,"items":[{"name":"승진푸드","tel":"031-654-9201","addr":"경기도 평택시 비전동 1042-2번지 101호","indutype":"일반휴게음식 - 일반한식","category":"restaurant"}]},{"lat":"37.002051201","long":"127.1112512","imageIndex":4,"items":[{"name":"시즌달토끼","tel":"031-651-9950","addr":"경기도 평택시 비전동 1048-9번지 1층","indutype":"음식점 - 일반","category":"restaurant"},{"name":"시즌달토끼","tel":"","addr":"경기도 평택시 비전동 1048-9번지 1층","indutype":"일반휴게음식 - 중국식","category":"restaurant"}]},{"lat":"37.003492787","long":"127.11138807","imageIndex":4,"items":[{"name":"식빵굽냥","tel":"070-4095-6123","addr":"경기도 평택시 비전동 1055번지 1층 101호","indutype":"일반휴게음식 - 일반한식","category":"restaurant"}]},{"lat":"37.005411189","long":"127.10208812","imageIndex":4,"items":[{"name":"신전떡볶이","tel":"031-655-7121","addr":"경기도 평택시 비전동 989-5번지","indutype":"일반휴게음식 - 일반한식","category":"restaurant"},{"name":"커피에반하다(소사벌점)","tel":"031-656-9871","addr":"경기도 평택시 비전동 989-5번지","indutype":"일반휴게음식 - 서양음식","category":"restaurant"}]},{"lat":"36.992826998","long":"127.1081939","imageIndex":4,"items":[{"name":"신진성아구찜비전점","tel":"041-651-1030","addr":"경기도 평택시 비전동 209-24번지 1층","indutype":"일반휴게음식 - 일반한식","category":"restaurant"},{"name":"신진성아구찜비전점","tel":"031-616-1881","addr":"경기도 평택시 비전동 209-24번지 1층","indutype":"음식점 - 한식","category":"restaurant"}]},{"lat":"37.002687031","long":"127.10553364","imageIndex":4,"items":[{"name":"신통치킨 비전소사점","tel":"031-655-7733","addr":"경기도 평택시 비전동 1070-1번지 강일프라자-1 101호","indutype":"음식점 - 치킨","category":"restaurant"},{"name":"신통치킨비전소사벌점","tel":"031-658-3939","addr":"경기도 평택시 비전동 1070-1번지 강일프라자-1 101호","indutype":"일반휴게음식 - 스넥","category":"restaurant"}]},{"lat":"37.001609231","long":"127.08989368","imageIndex":4,"items":[{"name":"신통치킨(낙촌점)","tel":"031-655-2525","addr":"경기도 평택시 비전동 778-6번지","indutype":"일반휴게음식 - 스넥","category":"restaurant"},{"name":"신통치킨낙촌점","tel":"031-1599-0160","addr":"경기도 평택시 비전동 778-6번지","indutype":"음식점 - 치킨","category":"restaurant"}]},{"lat":"36.999490242","long":"127.11333714","imageIndex":4,"items":[{"name":"썸","tel":"031-887-3191","addr":"경기도 평택시 비전동 1105-3번지 광장프라자 204호","indutype":"일반휴게음식 - 주점","category":"restaurant"},{"name":"썸포차","tel":"031-618-8858","addr":"경기도 평택시 비전동 1105-3번지 광장프라자 108,201,202,203호","indutype":"일반휴게음식 - 주점","category":"restaurant"},{"name":"히어로","tel":"031-651-7713","addr":"경기도 평택시 비전동 1105-3번지 광장프라자 106호","indutype":"일반휴게음식 - 일식·회집","category":"restaurant"}]},{"lat":"36.994607759","long":"127.11191465","imageIndex":4,"items":[{"name":"썸비어 (Ssome Beer)","tel":"031-657-7151","addr":"경기도 평택시 비전동 832-4번지","indutype":"일반휴게음식 - 일반한식","category":"restaurant"}]},{"lat":"37.00477129","long":"127.10225581","imageIndex":4,"items":[{"name":"아구와구","tel":"031-665-6377","addr":"경기도 평택시 비전동 992-2번지 1층","indutype":"일반휴게음식 - 일반한식","category":"restaurant"}]},{"lat":"36.99435183","long":"127.09491802","imageIndex":4,"items":[{"name":"아다지오","tel":"080-4123-2101","addr":"경기도 평택시 비전동 733-13번지 1층","indutype":"일반휴게음식 - 스넥","category":"restaurant"}]},{"lat":"36.999883076","long":"127.09660983","imageIndex":4,"items":[{"name":"아성","tel":"031-653-8234","addr":"경기도 평택시 비전동 799-1번지","indutype":"일반휴게음식 - 중국식","category":"restaurant"}]},{"lat":"37.0031054","long":"127.11130887","imageIndex":4,"items":[{"name":"아셀","tel":"","addr":"경기도 평택시 비전동 1046-4번지 1층","indutype":"일반휴게음식 - 서양음식","category":"restaurant"}]},{"lat":"37.00310641","long":"127.11019663","imageIndex":4,"items":[{"name":"아이엠케이크","tel":"031-653-2486","addr":"경기도 평택시 비전동 1044-2번지 레인보우 상가 1층","indutype":"음식점 - 떡케이크, 수제청","category":"restaurant"}]},{"lat":"36.995464432","long":"127.11119692","imageIndex":4,"items":[{"name":"안일옥","tel":"031-657-5239","addr":"경기도 평택시 비전동 829-8번지","indutype":"음식점 - 한식","category":"restaurant"},{"name":"안일옥","tel":"031-653-4183","addr":"경기도 평택시 비전동 829-8번지","indutype":"일반휴게음식 - 일반한식","category":"restaurant"}]},{"lat":"36.992661953","long":"127.11136145","imageIndex":4,"items":[{"name":"알찬밥상","tel":"","addr":"경기도 평택시 비전동 838-7번지 1층","indutype":"일반휴게음식 - 일반한식","category":"restaurant"}]},{"lat":"36.994634533","long":"127.11219553","imageIndex":4,"items":[{"name":"알천소곱창","tel":"031-658-2223","addr":"경기도 평택시 비전동 831-7번지 1층","indutype":"일반휴게음식 - 일반한식","category":"restaurant"},{"name":"투다리뉴코아점","tel":"031-658-5700","addr":"경기도 평택시 비전동 831-7번지 1층","indutype":"일반휴게음식 - 주점","category":"restaurant"}]},{"lat":"36.993631469","long":"127.09427685","imageIndex":4,"items":[{"name":"앙버거띠","tel":"031-654-5879","addr":"경기도 평택시 비전동 617-5번지 1층","indutype":"일반휴게음식 - 서양음식","category":"restaurant"},{"name":"앙버거띠","tel":"031-652-0037","addr":"경기도 평택시 비전동 617-5번지","indutype":"음식점 - 햄버거","category":"restaurant"}]},{"lat":"36.992462729","long":"127.10219486","imageIndex":4,"items":[{"name":"앤지스오븐","tel":"031-653-7572","addr":"경기도 평택시 비전동 236-22번지 동아목련아파트 상가동 103호","indutype":"음식점 - 카페","category":"restaurant"}]},{"lat":"37.002329349","long":"127.09089439","imageIndex":4,"items":[{"name":"야미가","tel":"031-654-4008","addr":"경기도 평택시 비전동 777-2번지","indutype":"일반휴게음식 - 일식·회집","category":"restaurant"}]},{"lat":"37.004941936","long":"127.1029189","imageIndex":4,"items":[{"name":"야미맘마","tel":"031-656-3456","addr":"경기도 평택시 비전동 994번지 용진프라자 110호","indutype":"음식점 - 이유식","category":"restaurant"},{"name":"카페또로롱","tel":"031-652-0545","addr":"경기도 평택시 비전동 994번지 용진프라자 110호","indutype":"음식점 - 커피","category":"restaurant"},{"name":"황당애장어","tel":"031-684-0302","addr":"경기도 평택시 비전동 994번지 101,102호","indutype":"음식점 - 한식","category":"restaurant"},{"name":"황당애장어","tel":"031-652-0545","addr":"경기도 평택시 비전동 994번지 용진프라자 101,102일부106-109,111-114호","indutype":"일반휴게음식 - 일반한식","category":"restaurant"}]},{"lat":"36.997274627","long":"127.10197644","imageIndex":4,"items":[{"name":"야한곱창","tel":"031-653-2503","addr":"경기도 평택시 비전동 808-7번지","indutype":"일반휴게음식 - 일반한식","category":"restaurant"}]},{"lat":"36.992274819","long":"127.10061074","imageIndex":4,"items":[{"name":"약족발","tel":"031-652-1045","addr":"경기도 평택시 비전동 760-6번지","indutype":"일반휴게음식 - 일반한식","category":"restaurant"},{"name":"약족발","tel":"031-658-9999","addr":"경기도 평택시 비전동 760-6번지","indutype":"음식점 - 한식","category":"restaurant"},{"name":"와이블랙비전점","tel":"","addr":"경기도 평택시 비전동 760-6번지","indutype":"일반휴게음식 - 서양음식","category":"restaurant"}]},{"lat":"36.997526163","long":"127.10288672","imageIndex":4,"items":[{"name":"양명산","tel":"031-653-6611","addr":"경기도 평택시 비전동 809번지","indutype":"일반휴게음식 - 중국식","category":"restaurant"}]},{"lat":"36.998853195","long":"127.09992264","imageIndex":4,"items":[{"name":"양의나라","tel":"031-655-8992","addr":"경기도 평택시 비전동 803-1번지 1층","indutype":"일반휴게음식 - 일반한식","category":"restaurant"},{"name":"주식회사 오즈바베큐","tel":"031-655-8992","addr":"경기도 평택시 비전동 803-1번지 4층","indutype":"일반휴게음식 - 일반한식","category":"restaurant"}]},{"lat":"36.995992257","long":"127.10533366","imageIndex":4,"items":[{"name":"양자강","tel":"031-657-8579","addr":"경기도 평택시 비전동 821-2번지 가동 1층","indutype":"일반휴게음식 - 중국식","category":"restaurant"}]},{"lat":"37.002968448","long":"127.11325229","imageIndex":4,"items":[{"name":"양푼가득","tel":"070-4763-5091","addr":"경기도 평택시 비전동 1061-1번지 1층","indutype":"일반휴게음식 - 일반한식","category":"restaurant"}]},{"lat":"36.99322074","long":"127.11122744","imageIndex":4,"items":[{"name":"어가촌","tel":"031-618-6547","addr":"경기도 평택시 비전동 835-11번지","indutype":"일반휴게음식 - 일반한식","category":"restaurant"},{"name":"어가촌","tel":"031-657-2018","addr":"경기도 평택시 비전동 835-11번지","indutype":"음식점 - 한식","category":"restaurant"},{"name":"평천면옥","tel":"031-655-8787","addr":"경기도 평택시 비전동 835-11번지","indutype":"일반휴게음식 - 일반한식","category":"restaurant"},{"name":"평천면옥","tel":"031-656-7736","addr":"경기도 평택시 비전동 835-11번지","indutype":"음식점 - 한식","category":"restaurant"}]},{"lat":"37.004601772","long":"127.10022205","imageIndex":4,"items":[{"name":"어담","tel":"031-655-3850","addr":"경기도 평택시 비전동 1001-3번지 비전스퀘어 201동 206호","indutype":"일반휴게음식 - 일반한식","category":"restaurant"}]},{"lat":"36.9998846","long":"127.11558457","imageIndex":4,"items":[{"name":"어사출또","tel":"031-651-7999","addr":"경기도 평택시 비전동 1101-4번지","indutype":"음식점 - 일식","category":"restaurant"},{"name":"어사출또 소사벌점","tel":"031-655-5114","addr":"경기도 평택시 비전동 1101-4번지 배다리정원 105호, 203호","indutype":"일반휴게음식 - 일식·회집","category":"restaurant"},{"name":"카페스라","tel":"031-655-1324","addr":"경기도 평택시 비전동 1101-4번지 배다리정원 102,103호","indutype":"일반휴게음식 - 서양음식","category":"restaurant"},{"name":"해담 (바다를 담다)","tel":"031-653-6789","addr":"경기도 평택시 비전동 1101-4번지 배다리정원 201,202호","indutype":"일반휴게음식 - 일반한식","category":"restaurant"}]},{"lat":"36.993049864","long":"127.11086773","imageIndex":4,"items":[{"name":"엄돼지먹으면은빼요","tel":"031-8029-2798","addr":"경기도 평택시 비전동 837번지 1층","indutype":"음식점 - 한식","category":"restaurant"},{"name":"엄돼지먹으면은빼요","tel":"031-652-7893","addr":"경기도 평택시 비전동 837번지 1층","indutype":"일반휴게음식 - 일반한식","category":"restaurant"}]},{"lat":"36.992630506","long":"127.1160906","imageIndex":4,"items":[{"name":"엄지고기","tel":"","addr":"경기도 평택시 비전동 886-2번지 1층","indutype":"일반휴게음식 - 일반한식","category":"restaurant"},{"name":"엄지고기","tel":"031-654-5989","addr":"경기도 평택시 비전동 886-2번지","indutype":"음식점 - 한식","category":"restaurant"}]},{"lat":"36.9975524","long":"127.1139185","imageIndex":4,"items":[{"name":"에이치에스푸드","tel":"031-654-1209","addr":"경기도 평택시 비전동 868-5번지 1층","indutype":"일반휴게음식 - 일반한식","category":"restaurant"}]},{"lat":"36.994824087","long":"127.11183633","imageIndex":4,"items":[{"name":"엘리팝","tel":"031-652-2764","addr":"경기도 평택시 비전동 832-3번지","indutype":"음식점 - 호프","category":"restaurant"}]},{"lat":"37.004022591","long":"127.10322104","imageIndex":4,"items":[{"name":"엠키친","tel":"031-651-9996","addr":"경기도 평택시 비전동 1015번지 엘도라도시티 801~803호","indutype":"일반휴게음식 - 일반한식","category":"restaurant"},{"name":"주정민돈가스","tel":"031-652-0327","addr":"경기도 평택시 비전동 1015번지 엘도라도시티 110호","indutype":"일반휴게음식 - 서양음식","category":"restaurant"},{"name":"파파존스","tel":"031-651-7474","addr":"경기도 평택시 비전동 1015번지 엘도라도시티 201호","indutype":"음식점 - 피자","category":"restaurant"},{"name":"파파존스평택점","tel":"031-651-8081","addr":"경기도 평택시 비전동 1015번지 엘도라도 201호","indutype":"일반휴게음식 - 서양음식","category":"restaurant"},{"name":"피자스쿨 평택소사벌점","tel":"031-618-0502","addr":"경기도 평택시 비전동 1015번지 엘도라도시티 106호","indutype":"음식점 - 피자","category":"restaurant"},{"name":"피자스쿨평택소사벌점","tel":"031-656-3656","addr":"경기도 평택시 비전동 1015번지 엘도라도시티 106호","indutype":"일반휴게음식 - 서양음식","category":"restaurant"}]},{"lat":"37.005772429","long":"127.10111113","imageIndex":4,"items":[{"name":"여기맛나","tel":"","addr":"경기도 평택시 비전동 984-5번지 솔로몬빌 1층","indutype":"일반휴게음식 - 일반한식","category":"restaurant"}]},{"lat":"37.000498609","long":"127.11422611","imageIndex":4,"items":[{"name":"역전할머니맥주 소사벌점","tel":"031-111-1111","addr":"경기도 평택시 비전동 1100-2번지 트러스트원빌딩 102-2,103,104-2,105-2,106호","indutype":"일반휴게음식 - 주점","category":"restaurant"},{"name":"청담이상평택비전점","tel":"031-654-3327","addr":"경기도 평택시 비전동 1100-2번지 트러스트원빌딩 201,202호","indutype":"일반휴게음식 - 일식·회집","category":"restaurant"},{"name":"칸지고고소사벌점","tel":"031-691-9908","addr":"경기도 평택시 비전동 1100-2번지 트러스트원빌딩 3층","indutype":"일반휴게음식 - 중국식","category":"restaurant"},{"name":"한신포차평택소사벌점","tel":"031-618-3331","addr":"경기도 평택시 비전동 1100-2번지 트러스트원빌딩 101,102-1,104-1,105-1호","indutype":"일반휴게음식 - 일반한식","category":"restaurant"}]},{"lat":"37.002322957","long":"127.1096675","imageIndex":4,"items":[{"name":"연우참치","tel":"031-652-6777","addr":"경기도 평택시 비전동 1040-2번지","indutype":"음식점 - 일식","category":"restaurant"},{"name":"연우참치전문점","tel":"031-655-1040","addr":"경기도 평택시 비전동 1040-2번지 1층","indutype":"일반휴게음식 - 일식·회집","category":"restaurant"}]},{"lat":"36.993220924","long":"127.11102524","imageIndex":4,"items":[{"name":"영광굴비","tel":"031-618-6547","addr":"경기도 평택시 비전동 835-12번지","indutype":"음식점 - 한식","category":"restaurant"},{"name":"영광굴비백반","tel":"031-654-1170","addr":"경기도 평택시 비전동 835-12번지","indutype":"일반휴게음식 - 일반한식","category":"restaurant"},{"name":"이웃집","tel":"031-654-1170","addr":"경기도 평택시 비전동 835-12번지","indutype":"음식점 - 한식","category":"restaurant"},{"name":"이웃집","tel":"031-655-7796","addr":"경기도 평택시 비전동 835-12번지","indutype":"일반휴게음식 - 일반한식","category":"restaurant"}]},{"lat":"37.005131905","long":"127.10203158","imageIndex":4,"items":[{"name":"영구스 까사망 피자 평택점","tel":"031-618-7700","addr":"경기도 평택시 비전동 990-1번지 101호","indutype":"음식점 - 피자","category":"restaurant"},{"name":"영구스까사맘피자 평택점","tel":"02-000-0000","addr":"경기도 평택시 비전동 990-1번지 101호","indutype":"일반휴게음식 - 서양음식","category":"restaurant"}]},{"lat":"36.9936938","long":"127.11605847","imageIndex":4,"items":[{"name":"옛날장터치킨비전점","tel":"031-652-9912","addr":"경기도 평택시 비전동 879-5번지 상가동109","indutype":"일반휴게음식 - 스넥","category":"restaurant"}]},{"lat":"37.001606696","long":"127.09328651","imageIndex":4,"items":[{"name":"오가면옥","tel":"031-658-0069","addr":"경기도 평택시 비전동 787-2번지","indutype":"일반휴게음식 - 일반한식","category":"restaurant"}]},{"lat":"36.999524315","long":"127.09447488","imageIndex":4,"items":[{"name":"오김떡","tel":"070-8621-5168","addr":"경기도 평택시 비전동 산108-10번지 1층","indutype":"일반휴게음식 - 스넥","category":"restaurant"}]},{"lat":"37.001384046","long":"127.08978108","imageIndex":4,"items":[{"name":"오마이케이크","tel":"031-691-6319","addr":"경기도 평택시 비전동 433-21번지 1층","indutype":"음식점 - 케이크","category":"restaurant"}]},{"lat":"36.997219654","long":"127.11322152","imageIndex":4,"items":[{"name":"오비캠프비전점","tel":"031-657-1003","addr":"경기도 평택시 비전동 866-7번지","indutype":"일반휴게음식 - 주점","category":"restaurant"}]},{"lat":"37.003159894","long":"127.11083709","imageIndex":4,"items":[{"name":"오퍼커피","tel":"070-8822-2006","addr":"경기도 평택시 비전동 1045-1번지 1층 101호","indutype":"일반휴게음식 - 서양음식","category":"restaurant"}]},{"lat":"36.992716204","long":"127.1007798","imageIndex":4,"items":[{"name":"옥이치킨","tel":"031-651-5279","addr":"경기도 평택시 비전동 760-2번지","indutype":"일반휴게음식 - 스넥","category":"restaurant"},{"name":"지정환 임실피자 평택비전점","tel":"031-618-8485","addr":"경기도 평택시 비전동 760-2번지","indutype":"일반휴게음식 - 서양음식","category":"restaurant"},{"name":"지정환임실치즈피자평택비전점","tel":"031-652-1045","addr":"경기도 평택시 비전동 760-2번지 1층","indutype":"음식점 - 피자","category":"restaurant"}]},{"lat":"37.002106123","long":"127.11030757","imageIndex":4,"items":[{"name":"요거프레소 평택수변공원점","tel":"031-618-0071","addr":"경기도 평택시 비전동 1048-2번지","indutype":"일반휴게음식 - 서양음식","category":"restaurant"}]},{"lat":"37.00199653","long":"127.11191397","imageIndex":4,"items":[{"name":"우가온","tel":"031-692-5022","addr":"경기도 평택시 비전동 1064-2번지","indutype":"음식점 - 한식","category":"restaurant"},{"name":"우가온","tel":"031-655-4927","addr":"경기도 평택시 비전동 1064-2번지 1층","indutype":"일반휴게음식 - 일반한식","category":"restaurant"}]},{"lat":"37.008992599","long":"127.10772183","imageIndex":4,"items":[{"name":"우가온비전점","tel":"031-655-4927","addr":"경기도 평택시 비전동 47-15번지","indutype":"일반휴게음식 - 일반한식","category":"restaurant"}]},{"lat":"36.990997177","long":"127.10892152","imageIndex":4,"items":[{"name":"우도갈비막국수","tel":"","addr":"경기도 평택시 비전동 854-7번지 1층","indutype":"일반휴게음식 - 일반한식","category":"restaurant"}]},{"lat":"36.995580276","long":"127.09097648","imageIndex":4,"items":[{"name":"우리밀칼국수맛고을식당","tel":"031-656-0077","addr":"경기도 평택시 비전동 621-8","indutype":"일반휴게음식 - 일반한식","category":"restaurant"}]},{"lat":"36.993220664","long":"127.10094895","imageIndex":4,"items":[{"name":"우리콩집","tel":"031-655-7849","addr":"경기도 평택시 비전동 756-14번지","indutype":"일반휴게음식 - 일반한식","category":"restaurant"}]},{"lat":"37.003161303","long":"127.10927546","imageIndex":4,"items":[{"name":"웅이네오돌뼈 소사벌점","tel":"031-653-5233","addr":"경기도 평택시 비전동 1037-2번지 스마트빌 1층","indutype":"일반휴게음식 - 일반한식","category":"restaurant"}]},{"lat":"37.002131297","long":"127.090647","imageIndex":4,"items":[{"name":"원조멸치국수 평택비전점","tel":"031-692-3324","addr":"경기도 평택시 비전동 778-2번지 1층","indutype":"일반휴게음식 - 일반한식","category":"restaurant"}]},{"lat":"36.994409936","long":"127.10111898","imageIndex":4,"items":[{"name":"웬즈데이앨리스(Wednesdayalice)","tel":"031-654-4524","addr":"경기도 평택시 비전동 751번지 1층","indutype":"일반휴게음식 - 서양음식","category":"restaurant"}]},{"lat":"36.999912077","long":"127.09408214","imageIndex":4,"items":[{"name":"웰덤치킨비전점","tel":"031-655-9298","addr":"경기도 평택시 비전동 790번지","indutype":"일반휴게음식 - 스넥","category":"restaurant"},{"name":"차차리또","tel":"","addr":"경기도 평택시 비전동 790번지 1층","indutype":"일반휴게음식 - 일반한식","category":"restaurant"}]},{"lat":"36.994913397","long":"127.11270144","imageIndex":4,"items":[{"name":"위너파티하우스 평택점","tel":"031-654-2277","addr":"경기도 평택시 비전동 830-2번지 6층","indutype":"일반휴게음식 - 일반한식","category":"restaurant"},{"name":"클래식","tel":"031-658-9289","addr":"경기도 평택시 비전동 830-2번지 1층","indutype":"음식점 - 일반","category":"restaurant"},{"name":"클래식(classic)","tel":"031-655-8897","addr":"경기도 평택시 비전동 830-2번지 1층","indutype":"일반휴게음식 - 서양음식","category":"restaurant"}]},{"lat":"36.997212294","long":"127.08950672","imageIndex":4,"items":[{"name":"위대한푸드","tel":"031-651-0722","addr":"경기도 평택시 비전동 628-1번지","indutype":"일반휴게음식 - 일반한식","category":"restaurant"}]},{"lat":"36.994493079","long":"127.09861401","imageIndex":4,"items":[{"name":"유로코피자","tel":"031-657-1458","addr":"경기도 평택시 비전동 749-14번지","indutype":"음식점 - 피자","category":"restaurant"},{"name":"유로코피자","tel":"031-653-1838","addr":"경기도 평택시 비전동 749-14번지","indutype":"일반휴게음식 - 서양음식","category":"restaurant"}]},{"lat":"36.995545521","long":"127.08922399","imageIndex":4,"items":[{"name":"유정통닭","tel":"031-655-2036","addr":"경기도 평택시 비전동 626-45번지","indutype":"일반휴게음식 - 일반한식","category":"restaurant"},{"name":"일미리푸드","tel":"031-656-8390","addr":"경기도 평택시 비전동 626-45번지","indutype":"일반휴게음식 - 일반한식","category":"restaurant"}]},{"lat":"36.992908194","long":"127.10808168","imageIndex":4,"items":[{"name":"육선생면제자","tel":"031-655-7664","addr":"경기도 평택시 비전동 209-21번지","indutype":"음식점 - 한식","category":"restaurant"},{"name":"육선생면제자","tel":"031-651-0329","addr":"경기도 평택시 비전동 209-21번지","indutype":"일반휴게음식 - 일반한식","category":"restaurant"}]},{"lat":"37.009850265","long":"127.1058354","imageIndex":4,"items":[{"name":"육전미락","tel":"031-656-6002","addr":"경기도 평택시 비전동 47-10번지 2층","indutype":"일반휴게음식 - 일반한식","category":"restaurant"},{"name":"육전미락","tel":"031-653-0733","addr":"경기도 평택시 비전동 47-10번지 2층","indutype":"음식점 - 한식","category":"restaurant"},{"name":"파주옥","tel":"031-691-4006","addr":"경기도 평택시 비전동 47-10번지 1층","indutype":"음식점 - 한식","category":"restaurant"},{"name":"파주옥(비전점)","tel":"031-653-9680","addr":"경기도 평택시 비전동 47-10번지 1층","indutype":"음식점 - 한식","category":"restaurant"}]},{"lat":"37.005050874","long":"127.10195283","imageIndex":4,"items":[{"name":"윤셰프의 해피박스","tel":"","addr":"경기도 평택시 비전동 990-2번지 1층","indutype":"일반휴게음식 - 일반한식","category":"restaurant"}]},{"lat":"37.005690595","long":"127.1019986","imageIndex":4,"items":[{"name":"응급실국물떡복이 평택비전1호점","tel":"","addr":"경기도 평택시 비전동 987-1번지 102호","indutype":"일반휴게음식 - 스넥","category":"restaurant"}]},{"lat":"36.993049413","long":"127.111362","imageIndex":4,"items":[{"name":"이가네정식","tel":"031-653-6100","addr":"경기도 평택시 비전동 838번지","indutype":"음식점 - 한식","category":"restaurant"},{"name":"이가네정식","tel":"031-657-4380","addr":"경기도 평택시 비전동 838번지 1층","indutype":"일반휴게음식 - 일반한식","category":"restaurant"},{"name":"이루면","tel":"031-657-8627","addr":"경기도 평택시 비전동 838번지","indutype":"일반휴게음식 - 일반한식","category":"restaurant"}]},{"lat":"36.992358492","long":"127.10813709","imageIndex":4,"items":[{"name":"이대감양푼이동태탕","tel":"031-618-6692","addr":"경기도 평택시 비전동 192-5번지","indutype":"음식점 - 한식","category":"restaurant"},{"name":"이대감양푼이생태랑동태랑","tel":"031-656-8210","addr":"경기도 평택시 비전동 192-5번지 1층","indutype":"일반휴게음식 - 일반한식","category":"restaurant"}]},{"lat":"37.005158305","long":"127.10278436","imageIndex":4,"items":[{"name":"이디야 평택이곡점","tel":"031-654-1116","addr":"경기도 평택시 비전동 993-2번지 1층","indutype":"일반휴게음식 - 서양음식","category":"restaurant"}]},{"lat":"36.991243253","long":"127.10575415","imageIndex":4,"items":[{"name":"이디야커피평택비전중앙점","tel":"031-657-0195","addr":"경기도 평택시 비전동 764-21번지","indutype":"일반휴게음식 - 서양음식","category":"restaurant"}]},{"lat":"37.001969033","long":"127.11241949","imageIndex":4,"items":[{"name":"이솝가드닝까페","tel":"031-651-3553","addr":"경기도 평택시 비전동 1064-6번지","indutype":"일반휴게음식 - 서양음식","category":"restaurant"}]},{"lat":"37.000218094","long":"127.09453188","imageIndex":4,"items":[{"name":"이스케(평택점)","tel":"031-651-7240","addr":"경기도 평택시 비전동 793-11번지 1층","indutype":"일반휴게음식 - 스넥","category":"restaurant"}]},{"lat":"36.993580488","long":"127.11196935","imageIndex":4,"items":[{"name":"이엔256","tel":"031-655-6414","addr":"경기도 평택시 비전동 834-10번지","indutype":"음식점 - 중식","category":"restaurant"},{"name":"이엔256","tel":"031-655-2560","addr":"경기도 평택시 비전동 834-10번지","indutype":"일반휴게음식 - 중국식","category":"restaurant"}]},{"lat":"37.002602863","long":"127.10902751","imageIndex":4,"items":[{"name":"이정칼국수모밀","tel":"031-816-3611","addr":"경기도 평택시 비전동 1039-3번지 1층","indutype":"일반휴게음식 - 일반한식","category":"restaurant"}]},{"lat":"36.995967776","long":"127.10233423","imageIndex":4,"items":[{"name":"이조갈비","tel":"031-654-5033","addr":"경기도 평택시 비전동 273-19번지","indutype":"일반휴게음식 - 일반한식","category":"restaurant"},{"name":"홍가네유황오리","tel":"031-653-0208","addr":"경기도 평택시 비전동 273-19번지","indutype":"일반휴게음식 - 일반한식","category":"restaurant"}]},{"lat":"36.993107027","long":"127.09661275","imageIndex":4,"items":[{"name":"이층마카롱(2_macaron)","tel":"031-000-0000","addr":"경기도 평택시 비전동 739-15번지 2층","indutype":"일반휴게음식 - 서양음식","category":"restaurant"}]},{"lat":"37.000577746","long":"127.09553218","imageIndex":4,"items":[{"name":"이태리하우스","tel":"031-656-2786","addr":"경기도 평택시 비전동 793-1번지","indutype":"일반휴게음식 - 서양음식","category":"restaurant"}]},{"lat":"36.994106437","long":"127.10828553","imageIndex":4,"items":[{"name":"이화뜰","tel":"031-653-9910","addr":"경기도 평택시 비전동 210-12번지","indutype":"음식점 - 한식","category":"restaurant"},{"name":"이화뜰","tel":"031-651-0090","addr":"경기도 평택시 비전동 210-12번지 1층","indutype":"일반휴게음식 - 일반한식","category":"restaurant"}]},{"lat":"36.993550304","long":"127.09436662","imageIndex":4,"items":[{"name":"인생닭강정비전점","tel":"070-4078-4567","addr":"경기도 평택시 비전동 731-1번지","indutype":"일반휴게음식 - 스넥","category":"restaurant"},{"name":"파리바게뜨 평택성동점","tel":"031-653-2378","addr":"경기도 평택시 비전동 731-1번지","indutype":"음식점 - 제과점","category":"restaurant"}]},{"lat":"37.005104525","long":"127.10244724","imageIndex":4,"items":[{"name":"일등떡볶이 평택점","tel":"031-651-9166","addr":"경기도 평택시 비전동 993-5번지","indutype":"음식점 - 분식","category":"restaurant"},{"name":"일등떡볶이 평택점","tel":"031-691-3311","addr":"경기도 평택시 비전동 993-5번지 1층","indutype":"일반휴게음식 - 스넥","category":"restaurant"}]},{"lat":"36.991215429","long":"127.10666399","imageIndex":4,"items":[{"name":"일일치킨 비전점","tel":"031-651-1172","addr":"경기도 평택시 비전동 764-22번지 1층","indutype":"일반휴게음식 - 스넥","category":"restaurant"}]},{"lat":"37.00507814","long":"127.10167199","imageIndex":4,"items":[{"name":"일품짜장","tel":"031-655-3223","addr":"경기도 평택시 비전동 990-6번지 1층","indutype":"일반휴게음식 - 중국식","category":"restaurant"},{"name":"일품짜장","tel":"","addr":"경기도 평택시 비전동 990-6번지 1층","indutype":"음식점 - 중식","category":"restaurant"}]},{"lat":"37.000609045","long":"127.08989254","imageIndex":4,"items":[{"name":"임배메이드","tel":"031-657-0658","addr":"경기도 평택시 비전동 473-31번지 1층","indutype":"음식점 - 카페","category":"restaurant"},{"name":"임배메이드","tel":"031-225-2300","addr":"경기도 평택시 비전동 473-31번지 1층","indutype":"일반휴게음식 - 서양음식","category":"restaurant"}]},{"lat":"37.005572749","long":"127.10284108","imageIndex":4,"items":[{"name":"자연회맛섬","tel":"031-655-5034","addr":"경기도 평택시 비전동 988-3번지 1층","indutype":"일반휴게음식 - 일반한식","category":"restaurant"},{"name":"자연회맛섬","tel":"031-654-5348","addr":"경기도 평택시 비전동 988-3번지","indutype":"음식점 - 한식","category":"restaurant"}]},{"lat":"36.995185863","long":"127.09989551","imageIndex":4,"items":[{"name":"장안면옥","tel":"031-655-3128","addr":"경기도 평택시 비전동 256-4번지","indutype":"일반휴게음식 - 일반한식","category":"restaurant"}]},{"lat":"36.997408177","long":"127.11397446","imageIndex":4,"items":[{"name":"장충동뚱뚱이할머니족발보쌈","tel":"031-655-7885","addr":"경기도 평택시 비전동 868-6번지","indutype":"일반휴게음식 - 일반한식","category":"restaurant"}]},{"lat":"36.995550427","long":"127.09469479","imageIndex":4,"items":[{"name":"장터치킨비전점","tel":"031-654-2224","addr":"경기도 평택시 비전동 602-4번지 1층","indutype":"일반휴게음식 - 스넥","category":"restaurant"},{"name":"짱가네분식","tel":"031-618-9191","addr":"경기도 평택시 비전동 602-4번지","indutype":"일반휴게음식 - 스넥","category":"restaurant"}]},{"lat":"36.997101965","long":"127.09247234","imageIndex":4,"items":[{"name":"재랭이 대전 흑염소 국밥","tel":"031-653-0368","addr":"경기도 평택시 비전동 605-7번지","indutype":"음식점 - 한식","category":"restaurant"}]},{"lat":"36.997463369","long":"127.09116963","imageIndex":4,"items":[{"name":"재랭이김밥","tel":"031-656-5859","addr":"경기도 평택시 비전동 576-4번지 1층","indutype":"일반휴게음식 - 스넥","category":"restaurant"},{"name":"재랭이김밥","tel":"","addr":"경기도 평택시 비전동 576-4번지","indutype":"음식점 - 분식","category":"restaurant"}]},{"lat":"36.991492715","long":"127.10897838","imageIndex":4,"items":[{"name":"재미나황태바지락칼국수","tel":"031-691-9292","addr":"경기도 평택시 비전동 854-11번지","indutype":"일반휴게음식 - 일반한식","category":"restaurant"},{"name":"재미나황태바지락칼국수","tel":"031-656-8210","addr":"경기도 평택시 비전동 854-11번지","indutype":"음식점 - 한식","category":"restaurant"}]},{"lat":"36.993856329","long":"127.09480509","imageIndex":4,"items":[{"name":"재홍분식","tel":"031-654-2773","addr":"경기도 평택시 비전동 732-11번지","indutype":"음식점 - 분식","category":"restaurant"},{"name":"재흥분식","tel":"031-652-9094","addr":"경기도 평택시 비전동 732-11번지","indutype":"일반휴게음식 - 일반한식","category":"restaurant"}]},{"lat":"36.999605903","long":"127.09383463","imageIndex":4,"items":[{"name":"전주정육점식당","tel":"031-657-0606","addr":"경기도 평택시 비전동 790-5번지 1층","indutype":"일반휴게음식 - 일반한식","category":"restaurant"}]},{"lat":"37.002268792","long":"127.10977977","imageIndex":4,"items":[{"name":"정성국밥","tel":"031-654-3559","addr":"경기도 평택시 비전동 1040-3번지 1층","indutype":"일반휴게음식 - 일반한식","category":"restaurant"}]},{"lat":"37.002661719","long":"127.11364506","imageIndex":4,"items":[{"name":"정씨함박","tel":"031-657-1487","addr":"경기도 평택시 비전동 1062-1번지 1층","indutype":"일반휴게음식 - 서양음식","category":"restaurant"}]},{"lat":"37.005239307","long":"127.10289682","imageIndex":4,"items":[{"name":"정장군 소사벌점","tel":"031-654-6108","addr":"경기도 평택시 비전동 993-1번지","indutype":"일반휴게음식 - 일반한식","category":"restaurant"},{"name":"정장군소사벌점","tel":"031-691-3311","addr":"경기도 평택시 비전동 993-1번지","indutype":"음식점 - 한식","category":"restaurant"}]},{"lat":"36.996409076","long":"127.09122458","imageIndex":4,"items":[{"name":"정통명가설렁탕","tel":"031-652-6303","addr":"경기도 평택시 비전동 624-9번지","indutype":"일반휴게음식 - 일반한식","category":"restaurant"}]},{"lat":"36.99160281","long":"127.10675438","imageIndex":4,"items":[{"name":"제물국수","tel":"031-691-8033","addr":"경기도 평택시 비전동 766-2번지 성신빌딩 1층","indutype":"일반휴게음식 - 일반한식","category":"restaurant"},{"name":"제물국수","tel":"031-653-0456","addr":"경기도 평택시 비전동 766-2번지","indutype":"음식점 - 한식","category":"restaurant"}]},{"lat":"37.001437665","long":"127.09038781","imageIndex":4,"items":[{"name":"제주보말칼국수","tel":"031-654-5969","addr":"경기도 평택시 비전동 778-5번지","indutype":"일반휴게음식 - 일반한식","category":"restaurant"}]},{"lat":"37.005744122","long":"127.10263907","imageIndex":4,"items":[{"name":"조가네부대찌개(소사벌점)","tel":"031-652-0329","addr":"경기도 평택시 비전동 988-1번지","indutype":"일반휴게음식 - 일반한식","category":"restaurant"}]},{"lat":"37.01140645","long":"127.10885998","imageIndex":4,"items":[{"name":"조갈시대","tel":"031-691-7515","addr":"경기도 평택시 비전동 38-4번지","indutype":"일반휴게음식 - 일반한식","category":"restaurant"}]},{"lat":"36.996912199","long":"127.11438939","imageIndex":4,"items":[{"name":"조개야","tel":"031-618-3555","addr":"경기도 평택시 비전동 873-2번지 1층","indutype":"일반휴게음식 - 일반한식","category":"restaurant"}]},{"lat":"37.003743783","long":"127.11280402","imageIndex":4,"items":[{"name":"조이포","tel":"031-653-7774","addr":"경기도 평택시 비전동 1056-4번지 1층","indutype":"일반휴게음식 - 일반한식","category":"restaurant"},{"name":"조이포","tel":"031-651-3337","addr":"경기도 평택시 비전동 1056-4번지 1층","indutype":"음식점 - 한식","category":"restaurant"}]},{"lat":"36.994553884","long":"127.10138877","imageIndex":4,"items":[{"name":"종가집","tel":"031-651-3344","addr":"경기도 평택시 비전동 250-24번지","indutype":"일반휴게음식 - 일반한식","category":"restaurant"}]},{"lat":"36.993661326","long":"127.1122503","imageIndex":4,"items":[{"name":"주식회사참치현","tel":"031-651-3746","addr":"경기도 평택시 비전동 842-5번지 1층","indutype":"일반휴게음식 - 일반한식","category":"restaurant"},{"name":"참치현","tel":"031-651-3746","addr":"경기도 평택시 비전동 842-5번지","indutype":"일반휴게음식 - 일반한식","category":"restaurant"},{"name":"참치현2","tel":"031-656-7715","addr":"경기도 평택시 비전동 842-5번지","indutype":"음식점 - 일식","category":"restaurant"},{"name":"첼로","tel":"031-655-7665","addr":"경기도 평택시 비전동 842-5번지 1층","indutype":"일반휴게음식 - 주점","category":"restaurant"}]},{"lat":"36.996796269","long":"127.10291946","imageIndex":4,"items":[{"name":"준수산","tel":"031-655-9103","addr":"경기도 평택시 비전동 818-4번지 1층","indutype":"음식점 - 한식","category":"restaurant"},{"name":"준수산","tel":"031-618-1552","addr":"경기도 평택시 비전동 818-4번지 1층 코너2칸","indutype":"일반휴게음식 - 일반한식","category":"restaurant"},{"name":"피자알볼로평택점","tel":"031-655-8495","addr":"경기도 평택시 비전동 818-4번지","indutype":"일반휴게음식 - 서양음식","category":"restaurant"}]},{"lat":"37.001968753","long":"127.11272282","imageIndex":4,"items":[{"name":"준카페","tel":"031-111-1111","addr":"경기도 평택시 비전동 1064-8번지 1층","indutype":"일반휴게음식 - 서양음식","category":"restaurant"}]},{"lat":"36.992636585","long":"127.09897115","imageIndex":4,"items":[{"name":"중앙식당","tel":"031-692-3401","addr":"경기도 평택시 비전동 759-25번지","indutype":"일반휴게음식 - 일반한식","category":"restaurant"}]},{"lat":"36.996742422","long":"127.11286134","imageIndex":4,"items":[{"name":"중화요리 차우","tel":"031-618-1152","addr":"경기도 평택시 비전동 871-13번지","indutype":"일반휴게음식 - 중국식","category":"restaurant"},{"name":"차우","tel":"031-651-1034","addr":"경기도 평택시 비전동 871-13번지","indutype":"음식점 - 중식","category":"restaurant"}]},{"lat":"36.996102861","long":"127.10242427","imageIndex":4,"items":[{"name":"지리산흑돼지","tel":"031-658-3003","addr":"경기도 평택시 비전동 273-12번지","indutype":"음식점 - 한식","category":"restaurant"},{"name":"지리산흑돼지","tel":"031-657-5333","addr":"경기도 평택시 비전동 273-12번지","indutype":"일반휴게음식 - 일반한식","category":"restaurant"}]},{"lat":"36.996602925","long":"127.10769359","imageIndex":4,"items":[{"name":"지코바양념치킨","tel":"031-653-1838","addr":"경기도 평택시 비전동 825-5번지","indutype":"음식점 - 치킨","category":"restaurant"},{"name":"지코바양념치킨","tel":"031-651-9282","addr":"경기도 평택시 비전동 825-5번지","indutype":"일반휴게음식 - 스넥","category":"restaurant"}]},{"lat":"36.996831388","long":"127.11408596","imageIndex":4,"items":[{"name":"지현","tel":"","addr":"경기도 평택시 비전동 873번지 지하층","indutype":"일반휴게음식 - 일반한식","category":"restaurant"},{"name":"최씨네칼국수","tel":"031-657-0002","addr":"경기도 평택시 비전동 873번지","indutype":"음식점 - 한식","category":"restaurant"},{"name":"최씨네칼국수","tel":"031-658-8847","addr":"경기도 평택시 비전동 873번지","indutype":"일반휴게음식 - 일반한식","category":"restaurant"}]},{"lat":"37.002878467","long":"127.11311734","imageIndex":4,"items":[{"name":"진순자계란말이김밥소사벌점","tel":"031-683-4789","addr":"경기도 평택시 비전동 1061번지 1층","indutype":"일반휴게음식 - 일반한식","category":"restaurant"}]},{"lat":"37.002743494","long":"127.11291492","imageIndex":4,"items":[{"name":"착한곱 한우곱창","tel":"","addr":"경기도 평택시 비전동 1060-7번지 1층 101호","indutype":"일반휴게음식 - 일반한식","category":"restaurant"}]},{"lat":"37.000767233","long":"127.09519538","imageIndex":4,"items":[{"name":"찬찬치킨비전점","tel":"031-651-3219","addr":"경기도 평택시 비전동 794-8번지","indutype":"일반휴게음식 - 스넥","category":"restaurant"}]},{"lat":"36.992355405","long":"127.10122867","imageIndex":4,"items":[{"name":"참살이빵","tel":"031-618-8485","addr":"경기도 평택시 비전동 761번지","indutype":"음식점 - 제과점","category":"restaurant"}]},{"lat":"36.997101498","long":"127.11431103","imageIndex":4,"items":[{"name":"참치명가평택점","tel":"031-653-3788","addr":"경기도 평택시 비전동 870-5번지","indutype":"일반휴게음식 - 일식·회집","category":"restaurant"}]},{"lat":"36.99051969","long":"127.108831","imageIndex":4,"items":[{"name":"처갓집양념치킨비전점","tel":"031-658-9989","addr":"경기도 평택시 비전동 855-3번지 1층","indutype":"일반휴게음식 - 스넥","category":"restaurant"}]},{"lat":"37.003104813","long":"127.11194925","imageIndex":4,"items":[{"name":"처갓집양념치킨소사벌점","tel":"031-656-8292","addr":"경기도 평택시 비전동 1053번지 1층","indutype":"일반휴게음식 - 스넥","category":"restaurant"}]},{"lat":"36.991881629","long":"127.10733888","imageIndex":4,"items":[{"name":"천상대게평택점","tel":"031-618-6655","addr":"경기도 평택시 비전동 191-7번지","indutype":"일반휴게음식 - 일반한식","category":"restaurant"}]},{"lat":"36.994108993","long":"127.09433359","imageIndex":4,"items":[{"name":"철가방","tel":"031-651-3224","addr":"경기도 평택시 비전동 615-9번지 1층","indutype":"일반휴게음식 - 일반한식","category":"restaurant"},{"name":"철가방","tel":"031-658-2863","addr":"경기도 평택시 비전동 615-9번지","indutype":"음식점 - 중식","category":"restaurant"}]},{"lat":"36.994242923","long":"127.09591767","imageIndex":4,"items":[{"name":"청소년카페모모","tel":"031-652-1318","addr":"경기도 평택시 비전동 738-35번지 A동 1층","indutype":"일반휴게음식 - 일반한식","category":"restaurant"},{"name":"청소년카페모모","tel":"031-656-1275","addr":"경기도 평택시 비전동 738-35번지 A동 1,2층","indutype":"음식점 - 휴게음식","category":"restaurant"}]},{"lat":"36.994631336","long":"127.09469368","imageIndex":4,"items":[{"name":"초록별","tel":"","addr":"경기도 평택시 비전동 729-3번지","indutype":"서비스업 - 사진촬영, 휴게음식","category":"restaurant"}]},{"lat":"37.008905431","long":"127.10433978","imageIndex":4,"items":[{"name":"치킨박스2호점","tel":"031-657-8825","addr":"경기도 평택시 비전동 967번지 뜨레휴이곡마을7단지 상가동 105호","indutype":"일반휴게음식 - 스넥","category":"restaurant"}]},{"lat":"36.991773531","long":"127.10730503","imageIndex":4,"items":[{"name":"친구포차(비전점)","tel":"","addr":"경기도 평택시 비전동 190-22번지 승진빌딩 1층","indutype":"일반휴게음식 - 주점","category":"restaurant"},{"name":"한전식당","tel":"031-618-9298","addr":"경기도 평택시 비전동 190-22번지 외1필지(190-9)","indutype":"일반휴게음식 - 일반한식","category":"restaurant"}]},{"lat":"37.002328763","long":"127.11317272","imageIndex":4,"items":[{"name":"칠미아구찜","tel":"031-651-8529","addr":"경기도 평택시 비전동 1063-2번지 성호빌 상가 1층","indutype":"일반휴게음식 - 일반한식","category":"restaurant"}]},{"lat":"36.995497902","long":"127.10389509","imageIndex":4,"items":[{"name":"카스랑2호점","tel":"031-657-3724","addr":"경기도 평택시 비전동 820번지 수신제가아파트 103동 104호","indutype":"음식점 - 호프","category":"restaurant"}]},{"lat":"36.992997394","long":"127.09849981","imageIndex":4,"items":[{"name":"카카오츄로평택비전점","tel":"031-655-5630","addr":"경기도 평택시 비전동 747-18번지","indutype":"일반휴게음식 - 스넥","category":"restaurant"}]},{"lat":"36.993439974","long":"127.10791391","imageIndex":4,"items":[{"name":"카페 빈들에","tel":"","addr":"경기도 평택시 비전동 214-8번지 지하1층 지상1층","indutype":"일반휴게음식 - 서양음식","category":"restaurant"},{"name":"카페빈들에","tel":"031-691-4171","addr":"경기도 평택시 비전동 214-8번지 1층","indutype":"음식점 - 카페","category":"restaurant"}]},{"lat":"36.993851394","long":"127.10097223","imageIndex":4,"items":[{"name":"카페드플라","tel":"031-654-2225","addr":"경기도 평택시 비전동 751-14번지","indutype":"일반휴게음식 - 서양음식","category":"restaurant"}]},{"lat":"37.003329573","long":"127.11250008","imageIndex":4,"items":[{"name":"카페마마","tel":"031-653-0553","addr":"경기도 평택시 비전동 1053-9번지 1층","indutype":"일반휴게음식 - 서양음식","category":"restaurant"},{"name":"카페마마","tel":"031-657-6969","addr":"경기도 평택시 비전동 1053-9번지 1층","indutype":"음식점 - 양식","category":"restaurant"}]},{"lat":"37.003933847","long":"127.11189426","imageIndex":4,"items":[{"name":"카페메이","tel":"031-651-5636","addr":"경기도 평택시 비전동 1055-5번지 1층","indutype":"음식점 - 카페","category":"restaurant"},{"name":"카페메이","tel":"031-654-0679","addr":"경기도 평택시 비전동 1055-5번지 1층","indutype":"일반휴게음식 - 서양음식","category":"restaurant"}]},{"lat":"37.002078837","long":"127.1105884","imageIndex":4,"items":[{"name":"카페밀도","tel":"031-656-2155","addr":"경기도 평택시 비전동 1048-4번지","indutype":"일반휴게음식 - 서양음식","category":"restaurant"}]},{"lat":"36.992799493","long":"127.09808393","imageIndex":4,"items":[{"name":"카페부오노","tel":"031-618-7222","addr":"경기도 평택시 비전동 747-7번지 1,2층","indutype":"음식점 - 카페","category":"restaurant"},{"name":"카페부오노","tel":"031-652-7133","addr":"경기도 평택시 비전동 747-7번지 ,1,2층","indutype":"일반휴게음식 - 서양음식","category":"restaurant"}]},{"lat":"36.993076539","long":"127.1008926","imageIndex":4,"items":[{"name":"카페쿠잉","tel":"031-657-7953","addr":"경기도 평택시 비전동 756-5번지 1층","indutype":"일반휴게음식 - 서양음식","category":"restaurant"}]},{"lat":"36.996496593","long":"127.09463976","imageIndex":4,"items":[{"name":"카페클락","tel":"02-1111-1111","addr":"경기도 평택시 비전동 604-15번지 1층","indutype":"일반휴게음식 - 서양음식","category":"restaurant"},{"name":"카페클락","tel":"031-656-6599","addr":"경기도 평택시 비전동 604-15번지 1층","indutype":"음식점 - 커피","category":"restaurant"}]},{"lat":"36.996435328","long":"127.10352562","imageIndex":4,"items":[{"name":"칸꼬시","tel":"031-651-0872","addr":"경기도 평택시 비전동 817-7번지","indutype":"일반휴게음식 - 주점","category":"restaurant"}]},{"lat":"36.992826447","long":"127.11847234","imageIndex":4,"items":[{"name":"커피루나","tel":"031-658-0889","addr":"경기도 평택시 비전동 882-5번지","indutype":"일반휴게음식 - 서양음식","category":"restaurant"}]},{"lat":"36.997554033","long":"127.10188693","imageIndex":4,"items":[{"name":"커피베이비전점","tel":"031-691-9255","addr":"경기도 평택시 비전동 808번지 1층","indutype":"일반휴게음식 - 서양음식","category":"restaurant"}]},{"lat":"36.999386847","long":"127.09741808","imageIndex":4,"items":[{"name":"커피앤미스터롱","tel":"031-654-2577","addr":"경기도 평택시 비전동 801-3번지 1층","indutype":"일반휴게음식 - 서양음식","category":"restaurant"}]},{"lat":"36.996939073","long":"127.11455794","imageIndex":4,"items":[{"name":"커피트리","tel":"","addr":"경기도 평택시 비전동 873-3번지 1층","indutype":"일반휴게음식 - 서양음식","category":"restaurant"},{"name":"커피트리","tel":"031-664-7733","addr":"경기도 평택시 비전동 873-3번지","indutype":"음식점 - 커피","category":"restaurant"}]},{"lat":"37.003440655","long":"127.10925338","imageIndex":4,"items":[{"name":"컨스턴트(Constant)","tel":"","addr":"경기도 평택시 비전동 1036-1번지","indutype":"일반휴게음식 - 서양음식","category":"restaurant"}]},{"lat":"36.99304967","long":"127.11108117","imageIndex":4,"items":[{"name":"코다리마을","tel":"031-652-1644","addr":"경기도 평택시 비전동 837-1번지 1층","indutype":"일반휴게음식 - 일반한식","category":"restaurant"},{"name":"코다리마을","tel":"031-657-6221","addr":"경기도 평택시 비전동 837-1번지","indutype":"음식점 - 한식","category":"restaurant"},{"name":"투존치킨 (비전점)","tel":"031-692-3989","addr":"경기도 평택시 비전동 837-1번지","indutype":"일반휴게음식 - 스넥","category":"restaurant"}]},{"lat":"37.002608178","long":"127.11308325","imageIndex":4,"items":[{"name":"퀸즈브라운 평택소사벌점","tel":"031-691-8005","addr":"경기도 평택시 비전동 1060-8번지 1층","indutype":"일반휴게음식 - 서양음식","category":"restaurant"}]},{"lat":"37.010497132","long":"127.10800479","imageIndex":4,"items":[{"name":"클라시커커피","tel":"031-1111-1111","addr":"경기도 평택시 비전동 43-8번지 1-2층","indutype":"일반휴게음식 - 서양음식","category":"restaurant"}]},{"lat":"37.000550238","long":"127.0961388","imageIndex":4,"items":[{"name":"키친이아","tel":"","addr":"경기도 평택시 비전동 483-20번지","indutype":"음식점 - 휴게음식","category":"restaurant"}]},{"lat":"37.003796924","long":"127.10369261","imageIndex":4,"items":[{"name":"타다이마","tel":"031-654-3559","addr":"경기도 평택시 비전동 1015-2번지 광신프라자 202호","indutype":"일반휴게음식 - 일반한식","category":"restaurant"}]},{"lat":"36.997471041","long":"127.11419923","imageIndex":4,"items":[{"name":"타쿠미","tel":"031-692-2012","addr":"경기도 평택시 비전동 869-6번지","indutype":"일반휴게음식 - 스넥","category":"restaurant"}]},{"lat":"37.001886181","long":"127.09308462","imageIndex":4,"items":[{"name":"태산 포차","tel":"","addr":"경기도 평택시 비전동 786번지 1층","indutype":"일반휴게음식 - 일반한식","category":"restaurant"}]},{"lat":"37.001795715","long":"127.09355637","imageIndex":4,"items":[{"name":"태화루","tel":"031-651-8309","addr":"경기도 평택시 비전동 786-3번지","indutype":"음식점 - 중식","category":"restaurant"},{"name":"태화루","tel":"031-656-3838","addr":"경기도 평택시 비전동 786-3번지","indutype":"일반휴게음식 - 중국식","category":"restaurant"}]},{"lat":"37.004131544","long":"127.11247876","imageIndex":4,"items":[{"name":"탭스","tel":"","addr":"경기도 평택시 비전동 1056번지 1층","indutype":"음식점 - 커피","category":"restaurant"},{"name":"탭스 (Taps)","tel":"031-663-0447","addr":"경기도 평택시 비전동 1056번지 티파니하우스 101호","indutype":"일반휴게음식 - 서양음식","category":"restaurant"}]},{"lat":"37.006465719","long":"127.10175243","imageIndex":4,"items":[{"name":"테트리스찜닭 소사벌점","tel":"031-652-3700","addr":"경기도 평택시 비전동 982-3번지","indutype":"음식점 - 한식","category":"restaurant"},{"name":"테트리스찜닭 소사벌점","tel":"031-000-0000","addr":"경기도 평택시 비전동 982-3번지 1층","indutype":"일반휴게음식 - 일반한식","category":"restaurant"}]},{"lat":"36.996940427","long":"127.11310877","imageIndex":4,"items":[{"name":"토담","tel":"031-655-4599","addr":"경기도 평택시 비전동 871-2번지","indutype":"음식점 - 한식","category":"restaurant"}]},{"lat":"36.991051341","long":"127.10880927","imageIndex":4,"items":[{"name":"토담 생고기 두루치기","tel":"031-653-6183","addr":"경기도 평택시 비전동 854-8번지","indutype":"음식점 - 한식","category":"restaurant"},{"name":"형제시골장터","tel":"031-653-9009","addr":"경기도 평택시 비전동 854-8번지","indutype":"일반휴게음식 - 일반한식","category":"restaurant"}]},{"lat":"36.996712867","long":"127.09461755","imageIndex":4,"items":[{"name":"토종흑염소","tel":"031-653-4730","addr":"경기도 평택시 비전동 604-1번지 1층","indutype":"일반휴게음식 - 일반한식","category":"restaurant"},{"name":"토종흑염소","tel":"031-653-4792","addr":"경기도 평택시 비전동 604-1번지","indutype":"음식점 - 한식","category":"restaurant"}]},{"lat":"36.996525518","long":"127.11355753","imageIndex":4,"items":[{"name":"토프레소뉴코아사거리점","tel":"070-7862-1697","addr":"경기도 평택시 비전동 872-5번지 1층","indutype":"일반휴게음식 - 서양음식","category":"restaurant"}]},{"lat":"36.996553659","long":"127.10211031","imageIndex":4,"items":[{"name":"토프레소비전점","tel":"031-656-4660","addr":"경기도 평택시 비전동 811-2번지 1층","indutype":"일반휴게음식 - 서양음식","category":"restaurant"}]},{"lat":"36.99277237","long":"127.09819623","imageIndex":4,"items":[{"name":"통통이네분식","tel":"031-618-7737","addr":"경기도 평택시 비전동 747-8번지 1층","indutype":"일반휴게음식 - 일반한식","category":"restaurant"}]},{"lat":"36.993576971","long":"127.09483845","imageIndex":4,"items":[{"name":"트위티","tel":"031-651-9136","addr":"경기도 평택시 비전동 731-5번지 1층","indutype":"음식점 - 카페","category":"restaurant"},{"name":"트위티","tel":"031-654-4737","addr":"경기도 평택시 비전동 731-5번지 1층","indutype":"일반휴게음식 - 서양음식","category":"restaurant"}]},{"lat":"36.994354973","long":"127.11244227","imageIndex":4,"items":[{"name":"파리바게뜨 평택비전점","tel":"031-654-5879","addr":"경기도 평택시 비전동 833번지","indutype":"음식점 - 제과점","category":"restaurant"}]},{"lat":"36.997913111","long":"127.11361571","imageIndex":4,"items":[{"name":"파스타이야기","tel":"031-654-4859","addr":"경기도 평택시 비전동 868-11번지 1층","indutype":"일반휴게음식 - 서양음식","category":"restaurant"}]},{"lat":"37.003384813","long":"127.11121939","imageIndex":4,"items":[{"name":"퍼지(FUZZY)","tel":"","addr":"경기도 평택시 비전동 1045-4번지 1층","indutype":"일반휴게음식 - 서양음식","category":"restaurant"}]},{"lat":"36.999137028","long":"127.09424973","imageIndex":4,"items":[{"name":"페리카나치킨 주공1단지체인","tel":"031-655-9992","addr":"경기도 평택시 비전동 487-58번지","indutype":"일반휴게음식 - 스넥","category":"restaurant"}]},{"lat":"36.994607137","long":"127.09095289","imageIndex":4,"items":[{"name":"평택경찰서카페/평택경찰서 복지회","tel":"031-8053-0025","addr":"경기도 평택시 비전동 619-2번지 평택경찰서","indutype":"일반휴게음식 - 서양음식","category":"restaurant"}]},{"lat":"36.993129902","long":"127.11202488","imageIndex":4,"items":[{"name":"평택고덕갈비","tel":"031-652-9101","addr":"경기도 평택시 비전동 834-2번지","indutype":"음식점 - 한식","category":"restaurant"}]},{"lat":"36.998797113","long":"127.10236038","imageIndex":4,"items":[{"name":"평택남부노인복지관","tel":"031-8036-4929","addr":"경기도 평택시 비전동 805번지","indutype":"일반휴게음식 - 서양음식","category":"restaurant"}]},{"lat":"36.997220026","long":"127.1026167","imageIndex":4,"items":[{"name":"평택덕동파리바게뜨","tel":"031-618-1075","addr":"경기도 평택시 비전동 809-2번지","indutype":"음식점 - 제과점","category":"restaurant"}]},{"lat":"36.999939299","long":"127.09383502","imageIndex":4,"items":[{"name":"평택오징어무쌈","tel":"031-691-1316","addr":"경기도 평택시 비전동 789-5번지","indutype":"일반휴게음식 - 일반한식","category":"restaurant"}]},{"lat":"36.997463172","long":"127.11297472","imageIndex":4,"items":[{"name":"평택참숯꼬들목살","tel":"031-8094-2669","addr":"경기도 평택시 비전동 866-10번지 1층","indutype":"일반휴게음식 - 일반한식","category":"restaurant"}]},{"lat":"36.996191485","long":"127.09299926","imageIndex":4,"items":[{"name":"평택청국장전문","tel":"031-658-5748","addr":"경기도 평택시 비전동 606-18번지","indutype":"일반휴게음식 - 일반한식","category":"restaurant"}]},{"lat":"36.9941049","long":"127.09950097","imageIndex":4,"items":[{"name":"평택칼국수","tel":"031-652-0199","addr":"경기도 평택시 비전동 752-22번지","indutype":"음식점 - 한식","category":"restaurant"},{"name":"평택칼국수(안성칼국수2호점)","tel":"031-654-8085","addr":"경기도 평택시 비전동 752-22번지","indutype":"일반휴게음식 - 일반한식","category":"restaurant"}]},{"lat":"36.995049458","long":"127.11172431","imageIndex":4,"items":[{"name":"평택한우마을","tel":"031-656-5392","addr":"경기도 평택시 비전동 832-2번지 1층","indutype":"일반휴게음식 - 일반한식","category":"restaurant"},{"name":"평택한우마을","tel":"","addr":"경기도 평택시 비전동 832-2번지","indutype":"음식점 - 한식","category":"restaurant"}]},{"lat":"36.995687574","long":"127.09208874","imageIndex":4,"items":[{"name":"푸드스테이","tel":"031-666-7122","addr":"경기도 평택시 비전동 623-1번지 동부센스빌 5층 402호","indutype":"일반휴게음식 - 일반한식","category":"restaurant"}]},{"lat":"36.993025564","long":"127.11756274","imageIndex":4,"items":[{"name":"푸라닭비전점","tel":"031-653-9206","addr":"경기도 평택시 비전동 883-4번지","indutype":"일반휴게음식 - 스넥","category":"restaurant"}]},{"lat":"37.005356588","long":"127.10272845","imageIndex":4,"items":[{"name":"푸라닭소사벌점","tel":"031-656-9206","addr":"경기도 평택시 비전동 993번지 101호","indutype":"일반휴게음식 - 일반한식","category":"restaurant"}]},{"lat":"37.005437428","long":"127.1030319","imageIndex":4,"items":[{"name":"풍덩","tel":"031-618-6227","addr":"경기도 평택시 비전동 988-5번지 1층","indutype":"일반휴게음식 - 일반한식","category":"restaurant"}]},{"lat":"36.998048324","long":"127.11355973","imageIndex":4,"items":[{"name":"풍성갈비","tel":"031-652-9980","addr":"경기도 평택시 비전동 868번지","indutype":"일반휴게음식 - 일반한식","category":"restaurant"}]},{"lat":"37.000045852","long":"127.09586856","imageIndex":4,"items":[{"name":"퓨전주막","tel":"070-8949-9050","addr":"경기도 평택시 비전동 487-19번지 2층","indutype":"일반휴게음식 - 일반한식","category":"restaurant"}]},{"lat":"37.001213177","long":"127.11128372","imageIndex":4,"items":[{"name":"프레디커피","tel":"031-651-2231","addr":"경기도 평택시 비전동 1067-3번지 1층","indutype":"일반휴게음식 - 서양음식","category":"restaurant"}]},{"lat":"36.993048028","long":"127.11286726","imageIndex":4,"items":[{"name":"플라워문카페","tel":"031-658-7711","addr":"경기도 평택시 비전동 845-1번지 1층","indutype":"일반휴게음식 - 서양음식","category":"restaurant"}]},{"lat":"37.006384529","long":"127.10186468","imageIndex":4,"items":[{"name":"피자원","tel":"050-4309-5940","addr":"경기도 평택시 비전동 982-4번지","indutype":"음식점 - 피자","category":"restaurant"},{"name":"피자원","tel":"031-652-7174","addr":"경기도 평택시 비전동 982-4번지 1층","indutype":"일반휴게음식 - 서양음식","category":"restaurant"}]},{"lat":"37.006691191","long":"127.10150554","imageIndex":4,"items":[{"name":"피자헤븐평택점","tel":"031-651-2525","addr":"경기도 평택시 비전동 982번지 1동 1층","indutype":"일반휴게음식 - 서양음식","category":"restaurant"}]},{"lat":"37.002996561","long":"127.11208392","imageIndex":4,"items":[{"name":"피크닉(샌드위치 앤 과일도시락)","tel":"","addr":"경기도 평택시 비전동 1053-13번지 1층","indutype":"일반휴게음식 - 서양음식","category":"restaurant"}]},{"lat":"36.992463969","long":"127.10070085","imageIndex":4,"items":[{"name":"하남돼지집 (평택비전점)","tel":"031-655-5092","addr":"경기도 평택시 비전동 760-4번지 1층","indutype":"일반휴게음식 - 일반한식","category":"restaurant"}]},{"lat":"37.002718951","long":"127.11019609","imageIndex":4,"items":[{"name":"하루선술집","tel":"031-654-5567","addr":"경기도 평택시 비전동 1043-8번지 1층","indutype":"일반휴게음식 - 일식·회집","category":"restaurant"}]},{"lat":"37.002024067","long":"127.11136351","imageIndex":4,"items":[{"name":"하루식탁","tel":"","addr":"경기도 평택시 비전동 1048-10번지 1층","indutype":"음식점 - 한식","category":"restaurant"},{"name":"하루식탁","tel":"031-653-9066","addr":"경기도 평택시 비전동 1048-10번지 1층","indutype":"일반휴게음식 - 일식·회집","category":"restaurant"}]},{"lat":"36.994164277","long":"127.11402591","imageIndex":4,"items":[{"name":"하이난","tel":"031-618-6588","addr":"경기도 평택시 비전동 878-1번지","indutype":"음식점 - 중식","category":"restaurant"},{"name":"하이난","tel":"031-653-6100","addr":"경기도 평택시 비전동 878-1번지","indutype":"일반휴게음식 - 중국식","category":"restaurant"}]},{"lat":"36.997518699","long":"127.0894509","imageIndex":4,"items":[{"name":"한꼬마김밥","tel":"070-8917-8476","addr":"경기도 평택시 비전동 550-1번지","indutype":"일반휴게음식 - 스넥","category":"restaurant"}]},{"lat":"37.001995979","long":"127.0908603","imageIndex":4,"items":[{"name":"한양식당","tel":"031-651-1025","addr":"경기도 평택시 비전동 779-11번지","indutype":"일반휴게음식 - 일반한식","category":"restaurant"}]},{"lat":"36.993939785","long":"127.11319431","imageIndex":4,"items":[{"name":"해어참치","tel":"031-657-8850","addr":"경기도 평택시 비전동 844번지 신한마트BYC 1층","indutype":"일반휴게음식 - 일반한식","category":"restaurant"}]},{"lat":"36.997301377","long":"127.10231349","imageIndex":4,"items":[{"name":"해운  횟집","tel":"031-662-7660","addr":"경기도 평택시 비전동 808-4번지","indutype":"일반휴게음식 - 일식·회집","category":"restaurant"},{"name":"해운대횟집","tel":"","addr":"경기도 평택시 비전동 808-4번지","indutype":"음식점 - 일식","category":"restaurant"}]},{"lat":"36.996324108","long":"127.10710905","imageIndex":4,"items":[{"name":"혜아뜰리에","tel":"031-653-9677","addr":"경기도 평택시 비전동 825-16번지 1층","indutype":"일반휴게음식 - 일반한식","category":"restaurant"}]},{"lat":"36.996380978","long":"127.10386256","imageIndex":4,"items":[{"name":"호시이두마리치킨(비전점)","tel":"031-655-7818","addr":"경기도 평택시 비전동 817-4번지 1층","indutype":"일반휴게음식 - 스넥","category":"restaurant"}]},{"lat":"37.002353374","long":"127.10583652","imageIndex":4,"items":[{"name":"호월일가","tel":"031-692-3302","addr":"경기도 평택시 비전동 1073번지 소사벌타워 107호","indutype":"일반휴게음식 - 일반한식","category":"restaurant"}]},{"lat":"37.000323951","long":"127.10813683","imageIndex":4,"items":[{"name":"화부자궁 본점","tel":"","addr":"경기도 평택시 비전동 1089번지 평택비전동효성백년가약 상가동 지하1층 B101호","indutype":"일반휴게음식 - 일반한식","category":"restaurant"},{"name":"화부자궁본점","tel":"","addr":"경기도 평택시 비전동 1089번지 평택비전동효성백년가약","indutype":"음식점 - 일반","category":"restaurant"}]},{"lat":"36.991691969","long":"127.10783288","imageIndex":4,"items":[{"name":"황금백숙","tel":"031-692-1516","addr":"경기도 평택시 비전동 192-18번지 1층","indutype":"일반휴게음식 - 일반한식","category":"restaurant"},{"name":"황금백숙","tel":"031-616-4442","addr":"경기도 평택시 비전동 192-18번지","indutype":"음식점 - 한식","category":"restaurant"}]},{"lat":"36.995438115","long":"127.08822407","imageIndex":4,"items":[{"name":"황제성","tel":"031-618-5376","addr":"경기도 평택시 비전동 633-2번지","indutype":"일반휴게음식 - 중국식","category":"restaurant"}]},{"lat":"36.99624369","long":"127.10633381","imageIndex":4,"items":[{"name":"황철수피자","tel":"031-657-4235","addr":"경기도 평택시 비전동 823-5번지","indutype":"일반휴게음식 - 서양음식","category":"restaurant"},{"name":"황철수피자","tel":"031-656-0537","addr":"경기도 평택시 비전동 823-5번지","indutype":"음식점 - 피자","category":"restaurant"},{"name":"황철수피자","tel":"031-657-4235","addr":"경기도 평택시 비전동 823-5번지","indutype":"일반휴게음식 - 서양음식","category":"restaurant"}]},{"lat":"37.001885471","long":"127.1150595","imageIndex":4,"items":[{"name":"황칠분식","tel":"","addr":"경기도 평택시 비전동 1096-2번지 107호","indutype":"일반휴게음식 - 스넥","category":"restaurant"}]},{"lat":"36.996859143","long":"127.11331087","imageIndex":4,"items":[{"name":"황토","tel":"031-655-0104","addr":"경기도 평택시 비전동 871-10번지","indutype":"음식점 - 한식","category":"restaurant"},{"name":"황토","tel":"031-656-4936","addr":"경기도 평택시 비전동 871-10번지","indutype":"일반휴게음식 - 일반한식","category":"restaurant"}]},{"lat":"37.003106156","long":"127.1104775","imageIndex":4,"items":[{"name":"훈훈","tel":"031-254-8759","addr":"경기도 평택시 비전동 1044-4번지 1층 101호","indutype":"일반휴게음식 - 일반한식","category":"restaurant"}]},{"lat":"36.999883861","long":"127.09560998","imageIndex":4,"items":[{"name":"훌랄라참숯불바베큐치킨비전3호점","tel":"031-658-9200","addr":"경기도 평택시 비전동 487-6번지","indutype":"일반휴게음식 - 스넥","category":"restaurant"}]},{"lat":"36.993883161","long":"127.09506349","imageIndex":4,"items":[{"name":"휴휴","tel":"031-652-2276","addr":"경기도 평택시 비전동 732-10번지 라벨르메종 101호","indutype":"일반휴게음식 - 서양음식","category":"restaurant"}]}]