[{"lat":"37.320794904","long":"127.47967597","imageIndex":17,"items":[{"name":"(주)엘앤에스","tel":"070-4224-3883","addr":"경기도 이천시 백사면 조읍리 552-3번지 1동","indutype":"신변잡화 - 기타잡화","category":"other"}]},{"lat":"37.314099746","long":"127.47759186","imageIndex":17,"items":[{"name":"공간포인트","tel":"031-634-6620","addr":"경기도 이천시 백사면 조읍리 516-24","indutype":"가구 - 일반가구","category":"other"}]},{"lat":"37.321351504","long":"127.47342932","imageIndex":17,"items":[{"name":"농업회사법인우경아그로주식회사","tel":"031-0000-0000","addr":"경기도 이천시 백사면 조읍리 608번지","indutype":"농업 - 기타농업관련","category":"other"}]},{"lat":"37.322596734","long":"127.47523093","imageIndex":17,"items":[{"name":"대건글라스","tel":"031-634-5124","addr":"경기도 이천시 백사면 조읍리 537-1","indutype":"건축자재 - 유리","category":"other"},{"name":"동아스텐","tel":"031-631-8900","addr":"경기도 이천시 백사면 조읍리 537-1번지","indutype":"기타 - 기계공구","category":"other"}]},{"lat":"37.314263914","long":"127.47709653","imageIndex":17,"items":[{"name":"덕영","tel":"031-282-7669","addr":"경기도 이천시 백사면 조읍리 516-13","indutype":"가구 - 일반가구","category":"other"}]},{"lat":"37.31921118","long":"127.47240064","imageIndex":17,"items":[{"name":"드림렌탈","tel":"031-632-9080","addr":"경기도 이천시 백사면 조읍리 621-1번지","indutype":"용역 서비스 - 종합용역","category":"other"}]},{"lat":"37.313743032","long":"127.48998714","imageIndex":17,"items":[{"name":"미래특수제지브이텍(주)","tel":"031-633-3669","addr":"경기도 이천시 백사면 조읍리 37-12","indutype":"신변잡화 - 기타잡화","category":"other"},{"name":"산일테크","tel":"031-638-2645","addr":"경기도 이천시 백사면 조읍리 37-12번지","indutype":"기타 - 기계공구","category":"other"}]},{"lat":"37.32510262","long":"127.48612288","imageIndex":17,"items":[{"name":"새미한복","tel":"031-633-7597","addr":"경기도 이천시 백사면 조읍리 215-1","indutype":"의류 - 맞춤복점","category":"other"}]},{"lat":"37.319880239","long":"127.47181816","imageIndex":17,"items":[{"name":"석예석재","tel":"031-637-5777","addr":"경기도 이천시 백사면 조읍리 624번지","indutype":"건축자재 - 기타건축자재","category":"other"}]},{"lat":"37.327158475","long":"127.47907305","imageIndex":17,"items":[{"name":"아이피드","tel":"031-631-4589","addr":"경기도 이천시 백사면 조읍리 588-3번지 1층","indutype":"농업 - 비료,사료,종자","category":"other"}]},{"lat":"37.321820782","long":"127.47324046","imageIndex":17,"items":[{"name":"엘로힘","tel":"031-633-0745","addr":"경기도 이천시 백사면 조읍리 600-1번지","indutype":"건축자재 - 기타건축자재","category":"other"}]},{"lat":"37.322822061","long":"127.48856778","imageIndex":17,"items":[{"name":"오피스앱","tel":"070-7434-0461","addr":"경기도 이천시 백사면 조읍리 161-1번지","indutype":"사무통신 - 사무용 OA기기","category":"other"}]},{"lat":"37.328849925","long":"127.47968173","imageIndex":17,"items":[{"name":"우성돌침대","tel":"00-1600-4339","addr":"경기도 이천시 백사면 조읍리 591-5","indutype":"가구 - 일반가구","category":"other"},{"name":"제일광고사","tel":"031-635-1015","addr":"경기도 이천시 백사면 조읍리 591-5번지","indutype":"용역 서비스 - 종합용역","category":"other"}]},{"lat":"37.323211051","long":"127.48598667","imageIndex":17,"items":[{"name":"유니F&C","tel":"031-882-7440","addr":"경기도 이천시 백사면 조읍리 207-1","indutype":"가구 - 일반가구","category":"other"}]},{"lat":"37.320964707","long":"127.47326897","imageIndex":17,"items":[{"name":"유진창호","tel":"031-636-6990","addr":"경기도 이천시 백사면 조읍리 608-2","indutype":"건축자재 - 보일러·펌프·샷시","category":"other"}]},{"lat":"37.322236358","long":"127.47296099","imageIndex":17,"items":[{"name":"이마트24 이천백사점","tel":"031-111-1111","addr":"경기도 이천시 백사면 조읍리 600-2번지","indutype":"유통업 영리 - 편 의 점","category":"other"}]},{"lat":"37.315827233","long":"127.47595569","imageIndex":17,"items":[{"name":"이천시시설관리공단","tel":"070-491-5725","addr":"경기도 이천시 백사면 조읍리 산100-1번지 이천시립추모의집","indutype":"회원제형태 - 기타4","category":"other"}]},{"lat":"37.329298418","long":"127.48018102","imageIndex":17,"items":[{"name":"이천토탈가구","tel":"031-633-7500","addr":"경기도 이천시 백사면 조읍리 258번지","indutype":"가구 - 일반가구","category":"other"}]},{"lat":"37.321209735","long":"127.47734324","imageIndex":17,"items":[{"name":"이천효자원장례식매장/삼원(담배)","tel":"031-631-4411","addr":"경기도 이천시 백사면 조읍리 542-8번지 매점","indutype":"기타 - 기타 전문점","category":"other"}]},{"lat":"37.319126866","long":"127.47321239","imageIndex":17,"items":[{"name":"제이앤제이시스템","tel":"","addr":"경기도 이천시 백사면 조읍리 616-1번지","indutype":"용역 서비스 - 기타용역서비스","category":"other"}]},{"lat":"37.319822585","long":"127.47498794","imageIndex":17,"items":[{"name":"해동초경목공기계","tel":"031-633-1126","addr":"경기도 이천시 백사면 조읍리 531번지","indutype":"기타 - 기계공구","category":"other"}]},{"lat":"37.319568867","long":"127.47534737","imageIndex":17,"items":[{"name":"현솔루션","tel":"031-637-1496","addr":"경기도 이천시 백사면 조읍리 529번지","indutype":"전기제품 - 기타전기제품","category":"other"}]},{"lat":"37.319433361","long":"127.47090157","imageIndex":4,"items":[{"name":"국술집","tel":"031-631-6536","addr":"경기도 이천시 백사면 조읍리 627-7번지 2층","indutype":"일반휴게음식 - 일반한식","category":"restaurant"}]},{"lat":"37.325686656","long":"127.4776196","imageIndex":4,"items":[{"name":"돌산가든","tel":"031-631-5233","addr":"경기도 이천시 백사면 조읍리 579-2번지 외3필지","indutype":"일반휴게음식 - 일반한식","category":"restaurant"}]},{"lat":"37.326353005","long":"127.4799593","imageIndex":4,"items":[{"name":"백사염소요리전문점","tel":"031-631-3434","addr":"경기도 이천시 백사면 조읍리 585번지","indutype":"일반휴게음식 - 일반한식","category":"restaurant"}]},{"lat":"37.322236358","long":"127.47296099","imageIndex":4,"items":[{"name":"본가육개장전문","tel":"031-634-5885","addr":"경기도 이천시 백사면 조읍리 600-2번지","indutype":"일반휴게음식 - 일반한식","category":"restaurant"},{"name":"조읍한식뷔페","tel":"031-635-5953","addr":"경기도 이천시 백사면 조읍리 600-2번지","indutype":"일반휴게음식 - 일반한식","category":"restaurant"}]},{"lat":"37.326629931","long":"127.47831378","imageIndex":4,"items":[{"name":"장가네보신탕","tel":"031-632-6611","addr":"경기도 이천시 백사면 조읍리 589-3번지","indutype":"일반휴게음식 - 일반한식","category":"restaurant"}]},{"lat":"37.320938506","long":"127.4707868","imageIndex":4,"items":[{"name":"천안문","tel":"031-638-8500","addr":"경기도 이천시 백사면 조읍리 604-1번지 1층","indutype":"일반휴게음식 - 중국식","category":"restaurant"}]},{"lat":"37.320877042","long":"127.47038028","imageIndex":4,"items":[{"name":"카페테이즈","tel":"031-638-7080","addr":"경기도 이천시 백사면 조읍리 638번지 가동 1층","indutype":"일반휴게음식 - 서양음식","category":"restaurant"}]},{"lat":"37.320964707","long":"127.47326897","imageIndex":7,"items":[{"name":"먹는샘물경기남부총판","tel":"031-631-4447","addr":"경기도 이천시 백사면 조읍리 608-2번지","indutype":"음료식품 - 기타음료식품","category":"food"}]},{"lat":"37.321209735","long":"127.47734324","imageIndex":7,"items":[{"name":"이천호자원장례식매장","tel":"031-631-4445","addr":"경기도 이천시 백사면 조읍리 542-8번지 매장","indutype":"음료식품 - 기타음료식품","category":"food"}]},{"lat":"37.321457777","long":"127.47162488","imageIndex":0,"items":[{"name":"버들타이어","tel":"031-883-5486","addr":"경기도 이천시 백사면 조읍리 602-3번지","indutype":"자동차정비 유지 - 자동차시트·타이어","category":"car"}]},{"lat":"37.317654252","long":"127.48978675","imageIndex":0,"items":[{"name":"성신ENG","tel":"031-634-3268","addr":"경기도 이천시 백사면 조읍리 121-1","indutype":"자동차정비 유지 - 자동차정비","category":"car"}]},{"lat":"37.317321443","long":"127.48964923","imageIndex":0,"items":[{"name":"성신엔진","tel":"031-635-5139","addr":"경기도 이천시 백사면 조읍리 119번지","indutype":"자동차정비 유지 - 자동차부품","category":"car"}]},{"lat":"37.319766505","long":"127.47096004","imageIndex":0,"items":[{"name":"이천정비","tel":"031-632-8255","addr":"경기도 이천시 백사면 조읍리 630-2","indutype":"자동차정비 유지 - 자동차정비","category":"car"}]},{"lat":"37.322236358","long":"127.47296099","imageIndex":0,"items":[{"name":"차편한 세상","tel":"031-1111-1111","addr":"경기도 이천시 백사면 조읍리 600-2번지 조읍휴게소 4동 101호","indutype":"자동차정비 유지 - 자동차부품","category":"car"}]},{"lat":"37.319077057","long":"127.47440792","imageIndex":5,"items":[{"name":"오.투 무인텔","tel":"031-631-1717","addr":"경기도 이천시 백사면 조읍리 527-32번지 1층","indutype":"숙박업 - 여관/기타숙박업","category":"hotel"}]},{"lat":"37.325045439","long":"127.48467837","imageIndex":8,"items":[{"name":"의료법인우리의료재단","tel":"031-638-8123","addr":"경기도 이천시 백사면 조읍리 291-1번지","indutype":"병원 - 병원","category":"medical"}]},{"lat":"37.322236358","long":"127.47296099","imageIndex":8,"items":[{"name":"지성약국","tel":"031-632-4052","addr":"경기도 이천시 백사면 조읍리 600-2번지","indutype":"약국 - 약국","category":"medical"}]},{"lat":"37.324625435","long":"127.47712779","imageIndex":13,"items":[{"name":"주식회사 범일","tel":"031-638-2000","addr":"경기도 이천시 백사면 조읍리 575번지","indutype":"보건위생 - 미용재료","category":"beauty"},{"name":"주식회사 제이코","tel":"031-638-2000","addr":"경기도 이천시 백사면 조읍리 575번지","indutype":"보건위생 - 화장품","category":"beauty"}]},{"lat":"37.326212345","long":"127.4813236","imageIndex":13,"items":[{"name":"프라이데이 (friday)","tel":"","addr":"경기도 이천시 백사면 조읍리 251-30번지","indutype":"보건위생 - 기타대인서비스","category":"beauty"}]},{"lat":"37.319433361","long":"127.47090157","imageIndex":13,"items":[{"name":"한솔헤어샵","tel":"031-631-0747","addr":"경기도 이천시 백사면 조읍리 627-7번지 한솔아파트 상가동 202호","indutype":"보건위생 - 미용원","category":"beauty"}]}]