[{"lat":"37.28288322","long":"127.43425322","imageIndex":8,"items":[{"name":"가까운대학약국","tel":"031-634-1102","addr":"경기도 이천시 관고동 514번지 이천벽산블루밍아파트 101-103호","indutype":"약국 - 약국","category":"medical"}]},{"lat":"37.281136197","long":"127.43891147","imageIndex":8,"items":[{"name":"거북이한의원","tel":"031-638-0611","addr":"경기도 이천시 관고동 13번지","indutype":"의원 - 한의원","category":"medical"}]},{"lat":"37.282663179","long":"127.4328199","imageIndex":8,"items":[{"name":"경기도의료원이천병원","tel":"031-630-4426","addr":"경기도 이천시 관고동 515번지","indutype":"병원 - 종합병원","category":"medical"}]},{"lat":"37.281547705","long":"127.43971443","imageIndex":8,"items":[{"name":"경희한의원","tel":"031-633-9933","addr":"경기도 이천시 관고동 9번지","indutype":"의원 - 한의원","category":"medical"},{"name":"주미희치과","tel":"031-636-0781","addr":"경기도 이천시 관고동 9번지","indutype":"의원 - 치과의원","category":"medical"},{"name":"참좋은치과","tel":"031-798-2028","addr":"경기도 이천시 관고동 9번지 경원빌딩 3층","indutype":"의원 - 치과의원","category":"medical"}]},{"lat":"37.280409332","long":"127.43810669","imageIndex":8,"items":[{"name":"나라동물병원","tel":"031-632-1075","addr":"경기도 이천시 관고동 15-17번지","indutype":"기타의료기관 - 동물병원","category":"medical"}]},{"lat":"37.280657046","long":"127.43934846","imageIndex":8,"items":[{"name":"동방한의원","tel":"031-638-1097","addr":"경기도 이천시 관고동 12-4번지 세광빌딩 2층","indutype":"의원 - 한의원","category":"medical"}]},{"lat":"37.281881283","long":"127.43965998","imageIndex":8,"items":[{"name":"동성약국","tel":"031-635-2764","addr":"경기도 이천시 관고동 8-18번지","indutype":"약국 - 약국","category":"medical"},{"name":"이천김내과의원","tel":"031-632-1570","addr":"경기도 이천시 관고동 8-18번지 2층","indutype":"의원 - 의원","category":"medical"}]},{"lat":"37.281468445","long":"127.43921783","imageIndex":8,"items":[{"name":"미래로 연합외과의원","tel":"031-634-9196","addr":"경기도 이천시 관고동 14-5번지 이천프라자","indutype":"의원 - 의원","category":"medical"}]},{"lat":"37.281743912","long":"127.43288232","imageIndex":8,"items":[{"name":"새메디컬약국","tel":"031-634-1005","addr":"경기도 이천시 관고동 218-44번지","indutype":"약국 - 약국","category":"medical"},{"name":"이천효요양병원","tel":"031-637-6370","addr":"경기도 이천시 관고동 218-44번지","indutype":"병원 - 병원","category":"medical"},{"name":"최이 대학약국","tel":"031-631-8776","addr":"경기도 이천시 관고동 218-44번지","indutype":"약국 - 약국","category":"medical"}]},{"lat":"37.281882032","long":"127.43945702","imageIndex":8,"items":[{"name":"설봉한의원","tel":"031-631-7885","addr":"경기도 이천시 관고동 4-17번지","indutype":"의원 - 한의원","category":"medical"}]},{"lat":"37.281826225","long":"127.43993029","imageIndex":8,"items":[{"name":"올바른한의원","tel":"031-694-7579","addr":"경기도 이천시 관고동 8-16번지 2층","indutype":"의원 - 한의원","category":"medical"}]},{"lat":"37.276774419","long":"127.43668764","imageIndex":8,"items":[{"name":"유디치과","tel":"031-634-3405","addr":"경기도 이천시 관고동 504-8번지 경화빌딩 3층","indutype":"의원 - 치과의원","category":"medical"}]},{"lat":"37.277269598","long":"127.43679196","imageIndex":8,"items":[{"name":"의료법인열린의료재단이천열린의원","tel":"031-631-3001","addr":"경기도 이천시 관고동 504-6번지 청풍캐슬 4층","indutype":"의원 - 의원","category":"medical"}]}]