[{"lat":"37.168052792","long":"126.84616591","imageIndex":17,"items":[{"name":"(주)파시스","tel":"031-355-5785","addr":"경기도 화성시 남양읍 온석리 378번지","indutype":"기타 - 기계공구","category":"other"}]},{"lat":"37.171468033","long":"126.84638405","imageIndex":17,"items":[{"name":"GS25화성온석리점","tel":"","addr":"경기도 화성시 남양읍 온석리 364-5번지","indutype":"유통업 영리 - 편 의 점","category":"other"}]},{"lat":"37.175666558","long":"126.86040569","imageIndex":17,"items":[{"name":"경인기획","tel":"031-8081-3530","addr":"경기도 화성시 남양읍 온석리 107-4번지","indutype":"용역 서비스 - 사무서비스","category":"other"}]},{"lat":"37.177551006","long":"126.8541075","imageIndex":17,"items":[{"name":"루노 컴퍼니(Runocompany)","tel":"","addr":"경기도 화성시 남양읍 온석리 30번지","indutype":"레져용품 - 스포츠·레져용품","category":"other"}]},{"lat":"37.164606048","long":"126.84941551","imageIndex":17,"items":[{"name":"베르네집(견사)","tel":"031-352-8952","addr":"경기도 화성시 남양읍 온석리 496-2번지","indutype":"문화.취미 - 애완동물","category":"other"}]},{"lat":"37.173608229","long":"126.85715542","imageIndex":17,"items":[{"name":"보라중공업","tel":"031-000-0000","addr":"경기도 화성시 남양읍 온석리 90번지","indutype":"기타 - 기계공구","category":"other"}]},{"lat":"37.168551936","long":"126.84888961","imageIndex":17,"items":[{"name":"성창팩","tel":"070-7807-8089","addr":"경기도 화성시 남양읍 온석리 291-10번지 20","indutype":"유통업 영리 - 기타유통업","category":"other"}]},{"lat":"37.168107256","long":"126.84646979","imageIndex":17,"items":[{"name":"씨유화성온석점","tel":"080-080-3663","addr":"경기도 화성시 남양읍 온석리 379-10번지 102호","indutype":"유통업 영리 - 편 의 점","category":"other"}]},{"lat":"37.169554361","long":"126.85782751","imageIndex":17,"items":[{"name":"애란농원","tel":"031-355-0336","addr":"경기도 화성시 남양읍 온석리 473-6번지","indutype":"문화.취미 - 화원","category":"other"}]},{"lat":"37.178217676","long":"126.85402737","imageIndex":17,"items":[{"name":"엠제이솔루션","tel":"031-347-9780","addr":"경기도 화성시 남양읍 온석리 21-6번지","indutype":"기타 - 기계공구","category":"other"}]},{"lat":"37.175054351","long":"126.86082346","imageIndex":17,"items":[{"name":"여니상점","tel":"","addr":"경기도 화성시 남양읍 온석리 124-2번지 1층","indutype":"의류 - 정장","category":"other"}]},{"lat":"37.174499787","long":"126.85677086","imageIndex":17,"items":[{"name":"영광철망. 휀스","tel":"031-353-9281","addr":"경기도 화성시 남양읍 온석리 81번지","indutype":"건축자재 - 기타건축자재","category":"other"}]},{"lat":"37.166082571","long":"126.84850056","imageIndex":17,"items":[{"name":"오경플랜트","tel":"031-357-5388","addr":"경기도 화성시 남양읍 온석리 495번지","indutype":"용역 서비스 - 기타용역서비스","category":"other"}]},{"lat":"37.178325064","long":"126.8534416","imageIndex":17,"items":[{"name":"우리정밀","tel":"031-355-4057","addr":"경기도 화성시 남양읍 온석리 21-2번지","indutype":"기타 - 기계공구","category":"other"}]},{"lat":"37.172579294","long":"126.84865624","imageIndex":17,"items":[{"name":"울트라화인산업","tel":"031-357-6804","addr":"경기도 화성시 남양읍 온석리 316-13번지","indutype":"건축자재 - 기타건축자재","category":"other"}]},{"lat":"37.16822272","long":"126.85213291","imageIndex":17,"items":[{"name":"유엔티","tel":"031-357-6785","addr":"경기도 화성시 남양읍 온석리 260-1번지 2층","indutype":"사무통신 - 기타 사무용품","category":"other"}]},{"lat":"37.174298218","long":"126.84707633","imageIndex":17,"items":[{"name":"천연염색규담","tel":"031-356-2720","addr":"경기도 화성시 남양읍 온석리 333번지","indutype":"직물 - 옷감·직물","category":"other"}]},{"lat":"37.179021165","long":"126.85527574","imageIndex":17,"items":[{"name":"태성엔터프라이즈","tel":"031-357-8478","addr":"경기도 화성시 남양읍 온석리 20번지 4동","indutype":"기타 - 기계공구","category":"other"}]},{"lat":"37.171745443","long":"126.84494224","imageIndex":17,"items":[{"name":"태성이엔지","tel":"031-357-4681","addr":"경기도 화성시 남양읍 온석리 362-21번지","indutype":"기타 - 기계공구","category":"other"}]},{"lat":"37.167384722","long":"126.84518775","imageIndex":17,"items":[{"name":"티엠디(TMD)","tel":"070-4318-1147","addr":"경기도 화성시 남양읍 온석리 387-1 1층","indutype":"의류 - 아동의류","category":"other"}]}]