[{"lat":"37.744007364","long":"126.80970807","imageIndex":0,"items":[{"name":"고려덴트칼라봉일천점","tel":"031-943-3457","addr":"경기도 파주시 조리읍 봉일천리 210-9번지","indutype":"자동차정비 유지 - 가타자동차서비스","category":"car"}]},{"lat":"37.736311763","long":"126.82600761","imageIndex":0,"items":[{"name":"다이즈 커스텀(DIY.Z CUSTOM)","tel":"","addr":"경기도 파주시 조리읍 봉일천리 8-66번지","indutype":"자동차정비 유지 - 카인테리어","category":"car"}]},{"lat":"37.74404135","long":"126.80845994","imageIndex":0,"items":[{"name":"동신카세차장","tel":"031-944-7449","addr":"경기도 파주시 조리읍 봉일천리 210-17번지","indutype":"자동차정비 유지 - 자동차정비","category":"car"}]},{"lat":"37.744646806","long":"126.80414691","imageIndex":0,"items":[{"name":"맥스엠파주지사","tel":"031-8071-2248","addr":"경기도 파주시 조리읍 봉일천리 198-1번지","indutype":"자동차정비 유지 - 자동차부품","category":"car"}]},{"lat":"37.742090599","long":"126.8110972","imageIndex":0,"items":[{"name":"문산백마지게차","tel":"031-958-3316","addr":"경기도 파주시 조리읍 봉일천리 137-2번지","indutype":"자동차판매 - 기타운송","category":"car"}]},{"lat":"37.746763098","long":"126.80898609","imageIndex":0,"items":[{"name":"봉일천밧데리","tel":"031-945-5080","addr":"경기도 파주시 조리읍 봉일천리 266-16번지","indutype":"자동차정비 유지 - 자동차부품","category":"car"}]},{"lat":"37.744117248","long":"126.80533964","imageIndex":0,"items":[{"name":"봉천손세차장","tel":"031-862-8776","addr":"경기도 파주시 조리읍 봉일천리 203-22번지","indutype":"자동차정비 유지 - 세차장","category":"car"}]},{"lat":"37.741398303","long":"126.81198393","imageIndex":0,"items":[{"name":"스피드 정비","tel":"031-8071-3417","addr":"경기도 파주시 조리읍 봉일천리 133-8번지","indutype":"자동차정비 유지 - 자동차정비","category":"car"},{"name":"스피드메이트봉일천점","tel":"031-8071-3417","addr":"경기도 파주시 조리읍 봉일천리 133-8번지","indutype":"자동차정비 유지 - 자동차정비","category":"car"}]},{"lat":"37.74667699","long":"126.80595688","imageIndex":0,"items":[{"name":"신일카센타","tel":"031-943-5177","addr":"경기도 파주시 조리읍 봉일천리 181-30","indutype":"자동차정비 유지 - 자동차정비","category":"car"}]},{"lat":"37.746957371","long":"126.81209446","imageIndex":0,"items":[{"name":"이레모터스","tel":"031-942-7761","addr":"경기도 파주시 조리읍 봉일천리 238-16번지","indutype":"자동차정비 유지 - 카인테리어","category":"car"}]},{"lat":"37.744152277","long":"126.80473822","imageIndex":0,"items":[{"name":"임마뉴엘서비스","tel":"031-941-4377","addr":"경기도 파주시 조리읍 봉일천리 176-2번지","indutype":"자동차정비 유지 - 자동차정비","category":"car"}]},{"lat":"37.741264151","long":"126.81259692","imageIndex":0,"items":[{"name":"제이에이치모터스(JH모터스)","tel":"031-949-6545","addr":"경기도 파주시 조리읍 봉일천리 133-9번지 대봉빌딩1호","indutype":"자동차정비 유지 - 자동차시트·타이어","category":"car"}]},{"lat":"37.742342831","long":"126.80561665","imageIndex":0,"items":[{"name":"조이바이크","tel":"031-948-0921","addr":"경기도 파주시 조리읍 봉일천리 157-14","indutype":"자동차판매 - 이륜차판매","category":"car"}]},{"lat":"37.745092227","long":"126.80650568","imageIndex":0,"items":[{"name":"타이어프로 봉일천점","tel":"031-945-1009","addr":"경기도 파주시 조리읍 봉일천리 189-12번지","indutype":"자동차정비 유지 - 자동차시트·타이어","category":"car"}]},{"lat":"37.744313222","long":"126.80942362","imageIndex":0,"items":[{"name":"한성모터스","tel":"031-947-8255","addr":"경기도 파주시 조리읍 봉일천리 210-56번지","indutype":"자동차정비 유지 - 자동차정비","category":"car"}]}]