[{"lat":"37.71477364","long":"127.44091827","imageIndex":13,"items":[{"name":"H.K수상레저","tel":"031-585-8554","addr":"경기도 가평군 설악면 회곡리 741-10번지","indutype":"레저업소 - 기타레져업소","category":"leisure"},{"name":"모험의시작","tel":"031-584-3995","addr":"경기도 가평군 설악면 회곡리 741-10번지","indutype":"레저업소 - 기타레져업소","category":"leisure"}]},{"lat":"37.713687837","long":"127.44217074","imageIndex":13,"items":[{"name":"돌핀수상레져","tel":"031-585-7633","addr":"경기도 가평군 설악면 회곡리 산102-2","indutype":"레저업소 - 기타레져업소","category":"leisure"}]},{"lat":"37.722132524","long":"127.42664748","imageIndex":13,"items":[{"name":"레이크리조트","tel":"031-584-2446","addr":"경기도 가평군 설악면 회곡리 산105-1","indutype":"레저업소 - 기타레져업소","category":"leisure"}]},{"lat":"37.703884626","long":"127.44958569","imageIndex":13,"items":[{"name":"레인보우수상레저","tel":"","addr":"경기도 가평군 설악면 회곡리 424-5번지","indutype":"레저업소 - 기타레져업소","category":"leisure"}]},{"lat":"37.70794059","long":"127.44914508","imageIndex":13,"items":[{"name":"리버랜드","tel":"031-585-5526","addr":"경기도 가평군 설악면 회곡리 447-8번지","indutype":"레저업소 - 기타레져업소","category":"leisure"},{"name":"리버랜드 주식회사","tel":"031-585-5526","addr":"경기도 가평군 설악면 회곡리 447-8번지","indutype":"레저업소 - 기타레져업소","category":"leisure"}]},{"lat":"37.718220614","long":"127.43458715","imageIndex":13,"items":[{"name":"바하마리조트","tel":"031-585-7177","addr":"경기도 가평군 설악면 회곡리 산104-2번지","indutype":"레저업소 - 기타레져업소","category":"leisure"},{"name":"영광 수상레저","tel":"031-111-1222","addr":"경기도 가평군 설악면 회곡리 산104-2번지","indutype":"레저업소 - 기타레져업소","category":"leisure"}]},{"lat":"37.722662265","long":"127.42464288","imageIndex":13,"items":[{"name":"버드위터&스노우","tel":"031-585-7121","addr":"경기도 가평군 설악면 회곡리 산105-9번지","indutype":"레저업소 - 기타레져업소","category":"leisure"}]},{"lat":"37.708389413","long":"127.44719724","imageIndex":13,"items":[{"name":"서호수상레저","tel":"031-584-7972","addr":"경기도 가평군 설악면 회곡리 484-3번지","indutype":"레저업소 - 기타레져업소","category":"leisure"}]},{"lat":"37.715276604","long":"127.44134086","imageIndex":13,"items":[{"name":"에어타임수상스키","tel":"031-511-9959","addr":"경기도 가평군 설악면 회곡리 741-1","indutype":"레저업소 - 기타레져업소","category":"leisure"}]},{"lat":"37.704995308","long":"127.4489233","imageIndex":13,"items":[{"name":"주식회사 웨이크베이리조트","tel":"031-585-6756","addr":"경기도 가평군 설악면 회곡리 428-1번지 르메이에르 청평빌라","indutype":"레저업소 - 기타레져업소","category":"leisure"}]},{"lat":"37.722270353","long":"127.42589967","imageIndex":13,"items":[{"name":"지산수상레저","tel":"031-584-2745","addr":"경기도 가평군 설악면 회곡리 산105-7번지","indutype":"레저업소 - 기타레져업소","category":"leisure"}]}]