[{"lat":"37.315047482","long":"127.42482556","imageIndex":17,"items":[{"name":"GS25이천수하점","tel":"","addr":"경기도 이천시 신둔면 수하리 248-50번지 1동 1층","indutype":"유통업 영리 - 편 의 점","category":"other"}]},{"lat":"37.317656132","long":"127.42854042","imageIndex":17,"items":[{"name":"가치있는공방","tel":"070-7687-5047","addr":"경기도 이천시 신둔면 수하리 286-2번지","indutype":"문화.취미 - 민예·공예품","category":"other"}]},{"lat":"37.312543866","long":"127.42951557","imageIndex":17,"items":[{"name":"구암도요","tel":"031-634-5048","addr":"경기도 이천시 신둔면 수하리 94-2번지","indutype":"문화.취미 - 민예·공예품","category":"other"}]},{"lat":"37.309685548","long":"127.43009727","imageIndex":17,"items":[{"name":"남강도요","tel":"031-632-1374","addr":"경기도 이천시 신둔면 수하리 107번지","indutype":"문화.취미 - 민예·공예품","category":"other"}]},{"lat":"37.317156309","long":"127.4322153","imageIndex":17,"items":[{"name":"다인요","tel":"031-636-0296","addr":"경기도 이천시 신둔면 수하리 36-1번지","indutype":"문화.취미 - 민예·공예품","category":"other"}]},{"lat":"37.315958271","long":"127.43212952","imageIndex":17,"items":[{"name":"라이노 주식회사","tel":"031-635-2220","addr":"경기도 이천시 신둔면 수하리 35-2번지","indutype":"신변잡화 - 기타잡화","category":"other"}]},{"lat":"37.309738882","long":"127.42779642","imageIndex":17,"items":[{"name":"세창도예연구소","tel":"031-632-7711","addr":"경기도 이천시 신둔면 수하리 214-3번지","indutype":"문화.취미 - 골동품점","category":"other"},{"name":"세창아트앤디자인(Art and Design)","tel":"031-632-7711","addr":"경기도 이천시 신둔면 수하리 214-3","indutype":"주방용구 - 주방용식기","category":"other"}]},{"lat":"37.310516129","long":"127.43213242","imageIndex":17,"items":[{"name":"제주삼다수 이천대리점","tel":"","addr":"경기도 이천시 신둔면 수하리 663번지","indutype":"유통업 영리 - 기타유통업","category":"other"}]},{"lat":"37.3111842","long":"127.42676676","imageIndex":17,"items":[{"name":"품어","tel":"031-634-3571","addr":"경기도 이천시 신둔면 수하리 224-2","indutype":"문화.취미 - 민예·공예품","category":"other"}]}]