[{"lat":"37.310454596","long":"126.98114473","imageIndex":0,"items":[{"name":"F1모터스","tel":"031-269-5182","addr":"경기도 수원시 장안구 이목동 366-3번지","indutype":"자동차정비 유지 - 자동차정비","category":"car"}]},{"lat":"37.31191468","long":"126.98361476","imageIndex":0,"items":[{"name":"경기배터리할인매장","tel":"031-238-0334","addr":"경기도 수원시 장안구 이목동 916번지 수원장안힐스테이트 212동 1505호","indutype":"자동차정비 유지 - 자동차부품","category":"car"}]},{"lat":"37.311870384","long":"126.98900688","imageIndex":0,"items":[{"name":"광빨","tel":"070-7503-4312","addr":"경기도 수원시 장안구 이목동 897번지 1층","indutype":"자동차정비 유지 - 카인테리어","category":"car"}]},{"lat":"37.312338777","long":"126.98786745","imageIndex":0,"items":[{"name":"꼬마자동차네트워크","tel":"031-248-7777","addr":"경기도 수원시 장안구 이목동 863번지","indutype":"자동차판매 - 중고자동차판매","category":"car"},{"name":"제일자동차공업사","tel":"031-248-7001","addr":"경기도 수원시 장안구 이목동 863번지","indutype":"자동차정비 유지 - 자동차정비","category":"car"}]},{"lat":"37.318869623","long":"126.97850241","imageIndex":0,"items":[{"name":"대도공업사","tel":"031-256-1306","addr":"경기도 수원시 장안구 이목동 197-1번지","indutype":"자동차정비 유지 - 자동차부품","category":"car"}]},{"lat":"37.316455518","long":"126.98178604","imageIndex":0,"items":[{"name":"대현오토","tel":"031-246-1273","addr":"경기도 수원시 장안구 이목동 259번지","indutype":"자동차정비 유지 - 자동차정비","category":"car"}]},{"lat":"37.311733646","long":"126.97905747","imageIndex":0,"items":[{"name":"디테일가이","tel":"070-7630-8245","addr":"경기도 수원시 장안구 이목동 394-4번지","indutype":"자동차정비 유지 - 자동차부품","category":"car"}]},{"lat":"37.313653782","long":"126.98442653","imageIndex":0,"items":[{"name":"밀리언 모터스","tel":"","addr":"경기도 수원시 장안구 이목동 916번지 수원장안힐스테이트 201동 102호","indutype":"자동차정비 유지 - 카인테리어","category":"car"}]},{"lat":"37.320420874","long":"126.98736944","imageIndex":0,"items":[{"name":"북수원공업사","tel":"031-268-0178","addr":"경기도 수원시 장안구 이목동 610번지","indutype":"자동차정비 유지 - 자동차시트·타이어","category":"car"}]},{"lat":"37.318257433","long":"126.98108608","imageIndex":0,"items":[{"name":"성현사","tel":"031-271-8046","addr":"경기도 수원시 장안구 이목동 214번지 외1필지","indutype":"자동차정비 유지 - 자동차부품","category":"car"}]},{"lat":"37.313816442","long":"126.98778819","imageIndex":0,"items":[{"name":"수원자동차매매상사","tel":"031-302-2000","addr":"경기도 수원시 장안구 이목동 888번지 북수원(노송)단지","indutype":"자동차판매 - 중고자동차판매","category":"car"}]},{"lat":"37.315870247","long":"126.9841214","imageIndex":0,"items":[{"name":"엘리트카용품","tel":"031-269-1527","addr":"경기도 수원시 장안구 이목동 737번지 1층 레이노썬팅","indutype":"자동차정비 유지 - 자동차부품","category":"car"}]},{"lat":"37.316365714","long":"126.98353465","imageIndex":0,"items":[{"name":"오토오아시스서광점","tel":"031-244-5261","addr":"경기도 수원시 장안구 이목동 243-5번지","indutype":"자동차정비 유지 - 자동차정비","category":"car"}]},{"lat":"37.314509849","long":"126.98505806","imageIndex":0,"items":[{"name":"이목점기아오토큐","tel":"031-252-8146","addr":"경기도 수원시 장안구 이목동 519-2번지","indutype":"자동차정비 유지 - 자동차정비","category":"car"}]},{"lat":"37.316618495","long":"126.98684","imageIndex":0,"items":[{"name":"캠포리안 주식회사","tel":"031-1588-2140","addr":"경기도 수원시 장안구 이목동 765-1번지","indutype":"자동차정비 유지 - 자동차부품","category":"car"}]},{"lat":"37.318005168","long":"126.98119897","imageIndex":0,"items":[{"name":"커스텀 지티(Kustom G.T.)","tel":"031-308-8007","addr":"경기도 수원시 장안구 이목동 211-7번지 1층","indutype":"자동차정비 유지 - 카인테리어","category":"car"}]},{"lat":"37.315510184","long":"126.9864454","imageIndex":0,"items":[{"name":"포에스","tel":"031-271-6662","addr":"경기도 수원시 장안구 이목동 797-1번지 ,2층","indutype":"자동차정비 유지 - 자동차부품","category":"car"}]}]