[{"lat":"37.145589219","long":"127.03736982","imageIndex":17,"items":[{"name":"(주)세론공영","tel":"031-376-2605","addr":"경기도 오산시 서동 544번지","indutype":"건축자재 - 인테리어전문","category":"other"}]},{"lat":"37.154977145","long":"127.04059365","imageIndex":17,"items":[{"name":"(주)통일사","tel":"031-377-5274","addr":"경기도 오산시 서동 347번지","indutype":"문화.취미 - 화원","category":"other"}]},{"lat":"37.154589562","long":"127.04100997","imageIndex":17,"items":[{"name":"119종합냉동","tel":"031-372-1587","addr":"경기도 오산시 서동 346-5번지","indutype":"용역 서비스 - 보관및 창고업","category":"other"}]},{"lat":"37.144976322","long":"127.03799987","imageIndex":17,"items":[{"name":"Coulomb/주식회사 코제스","tel":"070-8866-7799","addr":"경기도 오산시 서동 201번지 디비엔빌딩 101호","indutype":"신변잡화 - 기타잡화","category":"other"}]},{"lat":"37.1555265","long":"127.04147199","imageIndex":17,"items":[{"name":"GS25오산서동점","tel":"","addr":"경기도 오산시 서동 342-6번지 101호","indutype":"유통업 영리 - 편 의 점","category":"other"}]},{"lat":"37.151032423","long":"127.03419793","imageIndex":17,"items":[{"name":"건축디자인 숲","tel":"070-8032-4038","addr":"경기도 오산시 서동 470-3번지","indutype":"건축자재 - 인테리어전문","category":"other"},{"name":"오산발가락","tel":"02-1544-2549","addr":"경기도 오산시 서동 470-3번지","indutype":"레져용품 - 스포츠·레져용품","category":"other"}]},{"lat":"37.145499347","long":"127.03655936","imageIndex":17,"items":[{"name":"국보안전","tel":"031-377-6584","addr":"경기도 오산시 서동 541번지","indutype":"용역 서비스 - 기타용역서비스","category":"other"}]},{"lat":"37.155805128","long":"127.04355474","imageIndex":17,"items":[{"name":"금성꽃농원","tel":"031-376-9119","addr":"경기도 오산시 서동 7-3번지 1층 1호","indutype":"문화.취미 - 화원","category":"other"}]},{"lat":"37.150284664","long":"127.03378113","imageIndex":17,"items":[{"name":"대상특장","tel":"031-378-0393","addr":"경기도 오산시 서동 486번지","indutype":"기타 - 기타 전문점","category":"other"}]},{"lat":"37.146526531","long":"127.03659359","imageIndex":17,"items":[{"name":"대영냉동","tel":"031-374-5475","addr":"경기도 오산시 서동 511-11번지","indutype":"전기제품 - 냉열기기","category":"other"}]},{"lat":"37.151030918","long":"127.03945477","imageIndex":17,"items":[{"name":"더블 드래곤 헬리캠","tel":"031-374-0309","addr":"경기도 오산시 서동 245번지 2층 일부 남쪽","indutype":"용역 서비스 - 종합용역","category":"other"},{"name":"세븐일레븐오산서동점","tel":"031-1577-0711","addr":"경기도 오산시 서동 245번지 1층","indutype":"유통업 영리 - 편 의 점","category":"other"}]},{"lat":"37.144615876","long":"127.03808974","imageIndex":17,"items":[{"name":"동광중전기","tel":"031-377-5222","addr":"경기도 오산시 서동 201-3번지","indutype":"기타 - 기타 전문점","category":"other"}]},{"lat":"37.154445723","long":"127.03997424","imageIndex":17,"items":[{"name":"동양에프알피종합개발","tel":"031-376-6930","addr":"경기도 오산시 서동 330-1번지","indutype":"기타 - 기타 전문점","category":"other"}]},{"lat":"37.155085166","long":"127.04092016","imageIndex":17,"items":[{"name":"선진호스상사","tel":"031-374-7885","addr":"경기도 오산시 서동 346-3번지 선진호스상사","indutype":"건축자재 - 기타건축자재","category":"other"}]},{"lat":"37.146832345","long":"127.03845096","imageIndex":17,"items":[{"name":"선진환경기술","tel":"031-378-1357","addr":"경기도 오산시 서동 590-4번지","indutype":"용역 서비스 - 기타용역서비스","category":"other"},{"name":"신흥전기","tel":"031-334-4226","addr":"경기도 오산시 서동 590-4번지","indutype":"수리서비스 - 기타수리서비스","category":"other"}]},{"lat":"37.146976479","long":"127.03856359","imageIndex":17,"items":[{"name":"성실광고기획","tel":"031-375-0801","addr":"경기도 오산시 서동 590-3번지","indutype":"용역 서비스 - 종합용역","category":"other"}]},{"lat":"37.149392296","long":"127.03503022","imageIndex":17,"items":[{"name":"성운시스템","tel":"031-377-7085","addr":"경기도 오산시 서동 480-1번지","indutype":"건축자재 - 보일러·펌프·샷시","category":"other"}]},{"lat":"37.15600325","long":"127.04387005","imageIndex":17,"items":[{"name":"세광상사","tel":"031-377-5373","addr":"경기도 오산시 서동 5-1번지","indutype":"건축자재 - 기타건축자재","category":"other"}]},{"lat":"37.154751645","long":"127.04133651","imageIndex":17,"items":[{"name":"신동아피.브이.시산업","tel":"031-375-7969","addr":"경기도 오산시 서동 344-3번지","indutype":"건축자재 - 건축용 요업제품","category":"other"}]},{"lat":"37.155003882","long":"127.0415055","imageIndex":17,"items":[{"name":"신진합판","tel":"031-373-0740","addr":"경기도 오산시 서동 344-12번지","indutype":"건축자재 - 기타건축자재","category":"other"},{"name":"오산농자재","tel":"031-374-2787","addr":"경기도 오산시 서동 344-12번지","indutype":"농업 - 기타농업관련","category":"other"}]},{"lat":"37.154753113","long":"127.03650718","imageIndex":17,"items":[{"name":"우진에스티","tel":"031-374-1775","addr":"경기도 오산시 서동 361-4번지 1층","indutype":"기타 - 기계공구","category":"other"}]},{"lat":"37.148030845","long":"127.03809133","imageIndex":17,"items":[{"name":"으뜸에어컨냉동","tel":"031-377-1247","addr":"경기도 오산시 서동 222-2, 222-8","indutype":"전기제품 - 냉열기기","category":"other"}]},{"lat":"37.155697743","long":"127.04133699","imageIndex":17,"items":[{"name":"이에스시스템(ES SYSTEM)","tel":"031-377-4600","addr":"경기도 오산시 서동 342-8번지","indutype":"사무통신 - 기타 사무용품","category":"other"}]},{"lat":"37.150526384","long":"127.03928568","imageIndex":17,"items":[{"name":"제일상사","tel":"031-377-1190","addr":"경기도 오산시 서동 244-1번지","indutype":"기타 - 기계공구","category":"other"}]},{"lat":"37.150888415","long":"127.03359001","imageIndex":17,"items":[{"name":"주식회사 가온플러스","tel":"031-378-6648","addr":"경기도 오산시 서동 462-1번지 B동 1층","indutype":"용역 서비스 - 기타용역서비스","category":"other"}]},{"lat":"37.149589306","long":"127.03925146","imageIndex":17,"items":[{"name":"주식회사 대한마대종합상사","tel":"031-374-4321","addr":"경기도 오산시 서동 247-3번지","indutype":"유통업 영리 - 기타유통업","category":"other"},{"name":"주식회사 주파집(JUPAZIP INC.)","tel":"031-377-5101","addr":"경기도 오산시 서동 247-3번지","indutype":"신변잡화 - 기타잡화","category":"other"}]},{"lat":"37.152643471","long":"127.04047992","imageIndex":17,"items":[{"name":"주식회사 브이앤씨","tel":"031-372-5324","addr":"경기도 오산시 서동 303-2번지","indutype":"전기제품 - 기타전기제품","category":"other"}]},{"lat":"37.151832929","long":"127.03919625","imageIndex":17,"items":[{"name":"주식회사 우창실업","tel":"031-375-0435","addr":"경기도 오산시 서동 281-11번지","indutype":"용역 서비스 - 기타용역서비스","category":"other"}]},{"lat":"37.144868495","long":"127.03697555","imageIndex":17,"items":[{"name":"주식회사 원애드컴","tel":"","addr":"경기도 오산시 서동 544-8번지","indutype":"서적문구 - 출판 및 인쇄물","category":"other"}]},{"lat":"37.154085066","long":"127.04072829","imageIndex":17,"items":[{"name":"주식회사오산배관","tel":"031-372-7535","addr":"경기도 오산시 서동 332-3 에이동","indutype":"건축자재 - 기타건축자재","category":"other"}]},{"lat":"37.149644767","long":"127.0343662","imageIndex":17,"items":[{"name":"주식회사한솔","tel":"031-8285-6681","addr":"경기도 오산시 서동 482-1번지","indutype":"농업 - 비료,사료,종자","category":"other"},{"name":"케이더블유테크(KW테크)","tel":"031-377-4524","addr":"경기도 오산시 서동 482-1번지","indutype":"농업 - 비료,사료,종자","category":"other"},{"name":"한솔그린","tel":"031-376-6722","addr":"경기도 오산시 서동 482-1번지","indutype":"농업 - 비료,사료,종자","category":"other"}]},{"lat":"37.155500587","long":"127.03786964","imageIndex":17,"items":[{"name":"청솔농원","tel":"031-374-5565","addr":"경기도 오산시 서동 359외1필지","indutype":"문화.취미 - 화원","category":"other"}]},{"lat":"37.150139106","long":"127.03872267","imageIndex":17,"items":[{"name":"케이바스","tel":"031-373-2097","addr":"경기도 오산시 서동 248-14번지 서동로65번길 176-1","indutype":"건축자재 - 건축용 요업제품","category":"other"}]},{"lat":"37.145616122","long":"127.03780881","imageIndex":17,"items":[{"name":"퍼펙트홈가드","tel":"080-042-0000","addr":"경기도 오산시 서동 202번지","indutype":"신변잡화 - 기타잡화","category":"other"}]}]