[{"lat":"37.218601332","long":"126.82110578","imageIndex":0,"items":[{"name":"(주)서진루브","tel":"031-434-4486","addr":"경기도 화성시 남양읍 송림리 260번지","indutype":"자동차정비 유지 - 윤활유 전문 판매","category":"car"}]},{"lat":"37.217661352","long":"126.82513018","imageIndex":0,"items":[{"name":"더케이오토모터스","tel":"031-480-3060","addr":"경기도 화성시 남양읍 송림리 207번지","indutype":"자동차정비 유지 - 자동차정비","category":"car"}]},{"lat":"37.218208775","long":"126.82366424","imageIndex":0,"items":[{"name":"스피드카공업사","tel":"031-355-4144","addr":"경기도 화성시 남양읍 송림리 223-1번지","indutype":"자동차정비 유지 - 자동차정비","category":"car"}]},{"lat":"37.217521834","long":"126.82224628","imageIndex":0,"items":[{"name":"제일모터스","tel":"031-356-1122","addr":"경기도 화성시 남양읍 송림리 232번지","indutype":"자동차정비 유지 - 자동차정비","category":"car"}]},{"lat":"37.217876142","long":"126.82416075","imageIndex":0,"items":[{"name":"중고타이어마트","tel":"031-356-6387","addr":"경기도 화성시 남양읍 송림리 223-5번지","indutype":"자동차정비 유지 - 자동차시트·타이어","category":"car"}]},{"lat":"37.218208775","long":"126.82366424","imageIndex":17,"items":[{"name":"가야","tel":"031-357-9957","addr":"경기도 화성시 남양읍 송림리 223-1번지","indutype":"건축자재 - 인테리어전문","category":"other"}]},{"lat":"37.218601332","long":"126.82110578","imageIndex":17,"items":[{"name":"두리토이즈","tel":"031-356-9903","addr":"경기도 화성시 남양읍 송림리 260번지","indutype":"서적문구 - 완구점","category":"other"}]},{"lat":"37.220492233","long":"126.82027876","imageIndex":17,"items":[{"name":"샬롬기독교백화점","tel":"031-284-7944","addr":"경기도 화성시 남양읍 송림리 481-3번지 경도빌라 가동 203호","indutype":"서적문구 - 전문서적","category":"other"}]},{"lat":"37.218660668","long":"126.82457577","imageIndex":17,"items":[{"name":"원강글러브","tel":"031-355-1258","addr":"경기도 화성시 남양읍 송림리 201-2번지","indutype":"의류 - 기타의류","category":"other"},{"name":"진원건재","tel":"031-406-7425","addr":"경기도 화성시 남양읍 송림리 201-2번지","indutype":"건축자재 - 기타건축자재","category":"other"}]},{"lat":"37.217018182","long":"126.82285587","imageIndex":17,"items":[{"name":"제일콘크리트","tel":"031-356-8889","addr":"경기도 화성시 남양읍 송림리 220-3번지 106호","indutype":"건축자재 - 기타건축자재","category":"other"}]},{"lat":"37.219297698","long":"126.81130204","imageIndex":17,"items":[{"name":"풍경","tel":"031-355-2521","addr":"경기도 화성시 남양읍 송림리 670-3번지","indutype":"주방용구 - 주방용구","category":"other"}]},{"lat":"37.21826677","long":"126.81458322","imageIndex":17,"items":[{"name":"하이텍시스템공조","tel":"031-357-9798","addr":"경기도 화성시 남양읍 송림리 685-1번지","indutype":"전기제품 - 냉열기기","category":"other"},{"name":"화성다누림 사회적협동조합","tel":"031-355-9895","addr":"경기도 화성시 남양읍 송림리 685-1번지 1층","indutype":"용역 서비스 - 사무서비스","category":"other"}]},{"lat":"37.218542736","long":"126.82404651","imageIndex":17,"items":[{"name":"한신콤푸레샤","tel":"031-111-1111","addr":"경기도 화성시 남양읍 송림리 211번지 101호","indutype":"기타 - 기계공구","category":"other"}]},{"lat":"37.220682032","long":"126.82661033","imageIndex":4,"items":[{"name":"가원","tel":"031-355-2855","addr":"경기도 화성시 남양읍 송림리 155-3번지","indutype":"일반휴게음식 - 일반한식","category":"restaurant"},{"name":"손 커피연구소","tel":"031-356-5644","addr":"경기도 화성시 남양읍 송림리 155-3번지 1층","indutype":"일반휴게음식 - 서양음식","category":"restaurant"}]},{"lat":"37.216431162","long":"126.81616507","imageIndex":4,"items":[{"name":"송림촌","tel":"031-356-8653","addr":"경기도 화성시 남양읍 송림리 616-2번지","indutype":"일반휴게음식 - 일반한식","category":"restaurant"}]},{"lat":"37.21826677","long":"126.81458322","imageIndex":4,"items":[{"name":"송진스넥","tel":"031-0000-0000","addr":"경기도 화성시 남양읍 송림리 685-1번지 지하1층","indutype":"일반휴게음식 - 일반한식","category":"restaurant"},{"name":"송진식당","tel":"","addr":"경기도 화성시 남양읍 송림리 685-1번지 송진불가마사우나 내","indutype":"일반휴게음식 - 일반한식","category":"restaurant"},{"name":"유일한식당","tel":"031-0000-0000","addr":"경기도 화성시 남양읍 송림리 685-1번지 송림동불가마 1층 103호","indutype":"일반휴게음식 - 일반한식","category":"restaurant"}]},{"lat":"37.217018182","long":"126.82285587","imageIndex":4,"items":[{"name":"털보네어죽민물매운탕","tel":"031-356-8056","addr":"경기도 화성시 남양읍 송림리 220-3번지","indutype":"일반휴게음식 - 일반한식","category":"restaurant"}]},{"lat":"37.218542736","long":"126.82404651","imageIndex":7,"items":[{"name":"남양낚시마트","tel":"031--356-6949","addr":"경기도 화성시 남양읍 송림리 211번지","indutype":"유통업 영리 - 슈퍼마켓","category":"mart"}]},{"lat":"37.217352624","long":"126.8235536","imageIndex":9,"items":[{"name":"뉴시티 충전소","tel":"02-459-4655","addr":"경기도 화성시 남양읍 송림리 220-7번지","indutype":"연료판매점 - 쌍용S-OIL 가스충전","category":"oil"}]},{"lat":"37.215710016","long":"126.81596406","imageIndex":9,"items":[{"name":"밀성종합가스","tel":"031-366-3139","addr":"경기도 화성시 남양읍 송림리 617번지","indutype":"연료판매점 - LPG 취급점","category":"oil"}]},{"lat":"37.216907253","long":"126.82101971","imageIndex":9,"items":[{"name":"송림주유소","tel":"031-356-6454","addr":"경기도 화성시 남양읍 송림리 237-2,3,4","indutype":"연료판매점 - SK주유소","category":"oil"},{"name":"현대주유소","tel":"031-357-8889","addr":"경기도 화성시 남양읍 송림리 237-2번지","indutype":"연료판매점 - 현대정유(오일뱅크)","category":"oil"}]},{"lat":"37.220129028","long":"126.82435824","imageIndex":9,"items":[{"name":"승영가스","tel":"031-356-2022","addr":"경기도 화성시 남양읍 송림리 163번지","indutype":"연료판매점 - LPG 취급점","category":"oil"}]},{"lat":"37.2155208","long":"126.81596452","imageIndex":9,"items":[{"name":"형제가스","tel":"031-311-9000","addr":"경기도 화성시 남양읍 송림리 617-2번지","indutype":"연료판매점 - LPG 취급점","category":"oil"}]},{"lat":"37.21826677","long":"126.81458322","imageIndex":13,"items":[{"name":"송진불한증막","tel":"031-355-8813","addr":"경기도 화성시 남양읍 송림리 685-1번지","indutype":"보건위생 - 사우나","category":"beauty"},{"name":"송진불한증막피부관리실","tel":"031-356-9686","addr":"경기도 화성시 남양읍 송림리 685-1번지 1층 송진불한증막 내","indutype":"보건위생 - 피부미용실","category":"beauty"}]}]