[{"lat":"37.653048502","long":"126.8870579","imageIndex":13,"items":[{"name":"MEDI LAB(메디랩)","tel":"070-4589-7592","addr":"경기도 고양시 덕양구 삼송동 306번지 삼송마을동원로얄듀크","indutype":"보건위생 - 화장품","category":"beauty"}]},{"lat":"37.651410232","long":"126.88859023","imageIndex":13,"items":[{"name":"h#157","tel":"02-381-1573","addr":"경기도 고양시 덕양구 삼송동 313-2번지","indutype":"보건위생 - 미용원","category":"beauty"}]},{"lat":"37.658886469","long":"126.89628511","imageIndex":13,"items":[{"name":"가와이","tel":"02-395-2726","addr":"경기도 고양시 덕양구 삼송동 62-104번지","indutype":"보건위생 - 미용재료","category":"beauty"}]},{"lat":"37.650469145","long":"126.88445565","imageIndex":13,"items":[{"name":"그리드헤어","tel":"02-371-1124","addr":"경기도 고양시 덕양구 삼송동 327-2번지","indutype":"보건위생 - 미용원","category":"beauty"}]},{"lat":"37.653604635","long":"126.89392426","imageIndex":13,"items":[{"name":"금강보청기(경기고양센터)","tel":"02-381-5722","addr":"경기도 고양시 덕양구 삼송동 29-3번지","indutype":"보건위생 - 의료용품","category":"beauty"}]},{"lat":"37.653103143","long":"126.89727926","imageIndex":13,"items":[{"name":"네일메이리","tel":"","addr":"경기도 고양시 덕양구 삼송동 289번지","indutype":"보건위생 - 피부미용실","category":"beauty"},{"name":"모유수유힐링맘","tel":"02-381-4656","addr":"경기도 고양시 덕양구 삼송동 289번지","indutype":"보건위생 - 기타대인서비스","category":"beauty"},{"name":"헤세드정신분석심리상담센터","tel":"","addr":"경기도 고양시 덕양구 삼송동 289번지","indutype":"보건위생 - 기타대인서비스","category":"beauty"}]},{"lat":"37.650914995","long":"126.88889694","imageIndex":13,"items":[{"name":"네일큐브","tel":"031-970-8333","addr":"경기도 고양시 덕양구 삼송동 313-6번지","indutype":"보건위생 - 피부미용실","category":"beauty"},{"name":"써니헤어","tel":"02-381-8304","addr":"경기도 고양시 덕양구 삼송동 313-6번지","indutype":"보건위생 - 미용원","category":"beauty"}]},{"lat":"37.648081454","long":"126.8843348","imageIndex":13,"items":[{"name":"눈 안경콘택트","tel":"02-857-1233","addr":"경기도 고양시 덕양구 삼송동 337-3번지","indutype":"보건위생 - 안경","category":"beauty"},{"name":"미용실주연","tel":"02-371-1348","addr":"경기도 고양시 덕양구 삼송동 337-3번지","indutype":"보건위생 - 미용원","category":"beauty"}]},{"lat":"37.642549695","long":"126.87586847","imageIndex":13,"items":[{"name":"다인헤어","tel":"031-965-4700","addr":"경기도 고양시 덕양구 삼송동 367번지","indutype":"보건위생 - 미용원","category":"beauty"}]},{"lat":"37.644442241","long":"126.87634114","imageIndex":13,"items":[{"name":"더헤어바이하진","tel":"02-381-4333","addr":"경기도 고양시 덕양구 삼송동 353-7번지","indutype":"보건위생 - 미용원","category":"beauty"}]},{"lat":"37.65232774","long":"126.89664577","imageIndex":13,"items":[{"name":"더힐헤어","tel":"02-0000-0000","addr":"경기도 고양시 덕양구 삼송동 291번지","indutype":"보건위생 - 미용원","category":"beauty"},{"name":"멜로우네일","tel":"02-371-1265","addr":"경기도 고양시 덕양구 삼송동 291번지","indutype":"보건위생 - 피부미용실","category":"beauty"}]},{"lat":"37.654271476","long":"126.89405927","imageIndex":13,"items":[{"name":"뜰헤어","tel":"02-381-4541","addr":"경기도 고양시 덕양구 삼송동 33-9번지","indutype":"보건위생 - 미용원","category":"beauty"}]},{"lat":"37.653770339","long":"126.88814466","imageIndex":13,"items":[{"name":"라베르헤어","tel":"02-371-3661","addr":"경기도 고양시 덕양구 삼송동 82번지","indutype":"보건위생 - 미용원","category":"beauty"}]},{"lat":"37.644054411","long":"126.87595655","imageIndex":13,"items":[{"name":"리엔드네일","tel":"","addr":"경기도 고양시 덕양구 삼송동 353-11번지","indutype":"보건위생 - 피부미용실","category":"beauty"}]},{"lat":"37.653022072","long":"126.88766987","imageIndex":13,"items":[{"name":"마리살롱","tel":"02-381-9991","addr":"경기도 고양시 덕양구 삼송동 302-2번지","indutype":"보건위생 - 미용원","category":"beauty"}]},{"lat":"37.652578676","long":"126.89517227","imageIndex":13,"items":[{"name":"문헤어","tel":"02-1899-2192","addr":"경기도 고양시 덕양구 삼송동 16-46번지","indutype":"보건위생 - 미용원","category":"beauty"}]},{"lat":"37.650351564","long":"126.88400257","imageIndex":13,"items":[{"name":"벗네일","tel":"","addr":"경기도 고양시 덕양구 삼송동 327번지","indutype":"보건위생 - 피부미용실","category":"beauty"},{"name":"보그헤어","tel":"031-381-0648","addr":"경기도 고양시 덕양구 삼송동 327번지","indutype":"보건위생 - 미용원","category":"beauty"}]},{"lat":"37.64310854","long":"126.87609413","imageIndex":13,"items":[{"name":"보보속눈썹","tel":"02-381-7111","addr":"경기도 고양시 덕양구 삼송동 361-3번지","indutype":"보건위생 - 피부미용실","category":"beauty"}]},{"lat":"37.652769967","long":"126.88784024","imageIndex":13,"items":[{"name":"브니엘네일","tel":"","addr":"경기도 고양시 덕양구 삼송동 302-4번지","indutype":"보건위생 - 피부미용실","category":"beauty"}]},{"lat":"37.652131674","long":"126.88928036","imageIndex":13,"items":[{"name":"블리스","tel":"070-7539-9386","addr":"경기도 고양시 덕양구 삼송동 135-5번지","indutype":"보건위생 - 화장품","category":"beauty"},{"name":"블리스네일","tel":"02-1111-1111","addr":"경기도 고양시 덕양구 삼송동 135-5번지","indutype":"보건위생 - 피부미용실","category":"beauty"}]},{"lat":"37.653490254","long":"126.88734052","imageIndex":13,"items":[{"name":"빨강머리앤","tel":"02-371-0037","addr":"경기도 고양시 덕양구 삼송동 301-2번지","indutype":"보건위생 - 미용원","category":"beauty"}]},{"lat":"37.651716693","long":"126.88872574","imageIndex":13,"items":[{"name":"성주힐링하우스","tel":"02-371-1734","addr":"경기도 고양시 덕양구 삼송동 314번지","indutype":"보건위생 - 피부미용실","category":"beauty"}]},{"lat":"37.6520735","long":"126.89448176","imageIndex":13,"items":[{"name":"세븐미용실","tel":"02-381-4733","addr":"경기도 고양시 덕양구 삼송동 128-32번지","indutype":"보건위생 - 미용원","category":"beauty"}]},{"lat":"37.650354685","long":"126.88714141","imageIndex":13,"items":[{"name":"소진헤어","tel":"02-371-0122","addr":"경기도 고양시 덕양구 삼송동 311번지 삼송2차아이파크","indutype":"보건위생 - 미용원","category":"beauty"}]},{"lat":"37.654273032","long":"126.89575909","imageIndex":13,"items":[{"name":"수빈헤어샵","tel":"02-381-2532","addr":"경기도 고양시 덕양구 삼송동 59-1번지","indutype":"보건위생 - 미용원","category":"beauty"}]},{"lat":"37.654272012","long":"126.88523153","imageIndex":13,"items":[{"name":"아벨라움","tel":"031-000-0000","addr":"경기도 고양시 덕양구 삼송동 297번지","indutype":"보건위생 - 미용원","category":"beauty"}]},{"lat":"37.650603698","long":"126.88386619","imageIndex":13,"items":[{"name":"아이스토리안경","tel":"02-381-8856","addr":"경기도 고양시 덕양구 삼송동 326번지","indutype":"보건위생 - 안경","category":"beauty"}]},{"lat":"37.648053614","long":"126.88353032","imageIndex":13,"items":[{"name":"안느","tel":"031-381-1224","addr":"경기도 고양시 덕양구 삼송동 337번지","indutype":"보건위생 - 화장품","category":"beauty"},{"name":"안느헤어&네일","tel":"02-386-9943","addr":"경기도 고양시 덕양구 삼송동 337번지","indutype":"보건위생 - 미용원","category":"beauty"}]},{"lat":"37.653803785","long":"126.89494386","imageIndex":13,"items":[{"name":"에필라쥬","tel":"02-371-1101","addr":"경기도 고양시 덕양구 삼송동 24-35번지","indutype":"보건위생 - 미용원","category":"beauty"}]},{"lat":"37.651996157","long":"126.88889529","imageIndex":13,"items":[{"name":"오휘 컨설턴트","tel":"02-381-5244","addr":"경기도 고양시 덕양구 삼송동 312-2번지","indutype":"보건위생 - 화장품","category":"beauty"},{"name":"오휘삼송지사","tel":"02-381-5244","addr":"경기도 고양시 덕양구 삼송동 312-2번지","indutype":"보건위생 - 화장품","category":"beauty"}]},{"lat":"37.654136592","long":"126.89434277","imageIndex":13,"items":[{"name":"은머리방","tel":"02-381-1523","addr":"경기도 고양시 덕양구 삼송동","indutype":"보건위생 - 미용원","category":"beauty"}]},{"lat":"37.652244371","long":"126.89414155","imageIndex":13,"items":[{"name":"익투스헤어","tel":"02-356-6266","addr":"경기도 고양시 덕양구 삼송동 128-94번지","indutype":"보건위생 - 미용원","category":"beauty"}]},{"lat":"37.65282856","long":"126.89258823","imageIndex":13,"items":[{"name":"자영암","tel":"02-381-8481","addr":"경기도 고양시 덕양구 삼송동 135-73번지","indutype":"보건위생 - 기타대인서비스","category":"beauty"}]},{"lat":"37.651248485","long":"126.88903241","imageIndex":13,"items":[{"name":"주식회사 티바이","tel":"070-7758-0102","addr":"경기도 고양시 덕양구 삼송동 314-12번지","indutype":"보건위생 - 의료용품","category":"beauty"}]},{"lat":"37.652466549","long":"126.89086632","imageIndex":13,"items":[{"name":"천신","tel":"","addr":"경기도 고양시 덕양구 삼송동 135-50번지","indutype":"보건위생 - 기타대인서비스","category":"beauty"}]},{"lat":"37.64363098","long":"126.87597994","imageIndex":13,"items":[{"name":"청담헤어","tel":"02-381-1023","addr":"경기도 고양시 덕양구 삼송동 360번지","indutype":"보건위생 - 미용원","category":"beauty"}]},{"lat":"37.644858173","long":"126.87773411","imageIndex":13,"items":[{"name":"캣츠아동행동연구소","tel":"02-414-9006","addr":"경기도 고양시 덕양구 삼송동 348번지","indutype":"보건위생 - 기타대인서비스","category":"beauty"}]},{"lat":"37.650271035","long":"126.88455795","imageIndex":13,"items":[{"name":"커팅클럽","tel":"070-4127-4005","addr":"경기도 고양시 덕양구 삼송동 327-3번지","indutype":"보건위생 - 미용원","category":"beauty"},{"name":"코너헤어샵","tel":"02-381-0660","addr":"경기도 고양시 덕양구 삼송동 327-3번지","indutype":"보건위생 - 미용원","category":"beauty"}]},{"lat":"37.654219651","long":"126.89650709","imageIndex":13,"items":[{"name":"컷트클럽","tel":"02-381-8885","addr":"경기도 고양시 덕양구 삼송동 61-14번지","indutype":"보건위생 - 미용원","category":"beauty"}]},{"lat":"37.643550695","long":"126.87672789","imageIndex":13,"items":[{"name":"태후사랑","tel":"02-381-6125","addr":"경기도 고양시 덕양구 삼송동 356-7번지","indutype":"보건위생 - 미용원","category":"beauty"}]},{"lat":"37.652719848","long":"126.8919538","imageIndex":13,"items":[{"name":"헤어락","tel":"02-371-1006","addr":"경기도 고양시 덕양구 삼송동 135-61번지","indutype":"보건위생 - 미용원","category":"beauty"}]},{"lat":"37.65416483","long":"126.88617226","imageIndex":13,"items":[{"name":"헤어륀","tel":"02-381-4885","addr":"경기도 고양시 덕양구 삼송동 298-5번지","indutype":"보건위생 - 미용원","category":"beauty"}]},{"lat":"37.643912408","long":"126.87797364","imageIndex":13,"items":[{"name":"헤어바이엘(HAIR BY 엘)","tel":"031-901-6764","addr":"경기도 고양시 덕양구 삼송동 357-3번지","indutype":"보건위생 - 미용원","category":"beauty"}]},{"lat":"37.648328859","long":"126.87958661","imageIndex":13,"items":[{"name":"헤어쥬히","tel":"02-371-3453","addr":"경기도 고양시 덕양구 삼송동 332번지 삼송마을18단지","indutype":"보건위생 - 미용원","category":"beauty"}]},{"lat":"37.65288285","long":"126.89283745","imageIndex":13,"items":[{"name":"헬펜바이오","tel":"02-389-8814","addr":"경기도 고양시 덕양구 삼송동 30-35번지","indutype":"보건위생 - 의료용품","category":"beauty"}]},{"lat":"37.643469158","long":"126.8763088","imageIndex":13,"items":[{"name":"호강네일살롱","tel":"","addr":"경기도 고양시 덕양구 삼송동 361번지","indutype":"보건위생 - 피부미용실","category":"beauty"}]},{"lat":"37.64519099","long":"126.87722367","imageIndex":13,"items":[{"name":"휴(  )","tel":"02-381-1877","addr":"경기도 고양시 덕양구 삼송동 347-5번지","indutype":"보건위생 - 기타대인서비스","category":"beauty"}]},{"lat":"37.65263614","long":"126.88920027","imageIndex":13,"items":[{"name":"힐링코드 심리센터","tel":"031-1833-6209","addr":"경기도 고양시 덕양구 삼송동 78-33번지","indutype":"보건위생 - 기타대인서비스","category":"beauty"}]}]