[{"lat":"37.708243685","long":"127.46861815","imageIndex":5,"items":[{"name":"Le Point","tel":"031-582-1000","addr":"경기도 가평군 청평면 호명리 339-3번지","indutype":"숙박업 - 여관/기타숙박업","category":"hotel"}]},{"lat":"37.732688623","long":"127.47035937","imageIndex":5,"items":[{"name":"감성216","tel":"070-4882-2869","addr":"경기도 가평군 청평면 호명리 46-6번지","indutype":"숙박업 - 여관/기타숙박업","category":"hotel"}]},{"lat":"37.711695728","long":"127.45436168","imageIndex":5,"items":[{"name":"경춘가경호텔","tel":"031-585-1113","addr":"경기도 가평군 청평면 호명리 287-21번지","indutype":"숙박업 - 여관/기타숙박업","category":"hotel"}]},{"lat":"37.73255412","long":"127.46791957","imageIndex":5,"items":[{"name":"꽃향기펜션","tel":"031-584-8567","addr":"경기도 가평군 청평면 호명리 77번지","indutype":"숙박업 - 여관/기타숙박업","category":"hotel"}]},{"lat":"37.709135338","long":"127.46869177","imageIndex":5,"items":[{"name":"라플로르","tel":"031-000-0000","addr":"경기도 가평군 청평면 호명리 340-13번지","indutype":"숙박업 - 여관/기타숙박업","category":"hotel"}]},{"lat":"37.708248973","long":"127.46955942","imageIndex":5,"items":[{"name":"르푸앙(Le Point)","tel":"031-582-1000","addr":"경기도 가평군 청평면 호명리 339-4번지","indutype":"숙박업 - 여관/기타숙박업","category":"hotel"}]},{"lat":"37.724882275","long":"127.45992029","imageIndex":5,"items":[{"name":"마로니에","tel":"070-7728-2291","addr":"경기도 가평군 청평면 호명리 144-4","indutype":"숙박업 - 여관/기타숙박업","category":"hotel"}]},{"lat":"37.72471826","long":"127.46039568","imageIndex":5,"items":[{"name":"별을보다","tel":"","addr":"경기도 가평군 청평면 호명리 144-35번지 2,3,4동","indutype":"숙박업 - 여관/기타숙박업","category":"hotel"}]},{"lat":"37.721333776","long":"127.46191741","imageIndex":5,"items":[{"name":"솔향기","tel":"070-8956-3358","addr":"경기도 가평군 청평면 호명리 154","indutype":"숙박업 - 여관/기타숙박업","category":"hotel"}]},{"lat":"37.72335441","long":"127.4635859","imageIndex":5,"items":[{"name":"숲속계곡","tel":"031-585-5575","addr":"경기도 가평군 청평면 호명리 166-1번지","indutype":"숙박업 - 여관/기타숙박업","category":"hotel"},{"name":"아트루","tel":"031-585-5850","addr":"경기도 가평군 청평면 호명리 166-1번지","indutype":"숙박업 - 여관/기타숙박업","category":"hotel"}]},{"lat":"37.725249449","long":"127.4581644","imageIndex":5,"items":[{"name":"숲속에는","tel":"","addr":"경기도 가평군 청평면 호명리 144-21번지","indutype":"숙박업 - 여관/기타숙박업","category":"hotel"}]},{"lat":"37.708884824","long":"127.46824793","imageIndex":5,"items":[{"name":"슈가트리펜션","tel":"031-584-3410","addr":"경기도 가평군 청평면 호명리 340-18번지","indutype":"숙박업 - 여관/기타숙박업","category":"hotel"}]},{"lat":"37.726551361","long":"127.46624863","imageIndex":5,"items":[{"name":"슈에뜨","tel":"031-585-1036","addr":"경기도 가평군 청평면 호명리 110번지","indutype":"숙박업 - 여관/기타숙박업","category":"hotel"}]},{"lat":"37.720854295","long":"127.46242485","imageIndex":5,"items":[{"name":"스카이정원","tel":"031-585-7780","addr":"경기도 가평군 청평면 호명리 176-3번지","indutype":"숙박업 - 여관/기타숙박업","category":"hotel"}]},{"lat":"37.731463856","long":"127.47022689","imageIndex":5,"items":[{"name":"아름뜰","tel":"","addr":"경기도 가평군 청평면 호명리 45번지","indutype":"숙박업 - 여관/기타숙박업","category":"hotel"}]},{"lat":"37.735019548","long":"127.47099796","imageIndex":5,"items":[{"name":"아이리스펜션","tel":"031-584-0369","addr":"경기도 가평군 청평면 호명리 50-1번지 6동","indutype":"숙박업 - 여관/기타숙박업","category":"hotel"},{"name":"청평아이리스","tel":"031-584-0369","addr":"경기도 가평군 청평면 호명리 50-1번지","indutype":"숙박업 - 여관/기타숙박업","category":"hotel"}]},{"lat":"37.727800483","long":"127.46706179","imageIndex":5,"items":[{"name":"예그리나","tel":"032-000-0000","addr":"경기도 가평군 청평면 호명리 106-1번지","indutype":"숙박업 - 여관/기타숙박업","category":"hotel"}]},{"lat":"37.72802518","long":"127.46719931","imageIndex":5,"items":[{"name":"예그리나2","tel":"032-000-0000","addr":"경기도 가평군 청평면 호명리 106번지","indutype":"숙박업 - 여관/기타숙박업","category":"hotel"}]},{"lat":"37.733873839","long":"127.47137645","imageIndex":5,"items":[{"name":"오띠모 펜션","tel":"031-585-8037","addr":"경기도 가평군 청평면 호명리 49-1번지 4동","indutype":"숙박업 - 여관/기타숙박업","category":"hotel"}]},{"lat":"37.733963346","long":"127.47152449","imageIndex":5,"items":[{"name":"오띠모펜션","tel":"031-585-8037","addr":"경기도 가평군 청평면 호명리 49-1번지","indutype":"숙박업 - 여관/기타숙박업","category":"hotel"}]},{"lat":"37.708661158","long":"127.46555887","imageIndex":5,"items":[{"name":"정화여각","tel":"","addr":"경기도 가평군 청평면 호명리 344-5번지","indutype":"숙박업 - 여관/기타숙박업","category":"hotel"}]},{"lat":"37.723382722","long":"127.46325714","imageIndex":5,"items":[{"name":"청평물소리펜션","tel":"031-585-6208","addr":"경기도 가평군 청평면 호명리 165-7번지","indutype":"숙박업 - 여관/기타숙박업","category":"hotel"}]},{"lat":"37.725688846","long":"127.45636356","imageIndex":5,"items":[{"name":"힐스토리펜션","tel":"031-585-3327","addr":"경기도 가평군 청평면 호명리 143-167번지","indutype":"숙박업 - 여관/기타숙박업","category":"hotel"}]}]