[{"lat":"37.815839629","long":"126.96649471","imageIndex":17,"items":[{"name":"대가쇼파","tel":"031-855-6075","addr":"경기도 양주시 광적면 우고리 18-4번지 1동","indutype":"수리서비스 - 가정용품수리","category":"other"},{"name":"주식회사경인개발","tel":"031-847-0304","addr":"경기도 양주시 광적면 우고리 18-4","indutype":"용역 서비스 - 기타용역서비스","category":"other"}]},{"lat":"37.824476661","long":"126.95776743","imageIndex":17,"items":[{"name":"대성축산기계","tel":"031-836-6927","addr":"경기도 양주시 광적면 우고리 129-2번지 1층","indutype":"기타 - 기계공구","category":"other"}]},{"lat":"37.820442944","long":"126.96487968","imageIndex":17,"items":[{"name":"명인시스템","tel":"031-879-0508","addr":"경기도 양주시 광적면 우고리 77-3번지","indutype":"건축자재 - 기타건축자재","category":"other"}]},{"lat":"37.837531837","long":"126.95915677","imageIndex":17,"items":[{"name":"송림기업 (주)","tel":"031-866-9352","addr":"경기도 양주시 광적면 우고리 242번지","indutype":"건축자재 - 보일러·펌프·샷시","category":"other"}]},{"lat":"37.830447445","long":"126.93404611","imageIndex":17,"items":[{"name":"승민종합건축","tel":"031-836-1704","addr":"경기도 양주시 광적면 우고리 527-14번지","indutype":"기타 - 기계공구","category":"other"}]},{"lat":"37.836748052","long":"126.95924812","imageIndex":17,"items":[{"name":"신용일개미","tel":"031-837-1233","addr":"경기도 양주시 광적면 우고리 270번지","indutype":"유통업 영리 - 기타유통업","category":"other"}]},{"lat":"37.828171225","long":"126.959628","imageIndex":17,"items":[{"name":"야생생물보전연구소","tel":"031-836-7609","addr":"경기도 양주시 광적면 우고리 332번지","indutype":"문화.취미 - 티켓","category":"other"}]},{"lat":"37.831586019","long":"126.96023941","imageIndex":17,"items":[{"name":"약수터휴게소","tel":"031-836-3855","addr":"경기도 양주시 광적면 우고리 301번지 1동","indutype":"회원제형태 - 기타4","category":"other"}]},{"lat":"37.822836765","long":"126.95730275","imageIndex":17,"items":[{"name":"왕성지게차","tel":"031-942-8185","addr":"경기도 양주시 광적면 우고리 120-17","indutype":"기타 - 기계공구","category":"other"}]},{"lat":"37.814947923","long":"126.96724469","imageIndex":17,"items":[{"name":"제일알미늄","tel":"031-878-6898","addr":"경기도 양주시 광적면 우고리 18-1","indutype":"농업 - 농기계","category":"other"}]},{"lat":"37.819533524","long":"126.9665724","imageIndex":17,"items":[{"name":"지플러스","tel":"031-829-8001","addr":"경기도 양주시 광적면 우고리 82번지","indutype":"전기제품 - 가전제품","category":"other"}]},{"lat":"37.812920048","long":"126.96484947","imageIndex":17,"items":[{"name":"진영엔지니어링","tel":"031-829-8234","addr":"경기도 양주시 광적면 우고리 14-8번지","indutype":"기타 - 기계공구","category":"other"}]},{"lat":"37.828972079","long":"126.95702637","imageIndex":17,"items":[{"name":"한빛애견마을","tel":"","addr":"경기도 양주시 광적면 우고리 322-2번지","indutype":"문화.취미 - 애완동물","category":"other"}]},{"lat":"37.827998623","long":"126.95591382","imageIndex":17,"items":[{"name":"해마루","tel":"031-829-6093","addr":"경기도 양주시 광적면 우고리 344-1번지","indutype":"회원제형태 - 기타4","category":"other"}]}]