[{"lat":"37.331588318","long":"126.91418231","imageIndex":13,"items":[{"name":"(주)강동무역","tel":"031-438-4995","addr":"경기도 군포시 대야미동 204번지 102호","indutype":"보건위생 - 의료용품","category":"beauty"}]},{"lat":"37.328751871","long":"126.91656637","imageIndex":13,"items":[{"name":"그대는꽃","tel":"031-437-7735","addr":"경기도 군포시 대야미동 645-17번지 101호","indutype":"보건위생 - 미용원","category":"beauty"},{"name":"주식회사 셀키스글로벌","tel":"02-1800-8323","addr":"경기도 군포시 대야미동 645-17번지 6층","indutype":"보건위생 - 미용재료","category":"beauty"}]},{"lat":"37.331976521","long":"126.91520866","imageIndex":13,"items":[{"name":"네일 눈부시다","tel":"","addr":"경기도 군포시 대야미동 636-3번지 센트럴아이파크 106호 상가","indutype":"보건위생 - 피부미용실","category":"beauty"},{"name":"써니샵 (SUNNY SHOP)","tel":"070-8260-3322","addr":"경기도 군포시 대야미동 636-3번지 센트럴아이파트 상가동제지 1층 106호","indutype":"보건위생 - 피부미용실","category":"beauty"}]},{"lat":"37.330309946","long":"126.91562808","imageIndex":13,"items":[{"name":"쉬크헤어","tel":"031-419-2038","addr":"경기도 군포시 대야미동 636-8번지 경명 103호","indutype":"보건위생 - 미용원","category":"beauty"}]},{"lat":"37.326951177","long":"126.9184301","imageIndex":13,"items":[{"name":"아이패밀리 안경원","tel":"031-438-9000","addr":"경기도 군포시 대야미동 657-1번지 대성프라자 101호","indutype":"보건위생 - 안경","category":"beauty"},{"name":"야미살롱","tel":"","addr":"경기도 군포시 대야미동 657-1번지 대성프라자 201호","indutype":"보건위생 - 피부미용실","category":"beauty"},{"name":"준하헤어","tel":"031-501-7880","addr":"경기도 군포시 대야미동 657-1번지 대성프라자 102호","indutype":"보건위생 - 미용원","category":"beauty"}]},{"lat":"37.325201593","long":"126.91620939","imageIndex":13,"items":[{"name":"예쁜걸헤어샵","tel":"031-437-3277","addr":"경기도 군포시 대야미동 667-3번지 상가동1층104호 E군포대야미-편한세상","indutype":"보건위생 - 미용원","category":"beauty"},{"name":"예쁜걸헤어샵(화장품)","tel":"031-437-3277","addr":"경기도 군포시 대야미동 667-3번지 104","indutype":"보건위생 - 화장품","category":"beauty"}]},{"lat":"37.327617235","long":"126.91745902","imageIndex":13,"items":[{"name":"윤당","tel":"031-409-9887","addr":"경기도 군포시 대야미동 654-3번지 현대프라자 202호","indutype":"보건위생 - 화장품","category":"beauty"}]},{"lat":"37.327392061","long":"126.91757211","imageIndex":13,"items":[{"name":"이가메디","tel":"070-7012-0710","addr":"경기도 군포시 대야미동 654-8번지 3층","indutype":"보건위생 - 의료용품","category":"beauty"},{"name":"이화헤어아트","tel":"031-438-3029","addr":"경기도 군포시 대야미동 654-8번지 104호","indutype":"보건위생 - 미용원","category":"beauty"}]},{"lat":"37.331337414","long":"126.91604438","imageIndex":13,"items":[{"name":"정진 헤어스페이스","tel":"031-438-7893","addr":"경기도 군포시 대야미동 639-4번지 스페이스빌 1층 101호","indutype":"보건위생 - 미용원","category":"beauty"}]},{"lat":"37.326680719","long":"126.91821603","imageIndex":13,"items":[{"name":"주식회사프라임텍","tel":"031-501-9431","addr":"경기도 군포시 대야미동 36블럭 1롯트 하나로프라자3층","indutype":"보건위생 - 의료용품","category":"beauty"}]},{"lat":"37.326842594","long":"126.9177871","imageIndex":13,"items":[{"name":"파마하우스","tel":"031-502-5516","addr":"경기도 군포시 대야미동 660-1번지 대야빌딩 105호","indutype":"보건위생 - 미용원","category":"beauty"}]}]