[{"lat":"37.137558376","long":"126.91238351","imageIndex":0,"items":[{"name":"미쉐린(화성발안점)","tel":"","addr":"경기도 화성시 향남읍 장짐리 216-4번지 110호","indutype":"자동차정비 유지 - 자동차시트·타이어","category":"car"}]},{"lat":"37.133110464","long":"126.9051525","imageIndex":0,"items":[{"name":"발안중고타이어","tel":"070-4228-9485","addr":"경기도 화성시 향남읍 장짐리 301번지","indutype":"자동차정비 유지 - 자동차시트·타이어","category":"car"}]},{"lat":"37.140281503","long":"126.90357883","imageIndex":0,"items":[{"name":"발안한세자동차시트","tel":"031-352-8981","addr":"경기도 화성시 향남읍 장짐리 86-44번지","indutype":"자동차정비 유지 - 자동차부품","category":"car"}]},{"lat":"37.137279385","long":"126.91282277","imageIndex":0,"items":[{"name":"수범종합카센타","tel":"031-352-8768","addr":"경기도 화성시 향남읍 장짐리 265-2","indutype":"자동차정비 유지 - 자동차정비","category":"car"}]},{"lat":"37.13808623","long":"126.89696393","imageIndex":0,"items":[{"name":"알피엠","tel":"031-354-7717","addr":"경기도 화성시 향남읍 장짐리 339-10번지 1층","indutype":"자동차정비 유지 - 세차장","category":"car"}]},{"lat":"37.139331497","long":"126.89902184","imageIndex":0,"items":[{"name":"애니카랜드 향남점","tel":"031-352-5367","addr":"경기도 화성시 향남읍 장짐리 359-5","indutype":"자동차정비 유지 - 자동차부품","category":"car"},{"name":"우리자동차정비공업사","tel":"031-352-9124","addr":"경기도 화성시 향남읍 장짐리 359-5번지","indutype":"자동차정비 유지 - 자동차부품","category":"car"},{"name":"주식회사 서울모터스","tel":"031-8059-4949","addr":"경기도 화성시 향남읍 장짐리 359-5번지 2층","indutype":"자동차판매 - 중고자동차판매","category":"car"},{"name":"초이스 전자","tel":"031-352-5553","addr":"경기도 화성시 향남읍 장짐리 359-5번지","indutype":"자동차정비 유지 - 자동차부품","category":"car"}]},{"lat":"37.138333661","long":"126.90171309","imageIndex":0,"items":[{"name":"유진씨알(C.R)","tel":"031-353-8582","addr":"경기도 화성시 향남읍 장짐리 316-2번지","indutype":"자동차정비 유지 - 자동차정비","category":"car"}]},{"lat":"37.139361587","long":"126.91385575","imageIndex":0,"items":[{"name":"으뜸손세차장","tel":"03-123-5214","addr":"경기도 화성시 향남읍 장짐리 245번지","indutype":"자동차정비 유지 - 세차장","category":"car"}]},{"lat":"37.139361689","long":"126.91399081","imageIndex":0,"items":[{"name":"주식회사 올포카 향남점","tel":"031-8047-0055","addr":"경기도 화성시 향남읍 장짐리 247-1번지","indutype":"자동차정비 유지 - 자동차부품","category":"car"}]},{"lat":"37.13897093","long":"126.89885351","imageIndex":0,"items":[{"name":"한진광택디테일샵","tel":"031-353-9129","addr":"경기도 화성시 향남읍 장짐리 344-1번지 A동 1층복도 오른쪽 전체","indutype":"자동차정비 유지 - 세차장","category":"car"}]}]