[{"lat":"37.254020038","long":"127.07714145","imageIndex":16,"items":[{"name":"(사)한국밸리댄스수원지회","tel":"031-206-6063","addr":"경기도 수원시 영통구 영통동 1038-4번지 정빌딩 지하1층","indutype":"학원 - 기능학원","category":"study"},{"name":"상승국어학원","tel":"031-204-9879","addr":"경기도 수원시 영통구 영통동 1038-4번지 정빌딩 401호","indutype":"학원 - 보습학원","category":"study"},{"name":"상승에듀학원","tel":"","addr":"경기도 수원시 영통구 영통동 1038-4번지 정빌딩 3층 301호","indutype":"학원 - 보습학원","category":"study"},{"name":"상승영어학원","tel":"031-206-7879","addr":"경기도 수원시 영통구 영통동 1038-4번지 정빌딩 5층 501호","indutype":"학원 - 외국어학원","category":"study"}]},{"lat":"37.247909957","long":"127.07885992","imageIndex":16,"items":[{"name":"(주) 글로테스","tel":"070-8869-5500","addr":"경기도 수원시 영통구 영통동 1024-16번지 일번지프라자빌딩 9층","indutype":"학원 - 독서실","category":"study"},{"name":"펜트하우스리빙텔","tel":"070-8869-5500","addr":"경기도 수원시 영통구 영통동 1024-16번지 일번지프라자빌딩 902호 901호,902호","indutype":"학원 - 독서실","category":"study"}]},{"lat":"37.251883292","long":"127.07919079","imageIndex":16,"items":[{"name":"(주)에오스","tel":"031-203-8205","addr":"경기도 수원시 영통구 영통동 1030-1번지 3층","indutype":"회원제형태 - 학원","category":"study"}]},{"lat":"37.255850672","long":"127.07464082","imageIndex":16,"items":[{"name":"(주)영통모던케이실용음악학원","tel":"031-204-4628","addr":"경기도 수원시 영통구 영통동 958-1번지 드림피아빌딩 3층 312호","indutype":"학원 - 예·체능계학원","category":"study"},{"name":"(주)행복한학생","tel":"031-206-4096","addr":"경기도 수원시 영통구 영통동 958-1번지 드림피아빌딩 410호","indutype":"학원 - 보습학원","category":"study"},{"name":"강산학원","tel":"031-204-7878","addr":"경기도 수원시 영통구 영통동 958-1번지 드림피아빌딩 508호","indutype":"학원 - 보습학원","category":"study"},{"name":"국어팩토리학원","tel":"031-273-7995","addr":"경기도 수원시 영통구 영통동 958-1번지 드림피아빌딩 4층 410호","indutype":"학원 - 보습학원","category":"study"},{"name":"모던실용음악학원","tel":"031-204-4628","addr":"경기도 수원시 영통구 영통동 958-1번지 드림피아빌딩 314호","indutype":"학원 - 예·체능계학원","category":"study"},{"name":"엠비케이수학전문학원","tel":"031-273-9766","addr":"경기도 수원시 영통구 영통동 958-1번지 드림피아빌딩 513-1호","indutype":"학원 - 보습학원","category":"study"},{"name":"영통모던케이댄스실용음악학원","tel":"031-204-4628","addr":"경기도 수원시 영통구 영통동 958-1번지 3층 315,316호","indutype":"학원 - 예·체능계학원","category":"study"},{"name":"예스어학원","tel":"031-203-2345","addr":"경기도 수원시 영통구 영통동 958-1번지 드림피아빌딩 507호","indutype":"학원 - 외국어학원","category":"study"},{"name":"이챕터스학원","tel":"031-202-5068","addr":"경기도 수원시 영통구 영통동 958-1번지 드림피아빌딩 510호","indutype":"회원제형태 - 학원","category":"study"},{"name":"학습능력개발학원","tel":"031-202-4409","addr":"경기도 수원시 영통구 영통동 958-1번지 드림피아빌딩 503호","indutype":"회원제형태 - 학원","category":"study"},{"name":"혜윰국어논술전문학원","tel":"031-203-9957","addr":"경기도 수원시 영통구 영통동 958-1번지 드림피아빌딩 512호","indutype":"회원제형태 - 학원","category":"study"},{"name":"희망보습학원","tel":"031-203-1471","addr":"경기도 수원시 영통구 영통동 영통로1623,502(드림피아빌딩)","indutype":"학원 - 보습학원","category":"study"}]},{"lat":"37.254463837","long":"127.07338831","imageIndex":16,"items":[{"name":"(주)중등와이즈만씨앤아이수원영통센터","tel":"031-205-9337","addr":"경기도 수원시 영통구 영통동 959-1번지 모던타운 7층 705호","indutype":"학원 - 보습학원","category":"study"},{"name":"과수원학원(과학적수능원리)","tel":"031-273-2328","addr":"경기도 수원시 영통구 영통동 959-1번지 모던타운 706호","indutype":"학원 - 보습학원","category":"study"},{"name":"그랜드음악학원","tel":"031-204-0021","addr":"경기도 수원시 영통구 영통동 959-1번지 모던타운 602호","indutype":"학원 - 예·체능계학원","category":"study"},{"name":"김태호학원","tel":"031-204-3125","addr":"경기도 수원시 영통구 영통동 959-1번지 모던타운 5층 505호","indutype":"학원 - 보습학원","category":"study"},{"name":"두뇌과학","tel":"031-309-4213","addr":"경기도 수원시 영통구 영통동 959-1번지 모던타운 411호","indutype":"학원 - 기타 교육기관","category":"study"},{"name":"미술로생각하기 영통","tel":"031-206-3252","addr":"경기도 수원시 영통구 영통동 959-1번지 모던타운 508호","indutype":"학원 - 예·체능계학원","category":"study"},{"name":"수학여행학원","tel":"031-204-6204","addr":"경기도 수원시 영통구 영통동 959-1번지 모던타운 701호","indutype":"회원제형태 - 학원","category":"study"},{"name":"아담리즈수학학원","tel":"031-206-1160","addr":"경기도 수원시 영통구 영통동 959-1번지 모던타운 507호","indutype":"학원 - 보습학원","category":"study"},{"name":"에스씨에이지니어스클럽학원","tel":"031-238-2325","addr":"경기도 수원시 영통구 영통동 959-1번지 모던타운 601,602호","indutype":"학원 - 보습학원","category":"study"},{"name":"영통더웰간호학원","tel":"031-202-1140","addr":"경기도 수원시 영통구 영통동 959-1번지 모던타운 510호","indutype":"회원제형태 - 학원","category":"study"},{"name":"온더데스크영통독서실","tel":"031-203-5300","addr":"경기도 수원시 영통구 영통동 959-1번지 일부 101호","indutype":"학원 - 독서실","category":"study"},{"name":"유피학원","tel":"031-205-8080","addr":"경기도 수원시 영통구 영통동 959-1번지 모던타운 702호","indutype":"학원 - 보습학원","category":"study"},{"name":"윤선생스마트랜드 수원영통","tel":"031-111-1111","addr":"경기도 수원시 영통구 영통동 959-1번지 모던타운 4층 12호","indutype":"학원 - 학습지 교육","category":"study"},{"name":"이안서가학원","tel":"031-202-6601","addr":"경기도 수원시 영통구 영통동 959-1번지 영통모던타운 6층 603호","indutype":"학원 - 보습학원","category":"study"},{"name":"이투스투포세븐학원","tel":"031-245-0247","addr":"경기도 수원시 영통구 영통동 959-1번지 모던타운 703호일부,704호","indutype":"학원 - 보습학원","category":"study"},{"name":"주식회사 인재","tel":"031-204-1353","addr":"경기도 수원시 영통구 영통동 959-1번지 413,414","indutype":"학원 - 보습학원","category":"study"},{"name":"하우스터디 영통센터 독서실","tel":"031-273-9053","addr":"경기도 수원시 영통구 영통동 959-1번지 모던타운 405호일부,406호일부","indutype":"학원 - 독서실","category":"study"}]},{"lat":"37.254408805","long":"127.07500016","imageIndex":16,"items":[{"name":"blue planet","tel":"031-203-0519","addr":"경기도 수원시 영통구 영통동 996-4번지 508-509호","indutype":"학원 - 외국어학원","category":"study"},{"name":"김문호수학학원","tel":"031-204-0273","addr":"경기도 수원시 영통구 영통동 996-4번지 6층 614호","indutype":"학원 - 보습학원","category":"study"},{"name":"김문호수학학원","tel":"031-204-0273","addr":"경기도 수원시 영통구 영통동 996-4번지 보보스프라자 515호일부,614호","indutype":"학원 - 보습학원","category":"study"},{"name":"닥터필로스학원","tel":"031-205-4960","addr":"경기도 수원시 영통구 영통동 996-4번지 504호","indutype":"학원 - 보습학원","category":"study"},{"name":"라다댄스학원","tel":"031-206-6063","addr":"경기도 수원시 영통구 영통동 996-4번지 312호","indutype":"학원 - 예·체능계학원","category":"study"},{"name":"봉쌤과학교습소","tel":"031-000-0000","addr":"경기도 수원시 영통구 영통동 996-4번지 일부 519호","indutype":"학원 - 보습학원","category":"study"},{"name":"소마수학학원","tel":"031-202-8727","addr":"경기도 수원시 영통구 영통동 996-4번지 보보스프라자 612호","indutype":"학원 - 보습학원","category":"study"},{"name":"수원영통자라다남아미술학원","tel":"031-303-9894","addr":"경기도 수원시 영통구 영통동 996-4번지 4층 411호","indutype":"학원 - 예·체능계학원","category":"study"},{"name":"써미트영어학원","tel":"031-203-0582","addr":"경기도 수원시 영통구 영통동 996-4번지 보보스프라자 608호","indutype":"회원제형태 - 학원","category":"study"},{"name":"씨엠에스학원","tel":"031-203-3400","addr":"경기도 수원시 영통구 영통동 996-4번지 보보스프라자 507호,521호","indutype":"학원 - 보습학원","category":"study"},{"name":"아트파이브학원","tel":"031-206-5775","addr":"경기도 수원시 영통구 영통동 996-4번지 205호","indutype":"학원 - 보습학원","category":"study"},{"name":"열린생각학원","tel":"031-273-5770","addr":"경기도 수원시 영통구 영통동 996-4번지 609호","indutype":"학원 - 보습학원","category":"study"},{"name":"영재교육학원","tel":"031-202-8721","addr":"경기도 수원시 영통구 영통동 996-4번지 보보스프라자 612호","indutype":"학원 - 보습학원","category":"study"},{"name":"영통시사어학원","tel":"031-273-7311","addr":"경기도 수원시 영통구 영통동 996-4번지 412호","indutype":"학원 - 외국어학원","category":"study"},{"name":"와이즈만과학수학학원/(주)와이즈만과학수","tel":"031-205-9334","addr":"경기도 수원시 영통구 영통동 996-4번지 206호","indutype":"학원 - 보습학원","category":"study"},{"name":"와이즈만수원영통주식회사","tel":"031-205-9334","addr":"경기도 수원시 영통구 영통동 996-4번지 보보스프라자 206호","indutype":"학원 - 보습학원","category":"study"},{"name":"윙어스스피치교습소","tel":"02-1111-1111","addr":"경기도 수원시 영통구 영통동 996-4번지 보보스프라자 520호","indutype":"학원 - 보습학원","category":"study"},{"name":"윤혜경음악학원","tel":"031-273-0030","addr":"경기도 수원시 영통구 영통동 996-4번지 보보스프라자 506호","indutype":"학원 - 예·체능계학원","category":"study"},{"name":"이효신사회교습소","tel":"031-202-4209","addr":"경기도 수원시 영통구 영통동 996-4번지 보보스프라자 320호","indutype":"회원제형태 - 학원","category":"study"},{"name":"차&김발레학원","tel":"031-206-2063","addr":"경기도 수원시 영통구 영통동 996-4번지 보보스프라자 601호 602호","indutype":"회원제형태 - 학원","category":"study"},{"name":"참창의숲","tel":"031-232-7271","addr":"경기도 수원시 영통구 영통동 996-4번지 보보스프라자 429호","indutype":"학원 - 기타 교육기관","category":"study"},{"name":"튠관현악전문학원","tel":"031-205-5146","addr":"경기도 수원시 영통구 영통동 996-4번지 312호","indutype":"학원 - 예·체능계학원","category":"study"},{"name":"피케이수학전문학원","tel":"031-205-7472","addr":"경기도 수원시 영통구 영통동 996-4번지 319호","indutype":"학원 - 보습학원","category":"study"},{"name":"한국플라워디자인학원","tel":"031-204-7411","addr":"경기도 수원시 영통구 영통동 996-4번지 보보스프라자 4층 422호","indutype":"회원제형태 - 학원","category":"study"}]},{"lat":"37.245726598","long":"127.06857886","imageIndex":16,"items":[{"name":"e-편한어린이집[아이행복]","tel":"031-213-3311","addr":"경기도 수원시 영통구 영통동 987-1번지 영통이-편한세상 105동 101호","indutype":"학원 - 유아원","category":"study"}]},{"lat":"37.251182744","long":"127.07560574","imageIndex":16,"items":[{"name":"강남플러스학원","tel":"031-205-2505","addr":"경기도 수원시 영통구 영통동 1009-4 드림시티2층","indutype":"학원 - 보습학원","category":"study"},{"name":"맥프리미엄독서실","tel":"031-204-2121","addr":"경기도 수원시 영통구 영통동 1009-4번지 3층","indutype":"학원 - 독서실","category":"study"},{"name":"창언어논술학원","tel":"02-1566-3634","addr":"경기도 수원시 영통구 영통동 1009-4번지 3층 일부","indutype":"학원 - 보습학원","category":"study"}]},{"lat":"37.250100957","long":"127.07649514","imageIndex":16,"items":[{"name":"겨자씨자라큰나무미술학원","tel":"031-250-0106","addr":"경기도 수원시 영통구 영통동 1005-6번지 5층","indutype":"학원 - 예·체능계학원","category":"study"},{"name":"지혜의숲사고력논술전문학원","tel":"031-204-6503","addr":"경기도 수원시 영통구 영통동 1005-6번지 2층","indutype":"회원제형태 - 학원","category":"study"}]},{"lat":"37.266542182","long":"127.08052461","imageIndex":16,"items":[{"name":"경기수원시동부육아종합지원센터[아이행복]","tel":"031-273-6690","addr":"경기도 수원시 영통구 영통동 947-5번지","indutype":"학원 - 유아원","category":"study"},{"name":"수원동부육아종합지원센터(행궁점)[아이행","tel":"031-273-6690","addr":"경기도 수원시 영통구 영통동 947-5번지","indutype":"학원 - 유아원","category":"study"}]},{"lat":"37.253435589","long":"127.07516831","imageIndex":16,"items":[{"name":"경기아이티디자인학원","tel":"031-206-9898","addr":"경기도 수원시 영통구 영통동 998-1번지 평익칼라스위트 605호","indutype":"학원 - 기능학원","category":"study"},{"name":"내일의 창학원","tel":"031-203-2131","addr":"경기도 수원시 영통구 영통동 998-1번지 610호 평익칼라사위트 일부","indutype":"학원 - 보습학원","category":"study"},{"name":"딱국어교습소","tel":"031-111-1111","addr":"경기도 수원시 영통구 영통동 998-1번지 평익칼라스위트 603호","indutype":"학원 - 보습학원","category":"study"},{"name":"리틀보이스스피치교습소","tel":"031-202-0383","addr":"경기도 수원시 영통구 영통동 998-1번지 평익빌딩 604-1호","indutype":"학원 - 기타 교육기관","category":"study"},{"name":"에보니음악교습소","tel":"070-4131-9021","addr":"경기도 수원시 영통구 영통동 998-1번지 평익칼라스위트 407-1호","indutype":"학원 - 예·체능계학원","category":"study"},{"name":"영통애플부동산경매학원","tel":"02-0000-0000","addr":"경기도 수원시 영통구 영통동 998-1번지 평익빌딩 6층 612,613호","indutype":"학원 - 기능학원","category":"study"},{"name":"자연주의교육연구소","tel":"031-273-7531","addr":"경기도 수원시 영통구 영통동 998-1번지 평익빌딩 4층 409호","indutype":"학원 - 기타 교육기관","category":"study"},{"name":"주식회사 메인제이엔터테인먼트","tel":"031-205-0901","addr":"경기도 수원시 영통구 영통동 998-1번지 평익칼라스위트 405호","indutype":"학원 - 예·체능계학원","category":"study"},{"name":"카툰시드미술학원","tel":"031-206-0357","addr":"경기도 수원시 영통구 영통동 998-1번지 평익칼라스위트 611호 영통","indutype":"학원 - 예·체능계학원","category":"study"},{"name":"토크피드(TALKFEED)","tel":"","addr":"경기도 수원시 영통구 영통동 998-1번지 평익칼라스위트 411호","indutype":"학원 - 기타 교육기관","category":"study"},{"name":"팀싸이언스중고등과학교습소","tel":"031-203-3233","addr":"경기도 수원시 영통구 영통동 998-1번지 평익칼라스위트 901호","indutype":"학원 - 보습학원","category":"study"},{"name":"포스영어전문학원","tel":"031-202-0599","addr":"경기도 수원시 영통구 영통동 998-1번지 610-1,610-2호","indutype":"학원 - 보습학원","category":"study"}]},{"lat":"37.26804461","long":"127.08394218","imageIndex":16,"items":[{"name":"경희대새미래태권도장","tel":"031-203-0515","addr":"경기도 수원시 영통구 영통동 1054-3번지 신명.한국아파트 311~315호","indutype":"학원 - 예·체능계학원","category":"study"},{"name":"솔페이지음악학원","tel":"031-203-2467","addr":"경기도 수원시 영통구 영통동 1054-3번지 신명.한국아파트 호","indutype":"학원 - 예·체능계학원","category":"study"},{"name":"신수학잉글리시아이학원","tel":"031-205-0935","addr":"경기도 수원시 영통구 영통동 1054-3번지 신명.한국아파트 204,205,206호","indutype":"학원 - 보습학원","category":"study"}]},{"lat":"37.254324119","long":"127.06547526","imageIndex":16,"items":[{"name":"경희대신나무태권도","tel":"031-203-6441","addr":"경기도 수원시 영통구 영통동 963-2번지 신성상가지층1호,2호","indutype":"학원 - 예·체능계학원","category":"study"},{"name":"뮤엠영어영통캠퍼스","tel":"031-203-8808","addr":"경기도 수원시 영통구 영통동 963-2번지 신성.신안.쌍용.진흥아파트 552동 106호","indutype":"회원제형태 - 학원","category":"study"},{"name":"탁효정(개인과외교습)","tel":"","addr":"경기도 수원시 영통구 영통동 963-2번지 신성.신안.쌍용.진흥아파트 542동 1203호","indutype":"학원 - 기타 교육기관","category":"study"}]},{"lat":"37.252377952","long":"127.06536093","imageIndex":16,"items":[{"name":"고려체육관","tel":"031-202-7788","addr":"경기도 수원시 영통구 영통동 964-4번지","indutype":"학원 - 예·체능계학원","category":"study"},{"name":"나다움미술학원","tel":"031-206-7803","addr":"경기도 수원시 영통구 영통동 964-4번지 소망문화센터 405호","indutype":"학원 - 예·체능계학원","category":"study"},{"name":"영통이희옥중국어교습소","tel":"070-8815-6638","addr":"경기도 수원시 영통구 영통동 964-4번지 소망프라자 503호 일부","indutype":"회원제형태 - 학원","category":"study"},{"name":"영통청림학원","tel":"031-206-5502","addr":"경기도 수원시 영통구 영통동 964-4번지 소망문화센터 303호","indutype":"학원 - 보습학원","category":"study"},{"name":"영통합기도","tel":"031-205-5675","addr":"경기도 수원시 영통구 영통동 964-4번지 5층","indutype":"학원 - 예·체능계학원","category":"study"},{"name":"윤선생영어숲영통학원","tel":"031-202-7744","addr":"경기도 수원시 영통구 영통동 964-4번지 소망문화센터 402호","indutype":"학원 - 보습학원","category":"study"},{"name":"하나영어교습소","tel":"031-203-0577","addr":"경기도 수원시 영통구 영통동 964-4번지 소망문화센터 306호","indutype":"학원 - 외국어학원","category":"study"},{"name":"한울림음악학원","tel":"031-202-0487","addr":"경기도 수원시 영통구 영통동 964-4번지 소망문화센터 404호","indutype":"학원 - 예·체능계학원","category":"study"},{"name":"홍선생중국어교습소","tel":"031-203-6638","addr":"경기도 수원시 영통구 영통동 964-4번지 소망문화센터 503호","indutype":"회원제형태 - 학원","category":"study"}]},{"lat":"37.251994412","long":"127.07438919","imageIndex":16,"items":[{"name":"공감입시학원","tel":"031-206-9505","addr":"경기도 수원시 영통구 영통동 998-6번지 아셈프라자 605호","indutype":"회원제형태 - 학원","category":"study"},{"name":"국대국어학원","tel":"031-202-6584","addr":"경기도 수원시 영통구 영통동 998-6번지 아셈프라자 5층 502-B호","indutype":"학원 - 보습학원","category":"study"},{"name":"국어의대표학원","tel":"031-202-6584","addr":"경기도 수원시 영통구 영통동 998-6번지 아셈프라자 5층 502-B호","indutype":"학원 - 보습학원","category":"study"},{"name":"나다고등국어논술학원","tel":"031-206-8082","addr":"경기도 수원시 영통구 영통동 998-6번지 아셈프라자 705호","indutype":"학원 - 보습학원","category":"study"},{"name":"뇌과학교육원","tel":"031-206-0888","addr":"경기도 수원시 영통구 영통동 998-6번지 아셈프라자 402호","indutype":"학원 - 기타 교육기관","category":"study"},{"name":"대학으로가는길학원","tel":"031-206-1202","addr":"경기도 수원시 영통구 영통동 998-6번지 아셈프라자 501호","indutype":"학원 - 보습학원","category":"study"},{"name":"드림매쓰학원","tel":"031-206-0111","addr":"경기도 수원시 영통구 영통동 998-6번지 아셈프라자 5층 501호","indutype":"학원 - 보습학원","category":"study"},{"name":"멘사사고력교육학원","tel":"031-203-2311","addr":"경기도 수원시 영통구 영통동 998-6번지 아셈프라자 807호","indutype":"회원제형태 - 학원","category":"study"},{"name":"명인스카이수학학원 영통지점","tel":"031-202-5535","addr":"경기도 수원시 영통구 영통동 998-6번지 아셈프라자 5층 502-1호","indutype":"학원 - 보습학원","category":"study"},{"name":"씨에프삼점일사수학전문학원","tel":"031-548-0085","addr":"경기도 수원시 영통구 영통동 998-6번지 아셈프라자 706호","indutype":"학원 - 보습학원","category":"study"},{"name":"씨에프수학전문학원","tel":"031-892-5690","addr":"경기도 수원시 영통구 영통동 998-6번지 아셈프라자 707호","indutype":"학원 - 보습학원","category":"study"},{"name":"아이엠아이영어학원","tel":"031-206-6329","addr":"경기도 수원시 영통구 영통동 998-6번지 아셈프라자 502-A호","indutype":"학원 - 보습학원","category":"study"},{"name":"에듀리프스터디몰입학습학원","tel":"031-345-1250","addr":"경기도 수원시 영통구 영통동 998-6번지 아셈프라자 606동 607호","indutype":"학원 - 보습학원","category":"study"},{"name":"영통검도관","tel":"031-205-7800","addr":"경기도 수원시 영통구 영통동 998-6번지 아셈프라자 601호","indutype":"회원제형태 - 학원","category":"study"},{"name":"와이즈영어단과학원","tel":"031-203-5538","addr":"경기도 수원시 영통구 영통동 998-6번지 아셈프라자 705호","indutype":"회원제형태 - 학원","category":"study"},{"name":"이혜연영어전문학원주식회사","tel":"031-273-3551","addr":"경기도 수원시 영통구 영통동 998-6번지 아셈프라자","indutype":"회원제형태 - 학원","category":"study"},{"name":"주식회사 나다논술학원","tel":"031-206-8082","addr":"경기도 수원시 영통구 영통동 998-6번지 아셈프라자 708호","indutype":"학원 - 보습학원","category":"study"},{"name":"주식회사희원(영통대찬학원)","tel":"031-204-0429","addr":"경기도 수원시 영통구 영통동 998-6번지 아셈프라자 602,603호","indutype":"학원 - 보습학원","category":"study"},{"name":"코치미학원","tel":"031-205-1585","addr":"경기도 수원시 영통구 영통동 998-6번지 아셈프라자 408호","indutype":"학원 - 보습학원","category":"study"}]},{"lat":"37.254127693","long":"127.07788551","imageIndex":16,"items":[{"name":"국어팩토리국어학원","tel":"","addr":"경기도 수원시 영통구 영통동 1038-11번지 2층","indutype":"학원 - 보습학원","category":"study"},{"name":"권인재수학아카데미학원","tel":"031-203-0104","addr":"경기도 수원시 영통구 영통동 1038-11번지 5층","indutype":"회원제형태 - 학원","category":"study"},{"name":"안스바이올린학원","tel":"031-205-2057","addr":"경기도 수원시 영통구 영통동 1038-11번지 4층","indutype":"학원 - 예·체능계학원","category":"study"},{"name":"피그마리온학원","tel":"031-273-5008","addr":"경기도 수원시 영통구 영통동 1038-11번지 로만스빌딩 3층","indutype":"학원 - 기타 교육기관","category":"study"}]},{"lat":"37.254209134","long":"127.07733326","imageIndex":16,"items":[{"name":"그루학원","tel":"031-204-4226","addr":"경기도 수원시 영통구 영통동 1038-6번지 2동","indutype":"학원 - 보습학원","category":"study"}]},{"lat":"37.248936543","long":"127.07977392","imageIndex":16,"items":[{"name":"금봉독학원","tel":"031-206-4984","addr":"경기도 수원시 영통구 영통동 1025-4번지 광일빌딩 403호","indutype":"회원제형태 - 학원","category":"study"}]},{"lat":"37.253460219","long":"127.07900076","imageIndex":16,"items":[{"name":"김구택연기학원","tel":"031-273-6119","addr":"경기도 수원시 영통구 영통동 1045-2번지 3층(3층전체)","indutype":"학원 - 예·체능계학원","category":"study"},{"name":"이수한의인터네셔날미술학원","tel":"031-273-7707","addr":"경기도 수원시 영통구 영통동 1045-2번지 4층","indutype":"회원제형태 - 학원","category":"study"}]},{"lat":"37.247911121","long":"127.07702275","imageIndex":16,"items":[{"name":"김영우댄스아카데미학원","tel":"031-204-2022","addr":"경기도 수원시 영통구 영통동 1024-7번지 영통빌딩 401호 일부","indutype":"학원 - 예·체능계학원","category":"study"},{"name":"해피하우스고시텔 경희대점","tel":"031-206-6009","addr":"경기도 수원시 영통구 영통동 1024-7번지 영통빌딩","indutype":"학원 - 독서실","category":"study"}]},{"lat":"37.254208857","long":"127.07777287","imageIndex":16,"items":[{"name":"김창훈수학학원","tel":"031-204-9001","addr":"경기도 수원시 영통구 영통동 1038-10번지 운현빌딩 3층","indutype":"학원 - 보습학원","category":"study"},{"name":"매릴랜드영어교습소","tel":"031-273-8105","addr":"경기도 수원시 영통구 영통동 1038-10번지 운현빌딩 4층","indutype":"회원제형태 - 학원","category":"study"},{"name":"수원지기학교","tel":"031-205-3055","addr":"경기도 수원시 영통구 영통동 1038-10번지 운현빌딩 7층","indutype":"학원 - 기타 교육기관","category":"study"},{"name":"쥴리중고영어교습소","tel":"031-273-5101","addr":"경기도 수원시 영통구 영통동 1038-10번지 운현빌딩 201호","indutype":"회원제형태 - 학원","category":"study"}]},{"lat":"37.249622991","long":"127.06105303","imageIndex":16,"items":[{"name":"꼬마숲어린이집[아이행복]","tel":"031-203-0103","addr":"경기도 수원시 영통구 영통동 972-2번지 벽적골주공휴먼시아8단지 842동 103호","indutype":"학원 - 유아원","category":"study"},{"name":"일단고수학학원","tel":"031-8652-7295","addr":"경기도 수원시 영통구 영통동 972-2번지 벽적골주공휴먼시아8단지 842동 1104호","indutype":"학원 - 기타 교육기관","category":"study"}]},{"lat":"37.25315598","long":"127.07564146","imageIndex":16,"items":[{"name":"넥스텝어학원","tel":"031-203-7056","addr":"경기도 수원시 영통구 영통동 998-9럭셔리프라자705호~706호","indutype":"학원 - 예·체능계학원","category":"study"},{"name":"어썸팩토리수원영통플레이스독서실","tel":"031-273-0606","addr":"경기도 수원시 영통구 영통동 998-9번지 럭셔리프라자 701동 703호","indutype":"학원 - 독서실","category":"study"}]},{"lat":"37.263958208","long":"127.07744432","imageIndex":16,"items":[{"name":"뉴이레학원","tel":"031-305-6681","addr":"경기도 수원시 영통구 영통동 954-5번지 3층전부","indutype":"학원 - 보습학원","category":"study"},{"name":"엘카스터디학원","tel":"031-205-0525","addr":"경기도 수원시 영통구 영통동 954-5번지 세진빌딩 5층","indutype":"학원 - 보습학원","category":"study"},{"name":"황곡중국어교습소","tel":"031-204-7868","addr":"경기도 수원시 영통구 영통동 954-5번지 일부 4층","indutype":"회원제형태 - 학원","category":"study"}]},{"lat":"37.254128098","long":"127.07724301","imageIndex":16,"items":[{"name":"늘푸른수학학원","tel":"032-202-5433","addr":"경기도 수원시 영통구 영통동 1038-5번지 5층","indutype":"학원 - 보습학원","category":"study"},{"name":"엘디제이영어학원","tel":"031-205-0509","addr":"경기도 수원시 영통구 영통동 1038-5번지 2층","indutype":"학원 - 외국어학원","category":"study"}]},{"lat":"37.257625536","long":"127.07491304","imageIndex":16,"items":[{"name":"늘푸른유치원[아이행복]","tel":"031-203-8311","addr":"경기도 수원시 영통구 영통동 957-6","indutype":"학원 - 유치원","category":"study"}]},{"lat":"37.252237928","long":"127.07399491","imageIndex":16,"items":[{"name":"단소야국악학원","tel":"031-204-1003","addr":"경기도 수원시 영통구 영통동 998-5번지 센타프라자 6층 604호","indutype":"학원 - 예·체능계학원","category":"study"},{"name":"렘브란트풍차미술학원","tel":"031-203-8024","addr":"경기도 수원시 영통구 영통동 998-5번지 센타프라자 7층 701호","indutype":"학원 - 예·체능계학원","category":"study"},{"name":"리딩비영어독서학원","tel":"031-273-6737","addr":"경기도 수원시 영통구 영통동 998-5번지 센타프라자 401호","indutype":"학원 - 외국어학원","category":"study"},{"name":"리얼차이나 중국어 학원","tel":"031-273-8203","addr":"경기도 수원시 영통구 영통동 998-5번지 센타프라자 805호","indutype":"회원제형태 - 학원","category":"study"},{"name":"매스피아정철국제어학원","tel":"031-201-6612","addr":"경기도 수원시 영통구 영통동 998-5번지 센타프라자 6층 605호 ,606,607호","indutype":"학원 - 외국어학원","category":"study"},{"name":"미래수수학학원","tel":"070-7576-3450","addr":"경기도 수원시 영통구 영통동 998-5번지 센터프라자 7층 703호","indutype":"학원 - 보습학원","category":"study"},{"name":"밤비니교육센타","tel":"031-273-6279","addr":"경기도 수원시 영통구 영통동 998-5쎈타프라자808호809호","indutype":"학원 - 기타 교육기관","category":"study"},{"name":"스카이 고시원","tel":"031-273-8830","addr":"경기도 수원시 영통구 영통동 998-5번지 센타프라자 801,802호","indutype":"학원 - 독서실","category":"study"},{"name":"아카데미라운지 수원영통독서실","tel":"031-304-0907","addr":"경기도 수원시 영통구 영통동 998-5번지 센타프라자 807호,808호일부","indutype":"학원 - 독서실","category":"study"},{"name":"영통이화무용학원","tel":"031-205-2005","addr":"경기도 수원시 영통구 영통동 998-5번지 센터프라자 6층 610호","indutype":"회원제형태 - 학원","category":"study"},{"name":"영통이화발레학원","tel":"031-205-2005","addr":"경기도 수원시 영통구 영통동 998-5번지 센타프라자 608호","indutype":"학원 - 예·체능계학원","category":"study"},{"name":"영통최강학원","tel":"031-302-7320","addr":"경기도 수원시 영통구 영통동 998-5번지 센터프라자 601호","indutype":"학원 - 보습학원","category":"study"},{"name":"최용훈국어전문학원","tel":"031-204-6605","addr":"경기도 수원시 영통구 영통동 998-5번지 센타프라자 8층 805호","indutype":"학원 - 보습학원","category":"study"},{"name":"키즈스피치마루지 영통센터","tel":"070-8820-1217","addr":"경기도 수원시 영통구 영통동 998-5번지 센타프라자 691호","indutype":"학원 - 기타 교육기관","category":"study"}]},{"lat":"37.250823256","long":"127.07408375","imageIndex":16,"items":[{"name":"대치본수학학원","tel":"031-204-5566","addr":"경기도 수원시 영통구 영통동 1000-1번지 3층","indutype":"학원 - 보습학원","category":"study"}]},{"lat":"37.251795679","long":"127.0752231","imageIndex":16,"items":[{"name":"더마에스트로수학전문학원","tel":"031-273-5167","addr":"경기도 수원시 영통구 영통동 1009-1번지 아이텐텐빌딩 503동 504호","indutype":"학원 - 보습학원","category":"study"},{"name":"브라이트어학원","tel":"031-203-4860","addr":"경기도 수원시 영통구 영통동 1009-1번지 아이텐텐빌딩 801호 일부","indutype":"학원 - 외국어학원","category":"study"},{"name":"셀프스터디독서실","tel":"031-273-6413","addr":"경기도 수원시 영통구 영통동 1009-1번지 아이텐텐빌딩 701호 702일부","indutype":"학원 - 독서실","category":"study"},{"name":"쇼콜라띠에제과제빵직업전문학교","tel":"031-205-0407","addr":"경기도 수원시 영통구 영통동 1009-1번지 아이텐텐빌딩 501호","indutype":"학원 - 기능학원","category":"study"},{"name":"스터디플래닛 수원영통센터독서실","tel":"031-205-5509","addr":"경기도 수원시 영통구 영통동 1009-1번지 아이텐텐빌딩 802호 803호일부","indutype":"학원 - 독서실","category":"study"},{"name":"에스입시영어학원","tel":"031-273-0600","addr":"경기도 수원시 영통구 영통동 1009-1번지 아이텐텐빌딩 7층 703호일부,704호전체,705호일부","indutype":"학원 - 외국어학원","category":"study"},{"name":"영통에듀플렉스보습학원","tel":"031-273-6413","addr":"경기도 수원시 영통구 영통동 1009-1 아이텐텐빌딩702호일부,703호일부","indutype":"학원 - 보습학원","category":"study"},{"name":"토즈영통스마트독서실","tel":"031-273-9033","addr":"경기도 수원시 영통구 영통동 1009-1번지 아이텐텐빌딩 601-1호","indutype":"학원 - 독서실","category":"study"}]},{"lat":"37.252571126","long":"127.07429956","imageIndex":16,"items":[{"name":"도도미용학원","tel":"031-207-6767","addr":"경기도 수원시 영통구 영통동 998-4번지 이폴리스빌딩 606호","indutype":"학원 - 기능학원","category":"study"},{"name":"리듬웍스음악교습소","tel":"070-7722-7925","addr":"경기도 수원시 영통구 영통동 998-4번지 e-폴리스 510호","indutype":"학원 - 예·체능계학원","category":"study"},{"name":"수원영통박문각행정고시학원","tel":"031-204-8844","addr":"경기도 수원시 영통구 영통동 998-4번지 영통이폴리스 705동 706호","indutype":"회원제형태 - 학원","category":"study"},{"name":"와이즈리더영어학원","tel":"031-202-0516","addr":"경기도 수원시 영통구 영통동 998-4번지 이폴리스빌딩 605호","indutype":"학원 - 보습학원","category":"study"}]},{"lat":"37.247767776","long":"127.05916935","imageIndex":16,"items":[{"name":"동화나라유치원[아이행복]","tel":"031-202-0469","addr":"경기도 수원시 영통구 영통동 973-3","indutype":"학원 - 유치원","category":"study"},{"name":"예담피아노교습소","tel":"031-204-0630","addr":"경기도 수원시 영통구 영통동 973-3번지 두산 상가 2동 201호 일부","indutype":"학원 - 예·체능계학원","category":"study"}]},{"lat":"37.248520904","long":"127.06655249","imageIndex":16,"items":[{"name":"드림하이파워점핑줄넘기클럽","tel":"031-205-2527","addr":"경기도 수원시 영통구 영통동 970-5번지 지하1층 102,109호","indutype":"학원 - 예·체능계학원","category":"study"}]},{"lat":"37.246570978","long":"127.0557534","imageIndex":16,"items":[{"name":"딜레탕트성인전문취미음악학원","tel":"02-6340-5385","addr":"경기도 수원시 영통구 영통동 978-2번지 301호","indutype":"학원 - 예·체능계학원","category":"study"}]},{"lat":"37.24432367","long":"127.06355101","imageIndex":16,"items":[{"name":"라온뜰어린이집[아이행복]","tel":"031-205-1245","addr":"경기도 수원시 영통구 영통동 1154번지 영통라온프라이빗 104동","indutype":"학원 - 유아원","category":"study"},{"name":"라온키즈어린이집[아이행복]","tel":"031-308-2938","addr":"경기도 수원시 영통구 영통동 1154번지 영통라온프라이빗 101동 104호","indutype":"학원 - 유아원","category":"study"}]},{"lat":"37.253766872","long":"127.07852765","imageIndex":16,"items":[{"name":"라이프러리영통독서실","tel":"031-202-0949","addr":"경기도 수원시 영통구 영통동 1038-16번지 금상빌딩 4,5층","indutype":"학원 - 독서실","category":"study"}]},{"lat":"37.26679377","long":"127.08158461","imageIndex":16,"items":[{"name":"랩잇창의수학학원","tel":"031-0000-0000","addr":"경기도 수원시 영통구 영통동 945-4번지 한솔프라자 691-3호,605호","indutype":"학원 - 보습학원","category":"study"},{"name":"이투스수학영통학원","tel":"031-890-0574","addr":"경기도 수원시 영통구 영통동 945-4번지 한솔프라자 6층 604호","indutype":"학원 - 보습학원","category":"study"},{"name":"정아트 취미실용미술학원","tel":"031-563-1711","addr":"경기도 수원시 영통구 영통동 945-4번지 한솔프라자 602동 2호","indutype":"학원 - 예·체능계학원","category":"study"},{"name":"토즈스터디센터 영통2독서실","tel":"031-202-7250","addr":"경기도 수원시 영통구 영통동 945-4번지 한솔프라자 7층 701호","indutype":"학원 - 독서실","category":"study"}]},{"lat":"37.263795988","long":"127.07750052","imageIndex":16,"items":[{"name":"렘스학원","tel":"031-203-6425","addr":"경기도 수원시 영통구 영통동 954-6번지 정원빌딩 601호","indutype":"학원 - 보습학원","category":"study"},{"name":"선호태권도장","tel":"031-202-7104","addr":"경기도 수원시 영통구 영통동 954-6번지 정원빌딩 501호","indutype":"학원 - 예·체능계학원","category":"study"}]},{"lat":"37.251210482","long":"127.07444481","imageIndex":16,"items":[{"name":"로뎀수학학원","tel":"031-203-5509","addr":"경기도 수원시 영통구 영통동 1008-3번지 2층 전체","indutype":"학원 - 보습학원","category":"study"},{"name":"엘탑영수전문학원","tel":"031-204-7747","addr":"경기도 수원시 영통구 영통동 1008-3번지 4층","indutype":"학원 - 보습학원","category":"study"}]},{"lat":"37.255049224","long":"127.07386229","imageIndex":16,"items":[{"name":"로봇영재과학학원","tel":"031-206-5155","addr":"경기도 수원시 영통구 영통동 958-3번지 드림피아빌딩 508호","indutype":"회원제형태 - 학원","category":"study"},{"name":"휴먼에너지","tel":"","addr":"경기도 수원시 영통구 영통동 958-3번지 영통하우스토리 101동 2004호","indutype":"학원 - 기타 교육기관","category":"study"}]},{"lat":"37.264850644","long":"127.07678006","imageIndex":16,"items":[{"name":"루트실용음악학원","tel":"031-202-1355","addr":"경기도 수원시 영통구 영통동 952-1번지 금영빌딩 4층","indutype":"학원 - 예·체능계학원","category":"study"}]},{"lat":"37.250882301","long":"127.06524698","imageIndex":16,"items":[{"name":"리드더월드영어학원","tel":"031-205-0585","addr":"경기도 수원시 영통구 영통동 968번지 동보.신명아파트 301호","indutype":"학원 - 보습학원","category":"study"}]},{"lat":"37.253266139","long":"127.07224875","imageIndex":16,"items":[{"name":"리체움독서실","tel":"031-202-3406","addr":"경기도 수원시 영통구 영통동 959-4번지 다모아프라자 9층","indutype":"학원 - 독서실","category":"study"},{"name":"마스터청담어학원","tel":"070-7605-1434","addr":"경기도 수원시 영통구 영통동 959-4번지 다모아프라자 407호","indutype":"학원 - 외국어학원","category":"study"},{"name":"아이붐","tel":"031-204-2700","addr":"경기도 수원시 영통구 영통동 959-4번지 다모아프라자 6층 605호","indutype":"학원 - 기타 교육기관","category":"study"},{"name":"영통경기간호학원","tel":"031-258-6624","addr":"경기도 수원시 영통구 영통동 959-4번지 다모아프라자 701호","indutype":"회원제형태 - 학원","category":"study"},{"name":"영통경기요양보호사교육원","tel":"031-893-4882","addr":"경기도 수원시 영통구 영통동 959-4번지 다모아프라자 702-2호","indutype":"학원 - 기능학원","category":"study"},{"name":"영통서울음악학원","tel":"031-202-9433","addr":"경기도 수원시 영통구 영통동 959-4번지 다모아프라자 603호","indutype":"학원 - 예·체능계학원","category":"study"},{"name":"영통에이프릴어학원/주식회사 늘나은","tel":"031-206-2580","addr":"경기도 수원시 영통구 영통동 959-4번지 다모아프라자 202호, 203호, 204호","indutype":"학원 - 외국어학원","category":"study"},{"name":"영통요미요미미술학원","tel":"031-203-4238","addr":"경기도 수원시 영통구 영통동 959-4번지","indutype":"학원 - 예·체능계학원","category":"study"},{"name":"우리차이니즈학원","tel":"031-202-5207","addr":"경기도 수원시 영통구 영통동 959-4번지 다모아프라자 704호","indutype":"회원제형태 - 학원","category":"study"},{"name":"이자경수학영통학원","tel":"031-236-8558","addr":"경기도 수원시 영통구 영통동 959-4번지 다모아프라자 8층 802호","indutype":"학원 - 보습학원","category":"study"},{"name":"이플러스영어전문학원","tel":"031-8081-9010","addr":"경기도 수원시 영통구 영통동 959-4번지 다모아프라자 507호","indutype":"학원 - 외국어학원","category":"study"},{"name":"이플러스제2관영어학원/(주)티엔스에듀","tel":"031-8081-9010","addr":"경기도 수원시 영통구 영통동 959-4번지 다모아프라자 506호","indutype":"학원 - 외국어학원","category":"study"},{"name":"주식회사 사람과투자","tel":"031-214-5704","addr":"경기도 수원시 영통구 영통동 959-4번지 다모아프라자 604호","indutype":"학원 - 기타 교육기관","category":"study"},{"name":"특이수학학원","tel":"031-203-0029","addr":"경기도 수원시 영통구 영통동 959-4번지 다모아프라자","indutype":"회원제형태 - 학원","category":"study"},{"name":"플래뮤미술학원","tel":"","addr":"경기도 수원시 영통구 영통동 959-4번지 다모아프라자 5층 504호","indutype":"학원 - 예·체능계학원","category":"study"},{"name":"피에스투(PS2)영어학원","tel":"031-203-7573","addr":"경기도 수원시 영통구 영통동 959-4번지 다모아프라자 502호","indutype":"회원제형태 - 학원","category":"study"},{"name":"필에듀국어학원","tel":"031-202-8830","addr":"경기도 수원시 영통구 영통동 959-4번지 다모아프라자 803호","indutype":"학원 - 보습학원","category":"study"}]},{"lat":"37.265238142","long":"127.07669025","imageIndex":16,"items":[{"name":"리틀씨즈학원","tel":"031-202-8279","addr":"경기도 수원시 영통구 영통동 951-2번지","indutype":"학원 - 보습학원","category":"study"}]},{"lat":"37.253911217","long":"127.07824599","imageIndex":16,"items":[{"name":"매스텍수학교육학원","tel":"031-202-8451","addr":"경기도 수원시 영통구 영통동 1038-14번지 5층","indutype":"학원 - 보습학원","category":"study"},{"name":"스카이에듀학원","tel":"031-203-0599","addr":"경기도 수원시 영통구 영통동 1038-14,3,4층","indutype":"회원제형태 - 학원","category":"study"},{"name":"유레카수학과학학원","tel":"031-204-1337","addr":"경기도 수원시 영통구 영통동 1038-14번지 4층 전체","indutype":"학원 - 기타 교육기관","category":"study"},{"name":"황선생영어교습소","tel":"031-000-0000","addr":"경기도 수원시 영통구 영통동 1038-14번지 2층 일부","indutype":"학원 - 외국어학원","category":"study"}]},{"lat":"37.264354682","long":"127.07741089","imageIndex":16,"items":[{"name":"멘사창의수학학원","tel":"031-202-0094","addr":"경기도 수원시 영통구 영통동 954-2번지 3층","indutype":"회원제형태 - 학원","category":"study"},{"name":"새서울음악학원","tel":"031-202-5611","addr":"경기도 수원시 영통구 영통동 954-2번지","indutype":"학원 - 예·체능계학원","category":"study"}]},{"lat":"37.264381378","long":"127.07794077","imageIndex":16,"items":[{"name":"명인바둑학원","tel":"031-203-9400","addr":"경기도 수원시 영통구 영통동 955-5번지 제일교육센터 401호","indutype":"학원 - 기타 교육기관","category":"study"},{"name":"영통비엔나음악학원","tel":"031-203-0014","addr":"경기도 수원시 영통구 영통동 955-5번지 301호","indutype":"학원 - 예·체능계학원","category":"study"},{"name":"와이비엠잉글루 영통제일캠퍼스학원","tel":"031-205-8205","addr":"경기도 수원시 영통구 영통동 955-5번지","indutype":"회원제형태 - 학원","category":"study"},{"name":"와이비엠잉글루영통제일학원","tel":"031-205-8205","addr":"경기도 수원시 영통구 영통동 955-5번지 201호","indutype":"학원 - 보습학원","category":"study"},{"name":"월광음악학원","tel":"031-203-0393","addr":"경기도 수원시 영통구 영통동 955-5번지 3층 301호","indutype":"학원 - 예·체능계학원","category":"study"},{"name":"참좋은독서실","tel":"031-205-1212","addr":"경기도 수원시 영통구 영통동 955-5번지 403호","indutype":"학원 - 독서실","category":"study"},{"name":"페이퍼민트미술교습소","tel":"031-202-9977","addr":"경기도 수원시 영통구 영통동 955-5번지 402호","indutype":"학원 - 예·체능계학원","category":"study"},{"name":"한국체대올림픽태권도장","tel":"031-203-0771","addr":"경기도 수원시 영통구 영통동 955-5번지 302호","indutype":"학원 - 예·체능계학원","category":"study"}]},{"lat":"37.250794187","long":"127.06134699","imageIndex":16,"items":[{"name":"뮤엠신명네스트","tel":"031-362-6000","addr":"경기도 수원시 영통구 영통동 972-2번지 벽적골주공휴먼시아8단지 836동 1004호","indutype":"학원 - 기타 교육기관","category":"study"},{"name":"뮤엠신영네스트","tel":"","addr":"경기도 수원시 영통구 영통동 972-2번지 벽적골주공휴먼시아8단지 836동 1004호","indutype":"학원 - 기타 교육기관","category":"study"}]},{"lat":"37.246597746","long":"127.0563395","imageIndex":16,"items":[{"name":"뮤직드로잉실용음악학원","tel":"02-1577-0000","addr":"경기도 수원시 영통구 영통동 978-5번지 2층","indutype":"학원 - 예·체능계학원","category":"study"}]},{"lat":"37.252488463","long":"127.07685816","imageIndex":16,"items":[{"name":"미라클프리미엄독서실","tel":"031-546-8732","addr":"경기도 수원시 영통구 영통동 1011-3번지 4층 일부","indutype":"학원 - 독서실","category":"study"},{"name":"십칠층의기적영어학원","tel":"031-546-8731","addr":"경기도 수원시 영통구 영통동 1011-3번지 4층 일부","indutype":"학원 - 외국어학원","category":"study"},{"name":"잇올스파르타관리형프리미엄독서실","tel":"031-895-5263","addr":"경기도 수원시 영통구 영통동 1011-3번지 3층 일부 우측호","indutype":"학원 - 독서실","category":"study"}]},{"lat":"37.248714694","long":"127.07432973","imageIndex":16,"items":[{"name":"미소음악학원","tel":"031-206-5118","addr":"경기도 수원시 영통구 영통동 990-5번지 1층","indutype":"학원 - 예·체능계학원","category":"study"}]},{"lat":"37.25735164","long":"127.06536504","imageIndex":16,"items":[{"name":"박기영 색소폰 아카데미","tel":"031-206-9700","addr":"경기도 수원시 영통구 영통동 63-2번지 4층 1호","indutype":"학원 - 예·체능계학원","category":"study"}]},{"lat":"37.244189848","long":"127.06089107","imageIndex":16,"items":[{"name":"베라키즈영통학원","tel":"02-202-0506","addr":"경기도 수원시 영통구 영통동 1117번지 성현빌딩 2층 일부","indutype":"학원 - 외국어학원","category":"study"}]},{"lat":"37.246489014","long":"127.05766938","imageIndex":16,"items":[{"name":"베리타스주식회사","tel":"031-273-7100","addr":"경기도 수원시 영통구 영통동 975-13번지 서린프라자 8층","indutype":"학원 - 독서실","category":"study"},{"name":"세종입시학원","tel":"031-273-7884","addr":"경기도 수원시 영통구 영통동 975-13번지 서린프라자 6,8층","indutype":"회원제형태 - 학원","category":"study"},{"name":"영통에이원요양보호사교육원","tel":"031-202-8845","addr":"경기도 수원시 영통구 영통동 975-13번지 서린프라자 902호","indutype":"학원 - 기능학원","category":"study"}]},{"lat":"37.251102413","long":"127.07435453","imageIndex":16,"items":[{"name":"보니타네일미용전문학원","tel":"031-206-7950","addr":"경기도 수원시 영통구 영통동 1008-2번지 서현빌딩 5층","indutype":"학원 - 기능학원","category":"study"},{"name":"상상그이상수학학원","tel":"031-205-5104","addr":"경기도 수원시 영통구 영통동 1008-2번지 서현빌딩 4층","indutype":"학원 - 보습학원","category":"study"}]},{"lat":"37.247738121","long":"127.06444415","imageIndex":16,"items":[{"name":"본수학","tel":"031-203-2811","addr":"경기도 수원시 영통구 영통동 970-3 벽적골주공A 915-304","indutype":"회원제형태 - 학원","category":"study"}]},{"lat":"37.266406328","long":"127.08158421","imageIndex":16,"items":[{"name":"비책독서실","tel":"031-273-2888","addr":"경기도 수원시 영통구 영통동 945-6번지 7층~8층","indutype":"학원 - 독서실","category":"study"},{"name":"연세아이비츠학원","tel":"031-204-6846","addr":"경기도 수원시 영통구 영통동 945-6번지 한성프라자 3층 302호","indutype":"학원 - 보습학원","category":"study"},{"name":"오차원독서실","tel":"031-273-2888","addr":"경기도 수원시 영통구 영통동 945-6번지 한성프라자 701호","indutype":"학원 - 독서실","category":"study"},{"name":"제인아트숲미술학원","tel":"031-203-3321","addr":"경기도 수원시 영통구 영통동 945-6번지 한성프라자 401호 일부","indutype":"학원 - 예·체능계학원","category":"study"}]},{"lat":"37.264715129","long":"127.07735488","imageIndex":16,"items":[{"name":"빨간펜수학의달인생각수학교습소","tel":"031-212-7321","addr":"경기도 수원시 영통구 영통동 949-6번지 영통클리닉빌딩 4층","indutype":"학원 - 보습학원","category":"study"},{"name":"에듀앤조이영통학원","tel":"031-202-5748","addr":"경기도 수원시 영통구 영통동 949-6번지 영통클리닉빌딩 5층","indutype":"학원 - 보습학원","category":"study"},{"name":"영통아이티컴퓨터학원","tel":"031-204-9666","addr":"경기도 수원시 영통구 영통동 949-6번지 영통클리닉빌딩 3층","indutype":"학원 - 컴퓨터학원","category":"study"},{"name":"영통체육관(2관)","tel":"031-204-5669","addr":"경기도 수원시 영통구 영통동 949-6번지 영통클리닉빌딩 2층","indutype":"학원 - 예·체능계학원","category":"study"}]},{"lat":"37.253353346","long":"127.07702808","imageIndex":16,"items":[{"name":"상상그이상수학고등관학원","tel":"032-205-5104","addr":"경기도 수원시 영통구 영통동 1036-2번지 부영빌딩 4층","indutype":"학원 - 보습학원","category":"study"}]},{"lat":"37.256604081","long":"127.06480081","imageIndex":16,"items":[{"name":"새로남미술학원","tel":"031-203-7241","addr":"경기도 수원시 영통구 영통동 78-3번지 2층","indutype":"학원 - 예·체능계학원","category":"study"},{"name":"새로남영통이씨씨어학원","tel":"031-203-7240","addr":"경기도 수원시 영통구 영통동 78-3번지 3층","indutype":"학원 - 외국어학원","category":"study"},{"name":"새로남이키즈어학원","tel":"031-203-7241","addr":"경기도 수원시 영통구 영통동 78-3번지 1층","indutype":"회원제형태 - 학원","category":"study"},{"name":"새로남피아노교습소","tel":"031-203-7240","addr":"경기도 수원시 영통구 영통동 78-3번지 4층","indutype":"학원 - 예·체능계학원","category":"study"},{"name":"용인대새로남태권도장","tel":"031-203-7241","addr":"경기도 수원시 영통구 영통동 78-3번지 4층","indutype":"학원 - 예·체능계학원","category":"study"}]},{"lat":"37.250715186","long":"127.07399348","imageIndex":16,"items":[{"name":"새봄수학","tel":"031-273-0982","addr":"경기도 수원시 영통구 영통동 1000-2번지 4층","indutype":"학원 - 보습학원","category":"study"},{"name":"엠오엠교육 주식회사","tel":"031-205-3141","addr":"경기도 수원시 영통구 영통동 1000-2번지 2층","indutype":"학원 - 보습학원","category":"study"}]},{"lat":"37.264462997","long":"127.07710661","imageIndex":16,"items":[{"name":"생각이 크는 아이들","tel":"031-202-1939","addr":"경기도 수원시 영통구 영통동 953-2번지 2층","indutype":"학원 - 보습학원","category":"study"}]},{"lat":"37.246767019","long":"127.06044221","imageIndex":16,"items":[{"name":"석사서울태권도","tel":"031-203-0011","addr":"경기도 수원시 영통구 영통동 974-5번지 진성빌딩 2층","indutype":"학원 - 예·체능계학원","category":"study"},{"name":"영통조승표독서실","tel":"031-204-1472","addr":"경기도 수원시 영통구 영통동 974-5번지 4층","indutype":"학원 - 독서실","category":"study"},{"name":"주인공보습학원","tel":"031-205-7109","addr":"경기도 수원시 영통구 영통동 974-5번지 3층 전체","indutype":"학원 - 보습학원","category":"study"},{"name":"창대태권도","tel":"031-202-1231","addr":"경기도 수원시 영통구 영통동 974-5번지","indutype":"학원 - 예·체능계학원","category":"study"}]},{"lat":"37.25112917","long":"127.07480542","imageIndex":16,"items":[{"name":"센트럴원리딩클럽영통학원","tel":"031-302-0579","addr":"경기도 수원시 영통구 영통동 1008-6번지 3층","indutype":"학원 - 보습학원","category":"study"},{"name":"에리카영어학원","tel":"031-203-1999","addr":"경기도 수원시 영통구 영통동 1008-6번지 3층","indutype":"회원제형태 - 학원","category":"study"},{"name":"전문가집단학원","tel":"031-206-7100","addr":"경기도 수원시 영통구 영통동 1008-6번지 천마빌딩 4층","indutype":"학원 - 보습학원","category":"study"}]},{"lat":"37.246767205","long":"127.060059","imageIndex":16,"items":[{"name":"셀프큐학원,독서실","tel":"031-206-4609","addr":"경기도 수원시 영통구 영통동 974-3번지 ,3,4층","indutype":"학원 - 보습학원","category":"study"}]},{"lat":"37.246462494","long":"127.05655355","imageIndex":16,"items":[{"name":"수원아이티컴퓨터학원","tel":"031-204-2525","addr":"경기도 수원시 영통구 영통동 978-8번지 일부 5층","indutype":"회원제형태 - 학원","category":"study"}]},{"lat":"37.256297201","long":"127.08094244","imageIndex":16,"items":[{"name":"수원하이텍고등학교","tel":"031-201-9905","addr":"경기도 수원시 영통구 영통동 1049-1번지 수원하이텍고등학교","indutype":"학원 - 초중고교육기관","category":"study"}]},{"lat":"37.251327547","long":"127.07455763","imageIndex":16,"items":[{"name":"수원한박사논술학원","tel":"070-8803-8020","addr":"경기도 수원시 영통구 영통동 1008-4번지 4층","indutype":"학원 - 보습학원","category":"study"},{"name":"최강수학전문학원","tel":"031-202-2090","addr":"경기도 수원시 영통구 영통동 1008-4번지 3층","indutype":"학원 - 보습학원","category":"study"},{"name":"트리탑스과학전문학원","tel":"031-205-2678","addr":"경기도 수원시 영통구 영통동 1008-4번지 재능빌딩 3층","indutype":"학원 - 보습학원","category":"study"}]},{"lat":"37.246660121","long":"127.05786111","imageIndex":16,"items":[{"name":"수피아독서실","tel":"031-111-1111","addr":"경기도 수원시 영통구 영통동 975-4번지 4층.5층","indutype":"학원 - 독서실","category":"study"},{"name":"엘에스티학원","tel":"031-205-7245","addr":"경기도 수원시 영통구 영통동 975-4번지 3층","indutype":"학원 - 보습학원","category":"study"}]},{"lat":"37.255986349","long":"127.07377299","imageIndex":16,"items":[{"name":"수학에미친사람들학원","tel":"031-206-6035","addr":"경기도 수원시 영통구 영통동 961-17번지 (주)경기방송 2동 302호","indutype":"학원 - 보습학원","category":"study"}]},{"lat":"37.26479155","long":"127.084446","imageIndex":16,"items":[{"name":"숲속반디유치원[아이행복]","tel":"031-206-8121","addr":"경기도 수원시 영통구 영통동 1053-5번지","indutype":"학원 - 유치원","category":"study"},{"name":"잉글리쉬 빌리지학원","tel":"031-206-0595","addr":"경기도 수원시 영통구 영통동 1053-5번지 3층","indutype":"학원 - 외국어학원","category":"study"}]},{"lat":"37.262821544","long":"127.07958511","imageIndex":16,"items":[{"name":"스타영어교습소","tel":"031-203-7158","addr":"경기도 수원시 영통구 영통동 955-1번지 황골주공1단지가상가동 202호 오른쪽일부","indutype":"회원제형태 - 학원","category":"study"}]},{"lat":"37.244605753","long":"127.05789343","imageIndex":16,"items":[{"name":"스타평생교육원","tel":"031-202-0074","addr":"경기도 수원시 영통구 영통동 1106번지 현대프라자 404호","indutype":"회원제형태 - 학원","category":"study"},{"name":"주식회사 테브(TEV)","tel":"031-890-5060","addr":"경기도 수원시 영통구 영통동 1106번지 외1필지 현대프라자 304동 811호","indutype":"학원 - 기타 교육기관","category":"study"}]},{"lat":"37.24671282","long":"127.06072394","imageIndex":16,"items":[{"name":"시그마학원","tel":"031-202-4097","addr":"경기도 수원시 영통구 영통동 974-6번지 세일빌딩 405호","indutype":"학원 - 보습학원","category":"study"},{"name":"씨앤케이 영어전문학원","tel":"031-202-2029","addr":"경기도 수원시 영통구 영통동 974-6번지 세일빌딩 4층 404호","indutype":"학원 - 외국어학원","category":"study"},{"name":"에녹실용음악학원","tel":"031-205-5922","addr":"경기도 수원시 영통구 영통동 974-6 세일빌딩4층401-402호","indutype":"회원제형태 - 학원","category":"study"},{"name":"허린음악학원","tel":"031-202-5454","addr":"경기도 수원시 영통구 영통동 974-6세일빌딩 601.602호","indutype":"학원 - 예·체능계학원","category":"study"}]},{"lat":"37.250514909","long":"127.07732963","imageIndex":16,"items":[{"name":"시립영통어린이집[아이행복]","tel":"031-202-2737","addr":"경기도 수원시 영통구 영통동 1012-5번지","indutype":"학원 - 유아원","category":"study"}]},{"lat":"37.251987415","long":"127.07097388","imageIndex":16,"items":[{"name":"시스템어학원","tel":"031-206-1433","addr":"경기도 수원시 영통구 영통동 960-3번지 뉴월드프라자 5층 505호","indutype":"회원제형태 - 학원","category":"study"},{"name":"에스에스엠실용음악학원","tel":"031-203-1113","addr":"경기도 수원시 영통구 영통동 960-3번지 NEW WORLD PLAZA 502호","indutype":"학원 - 예·체능계학원","category":"study"},{"name":"영통바리스타커피전문학원","tel":"031-202-2900","addr":"경기도 수원시 영통구 영통동 960-3번지 뉴월드프라자 408호","indutype":"회원제형태 - 학원","category":"study"},{"name":"이플러스주니어관영어전문학원","tel":"031-8081-9070","addr":"경기도 수원시 영통구 영통동 960-3번지 NEW WORLD PLAZA 511호","indutype":"학원 - 외국어학원","category":"study"},{"name":"죠이벨스크리스천아카데미유한회사","tel":"031-203-0291","addr":"경기도 수원시 영통구 영통동 960-3뉴월드프라자5층506호~507호","indutype":"학원 - 기타 교육기관","category":"study"},{"name":"지니매스","tel":"","addr":"경기도 수원시 영통구 영통동 960-3번지 뉴월드프라자 310호","indutype":"학원 - 기타 교육기관","category":"study"},{"name":"청아원수학학원","tel":"031-204-8357","addr":"경기도 수원시 영통구 영통동 960-3번지 NEW WORLD PLAZA 608호","indutype":"학원 - 보습학원","category":"study"},{"name":"프리미엄영통독서실","tel":"031-203-1248","addr":"경기도 수원시 영통구 영통동 960-3번지 뉴월드프라자 405호","indutype":"학원 - 독서실","category":"study"},{"name":"흑과백미술학원","tel":"031-204-4227","addr":"경기도 수원시 영통구 영통동 960-3번지 뉴월드프라자 510호","indutype":"학원 - 예·체능계학원","category":"study"}]},{"lat":"37.253101269","long":"127.07668968","imageIndex":16,"items":[{"name":"시온샬로머문화원","tel":"031-201-0789","addr":"경기도 수원시 영통구 영통동 1037-6번지 5층 2,3호","indutype":"학원 - 기타 교육기관","category":"study"}]},{"lat":"37.250189883","long":"127.0625751","imageIndex":16,"items":[{"name":"시온어린이집[아이행복]","tel":"031-202-4231","addr":"경기도 수원시 영통구 영통동 972-2번지 벽적골주공휴먼시아8단지 833동 104호","indutype":"학원 - 유아원","category":"study"}]},{"lat":"37.255215704","long":"127.08133585","imageIndex":16,"items":[{"name":"신성초등학교","tel":"031-203-2054","addr":"경기도 수원시 영통구 영통동 1049-2번지 신성초등학교 1층","indutype":"학원 - 초중고교육기관","category":"study"},{"name":"신성초등학교_수업료","tel":"031-203-2054","addr":"경기도 수원시 영통구 영통동 1049-2번지 신성초등학교","indutype":"학원 - 초중고교육기관","category":"study"},{"name":"신성초등학교병설유치원[아이행복]","tel":"031-203-2054","addr":"경기도 수원시 영통구 영통동 1049-2번지 신성초등학교","indutype":"학원 - 유치원","category":"study"}]},{"lat":"37.249911831","long":"127.06000502","imageIndex":16,"items":[{"name":"신영초등학교","tel":"031-203-2124","addr":"경기도 수원시 영통구 영통동 972-3번지 신영초등학교","indutype":"학원 - 초중고교육기관","category":"study"}]},{"lat":"37.250326438","long":"127.07613468","imageIndex":16,"items":[{"name":"아벨영재학원","tel":"031-273-8250","addr":"경기도 수원시 영통구 영통동 1005-3번지 3층","indutype":"학원 - 보습학원","category":"study"},{"name":"오일러학원","tel":"031-273-5250","addr":"경기도 수원시 영통구 영통동 1005-3번지 4층,5층,6층","indutype":"학원 - 보습학원","category":"study"}]},{"lat":"37.256883282","long":"127.06502648","imageIndex":16,"items":[{"name":"아웃오브더박스어학원","tel":"031-205-2597","addr":"경기도 수원시 영통구 영통동 64-2번지 1층","indutype":"학원 - 외국어학원","category":"study"}]},{"lat":"37.253216693","long":"127.07938376","imageIndex":16,"items":[{"name":"아이에스티교육학원","tel":"031-206-6148","addr":"경기도 수원시 영통구 영통동 1045-5번지 6층","indutype":"학원 - 보습학원","category":"study"},{"name":"하우스바이타운학원","tel":"","addr":"경기도 수원시 영통구 영통동 1045-5번지 2층","indutype":"학원 - 보습학원","category":"study"}]},{"lat":"37.246182211","long":"127.05863844","imageIndex":16,"items":[{"name":"아이원 고시텔","tel":"031-203-4007","addr":"경기도 수원시 영통구 영통동 976-7번지 현대프라자 7층","indutype":"학원 - 독서실","category":"study"}]},{"lat":"37.24627161","long":"127.06011498","imageIndex":16,"items":[{"name":"아인하우스","tel":"031-203-0096","addr":"경기도 수원시 영통구 영통동 976-15번지 4층","indutype":"학원 - 독서실","category":"study"},{"name":"영통서울학원","tel":"031-203-0111","addr":"경기도 수원시 영통구 영통동 976-15번지 코원빌딩 5층","indutype":"학원 - 보습학원","category":"study"},{"name":"우리중국어학원","tel":"031-202-5029","addr":"경기도 수원시 영통구 영통동 976-15번지","indutype":"회원제형태 - 학원","category":"study"}]},{"lat":"37.266208102","long":"127.081584","imageIndex":16,"items":[{"name":"아클리아학원","tel":"031-205-0807","addr":"경기도 수원시 영통구 영통동 945-7번지 6층","indutype":"학원 - 보습학원","category":"study"},{"name":"영아티스트독서실","tel":"031-203-5550","addr":"경기도 수원시 영통구 영통동 945-7번지 5층","indutype":"학원 - 독서실","category":"study"}]},{"lat":"37.247911772","long":"127.07597455","imageIndex":16,"items":[{"name":"아키온미술학원","tel":"031-203-2141","addr":"경기도 수원시 영통구 영통동 1024-1번지 4층 일부","indutype":"학원 - 예·체능계학원","category":"study"}]},{"lat":"37.24643555","long":"127.05636193","imageIndex":16,"items":[{"name":"양현수학학원","tel":"031-202-3993","addr":"경기도 수원시 영통구 영통동 978-9번지 대방빌딩 5층,6층","indutype":"학원 - 보습학원","category":"study"}]},{"lat":"37.248606571","long":"127.07432963","imageIndex":16,"items":[{"name":"에리카학원","tel":"031-203-1999","addr":"경기도 수원시 영통구 영통동 990-6번지 101,102호","indutype":"학원 - 보습학원","category":"study"}]},{"lat":"37.246075546","long":"127.05544874","imageIndex":16,"items":[{"name":"에이블어학원","tel":"031-206-2828","addr":"경기도 수원시 영통구 영통동 979-2번지 늘푸른빌딩 801호","indutype":"회원제형태 - 학원","category":"study"},{"name":"영통에이블어학원","tel":"031-206-2323","addr":"경기도 수원시 영통구 영통동 979-2번지 늘푸른빌딩 501호","indutype":"학원 - 외국어학원","category":"study"},{"name":"영통진학학원","tel":"031-273-5545","addr":"경기도 수원시 영통구 영통동 979-2번지 늘푸른빌딩 601호","indutype":"학원 - 보습학원","category":"study"},{"name":"위너브랜드보습학원","tel":"031-206-2361","addr":"경기도 수원시 영통구 영통동 979-2번지 7층","indutype":"학원 - 보습학원","category":"study"}]},{"lat":"37.265463033","long":"127.0772767","imageIndex":16,"items":[{"name":"에이플러스연극학원","tel":"031-273-2351","addr":"경기도 수원시 영통구 영통동 949-1번지 대교빌딩 6층","indutype":"회원제형태 - 학원","category":"study"}]},{"lat":"37.248271737","long":"127.07669624","imageIndex":16,"items":[{"name":"에코빌","tel":"031-273-9276","addr":"경기도 수원시 영통구 영통동 1023-5번지 101,102,201,301,401,501,601,701,801","indutype":"학원 - 독서실","category":"study"}]},{"lat":"37.264102373","long":"127.07744446","imageIndex":16,"items":[{"name":"엘림그림터미술학원","tel":"031-273-3978","addr":"경기도 수원시 영통구 영통동 954-4번지 4층","indutype":"학원 - 예·체능계학원","category":"study"}]},{"lat":"37.253297873","long":"127.07924858","imageIndex":16,"items":[{"name":"연세랑학원","tel":"031-203-0648","addr":"경기도 수원시 영통구 영통동 1045-4번지 4층","indutype":"학원 - 보습학원","category":"study"},{"name":"용인대석사효태권도장","tel":"031-202-3382","addr":"경기도 수원시 영통구 영통동 1045-4번지 2층","indutype":"학원 - 예·체능계학원","category":"study"},{"name":"토킹스타릴스영어학원","tel":"031-202-0813","addr":"경기도 수원시 영통구 영통동 1045-4번지 더원빌딩 3층","indutype":"학원 - 보습학원","category":"study"}]},{"lat":"37.252043014","long":"127.06824619","imageIndex":16,"items":[{"name":"영덕고등학교","tel":"031-301-9147","addr":"경기도 수원시 영통구 영통동 965-3번지 영덕고등학교","indutype":"학원 - 초중고교육기관","category":"study"},{"name":"영덕고등학교_수업료","tel":"031-201-9147","addr":"경기도 수원시 영통구 영통동 965-3번지 영덕고등학교","indutype":"학원 - 초중고교육기관","category":"study"}]},{"lat":"37.258212582","long":"127.072614","imageIndex":16,"items":[{"name":"영덕중학교","tel":"031-202-2294","addr":"경기도 수원시 영통구 영통동 957-3번지 영덕중학교","indutype":"학원 - 초중고교육기관","category":"study"}]},{"lat":"37.258770646","long":"127.07358396","imageIndex":16,"items":[{"name":"영덕초등학교","tel":"031-202-2034","addr":"경기도 수원시 영통구 영통동 957-2번지 영덕초등학교","indutype":"학원 - 초중고교육기관","category":"study"},{"name":"영덕초등학교병설유치원[아이행복]","tel":"031-202-2034","addr":"경기도 수원시 영통구 영통동 957-2번지 영덕초등학교","indutype":"학원 - 유치원","category":"study"}]},{"lat":"37.248822798","long":"127.07436365","imageIndex":16,"items":[{"name":"영동영일점해법수학셀파수학교습소","tel":"031-206-5962","addr":"경기도 수원시 영통구 영통동 990-4번지 102호","indutype":"학원 - 보습학원","category":"study"},{"name":"영통영일점해법수학셀파수학교습소","tel":"031-206-5962","addr":"경기도 수원시 영통구 영통동 990-4번지 1층 일부 102호","indutype":"학원 - 보습학원","category":"study"}]},{"lat":"37.249656336","long":"127.06630547","imageIndex":16,"items":[{"name":"영동초등학교","tel":"031-203-1241","addr":"경기도 수원시 영통구 영통동 967-4번지 영동초등학교","indutype":"학원 - 초중고교육기관","category":"study"}]},{"lat":"37.248183086","long":"127.07432923","imageIndex":16,"items":[{"name":"영일연세음악교습소","tel":"031-202-2611","addr":"경기도 수원시 영통구 영통동 990-10번지 1층","indutype":"학원 - 예·체능계학원","category":"study"}]},{"lat":"37.249407741","long":"127.07555895","imageIndex":16,"items":[{"name":"영일중학교","tel":"031-240-6792","addr":"경기도 수원시 영통구 영통동 1004번지 영일중학교","indutype":"학원 - 초중고교육기관","category":"study"}]},{"lat":"37.248048398","long":"127.0735514","imageIndex":16,"items":[{"name":"영일초등학교","tel":"031-203-0122","addr":"경기도 수원시 영통구 영통동 988-4번지 영일초등학교","indutype":"학원 - 초중고교육기관","category":"study"}]},{"lat":"37.253685693","long":"127.07866283","imageIndex":16,"items":[{"name":"영통명진학원","tel":"031-273-2008","addr":"경기도 수원시 영통구 영통동 1038-17번지 3층","indutype":"학원 - 보습학원","category":"study"},{"name":"재크아동발달센타","tel":"0131-208-8897","addr":"경기도 수원시 영통구 영통동 1038-17번지 유경빌딩 4층","indutype":"학원 - 기타 교육기관","category":"study"}]},{"lat":"37.247911325","long":"127.07669589","imageIndex":16,"items":[{"name":"영통목우미술학원","tel":"031-202-3715","addr":"경기도 수원시 영통구 영통동 1024-4번지","indutype":"회원제형태 - 학원","category":"study"}]},{"lat":"37.254019426","long":"127.07811084","imageIndex":16,"items":[{"name":"영통세광학원","tel":"031-273-8274","addr":"경기도 수원시 영통구 영통동 1038-13번지 4층","indutype":"학원 - 기타 교육기관","category":"study"},{"name":"인트엔터테이먼트학원","tel":"031-206-6969","addr":"경기도 수원시 영통구 영통동 1038-13번지","indutype":"회원제형태 - 학원","category":"study"},{"name":"한국영재평생교육원","tel":"031-206-0843","addr":"경기도 수원시 영통구 영통동 1038-13번지","indutype":"회원제형태 - 학원","category":"study"}]},{"lat":"37.256406072","long":"127.06438357","imageIndex":16,"items":[{"name":"영통유도관","tel":"031-205-6560","addr":"경기도 수원시 영통구 영통동 77-2번지 3동","indutype":"학원 - 예·체능계학원","category":"study"}]},{"lat":"37.247521306","long":"127.06552599","imageIndex":16,"items":[{"name":"영통주공예능어린이집[아이행복]","tel":"031-206-7942","addr":"경기도 수원시 영통구 영통동 970-3번지 벽적골주공9단지아관리동 1층","indutype":"학원 - 유아원","category":"study"}]},{"lat":"37.253379109","long":"127.06341173","imageIndex":16,"items":[{"name":"영통중학교","tel":"031-203-2094","addr":"경기도 수원시 영통구 영통동 964-2번지 영통중학교","indutype":"학원 - 초중고교육기관","category":"study"}]},{"lat":"37.254216708","long":"127.06411126","imageIndex":16,"items":[{"name":"영통초등학교","tel":"031-203-0144","addr":"경기도 수원시 영통구 영통동 963-3번지 영통초등학교","indutype":"학원 - 초중고교육기관","category":"study"},{"name":"영통초등학교 병설유치원[아이행복]","tel":"031-204-0869","addr":"경기도 수원시 영통구 영통동 963-3번지 영통초등학교","indutype":"학원 - 유치원","category":"study"}]},{"lat":"37.253939002","long":"127.0770512","imageIndex":16,"items":[{"name":"영통클릭미술학원","tel":"031-202-2023","addr":"경기도 수원시 영통구 영통동 1038-3번지 근생빌딩 4층 전체","indutype":"학원 - 예·체능계학원","category":"study"},{"name":"일칠일구고등전문학원","tel":"031-203-1719","addr":"경기도 수원시 영통구 영통동 1038-3번지 근생빌딩 5층","indutype":"학원 - 보습학원","category":"study"}]},{"lat":"37.250434666","long":"127.07596571","imageIndex":16,"items":[{"name":"영통팀수학학원","tel":"031-203-5380","addr":"경기도 수원시 영통구 영통동 1005-1번지 주흥빌딩 6층","indutype":"학원 - 보습학원","category":"study"}]},{"lat":"37.264210518","long":"127.07741075","imageIndex":16,"items":[{"name":"영통화음음악학원","tel":"031-203-6077","addr":"경기도 수원시 영통구 영통동 954-3번지 평강빌딩 5층","indutype":"학원 - 예·체능계학원","category":"study"},{"name":"한동속셈학원","tel":"031-204-6677","addr":"경기도 수원시 영통구 영통동 954-3번지 평강빌딩 4층","indutype":"학원 - 보습학원","category":"study"}]},{"lat":"37.252128957","long":"127.07539249","imageIndex":16,"items":[{"name":"예랑고시텔","tel":"","addr":"경기도 수원시 영통구 영통동 1010-13번지 거성빌딩 701,702,703호","indutype":"학원 - 독서실","category":"study"}]},{"lat":"37.248351462","long":"127.07886037","imageIndex":16,"items":[{"name":"오투리빙텔","tel":"031-205-6683","addr":"경기도 수원시 영통구 영통동 1021-4번지 3층","indutype":"학원 - 독서실","category":"study"}]},{"lat":"37.251543528","long":"127.07499743","imageIndex":16,"items":[{"name":"오투원룸텔수원영통점","tel":"031-202-2634","addr":"경기도 수원시 영통구 영통동 1009-6번지 매직프라자 702호","indutype":"학원 - 독서실","category":"study"},{"name":"오투원룸템 수원영통점","tel":"031-202-2634","addr":"경기도 수원시 영통구 영통동 1009-6번지 매직프라자 702호","indutype":"학원 - 독서실","category":"study"}]},{"lat":"37.264489851","long":"127.07738847","imageIndex":16,"items":[{"name":"용인대한국태권도","tel":"031-206-8564","addr":"경기도 수원시 영통구 영통동 954-1번지 신흥상가 4층","indutype":"학원 - 예·체능계학원","category":"study"},{"name":"윤선생영어숲수원영통북학원","tel":"031-205-0594","addr":"경기도 수원시 영통구 영통동 954-1번지","indutype":"회원제형태 - 학원","category":"study"},{"name":"클래식에비뉴음악학원","tel":"031-202-0928","addr":"경기도 수원시 영통구 영통동 954-1번지 3층 전체","indutype":"학원 - 예·체능계학원","category":"study"}]},{"lat":"37.265909358","long":"127.08366932","imageIndex":16,"items":[{"name":"용인대화랑태권도","tel":"031-202-6109","addr":"경기도 수원시 영통구 영통동 1053-2번지 풍림벽산단지 상가 303호","indutype":"학원 - 예·체능계학원","category":"study"}]},{"lat":"37.246155695","long":"127.05753389","imageIndex":16,"items":[{"name":"원라희영어학원","tel":"031-204-7252","addr":"경기도 수원시 영통구 영통동 976-2번지 8층","indutype":"학원 - 보습학원","category":"study"}]},{"lat":"37.246244915","long":"127.05941617","imageIndex":16,"items":[{"name":"원탑고등부전문학원","tel":"031-305-4558","addr":"경기도 수원시 영통구 영통동 976-12번지 송이빌딩 5층","indutype":"학원 - 보습학원","category":"study"},{"name":"해냄학원","tel":"031-204-5505","addr":"경기도 수원시 영통구 영통동 976-12번지 송이빌딩 3층","indutype":"학원 - 보습학원","category":"study"}]},{"lat":"37.246604926","long":"127.06025048","imageIndex":16,"items":[{"name":"웰컴고시텔","tel":"031-205-7788","addr":"경기도 수원시 영통구 영통동 974-8번지 진영빌딩 3,4층","indutype":"학원 - 독서실","category":"study"}]},{"lat":"37.247153544","long":"127.0623022","imageIndex":16,"items":[{"name":"위드피아노교습소","tel":"031-205-6327","addr":"경기도 수원시 영통구 영통동 971-1번지 롯데크리닉상가 303호","indutype":"학원 - 예·체능계학원","category":"study"},{"name":"피아노트리음악학원","tel":"031-236-2225","addr":"경기도 수원시 영통구 영통동 971-1번지 상가동 120호 121호","indutype":"학원 - 예·체능계학원","category":"study"}]},{"lat":"37.251154207","long":"127.06213627","imageIndex":16,"items":[{"name":"윤피아노","tel":"031-203-5869","addr":"경기도 수원시 영통구 영통동 972-8번지 벽적골1단지주공아파트 2동 203호","indutype":"학원 - 예·체능계학원","category":"study"},{"name":"해법수학영통벽적골수학교습소","tel":"070-4282-2468","addr":"경기도 수원시 영통구 영통동 972-8번지 벽적골1단지주공아파트 2층 202호","indutype":"학원 - 보습학원","category":"study"}]},{"lat":"37.253102414","long":"127.07482984","imageIndex":16,"items":[{"name":"은진","tel":"031-227-6408","addr":"경기도 수원시 영통구 영통동 998-2번지 르네상스시티프라자 801호","indutype":"학원 - 독서실","category":"study"}]},{"lat":"37.253045315","long":"127.07966538","imageIndex":16,"items":[{"name":"이기준인트엔터테이먼트실용음악학원","tel":"031-206-6969","addr":"경기도 수원시 영통구 영통동 1045-7번지","indutype":"회원제형태 - 학원","category":"study"},{"name":"키노포스트(KINOPOST)","tel":"031-206-6369","addr":"경기도 수원시 영통구 영통동 1045-7번지 4층","indutype":"학원 - 예·체능계학원","category":"study"}]},{"lat":"37.246182417","long":"127.05819888","imageIndex":16,"items":[{"name":"이언어학원","tel":"031-203-6911","addr":"경기도 수원시 영통구 영통동 976-5번지 (3층,4층전체)","indutype":"회원제형태 - 학원","category":"study"}]},{"lat":"37.246435737","long":"127.05594491","imageIndex":16,"items":[{"name":"이지사이언스과학학원","tel":"031-203-4215","addr":"경기도 수원시 영통구 영통동 978-11번지 망포프라자 402호","indutype":"학원 - 보습학원","category":"study"}]},{"lat":"37.2465435","long":"127.05674521","imageIndex":16,"items":[{"name":"이화외국어학원","tel":"031-206-6644","addr":"경기도 수원시 영통구 영통동 978-7번지 정원빌딩 6층","indutype":"회원제형태 - 학원","category":"study"},{"name":"지오엠수학영통관학원","tel":"02-1544-3886","addr":"경기도 수원시 영통구 영통동 978-7번지 701호","indutype":"학원 - 보습학원","category":"study"}]},{"lat":"37.250605423","long":"127.06042259","imageIndex":16,"items":[{"name":"잉글리쉬무무 영통","tel":"","addr":"경기도 수원시 영통구 영통동 972-2번지 벽적골주공휴먼시아8단지 843동 104호","indutype":"학원 - 기타 교육기관","category":"study"}]},{"lat":"37.249189154","long":"127.06372397","imageIndex":16,"items":[{"name":"자연숲어린이집[아이행복]","tel":"031-204-0334","addr":"경기도 수원시 영통구 영통동 969-1번지 삼성.태영아파트 1층 관리동","indutype":"학원 - 유아원","category":"study"}]},{"lat":"37.257270683","long":"127.06510571","imageIndex":16,"items":[{"name":"재단법인국제평생교육개발원","tel":"031-203-6435","addr":"경기도 수원시 영통구 영통동 64-19번지","indutype":"학원 - 기타 교육기관","category":"study"}]},{"lat":"37.247910115","long":"127.07861196","imageIndex":16,"items":[{"name":"제이콥영어교습소","tel":"070-7536-4361","addr":"경기도 수원시 영통구 영통동 1024-15번지 경화레스피아 304호","indutype":"회원제형태 - 학원","category":"study"}]},{"lat":"37.250182119","long":"127.07638251","imageIndex":16,"items":[{"name":"제이홀릭 영어학원","tel":"031-206-8022","addr":"경기도 수원시 영통구 영통동 1005-5번지 3층","indutype":"학원 - 보습학원","category":"study"}]},{"lat":"37.256155117","long":"127.07771843","imageIndex":16,"items":[{"name":"조군자음악학원","tel":"031-203-2663","addr":"경기도 수원시 영통구 영통동 1047-1건영A상가203","indutype":"학원 - 예·체능계학원","category":"study"}]},{"lat":"37.248017725","long":"127.07941231","imageIndex":16,"items":[{"name":"주식회사 한국공학기술연구원","tel":"031-273-6543","addr":"경기도 수원시 영통구 영통동 1025-18 2층.4층","indutype":"회원제형태 - 학원","category":"study"}]},{"lat":"37.250469435","long":"127.06211319","imageIndex":16,"items":[{"name":"중구거 김밥","tel":"070-8250-1800","addr":"경기도 수원시 영통구 영통동 972-2번지 벽적골주공휴먼시아8단지 834동 801호","indutype":"학원 - 기타 교육기관","category":"study"}]},{"lat":"37.248793876","long":"127.06139053","imageIndex":16,"items":[{"name":"진아외국어학원","tel":"","addr":"경기도 수원시 영통구 영통동 972-5번지 1층일부,2층일부","indutype":"학원 - 외국어학원","category":"study"},{"name":"진아유치원[아이행복]","tel":"031-203-5656","addr":"경기도 수원시 영통구 영통동 972-5번지","indutype":"학원 - 유치원","category":"study"}]},{"lat":"37.260597738","long":"127.07685481","imageIndex":16,"items":[{"name":"청명고등학교","tel":"031-201-9700","addr":"경기도 수원시 영통구 영통동 956-1번지 청명고등학교","indutype":"학원 - 초중고교육기관","category":"study"},{"name":"청명고등학교_수업료","tel":"031-201-9700","addr":"경기도 수원시 영통구 영통동 956-1번지 청명고등학교","indutype":"학원 - 초중고교육기관","category":"study"}]},{"lat":"37.261597264","long":"127.07783655","imageIndex":16,"items":[{"name":"청명중학교","tel":"031-547-4212","addr":"경기도 수원시 영통구 영통동 955-3번지 청명중학교","indutype":"학원 - 초중고교육기관","category":"study"}]},{"lat":"37.265214557","long":"127.08513415","imageIndex":16,"items":[{"name":"청명초등학교","tel":"031-202-2124","addr":"경기도 수원시 영통구 영통동 1053-6번지 청명초등학교","indutype":"학원 - 초중고교육기관","category":"study"},{"name":"청명초병설유치원[아이행복]","tel":"031-202-2124","addr":"경기도 수원시 영통구 영통동 1053-6번지 청명초등학교","indutype":"학원 - 유치원","category":"study"}]},{"lat":"37.266595806","long":"127.08118982","imageIndex":16,"items":[{"name":"청백미술학원","tel":"031-563-1711","addr":"경기도 수원시 영통구 영통동 946-6번지 3층 일부","indutype":"학원 - 예·체능계학원","category":"study"}]},{"lat":"37.245046315","long":"127.05988864","imageIndex":16,"items":[{"name":"코렌체형교정센터","tel":"031-715-5550","addr":"경기도 수원시 영통구 영통동 980-3번지 디지털엠파이어빌딩 2층 204호","indutype":"학원 - 기타 교육기관","category":"study"}]},{"lat":"37.246606659","long":"127.05655365","imageIndex":16,"items":[{"name":"클레이학원","tel":"031-202-3389","addr":"경기도 수원시 영통구 영통동 978-6번지 4층","indutype":"학원 - 기타 교육기관","category":"study"}]},{"lat":"37.26676715","long":"127.08096452","imageIndex":16,"items":[{"name":"탑벤에듀학원","tel":"031-206-0979","addr":"경기도 수원시 영통구 영통동 946-1번지 2층","indutype":"학원 - 보습학원","category":"study"}]},{"lat":"37.248993179","long":"127.05917026","imageIndex":16,"items":[{"name":"태장고등학교","tel":"031-201-4004","addr":"경기도 수원시 영통구 영통동 973-2번지 태장고등학교","indutype":"학원 - 초중고교육기관","category":"study"},{"name":"태장고등학교_수업료","tel":"031-201-4004","addr":"경기도 수원시 영통구 영통동 973-2번지 태장고등학교","indutype":"학원 - 초중고교육기관","category":"study"}]},{"lat":"37.248710709","long":"127.06544807","imageIndex":16,"items":[{"name":"태장중학교","tel":"031-201-9500","addr":"경기도 수원시 영통구 영통동 970-1번지 태장중학교","indutype":"학원 - 초중고교육기관","category":"study"}]},{"lat":"37.25099334","long":"127.07590989","imageIndex":16,"items":[{"name":"토토리빙텔 영통점","tel":"031-203-0712","addr":"경기도 수원시 영통구 영통동 1009-3번지 501,601호","indutype":"학원 - 독서실","category":"study"},{"name":"토토리빙텔영통점","tel":"031-203-0712","addr":"경기도 수원시 영통구 영통동 1009-3 호원빌딩501호,601호","indutype":"학원 - 독서실","category":"study"}]},{"lat":"37.25035499","long":"127.07363246","imageIndex":16,"items":[{"name":"트리니티공든탑공무원학원","tel":"031-206-8477","addr":"경기도 수원시 영통구 영통동 1000-6번지 3층 및 6층전체","indutype":"학원 - 보습학원","category":"study"}]},{"lat":"37.249493369","long":"127.06774806","imageIndex":16,"items":[{"name":"파란꿈미술교습소","tel":"031-205-4430","addr":"경기도 수원시 영통구 영통동 967-2 극동풍림상가2층 210","indutype":"학원 - 예·체능계학원","category":"study"},{"name":"하이든음악학원","tel":"031-203-4432","addr":"경기도 수원시 영통구 영통동 967-2번지 신나무실극동A제상가동201,202,208,209호","indutype":"학원 - 예·체능계학원","category":"study"}]},{"lat":"37.246208981","long":"127.05919073","imageIndex":16,"items":[{"name":"포인트입시미술학원","tel":"031-273-9495","addr":"경기도 수원시 영통구 영통동 976-11번지 5층","indutype":"학원 - 예·체능계학원","category":"study"}]},{"lat":"37.251380811","long":"127.07586518","imageIndex":16,"items":[{"name":"플러스리빙텔","tel":"031-202-1199","addr":"경기도 수원시 영통구 영통동 1009-2번지 플러스타운빌딩 128,129,130,502호","indutype":"학원 - 독서실","category":"study"}]},{"lat":"37.244947153","long":"127.05999","imageIndex":16,"items":[{"name":"플레이소프트수원학원","tel":"","addr":"경기도 수원시 영통구 영통동 980-3번지 디지털엠파이어빌딩 D동 254호","indutype":"학원 - 컴퓨터학원","category":"study"}]},{"lat":"37.26584799","long":"127.08113268","imageIndex":16,"items":[{"name":"하우스터디영통이센터독서실","tel":"031-204-8666","addr":"경기도 수원시 영통구 영통동 947-10번지 3층","indutype":"학원 - 독서실","category":"study"}]},{"lat":"37.249910231","long":"127.07888447","imageIndex":16,"items":[{"name":"한솔브레인학원","tel":"031-203-7081","addr":"경기도 수원시 영통구 영통동 1013-1번지 혜성빌딩 2층","indutype":"학원 - 기타 교육기관","category":"study"}]},{"lat":"37.266433621","long":"127.08118965","imageIndex":16,"items":[{"name":"한수연수학","tel":"070-4070-7918","addr":"경기도 수원시 영통구 영통동 946-5번지 4층 일부호","indutype":"학원 - 보습학원","category":"study"}]},{"lat":"37.264850284","long":"127.07735501","imageIndex":16,"items":[{"name":"해법수학학원","tel":"031-308-4862","addr":"경기도 수원시 영통구 영통동 949-5번지 2층","indutype":"학원 - 보습학원","category":"study"}]},{"lat":"37.254299045","long":"127.07763769","imageIndex":16,"items":[{"name":"현대타이거즈태권도","tel":"031-205-9555","addr":"경기도 수원시 영통구 영통동 1038-9번지 2층","indutype":"학원 - 예·체능계학원","category":"study"}]},{"lat":"37.265183065","long":"127.07830232","imageIndex":16,"items":[{"name":"황곡초등학교","tel":"031-203-2034","addr":"경기도 수원시 영통구 영통동 948-3번지 황곡초등학교","indutype":"학원 - 초중고교육기관","category":"study"}]},{"lat":"37.265156669","long":"127.07729894","imageIndex":16,"items":[{"name":"황골허린음악학원","tel":"031-205-9595","addr":"경기도 수원시 영통구 영통동 949-3 4층,5층","indutype":"학원 - 예·체능계학원","category":"study"}]},{"lat":"37.255463467","long":"127.07424593","imageIndex":16,"items":[{"name":"휴먼에듀연구소","tel":"031-334-9500","addr":"경기도 수원시 영통구 영통동 958-2번지 훼미리타워 1523호","indutype":"회원제형태 - 학원","category":"study"}]},{"lat":"37.250245254","long":"127.07628113","imageIndex":16,"items":[{"name":"힐링하트 심리상담센터","tel":"031-205-1515","addr":"경기도 수원시 영통구 영통동 1005-4번지 영재빌딩 5층","indutype":"학원 - 기타 교육기관","category":"study"}]},{"lat":"37.263881472","long":"127.08450139","imageIndex":16,"items":[{"name":"힐스테이트어린이집[아이행복]","tel":"031-217-0161","addr":"경기도 수원시 영통구 영통동 1052-3번지","indutype":"학원 - 유아원","category":"study"}]}]