[{"lat":"37.221215055","long":"126.948203","imageIndex":0,"items":[{"name":"(주)미르스카이","tel":"031-242-8000","addr":"경기도 화성시 봉담읍 수영리 651-22번지 2층 202호","indutype":"자동차정비 유지 - 자동차부품","category":"car"}]},{"lat":"37.221765631","long":"126.95028702","imageIndex":0,"items":[{"name":"봉담남부점 현대자동차","tel":"031-278-8204","addr":"경기도 화성시 봉담읍 수영리 647-7번지","indutype":"자동차정비 유지 - 자동차정비","category":"car"}]},{"lat":"37.23810349","long":"126.95525681","imageIndex":0,"items":[{"name":"수도화학상사","tel":"031-291-8809","addr":"경기도 화성시 봉담읍 수영리 307-2번지","indutype":"자동차정비 유지 - 자동차부품","category":"car"}]},{"lat":"37.221522341","long":"126.95026465","imageIndex":0,"items":[{"name":"정우모터스","tel":"031-296-8295","addr":"경기도 화성시 봉담읍 수영리 648-13번지 2층","indutype":"자동차정비 유지 - 자동차부품","category":"car"}]},{"lat":"37.233161226","long":"126.96790354","imageIndex":0,"items":[{"name":"주식회사 센트럴모터스","tel":"031-292-1236","addr":"경기도 화성시 봉담읍 수영리 1-3번지","indutype":"자동차정비 유지 - 자동차정비","category":"car"}]},{"lat":"37.241236418","long":"126.94903379","imageIndex":0,"items":[{"name":"타이어 집 (TIRE ZIP)","tel":"031-8019-8500","addr":"경기도 화성시 봉담읍 수영리 474-1번지","indutype":"자동차정비 유지 - 자동차시트·타이어","category":"car"}]},{"lat":"37.225911953","long":"126.95392362","imageIndex":0,"items":[{"name":"타이어아울렛","tel":"031-227-0268","addr":"경기도 화성시 봉담읍 수영리 627-3번지","indutype":"자동차정비 유지 - 자동차시트·타이어","category":"car"}]},{"lat":"37.224406586","long":"126.95240348","imageIndex":0,"items":[{"name":"태극모터월드-KSH","tel":"","addr":"경기도 화성시 봉담읍 수영리 645번지 304동 1206호 (화성봉담2 LH3단지)","indutype":"자동차정비 유지 - 견인서비스","category":"car"}]},{"lat":"37.234213423","long":"126.96164877","imageIndex":0,"items":[{"name":"한우리유통","tel":"031-293-5689","addr":"경기도 화성시 봉담읍 수영리 212-1번지 ***연번지,3","indutype":"자동차정비 유지 - 자동차부품","category":"car"}]}]