[{"lat":"37.003832557","long":"127.27176634","imageIndex":4,"items":[{"name":"VERONKA (러시아 음식점)","tel":"031-677-7488","addr":"경기도 안성시 창전동 123-7번지","indutype":"일반휴게음식 - 주점","category":"restaurant"}]},{"lat":"37.005328264","long":"127.27179408","imageIndex":4,"items":[{"name":"꼴통막창","tel":"031-676-8274","addr":"경기도 안성시 창전동 608-6번지","indutype":"일반휴게음식 - 일반한식","category":"restaurant"}]},{"lat":"37.00516765","long":"127.27109694","imageIndex":4,"items":[{"name":"꽃돼지와 아이들","tel":"031-677-3249","addr":"경기도 안성시 창전동 368-1번지","indutype":"일반휴게음식 - 일반한식","category":"restaurant"}]},{"lat":"37.003744281","long":"127.27095712","imageIndex":4,"items":[{"name":"도희","tel":"031-677-1471","addr":"경기도 안성시 창전동 115번지","indutype":"일반휴게음식 - 일반한식","category":"restaurant"},{"name":"레드","tel":"031-671-5256","addr":"경기도 안성시 창전동 115번지","indutype":"일반휴게음식 - 주점","category":"restaurant"}]},{"lat":"37.005302631","long":"127.27117606","imageIndex":4,"items":[{"name":"마법사 꽈배기","tel":"031-676-6319","addr":"경기도 안성시 창전동 606-1번지","indutype":"일반휴게음식 - 일반한식","category":"restaurant"}]},{"lat":"37.004273949","long":"127.27182407","imageIndex":4,"items":[{"name":"바라봄","tel":"031-672-7535","addr":"경기도 안성시 창전동 85번지 1층","indutype":"일반휴게음식 - 일반한식","category":"restaurant"}]},{"lat":"37.003803461","long":"127.27267626","imageIndex":4,"items":[{"name":"백제한우전문점식당","tel":"031-675-5569","addr":"경기도 안성시 창전동 130-5번지","indutype":"일반휴게음식 - 일반한식","category":"restaurant"}]},{"lat":"37.003716437","long":"127.27131654","imageIndex":4,"items":[{"name":"벌떼","tel":"031-675-9210","addr":"경기도 안성시 창전동 121","indutype":"일반휴게음식 - 주점","category":"restaurant"}]},{"lat":"37.003915482","long":"127.27095773","imageIndex":4,"items":[{"name":"손맛칼국수","tel":"031-672-0443","addr":"경기도 안성시 창전동 113-3번지","indutype":"일반휴게음식 - 일반한식","category":"restaurant"}]},{"lat":"37.004771184","long":"127.27109555","imageIndex":4,"items":[{"name":"잘해반점","tel":"031-671-3033","addr":"경기도 안성시 창전동 371-4번지 1층","indutype":"일반휴게음식 - 중국식","category":"restaurant"}]},{"lat":"37.003689583","long":"127.2712378","imageIndex":4,"items":[{"name":"장미","tel":"031-674-7980","addr":"경기도 안성시 창전동 118번지","indutype":"일반휴게음식 - 일반한식","category":"restaurant"}]}]