[{"lat":"37.067894648","long":"126.83494798","imageIndex":17,"items":[{"name":"그린에어체인지(주)","tel":"031-351-6942","addr":"경기도 화성시 장안면 사랑리 251-8번지 나동","indutype":"전기제품 - 냉열기기","category":"other"}]},{"lat":"37.072425743","long":"126.83408337","imageIndex":17,"items":[{"name":"대남포장","tel":"031-358-7727","addr":"경기도 화성시 장안면 사랑리 97-3","indutype":"신변잡화 - 기타잡화","category":"other"}]},{"lat":"37.071310315","long":"126.83541273","imageIndex":17,"items":[{"name":"모심(주)","tel":"","addr":"경기도 화성시 장안면 사랑리 61번지","indutype":"용역 서비스 - 종합용역","category":"other"}]},{"lat":"37.070038299","long":"126.83433605","imageIndex":17,"items":[{"name":"사랑다육이","tel":"","addr":"경기도 화성시 장안면 사랑리 71-2번지","indutype":"문화.취미 - 화원","category":"other"}]},{"lat":"37.07917554","long":"126.82244007","imageIndex":17,"items":[{"name":"아이베푸드","tel":"031-358-3545","addr":"경기도 화성시 장안면 사랑리 420-1번지","indutype":"신변잡화 - 기타잡화","category":"other"}]},{"lat":"37.070394784","long":"126.8379448","imageIndex":17,"items":[{"name":"알앤에스솔루션","tel":"031-351-3967","addr":"경기도 화성시 장안면 사랑리 53-3","indutype":"사무통신 - 사무용 OA기기","category":"other"}]},{"lat":"37.074838318","long":"126.83250368","imageIndex":17,"items":[{"name":"위드미 화성사랑점","tel":"031-351-3076","addr":"경기도 화성시 장안면 사랑리 123-3번지 102호","indutype":"유통업 영리 - 편 의 점","category":"other"}]},{"lat":"37.076678697","long":"126.82183872","imageIndex":17,"items":[{"name":"조암종합철물건재","tel":"031-351-8288","addr":"경기도 화성시 장안면 사랑리 408-2번지","indutype":"건축자재 - 기타건축자재","category":"other"}]},{"lat":"37.07936855","long":"126.82494747","imageIndex":17,"items":[{"name":"천진가설재","tel":"031-355-6153","addr":"경기도 화성시 장안면 사랑리 430-19번지","indutype":"건축자재 - 목재·석재·철물","category":"other"},{"name":"천진가설재","tel":"031-355-6153","addr":"경기도 화성시 장안면 사랑리 430-19번지","indutype":"건축자재 - 기타건축자재","category":"other"}]},{"lat":"37.080204684","long":"126.82371969","imageIndex":17,"items":[{"name":"한중통상무역","tel":"070-4107-6787","addr":"경기도 화성시 장안면 사랑리 429번지","indutype":"전기제품 - 기타전기제품","category":"other"}]},{"lat":"37.079592308","long":"126.82394605","imageIndex":17,"items":[{"name":"화성축산기계","tel":"031-358-4797","addr":"경기도 화성시 장안면 사랑리 530-15번지","indutype":"농업 - 농기계","category":"other"}]},{"lat":"37.075674969","long":"126.81952454","imageIndex":4,"items":[{"name":"남한강물고기매운탕","tel":"031-8059-5451","addr":"경기도 화성시 장안면 사랑리 372-8번지","indutype":"일반휴게음식 - 일반한식","category":"restaurant"},{"name":"소반정","tel":"031-351-6336","addr":"경기도 화성시 장안면 사랑리 372-8 흙벽돌","indutype":"일반휴게음식 - 일반한식","category":"restaurant"}]},{"lat":"37.080205736","long":"126.82441694","imageIndex":4,"items":[{"name":"다사랑부페","tel":"031-351-3311","addr":"경기도 화성시 장안면 사랑리 430번지 1동 1층 일부","indutype":"일반휴게음식 - 일반한식","category":"restaurant"}]},{"lat":"37.080476221","long":"126.82452877","imageIndex":4,"items":[{"name":"신토불이","tel":"031-358-5259","addr":"경기도 화성시 장안면 사랑리 529-1번지","indutype":"일반휴게음식 - 일반한식","category":"restaurant"}]},{"lat":"37.071787604","long":"126.83522052","imageIndex":4,"items":[{"name":"씨암탉","tel":"031-351-3037","addr":"경기도 화성시 장안면 사랑리 91-10번지","indutype":"일반휴게음식 - 일반한식","category":"restaurant"}]},{"lat":"37.078644004","long":"126.82249755","imageIndex":4,"items":[{"name":"이조 손칼국수","tel":"031-358-5567","addr":"경기도 화성시 장안면 사랑리 531-20번지","indutype":"일반휴게음식 - 스넥","category":"restaurant"}]},{"lat":"37.080205736","long":"126.82441694","imageIndex":7,"items":[{"name":"다사랑축산물","tel":"031-351-3371","addr":"경기도 화성시 장안면 사랑리 430번지","indutype":"음료식품 - 정육점","category":"food"}]},{"lat":"37.075674969","long":"126.81952454","imageIndex":7,"items":[{"name":"다자연협동조합","tel":"031-358-4777","addr":"경기도 화성시 장안면 사랑리 372-8번지","indutype":"음료식품 - 기타음료식품","category":"food"}]},{"lat":"37.071950429","long":"126.83566996","imageIndex":7,"items":[{"name":"스마일상사","tel":"031-358-6234","addr":"경기도 화성시 장안면 사랑리 40-3","indutype":"음료식품 - 기타음료식품","category":"food"}]},{"lat":"37.071202506","long":"126.83563787","imageIndex":7,"items":[{"name":"협동조합 필레오하우스","tel":"031-351-8216","addr":"경기도 화성시 장안면 사랑리 67-1번지","indutype":"음료식품 - 농·축·수산품","category":"food"}]},{"lat":"37.079590879","long":"126.82300138","imageIndex":0,"items":[{"name":"용정카센타","tel":"031-351-8868","addr":"경기도 화성시 장안면 사랑리 420-4번지","indutype":"자동차정비 유지 - 자동차정비","category":"car"}]},{"lat":"37.075674969","long":"126.81952454","imageIndex":0,"items":[{"name":"차사랑종합공업사","tel":"031-351-4982","addr":"경기도 화성시 장안면 사랑리 372-8","indutype":"자동차정비 유지 - 자동차정비","category":"car"}]},{"lat":"37.080204684","long":"126.82371969","imageIndex":7,"items":[{"name":"인더라인사랑점","tel":"031-000-0000","addr":"경기도 화성시 장안면 사랑리 429번지","indutype":"유통업 영리 - 슈퍼마켓","category":"mart"}]}]