[{"lat":"37.685233991","long":"126.77246035","imageIndex":5,"items":[{"name":"가든 모텔","tel":"031-976-2861","addr":"경기도 고양시 일산서구 일산동 637-57번지","indutype":"숙박업 - 여관/기타숙박업","category":"hotel"}]},{"lat":"37.68532006","long":"126.77040811","imageIndex":5,"items":[{"name":"대명장여관","tel":"031-976-8845","addr":"경기도 고양시 일산서구 일산동 617-32번지","indutype":"숙박업 - 여관/기타숙박업","category":"hotel"}]},{"lat":"37.685208047","long":"126.77301593","imageIndex":5,"items":[{"name":"대중여관","tel":"031-975-2427","addr":"경기도 고양시 일산서구 일산동 640-26번지","indutype":"숙박업 - 여관/기타숙박업","category":"hotel"}]},{"lat":"37.686430978","long":"126.7717991","imageIndex":5,"items":[{"name":"덕수모텔","tel":"031-976-1415","addr":"경기도 고양시 일산서구 일산동 591-29번지","indutype":"숙박업 - 여관/기타숙박업","category":"hotel"}]},{"lat":"37.686653735","long":"126.77515417","imageIndex":5,"items":[{"name":"보람장여관","tel":"031-975-4229","addr":"경기도 고양시 일산서구 일산동 580-15번지","indutype":"숙박업 - 여관/기타숙박업","category":"hotel"}]},{"lat":"37.685209282","long":"126.77365079","imageIndex":5,"items":[{"name":"보성장","tel":"031-975-5550","addr":"경기도 고양시 일산서구 일산동 640-77번지","indutype":"숙박업 - 여관/기타숙박업","category":"hotel"}]},{"lat":"37.685097272","long":"126.77165586","imageIndex":5,"items":[{"name":"부흥여관","tel":"031-975-2047","addr":"경기도 고양시 일산서구 일산동 637-89번지","indutype":"숙박업 - 여관/기타숙박업","category":"hotel"}]},{"lat":"37.683959436","long":"126.77032166","imageIndex":5,"items":[{"name":"사회단체 한국교육복지문화진흥재단 연수원","tel":"032-933-1102","addr":"경기도 고양시 일산서구 일산동 627-70번지","indutype":"숙박업 - 여관/기타숙박업","category":"hotel"}]},{"lat":"37.687013926","long":"126.77043683","imageIndex":5,"items":[{"name":"서울여관","tel":"031-977-3274","addr":"경기도 고양시 일산서구 일산동 603-5번지","indutype":"숙박업 - 여관/기타숙박업","category":"hotel"}]},{"lat":"37.684851163","long":"126.77481958","imageIndex":5,"items":[{"name":"신라여관","tel":"031-975-3519","addr":"경기도 고양시 일산서구 일산동 552-20번지","indutype":"숙박업 - 여관/기타숙박업","category":"hotel"}]},{"lat":"37.687986955","long":"126.77504806","imageIndex":5,"items":[{"name":"에스 (S)모텔","tel":"031-916-1417","addr":"경기도 고양시 일산서구 일산동 583-4번지","indutype":"숙박업 - 여관/기타숙박업","category":"hotel"}]},{"lat":"37.684656447","long":"126.77198599","imageIndex":5,"items":[{"name":"이화여관","tel":"031-975-2047","addr":"경기도 고양시 일산서구 일산동 637-17번지","indutype":"숙박업 - 여관/기타숙박업","category":"hotel"}]},{"lat":"37.683401222","long":"126.77051613","imageIndex":5,"items":[{"name":"장미여관","tel":"031-975-3452","addr":"경기도 고양시 일산서구 일산동 628-5번지","indutype":"숙박업 - 여관/기타숙박업","category":"hotel"}]},{"lat":"37.688733828","long":"126.77456961","imageIndex":5,"items":[{"name":"천지장","tel":"031-977-3279","addr":"경기도 고양시 일산서구 일산동 1868번지","indutype":"숙박업 - 여관/기타숙박업","category":"hotel"}]},{"lat":"37.685351824","long":"126.77282276","imageIndex":5,"items":[{"name":"태양모텔","tel":"031-975-6645","addr":"경기도 고양시 일산서구 일산동 640-31번지","indutype":"숙박업 - 여관/기타숙박업","category":"hotel"}]},{"lat":"37.684573248","long":"126.77090926","imageIndex":5,"items":[{"name":"현대여관","tel":"031-975-2324","addr":"경기도 고양시 일산서구 일산동 635-4번지","indutype":"숙박업 - 여관/기타숙박업","category":"hotel"}]}]