[{"lat":"37.269917264","long":"127.63493836","imageIndex":13,"items":[{"name":"동신교육재단","tel":"031-881-2882","addr":"경기도 여주시 교동 454-5번지","indutype":"레저업소 - 골프연습장","category":"leisure"}]},{"lat":"37.269140828","long":"127.63691609","imageIndex":13,"items":[{"name":"맥스피드PC 여주대점","tel":"070-4660-9762","addr":"경기도 여주시 교동 51-6번지 캠퍼스타운2 201호","indutype":"레저업소 - 기타레져업소","category":"leisure"},{"name":"아프리칸노래연습장","tel":"031-886-5196","addr":"경기도 여주시 교동 51-6번지 201호","indutype":"레저업소 - 노 래 방","category":"leisure"},{"name":"에이스프러스당구장","tel":"031-885-7170","addr":"경기도 여주시 교동 51-6번지","indutype":"레저업소 - 당 구 장","category":"leisure"}]},{"lat":"37.274696432","long":"127.63591412","imageIndex":13,"items":[{"name":"민'S 슬라임","tel":"","addr":"경기도 여주시 교동 77번지","indutype":"레저업소 - 기타레져업소","category":"leisure"}]},{"lat":"37.270580694","long":"127.63724384","imageIndex":13,"items":[{"name":"바디라인","tel":"031-881-0117","addr":"경기도 여주시 교동 48-2번지 2층","indutype":"레저업소 - 헬스클럽","category":"leisure"}]},{"lat":"37.279583498","long":"127.63524468","imageIndex":13,"items":[{"name":"여주우슈체육관","tel":"031-885-9364","addr":"경기도 여주시 교동 103-3번지 1층","indutype":"레저업소 - 헬스클럽","category":"leisure"}]},{"lat":"37.284223449","long":"127.62680376","imageIndex":13,"items":[{"name":"영 스크린 골프","tel":"031-884-0753","addr":"경기도 여주시 교동 191-4번지 2층","indutype":"레저업소 - 스크린골프","category":"leisure"}]},{"lat":"37.276248657","long":"127.63713355","imageIndex":13,"items":[{"name":"짱구노래연습장","tel":"031-884-8660","addr":"경기도 여주시 교동 84-6번지 2층","indutype":"레저업소 - 노 래 방","category":"leisure"},{"name":"투플러스 PC방","tel":"","addr":"경기도 여주시 교동 84-6번지 1층","indutype":"레저업소 - 기타레져업소","category":"leisure"}]}]