[{"lat":"37.39309029","long":"127.2329258","imageIndex":16,"items":[{"name":"경기광주무용학원(태전점)","tel":"03-111-1111","addr":"경기도 광주시 장지동 686-2번지 3층","indutype":"학원 - 예·체능계학원","category":"study"},{"name":"에픽수학원","tel":"031-767-5209","addr":"경기도 광주시 장지동 686-2번지 2동","indutype":"학원 - 보습학원","category":"study"},{"name":"태전씨앤씨 미술학원","tel":"032-764-6662","addr":"경기도 광주시 장지동 686-2번지 2층","indutype":"학원 - 예·체능계학원","category":"study"}]},{"lat":"37.39463916","long":"127.2468434","imageIndex":16,"items":[{"name":"공부신화학원","tel":"031-766-2226","addr":"경기도 광주시 장지동 62-1번지 2층 202호","indutype":"학원 - 보습학원","category":"study"},{"name":"투와이영어학원","tel":"031-763-7915","addr":"경기도 광주시 장지동 62-1번지 2층 201호","indutype":"학원 - 외국어학원","category":"study"}]},{"lat":"37.39667015","long":"127.2450318","imageIndex":16,"items":[{"name":"기픈생각수학교습소","tel":"031-798-0607","addr":"경기도 광주시 장지동 40-8번지 JG빌딩 203호","indutype":"학원 - 보습학원","category":"study"},{"name":"수레바퀴음악학원","tel":"031-763-1107","addr":"경기도 광주시 장지동 40-8번지 4층","indutype":"학원 - 예·체능계학원","category":"study"}]},{"lat":"37.40776269","long":"127.2354781","imageIndex":16,"items":[{"name":"단국대스타태권도장","tel":"031-761-8891","addr":"경기도 광주시 장지동 756번지 벽산블루밍1단지 2층 203호","indutype":"학원 - 예·체능계학원","category":"study"},{"name":"린다해법영어교습소","tel":"","addr":"경기도 광주시 장지동 756번지 벽산블루밍1단지 상가동 101B호","indutype":"학원 - 외국어학원","category":"study"},{"name":"우리들의뮤직아카데미학원","tel":"031-767-1577","addr":"경기도 광주시 장지동 756번지 벽산블루밍1단지 상가동 201호","indutype":"학원 - 예·체능계학원","category":"study"},{"name":"탑클래스학원","tel":"031-766-6071","addr":"경기도 광주시 장지동 756번지 벽산블루밍1단지 상가","indutype":"학원 - 보습학원","category":"study"}]},{"lat":"37.39536254","long":"127.2455923","imageIndex":16,"items":[{"name":"동성태비 점프윙스","tel":"","addr":"경기도 광주시 장지동 56-7번지 201호","indutype":"학원 - 예·체능계학원","category":"study"}]},{"lat":"37.39567004","long":"127.2450286","imageIndex":16,"items":[{"name":"동성태비태권도","tel":"031-763-1233","addr":"경기도 광주시 장지동 57-4번지 1층 에이호","indutype":"학원 - 예·체능계학원","category":"study"}]},{"lat":"37.39517333","long":"127.2455916","imageIndex":16,"items":[{"name":"레전드태권도장","tel":"031-768-8882","addr":"경기도 광주시 장지동 76-10번지 203호","indutype":"학원 - 예·체능계학원","category":"study"}]},{"lat":"37.39605758","long":"127.2449734","imageIndex":16,"items":[{"name":"뮤엠영어장지학원","tel":"031-765-0240","addr":"경기도 광주시 장지동 42-4번지 대광프라자 402호","indutype":"학원 - 외국어학원","category":"study"},{"name":"아델음악학원","tel":"","addr":"경기도 광주시 장지동 42-4번지 대광프라자","indutype":"학원 - 예·체능계학원","category":"study"},{"name":"연세수학보습학원","tel":"070-8658-4157","addr":"경기도 광주시 장지동 42-4번지 대광프라자 404호","indutype":"학원 - 보습학원","category":"study"},{"name":"키즈스피치예소스웅변학원","tel":"031-798-2229","addr":"경기도 광주시 장지동 42-4번지 대광프라자 4층","indutype":"학원 - 기타 교육기관","category":"study"}]},{"lat":"37.39115287","long":"127.2330554","imageIndex":16,"items":[{"name":"블랙이글스하키클럽","tel":"031-769-0916","addr":"경기도 광주시 장지동 755번지 금광포란재아파트","indutype":"학원 - 예·체능계학원","category":"study"}]},{"lat":"37.40469844","long":"127.2404269","imageIndex":16,"items":[{"name":"성남자동차운전전문힉원","tel":"031-767-6677","addr":"경기도 광주시 장지동 511-7번지 외7필지 (장지동 511-4,5,6,8,9,11,12)","indutype":"학원 - 기능학원","category":"study"}]},{"lat":"37.39078484","long":"127.2323429","imageIndex":16,"items":[{"name":"승리합기도","tel":"070-4799-1485","addr":"경기도 광주시 장지동 68-7번지 2층","indutype":"학원 - 예·체능계학원","category":"study"}]},{"lat":"37.39703078","long":"127.24492","imageIndex":16,"items":[{"name":"쎈수학러닝센터 광주장지학원","tel":"031-764-1402","addr":"경기도 광주시 장지동 39-5번지 3층 302호","indutype":"학원 - 보습학원","category":"study"},{"name":"영렘브란트역동센터미술학원","tel":"031-000-0000","addr":"경기도 광주시 장지동 39-5번지 202호","indutype":"학원 - 예·체능계학원","category":"study"}]},{"lat":"37.39211602","long":"127.2335326","imageIndex":16,"items":[{"name":"아소비 광주장지점","tel":"","addr":"경기도 광주시 장지동 688-22번지 아망뜨빌","indutype":"학원 - 기타 교육기관","category":"study"}]},{"lat":"37.40734533","long":"127.2369452","imageIndex":16,"items":[{"name":"안선생영어전문과외","tel":"031-767-7060","addr":"경기도 광주시 장지동 757번지 벽산블루밍2단지","indutype":"회원제형태 - 학원","category":"study"}]},{"lat":"37.39956305","long":"127.2447023","imageIndex":16,"items":[{"name":"역동해법영어수학학원","tel":"","addr":"경기도 광주시 장지동 3-17번지 201호","indutype":"학원 - 외국어학원","category":"study"}]},{"lat":"37.39519968","long":"127.2459192","imageIndex":16,"items":[{"name":"올패스영수전문학원","tel":"031-769-1066","addr":"경기도 광주시 장지동 56-4번지 201,202호","indutype":"학원 - 보습학원","category":"study"}]},{"lat":"37.3926673","long":"127.2326761","imageIndex":16,"items":[{"name":"유앤아이어학원","tel":"031-769-5509","addr":"경기도 광주시 장지동 687-39번지 3층","indutype":"회원제형태 - 학원","category":"study"},{"name":"태전솔로몬독서실","tel":"031-797-5541","addr":"경기도 광주시 장지동 687-39번지","indutype":"학원 - 독서실","category":"study"}]},{"lat":"37.39686841","long":"127.2450099","imageIndex":16,"items":[{"name":"이지하이영어학원","tel":"031-8027-0579","addr":"경기도 광주시 장지동 40-14번지 미소빌딩 2층 201호","indutype":"학원 - 외국어학원","category":"study"}]},{"lat":"37.39891615","long":"127.243808","imageIndex":16,"items":[{"name":"지앤티(G&T)영어어학원","tel":"031-798-1102","addr":"경기도 광주시 장지동 4-6번지 2층","indutype":"학원 - 외국어학원","category":"study"},{"name":"플랜에이경기광주역 독서실","tel":"031-763-0953","addr":"경기도 광주시 장지동 4-6번지 4층","indutype":"학원 - 독서실","category":"study"}]},{"lat":"37.39475687","long":"127.2465615","imageIndex":16,"items":[{"name":"짐콩어린이스포츠센터","tel":"","addr":"경기도 광주시 장지동 62-10번지 2층 201호","indutype":"학원 - 기타 교육기관","category":"study"}]},{"lat":"37.39284059","long":"127.2315925","imageIndex":16,"items":[{"name":"태전점엠에이씨실용음악학원","tel":"031-767-6649","addr":"경기도 광주시 장지동 687-9번지 ,2-3층","indutype":"학원 - 예·체능계학원","category":"study"}]},{"lat":"37.39261286","long":"127.2328679","imageIndex":16,"items":[{"name":"팀포마","tel":"031-321-3643","addr":"경기도 광주시 장지동 688-2번지 3층","indutype":"학원 - 예·체능계학원","category":"study"}]},{"lat":"37.39772649","long":"127.2439736","imageIndex":16,"items":[{"name":"힘찬수학논술","tel":"031-212-9080","addr":"경기도 광주시 장지동 12-5번지 세진타운 102동 402호","indutype":"학원 - 기타 교육기관","category":"study"}]}]