[{"lat":"37.275248727","long":"127.44960004","imageIndex":8,"items":[{"name":"24시 큰사랑동물병원","tel":"031-8011-3690","addr":"경기도 이천시 중리동 468-24번지 2동","indutype":"기타의료기관 - 동물병원","category":"medical"}]},{"lat":"37.276466342","long":"127.43715943","imageIndex":8,"items":[{"name":"H플란트치과의원","tel":"031-635-2833","addr":"경기도 이천시 중리동 445-11번지","indutype":"의원 - 치과의원","category":"medical"},{"name":"H플란트치과의원","tel":"031-635-2833","addr":"경기도 이천시 중리동 445-11번지","indutype":"의원 - 치과의원","category":"medical"}]},{"lat":"37.277078648","long":"127.4445708","imageIndex":8,"items":[{"name":"경기동물전문병원","tel":"031-631-7582","addr":"경기도 이천시 중리동 208-7번지","indutype":"기타의료기관 - 동물병원","category":"medical"}]},{"lat":"37.279185089","long":"127.4377952","imageIndex":8,"items":[{"name":"고려생약국","tel":"070-4117-6106","addr":"경기도 이천시 중리동 2-16번지 1층","indutype":"약국 - 약국","category":"medical"}]},{"lat":"37.277859043","long":"127.43821604","imageIndex":8,"items":[{"name":"고연솔약국","tel":"031-635-3888","addr":"경기도 이천시 중리동 235-5번지","indutype":"약국 - 약국","category":"medical"}]},{"lat":"37.27835394","long":"127.44568325","imageIndex":8,"items":[{"name":"골드약국","tel":"031-631-3317","addr":"경기도 이천시 중리동 213번지 이천라온팰리스 409호","indutype":"약국 - 약국","category":"medical"},{"name":"드림키즈소아청소년과의원","tel":"031-638-4090","addr":"경기도 이천시 중리동 213번지 이천라온팰리스 제3층 제301호부터 311호 까지","indutype":"의원 - 의원","category":"medical"},{"name":"라온약국","tel":"070-7550-6743","addr":"경기도 이천시 중리동 213번지 이천라온팰리스 4층 411호","indutype":"약국 - 약국","category":"medical"},{"name":"본사랑정형외과","tel":"031-637-7585","addr":"경기도 이천시 중리동 213번지 라온팰리스 412호405호~407호 405호","indutype":"의원 - 의원","category":"medical"},{"name":"서울삼성메디센터","tel":"031-891-9114","addr":"경기도 이천시 중리동 213번지 이천라온팰리스 상가 401호","indutype":"의원 - 의원","category":"medical"},{"name":"서울성모안과의원","tel":"031-638-0200","addr":"경기도 이천시 중리동 213번지 이천라온팰리스 3층","indutype":"의원 - 의원","category":"medical"},{"name":"서울쥬니어치과의원","tel":"031-636-3360","addr":"경기도 이천시 중리동 213번지 이천라온팰리스 217,219호","indutype":"의원 - 치과의원","category":"medical"},{"name":"이탑치과","tel":"031-1899-6286","addr":"경기도 이천시 중리동 213번지 이천라온팰리스 3층","indutype":"의원 - 치과의원","category":"medical"},{"name":"포시즌의원","tel":"02-1800-6511","addr":"경기도 이천시 중리동 213번지 이천라온팰리스 3층","indutype":"의원 - 의원","category":"medical"},{"name":"하은정신건강의학과의원","tel":"031-638-8202","addr":"경기도 이천시 중리동 213번지 이천라온팰리스 3층 319호","indutype":"의원 - 의원","category":"medical"},{"name":"행복드림약국","tel":"031-638-8324","addr":"경기도 이천시 중리동 213번지 이천라온팰리스 3층","indutype":"약국 - 약국","category":"medical"}]},{"lat":"37.277414706","long":"127.44626407","imageIndex":8,"items":[{"name":"금오한의원","tel":"031-631-7533","addr":"경기도 이천시 중리동 217번지 최약국 2층","indutype":"의원 - 한의원","category":"medical"},{"name":"최약국","tel":"031-635-2024","addr":"경기도 이천시 중리동 217번지","indutype":"약국 - 약국","category":"medical"}]},{"lat":"37.275746123","long":"127.44671656","imageIndex":8,"items":[{"name":"나우현내과","tel":"031-635-8744","addr":"경기도 이천시 중리동 227-1번지 1동 2층","indutype":"의원 - 의원","category":"medical"},{"name":"더드림약국","tel":"070-4409-8585","addr":"경기도 이천시 중리동 227-1번지 1동 1층","indutype":"약국 - 약국","category":"medical"}]},{"lat":"37.27596249","long":"127.446684","imageIndex":8,"items":[{"name":"남선희산부인과의원","tel":"031-636-1555","addr":"경기도 이천시 중리동 227번지","indutype":"의원 - 의원","category":"medical"}]},{"lat":"37.277386916","long":"127.44646686","imageIndex":8,"items":[{"name":"녹십자약국","tel":"031-694-2307","addr":"경기도 이천시 중리동 217-1번지 1층","indutype":"약국 - 약국","category":"medical"},{"name":"바른서울치과의원","tel":"031-638-7528","addr":"경기도 이천시 중리동 217-1번지 2층","indutype":"의원 - 치과의원","category":"medical"},{"name":"우소정 의원","tel":"031-635-2259","addr":"경기도 이천시 중리동 217-1번지 4층","indutype":"의원 - 의원","category":"medical"},{"name":"장내과의원","tel":"031-635-0227","addr":"경기도 이천시 중리동 217-1번지 2층","indutype":"의원 - 의원","category":"medical"},{"name":"장내과의원","tel":"031-635-0226","addr":"경기도 이천시 중리동 217-1번지","indutype":"의원 - 의원","category":"medical"}]},{"lat":"37.277747654","long":"127.44637877","imageIndex":8,"items":[{"name":"닥터스피부과의원","tel":"031-8011-9771","addr":"경기도 이천시 중리동 218-2번지 하나빌딩 4층","indutype":"의원 - 의원","category":"medical"},{"name":"서울내과의원","tel":"031-631-1588","addr":"경기도 이천시 중리동 218-2번지","indutype":"의원 - 의원","category":"medical"},{"name":"자황한의원","tel":"031-631-7663","addr":"경기도 이천시 중리동 218-2번지 하나빌딩 3층","indutype":"의원 - 한의원","category":"medical"},{"name":"장세용비뇨기과의원","tel":"031-633-6660","addr":"경기도 이천시 중리동 218-2번지 하나빌딩 3층 3,4호","indutype":"의원 - 의원","category":"medical"},{"name":"청아치과의원","tel":"031-638-6938","addr":"경기도 이천시 중리동 218-2번지 하나빌딩 2층","indutype":"의원 - 치과의원","category":"medical"},{"name":"하나이비인후과의원","tel":"031-638-3811","addr":"경기도 이천시 중리동 218-2번지 ***연번지,3,4, 지상 4층","indutype":"의원 - 의원","category":"medical"},{"name":"해오름약국","tel":"031-631-8072","addr":"경기도 이천시 중리동 218-2번지 하나빌딩 1층","indutype":"약국 - 약국","category":"medical"},{"name":"형제안과","tel":"031-638-3811","addr":"경기도 이천시 중리동 218-2번지 하나빌딩 2층","indutype":"의원 - 의원","category":"medical"}]},{"lat":"37.275137245","long":"127.44809981","imageIndex":8,"items":[{"name":"마리나산부인과의원","tel":"031-636-0552","addr":"경기도 이천시 중리동 466-3 466-4,6","indutype":"의원 - 의원","category":"medical"}]},{"lat":"37.274884838","long":"127.44813215","imageIndex":8,"items":[{"name":"마리온누리약국","tel":"031-111-1111","addr":"경기도 이천시 중리동 466-4번지","indutype":"약국 - 약국","category":"medical"}]},{"lat":"37.276103096","long":"127.44763194","imageIndex":8,"items":[{"name":"메디원약국","tel":"031-631-8658","addr":"경기도 이천시 중리동 464-9번지","indutype":"약국 - 약국","category":"medical"}]},{"lat":"37.277943074","long":"127.44229822","imageIndex":8,"items":[{"name":"명선한의원","tel":"031-637-7915","addr":"경기도 이천시 중리동 188-11번지","indutype":"의원 - 한의원","category":"medical"}]},{"lat":"37.27493631","long":"127.44882022","imageIndex":8,"items":[{"name":"미소약국","tel":"031-633-8199","addr":"경기도 이천시 중리동 467-1번지","indutype":"약국 - 약국","category":"medical"}]},{"lat":"37.27882402","long":"127.44526881","imageIndex":8,"items":[{"name":"민내과의원","tel":"031-635-5714","addr":"경기도 이천시 중리동 212-2번지 이천시산림조합청사 3층","indutype":"의원 - 의원","category":"medical"},{"name":"산림약국","tel":"031-631-0332","addr":"경기도 이천시 중리동 212-2번지","indutype":"약국 - 약국","category":"medical"}]},{"lat":"37.273832752","long":"127.44996374","imageIndex":8,"items":[{"name":"백화점약국","tel":"031-631-1527","addr":"경기도 이천시 중리동 38-13번지","indutype":"약국 - 약국","category":"medical"}]},{"lat":"37.277636701","long":"127.44713357","imageIndex":8,"items":[{"name":"새모범약국","tel":"031-635-5755","addr":"경기도 이천시 중리동 219번지","indutype":"약국 - 약국","category":"medical"},{"name":"푸른치과의원","tel":"031-635-6349","addr":"경기도 이천시 중리동 219번지","indutype":"병원 - 치과병원","category":"medical"},{"name":"푸른치과의원","tel":"031-635-6349","addr":"경기도 이천시 중리동 219번지 종합버스터미널 203호","indutype":"의원 - 치과의원","category":"medical"}]},{"lat":"37.276468317","long":"127.44634872","imageIndex":8,"items":[{"name":"서울아산365소아청소년과의원","tel":"031-637-0365","addr":"경기도 이천시 중리동 228-1번지 1동 301호","indutype":"의원 - 의원","category":"medical"},{"name":"스타약국","tel":"031-634-6568","addr":"경기도 이천시 중리동 228-1번지 1동 102호","indutype":"약국 - 약국","category":"medical"},{"name":"참편안한신경외괴의원","tel":"031-631-8112","addr":"경기도 이천시 중리동 228-1번지 2층","indutype":"의원 - 의원","category":"medical"}]},{"lat":"37.276131819","long":"127.4471811","imageIndex":8,"items":[{"name":"양정분산부인과의원","tel":"031-631-9164","addr":"경기도 이천시 중리동 224-3번지","indutype":"의원 - 의원","category":"medical"}]},{"lat":"37.279630497","long":"127.44404448","imageIndex":8,"items":[{"name":"연세스위트치과(이천)","tel":"031-636-7522","addr":"경기도 이천시 중리동 201-1번지 랜드마크IOC (중리동)","indutype":"병원 - 치과병원","category":"medical"}]},{"lat":"37.277470538","long":"127.44579083","imageIndex":8,"items":[{"name":"원제한약방","tel":"031-635-3285","addr":"경기도 이천시 중리동 215-5번지","indutype":"약국 - 한약방","category":"medical"}]},{"lat":"37.277774394","long":"127.44404493","imageIndex":8,"items":[{"name":"이안숙의원","tel":"031-633-0067","addr":"경기도 이천시 중리동 209번지","indutype":"병원 - 병원","category":"medical"}]},{"lat":"37.278770836","long":"127.43773644","imageIndex":8,"items":[{"name":"이안의원","tel":"031-631-7901","addr":"경기도 이천시 중리동 3-9번지","indutype":"의원 - 의원","category":"medical"}]},{"lat":"37.277243389","long":"127.44629689","imageIndex":8,"items":[{"name":"이천정형외과의원","tel":"031-632-7525","addr":"경기도 이천시 중리동 217-6번지","indutype":"의원 - 의원","category":"medical"}]},{"lat":"37.274719305","long":"127.44902189","imageIndex":8,"items":[{"name":"이천파티마병원","tel":"031-635-2624","addr":"경기도 이천시 중리동 467-2번지","indutype":"병원 - 병원","category":"medical"},{"name":"이천파티마병원","tel":"031-635-2624","addr":"경기도 이천시 중리동 467-2번지","indutype":"병원 - 병원","category":"medical"}]},{"lat":"37.276303517","long":"127.44704681","imageIndex":8,"items":[{"name":"정다운약국","tel":"031-631-7585","addr":"경기도 이천시 중리동 224-7번지","indutype":"약국 - 약국","category":"medical"}]},{"lat":"37.277192501","long":"127.44785258","imageIndex":8,"items":[{"name":"중부동물병원","tel":"031-634-3030","addr":"경기도 이천시 중리동 462-2번지","indutype":"기타의료기관 - 동물병원","category":"medical"}]},{"lat":"37.274913224","long":"127.44777151","imageIndex":8,"items":[{"name":"천시욱정형외과","tel":"031-635-6267","addr":"경기도 이천시 중리동 466-2번지","indutype":"의원 - 의원","category":"medical"}]},{"lat":"37.275658641","long":"127.44601699","imageIndex":8,"items":[{"name":"태성동물병원","tel":"031-636-3166","addr":"경기도 이천시 중리동 460-10번지","indutype":"기타의료기관 - 동물병원","category":"medical"}]},{"lat":"37.274885686","long":"127.44790665","imageIndex":8,"items":[{"name":"푸른약국","tel":"031-636-6205","addr":"경기도 이천시 중리동 466-9번지","indutype":"약국 - 약국","category":"medical"}]},{"lat":"37.278045744","long":"127.44376462","imageIndex":8,"items":[{"name":"한별약국","tel":"031-631-1141","addr":"경기도 이천시 중리동 204-3번지","indutype":"약국 - 약국","category":"medical"}]},{"lat":"37.276133891","long":"127.44662863","imageIndex":8,"items":[{"name":"한중한의원","tel":"031-631-8688","addr":"경기도 이천시 중리동 245번지","indutype":"의원 - 한의원","category":"medical"}]},{"lat":"37.277017928","long":"127.44635194","imageIndex":8,"items":[{"name":"현대한의원","tel":"031-631-0280","addr":"경기도 이천시 중리동 271-2 동원빌딩 2층","indutype":"의원 - 한의원","category":"medical"}]}]