[{"lat":"37.264550656","long":"127.60133282","imageIndex":4,"items":[{"name":"대물림 남원추어탕","tel":"031-883-3959","addr":"경기도 여주시 연라동 390-3번지","indutype":"일반휴게음식 - 일반한식","category":"restaurant"}]},{"lat":"37.269107324","long":"127.60714117","imageIndex":4,"items":[{"name":"먹쇠","tel":"031-884-0895","addr":"경기도 여주시 연라동 286-2번지","indutype":"일반휴게음식 - 일반한식","category":"restaurant"},{"name":"삼원가든","tel":"031-884-9898","addr":"경기도 여주시 연라동 286-2번지","indutype":"일반휴게음식 - 일반한식","category":"restaurant"}]},{"lat":"37.262557153","long":"127.60177924","imageIndex":4,"items":[{"name":"명품짬뽕아울렛","tel":"031-883-8828","addr":"경기도 여주시 연라동 392-7번지 1층","indutype":"일반휴게음식 - 중국식","category":"restaurant"},{"name":"육개장인 남여주점","tel":"031-882-7755","addr":"경기도 여주시 연라동 392-7번지","indutype":"일반휴게음식 - 일반한식","category":"restaurant"},{"name":"인제 재래식 손두부","tel":"034-882-1425","addr":"경기도 여주시 연라동 392-7번지 1층","indutype":"일반휴게음식 - 일반한식","category":"restaurant"},{"name":"인제재래식손두부2호점","tel":"031-882-1425","addr":"경기도 여주시 연라동 392-7번지","indutype":"일반휴게음식 - 일반한식","category":"restaurant"}]},{"lat":"37.262306817","long":"127.60139397","imageIndex":4,"items":[{"name":"양평해장국","tel":"031-886-7762","addr":"경기도 여주시 연라동 392-8번지 3동 1층","indutype":"일반휴게음식 - 일반한식","category":"restaurant"}]},{"lat":"37.259780765","long":"127.6020278","imageIndex":4,"items":[{"name":"영재농원","tel":"031-884-7721","addr":"경기도 여주시 연라동 401-6번지","indutype":"일반휴게음식 - 일반한식","category":"restaurant"}]},{"lat":"37.253360302","long":"127.60836799","imageIndex":4,"items":[{"name":"웰빙 시골밥상","tel":"031-881-2319","addr":"경기도 여주시 연라동 634번지 1층","indutype":"일반휴게음식 - 일반한식","category":"restaurant"}]},{"lat":"37.272442346","long":"127.61041488","imageIndex":4,"items":[{"name":"이천거리","tel":"031-885-0002","addr":"경기도 여주시 연라동 152-4번지 1층","indutype":"일반휴게음식 - 일반한식","category":"restaurant"}]},{"lat":"37.274221318","long":"127.60963994","imageIndex":4,"items":[{"name":"장복골","tel":"070-4100-7895","addr":"경기도 여주시 연라동 174-1번지","indutype":"일반휴게음식 - 일반한식","category":"restaurant"}]},{"lat":"37.253639952","long":"127.6083026","imageIndex":4,"items":[{"name":"장수막국수","tel":"001-0000-0000","addr":"경기도 여주시 연라동 634-1번지","indutype":"일반휴게음식 - 일반한식","category":"restaurant"}]},{"lat":"37.264835892","long":"127.60194384","imageIndex":4,"items":[{"name":"포뜰오리","tel":"031-884-4636","addr":"경기도 여주시 연라동 390-1번지","indutype":"일반휴게음식 - 일반한식","category":"restaurant"}]}]