[{"lat":"37.3208171529","long":"126.9537605820","imageIndex":7,"items":[{"name":"농민의 장터","tel":"031-461-3005","addr":"경기도 의왕시 삼동 208-18번지 1층 102-104호","indutype":"유통업 영리 - 슈퍼마켓","category":"mart"}]},{"lat":"37.3223402989","long":"126.9547862640","imageIndex":7,"items":[{"name":"부곡할인마트","tel":"031-462-2211","addr":"경기도 의왕시 삼동 462-45번지 월드아파트","indutype":"유통업 영리 - 슈퍼마켓","category":"mart"}]},{"lat":"37.3150046692","long":"126.9516435313","imageIndex":7,"items":[{"name":"왕송마트","tel":"031-462-4851","addr":"경기도 의왕시 삼동 571번지 연산빌딩 1층 101호","indutype":"유통업 영리 - 슈퍼마켓","category":"mart"}]},{"lat":"37.3172034615","long":"126.9523414829","imageIndex":7,"items":[{"name":"우리홈마트","tel":"031-461-9008","addr":"경기도 의왕시 삼동 146-81번지 1층","indutype":"유통업 영리 - 슈퍼마켓","category":"mart"}]},{"lat":"37.3160951091","long":"126.9521166012","imageIndex":7,"items":[{"name":"우성편의마트","tel":"031-461-1335","addr":"경기도 의왕시 삼동 146-95 우성상가 6","indutype":"유통업 영리 - 슈퍼마켓","category":"mart"}]},{"lat":"37.3212311533","long":"126.9526433985","imageIndex":7,"items":[{"name":"진로마트","tel":"031-462-3637","addr":"경기도 의왕시 삼동 200-52번지 미우프라자 102호","indutype":"유통업 영리 - 슈퍼마켓","category":"mart"}]},{"lat":"37.3174819432","long":"126.9504234585","imageIndex":7,"items":[{"name":"참사랑마트","tel":"031-462-2106","addr":"경기도 의왕시 삼동 146-14번지 1층","indutype":"유통업 영리 - 슈퍼마켓","category":"mart"}]},{"lat":"37.3180067042","long":"126.9555674476","imageIndex":7,"items":[{"name":"청호가족마트","tel":"031-462-0280","addr":"경기도 의왕시 삼동 128-6번지","indutype":"유통업 영리 - 슈퍼마켓","category":"mart"}]},{"lat":"37.3213129098","long":"126.9542341021","imageIndex":7,"items":[{"name":"컬투패밀리의왕점","tel":"031-462-6338","addr":"경기도 의왕시 삼동 208-7번지","indutype":"유통업 영리 - 슈퍼마켓","category":"mart"}]},{"lat":"37.3186448427","long":"126.9517538759","imageIndex":7,"items":[{"name":"판다팜(부곡점)","tel":"031-462-3333","addr":"경기도 의왕시 삼동 166-32번지 아울렛 D.C마트","indutype":"유통업 영리 - 슈퍼마켓","category":"mart"}]},{"lat":"37.3175628493","long":"126.9500059901","imageIndex":7,"items":[{"name":"한국유통 의왕점","tel":"031-462-0111","addr":"경기도 의왕시 삼동 160-63번지 101호,102호","indutype":"유통업 영리 - 슈퍼마켓","category":"mart"}]},{"lat":"37.3205924202","long":"126.9550355789","imageIndex":7,"items":[{"name":"현대슈퍼","tel":"031-461-0079","addr":"경기도 의왕시 삼동 216번지 청담벨리체","indutype":"유통업 영리 - 슈퍼마켓","category":"mart"}]}]