[{"lat":"37.76534482","long":"126.82291964","imageIndex":17,"items":[{"name":"(주)스칸디나비안리빙코리아","tel":"031-576-0555","addr":"경기도 파주시 조리읍 오산리 390-1번지","indutype":"가구 - 일반가구","category":"other"}]},{"lat":"37.761420215","long":"126.82525558","imageIndex":17,"items":[{"name":"(주)아이지커뮤니케이션즈","tel":"031-946-2038","addr":"경기도 파주시 조리읍 오산리 364-12번지","indutype":"서적문구 - 출판 및 인쇄물","category":"other"}]},{"lat":"37.772175746","long":"126.8300877","imageIndex":17,"items":[{"name":"(주)영진환경건설","tel":"031-945-0170","addr":"경기도 파주시 조리읍 오산리 153-9번지","indutype":"용역 서비스 - 기타용역서비스","category":"other"}]},{"lat":"37.764704766","long":"126.82267151","imageIndex":17,"items":[{"name":"GS25파주로열로드점","tel":"","addr":"경기도 파주시 조리읍 오산리 377-23번지","indutype":"유통업 영리 - 편 의 점","category":"other"}]},{"lat":"37.767032094","long":"126.8245612","imageIndex":17,"items":[{"name":"공구백화점","tel":"","addr":"경기도 파주시 조리읍 오산리 317-7번지","indutype":"기타 - 기계공구","category":"other"}]},{"lat":"37.772950836","long":"126.82422918","imageIndex":17,"items":[{"name":"광명기획","tel":"031-111-1111","addr":"경기도 파주시 조리읍 오산리 83-10번지","indutype":"서적문구 - 출판 및 인쇄물","category":"other"}]},{"lat":"37.769781884","long":"126.82581442","imageIndex":17,"items":[{"name":"굿모닝유통","tel":"","addr":"경기도 파주시 조리읍 오산리 305-1번지","indutype":"사무통신 - 컴퓨터","category":"other"}]},{"lat":"37.773202025","long":"126.8295405","imageIndex":17,"items":[{"name":"김영곤 박스","tel":"031-1544-8067","addr":"경기도 파주시 조리읍 오산리 116번지","indutype":"유통업 영리 - 기타유통업","category":"other"}]},{"lat":"37.762115464","long":"126.82626394","imageIndex":17,"items":[{"name":"나노웰제약(주)","tel":"031-947-6368","addr":"경기도 파주시 조리읍 오산리 364-14번지","indutype":"신변잡화 - 기타잡화","category":"other"}]},{"lat":"37.774087507","long":"126.83758587","imageIndex":17,"items":[{"name":"네잎클로버","tel":"","addr":"경기도 파주시 조리읍 오산리 397-5번지","indutype":"서적문구 - 일반서적","category":"other"}]},{"lat":"37.772005546","long":"126.83075775","imageIndex":17,"items":[{"name":"농업회사법인 우리농자재(주)","tel":"031-8074-9001","addr":"경기도 파주시 조리읍 오산리 153-8번지","indutype":"농업 - 기타농업관련","category":"other"}]},{"lat":"37.768232867","long":"126.82622669","imageIndex":17,"items":[{"name":"대근닥트자재총판","tel":"031-944-4454","addr":"경기도 파주시 조리읍 오산리 312-5번지","indutype":"건축자재 - 기타건축자재","category":"other"}]},{"lat":"37.764452257","long":"126.82251324","imageIndex":17,"items":[{"name":"대륙기계정밀","tel":"031-947-3942","addr":"경기도 파주시 조리읍 오산리 377-11번지","indutype":"기타 - 기계공구","category":"other"}]},{"lat":"37.764894952","long":"126.82331794","imageIndex":17,"items":[{"name":"대원천막사","tel":"02-386-3916","addr":"경기도 파주시 조리읍 오산리 382-1번지","indutype":"직물 - 카페트,커튼,천막,지물","category":"other"},{"name":"주식회사 시즌","tel":"","addr":"경기도 파주시 조리읍 오산리 382-1번지","indutype":"건축자재 - 보일러·펌프·샷시","category":"other"},{"name":"타이거그래픽스","tel":"031-941-4844","addr":"경기도 파주시 조리읍 오산리 382-1번지","indutype":"용역 서비스 - 종합용역","category":"other"}]},{"lat":"37.771756885","long":"126.83962272","imageIndex":17,"items":[{"name":"도서출판지인","tel":"070-7435-0398","addr":"경기도 파주시 조리읍 오산리 398-11번지","indutype":"서적문구 - 출판 및 인쇄물","category":"other"},{"name":"에스프린텍","tel":"","addr":"경기도 파주시 조리읍 오산리 398-11번지","indutype":"서적문구 - 출판 및 인쇄물","category":"other"}]},{"lat":"37.774699601","long":"126.8248379","imageIndex":17,"items":[{"name":"디파인 주식회사","tel":"031-949-4704","addr":"경기도 파주시 조리읍 오산리 65-6번지","indutype":"건축자재 - 인테리어전문","category":"other"}]},{"lat":"37.773978703","long":"126.83080993","imageIndex":17,"items":[{"name":"로이용역","tel":"031-269-0964","addr":"경기도 파주시 조리읍 오산리 121-3번지","indutype":"회원제형태 - 기타4","category":"other"}]},{"lat":"37.768258189","long":"126.82509168","imageIndex":17,"items":[{"name":"모든주방","tel":"031-944-5977","addr":"경기도 파주시 조리읍 오산리 386-18번지","indutype":"전기제품 - 가전제품","category":"other"}]},{"lat":"37.776866951","long":"126.8282266","imageIndex":17,"items":[{"name":"블랑앤유","tel":"","addr":"경기도 파주시 조리읍 오산리 48-4번지","indutype":"가구 - 기타가구","category":"other"}]},{"lat":"37.77061944","long":"126.82559677","imageIndex":17,"items":[{"name":"선우도장","tel":"031-941-1666","addr":"경기도 파주시 조리읍 오산리 301-1번지","indutype":"건축자재 - 목재·석재·철물","category":"other"}]},{"lat":"37.770811722","long":"126.84022634","imageIndex":17,"items":[{"name":"세종텍","tel":"031-941-9839","addr":"경기도 파주시 조리읍 오산리 211-1번지","indutype":"서적문구 - 출판 및 인쇄물","category":"other"}]},{"lat":"37.774343631","long":"126.83395316","imageIndex":17,"items":[{"name":"수력발전소","tel":"031-947-4104","addr":"경기도 파주시 조리읍 오산리 140-29번지","indutype":"건축자재 - 보일러·펌프·샷시","category":"other"}]},{"lat":"37.778030749","long":"126.82929086","imageIndex":17,"items":[{"name":"신흥기계","tel":"031-947-9585","addr":"경기도 파주시 조리읍 오산리 48-16번지","indutype":"기타 - 기타 전문점","category":"other"}]},{"lat":"37.771310478","long":"126.84258604","imageIndex":17,"items":[{"name":"아름매트","tel":"03-111-1111","addr":"경기도 파주시 조리읍 오산리 205-9번지","indutype":"건축자재 - 기타건축자재","category":"other"}]},{"lat":"37.770585527","long":"126.83953449","imageIndex":17,"items":[{"name":"애드원(ADD1)","tel":"070-4651-4036","addr":"경기도 파주시 조리읍 오산리 400-8번지","indutype":"유통업 영리 - 기타유통업","category":"other"}]},{"lat":"37.764947396","long":"126.82226236","imageIndex":17,"items":[{"name":"에이스판넬","tel":"031-941-4355","addr":"경기도 파주시 조리읍 오산리 377-6번지","indutype":"건축자재 - 기타건축자재","category":"other"}]},{"lat":"37.773835725","long":"126.83161614","imageIndex":17,"items":[{"name":"영광공사","tel":"031-943-6691","addr":"경기도 파주시 조리읍 오산리 129-5번지","indutype":"건축자재 - 보일러·펌프·샷시","category":"other"}]},{"lat":"37.763645524","long":"126.82522756","imageIndex":17,"items":[{"name":"예림쇼파","tel":"031-943-2084","addr":"경기도 파주시 조리읍 오산리 369-4번지","indutype":"가구 - 일반가구","category":"other"}]},{"lat":"37.762447843","long":"126.82561628","imageIndex":17,"items":[{"name":"예영시스템","tel":"031-1599-1374","addr":"경기도 파주시 조리읍 오산리 364-6번지","indutype":"용역 서비스 - 종합용역","category":"other"}]},{"lat":"37.773474371","long":"126.8309473","imageIndex":17,"items":[{"name":"우원종합공구","tel":"031-942-0949","addr":"경기도 파주시 조리읍 오산리 127-14","indutype":"건축자재 - 목재·석재·철물","category":"other"}]},{"lat":"37.78031287","long":"126.83114714","imageIndex":17,"items":[{"name":"웰던(well done)","tel":"070-4070-1731","addr":"경기도 파주시 조리읍 오산리 30-1번지","indutype":"문화.취미 - 화원","category":"other"},{"name":"주식회사살롬","tel":"031-908-7290","addr":"경기도 파주시 조리읍 오산리 30-1번지","indutype":"용역 서비스 - 종합용역","category":"other"}]},{"lat":"37.774782806","long":"126.83236309","imageIndex":17,"items":[{"name":"은석매탈","tel":"031-947-3003","addr":"경기도 파주시 조리읍 오산리 135-1번지","indutype":"건축자재 - 기타건축자재","category":"other"}]},{"lat":"37.77684144","long":"126.83547984","imageIndex":17,"items":[{"name":"이마트24 영산수련원","tel":"031-934-7777","addr":"경기도 파주시 조리읍 오산리 38-1번지","indutype":"유통업 영리 - 편 의 점","category":"other"}]},{"lat":"37.762729009","long":"126.82686396","imageIndex":17,"items":[{"name":"이석구(오산리)","tel":"031-912-8480","addr":"경기도 파주시 조리읍 오산리 364-4","indutype":"용역 서비스 - 부동산 중개·임대","category":"other"}]},{"lat":"37.774979117","long":"126.82498479","imageIndex":17,"items":[{"name":"주식회사 대성기계필름","tel":"031-945-8183","addr":"경기도 파주시 조리읍 오산리 88-3번지","indutype":"기타 - 기계공구","category":"other"}]},{"lat":"37.77128588","long":"126.83150852","imageIndex":17,"items":[{"name":"케이티에스젠","tel":"031-947-7289","addr":"경기도 파주시 조리읍 오산리 260-10번지","indutype":"전기제품 - 기타전기제품","category":"other"}]},{"lat":"37.773981177","long":"126.83251248","imageIndex":17,"items":[{"name":"킹자원","tel":"031-949-8267","addr":"경기도 파주시 조리읍 오산리 133-1번지","indutype":"의류 - 기타의류","category":"other"}]},{"lat":"37.765093454","long":"126.8235104","imageIndex":17,"items":[{"name":"파주썬피싱","tel":"031-952-0945","addr":"경기도 파주시 조리읍 오산리 381-22번지","indutype":"레져용품 - 스포츠·레져용품","category":"other"}]},{"lat":"37.771561181","long":"126.82878388","imageIndex":17,"items":[{"name":"파주월드건축자재","tel":"031-949-8836","addr":"경기도 파주시 조리읍 오산리 292-1번지","indutype":"건축자재 - 기타건축자재","category":"other"}]},{"lat":"37.765676749","long":"126.82795784","imageIndex":17,"items":[{"name":"파주자연숲학교","tel":"031-947-7402","addr":"경기도 파주시 조리읍 오산리 341-3번지","indutype":"문화.취미 - 민예·공예품","category":"other"}]},{"lat":"37.767311937","long":"126.82492371","imageIndex":17,"items":[{"name":"파주툴링","tel":"031-946-0952","addr":"경기도 파주시 조리읍 오산리 317-1","indutype":"기타 - 기계공구","category":"other"}]},{"lat":"37.775314345","long":"126.82623255","imageIndex":17,"items":[{"name":"플러스페이퍼(주)","tel":"02-2274-8457","addr":"경기도 파주시 조리읍 오산리 92-5번지","indutype":"서적문구 - 문구용품","category":"other"}]},{"lat":"37.772398776","long":"126.82858896","imageIndex":17,"items":[{"name":"하이텍 보드","tel":"","addr":"경기도 파주시 조리읍 오산리 114-7번지","indutype":"건축자재 - 목재·석재·철물","category":"other"},{"name":"한결가구인테리어장식","tel":"031-949-8757","addr":"경기도 파주시 조리읍 오산리 114-7번지","indutype":"가구 - 기타가구","category":"other"}]},{"lat":"37.775337803","long":"126.82989873","imageIndex":17,"items":[{"name":"해피유통","tel":"","addr":"경기도 파주시 조리읍 오산리 119-1번지 에덴빌라트","indutype":"유통업 영리 - 기타유통업","category":"other"}]}]