[{"lat":"37.290543253","long":"127.01589606","imageIndex":0,"items":[{"name":"강화오토바이","tel":"031-257-9469","addr":"경기도 수원시 장안구 영화동 166-24번지","indutype":"자동차판매 - 이륜차판매","category":"car"}]},{"lat":"37.290011859","long":"127.01380967","imageIndex":0,"items":[{"name":"개원주차장","tel":"031-252-2226","addr":"경기도 수원시 장안구 영화동 283-1번지","indutype":"자동차정비 유지 - 주차장","category":"car"}]},{"lat":"37.294174521","long":"127.01458845","imageIndex":0,"items":[{"name":"경진자동차정비공업사","tel":"031-242-4244","addr":"경기도 수원시 장안구 영화동 76-1번지","indutype":"자동차정비 유지 - 자동차정비","category":"car"}]},{"lat":"37.290569979","long":"127.0184222","imageIndex":0,"items":[{"name":"구구상사","tel":"031-241-3242","addr":"경기도 수원시 장안구 영화동 124-45번지","indutype":"자동차정비 유지 - 카인테리어","category":"car"}]},{"lat":"37.2878496","long":"127.0113397","imageIndex":0,"items":[{"name":"다인모터스","tel":"031-122-2221","addr":"경기도 수원시 장안구 영화동 435-7번지","indutype":"자동차판매 - 이륜차판매","category":"car"}]},{"lat":"37.292678792","long":"127.01485888","imageIndex":0,"items":[{"name":"대경파츠","tel":"031-258-0085","addr":"경기도 수원시 장안구 영화동 228-1번지 1층","indutype":"자동차정비 유지 - 자동차부품","category":"car"},{"name":"주식회사 대경파츠","tel":"031-258-0085","addr":"경기도 수원시 장안구 영화동 228-1번지","indutype":"자동차정비 유지 - 자동차부품","category":"car"}]},{"lat":"37.292706202","long":"127.0102012","imageIndex":0,"items":[{"name":"대명오토바이","tel":"031-256-6413","addr":"경기도 수원시 장안구 영화동 448-1번지","indutype":"자동차판매 - 이륜차판매","category":"car"}]},{"lat":"37.291345455","long":"127.01291894","imageIndex":0,"items":[{"name":"동명주차장","tel":"031-244-9153","addr":"경기도 수원시 장안구 영화동 297-4.5에이동비동","indutype":"자동차정비 유지 - 주차장","category":"car"}]},{"lat":"37.294516617","long":"127.01725011","imageIndex":0,"items":[{"name":"드림세차서비스","tel":"031-258-0445","addr":"경기도 수원시 장안구 영화동 92-2번지","indutype":"자동차정비 유지 - 세차장","category":"car"},{"name":"케이디씨(KDC)수원장안경수대로점","tel":"031-241-6661","addr":"경기도 수원시 장안구 영화동 92-2번지 92-2,91-1,1층","indutype":"자동차정비 유지 - 자동차부품","category":"car"}]},{"lat":"37.292732529","long":"127.01772343","imageIndex":0,"items":[{"name":"랩스타","tel":"070-4212-4969","addr":"경기도 수원시 장안구 영화동 102-5번지 랩스타","indutype":"자동차정비 유지 - 자동차부품","category":"car"}]},{"lat":"37.291209498","long":"127.01994479","imageIndex":0,"items":[{"name":"럭키자동차공업사","tel":"031-243-5531","addr":"경기도 수원시 장안구 영화동 37-4번지","indutype":"자동차정비 유지 - 자동차정비","category":"car"}]},{"lat":"37.29390431","long":"127.01356212","imageIndex":0,"items":[{"name":"루마썬팅(장안점)","tel":"031-241-1682","addr":"경기도 수원시 장안구 영화동 245-6번지 1층","indutype":"자동차정비 유지 - 자동차부품","category":"car"}]},{"lat":"37.287038928","long":"127.00633269","imageIndex":0,"items":[{"name":"르노삼성자동차 지정정비코너 영화점","tel":"031-254-4062","addr":"경기도 수원시 장안구 영화동 425-13번지","indutype":"자동차정비 유지 - 자동차부품","category":"car"}]},{"lat":"37.294209564","long":"127.02220106","imageIndex":0,"items":[{"name":"마루출장세차","tel":"031-253-9073","addr":"경기도 수원시 장안구 영화동 31번지 삼원아파트","indutype":"자동차정비 유지 - 세차장","category":"car"}]},{"lat":"37.293679094","long":"127.01311098","imageIndex":0,"items":[{"name":"모토스페이스","tel":"031-248-7297","addr":"경기도 수원시 장안구 영화동 263-7번지","indutype":"자동차정비 유지 - 자동차정비","category":"car"}]},{"lat":"37.292237744","long":"127.00887039","imageIndex":0,"items":[{"name":"뮤토카스킨","tel":"031-8013-1066","addr":"경기도 수원시 장안구 영화동 449-27번지 정인빌딩 1층","indutype":"자동차정비 유지 - 자동차부품","category":"car"}]},{"lat":"37.291515862","long":"127.01983209","imageIndex":0,"items":[{"name":"밧데리총판","tel":"031-256-0888","addr":"경기도 수원시 장안구 영화동 115-11번지 1층","indutype":"자동차정비 유지 - 자동차부품","category":"car"}]},{"lat":"37.293237711","long":"127.01161097","imageIndex":0,"items":[{"name":"북문오토바이","tel":"031-254-0550","addr":"경기도 수원시 장안구 영화동 300-16번지","indutype":"자동차판매 - 이륜차판매","category":"car"}]},{"lat":"37.288543305","long":"127.01244493","imageIndex":0,"items":[{"name":"북문오토자동차정비공","tel":"031-244-0488","addr":"경기도 수원시 장안구 영화동 328-5번지","indutype":"자동차정비 유지 - 자동차정비","category":"car"}]},{"lat":"37.292679136","long":"127.0107538","imageIndex":0,"items":[{"name":"비츠로모터스 수원점","tel":"031-248-9421","addr":"경기도 수원시 장안구 영화동 447-3번지","indutype":"자동차정비 유지 - 자동차정비","category":"car"},{"name":"영화점기아오토큐","tel":"031-253-4044","addr":"경기도 수원시 장안구 영화동 447-3번지","indutype":"자동차정비 유지 - 자동차정비","category":"car"},{"name":"카앤피플 수원장안구점","tel":"031-257-0788","addr":"경기도 수원시 장안구 영화동 447-3번지 비츠로모터스내 세차장","indutype":"자동차정비 유지 - 세차장","category":"car"}]},{"lat":"37.288958093","long":"127.00695302","imageIndex":0,"items":[{"name":"삼성정비","tel":"031-246-5114","addr":"경기도 수원시 장안구 영화동 420-3번지 1층","indutype":"자동차정비 유지 - 자동차정비","category":"car"}]},{"lat":"37.289237291","long":"127.0095919","imageIndex":0,"items":[{"name":"삼성카","tel":"031-48-0944","addr":"경기도 수원시 장안구 영화동 431-23번지","indutype":"자동차정비 유지 - 카인테리어","category":"car"}]},{"lat":"37.286930803","long":"127.00638907","imageIndex":0,"items":[{"name":"삼영카센타","tel":"031-243-4528","addr":"경기도 수원시 장안구 영화동 425-7번지","indutype":"자동차정비 유지 - 자동차정비","category":"car"}]},{"lat":"37.286318118","long":"127.00594925","imageIndex":0,"items":[{"name":"세차작전","tel":"031-233-0041","addr":"경기도 수원시 장안구 영화동 446-3번지 1층","indutype":"자동차정비 유지 - 세차장","category":"car"}]},{"lat":"37.28801177","long":"127.01153143","imageIndex":0,"items":[{"name":"소망카센터","tel":"031-246-9333","addr":"경기도 수원시 장안구 영화동 435-6","indutype":"자동차정비 유지 - 자동차정비","category":"car"}]},{"lat":"37.288291389","long":"127.00478779","imageIndex":0,"items":[{"name":"수원판매서비스(금호타이어)","tel":"031-241-1541","addr":"경기도 수원시 장안구 영화동 422-1번지","indutype":"자동차정비 유지 - 자동차시트·타이어","category":"car"},{"name":"한국타이어수원대리점","tel":"031-255-3772","addr":"경기도 수원시 장안구 영화동 422-1번지","indutype":"자동차정비 유지 - 자동차시트·타이어","category":"car"}]},{"lat":"37.29211974","long":"127.01844508","imageIndex":0,"items":[{"name":"스피드메이트장안점","tel":"031-242-4560","addr":"경기도 수원시 장안구 영화동 106-7번지 SK장안주유소내","indutype":"자동차정비 유지 - 자동차정비","category":"car"}]},{"lat":"37.291984681","long":"127.01770073","imageIndex":0,"items":[{"name":"시티뷰자산관리","tel":"02-532-8066","addr":"경기도 수원시 장안구 영화동 104-25번지 지층","indutype":"자동차정비 유지 - 주차장","category":"car"}]},{"lat":"37.288705462","long":"127.01278327","imageIndex":0,"items":[{"name":"신경남세차장","tel":"031-255-6596","addr":"경기도 수원시 장안구 영화동 328-3번지","indutype":"자동차정비 유지 - 세차장","category":"car"}]},{"lat":"37.288318371","long":"127.00678383","imageIndex":0,"items":[{"name":"신대원카센타","tel":"031-253-6566","addr":"경기도 수원시 장안구 영화동 419-14번지","indutype":"자동차정비 유지 - 자동차정비","category":"car"}]},{"lat":"37.288570712","long":"127.00444949","imageIndex":0,"items":[{"name":"신용카크리닉","tel":"031-244-1795","addr":"경기도 수원시 장안구 영화동 403-17번지","indutype":"자동차정비 유지 - 자동차부품","category":"car"}]},{"lat":"37.291841349","long":"127.00764111","imageIndex":0,"items":[{"name":"쌍용종합정비공업사","tel":"031-241-4003","addr":"경기도 수원시 장안구 영화동 450-15번지","indutype":"자동차정비 유지 - 자동차정비","category":"car"},{"name":"일신카오디오","tel":"031-254-2882","addr":"경기도 수원시 장안구 영화동 450-15번지","indutype":"자동차정비 유지 - 자동차부품","category":"car"}]},{"lat":"37.290183411","long":"127.00878001","imageIndex":0,"items":[{"name":"아우토파츠코리아","tel":"031-307-5028","addr":"경기도 수원시 장안구 영화동 415-2번지 102호","indutype":"자동차정비 유지 - 자동차부품","category":"car"}]},{"lat":"37.292264557","long":"127.01223113","imageIndex":0,"items":[{"name":"아티산","tel":"031-241-1988","addr":"경기도 수원시 장안구 영화동 300-5번지 좌측","indutype":"자동차정비 유지 - 카인테리어","category":"car"}]},{"lat":"37.291291775","long":"127.00611861","imageIndex":0,"items":[{"name":"어거스트모터스","tel":"031-242-1510","addr":"경기도 수원시 장안구 영화동 389-12번지","indutype":"자동차정비 유지 - 자동차정비","category":"car"},{"name":"지엠(GM)","tel":"031-253-8228","addr":"경기도 수원시 장안구 영화동 389-12번지","indutype":"자동차정비 유지 - 세차장","category":"car"}]},{"lat":"37.291399854","long":"127.00744936","imageIndex":0,"items":[{"name":"영광카센타","tel":"031-257-1144","addr":"경기도 수원시 장안구 영화동 387-7번지","indutype":"자동차정비 유지 - 자동차정비","category":"car"}]},{"lat":"37.294210347","long":"127.01658465","imageIndex":0,"items":[{"name":"영화24시 셀프세차장","tel":"031-253-2997","addr":"경기도 수원시 장안구 영화동 93-6번지","indutype":"자동차정비 유지 - 세차장","category":"car"},{"name":"영화24시셀프세차장","tel":"031-253-2997","addr":"경기도 수원시 장안구 영화동 93-6번지","indutype":"자동차정비 유지 - 세차장","category":"car"},{"name":"영화카워시","tel":"031-000-0000","addr":"경기도 수원시 장안구 영화동 93-6번지 1층","indutype":"자동차정비 유지 - 카인테리어","category":"car"}]},{"lat":"37.289814132","long":"127.00175424","imageIndex":0,"items":[{"name":"영화밧데리","tel":"031-245-2428","addr":"경기도 수원시 장안구 영화동 397-2번지","indutype":"자동차정비 유지 - 자동차시트·타이어","category":"car"}]},{"lat":"37.294678915","long":"127.01628023","imageIndex":0,"items":[{"name":"영화상사","tel":"031-246-7868","addr":"경기도 수원시 장안구 영화동 87번지","indutype":"자동차정비 유지 - 자동차부품","category":"car"}]},{"lat":"37.293345807","long":"127.01197187","imageIndex":0,"items":[{"name":"오버홀자동차외형복원","tel":"031-242-9424","addr":"경기도 수원시 장안구 영화동 271-23번지 1층","indutype":"자동차정비 유지 - 카인테리어","category":"car"}]},{"lat":"37.288012013","long":"127.00703191","imageIndex":0,"items":[{"name":"우리카써비스","tel":"031-248-0303","addr":"경기도 수원시 장안구 영화동 426-5번지","indutype":"자동차정비 유지 - 자동차정비","category":"car"}]},{"lat":"37.286984881","long":"127.00578012","imageIndex":0,"items":[{"name":"유오토바이","tel":"031-348-9228","addr":"경기도 수원시 장안구 영화동 424-18번지","indutype":"자동차판매 - 이륜차판매","category":"car"}]},{"lat":"37.290039389","long":"127.00395332","imageIndex":0,"items":[{"name":"자동차병원","tel":"070-8170-5352","addr":"경기도 수원시 장안구 영화동 392-19번지","indutype":"자동차정비 유지 - 자동차정비","category":"car"}]},{"lat":"37.290877331","long":"127.00483297","imageIndex":0,"items":[{"name":"정자점현대자동차","tel":"031-244-0488","addr":"경기도 수원시 장안구 영화동 390-4번지 카메이크업","indutype":"자동차정비 유지 - 자동차정비","category":"car"}]},{"lat":"37.293787195","long":"127.0133591","imageIndex":0,"items":[{"name":"조원카정비센타","tel":"031-242-2827","addr":"경기도 수원시 장안구 영화동 263-5번지","indutype":"자동차정비 유지 - 자동차정비","category":"car"}]},{"lat":"37.294930228","long":"127.02313732","imageIndex":0,"items":[{"name":"중앙오토바이","tel":"031-251-4824","addr":"경기도 수원시 장안구 영화동 27-13번지","indutype":"자동차판매 - 이륜차판매","category":"car"}]},{"lat":"37.29465191","long":"127.01605466","imageIndex":0,"items":[{"name":"카모아","tel":"031-253-8677","addr":"경기도 수원시 장안구 영화동 86-1번지","indutype":"자동차정비 유지 - 자동차정비","category":"car"}]},{"lat":"37.288759921","long":"127.00486674","imageIndex":0,"items":[{"name":"카플레이","tel":"031-257-7094","addr":"경기도 수원시 장안구 영화동 404-9번지 1층","indutype":"자동차정비 유지 - 카인테리어","category":"car"}]},{"lat":"37.292290902","long":"127.01869322","imageIndex":0,"items":[{"name":"타이어마스타 북수원점","tel":"031-246-5757","addr":"경기도 수원시 장안구 영화동 106-3번지","indutype":"자동차정비 유지 - 자동차시트·타이어","category":"car"}]},{"lat":"37.289210305","long":"127.00875738","imageIndex":0,"items":[{"name":"편전사카센타","tel":"031-255-8620","addr":"경기도 수원시 장안구 영화동 416-6번지","indutype":"자동차정비 유지 - 자동차정비","category":"car"}]},{"lat":"37.292903686","long":"127.01802796","imageIndex":0,"items":[{"name":"한양카센타","tel":"031-241-2104","addr":"경기도 수원시 장안구 영화동 102-8번지","indutype":"자동차정비 유지 - 자동차정비","category":"car"}]},{"lat":"37.294957233","long":"127.02328394","imageIndex":0,"items":[{"name":"현대21","tel":"031-252-3533","addr":"경기도 수원시 장안구 영화동 27-6번지","indutype":"회원제형태 - 자동차서비스","category":"car"}]},{"lat":"37.292508004","long":"127.00975007","imageIndex":0,"items":[{"name":"혜선","tel":"031-241-5689","addr":"경기도 수원시 장안구 영화동 448-19번지","indutype":"자동차정비 유지 - 주차장","category":"car"}]},{"lat":"37.285930609","long":"127.00792265","imageIndex":0,"items":[{"name":"효원카센타","tel":"031-253-4570","addr":"경기도 수원시 장안구 영화동 443-5번지","indutype":"자동차정비 유지 - 카인테리어","category":"car"}]}]