[{"lat":"37.521430532","long":"127.1532867","imageIndex":7,"items":[{"name":"(유)오성건해","tel":"02-407-1312","addr":"경기도 하남시 감북동 267-1번지","indutype":"음료식품 - 농·축·수산품","category":"food"}]},{"lat":"37.516709561","long":"127.15311887","imageIndex":7,"items":[{"name":"(주)싱그린푸드빌","tel":"02-335-7091","addr":"경기도 하남시 감북동 386-1번지","indutype":"음료식품 - 기타음료식품","category":"food"}]},{"lat":"37.518214333","long":"127.15995406","imageIndex":7,"items":[{"name":"(주)와이앤케이","tel":"02-485-2043","addr":"경기도 하남시 감북동 354-22번지","indutype":"음료식품 - 기타음료식품","category":"food"}]},{"lat":"37.523294443","long":"127.16764576","imageIndex":7,"items":[{"name":"(주)제일푸드시스템","tel":"02-400-4789","addr":"경기도 하남시 감북동 6번지 나동","indutype":"음료식품 - 기타음료식품","category":"food"}]},{"lat":"37.517739232","long":"127.1581206","imageIndex":7,"items":[{"name":"(주)푸드웨이","tel":"070-7435-8883","addr":"경기도 하남시 감북동 362-15번지","indutype":"음료식품 - 기타음료식품","category":"food"},{"name":"명진미트","tel":"02-401-6469","addr":"경기도 하남시 감북동 362-15번지","indutype":"음료식품 - 정육점","category":"food"},{"name":"태백고냉지김치","tel":"031-485-0887","addr":"경기도 하남시 감북동 362-15번지","indutype":"음료식품 - 기타음료식품","category":"food"}]},{"lat":"37.521761302","long":"127.15531223","imageIndex":7,"items":[{"name":"DN축산유통","tel":"02-471-4063","addr":"경기도 하남시 감북동 273-5번지 1층 3호","indutype":"음료식품 - 정육점","category":"food"}]},{"lat":"37.525959898","long":"127.15532077","imageIndex":7,"items":[{"name":"TOSS.CO","tel":"02-470-9119","addr":"경기도 하남시 감북동 158번지","indutype":"음료식품 - 농·축·수산품","category":"food"}]},{"lat":"37.525207919","long":"127.15850939","imageIndex":7,"items":[{"name":"가을농부","tel":"02-913-8851","addr":"경기도 하남시 감북동 101-3번지","indutype":"음료식품 - 기타음료식품","category":"food"}]},{"lat":"37.517963095","long":"127.15220515","imageIndex":7,"items":[{"name":"경기쌀백화점","tel":"02-409-6168","addr":"경기도 하남시 감북동 240-1","indutype":"음료식품 - 미곡상","category":"food"}]},{"lat":"37.516300339","long":"127.16285704","imageIndex":7,"items":[{"name":"고은농산직영직판장","tel":"","addr":"경기도 하남시 감북동 493번지 삼현팰리체 103동 502호","indutype":"음료식품 - 농·축·수산품","category":"food"}]},{"lat":"37.519269043","long":"127.15953774","imageIndex":7,"items":[{"name":"그랑","tel":"","addr":"경기도 하남시 감북동 345-5번지","indutype":"음료식품 - 기타음료식품","category":"food"}]},{"lat":"37.516457693","long":"127.15973546","imageIndex":7,"items":[{"name":"그린웰","tel":"070-4161-9946","addr":"경기도 하남시 감북동 344-4번지 1층","indutype":"음료식품 - 농·축·수산품","category":"food"}]},{"lat":"37.515325602","long":"127.15028832","imageIndex":7,"items":[{"name":"대원슈퍼","tel":"031-485-5494","addr":"경기도 하남시 감북동 391-42번지","indutype":"음료식품 - 기타음료식품","category":"food"}]},{"lat":"37.524490354","long":"127.15604178","imageIndex":7,"items":[{"name":"롯데우유송파대리점","tel":"02-402-8400","addr":"경기도 하남시 감북동 141-1번지","indutype":"음료식품 - 기타음료식품","category":"food"}]},{"lat":"37.523434905","long":"127.15703511","imageIndex":7,"items":[{"name":"롯데칠성음료 신잠실점","tel":"070-8031-4038","addr":"경기도 하남시 감북동 115번지","indutype":"음료식품 - 기타음료식품","category":"food"}]},{"lat":"37.517825505","long":"127.16100521","imageIndex":7,"items":[{"name":"서풍(    )유통","tel":"02-441-3655","addr":"경기도 하남시 감북동 340-2번지","indutype":"음료식품 - 기타음료식품","category":"food"}]},{"lat":"37.520764801","long":"127.15945037","imageIndex":7,"items":[{"name":"설악산수","tel":"02-547-5242","addr":"경기도 하남시 감북동 286-6번지","indutype":"음료식품 - 기타음료식품","category":"food"}]},{"lat":"37.52009468","long":"127.15515047","imageIndex":7,"items":[{"name":"성기상사","tel":"02-497-5808","addr":"경기도 하남시 감북동 279-3번지","indutype":"음료식품 - 기타음료식품","category":"food"}]},{"lat":"37.515317452","long":"127.14959833","imageIndex":7,"items":[{"name":"소박사","tel":"02-473-8989","addr":"경기도 하남시 감북동 391-13번지","indutype":"음료식품 - 정육점","category":"food"}]},{"lat":"37.522461544","long":"127.15725935","imageIndex":7,"items":[{"name":"신영지엔에스 주식회사","tel":"02-401-6907","addr":"경기도 하남시 감북동 120-1번지","indutype":"음료식품 - 기타음료식품","category":"food"}]},{"lat":"37.524237461","long":"127.15651639","imageIndex":7,"items":[{"name":"유송상사","tel":"02-449-5585","addr":"경기도 하남시 감북동 137-1번지","indutype":"음료식품 - 기타음료식품","category":"food"}]},{"lat":"37.516281982","long":"127.16310585","imageIndex":7,"items":[{"name":"재율농수산","tel":"02-404-4860","addr":"경기도 하남시 감북동 493번지 삼현팰리체 102동 501호","indutype":"음료식품 - 농·축·수산품","category":"food"}]},{"lat":"37.520851484","long":"127.16200704","imageIndex":7,"items":[{"name":"제주삼다수 (잠실)","tel":"","addr":"경기도 하남시 감북동 301번지 가동","indutype":"음료식품 - 기타음료식품","category":"food"}]},{"lat":"37.515128144","long":"127.15675787","imageIndex":7,"items":[{"name":"주식회사 일양","tel":"02-512-5522","addr":"경기도 하남시 감북동 372-5번지","indutype":"음료식품 - 기타음료식품","category":"food"},{"name":"호영축산유통","tel":"02-488-9996","addr":"경기도 하남시 감북동 372-5번지 1층","indutype":"음료식품 - 정육점","category":"food"}]},{"lat":"37.521268671","long":"127.15303752","imageIndex":7,"items":[{"name":"주식회사 참살이에프앤비","tel":"02-471-0342","addr":"경기도 하남시 감북동 265-8번지 101호","indutype":"음료식품 - 기타음료식품","category":"food"}]},{"lat":"37.516852469","long":"127.16098053","imageIndex":7,"items":[{"name":"주식회사 참조은농산","tel":"031-000-0000","addr":"경기도 하남시 감북동 342-2번지","indutype":"음료식품 - 미곡상","category":"food"}]},{"lat":"37.523094835","long":"127.15525838","imageIndex":7,"items":[{"name":"진성푸드","tel":"02-485-4545","addr":"경기도 하남시 감북동 131번지","indutype":"음료식품 - 기타음료식품","category":"food"}]},{"lat":"37.515601725","long":"127.15975629","imageIndex":7,"items":[{"name":"진주커피&허브차","tel":"02-470-3116","addr":"경기도 하남시 감북동 370-1번지","indutype":"음료식품 - 기타음료식품","category":"food"}]},{"lat":"37.517043175","long":"127.14565404","imageIndex":7,"items":[{"name":"청수산","tel":"02-476-4194","addr":"경기도 하남시 감북동 447-7번지 1층","indutype":"음료식품 - 농·축·수산품","category":"food"}]},{"lat":"37.521073299","long":"127.15781078","imageIndex":7,"items":[{"name":"허니비","tel":"","addr":"경기도 하남시 감북동 285-1번지","indutype":"건강식품 - 기타건강식품","category":"food"}]},{"lat":"37.519763951","long":"127.15309106","imageIndex":7,"items":[{"name":"히트푸드시스템","tel":"02-430-9907","addr":"경기도 하남시 감북동 256-1번지 1층 좌측","indutype":"음료식품 - 정육점","category":"food"}]}]