[{"lat":"36.967603993","long":"127.05767105","imageIndex":17,"items":[{"name":"(주)엔터프라이즈","tel":"031-658-8897","addr":"경기도 평택시 팽성읍 근내리 256-13번지 2층 201호","indutype":"용역 서비스 - 부동산 중개·임대","category":"other"}]},{"lat":"36.971915528","long":"127.04711775","imageIndex":17,"items":[{"name":"el Marmol","tel":"070-998-9987","addr":"경기도 평택시 팽성읍 근내리 313-4번지 2층","indutype":"가구 - 기타가구","category":"other"}]},{"lat":"36.969857828","long":"127.05512348","imageIndex":17,"items":[{"name":"모던데코","tel":"02-6340-5385","addr":"경기도 평택시 팽성읍 근내리 280-3번지","indutype":"가구 - 일반가구","category":"other"},{"name":"연암조경개발","tel":"031-653-9216","addr":"경기도 평택시 팽성읍 근내리 280-3번지 5호","indutype":"용역 서비스 - 기타용역서비스","category":"other"}]},{"lat":"36.979331058","long":"127.0479307","imageIndex":17,"items":[{"name":"미소요양원","tel":"031-691-6222","addr":"경기도 평택시 팽성읍 근내리 148-1번지","indutype":"기타의료기관 - 기타의료기관 및 기타","category":"other"}]},{"lat":"36.973220515","long":"127.05115022","imageIndex":17,"items":[{"name":"믿음교육사","tel":"031-656-6678","addr":"경기도 평택시 팽성읍 근내리 산56번지","indutype":"회원제형태 - 서적","category":"other"}]},{"lat":"36.969271896","long":"127.05565088","imageIndex":17,"items":[{"name":"송원편의점","tel":"031-652-8877","addr":"경기도 평택시 팽성읍 근내리 289번지","indutype":"유통업 영리 - 편 의 점","category":"other"}]},{"lat":"36.977194185","long":"127.05130996","imageIndex":17,"items":[{"name":"유진건축","tel":"031-292-2988","addr":"경기도 평택시 팽성읍 근내리 38-1번지","indutype":"건축자재 - 기타건축자재","category":"other"}]},{"lat":"36.972777829","long":"127.05392383","imageIndex":17,"items":[{"name":"평광유통","tel":"031-691-7554","addr":"경기도 평택시 팽성읍 근내리 219-5번지 D동 3층","indutype":"신변잡화 - 기타잡화","category":"other"}]},{"lat":"36.974218731","long":"127.05578906","imageIndex":17,"items":[{"name":"푸치(The pooch)","tel":"031-000-0000","addr":"경기도 평택시 팽성읍 근내리 212번지 1층","indutype":"문화.취미 - 애완동물","category":"other"}]},{"lat":"36.970110384","long":"127.05453969","imageIndex":17,"items":[{"name":"해오름","tel":"031-691-0038","addr":"경기도 평택시 팽성읍 근내리 280-2번지","indutype":"신변잡화 - 기타잡화","category":"other"}]},{"lat":"36.978771376","long":"127.050536","imageIndex":17,"items":[{"name":"햇살농원","tel":"031-656-3804","addr":"경기도 평택시 팽성읍 근내리 58-7번지","indutype":"도소매업 - 농산물","category":"other"}]},{"lat":"36.967603993","long":"127.05767105","imageIndex":0,"items":[{"name":"(주)한성네트워크","tel":"031-772-1105","addr":"경기도 평택시 팽성읍 근내리 256-13번지 202호","indutype":"자동차정비 유지 - 자동차부품","category":"car"}]},{"lat":"36.966190111","long":"127.0558958","imageIndex":0,"items":[{"name":"강스오토서비스","tel":"031-691-2255","addr":"경기도 평택시 팽성읍 근내리 263-1","indutype":"자동차정비 유지 - 자동차정비","category":"car"}]},{"lat":"36.969028395","long":"127.05612236","imageIndex":0,"items":[{"name":"부마자동차공업사","tel":"031-651-2994","addr":"경기도 평택시 팽성읍 근내리 288-1번지","indutype":"자동차정비 유지 - 자동차정비","category":"car"}]},{"lat":"36.969162413","long":"127.05861547","imageIndex":0,"items":[{"name":"워시코어 디테일링센터","tel":"031-618-2855","addr":"경기도 평택시 팽성읍 근내리 250-1번지","indutype":"자동차정비 유지 - 세차장","category":"car"}]},{"lat":"36.96880193","long":"127.0587275","imageIndex":0,"items":[{"name":"제이더블유 셀프세차장","tel":"031-691-8905","addr":"경기도 평택시 팽성읍 근내리 250-4, 250-6","indutype":"자동차정비 유지 - 세차장","category":"car"}]},{"lat":"36.970110384","long":"127.05453969","imageIndex":0,"items":[{"name":"프리미엄광택","tel":"031-655-9698","addr":"경기도 평택시 팽성읍 근내리 280-2번지","indutype":"자동차정비 유지 - 카인테리어","category":"car"}]},{"lat":"36.967883144","long":"127.05806428","imageIndex":4,"items":[{"name":"까쟈브라질(CASA Brasil)","tel":"031-656-7136","addr":"경기도 평택시 팽성읍 근내리 257-1번지","indutype":"일반휴게음식 - 서양음식","category":"restaurant"}]},{"lat":"36.968360546","long":"127.05842398","imageIndex":4,"items":[{"name":"라이트","tel":"","addr":"경기도 평택시 팽성읍 근내리 258-24번지 1층","indutype":"일반휴게음식 - 서양음식","category":"restaurant"},{"name":"라이트","tel":"070-7715-3938","addr":"경기도 평택시 팽성읍 근내리 258-24번지 1층","indutype":"음식점 - 커피","category":"restaurant"}]},{"lat":"36.979916493","long":"127.04861615","imageIndex":4,"items":[{"name":"바람난오리","tel":"","addr":"경기도 평택시 팽성읍 근내리 147-6번지","indutype":"음식점 - 한식","category":"restaurant"},{"name":"바람난오리","tel":"031-691-6644","addr":"경기도 평택시 팽성읍 근내리 147-6번지","indutype":"일반휴게음식 - 일반한식","category":"restaurant"}]},{"lat":"36.979457411","long":"127.04739167","imageIndex":4,"items":[{"name":"슈거프리","tel":"031-000-0000","addr":"경기도 평택시 팽성읍 근내리 148-1번지 팜스빌리지 H동 4층","indutype":"일반휴게음식 - 위탁급식업","category":"restaurant"}]},{"lat":"36.968550209","long":"127.05748082","imageIndex":4,"items":[{"name":"오막골","tel":"031-691-3338","addr":"경기도 평택시 팽성읍 근내리 256-4번지 1동","indutype":"일반휴게음식 - 일반한식","category":"restaurant"},{"name":"오막골","tel":"","addr":"경기도 평택시 팽성읍 근내리 256-4번지 1동","indutype":"음식점 - 한식","category":"restaurant"}]},{"lat":"36.967603993","long":"127.05767105","imageIndex":4,"items":[{"name":"팬 돈까스","tel":"031-692-1111","addr":"경기도 평택시 팽성읍 근내리 256-13번지","indutype":"일반휴게음식 - 서양음식","category":"restaurant"}]},{"lat":"36.969271896","long":"127.05565088","imageIndex":13,"items":[{"name":"송원골프연습장","tel":"031-652-8877","addr":"경기도 평택시 팽성읍 근내리 289번지","indutype":"레저업소 - 골프연습장","category":"leisure"}]},{"lat":"36.978771376","long":"127.050536","imageIndex":7,"items":[{"name":"햇살농원","tel":"031-000-0000","addr":"경기도 평택시 팽성읍 근내리 58-7번지","indutype":"음료식품 - 농·축·수산품","category":"food"}]}]