[{"lat":"37.37195404","long":"127.3909934","imageIndex":17,"items":[{"name":"(주)온유","tel":"070-7661-1009","addr":"경기도 광주시 곤지암읍 연곡리 138번지","indutype":"가구 - 일반가구","category":"other"}]},{"lat":"37.36850944","long":"127.3890791","imageIndex":17,"items":[{"name":"SK건강","tel":"031-763-9171","addr":"경기도 광주시 곤지암읍 연곡리 172-1번지 1층","indutype":"신변잡화 - 기타잡화","category":"other"}]},{"lat":"37.36606395","long":"127.3846866","imageIndex":17,"items":[{"name":"곤지암스텐","tel":"031-764-2235","addr":"경기도 광주시 곤지암읍 연곡리 331-1번지","indutype":"건축자재 - 기타건축자재","category":"other"}]},{"lat":"37.37226248","long":"127.3903515","imageIndex":17,"items":[{"name":"몽파갤러리 도예공방","tel":"031-761-8014","addr":"경기도 광주시 곤지암읍 연곡리 116번지","indutype":"문화.취미 - 문화취미기타","category":"other"}]},{"lat":"37.36781409","long":"127.3977454","imageIndex":17,"items":[{"name":"미래근풍공구","tel":"031-762-0945","addr":"경기도 광주시 곤지암읍 연곡리 57-4번지","indutype":"기타 - 기계공구","category":"other"}]},{"lat":"37.36692423","long":"127.3861359","imageIndex":17,"items":[{"name":"삼진정공","tel":"031-766-8051","addr":"경기도 광주시 곤지암읍 연곡리 372번지","indutype":"기타 - 기계공구","category":"other"}]},{"lat":"37.36645517","long":"127.3863029","imageIndex":17,"items":[{"name":"우공산업","tel":"031-762-4260","addr":"경기도 광주시 곤지암읍 연곡리 335-3번지 1동","indutype":"건축자재 - 목재·석재·철물","category":"other"}]},{"lat":"37.36890298","long":"127.3954368","imageIndex":17,"items":[{"name":"원샷솔브코리아","tel":"031-764-7326","addr":"경기도 광주시 곤지암읍 연곡리 54-1","indutype":"신변잡화 - 기타잡화","category":"other"}]},{"lat":"37.36831532","long":"127.3905795","imageIndex":17,"items":[{"name":"원철산업","tel":"","addr":"경기도 광주시 곤지암읍 연곡리 204-3번지","indutype":"기타 - 기계공구","category":"other"}]},{"lat":"37.36581266","long":"127.3843805","imageIndex":17,"items":[{"name":"자원판넬","tel":"031-797-4778","addr":"경기도 광주시 곤지암읍 연곡리 331번지 외1필지","indutype":"건축자재 - 기타건축자재","category":"other"}]},{"lat":"37.36717636","long":"127.3861823","imageIndex":17,"items":[{"name":"지젤쥬얼리코리아","tel":"","addr":"경기도 광주시 곤지암읍 연곡리 372-4번지 1동","indutype":"문화.취미 - 애완동물","category":"other"}]},{"lat":"37.3662339","long":"127.3850713","imageIndex":17,"items":[{"name":"큐빅미터(cubic meter)","tel":"02-545-7776","addr":"경기도 광주시 곤지암읍 연곡리 331-8번지 외1필지","indutype":"가구 - 기타가구","category":"other"}]}]