[{"lat":"37.772925654","long":"127.16136524","imageIndex":5,"items":[{"name":"굿타임","tel":"031-543-9977","addr":"경기도 포천시 소흘읍 직동리 366-2번지","indutype":"숙박업 - 여관/기타숙박업","category":"hotel"}]},{"lat":"37.772790023","long":"127.16172816","imageIndex":5,"items":[{"name":"그랜드","tel":"031-543-4141","addr":"경기도 포천시 소흘읍 직동리 366-4번지","indutype":"숙박업 - 여관/기타숙박업","category":"hotel"}]},{"lat":"37.772067806","long":"127.16280488","imageIndex":5,"items":[{"name":"나무호텔","tel":"031-544-7707","addr":"경기도 포천시 소흘읍 직동리 355-4번지","indutype":"숙박업 - 여관/기타숙박업","category":"hotel"}]},{"lat":"37.77229188","long":"127.15691464","imageIndex":5,"items":[{"name":"드라이브인호텔띠아모","tel":"031-543-2956","addr":"경기도 포천시 소흘읍 직동리 382-1번지 가동","indutype":"숙박업 - 여관/기타숙박업","category":"hotel"},{"name":"드라이브인호텔띠아모주식회사","tel":"031-543-2956","addr":"경기도 포천시 소흘읍 직동리 382-1번지 가동","indutype":"숙박업 - 여관/기타숙박업","category":"hotel"},{"name":"띠아모무인호텔","tel":"031-543-2955","addr":"경기도 포천시 소흘읍 직동리 382-1번지 나동","indutype":"숙박업 - 여관/기타숙박업","category":"hotel"},{"name":"띠아모무인호텔","tel":"031-543-2955","addr":"경기도 포천시 소흘읍 직동리 382-1번지 나동","indutype":"숙박업 - 여관/기타숙박업","category":"hotel"}]},{"lat":"37.772042389","long":"127.16161306","imageIndex":5,"items":[{"name":"몽모텔","tel":"031-544-4231","addr":"경기도 포천시 소흘읍 직동리 357-5번지 외1필지","indutype":"숙박업 - 여관/기타숙박업","category":"hotel"}]},{"lat":"37.772480308","long":"127.16422453","imageIndex":5,"items":[{"name":"수목원파크","tel":"031-541-0934","addr":"경기도 포천시 소흘읍 직동리 350-2번지","indutype":"숙박업 - 여관/기타숙박업","category":"hotel"}]},{"lat":"37.767238169","long":"127.16969488","imageIndex":5,"items":[{"name":"연지관광농원","tel":"031-543-4989","addr":"경기도 포천시 소흘읍 직동리 77-3번지","indutype":"숙박업 - 여관/기타숙박업","category":"hotel"}]},{"lat":"37.772619438","long":"127.16128514","imageIndex":5,"items":[{"name":"유로","tel":"542-0909","addr":"경기도 포천시 소흘읍 직동리 364-3번지","indutype":"숙박업 - 여관","category":"hotel"},{"name":"유로","tel":"031-542-0909","addr":"경기도 포천시 소흘읍 직동리 364-3번지","indutype":"숙박업 - 여관/기타숙박업","category":"hotel"},{"name":"유로","tel":"031-542-0909","addr":"경기도 포천시 소흘읍 직동리 364-3번지","indutype":"숙박업 - 여관/기타숙박업","category":"hotel"}]},{"lat":"37.772183073","long":"127.16416714","imageIndex":5,"items":[{"name":"쟈스민","tel":"031-544-9151","addr":"경기도 포천시 소흘읍 직동리 354-4번지","indutype":"숙박업 - 여관/기타숙박업","category":"hotel"}]},{"lat":"37.772147066","long":"127.16414436","imageIndex":5,"items":[{"name":"쟈스민2","tel":"031-544-9151","addr":"경기도 포천시 소흘읍 직동리 354-6번지","indutype":"숙박업 - 여관/기타숙박업","category":"hotel"}]},{"lat":"37.770565246","long":"127.16130346","imageIndex":5,"items":[{"name":"힐하우스 호텔","tel":"031-541-6400","addr":"경기도 포천시 소흘읍 직동리 387-1번지 1층","indutype":"숙박업 - 여관/기타숙박업","category":"hotel"}]}]