[{"lat":"37.335666679","long":"126.8122143","imageIndex":7,"items":[{"name":"(주)삼보유통 선부점","tel":"031-487-9600","addr":"경기도 안산시 단원구 선부동 1076-5번지 훼미리프라자 1층 지하(전체)","indutype":"유통업 영리 - 슈퍼마켓","category":"mart"}]},{"lat":"37.339088275","long":"126.79482734","imageIndex":7,"items":[{"name":"24시마트","tel":"031-492-2242","addr":"경기도 안산시 단원구 선부동 980번지","indutype":"유통업 영리 - 슈퍼마켓","category":"mart"}]},{"lat":"37.3355026656","long":"126.8056022426","imageIndex":7,"items":[{"name":"9단리슈퍼","tel":"","addr":"경기도 안산시 단원구 선부동 967번지 주공9단지아파트","indutype":"도매 및 소매업 - 슈퍼","category":"mart"}]},{"lat":"37.335502666","long":"126.80560224","imageIndex":7,"items":[{"name":"9단지슈퍼","tel":"031-486-7508","addr":"경기도 안산시 단원구 선부동 967번지 연번지9단지 상가 101동 102호","indutype":"유통업 영리 - 슈퍼마켓","category":"mart"}]},{"lat":"37.3355051320","long":"126.8126096485","imageIndex":7,"items":[{"name":"DC백화점","tel":"031-485-8870","addr":"경기도 안산시 단원구 선부동 1076-6번지","indutype":"도매 및 소매업 - 슈퍼마켓","category":"mart"}]},{"lat":"37.335505132","long":"126.81260965","imageIndex":7,"items":[{"name":"DC백화점(대훈유통)","tel":"031-485-8870","addr":"경기도 안산시 단원구 선부동 1076-6번지 B1층B101~B103호","indutype":"유통업 영리 - 슈퍼마켓","category":"mart"}]},{"lat":"37.3454732591","long":"126.8144127620","imageIndex":7,"items":[{"name":"LG보라슈퍼","tel":"031-405-7233","addr":"경기도 안산시 단원구 선부동 1117-11번지","indutype":"도매 및 소매업 - 슈퍼마켓","category":"mart"}]},{"lat":"37.345473259","long":"126.81441276","imageIndex":7,"items":[{"name":"LG보라슈퍼","tel":"031-405-7233","addr":"경기도 안산시 단원구 선부동 1117-11번지 101호","indutype":"유통업 영리 - 슈퍼마켓","category":"mart"}]},{"lat":"37.339332885","long":"126.80079625","imageIndex":7,"items":[{"name":"거북이 슈퍼","tel":"031-493-1502","addr":"경기도 안산시 단원구 선부동 1001-12번지 104호","indutype":"유통업 영리 - 슈퍼마켓","category":"mart"}]},{"lat":"37.334782945","long":"126.80090999","imageIndex":7,"items":[{"name":"광신만물슈퍼","tel":"031-487-0308","addr":"경기도 안산시 단원구 선부동 965광신상가104","indutype":"유통업 영리 - 슈퍼마켓","category":"mart"}]},{"lat":"37.3417770275","long":"126.8075832792","imageIndex":7,"items":[{"name":"기사촌24슈퍼","tel":"","addr":"경기도 안산시 단원구 선부동 1033-10번지","indutype":"도매 및 소매업 - 슈퍼마켓","category":"mart"}]},{"lat":"37.341777028","long":"126.80758328","imageIndex":7,"items":[{"name":"기사촌슈퍼","tel":"031-403-4062","addr":"경기도 안산시 단원구 선부동 1033-10번지 천산교회 103호","indutype":"유통업 영리 - 슈퍼마켓","category":"mart"}]},{"lat":"37.332895603","long":"126.81474885","imageIndex":7,"items":[{"name":"녹색하이퍼","tel":"031-403-7745","addr":"경기도 안산시 단원구 선부동 1079번지 주공14단지 상가 101호","indutype":"유통업 영리 - 슈퍼마켓","category":"mart"},{"name":"동산슈퍼","tel":"031-405-0550","addr":"경기도 안산시 단원구 선부동 1079번지 주공13, 14단지아파트 상가 107호","indutype":"유통업 영리 - 슈퍼마켓","category":"mart"}]},{"lat":"37.3328956025","long":"126.8147488471","imageIndex":7,"items":[{"name":"녹색하이퍼","tel":"031-403-7745","addr":"경기도 안산시 단원구 선부동 1079번지 주공13, 14단지아파트","indutype":"도매 및 소매업 - 슈퍼","category":"mart"},{"name":"동산슈퍼","tel":"031-405-0550","addr":"경기도 안산시 단원구 선부동 1079번지 주공13, 14단지아파트","indutype":"도매 및 소매업 - 슈퍼","category":"mart"}]},{"lat":"37.345199611","long":"126.81232562","imageIndex":7,"items":[{"name":"농심가슈퍼화랑점","tel":"031-414-6332","addr":"경기도 안산시 단원구 선부동 1133-14번지","indutype":"유통업 영리 - 슈퍼마켓","category":"mart"},{"name":"럭키할인마트","tel":"031-414-6332","addr":"경기도 안산시 단원구 선부동 1133-14번지","indutype":"유통업 영리 - 슈퍼마켓","category":"mart"}]},{"lat":"37.340001514","long":"126.81280143","imageIndex":7,"items":[{"name":"뉴월드마트","tel":"031-485-9343","addr":"경기도 안산시 단원구 선부동 1085군자2차연도상가120","indutype":"유통업 영리 - 슈퍼마켓","category":"mart"}]},{"lat":"37.3417292072","long":"126.8170515260","imageIndex":7,"items":[{"name":"대성24슈퍼","tel":"","addr":"경기도 안산시 단원구 선부동 1087-29번지","indutype":"도매 및 소매업 - 슈퍼마켓","category":"mart"}]},{"lat":"37.341729207","long":"126.81705153","imageIndex":7,"items":[{"name":"대성24시","tel":"031-402-7790","addr":"경기도 안산시 단원구 선부동 1087-29번지 동진프라자 101호","indutype":"유통업 영리 - 슈퍼마켓","category":"mart"}]},{"lat":"37.333947189","long":"126.80758098","imageIndex":7,"items":[{"name":"대풍슈퍼","tel":"031-485-4422","addr":"경기도 안산시 단원구 선부동 1071-1번지 대아한도병원 지하2층 2호","indutype":"유통업 영리 - 슈퍼마켓","category":"mart"},{"name":"후레쉬마트","tel":"031-413-0510","addr":"경기도 안산시 단원구 선부동 1071-1번지 1층","indutype":"유통업 영리 - 슈퍼마켓","category":"mart"}]},{"lat":"37.34469329","long":"126.81688623","imageIndex":7,"items":[{"name":"더(THE)싼마트","tel":"","addr":"경기도 안산시 단원구 선부동 1095-1번지 1층 101호","indutype":"유통업 영리 - 슈퍼마켓","category":"mart"}]},{"lat":"37.3446932900","long":"126.8168862257","imageIndex":7,"items":[{"name":"더싼마트","tel":"02-250-2581","addr":"경기도 안산시 단원구 선부동 1095-1번지","indutype":"도매 및 소매업 - 슈퍼마켓","category":"mart"}]},{"lat":"37.3354511910","long":"126.8071595787","imageIndex":7,"items":[{"name":"동양슈퍼","tel":"031-414-5576","addr":"경기도 안산시 단원구 선부동 1070-11번지","indutype":"도매 및 소매업 - 슈퍼,담배","category":"mart"}]},{"lat":"37.335451191","long":"126.80715958","imageIndex":7,"items":[{"name":"동양슈퍼","tel":"031-414-5576","addr":"경기도 안산시 단원구 선부동 1070-11번지 동양빌딩 115호","indutype":"유통업 영리 - 슈퍼마켓","category":"mart"},{"name":"동양슈퍼","tel":"031-414-5576","addr":"경기도 안산시 단원구 선부동 1070-11번지 동양빌딩 115호","indutype":"유통업 영리 - 슈퍼마켓","category":"mart"}]},{"lat":"37.336196709","long":"126.81124252","imageIndex":7,"items":[{"name":"동원슈퍼","tel":"031-414-9976","addr":"경기도 안산시 단원구 선부동 1076-2번지 동원상가빌딩 113호","indutype":"유통업 영리 - 슈퍼마켓","category":"mart"}]},{"lat":"37.3361967087","long":"126.8112425181","imageIndex":7,"items":[{"name":"동원슈퍼","tel":"031-414-9976","addr":"경기도 안산시 단원구 선부동 1076-2번지","indutype":"도매 및 소매업 - 슈퍼","category":"mart"}]},{"lat":"37.347783584","long":"126.81676574","imageIndex":7,"items":[{"name":"땡큐마트","tel":"031-418-1411","addr":"경기도 안산시 단원구 선부동 1108-9번지 위즈덤하우스 102호","indutype":"유통업 영리 - 슈퍼마켓","category":"mart"}]},{"lat":"37.346308016","long":"126.80690569","imageIndex":7,"items":[{"name":"또와 마트","tel":"070-4789-2381","addr":"경기도 안산시 단원구 선부동 1056-13번지 101호","indutype":"유통업 영리 - 슈퍼마켓","category":"mart"}]},{"lat":"37.3463080161","long":"126.8069056888","imageIndex":7,"items":[{"name":"또와마트","tel":"","addr":"경기도 안산시 단원구 선부동 1056-13번지","indutype":"도매 및 소매업 - 슈퍼마켓","category":"mart"}]},{"lat":"37.3394498095","long":"126.7954695733","imageIndex":7,"items":[{"name":"러시아빵가게","tel":"031-503-8214","addr":"경기도 안산시 단원구 선부동 983-4번지","indutype":"도매 및 소매업 - 빵,슈퍼마켓","category":"mart"}]},{"lat":"37.339835341","long":"126.79438518","imageIndex":7,"items":[{"name":"럭키마트","tel":"031-492-8111","addr":"경기도 안산시 단원구 선부동 985-9번지","indutype":"유통업 영리 - 슈퍼마켓","category":"mart"}]},{"lat":"37.3398353405","long":"126.7943851797","imageIndex":7,"items":[{"name":"럭키마트","tel":"031-492-8111","addr":"경기도 안산시 단원구 선부동 985-9번지","indutype":"도매 및 소매업 - 슈퍼마켓","category":"mart"}]},{"lat":"37.3451996111","long":"126.8123256230","imageIndex":7,"items":[{"name":"럭키할인마트","tel":"","addr":"경기도 안산시 단원구 선부동 1133-14번지","indutype":"도매 및 소매업 - 슈퍼마켓,담배","category":"mart"}]},{"lat":"37.339387845","long":"126.79610168","imageIndex":7,"items":[{"name":"레표스카","tel":"031-829-5598","addr":"경기도 안산시 단원구 선부동 983-8번지 에이플러스 1층 103호","indutype":"유통업 영리 - 슈퍼마켓","category":"mart"}]},{"lat":"37.343255097","long":"126.80782773","imageIndex":7,"items":[{"name":"리빙할인마트","tel":"031-402-8686","addr":"경기도 안산시 단원구 선부동 1058-43번지 1층","indutype":"유통업 영리 - 슈퍼마켓","category":"mart"}]},{"lat":"37.3432550970","long":"126.8078277267","imageIndex":7,"items":[{"name":"리빙할인마트","tel":"031-402-8686","addr":"경기도 안산시 단원구 선부동 1058-43번지","indutype":"도매 및 소매업 - 슈퍼마켓,태양광발","category":"mart"},{"name":"리빙할인마트","tel":"031-402-8686","addr":"경기도 안산시 단원구 선부동 1058-43번지","indutype":"도매 및 소매업 - 슈퍼마켓,태양광발","category":"mart"}]},{"lat":"37.335868373","long":"126.81438034","imageIndex":7,"items":[{"name":"마포슈퍼","tel":"031-484-3897","addr":"경기도 안산시 단원구 선부동 1080-1번지 주공15단지 108동 109호","indutype":"유통업 영리 - 슈퍼마켓","category":"mart"}]},{"lat":"37.337418495","long":"126.80361118","imageIndex":7,"items":[{"name":"만나슈퍼","tel":"031-493-9572","addr":"경기도 안산시 단원구 선부동 969-1번지 관인호돌이태권도 103호","indutype":"유통업 영리 - 슈퍼마켓","category":"mart"}]},{"lat":"37.3374184949","long":"126.8036111841","imageIndex":7,"items":[{"name":"만나슈퍼","tel":"031-493-9572","addr":"경기도 안산시 단원구 선부동 969-1번지","indutype":"도매 및 소매업 - 슈퍼마켓,담배","category":"mart"}]},{"lat":"37.336056341","long":"126.80804946","imageIndex":7,"items":[{"name":"문정슈퍼","tel":"031-486-2490","addr":"경기도 안산시 단원구 선부동 1070-14번지 문정프라자 114호","indutype":"유통업 영리 - 슈퍼마켓","category":"mart"}]},{"lat":"37.333391555","long":"126.80397162","imageIndex":7,"items":[{"name":"보영슈퍼","tel":"031-480-9480","addr":"경기도 안산시 단원구 선부동 963-1보영상가105","indutype":"유통업 영리 - 슈퍼마켓","category":"mart"},{"name":"천하으뜸편의점","tel":"031-480-1206","addr":"경기도 안산시 단원구 선부동 963-1번지 동국연립 바동 109호","indutype":"유통업 영리 - 슈퍼마켓","category":"mart"},{"name":"홈마트","tel":"031-403-8598","addr":"경기도 안산시 단원구 선부동 963-1번지 동국연립 보영상가 바동 111호","indutype":"유통업 영리 - 슈퍼마켓","category":"mart"}]},{"lat":"37.347581861","long":"126.81455421","imageIndex":7,"items":[{"name":"빅마트","tel":"031-483-7105","addr":"경기도 안산시 단원구 선부동 1114-23번지","indutype":"유통업 영리 - 슈퍼마켓","category":"mart"}]},{"lat":"37.332199589","long":"126.81335142","imageIndex":7,"items":[{"name":"삼희슈퍼","tel":"","addr":"경기도 안산시 단원구 선부동 1078-2번지 삼희프라자 1동 103호","indutype":"유통업 영리 - 슈퍼마켓","category":"mart"}]},{"lat":"37.337644962","long":"126.80433279","imageIndex":7,"items":[{"name":"새담유통","tel":"031-411-4551","addr":"경기도 안산시 단원구 선부동 993-5번지 102호","indutype":"유통업 영리 - 슈퍼마켓","category":"mart"}]},{"lat":"37.345835786","long":"126.80468365","imageIndex":7,"items":[{"name":"서울유통","tel":"031-487-4959","addr":"경기도 안산시 단원구 선부동 1049-8번지","indutype":"유통업 영리 - 슈퍼마켓","category":"mart"}]},{"lat":"37.3458357864","long":"126.8046836484","imageIndex":7,"items":[{"name":"서울유통","tel":"031-487-4959","addr":"경기도 안산시 단원구 선부동 1049-8번지","indutype":"도매 및 소매업 - 슈퍼,담배","category":"mart"}]},{"lat":"37.3438916368","long":"126.8059075739","imageIndex":7,"items":[{"name":"석수할인마트","tel":"031-410-6461","addr":"경기도 안산시 단원구 선부동 1038번지","indutype":"도매 및 소매업 - 슈퍼마켓","category":"mart"}]},{"lat":"37.343891637","long":"126.80590757","imageIndex":7,"items":[{"name":"석수할인마트","tel":"031-410-6461","addr":"경기도 안산시 단원구 선부동 1038번지 1층","indutype":"유통업 영리 - 슈퍼마켓","category":"mart"}]},{"lat":"37.346447536","long":"126.81515518","imageIndex":7,"items":[{"name":"선부그린마트","tel":"031-413-5629","addr":"경기도 안산시 단원구 선부동 1116-1번지 1층","indutype":"유통업 영리 - 슈퍼마켓","category":"mart"}]},{"lat":"37.3464475363","long":"126.8151551842","imageIndex":7,"items":[{"name":"선부그린마트","tel":"031-413-5629","addr":"경기도 안산시 단원구 선부동 1116-1번지","indutype":"도매 및 소매업 - 슈퍼마켓","category":"mart"}]},{"lat":"37.341589228","long":"126.80844142","imageIndex":7,"items":[{"name":"선부미니슈퍼","tel":"031-402-3501","addr":"경기도 안산시 단원구 선부동 1061.102","indutype":"유통업 영리 - 슈퍼마켓","category":"mart"}]},{"lat":"37.335922746","long":"126.80899767","imageIndex":7,"items":[{"name":"성창매점","tel":"031-486-5716","addr":"경기도 안산시 단원구 선부동 1070-2번지 성창빌딩 115호","indutype":"유통업 영리 - 슈퍼마켓","category":"mart"}]},{"lat":"37.345195463","long":"126.80432419","imageIndex":7,"items":[{"name":"승진슈퍼","tel":"031-403-5769","addr":"경기도 안산시 단원구 선부동 1046-11번지","indutype":"유통업 영리 - 슈퍼마켓","category":"mart"}]},{"lat":"37.338812623","long":"126.80216308","imageIndex":7,"items":[{"name":"신길마트","tel":"031-410-9111","addr":"경기도 안산시 단원구 선부동 998-7번지","indutype":"유통업 영리 - 슈퍼마켓","category":"mart"}]},{"lat":"37.33947577","long":"126.79486013","imageIndex":7,"items":[{"name":"신선한마트","tel":"00-000-0000","addr":"경기도 안산시 단원구 선부동 983번지","indutype":"유통업 영리 - 슈퍼마켓","category":"mart"}]},{"lat":"37.343421279","long":"126.81588497","imageIndex":7,"items":[{"name":"싱싱할인마트","tel":"031-411-9915","addr":"경기도 안산시 단원구 선부동 1091-16번지 1층","indutype":"유통업 영리 - 슈퍼마켓","category":"mart"}]},{"lat":"37.3434212793","long":"126.8158849745","imageIndex":7,"items":[{"name":"싱싱할인마트","tel":"031-411-9915","addr":"경기도 안산시 단원구 선부동 1091-16번지","indutype":"도매 및 소매업 - 슈퍼","category":"mart"}]},{"lat":"37.3374448213","long":"126.8031935930","imageIndex":7,"items":[{"name":"안산농수산직판장","tel":"031-401-9493","addr":"경기도 안산시 단원구 선부동 974-10번지","indutype":"도매 및 소매업 - 슈퍼,담배","category":"mart"}]},{"lat":"37.333729227","long":"126.81204994","imageIndex":7,"items":[{"name":"엘크편의점","tel":"031-487-8387","addr":"경기도 안산시 단원구 선부동 1077번지 서울프라자 501호","indutype":"유통업 영리 - 슈퍼마켓","category":"mart"},{"name":"여명슈퍼","tel":"031-482-5800","addr":"경기도 안산시 단원구 선부동 1077번지 서울프라자 107호","indutype":"유통업 영리 - 슈퍼마켓","category":"mart"}]},{"lat":"37.3474485000","long":"126.8156831279","imageIndex":7,"items":[{"name":"열린슈퍼마켓","tel":"031-411-4239","addr":"경기도 안산시 단원구 선부동 1108-20번지","indutype":"도매 및 소매업 - 슈퍼마켓","category":"mart"}]},{"lat":"37.3474485","long":"126.81568313","imageIndex":7,"items":[{"name":"열린슈퍼마켓","tel":"031-411-4239","addr":"경기도 안산시 단원구 선부동 1108-20번지 1층","indutype":"유통업 영리 - 슈퍼마켓","category":"mart"}]},{"lat":"37.339840298","long":"126.80785913","imageIndex":7,"items":[{"name":"원일슈퍼","tel":"031-435-6955","addr":"경기도 안산시 단원구 선부동 1060-5번지 101호","indutype":"유통업 영리 - 슈퍼마켓","category":"mart"}]},{"lat":"37.3398402976","long":"126.8078591275","imageIndex":7,"items":[{"name":"원일슈퍼","tel":"031-487-8468","addr":"경기도 안산시 단원구 선부동 1060-5번지","indutype":"도매 및 소매업 - 슈퍼마켓","category":"mart"}]},{"lat":"37.34158751","long":"126.80202027","imageIndex":7,"items":[{"name":"월빙마트","tel":"031-485-3936","addr":"경기도 안산시 단원구 선부동 1009번지 104호","indutype":"유통업 영리 - 슈퍼마켓","category":"mart"}]},{"lat":"37.341862599","long":"126.81593398","imageIndex":7,"items":[{"name":"유송슈퍼마켓","tel":"031-401-3134","addr":"경기도 안산시 단원구 선부동 1087-23번지 유송프라자 102호","indutype":"유통업 영리 - 슈퍼마켓","category":"mart"}]},{"lat":"37.342117113","long":"126.80619434","imageIndex":7,"items":[{"name":"임강중국슈퍼","tel":"031-410-8940","addr":"경기도 안산시 단원구 선부동 1037-12번지 1층","indutype":"유통업 영리 - 슈퍼마켓","category":"mart"}]},{"lat":"37.346278911","long":"126.8111379","imageIndex":7,"items":[{"name":"제일농심가","tel":"031-402-1594","addr":"경기도 안산시 단원구 선부동 1130-11번지","indutype":"유통업 영리 - 슈퍼마켓","category":"mart"}]},{"lat":"37.3462789107","long":"126.8111378982","imageIndex":7,"items":[{"name":"제일농심가 슈퍼","tel":"031-402-1594","addr":"경기도 안산시 단원구 선부동 1130-11번지","indutype":"도매 및 소매업 - 슈퍼","category":"mart"}]},{"lat":"37.337805956","long":"126.80904925","imageIndex":7,"items":[{"name":"주공하이마트","tel":"031-487-0101","addr":"경기도 안산시 단원구 선부동 1083번지 주공10단지아파트 상가 101호","indutype":"유통업 영리 - 슈퍼마켓","category":"mart"}]},{"lat":"37.336614393","long":"126.81323877","imageIndex":7,"items":[{"name":"주식회사 큐엔씨유통","tel":"031-405-1425","addr":"경기도 안산시 단원구 선부동 1081번지 산호 상가 137,138호","indutype":"유통업 영리 - 슈퍼마켓","category":"mart"}]},{"lat":"37.336475126","long":"126.81068888","imageIndex":7,"items":[{"name":"주식회사동서로","tel":"031-483-1580","addr":"경기도 안산시 단원구 선부동 1076-1번지","indutype":"유통업 영리 - 슈퍼마켓","category":"mart"}]},{"lat":"37.332143442","long":"126.81205395","imageIndex":7,"items":[{"name":"중앙마트","tel":"031-401-9794","addr":"경기도 안산시 단원구 선부동 1078-1번지 상가다-101호","indutype":"유통업 영리 - 슈퍼마켓","category":"mart"}]},{"lat":"37.3321434423","long":"126.8120539482","imageIndex":7,"items":[{"name":"중앙마트","tel":"031-401-9794","addr":"경기도 안산시 단원구 선부동 1078-1번지","indutype":"도매 및 소매업 - 슈퍼마켓,담배","category":"mart"}]},{"lat":"37.341084358","long":"126.80285669","imageIndex":7,"items":[{"name":"진마트","tel":"031-405-5528","addr":"경기도 안산시 단원구 선부동 1008번지 101호","indutype":"유통업 영리 - 슈퍼마켓","category":"mart"}]},{"lat":"37.3410843585","long":"126.8028566948","imageIndex":7,"items":[{"name":"진마트","tel":"031-405-5528","addr":"경기도 안산시 단원구 선부동 1008번지","indutype":"도매 및 소매업 - 슈퍼마켓,담배","category":"mart"}]},{"lat":"37.340696352","long":"126.80791334","imageIndex":7,"items":[{"name":"참누리마트","tel":"031-487-5773","addr":"경기도 안산시 단원구 선부동 1059-8번지 1층","indutype":"유통업 영리 - 슈퍼마켓","category":"mart"}]},{"lat":"37.3406963525","long":"126.8079133383","imageIndex":7,"items":[{"name":"참누리마트","tel":"031-487-5773","addr":"경기도 안산시 단원구 선부동 1059-8번지","indutype":"도매 및 소매업 - 마트","category":"mart"}]},{"lat":"37.338812048","long":"126.80182454","imageIndex":7,"items":[{"name":"천둥마트","tel":"","addr":"경기도 안산시 단원구 선부동 998-10번지 1층","indutype":"유통업 영리 - 슈퍼마켓","category":"mart"}]},{"lat":"37.3388120479","long":"126.8018245403","imageIndex":7,"items":[{"name":"천둥마트","tel":"070-7781-2344","addr":"경기도 안산시 단원구 선부동 998-10번지","indutype":"도매 및 소매업 - 슈퍼","category":"mart"}]},{"lat":"37.3333915553","long":"126.8039716179","imageIndex":7,"items":[{"name":"천하으뜸편의점","tel":"031-480-1206","addr":"경기도 안산시 단원구 선부동 963-1번지 동국빌라","indutype":"도매 및 소매업 - 복권,슈퍼,담배","category":"mart"},{"name":"홈마트","tel":"031-403-8598","addr":"경기도 안산시 단원구 선부동 963-1번지 동국빌라","indutype":"도매 및 소매업 - 슈퍼","category":"mart"}]},{"lat":"37.329062991","long":"126.81269359","imageIndex":7,"items":[{"name":"초지슈퍼","tel":"031-401-5478","addr":"경기도 안산시 단원구 선부동 1078-4번지 제상가 가동 109호","indutype":"유통업 영리 - 슈퍼마켓","category":"mart"}]},{"lat":"37.339388298","long":"126.79636123","imageIndex":7,"items":[{"name":"코끼리마트","tel":"031-495-6549","addr":"경기도 안산시 단원구 선부동 982번지 1층","indutype":"유통업 영리 - 슈퍼마켓","category":"mart"}]},{"lat":"37.3393882982","long":"126.7963612303","imageIndex":7,"items":[{"name":"코끼리마트","tel":"031-496-6549","addr":"경기도 안산시 단원구 선부동 982번지","indutype":"도매 및 소매업 - 슈퍼","category":"mart"}]},{"lat":"37.342283923","long":"126.80357576","imageIndex":7,"items":[{"name":"큐엔씨(주)","tel":"031-402-0088","addr":"경기도 안산시 단원구 선부동 1028번지 안산제일종합시장내1층","indutype":"유통업 영리 - 슈퍼마켓","category":"mart"}]},{"lat":"37.346333021","long":"126.80568677","imageIndex":7,"items":[{"name":"태양마트","tel":"031-487-6715","addr":"경기도 안산시 단원구 선부동 1050-14번지","indutype":"유통업 영리 - 슈퍼마켓","category":"mart"}]},{"lat":"37.3463330211","long":"126.8056867685","imageIndex":7,"items":[{"name":"태양마트","tel":"031-487-6715","addr":"경기도 안산시 단원구 선부동 1050-14번지","indutype":"도매 및 소매업 - 슈퍼마켓","category":"mart"}]},{"lat":"37.342810009","long":"126.80566213","imageIndex":7,"items":[{"name":"플러스마트","tel":"031-483-9533","addr":"경기도 안산시 단원구 선부동 1031번지 1층","indutype":"유통업 영리 - 슈퍼마켓","category":"mart"}]},{"lat":"37.3428100089","long":"126.8056621252","imageIndex":7,"items":[{"name":"플러스마트","tel":"031-483-9533","addr":"경기도 안산시 단원구 선부동 1031번지","indutype":"도매 및 소매업 - 슈퍼마켓,담배","category":"mart"},{"name":"플러스마트","tel":"031-483-9533","addr":"경기도 안산시 단원구 선부동 1031번지","indutype":"도매 및 소매업 - 슈퍼마켓","category":"mart"}]},{"lat":"37.348830829","long":"126.80688785","imageIndex":7,"items":[{"name":"플러스마트","tel":"031-414-7776","addr":"경기도 안산시 단원구 선부동 산73-1번지 일원메트로타운힐스테이트상가 1동 108호","indutype":"유통업 영리 - 슈퍼마켓","category":"mart"}]},{"lat":"37.3403884984","long":"126.8070000646","imageIndex":7,"items":[{"name":"하나슈퍼","tel":"031-487-4014","addr":"경기도 안산시 단원구 선부동 1066-5번지 하나빌라","indutype":"도매 및 소매업 - 슈퍼","category":"mart"}]},{"lat":"37.339475174","long":"126.79452159","imageIndex":7,"items":[{"name":"한국유통","tel":"031-000-0000","addr":"경기도 안산시 단원구 선부동 984-11번지 1층","indutype":"유통업 영리 - 슈퍼마켓","category":"mart"}]},{"lat":"37.3437539038","long":"126.8154101665","imageIndex":7,"items":[{"name":"한국유통","tel":"031-402-7977","addr":"경기도 안산시 단원구 선부동 1091-2번지","indutype":"도매 및 소매업 - 슈퍼마켓","category":"mart"}]},{"lat":"37.343753904","long":"126.81541017","imageIndex":7,"items":[{"name":"한국유통","tel":"031-402-7977","addr":"경기도 안산시 단원구 선부동 1091-2번지","indutype":"유통업 영리 - 슈퍼마켓","category":"mart"}]},{"lat":"37.3290629910","long":"126.8126935936","imageIndex":7,"items":[{"name":"한국유통(화랑점)","tel":"031-402-6816","addr":"경기도 안산시 단원구 선부동 1078-4번지","indutype":"도매 및 소매업 - 슈퍼마켓","category":"mart"}]},{"lat":"37.343082898","long":"126.80721877","imageIndex":7,"items":[{"name":"한아름마트","tel":"031-411-3726","addr":"경기도 안산시 단원구 선부동 1034-17번지 1층","indutype":"유통업 영리 - 슈퍼마켓","category":"mart"}]},{"lat":"37.3451702938","long":"126.8165464834","imageIndex":7,"items":[{"name":"한아름알뜰매장","tel":"031-482-9522","addr":"경기도 안산시 단원구 선부동 1097-11번지","indutype":"도매 및 소매업 - 슈퍼마켓","category":"mart"}]},{"lat":"37.345170294","long":"126.81654648","imageIndex":7,"items":[{"name":"한아름알뜰매장","tel":"031-482-9522","addr":"경기도 안산시 단원구 선부동 1097-11번지","indutype":"유통업 영리 - 슈퍼마켓","category":"mart"}]},{"lat":"37.33906235","long":"126.80066156","imageIndex":7,"items":[{"name":"할아버지미니슈퍼","tel":"031-402-5719","addr":"경기도 안산시 단원구 선부동 977번지","indutype":"유통업 영리 - 슈퍼마켓","category":"mart"}]},{"lat":"37.336114262","long":"126.8104077","imageIndex":7,"items":[{"name":"해와별24시","tel":"031-410-9340","addr":"경기도 안산시 단원구 선부동 1076-17번지 신안골드리치빌딩 113호","indutype":"유통업 영리 - 슈퍼마켓","category":"mart"}]},{"lat":"37.3442544005","long":"126.8073285851","imageIndex":7,"items":[{"name":"햇빛촌홈마트","tel":"031-401-6322","addr":"경기도 안산시 단원구 선부동 1058-17번지","indutype":"도매 및 소매업 - 슈퍼마켓,담배","category":"mart"}]},{"lat":"37.337255323","long":"126.80302483","imageIndex":7,"items":[{"name":"현대마트","tel":"031-483-7173","addr":"경기도 안산시 단원구 선부동 973-9번지 1층","indutype":"유통업 영리 - 슈퍼마켓","category":"mart"},{"name":"현대하이퍼마켓","tel":"031-401-9493","addr":"경기도 안산시 단원구 선부동 973-9번지","indutype":"유통업 영리 - 슈퍼마켓","category":"mart"}]},{"lat":"37.339391491","long":"126.79305482","imageIndex":7,"items":[{"name":"형제수퍼","tel":"031-491-4587","addr":"경기도 안산시 단원구 선부동 984-22번지","indutype":"유통업 영리 - 슈퍼마켓","category":"mart"}]},{"lat":"37.339252699","long":"126.80132684","imageIndex":7,"items":[{"name":"형제슈퍼","tel":"031-411-6744","addr":"경기도 안산시 단원구 선부동 998번지 1층","indutype":"유통업 영리 - 슈퍼마켓","category":"mart"}]},{"lat":"37.344998827","long":"126.80527269","imageIndex":7,"items":[{"name":"홈마트","tel":"031-482-7597","addr":"경기도 안산시 단원구 선부동 1043-16번지 전체 1층","indutype":"유통업 영리 - 슈퍼마켓","category":"mart"}]},{"lat":"37.3442544","long":"126.80732859","imageIndex":7,"items":[{"name":"홈마트","tel":"031-401-6322","addr":"경기도 안산시 단원구 선부동 1058-17번지","indutype":"유통업 영리 - 슈퍼마켓","category":"mart"}]},{"lat":"37.3449988273","long":"126.8052726940","imageIndex":7,"items":[{"name":"홈마트","tel":"031-482-7597","addr":"경기도 안산시 단원구 선부동 1043-16번지","indutype":"도매 및 소매업 - 슈퍼마켓,담배","category":"mart"}]},{"lat":"37.3463597186","long":"126.8165999728","imageIndex":7,"items":[{"name":"화정그린마트","tel":"","addr":"경기도 안산시 단원구 선부동 1102-5번지","indutype":"도매 및 소매업 - 슈퍼마켓","category":"mart"}]},{"lat":"37.346359719","long":"126.81659997","imageIndex":7,"items":[{"name":"화정그린마트","tel":"031-487-1658","addr":"경기도 안산시 단원구 선부동 1102-5번지 1층 1호 상가","indutype":"유통업 영리 - 슈퍼마켓","category":"mart"}]},{"lat":"37.344193801","long":"126.79299631","imageIndex":7,"items":[{"name":"황해","tel":"031-498-9303","addr":"경기도 안산시 단원구 선부동 산47번지","indutype":"유통업 영리 - 슈퍼마켓","category":"mart"}]},{"lat":"37.338392968","long":"126.79912866","imageIndex":7,"items":[{"name":"효성슈퍼","tel":"031-414-2204","addr":"경기도 안산시 단원구 선부동 978-1번지 효성 상가 101호","indutype":"유통업 영리 - 슈퍼마켓","category":"mart"}]}]