[{"lat":"37.905351451","long":"127.05370825","imageIndex":17,"items":[{"name":"(주)가나 참맛우리집","tel":"031-867-6000","addr":"경기도 동두천시 생연동 593-4번지","indutype":"전기제품 - 가전제품","category":"other"},{"name":"가나가전","tel":"031-867-6000","addr":"경기도 동두천시 생연동 593-4번지","indutype":"전기제품 - 가전제품","category":"other"}]},{"lat":"37.902546987","long":"127.0593459","imageIndex":17,"items":[{"name":"(주)세진렌트카","tel":"02-1577-1886","addr":"경기도 동두천시 생연동 427-18번지","indutype":"여행 - 렌터카","category":"other"},{"name":"미디어21","tel":"031-865-2500","addr":"경기도 동두천시 생연동 427-18번지 1층 301호","indutype":"서적문구 - 출판 및 인쇄물","category":"other"},{"name":"태성앤신신건축사사무소","tel":"031-865-2780","addr":"경기도 동두천시 생연동 427-18번지 2층","indutype":"용역 서비스 - 사무서비스","category":"other"}]},{"lat":"37.903414475","long":"127.05365006","imageIndex":17,"items":[{"name":"(주)은혜전기","tel":"031-866-0574","addr":"경기도 동두천시 생연동 669-3번지","indutype":"기타 - 기타 전문점","category":"other"},{"name":"빈센트그레이","tel":"031-928-5699","addr":"경기도 동두천시 생연동 669-3번지","indutype":"의류 - 정장","category":"other"}]},{"lat":"37.902081452","long":"127.05281914","imageIndex":17,"items":[{"name":"(주)이담여행사","tel":"031-862-7222","addr":"경기도 동두천시 생연동 689-5번지","indutype":"여행 - 관광여행","category":"other"},{"name":"잉어","tel":"031-868-7673","addr":"경기도 동두천시 생연동 689-5번지","indutype":"의류 - 정장","category":"other"}]},{"lat":"37.903519992","long":"127.05934664","imageIndex":17,"items":[{"name":"(주)이지테크","tel":"031-867-0123","addr":"경기도 동두천시 생연동 440-2번지","indutype":"사무통신 - 통신기기","category":"other"},{"name":"진측량설계공사","tel":"031-858-2838","addr":"경기도 동두천시 생연동 440-2번지","indutype":"용역 서비스 - 사무서비스","category":"other"}]},{"lat":"37.908855527","long":"127.05495011","imageIndex":17,"items":[{"name":"1000원DC백화점","tel":"031-822-9966","addr":"경기도 동두천시 생연동 611-99번지","indutype":"신변잡화 - 기타잡화","category":"other"}]},{"lat":"37.906690716","long":"127.06048614","imageIndex":17,"items":[{"name":"5차원전면교육연구원(주)","tel":"031-865-2841","addr":"경기도 동두천시 생연동 471-1번지","indutype":"회원제형태 - 서적","category":"other"}]},{"lat":"37.906937269","long":"127.05328862","imageIndex":17,"items":[{"name":"BYC","tel":"","addr":"경기도 동두천시 생연동 607-20번지","indutype":"의류 - 내의판매","category":"other"}]},{"lat":"37.896773128","long":"127.05697669","imageIndex":17,"items":[{"name":"COCO(코코)","tel":"070-4417-2650","addr":"경기도 동두천시 생연동 754-4번지 지행파크빌 105동 501호","indutype":"의류 - 정장","category":"other"}]},{"lat":"37.908351588","long":"127.05361934","imageIndex":17,"items":[{"name":"DC백화점","tel":"031-867-8725","addr":"경기도 동두천시 생연동 609-10번지","indutype":"신변잡화 - 기타잡화","category":"other"}]},{"lat":"37.899248467","long":"127.0616173","imageIndex":17,"items":[{"name":"GS25동두천생연","tel":"031-867-9191","addr":"경기도 동두천시 생연동 385-4번지","indutype":"유통업 영리 - 편 의 점","category":"other"}]},{"lat":"37.898050171","long":"127.06173004","imageIndex":17,"items":[{"name":"GS25동두천샤인점","tel":"02-2006-2485","addr":"경기도 동두천시 생연동 348-4번지 1층","indutype":"유통업 영리 - 편 의 점","category":"other"}]},{"lat":"37.904580441","long":"127.06462333","imageIndex":17,"items":[{"name":"GS25동두천월드점","tel":"","addr":"경기도 동두천시 생연동 231번지 월드메르디앙 상가동 101~102호","indutype":"유통업 영리 - 편 의 점","category":"other"},{"name":"경서꽃직매장","tel":"070-8883-0243","addr":"경기도 동두천시 생연동 231번지 동두천생연동월드메르디앙 1층 105호 월드메르디앙","indutype":"문화.취미 - 화원","category":"other"}]},{"lat":"37.89783058","long":"127.06811946","imageIndex":17,"items":[{"name":"GS25동두천칠봉점","tel":"","addr":"경기도 동두천시 생연동 317-7번지","indutype":"유통업 영리 - 편 의 점","category":"other"}]},{"lat":"37.901633693","long":"127.06595115","imageIndex":17,"items":[{"name":"GS25동두천타운점","tel":"","addr":"경기도 동두천시 생연동 272-9번지 동훈빌라 102호","indutype":"유통업 영리 - 편 의 점","category":"other"}]},{"lat":"37.902884001","long":"127.05109141","imageIndex":17,"items":[{"name":"GS25동두천태양점","tel":"","addr":"경기도 동두천시 생연동 820-3번지","indutype":"유통업 영리 - 편 의 점","category":"other"}]},{"lat":"37.901081268","long":"127.05317093","imageIndex":17,"items":[{"name":"GS25생연쎈츄럴점","tel":"02-2006-2485","addr":"경기도 동두천시 생연동 689-28번지 쎈츄럴시티 109호","indutype":"유통업 영리 - 편 의 점","category":"other"},{"name":"NEPA","tel":"031-866-0038","addr":"경기도 동두천시 생연동 689-28번지 쎈츄럴시티 1층 101,102","indutype":"레져용품 - 스포츠·레져용품","category":"other"},{"name":"컴퓨터월드","tel":"031-861-1865","addr":"경기도 동두천시 생연동 689-28번지 쎈츄럴시티 307호","indutype":"사무통신 - 컴퓨터","category":"other"},{"name":"피엔씨아이","tel":"","addr":"경기도 동두천시 생연동 689-28번지 406-2호","indutype":"서적문구 - 일반서적","category":"other"}]},{"lat":"37.908467691","long":"127.05592774","imageIndex":17,"items":[{"name":"HECTH'S","tel":"","addr":"경기도 동두천시 생연동 619-5번지","indutype":"의류 - 기타의류","category":"other"}]},{"lat":"37.905942285","long":"127.06181592","imageIndex":17,"items":[{"name":"JS스포츠","tel":"031-866-8669","addr":"경기도 동두천시 생연동 산41-13번지","indutype":"레져용품 - 스포츠·레져용품","category":"other"}]},{"lat":"37.901686077","long":"127.05031747","imageIndex":17,"items":[{"name":"KH테크","tel":"031-859-8588","addr":"경기도 동두천시 생연동 820-33번지","indutype":"전기제품 - 기타전기제품","category":"other"}]},{"lat":"37.91396334","long":"127.05597717","imageIndex":17,"items":[{"name":"KIM-S ART","tel":"031-858-6753","addr":"경기도 동두천시 생연동 543-13번지","indutype":"문화.취미 - 화방·표구점","category":"other"}]},{"lat":"37.897943902","long":"127.0579212","imageIndex":17,"items":[{"name":"KTI인테리어","tel":"031-864-8512","addr":"경기도 동두천시 생연동 361-15번지","indutype":"건축자재 - 인테리어전문","category":"other"}]},{"lat":"37.913044577","long":"127.05556713","imageIndex":17,"items":[{"name":"Moonong Pottery(무농도예)","tel":"031-859-8585","addr":"경기도 동두천시 생연동 570-5번지","indutype":"문화.취미 - 민예·공예품","category":"other"}]},{"lat":"37.895719365","long":"127.05625967","imageIndex":17,"items":[{"name":"NS코리아","tel":"031-862-8877","addr":"경기도 동두천시 생연동 755-10번지 외1필지","indutype":"레져용품 - 스포츠·레져용품","category":"other"},{"name":"퍼스트올로 좋은사람들","tel":"031-868-4398","addr":"경기도 동두천시 생연동 755-10번지 외1필지","indutype":"의류 - 내의판매","category":"other"}]},{"lat":"37.908880965","long":"127.05842968","imageIndex":17,"items":[{"name":"OK종합설비","tel":"031-868-5562","addr":"경기도 동두천시 생연동 476-6번지","indutype":"수리서비스 - 기타수리서비스","category":"other"}]},{"lat":"37.898999195","long":"127.05528425","imageIndex":17,"items":[{"name":"PS인테리어","tel":"031-861-8832","addr":"경기도 동두천시 생연동 712번지","indutype":"직물 - 카페트,커튼,천막,지물","category":"other"}]},{"lat":"37.913495006","long":"127.05564705","imageIndex":17,"items":[{"name":"RANGGI 1250\"(랑기)","tel":"031-000-0000","addr":"경기도 동두천시 생연동 543-20번지","indutype":"문화.취미 - 문화취미기타","category":"other"}]},{"lat":"37.913801219","long":"127.05587471","imageIndex":17,"items":[{"name":"STAR양복점","tel":"031-864-3620","addr":"경기도 동두천시 생연동 543-15번지","indutype":"의류 - 맞춤복점","category":"other"},{"name":"리갈양복점","tel":"031-865-8277","addr":"경기도 동두천시 생연동 543-15번지","indutype":"의류 - 맞춤복점","category":"other"}]},{"lat":"37.904079098","long":"127.05823277","imageIndex":17,"items":[{"name":"TG패션","tel":"031-907-9115","addr":"경기도 동두천시 생연동 454-5번지","indutype":"의류 - 정장","category":"other"}]},{"lat":"37.902189539","long":"127.05287606","imageIndex":17,"items":[{"name":"e-편한통신","tel":"031-838-4416","addr":"경기도 동두천시 생연동 689-9번지 1층","indutype":"사무통신 - 통신기기","category":"other"},{"name":"법무사송건섭사무소","tel":"031-863-3200","addr":"경기도 동두천시 생연동 689-9번지","indutype":"용역 서비스 - 법률회계서비스(개인)","category":"other"}]},{"lat":"37.906106192","long":"127.05823429","imageIndex":17,"items":[{"name":"가가종합설비","tel":"031-866-0482","addr":"경기도 동두천시 생연동 450-22번지","indutype":"용역 서비스 - 기타용역서비스","category":"other"},{"name":"무한설비","tel":"031-866-0482","addr":"경기도 동두천시 생연동 450-22번지","indutype":"용역 서비스 - 기타용역서비스","category":"other"}]},{"lat":"37.896108706","long":"127.05179188","imageIndex":17,"items":[{"name":"가구대통령","tel":"031-858-8890","addr":"경기도 동두천시 생연동 714-11번지","indutype":"가구 - 일반가구","category":"other"}]},{"lat":"37.900189215","long":"127.0534773","imageIndex":17,"items":[{"name":"가나의류","tel":"031-868-3131","addr":"경기도 동두천시 생연동 693-10번지 평화상가 1층 4호","indutype":"의류 - 정장","category":"other"},{"name":"중앙커텐장식","tel":"031-862-4505","addr":"경기도 동두천시 생연동 693-10번지","indutype":"직물 - 카페트,커튼,천막,지물","category":"other"},{"name":"큰시장열쇠","tel":"031-864-7778","addr":"경기도 동두천시 생연동 693-10번지 평화상가1층-3","indutype":"건축자재 - 목재·석재·철물","category":"other"}]},{"lat":"37.899247121","long":"127.06425505","imageIndex":17,"items":[{"name":"가나인테리어건축","tel":"031-865-9058","addr":"경기도 동두천시 생연동 307-5번지","indutype":"건축자재 - 인테리어전문","category":"other"},{"name":"내행세탁소","tel":"031-862-1919","addr":"경기도 동두천시 생연동 307-5번지","indutype":"수리서비스 - 세탁소","category":"other"}]},{"lat":"37.905773018","long":"127.05787018","imageIndex":17,"items":[{"name":"가나종합건축설비","tel":"031-866-1766","addr":"경기도 동두천시 생연동 483-99번지","indutype":"용역 서비스 - 기타용역서비스","category":"other"},{"name":"아이니교복","tel":"031-868-7936","addr":"경기도 동두천시 생연동 483-99번지","indutype":"의류 - 맞춤복점","category":"other"}]},{"lat":"37.908989381","long":"127.05778161","imageIndex":17,"items":[{"name":"가방나라","tel":"031-861-8832","addr":"경기도 동두천시 생연동 551-23번지","indutype":"신변잡화 - 가방","category":"other"},{"name":"공예마을","tel":"031-866-3111","addr":"경기도 동두천시 생연동 551-23번지 1층","indutype":"문화.취미 - 화원","category":"other"},{"name":"벨르인","tel":"070-4567-4444","addr":"경기도 동두천시 생연동 551-23번지 1층","indutype":"의류 - 정장","category":"other"},{"name":"수정","tel":"031-857-8630","addr":"경기도 동두천시 생연동 551-23번지","indutype":"직물 - 기타직물","category":"other"},{"name":"인어공주","tel":"031-859-8613","addr":"경기도 동두천시 생연동 551-23번지","indutype":"사무통신 - 통신기기","category":"other"}]},{"lat":"37.903469272","long":"127.05189908","imageIndex":17,"items":[{"name":"가야누수설비","tel":"02-1111-1111","addr":"경기도 동두천시 생연동 662-10번지","indutype":"용역 서비스 - 기타용역서비스","category":"other"}]},{"lat":"37.900358238","long":"127.0582641","imageIndex":17,"items":[{"name":"가원종합건축","tel":"031-867-8547","addr":"경기도 동두천시 생연동 420-4번지","indutype":"용역 서비스 - 기타용역서비스","category":"other"}]},{"lat":"37.913719785","long":"127.05664794","imageIndex":17,"items":[{"name":"가이아천연염색천연가죽","tel":"031-858-6933","addr":"경기도 동두천시 생연동 541-19번지","indutype":"직물 - 옷감·직물","category":"other"}]},{"lat":"37.903772203","long":"127.05944917","imageIndex":17,"items":[{"name":"가인건축사사무소","tel":"031-866-8534","addr":"경기도 동두천시 생연동 455-37번지","indutype":"용역 서비스 - 사무서비스","category":"other"}]},{"lat":"37.904712476","long":"127.0520932","imageIndex":17,"items":[{"name":"강낚시레저","tel":"031-863-2555","addr":"경기도 동두천시 생연동 823-72번지","indutype":"레져용품 - 스포츠·레져용품","category":"other"}]},{"lat":"37.908386433","long":"127.0563143","imageIndex":17,"items":[{"name":"강릉김씨판윤공파종중","tel":"031-865-7305","addr":"경기도 동두천시 생연동 619-3번지","indutype":"회원제형태 - 기타4","category":"other"},{"name":"리빙아울렛DC백화점","tel":"031-958-4401","addr":"경기도 동두천시 생연동 619-3번지","indutype":"주방용구 - 주방용식기","category":"other"}]},{"lat":"37.901026716","long":"127.05431925","imageIndex":17,"items":[{"name":"강북중기","tel":"031-868-5789","addr":"경기도 동두천시 생연동 684-60번지 화성연립 나동 301호","indutype":"회원제형태 - 기타4","category":"other"}]},{"lat":"37.912214629","long":"127.05795458","imageIndex":17,"items":[{"name":"강아지사랑","tel":"031-861-0045","addr":"경기도 동두천시 생연동 506-1","indutype":"문화.취미 - 애완동물","category":"other"}]},{"lat":"37.902379018","long":"127.05220535","imageIndex":17,"items":[{"name":"강아지세상","tel":"031-865-2457","addr":"경기도 동두천시 생연동 692-4번지","indutype":"문화.취미 - 애완동물","category":"other"},{"name":"강아지세상 애견호텔","tel":"031-865-2457","addr":"경기도 동두천시 생연동 692-4번지","indutype":"문화.취미 - 애완동물","category":"other"}]},{"lat":"37.912629862","long":"127.05620365","imageIndex":17,"items":[{"name":"거성사운드","tel":"031-861-0113","addr":"경기도 동두천시 생연동 567-63번지","indutype":"용역 서비스 - 기타용역서비스","category":"other"}]},{"lat":"37.897741633","long":"127.0460628","imageIndex":17,"items":[{"name":"건영슈퍼","tel":"031-862-6823","addr":"경기도 동두천시 생연동 787-2.101","indutype":"유통업 영리 - 연 쇄 점","category":"other"},{"name":"준인테리어","tel":"031-861-3180","addr":"경기도 동두천시 생연동 787-2번지 건영아파트","indutype":"직물 - 카페트,커튼,천막,지물","category":"other"}]},{"lat":"37.898799707","long":"127.05809238","imageIndex":17,"items":[{"name":"게이트맨","tel":"031-864-1304","addr":"경기도 동두천시 생연동 370-11번지","indutype":"건축자재 - 목재·석재·철물","category":"other"}]},{"lat":"37.908045005","long":"127.05423316","imageIndex":17,"items":[{"name":"고고고도서대여","tel":"031-868-0999","addr":"경기도 동두천시 생연동 611-4번지 203호","indutype":"서적문구 - 일반서적","category":"other"},{"name":"류영숙한복","tel":"031-863-6063","addr":"경기도 동두천시 생연동 611-4번지 한움프라자 110호","indutype":"의류 - 맞춤복점","category":"other"},{"name":"백한 인터내셔널","tel":"031-000-0000","addr":"경기도 동두천시 생연동 611-4번지 108호,109호","indutype":"의류 - 아동의류","category":"other"},{"name":"영헬스타운","tel":"031-867-7709","addr":"경기도 동두천시 생연동 611-4번지","indutype":"회원제형태 - 기타4","category":"other"},{"name":"청암요양원","tel":"031-863-7080","addr":"경기도 동두천시 생연동 611-4번지 한웅프라자 401호","indutype":"기타의료기관 - 기타의료기관 및 기타","category":"other"},{"name":"투어삼육오 주식회사","tel":"031-861-3655","addr":"경기도 동두천시 생연동 611-4번지 산웅프라자 603호","indutype":"여행 - 관광여행","category":"other"}]},{"lat":"37.911602813","long":"127.05618016","imageIndex":17,"items":[{"name":"고고크린","tel":"031-823-5515","addr":"경기도 동두천시 생연동 560-1번지","indutype":"용역 서비스 - 종합용역","category":"other"}]},{"lat":"37.903351424","long":"127.05361591","imageIndex":17,"items":[{"name":"고려수지침","tel":"031-864-1003","addr":"경기도 동두천시 생연동 669-8번지","indutype":"기타의료기관 - 기타의료기관 및 기타","category":"other"},{"name":"세계통신","tel":"031-868-6017","addr":"경기도 동두천시 생연동 669-8번지","indutype":"사무통신 - 통신기기","category":"other"}]},{"lat":"37.904630539","long":"127.05409435","imageIndex":17,"items":[{"name":"구내식당","tel":"031-865-1099","addr":"경기도 동두천시 생연동 653-2번지 KT동두천지점 2층","indutype":"수리서비스 - 세탁소","category":"other"},{"name":"우일칼라(중앙점)","tel":"031-862-9797","addr":"경기도 동두천시 생연동 653-2번지","indutype":"광학제품 - 사진관","category":"other"},{"name":"크로커다일(여성)","tel":"031-858-6996","addr":"경기도 동두천시 생연동 653-2번지","indutype":"레져용품 - 스포츠·레져용품","category":"other"}]},{"lat":"37.904883065","long":"127.05348052","imageIndex":17,"items":[{"name":"구룡유통","tel":"031-824-6597","addr":"경기도 동두천시 생연동 657-1번지 1층","indutype":"의류 - 정장","category":"other"}]},{"lat":"37.907882112","long":"127.05587047","imageIndex":17,"items":[{"name":"국도애드","tel":"031-865-5788","addr":"경기도 동두천시 생연동 616-7번지","indutype":"건축자재 - 인테리어전문","category":"other"}]},{"lat":"37.905495994","long":"127.05278733","imageIndex":17,"items":[{"name":"국제고무상사","tel":"031-861-2258","addr":"경기도 동두천시 생연동 659-4번지","indutype":"신변잡화 - 신발","category":"other"}]},{"lat":"37.911828408","long":"127.05537295","imageIndex":17,"items":[{"name":"국제광고","tel":"031-865-4528","addr":"경기도 동두천시 생연동 570-31번지","indutype":"용역 서비스 - 종합용역","category":"other"},{"name":"피엔티","tel":"031-865-9083","addr":"경기도 동두천시 생연동 570-31번지","indutype":"회원제형태 - 기타4","category":"other"}]},{"lat":"37.901937129","long":"127.05322836","imageIndex":17,"items":[{"name":"국제산업","tel":"031-863-0402","addr":"경기도 동두천시 생연동 688-10번지","indutype":"건축자재 - 보일러·펌프·샷시","category":"other"},{"name":"현대큐에스포토","tel":"031-863-9600","addr":"경기도 동두천시 생연동 688-10번지","indutype":"광학제품 - 사진관","category":"other"}]},{"lat":"37.902658235","long":"127.05237609","imageIndex":17,"items":[{"name":"국제설비","tel":"031-864-0050","addr":"경기도 동두천시 생연동 691-57번지","indutype":"용역 서비스 - 기타용역서비스","category":"other"}]},{"lat":"37.910990222","long":"127.05608875","imageIndex":17,"items":[{"name":"국제유리창호","tel":"031-867-6856","addr":"경기도 동두천시 생연동 558-60번지","indutype":"건축자재 - 유리","category":"other"}]},{"lat":"37.908827826","long":"127.05645107","imageIndex":17,"items":[{"name":"굳웰전산OA","tel":"031-864-7337","addr":"경기도 동두천시 생연동 615-23번지","indutype":"사무통신 - 기타 사무용품","category":"other"}]},{"lat":"37.913684011","long":"127.05606795","imageIndex":17,"items":[{"name":"그리고 봄","tel":"","addr":"경기도 동두천시 생연동 542-14번지","indutype":"가구 - 기타가구","category":"other"}]},{"lat":"37.899941778","long":"127.0624251","imageIndex":17,"items":[{"name":"그린벨데코","tel":"031-859-4009","addr":"경기도 동두천시 생연동 400-1번지","indutype":"직물 - 카페트,커튼,천막,지물","category":"other"},{"name":"러블리제이","tel":"070-8264-7447","addr":"경기도 동두천시 생연동 400-1번지","indutype":"의류 - 정장","category":"other"}]},{"lat":"37.910664639","long":"127.05878353","imageIndex":17,"items":[{"name":"그린씨앤지","tel":"031-543-5262","addr":"경기도 동두천시 생연동 494-4번지 제상가동 1층","indutype":"유통업 영리 - 기타유통업","category":"other"}]},{"lat":"37.89891523","long":"127.06140101","imageIndex":17,"items":[{"name":"그린지물인테리어","tel":"031-862-1162","addr":"경기도 동두천시 생연동 385-2번지 1층","indutype":"건축자재 - 인테리어전문","category":"other"}]},{"lat":"37.900664921","long":"127.05747981","imageIndex":17,"items":[{"name":"그린페인트","tel":"031-863-3674","addr":"경기도 동두천시 생연동 728-10번지","indutype":"건축자재 - 페인트","category":"other"}]},{"lat":"37.904215747","long":"127.0549241","imageIndex":17,"items":[{"name":"그린화원","tel":"031-862-3939","addr":"경기도 동두천시 생연동 649-9번지","indutype":"문화.취미 - 화원","category":"other"}]},{"lat":"37.901910299","long":"127.05276217","imageIndex":17,"items":[{"name":"글라맥스","tel":"031-865-2134","addr":"경기도 동두천시 생연동 689-10번지 2층","indutype":"기타의료기관 - 기타의료기관 및 기타","category":"other"},{"name":"마당발","tel":"031-863-9461","addr":"경기도 동두천시 생연동 689-10번지","indutype":"레져용품 - 스포츠·레져용품","category":"other"},{"name":"천왕톱","tel":"031-865-6869","addr":"경기도 동두천시 생연동 689-10번지","indutype":"수리서비스 - 기타수리서비스","category":"other"},{"name":"테레지아","tel":"031-865-6536","addr":"경기도 동두천시 생연동 689-10번지","indutype":"의류 - 정장","category":"other"}]},{"lat":"37.912350887","long":"127.05550978","imageIndex":17,"items":[{"name":"글로벌 종합만물","tel":"070-7420-5053","addr":"경기도 동두천시 생연동 570-22번지","indutype":"전기제품 - 가전제품","category":"other"},{"name":"아가페플라워","tel":"02-742-0282","addr":"경기도 동두천시 생연동 570-22번지","indutype":"문화.취미 - 화원","category":"other"}]},{"lat":"37.900051167","long":"127.05984426","imageIndex":17,"items":[{"name":"금강종합홈케어","tel":"031-1566-5948","addr":"경기도 동두천시 생연동 414-3번지","indutype":"신변잡화 - 기타잡화","category":"other"}]},{"lat":"37.898665084","long":"127.05697807","imageIndex":17,"items":[{"name":"금영샷시","tel":"031-864-3727","addr":"경기도 동두천시 생연동 742-1번지","indutype":"용역 서비스 - 기타용역서비스","category":"other"}]},{"lat":"37.908357564","long":"127.0602259","imageIndex":17,"items":[{"name":"길벗장례의전","tel":"031-861-4444","addr":"경기도 동두천시 생연동 468-11번지","indutype":"용역 서비스 - 가례서비스업","category":"other"}]},{"lat":"37.902637817","long":"127.05778826","imageIndex":17,"items":[{"name":"김남현건축사사무소","tel":"070-8151-9300","addr":"경기도 동두천시 생연동 445-8번지","indutype":"용역 서비스 - 사무서비스","category":"other"},{"name":"시가모아전자담배","tel":"070-8886-0095","addr":"경기도 동두천시 생연동 445-8번지","indutype":"기타 - 기타 전문점","category":"other"}]},{"lat":"37.903217149","long":"127.05156918","imageIndex":17,"items":[{"name":"김명희 한복.주단","tel":"031-859-9178","addr":"경기도 동두천시 생연동 823-127번지 1층","indutype":"의류 - 맞춤복점","category":"other"}]},{"lat":"37.900358488","long":"127.05772972","imageIndex":17,"items":[{"name":"김상윤의옷수선배우기","tel":"031-862-2345","addr":"경기도 동두천시 생연동 730-23번지","indutype":"수리서비스 - 세탁소","category":"other"}]},{"lat":"37.906801988","long":"127.05361828","imageIndex":17,"items":[{"name":"김희선패션","tel":"031-865-6515","addr":"경기도 동두천시 생연동 607-27번지","indutype":"의류 - 정장","category":"other"},{"name":"로코코","tel":"02-8055-8786","addr":"경기도 동두천시 생연동 607-27번지 155호","indutype":"신변잡화 - 액세서리","category":"other"},{"name":"마술사오렌지옷수선","tel":"070-4686-9412","addr":"경기도 동두천시 생연동 607-27번지 1층","indutype":"수리서비스 - 세탁소","category":"other"},{"name":"모모선물","tel":"031-862-1588","addr":"경기도 동두천시 생연동 607-27번지","indutype":"신변잡화 - 기타잡화","category":"other"},{"name":"뭉치","tel":"031-868-7199","addr":"경기도 동두천시 생연동 607-27번지","indutype":"의류 - 정장","category":"other"},{"name":"반도가방","tel":"031-865-8555","addr":"경기도 동두천시 생연동 607-27번지","indutype":"신변잡화 - 가방","category":"other"},{"name":"성철네종합이불","tel":"031-864-2975","addr":"경기도 동두천시 생연동 607-27번지","indutype":"직물 - 침구·수예점","category":"other"},{"name":"에네스 샵","tel":"031-858-7217","addr":"경기도 동두천시 생연동 607-27번지 1층","indutype":"의류 - 정장","category":"other"},{"name":"연희봉투","tel":"031-868-3933","addr":"경기도 동두천시 생연동 607-27번지","indutype":"유통업 영리 - 기타유통업","category":"other"},{"name":"초코수입","tel":"031-859-9020","addr":"경기도 동두천시 생연동 607-27번지","indutype":"신변잡화 - 기타잡화","category":"other"}]},{"lat":"37.897745654","long":"127.05801201","imageIndex":17,"items":[{"name":"깨끗한운동화빨래방","tel":"031-864-8289","addr":"경기도 동두천시 생연동 361-18번지","indutype":"수리서비스 - 세탁소","category":"other"}]},{"lat":"37.900577863","long":"127.05048731","imageIndex":17,"items":[{"name":"꼼지락공방","tel":"031-859-9602","addr":"경기도 동두천시 생연동 809번지 세아프라자 1층 142호","indutype":"신변잡화 - 액세서리","category":"other"},{"name":"듀오셀","tel":"031-859-4292","addr":"경기도 동두천시 생연동 809번지 세아프라자 1층67","indutype":"의류 - 내의판매","category":"other"},{"name":"루비나","tel":"031-865-5401","addr":"경기도 동두천시 생연동 809번지 세아프라자 1층 144호","indutype":"신변잡화 - 기타잡화","category":"other"},{"name":"마루패션","tel":"031-861-6013","addr":"경기도 동두천시 생연동 809번지 세아프라자 1층 102호","indutype":"의류 - 정장","category":"other"},{"name":"백양","tel":"031-867-6400","addr":"경기도 동두천시 생연동 809번지 (세아프라자지층-4)","indutype":"의류 - 내의판매","category":"other"},{"name":"빈(Bin's)공방","tel":"031-865-1573","addr":"경기도 동두천시 생연동 809번지 (세아프라자상가1층93호,생연동)","indutype":"문화.취미 - 민예·공예품","category":"other"},{"name":"세아뜨게방","tel":"031-864-4487","addr":"경기도 동두천시 생연동 809 세아프라자1층 82","indutype":"직물 - 침구·수예점","category":"other"},{"name":"인형숙녀복","tel":"031-825-5788","addr":"경기도 동두천시 생연동 809번지 세아프라자1층,59호 108호","indutype":"의류 - 정장","category":"other"},{"name":"지선화장품","tel":"031-864-1629","addr":"경기도 동두천시 생연동 809번지 세아프라자 1층 58호","indutype":"신변잡화 - 액세서리","category":"other"},{"name":"한국가구","tel":"031-862-9345","addr":"경기도 동두천시 생연동 809번지 세아상가 1층 80호","indutype":"가구 - 일반가구","category":"other"}]},{"lat":"37.899857594","long":"127.04929303","imageIndex":17,"items":[{"name":"나는펫","tel":"070-7560-1899","addr":"경기도 동두천시 생연동 806-3번지","indutype":"문화.취미 - 애완동물","category":"other"},{"name":"생연사무용가구","tel":"031-868-7282","addr":"경기도 동두천시 생연동 806-3번지","indutype":"가구 - 일반가구","category":"other"},{"name":"현대농약사","tel":"031-868-8844","addr":"경기도 동두천시 생연동 806-3번지","indutype":"농업 - 비료,사료,종자","category":"other"}]},{"lat":"37.914994335","long":"127.06623549","imageIndex":17,"items":[{"name":"나무와퀼트","tel":"031-861-5004","addr":"경기도 동두천시 생연동 159-31번지","indutype":"문화.취미 - 민예·공예품","category":"other"}]},{"lat":"37.906243085","long":"127.05436836","imageIndex":17,"items":[{"name":"남성크로커다일 동두천점","tel":"031-863-0250","addr":"경기도 동두천시 생연동 601-19번지","indutype":"신변잡화 - 가방","category":"other"},{"name":"팜스프링스","tel":"031-859-7988","addr":"경기도 동두천시 생연동 601-19번지 엘림빌딩 1층","indutype":"의류 - 스포츠의류","category":"other"}]},{"lat":"37.902628897","long":"127.05759496","imageIndex":17,"items":[{"name":"냥이들 세상","tel":"031-861-8832","addr":"경기도 동두천시 생연동 445-43번지","indutype":"문화.취미 - 애완동물","category":"other"}]},{"lat":"37.907351348","long":"127.05409623","imageIndex":17,"items":[{"name":"네잎크로바","tel":"031-8946-0530","addr":"경기도 동두천시 생연동 608-22번지 네잎크로바","indutype":"의류 - 정장","category":"other"},{"name":"아식스","tel":"031-861-1300","addr":"경기도 동두천시 생연동 608-22번지","indutype":"레져용품 - 스포츠·레져용품","category":"other"},{"name":"올리비아하슬러","tel":"031-857-0078","addr":"경기도 동두천시 생연동 608-22번지 1층","indutype":"레져용품 - 스포츠·레져용품","category":"other"}]},{"lat":"37.900077198","long":"127.06186809","imageIndex":17,"items":[{"name":"노벨문구","tel":"031-865-0005","addr":"경기도 동두천시 생연동 400-4번지","indutype":"서적문구 - 문구용품","category":"other"}]},{"lat":"37.894520731","long":"127.07403973","imageIndex":17,"items":[{"name":"농업회사법인 화목토 주식회사","tel":"031-861-0802","addr":"경기도 동두천시 생연동 38번지","indutype":"문화.취미 - 화원","category":"other"}]},{"lat":"37.904045981","long":"127.05162658","imageIndex":17,"items":[{"name":"누드초코파이","tel":"031-864-1201","addr":"경기도 동두천시 생연동 823-55번지","indutype":"의류 - 내의판매","category":"other"},{"name":"소호","tel":"031-861-1974","addr":"경기도 동두천시 생연동 823-55번지","indutype":"의류 - 기타의류","category":"other"}]},{"lat":"37.913296653","long":"127.05597669","imageIndex":17,"items":[{"name":"누비다(nubida)","tel":"","addr":"경기도 동두천시 생연동 570-104번지 1층 1호","indutype":"문화.취미 - 문화취미기타","category":"other"}]},{"lat":"37.900415069","long":"127.05201076","imageIndex":17,"items":[{"name":"누운자리","tel":"031-863-4604","addr":"경기도 동두천시 생연동 698-1번지","indutype":"직물 - 침구·수예점","category":"other"}]},{"lat":"37.900184914","long":"127.06265269","imageIndex":17,"items":[{"name":"뉴모델라인","tel":"031-866-0058","addr":"경기도 동두천시 생연동 401-2번지 1층","indutype":"의류 - 정장","category":"other"},{"name":"모델라인","tel":"031-861-0285","addr":"경기도 동두천시 생연동 401-2번지","indutype":"의류 - 정장","category":"other"},{"name":"칭송샵","tel":"","addr":"경기도 동두천시 생연동 401-2번지 1층","indutype":"신변잡화 - 기타잡화","category":"other"}]},{"lat":"37.897268473","long":"127.05734087","imageIndex":17,"items":[{"name":"뉴빌스","tel":"","addr":"경기도 동두천시 생연동 745번지","indutype":"용역 서비스 - 종합용역","category":"other"}]},{"lat":"37.913963176","long":"127.05634107","imageIndex":17,"items":[{"name":"뉴욕샵","tel":"031-861-3426","addr":"경기도 동두천시 생연동 541-9번지","indutype":"의류 - 정장","category":"other"},{"name":"지앤스튜디오","tel":"070-4149-1517","addr":"경기도 동두천시 생연동 541-9번지 1층","indutype":"신변잡화 - 귀금속","category":"other"}]},{"lat":"37.903910912","long":"127.05145593","imageIndex":17,"items":[{"name":"늘푸른 중고가전","tel":"031-861-3448","addr":"경기도 동두천시 생연동 823-153번지","indutype":"전기제품 - 가전제품","category":"other"}]},{"lat":"37.912855397","long":"127.05553288","imageIndex":17,"items":[{"name":"니트갤러리","tel":"031-866-3966","addr":"경기도 동두천시 생연동 570-53번지","indutype":"직물 - 침구·수예점","category":"other"}]},{"lat":"37.898691839","long":"127.05756931","imageIndex":17,"items":[{"name":"님프만 동두천점","tel":"031-868-6088","addr":"경기도 동두천시 생연동 743-2번지","indutype":"직물 - 침구·수예점","category":"other"}]},{"lat":"37.904018049","long":"127.05376418","imageIndex":17,"items":[{"name":"다솜텔레콤","tel":"031-862-7010","addr":"경기도 동두천시 생연동 665-22번지 1층","indutype":"사무통신 - 통신기기","category":"other"},{"name":"오물딱조물딱","tel":"031-865-3193","addr":"경기도 동두천시 생연동 665-22번지","indutype":"신변잡화 - 액세서리","category":"other"}]},{"lat":"37.899052301","long":"127.05737629","imageIndex":17,"items":[{"name":"다온커튼","tel":"031-858-8989","addr":"경기도 동두천시 생연동 733-22번지","indutype":"직물 - 카페트,커튼,천막,지물","category":"other"}]},{"lat":"37.901748146","long":"127.05272795","imageIndex":17,"items":[{"name":"다우복권방","tel":"031-861-3223","addr":"경기도 동두천시 생연동 689-45번지","indutype":"유통업 영리 - 편 의 점","category":"other"}]},{"lat":"37.903684695","long":"127.05378669","imageIndex":17,"items":[{"name":"다운 원예체험센터","tel":"031-858-5041","addr":"경기도 동두천시 생연동 666-25번지 2층","indutype":"문화.취미 - 화원","category":"other"}]},{"lat":"37.903243503","long":"127.0531724","imageIndex":17,"items":[{"name":"다원의류","tel":"031-867-1342","addr":"경기도 동두천시 생연동 668-1번지","indutype":"의류 - 정장","category":"other"},{"name":"오브제","tel":"031-864-4841","addr":"경기도 동두천시 생연동 668-1번지","indutype":"의류 - 정장","category":"other"},{"name":"이삭","tel":"031-865-6655","addr":"경기도 동두천시 생연동 668-1번지","indutype":"의류 - 정장","category":"other"},{"name":"제일공구상사","tel":"031-862-6734","addr":"경기도 동두천시 생연동 668-1번지","indutype":"기타 - 기계공구","category":"other"}]},{"lat":"37.904628703","long":"127.05815359","imageIndex":17,"items":[{"name":"다원텔레콤","tel":"031-858-6789","addr":"경기도 동두천시 생연동 450-48번지","indutype":"사무통신 - 통신기기","category":"other"}]},{"lat":"37.90184894","long":"127.0677478","imageIndex":17,"items":[{"name":"다잡공방","tel":"","addr":"경기도 동두천시 생연동 263-1번지 시대빌라 1동 302호","indutype":"문화.취미 - 문화취미기타","category":"other"}]},{"lat":"37.903496404","long":"127.05164896","imageIndex":17,"items":[{"name":"다찬푸드시스템","tel":"0000-0000-0000","addr":"경기도 동두천시 생연동 823-115번지","indutype":"용역 서비스 - 종합용역","category":"other"}]},{"lat":"37.905441986","long":"127.05267359","imageIndex":17,"items":[{"name":"다카상회(DHAKA BAZAR)","tel":"031-861-9489","addr":"경기도 동두천시 생연동 659-8번지","indutype":"의류 - 정장","category":"other"},{"name":"혜성사","tel":"031-863-5400","addr":"경기도 동두천시 생연동 659-8번지","indutype":"기타 - 기타 전문점","category":"other"}]},{"lat":"37.900410486","long":"127.06198205","imageIndex":17,"items":[{"name":"닥터크린","tel":"031-868-6538","addr":"경기도 동두천시 생연동 406-1번지 3호","indutype":"수리서비스 - 세탁소","category":"other"}]},{"lat":"37.904161418","long":"127.05553806","imageIndex":17,"items":[{"name":"단비세탁소","tel":"031-865-8534","addr":"경기도 동두천시 생연동 645-50번지","indutype":"수리서비스 - 세탁소","category":"other"}]},{"lat":"37.905936754","long":"127.05440226","imageIndex":17,"items":[{"name":"단비펫살롱","tel":"031-857-5888","addr":"경기도 동두천시 생연동 601-48번지","indutype":"문화.취미 - 애완동물","category":"other"}]},{"lat":"37.906962219","long":"127.05792792","imageIndex":17,"items":[{"name":"달팽이나라","tel":"","addr":"경기도 동두천시 생연동 487-32번지","indutype":"문화.취미 - 애완동물","category":"other"},{"name":"대운TNP","tel":"031-861-4608","addr":"경기도 동두천시 생연동 487-32번지","indutype":"유통업 영리 - 기타유통업","category":"other"},{"name":"태영냉난방","tel":"031-865-9002","addr":"경기도 동두천시 생연동 487-32번지","indutype":"전기제품 - 냉열기기","category":"other"}]},{"lat":"37.913576064","long":"127.05570397","imageIndex":17,"items":[{"name":"닿은","tel":"","addr":"경기도 동두천시 생연동 543-19번지","indutype":"문화.취미 - 문화취미기타","category":"other"}]},{"lat":"37.90416306","long":"127.05172899","imageIndex":17,"items":[{"name":"대도","tel":"031-865-7317","addr":"경기도 동두천시 생연동 823-92번지","indutype":"의류 - 정장","category":"other"}]},{"lat":"37.900910742","long":"127.05162451","imageIndex":17,"items":[{"name":"대동사","tel":"031-862-2761","addr":"경기도 동두천시 생연동 813-24번지","indutype":"수리서비스 - 세탁소","category":"other"}]},{"lat":"37.903414916","long":"127.05261537","imageIndex":17,"items":[{"name":"대림사","tel":"031-866-3500","addr":"경기도 동두천시 생연동 664-20번지 대림아파트 디호 1층","indutype":"의류 - 정장","category":"other"}]},{"lat":"37.909772928","long":"127.05833938","imageIndex":17,"items":[{"name":"대성건축설비공사","tel":"","addr":"경기도 동두천시 생연동 495-19번지 1층","indutype":"용역 서비스 - 기타용역서비스","category":"other"}]},{"lat":"37.910188707","long":"127.05539453","imageIndex":17,"items":[{"name":"대성앵글공업사","tel":"031-686-7888","addr":"경기도 동두천시 생연동 557-8번지","indutype":"건축자재 - 목재·석재·철물","category":"other"}]},{"lat":"37.90893562","long":"127.05714478","imageIndex":17,"items":[{"name":"대성인쇄","tel":"031-867-6767","addr":"경기도 동두천시 생연동 621-7번지","indutype":"서적문구 - 출판 및 인쇄물","category":"other"}]},{"lat":"37.901468877","long":"127.05268228","imageIndex":17,"items":[{"name":"대신유리","tel":"031-864-6204","addr":"경기도 동두천시 생연동 689-16번지","indutype":"건축자재 - 유리","category":"other"}]},{"lat":"37.90360386","long":"127.05320675","imageIndex":17,"items":[{"name":"대신종합수도상사","tel":"031-862-5653","addr":"경기도 동두천시 생연동 666-6번지","indutype":"건축자재 - 보일러·펌프·샷시","category":"other"}]},{"lat":"37.900081351","long":"127.05289737","imageIndex":17,"items":[{"name":"대영디자인기획","tel":"031-864-3066","addr":"경기도 동두천시 생연동 696-3번지","indutype":"직물 - 카페트,커튼,천막,지물","category":"other"}]},{"lat":"37.911520812","long":"127.05817012","imageIndex":17,"items":[{"name":"대영종합설비","tel":"031-864-0448","addr":"경기도 동두천시 생연동 503-11번지","indutype":"용역 서비스 - 기타용역서비스","category":"other"}]},{"lat":"37.899464002","long":"127.06298183","imageIndex":17,"items":[{"name":"대영지물포","tel":"031-862-9059","addr":"경기도 동두천시 생연동 396-1번지","indutype":"직물 - 카페트,커튼,천막,지물","category":"other"},{"name":"아이리스","tel":"031-863-7154","addr":"경기도 동두천시 생연동 396-1번지 1층 5호","indutype":"주방용구 - 정수기","category":"other"}]},{"lat":"37.906691785","long":"127.05825747","imageIndex":17,"items":[{"name":"대원기와","tel":"031-862-3425","addr":"경기도 동두천시 생연동 480-25번지 1층","indutype":"용역 서비스 - 기타용역서비스","category":"other"}]},{"lat":"37.908270118","long":"127.05450622","imageIndex":17,"items":[{"name":"대원당","tel":"031-865-5973","addr":"경기도 동두천시 생연동 611-51번지","indutype":"신변잡화 - 귀금속","category":"other"}]},{"lat":"37.900188741","long":"127.0545688","imageIndex":17,"items":[{"name":"대원인테리어창호,도어","tel":"031-865-8272","addr":"경기도 동두천시 생연동 703-13번지","indutype":"건축자재 - 기타건축자재","category":"other"},{"name":"동두천꽃화원","tel":"031-867-0303","addr":"경기도 동두천시 생연동 703-13번지","indutype":"문화.취미 - 화원","category":"other"},{"name":"동원인테리어","tel":"031-861-4265","addr":"경기도 동두천시 생연동 703-13번지","indutype":"건축자재 - 인테리어전문","category":"other"},{"name":"용궁불교만물사","tel":"031-864-1790","addr":"경기도 동두천시 생연동 703-13번지","indutype":"신변잡화 - 기념품점","category":"other"},{"name":"해동불교만물사","tel":"031-864-1790","addr":"경기도 동두천시 생연동 703-13번지 1층","indutype":"신변잡화 - 기념품점","category":"other"}]},{"lat":"37.905859738","long":"127.06466988","imageIndex":17,"items":[{"name":"대일냉동냉장설비","tel":"031-867-4254","addr":"경기도 동두천시 생연동 213-8번지","indutype":"주방용구 - 주방용구","category":"other"}]},{"lat":"37.911521109","long":"127.05753331","imageIndex":17,"items":[{"name":"대일목재","tel":"031-862-1808","addr":"경기도 동두천시 생연동 548-3번지","indutype":"건축자재 - 기타건축자재","category":"other"}]},{"lat":"37.905856771","long":"127.05182107","imageIndex":17,"items":[{"name":"대일지물","tel":"031-868-5558","addr":"경기도 동두천시 생연동 825-92번지","indutype":"직물 - 카페트,커튼,천막,지물","category":"other"}]},{"lat":"37.903853903","long":"127.05815301","imageIndex":17,"items":[{"name":"대진건축사사무소","tel":"031-868-0412","addr":"경기도 동두천시 생연동 453-6번지","indutype":"용역 서비스 - 사무서비스","category":"other"},{"name":"세븐일레븐동두천정장사거리점","tel":"","addr":"경기도 동두천시 생연동 453-6번지","indutype":"유통업 영리 - 편 의 점","category":"other"},{"name":"현대건축사사무소","tel":"031-862-6314","addr":"경기도 동두천시 생연동 453-6번지","indutype":"용역 서비스 - 기타용역서비스","category":"other"}]},{"lat":"37.90360367","long":"127.05365019","imageIndex":17,"items":[{"name":"대진만물사","tel":"031-865-8520","addr":"경기도 동두천시 생연동 669-1번지","indutype":"기타 - 기타 전문점","category":"other"},{"name":"아도니제","tel":"031-868-1198","addr":"경기도 동두천시 생연동 669-1번지","indutype":"의류 - 정장","category":"other"}]},{"lat":"37.901271297","long":"127.05118132","imageIndex":17,"items":[{"name":"대풍주얼리","tel":"031-862-7777","addr":"경기도 동두천시 생연동 822-74번지","indutype":"신변잡화 - 귀금속","category":"other"}]},{"lat":"37.906081121","long":"127.05390205","imageIndex":17,"items":[{"name":"대한장식","tel":"031-865-5067","addr":"경기도 동두천시 생연동 601-22번지","indutype":"직물 - 카페트,커튼,천막,지물","category":"other"},{"name":"올포유","tel":"","addr":"경기도 동두천시 생연동 601-22번지","indutype":"레져용품 - 스포츠·레져용품","category":"other"},{"name":"키스링","tel":"031-857-8338","addr":"경기도 동두천시 생연동 601-22번지","indutype":"신변잡화 - 액세서리","category":"other"}]},{"lat":"37.901054487","long":"127.05259104","imageIndex":17,"items":[{"name":"대한종합상사","tel":"031-866-0945","addr":"경기도 동두천시 생연동 689-20번지","indutype":"건축자재 - 목재·석재·철물","category":"other"},{"name":"스포츠상설할인매장","tel":"031-863-1371","addr":"경기도 동두천시 생연동 689-20번지","indutype":"레져용품 - 스포츠·레져용품","category":"other"}]},{"lat":"37.902937079","long":"127.05342233","imageIndex":17,"items":[{"name":"대흥공구","tel":"031-865-2505","addr":"경기도 동두천시 생연동 669-15번지","indutype":"기타 - 기계공구","category":"other"}]},{"lat":"37.902604879","long":"127.05068191","imageIndex":17,"items":[{"name":"대흥종합설비","tel":"031-865-3198","addr":"경기도 동두천시 생연동 820-5번지","indutype":"수리서비스 - 가정용품수리","category":"other"}]},{"lat":"37.902684984","long":"127.05303558","imageIndex":17,"items":[{"name":"더(The)모아","tel":"031-0000-0000","addr":"경기도 동두천시 생연동 688-52번지","indutype":"의류 - 정장","category":"other"},{"name":"청용사진관","tel":"031-865-2235","addr":"경기도 동두천시 생연동 688-52번지","indutype":"광학제품 - 사진관","category":"other"}]},{"lat":"37.904108313","long":"127.05336628","imageIndex":17,"items":[{"name":"더에이인","tel":"031-000-0000","addr":"경기도 동두천시 생연동 665-32번지 나동 102호","indutype":"의류 - 정장","category":"other"},{"name":"동서가구","tel":"031-864-3324","addr":"경기도 동두천시 생연동 665-32번지","indutype":"가구 - 일반가구","category":"other"},{"name":"자루","tel":"031-866-0058","addr":"경기도 동두천시 생연동 665-32번지 나동 102호","indutype":"의류 - 정장","category":"other"}]},{"lat":"37.902938168","long":"127.05081856","imageIndex":17,"items":[{"name":"데코라인가구","tel":"031-863-5006","addr":"경기도 동두천시 생연동 820-4번지","indutype":"가구 - 일반가구","category":"other"}]},{"lat":"37.900441921","long":"127.05243146","imageIndex":17,"items":[{"name":"동대문 의류","tel":"031-000-0000","addr":"경기도 동두천시 생연동 697-4번지","indutype":"의류 - 정장","category":"other"}]},{"lat":"37.903910177","long":"127.05320696","imageIndex":17,"items":[{"name":"동두천 비와이씨(B.Y.C) 생연점","tel":"031-864-2366","addr":"경기도 동두천시 생연동 665-2번지 두드림 희망센터 1층 1호","indutype":"의류 - 내의판매","category":"other"}]},{"lat":"37.909576357","long":"127.0547573","imageIndex":17,"items":[{"name":"동두천 종합가전 재활용센타","tel":"031-865-1472","addr":"경기도 동두천시 생연동 575-13번지 외4필지","indutype":"수리서비스 - 가정용품수리","category":"other"}]},{"lat":"37.906936752","long":"127.05448255","imageIndex":17,"items":[{"name":"동두천 파르보","tel":"031-861-9532","addr":"경기도 동두천시 생연동 608-8번지","indutype":"신변잡화 - 제화","category":"other"}]},{"lat":"37.905855116","long":"127.05565297","imageIndex":17,"items":[{"name":"동두천 할인매장","tel":"031-862-4270","addr":"경기도 동두천시 생연동 597-1번지","indutype":"직물 - 카페트,커튼,천막,지물","category":"other"}]},{"lat":"37.898275387","long":"127.06176433","imageIndex":17,"items":[{"name":"동두천 행복마루 요양원","tel":"031-863-3275","addr":"경기도 동두천시 생연동 383번지 에이스프라자 3층","indutype":"기타의료기관 - 기타의료기관 및 기타","category":"other"},{"name":"비어앤크림생연점","tel":"","addr":"경기도 동두천시 생연동 383번지 에이스프라자 107호","indutype":"유통업 영리 - 편 의 점","category":"other"}]},{"lat":"37.904720848","long":"127.05359411","imageIndex":17,"items":[{"name":"동두천DB","tel":"031-864-0539","addr":"경기도 동두천시 생연동 658-3번지","indutype":"의류 - 정장","category":"other"}]},{"lat":"37.908827054","long":"127.05812262","imageIndex":17,"items":[{"name":"동두천MTB","tel":"031-865-5143","addr":"경기도 동두천시 생연동 490-8번지","indutype":"레져용품 - 스포츠·레져용품","category":"other"}]},{"lat":"37.900415149","long":"127.05181747","imageIndex":17,"items":[{"name":"동두천그룻총판","tel":"031-862-0982","addr":"경기도 동두천시 생연동 698-3번지","indutype":"주방용구 - 주방용식기","category":"other"}]},{"lat":"37.908962516","long":"127.05742908","imageIndex":17,"items":[{"name":"동두천만물사","tel":"031-865-6284","addr":"경기도 동두천시 생연동 551-47번지","indutype":"신변잡화 - 신발","category":"other"}]},{"lat":"37.908413373","long":"127.05650762","imageIndex":17,"items":[{"name":"동두천송지로타리클럽","tel":"031-865-4121","addr":"경기도 동두천시 생연동 620-7번지 임마누엘빌딩 2층","indutype":"기타 - 비영리/비대상","category":"other"},{"name":"삼보컴퓨터","tel":"031-866-3535","addr":"경기도 동두천시 생연동 620-7번지","indutype":"사무통신 - 컴퓨터","category":"other"}]},{"lat":"37.909962124","long":"127.05833952","imageIndex":17,"items":[{"name":"동두천신발세탁빨래방","tel":"031-861-1190","addr":"경기도 동두천시 생연동 494-12번지","indutype":"수리서비스 - 세탁소","category":"other"}]},{"lat":"37.902713028","long":"127.05059102","imageIndex":17,"items":[{"name":"동두천신천무도학원","tel":"031-868-0386","addr":"경기도 동두천시 생연동 819-17 지층","indutype":"회원제형태 - 레져업소","category":"other"}]},{"lat":"37.907774497","long":"127.05475604","imageIndex":17,"items":[{"name":"동두천아디다스","tel":"031-862-9438","addr":"경기도 동두천시 생연동 612-21번지","indutype":"신변잡화 - 신발","category":"other"}]},{"lat":"37.904271148","long":"127.05178591","imageIndex":17,"items":[{"name":"동두천재활용","tel":"031-863-5554","addr":"경기도 동두천시 생연동 823-86번지 1층 1호","indutype":"전기제품 - 가전제품","category":"other"}]},{"lat":"37.909909367","long":"127.05550804","imageIndex":17,"items":[{"name":"동두천중고백화점","tel":"031-868-5463","addr":"경기도 동두천시 생연동 556-4번지","indutype":"전기제품 - 가전제품","category":"other"}]},{"lat":"37.903081189","long":"127.05351339","imageIndex":17,"items":[{"name":"동두천천막사","tel":"031-865-7348","addr":"경기도 동두천시 생연동 669-13번지","indutype":"직물 - 카페트,커튼,천막,지물","category":"other"}]},{"lat":"37.910053266","long":"127.05606533","imageIndex":17,"items":[{"name":"동두천케이블(케이블시스템)","tel":"031-865-3267","addr":"경기도 동두천시 생연동 557-12번지","indutype":"용역 서비스 - CATV","category":"other"}]},{"lat":"37.900665099","long":"127.05709323","imageIndex":17,"items":[{"name":"동두천큰공인중개사","tel":"031-862-8345","addr":"경기도 동두천시 생연동 725-3","indutype":"용역 서비스 - 부동산 중개·임대","category":"other"}]},{"lat":"37.907297064","long":"127.05461925","imageIndex":17,"items":[{"name":"동두천해피랜드","tel":"031-865-6615","addr":"경기도 동두천시 생연동 612-18번지","indutype":"의류 - 아동의류","category":"other"},{"name":"라젤로동두천점","tel":"031-862-1274","addr":"경기도 동두천시 생연동 612-18번지","indutype":"의류 - 기타의류","category":"other"}]},{"lat":"37.911963573","long":"127.05531619","imageIndex":17,"items":[{"name":"동두천환경","tel":"031-862-6216","addr":"경기도 동두천시 생연동 570-29번지","indutype":"용역 서비스 - 종합용역","category":"other"}]},{"lat":"37.907162844","long":"127.05248144","imageIndex":17,"items":[{"name":"동북자전거","tel":"031-865-5507","addr":"경기도 동두천시 생연동 589-41번지","indutype":"레져용품 - 스포츠·레져용품","category":"other"}]},{"lat":"37.909546653","long":"127.06051111","imageIndex":17,"items":[{"name":"동성액자","tel":"031-865-6737","addr":"경기도 동두천시 생연동 516-13번지","indutype":"문화.취미 - 화방·표구점","category":"other"}]},{"lat":"37.9022701","long":"127.05409271","imageIndex":17,"items":[{"name":"동성화원","tel":"031-865-5300","addr":"경기도 동두천시 생연동 676-5번지","indutype":"문화.취미 - 화원","category":"other"}]},{"lat":"37.902775077","long":"127.05303564","imageIndex":17,"items":[{"name":"동신전기","tel":"031-865-2047","addr":"경기도 동두천시 생연동 687-10번지","indutype":"건축자재 - 조명기구","category":"other"}]},{"lat":"37.911079367","long":"127.05814704","imageIndex":17,"items":[{"name":"동아샷시","tel":"031-865-5487","addr":"경기도 동두천시 생연동 504-17번지","indutype":"건축자재 - 보일러·펌프·샷시","category":"other"}]},{"lat":"37.90552337","long":"127.0519573","imageIndex":17,"items":[{"name":"동아유리","tel":"031-865-2031","addr":"경기도 동두천시 생연동 589-77번지","indutype":"건축자재 - 유리","category":"other"}]},{"lat":"37.912881279","long":"127.05803467","imageIndex":17,"items":[{"name":"동아지물","tel":"031-867-0780","addr":"경기도 동두천시 생연동 536-1번지","indutype":"의류 - 정장","category":"other"}]},{"lat":"37.909684443","long":"127.05481424","imageIndex":17,"items":[{"name":"동양문구도매센타","tel":"031-865-2669","addr":"경기도 동두천시 생연동 575-11번지","indutype":"서적문구 - 문구용품","category":"other"}]},{"lat":"37.901936682","long":"127.05426303","imageIndex":17,"items":[{"name":"동양알미늄","tel":"031-862-2260","addr":"경기도 동두천시 생연동 677-3","indutype":"용역 서비스 - 기타용역서비스","category":"other"}]},{"lat":"37.904577069","long":"127.05272986","imageIndex":17,"items":[{"name":"동영전자","tel":"031-862-9575","addr":"경기도 동두천시 생연동 660-7번지","indutype":"수리서비스 - 가정용품수리","category":"other"}]},{"lat":"37.903665084","long":"127.05734558","imageIndex":17,"items":[{"name":"동원상사","tel":"031-864-5566","addr":"경기도 동두천시 생연동 631-16번지","indutype":"건축자재 - 건축용 요업제품","category":"other"}]},{"lat":"37.898963816","long":"127.05378344","imageIndex":17,"items":[{"name":"동원조명전기","tel":"031-864-0522","addr":"경기도 동두천시 생연동 713-2번지","indutype":"건축자재 - 조명기구","category":"other"},{"name":"명성전기조명","tel":"031-861-6194","addr":"경기도 동두천시 생연동 713-2번지","indutype":"전기제품 - 기타전기제품","category":"other"}]},{"lat":"37.902943396","long":"127.0593462","imageIndex":17,"items":[{"name":"동일측량설계사무소","tel":"031-867-7550","addr":"경기도 동두천시 생연동 440-4번지","indutype":"용역 서비스 - 사무서비스","category":"other"}]},{"lat":"37.909079357","long":"127.05803184","imageIndex":17,"items":[{"name":"동파텔레콤","tel":"031-862-4010","addr":"경기도 동두천시 생연동 491-21번지 1층","indutype":"사무통신 - 통신기기","category":"other"}]},{"lat":"37.899802364","long":"127.05218089","imageIndex":17,"items":[{"name":"두드림구제아울렛","tel":"03-100-0000","addr":"경기도 동두천시 생연동 698-11번지 1층","indutype":"의류 - 기타의류","category":"other"}]},{"lat":"37.902414348","long":"127.05386541","imageIndex":17,"items":[{"name":"두드림방문요양센터","tel":"031-863-0604","addr":"경기도 동두천시 생연동 670-25","indutype":"기타의료기관 - 기타의료기관 및 기타","category":"other"}]},{"lat":"37.901494825","long":"127.05517232","imageIndex":17,"items":[{"name":"두손광고","tel":"031-865-3490","addr":"경기도 동두천시 생연동 684-15번지","indutype":"건축자재 - 인테리어전문","category":"other"}]},{"lat":"37.906270292","long":"127.05395903","imageIndex":17,"items":[{"name":"둥구나무","tel":"031-863-8959","addr":"경기도 동두천시 생연동 602-12번지","indutype":"의류 - 정장","category":"other"}]},{"lat":"37.902880914","long":"127.05811817","imageIndex":17,"items":[{"name":"드림광고월드","tel":"031-865-9977","addr":"경기도 동두천시 생연동 427-7번지 1층","indutype":"신변잡화 - 기념품점","category":"other"},{"name":"사단법인동두천시광고협회","tel":"031-861-0575","addr":"경기도 동두천시 생연동 427-7번지 2층","indutype":"용역 서비스 - 종합용역","category":"other"}]},{"lat":"37.913440663","long":"127.05628384","imageIndex":17,"items":[{"name":"드미야 (deMiya co.)","tel":"070-8758-6603","addr":"경기도 동두천시 생연동 541-41번지 1층 2호","indutype":"문화.취미 - 문화취미기타","category":"other"}]},{"lat":"37.902881147","long":"127.05761789","imageIndex":17,"items":[{"name":"들꽃집","tel":"","addr":"경기도 동두천시 생연동 445-29번지","indutype":"문화.취미 - 화원","category":"other"}]},{"lat":"37.903881869","long":"127.05611775","imageIndex":17,"items":[{"name":"디자인플러스","tel":"031-865-6154","addr":"경기도 동두천시 생연동 641-16번지","indutype":"건축자재 - 인테리어전문","category":"other"}]},{"lat":"37.90385441","long":"127.05706146","imageIndex":17,"items":[{"name":"디자인헌터","tel":"070-8238-7389","addr":"경기도 동두천시 생연동 631-12번지 201호","indutype":"건축자재 - 인테리어전문","category":"other"},{"name":"중앙 만물상","tel":"031-868-7918","addr":"경기도 동두천시 생연동 631-12번지","indutype":"건축자재 - 목재·석재·철물","category":"other"}]},{"lat":"37.90116524","long":"127.0658939","imageIndex":17,"items":[{"name":"또각또각","tel":"031-535-0825","addr":"경기도 동두천시 생연동 268-11번지","indutype":"의류 - 아동의류","category":"other"},{"name":"브람스","tel":"031-861-5235","addr":"경기도 동두천시 생연동 268-11번지","indutype":"의류 - 정장","category":"other"},{"name":"장군건축설비","tel":"031-863-0588","addr":"경기도 동두천시 생연동 268-11번지","indutype":"용역 서비스 - 기타용역서비스","category":"other"}]},{"lat":"37.911080748","long":"127.05512225","imageIndex":17,"items":[{"name":"라레스가구","tel":"031-863-9773","addr":"경기도 동두천시 생연동 560-11번지","indutype":"가구 - 일반가구","category":"other"}]},{"lat":"37.906018271","long":"127.0534017","imageIndex":17,"items":[{"name":"란.미.향","tel":"031-861-5777","addr":"경기도 동두천시 생연동 592-1번지","indutype":"문화.취미 - 화원","category":"other"}]},{"lat":"37.89946744","long":"127.05581896","imageIndex":17,"items":[{"name":"로빈스가구","tel":"031-867-3783","addr":"경기도 동두천시 생연동 711번지","indutype":"가구 - 일반가구","category":"other"}]},{"lat":"37.906685057","long":"127.05317474","imageIndex":17,"items":[{"name":"롯데신발","tel":"031-867-3406","addr":"경기도 동두천시 생연동 607-5번지","indutype":"신변잡화 - 신발","category":"other"}]},{"lat":"37.907017994","long":"127.05411874","imageIndex":17,"items":[{"name":"롯데의류타운","tel":"031-865-6011","addr":"경기도 동두천시 생연동 607-9","indutype":"의류 - 기타의류","category":"other"}]},{"lat":"37.903018304","long":"127.05309265","imageIndex":17,"items":[{"name":"루나패션","tel":"031-863-1183","addr":"경기도 동두천시 생연동 668-9번지","indutype":"의류 - 정장","category":"other"},{"name":"세진문구사","tel":"031-858-4244","addr":"경기도 동두천시 생연동 668-9번지","indutype":"서적문구 - 문구용품","category":"other"}]},{"lat":"37.89960287","long":"127.05517098","imageIndex":17,"items":[{"name":"리본윤아맘'S","tel":"031-841-5678","addr":"경기도 동두천시 생연동 704번지 국민주택 5동 102호","indutype":"신변잡화 - 액세서리","category":"other"},{"name":"피아노조율쎈타","tel":"031-864-4369","addr":"경기도 동두천시 생연동 704번지 국민연립주택 5동 304호","indutype":"레져용품 - 악기점","category":"other"}]},{"lat":"37.900276815","long":"127.05898033","imageIndex":17,"items":[{"name":"리빙박스","tel":"031-867-2222","addr":"경기도 동두천시 생연동 413-2번지","indutype":"주방용구 - 주방용구","category":"other"}]},{"lat":"37.899630885","long":"127.05289707","imageIndex":17,"items":[{"name":"리치랜드","tel":"031-868-8440","addr":"경기도 동두천시 생연동 695-23번지","indutype":"직물 - 침구·수예점","category":"other"},{"name":"모바일샵 동두천점","tel":"031-657-8801","addr":"경기도 동두천시 생연동 695-23번지 1동 1,2층4호","indutype":"사무통신 - 통신기기","category":"other"}]},{"lat":"37.896131141","long":"127.06181947","imageIndex":17,"items":[{"name":"리치플라워","tel":"","addr":"경기도 동두천시 생연동 353-5번지 1층 4호","indutype":"문화.취미 - 화원","category":"other"},{"name":"밀리터리짱","tel":"031-859-0202","addr":"경기도 동두천시 생연동 353-5번지","indutype":"의류 - 기타의류","category":"other"}]},{"lat":"37.903441082","long":"127.05461655","imageIndex":17,"items":[{"name":"마들샵","tel":"031-863-6341","addr":"경기도 동두천시 생연동 672-6번지","indutype":"신변잡화 - 기타잡화","category":"other"}]},{"lat":"37.913936236","long":"127.05614773","imageIndex":17,"items":[{"name":"말밥 (MAL13013)","tel":"","addr":"경기도 동두천시 생연동 542-7번지","indutype":"문화.취미 - 민예·공예품","category":"other"},{"name":"쇼티샵","tel":"031-861-0021","addr":"경기도 동두천시 생연동 542-7번지","indutype":"의류 - 정장","category":"other"},{"name":"엘레강스양품점","tel":"031-862-8646","addr":"경기도 동두천시 생연동 542-7번지 뒤쪽 1층","indutype":"의류 - 기타의류","category":"other"}]},{"lat":"37.901747728","long":"127.05370577","imageIndex":17,"items":[{"name":"매화신궁","tel":"031-861-0021","addr":"경기도 동두천시 생연동 686-25번지","indutype":"기타 - 비영리/대상","category":"other"}]},{"lat":"37.900575809","long":"127.05531948","imageIndex":17,"items":[{"name":"멀티피씨","tel":"031-864-0082","addr":"경기도 동두천시 생연동 707-9번지","indutype":"사무통신 - 컴퓨터","category":"other"}]},{"lat":"37.904352184","long":"127.05189967","imageIndex":17,"items":[{"name":"메이드제이","tel":"031-858-8510","addr":"경기도 동두천시 생연동 823-46번지","indutype":"의류 - 정장","category":"other"},{"name":"초코파이","tel":"031-864-1201","addr":"경기도 동두천시 생연동 823-46번지","indutype":"의류 - 기타의류","category":"other"}]},{"lat":"37.901441675","long":"127.05309158","imageIndex":17,"items":[{"name":"멜로우","tel":"031-858-1412","addr":"경기도 동두천시 생연동 688-18번지","indutype":"의류 - 정장","category":"other"},{"name":"유성지물포","tel":"031-864-1804","addr":"경기도 동두천시 생연동 688-18번지","indutype":"직물 - 카페트,커튼,천막,지물","category":"other"}]},{"lat":"37.908745866","long":"127.07497448","imageIndex":17,"items":[{"name":"명동의류(동)","tel":"031-857-0433","addr":"경기도 동두천시 생연동 1,21층","indutype":"의류 - 기타의류","category":"other"}]},{"lat":"37.910044765","long":"127.0549282","imageIndex":17,"items":[{"name":"명성불교사","tel":"031-862-2792","addr":"경기도 동두천시 생연동 555-2번지","indutype":"신변잡화 - 기타잡화","category":"other"}]},{"lat":"37.90757466","long":"127.05833773","imageIndex":17,"items":[{"name":"명성전기펌프모타건설","tel":"031-862-6500","addr":"경기도 동두천시 생연동 479-20번지","indutype":"수리서비스 - 기타수리서비스","category":"other"}]},{"lat":"37.903109639","long":"127.05009098","imageIndex":17,"items":[{"name":"명성정밀","tel":"031-865-8140","addr":"경기도 동두천시 생연동 819-52번지","indutype":"수리서비스 - 기타수리서비스","category":"other"}]},{"lat":"37.900358071","long":"127.05861656","imageIndex":17,"items":[{"name":"명진불교전시장","tel":"031-861-5284","addr":"경기도 동두천시 생연동 421-9번지 외1필지 양지상재 2호","indutype":"신변잡화 - 기념품점","category":"other"}]},{"lat":"37.909268536","long":"127.05806609","imageIndex":17,"items":[{"name":"모모스기빙","tel":"070-4643-0448","addr":"경기도 동두천시 생연동 491-17번지","indutype":"신변잡화 - 가방","category":"other"}]},{"lat":"37.906909883","long":"127.05411867","imageIndex":17,"items":[{"name":"모모옷장","tel":"031-858-3526","addr":"경기도 동두천시 생연동 607-10번지 107호","indutype":"의류 - 아동의류","category":"other"}]},{"lat":"37.901828325","long":"127.05482009","imageIndex":17,"items":[{"name":"모이 여행사","tel":"031-858-7739","addr":"경기도 동두천시 생연동 684-23번지","indutype":"여행 - 관광여행","category":"other"},{"name":"해시모바일","tel":"","addr":"경기도 동두천시 생연동 684-23번지 102호","indutype":"사무통신 - 통신기기","category":"other"}]},{"lat":"37.908657197","long":"127.05523424","imageIndex":17,"items":[{"name":"무료입장","tel":"031-868-5825","addr":"경기도 동두천시 생연동 613-8번지","indutype":"레져용품 - 스포츠·레져용품","category":"other"}]},{"lat":"37.898439361","long":"127.05803527","imageIndex":17,"items":[{"name":"무지개홈패션","tel":"031-861-0066","addr":"경기도 동두천시 생연동 367-6번지","indutype":"직물 - 침구·수예점","category":"other"}]},{"lat":"37.897385281","long":"127.05801174","imageIndex":17,"items":[{"name":"미니스톱 동두천제일점","tel":"031-1577-9621","addr":"경기도 동두천시 생연동 361-26번지","indutype":"유통업 영리 - 편 의 점","category":"other"}]},{"lat":"37.907216401","long":"127.05365268","imageIndex":17,"items":[{"name":"미라침구","tel":"031-864-3040","addr":"경기도 동두천시 생연동 609-14번지","indutype":"직물 - 침구·수예점","category":"other"}]},{"lat":"37.898498967","long":"127.06498207","imageIndex":17,"items":[{"name":"미래건업","tel":"031-867-0489","addr":"경기도 동두천시 생연동 831번지 휴먼시아 305동 604호","indutype":"회원제형태 - 기타4","category":"other"}]},{"lat":"37.905604009","long":"127.05301482","imageIndex":17,"items":[{"name":"미래광고","tel":"031-866-1118","addr":"경기도 동두천시 생연동 659-1번지 스타빌딩 1층","indutype":"용역 서비스 - 종합용역","category":"other"}]},{"lat":"37.912746973","long":"127.05622648","imageIndex":17,"items":[{"name":"미래재활용(유통)","tel":"031-857-7782","addr":"경기도 동두천시 생연동 567-61번지 1층","indutype":"전기제품 - 가전제품","category":"other"}]},{"lat":"37.893745153","long":"127.07531228","imageIndex":17,"items":[{"name":"미래중기건설","tel":"031-868-0488","addr":"경기도 동두천시 생연동 13-1","indutype":"건축자재 - 기타건축자재","category":"other"}]},{"lat":"37.906713002","long":"127.0509802","imageIndex":17,"items":[{"name":"미소들요양원","tel":"031-863-9119","addr":"경기도 동두천시 생연동 826-11번지","indutype":"기타의료기관 - 기타의료기관 및 기타","category":"other"}]},{"lat":"37.903965085","long":"127.05117171","imageIndex":17,"items":[{"name":"미소재활용","tel":"031-827-1467","addr":"경기도 동두천시 생연동 824-3번지","indutype":"전기제품 - 가전제품","category":"other"}]},{"lat":"37.908853937","long":"127.05842966","imageIndex":17,"items":[{"name":"미소철물","tel":"031-868-3465","addr":"경기도 동두천시 생연동 476-7번지","indutype":"건축자재 - 목재·석재·철물","category":"other"}]},{"lat":"37.914188372","long":"127.05642084","imageIndex":17,"items":[{"name":"미키콜렉션","tel":"031-863-9508","addr":"경기도 동두천시 생연동 541-4번지","indutype":"의류 - 정장","category":"other"}]},{"lat":"37.90521635","long":"127.05361719","imageIndex":17,"items":[{"name":"바른손","tel":"031-866-1090","addr":"경기도 동두천시 생연동 593-6번지","indutype":"서적문구 - 문구용품","category":"other"}]},{"lat":"37.902108149","long":"127.05359232","imageIndex":17,"items":[{"name":"바이더웨이-동두천제일점","tel":"031-868-1210","addr":"경기도 동두천시 생연동 686-17번지","indutype":"유통업 영리 - 편 의 점","category":"other"}]},{"lat":"37.902218484","long":"127.0674525","imageIndex":17,"items":[{"name":"바이더웨이동두천생연점","tel":"","addr":"경기도 동두천시 생연동 254-3번지","indutype":"유통업 영리 - 편 의 점","category":"other"},{"name":"세븐일레븐동두천생연점","tel":"","addr":"경기도 동두천시 생연동 254-3","indutype":"유통업 영리 - 편 의 점","category":"other"}]},{"lat":"37.906468486","long":"127.05398191","imageIndex":17,"items":[{"name":"바이어텐션","tel":"070-8952-0412","addr":"경기도 동두천시 생연동 602-9번지","indutype":"의류 - 정장","category":"other"}]},{"lat":"37.904467525","long":"127.05600446","imageIndex":17,"items":[{"name":"바이오테크-케미칼","tel":"031-859-9250","addr":"경기도 동두천시 생연동 642 (2호)","indutype":"용역 서비스 - 종합용역","category":"other"}]},{"lat":"37.90693697","long":"127.05398224","imageIndex":17,"items":[{"name":"반도","tel":"031-861-2020","addr":"경기도 동두천시 생연동 607-24번지 1층","indutype":"의류 - 정장","category":"other"}]},{"lat":"37.901826989","long":"127.05776492","imageIndex":17,"items":[{"name":"배달쟁이&아이비광고","tel":"031-861-8585","addr":"경기도 동두천시 생연동 444-29번지 1,2층","indutype":"용역 서비스 - 종합용역","category":"other"},{"name":"아이뽀","tel":"","addr":"경기도 동두천시 생연동 444-29번지","indutype":"의류 - 아동의류","category":"other"}]},{"lat":"37.903439491","long":"127.05811859","imageIndex":17,"items":[{"name":"배드민턴백화점","tel":"031-862-1114","addr":"경기도 동두천시 생연동 442-4번지 1층","indutype":"레져용품 - 스포츠·레져용품","category":"other"}]},{"lat":"37.904692768","long":"127.05598188","imageIndex":17,"items":[{"name":"법무사김창균사무소","tel":"031-866-7440","addr":"경기도 동두천시 생연동 643-11번지","indutype":"용역 서비스 - 법률회계서비스(개인)","category":"other"}]},{"lat":"37.898106313","long":"127.05739833","imageIndex":17,"items":[{"name":"베드 독","tel":"031-868-6008","addr":"경기도 동두천시 생연동 743-6번지 102호","indutype":"문화.취미 - 애완동물","category":"other"}]},{"lat":"37.906990942","long":"127.05417558","imageIndex":17,"items":[{"name":"베스트","tel":"031-862-9754","addr":"경기도 동두천시 생연동 606-3번지","indutype":"레져용품 - 스포츠·레져용품","category":"other"}]},{"lat":"37.90449583","long":"127.05309366","imageIndex":17,"items":[{"name":"베스트올 생연점","tel":"070-4212-3277","addr":"경기도 동두천시 생연동 665-12번지","indutype":"유통업 영리 - 편 의 점","category":"other"}]},{"lat":"37.898772432","long":"127.05861536","imageIndex":17,"items":[{"name":"베스트올 편의점","tel":"031-866-2975","addr":"경기도 동두천시 생연동 369-7번지 1층 2호","indutype":"유통업 영리 - 편 의 점","category":"other"}]},{"lat":"37.905496484","long":"127.05161616","imageIndex":17,"items":[{"name":"베스트편의점","tel":"031-864-3633","addr":"경기도 동두천시 생연동 825-8번지","indutype":"유통업 영리 - 편 의 점","category":"other"}]},{"lat":"37.901052051","long":"127.05805996","imageIndex":17,"items":[{"name":"벧엘광고","tel":"031-862-4262","addr":"경기도 동두천시 생연동 424-13번지","indutype":"용역 서비스 - 종합용역","category":"other"}]},{"lat":"37.90935785","long":"127.05970361","imageIndex":17,"items":[{"name":"벼룩시장","tel":"031-866-3803","addr":"경기도 동두천시 생연동 498-10번지","indutype":"의류 - 기타의류","category":"other"}]},{"lat":"37.912827494","long":"127.05745468","imageIndex":17,"items":[{"name":"보산지물","tel":"031-865-8023","addr":"경기도 동두천시 생연동 538-8번지","indutype":"직물 - 카페트,커튼,천막,지물","category":"other"}]},{"lat":"37.904189383","long":"127.05340045","imageIndex":17,"items":[{"name":"복순이 구제의류","tel":"070-4176-9931","addr":"경기도 동두천시 생연동 665-8번지 1층","indutype":"의류 - 정장","category":"other"},{"name":"성원스킨케어","tel":"031-866-8298","addr":"경기도 동두천시 생연동 665-8번지 2층","indutype":"회원제형태 - 기타4","category":"other"},{"name":"송월타월","tel":"031-865-8849","addr":"경기도 동두천시 생연동 665-8번지","indutype":"직물 - 옷감·직물","category":"other"}]},{"lat":"37.905297068","long":"127.05445867","imageIndex":17,"items":[{"name":"본가라보종합매장","tel":"031-863-3172","addr":"경기도 동두천시 생연동 594-1번지","indutype":"의류 - 내의판매","category":"other"}]},{"lat":"37.909378152","long":"127.05475716","imageIndex":17,"items":[{"name":"부동산카페공인중개사 사무소","tel":"031-867-6700","addr":"경기도 동두천시 생연동 611-94번지 95,96","indutype":"용역 서비스 - 부동산 중개·임대","category":"other"}]},{"lat":"37.908045149","long":"127.05390341","imageIndex":17,"items":[{"name":"부흥그릇총판","tel":"031-862-1684","addr":"경기도 동두천시 생연동 609-3번지","indutype":"주방용구 - 주방용식기","category":"other"}]},{"lat":"37.903631407","long":"127.05197878","imageIndex":17,"items":[{"name":"부흥사","tel":"031-862-9737","addr":"경기도 동두천시 생연동 661-27번지","indutype":"의류 - 정장","category":"other"}]},{"lat":"37.908630245","long":"127.05506366","imageIndex":17,"items":[{"name":"불티나","tel":"031-865-8757","addr":"경기도 동두천시 생연동 611-77번지","indutype":"레져용품 - 스포츠·레져용품","category":"other"}]},{"lat":"37.899743435","long":"127.06269781","imageIndex":17,"items":[{"name":"불현칠공사","tel":"031-863-2288","addr":"경기도 동두천시 생연동 398-1번지","indutype":"건축자재 - 페인트","category":"other"}]},{"lat":"37.913188211","long":"127.05670441","imageIndex":17,"items":[{"name":"브이원시큐리티","tel":"031-824-5119","addr":"경기도 동두천시 생연동 567-1번지","indutype":"용역 서비스 - 기타용역서비스","category":"other"},{"name":"비해피","tel":"031-861-0833","addr":"경기도 동두천시 생연동 567-1","indutype":"의류 - 내의판매","category":"other"},{"name":"신일기계","tel":"031-534-7903","addr":"경기도 동두천시 생연동 567-1번지","indutype":"기타 - 기계공구","category":"other"},{"name":"주식회사비케이트레딩 (B.K.TRADING CO.LTD","tel":"031-859-4516","addr":"경기도 동두천시 생연동 567-1번지","indutype":"용역 서비스 - 사무서비스","category":"other"}]},{"lat":"37.902802617","long":"127.05181905","imageIndex":17,"items":[{"name":"블랙앤화이트","tel":"031-111-1111","addr":"경기도 동두천시 생연동 662-3번지","indutype":"의류 - 기타의류","category":"other"}]},{"lat":"37.912268347","long":"127.05867103","imageIndex":17,"items":[{"name":"블루엣(bluet)","tel":"031-111-1111","addr":"경기도 동두천시 생연동 510-13번지 2층","indutype":"신변잡화 - 가방","category":"other"}]},{"lat":"37.906576573","long":"127.05403884","imageIndex":17,"items":[{"name":"블루힐","tel":"070-8756-9079","addr":"경기도 동두천시 생연동 605-5번지 1층","indutype":"의류 - 정장","category":"other"}]},{"lat":"37.900629255","long":"127.05667252","imageIndex":17,"items":[{"name":"비전지물","tel":"031-861-8338","addr":"경기도 동두천시 생연동 725-8번지","indutype":"직물 - 카페트,커튼,천막,지물","category":"other"}]},{"lat":"37.904081929","long":"127.05184264","imageIndex":17,"items":[{"name":"빅마마","tel":"031-862-4751","addr":"경기도 동두천시 생연동 823-93번지","indutype":"의류 - 정장","category":"other"}]},{"lat":"37.907018172","long":"127.05370939","imageIndex":17,"items":[{"name":"빙고","tel":"031-858-3526","addr":"경기도 동두천시 생연동 607-14번지 중앙쇼핑센터","indutype":"의류 - 정장","category":"other"},{"name":"신라주단","tel":"031-862-6063","addr":"경기도 동두천시 생연동 607-14번지","indutype":"의류 - 맞춤복점","category":"other"},{"name":"오즈","tel":"031-864-6880","addr":"경기도 동두천시 생연동 607-14번지","indutype":"신변잡화 - 기타잡화","category":"other"}]},{"lat":"37.913467788","long":"127.05606779","imageIndex":17,"items":[{"name":"삔 (BBIN)","tel":"031-000-0000","addr":"경기도 동두천시 생연동 542-20번지","indutype":"신변잡화 - 액세서리","category":"other"}]},{"lat":"37.904216988","long":"127.05203602","imageIndex":17,"items":[{"name":"산내음화원","tel":"031-865-2312","addr":"경기도 동두천시 생연동 661-17번지","indutype":"문화.취미 - 화원","category":"other"}]},{"lat":"37.899249283","long":"127.05995734","imageIndex":17,"items":[{"name":"산호인테리어","tel":"031-876-7654","addr":"경기도 동두천시 생연동 378번지","indutype":"건축자재 - 인테리어전문","category":"other"}]},{"lat":"37.900495182","long":"127.05428477","imageIndex":17,"items":[{"name":"삼도기획","tel":"031-858-7767","addr":"경기도 동두천시 생연동 683-35번지","indutype":"건축자재 - 인테리어전문","category":"other"},{"name":"삼화특수도료","tel":"031-863-9604","addr":"경기도 동두천시 생연동 683-35번지","indutype":"건축자재 - 페인트","category":"other"}]},{"lat":"37.903357852","long":"127.05928966","imageIndex":17,"items":[{"name":"삼둥이네판촉물","tel":"031-868-7563","addr":"경기도 동두천시 생연동 440-3번지 신궁전맨션 3동 302호","indutype":"유통업 영리 - 기타유통업","category":"other"}]},{"lat":"37.898909975","long":"127.05328315","imageIndex":17,"items":[{"name":"삼성스마트프라자","tel":"031-865-1315","addr":"경기도 동두천시 생연동 713-5번지","indutype":"건축자재 - 목재·석재·철물","category":"other"},{"name":"생연열쇠,동양하수공사","tel":"031-868-1133","addr":"경기도 동두천시 생연동 713-5번지","indutype":"건축자재 - 목재·석재·철물","category":"other"},{"name":"영광종합상사","tel":"031-865-7003","addr":"경기도 동두천시 생연동 713-5번지","indutype":"건축자재 - 목재·석재·철물","category":"other"}]},{"lat":"37.908379018","long":"127.05267557","imageIndex":17,"items":[{"name":"삼성전자경기판매장","tel":"031-862-4050","addr":"경기도 동두천시 생연동 585-145번지","indutype":"전기제품 - 가전제품","category":"other"}]},{"lat":"37.908740048","long":"127.05109523","imageIndex":17,"items":[{"name":"삼우 인테리어","tel":"031-864-8336","addr":"경기도 동두천시 생연동 830-53번지","indutype":"건축자재 - 인테리어전문","category":"other"}]},{"lat":"37.901547563","long":"127.05806033","imageIndex":17,"items":[{"name":"삼원앵글","tel":"031-865-8433","addr":"경기도 동두천시 생연동 426-22번지","indutype":"건축자재 - 목재·석재·철물","category":"other"}]},{"lat":"37.900161121","long":"127.05589904","imageIndex":17,"items":[{"name":"삼육가설재","tel":"031-868-3636","addr":"경기도 동두천시 생연동 709-2번지","indutype":"건축자재 - 기타건축자재","category":"other"}]},{"lat":"37.896189686","long":"127.05204206","imageIndex":17,"items":[{"name":"삼천리자전거지행점","tel":"031-863-3336","addr":"경기도 동두천시 생연동 714-12번지 은혜빌딩 101호","indutype":"레져용품 - 스포츠·레져용품","category":"other"}]},{"lat":"37.903073556","long":"127.05020466","imageIndex":17,"items":[{"name":"삼화상사","tel":"031-862-7704","addr":"경기도 동두천시 생연동 819-10번지","indutype":"건축자재 - 페인트","category":"other"}]},{"lat":"37.911017501","long":"127.05553157","imageIndex":17,"items":[{"name":"새로미재활용","tel":"02-904-9010","addr":"경기도 동두천시 생연동 559-18번지","indutype":"전기제품 - 가전제품","category":"other"}]},{"lat":"37.906548833","long":"127.05565347","imageIndex":17,"items":[{"name":"새롬이옷수선","tel":"031-859-8582","addr":"경기도 동두천시 생연동 613-102번지 보배중앙빌라 1층 2호","indutype":"수리서비스 - 세탁소","category":"other"},{"name":"세븐일레븐동두천중앙로점","tel":"","addr":"경기도 동두천시 생연동 613-102번지 보배중앙빌라 101호","indutype":"유통업 영리 - 편 의 점","category":"other"}]},{"lat":"37.900415267","long":"127.05153322","imageIndex":17,"items":[{"name":"서울고무상회","tel":"031-865-2070","addr":"경기도 동두천시 생연동 698-10번지","indutype":"신변잡화 - 신발","category":"other"}]},{"lat":"37.909603224","long":"127.0551212","imageIndex":17,"items":[{"name":"서울공구","tel":"031-863-3624","addr":"경기도 동두천시 생연동 553-23번지","indutype":"기타 - 기계공구","category":"other"}]},{"lat":"37.902601572","long":"127.05823167","imageIndex":17,"items":[{"name":"서울목재건재상사","tel":"031-865-4866","addr":"경기도 동두천시 생연동 427-35번지","indutype":"건축자재 - 건축용 요업제품","category":"other"}]},{"lat":"37.90057635","long":"127.05409154","imageIndex":17,"items":[{"name":"서울문구/이담OA","tel":"031-865-7365","addr":"경기도 동두천시 생연동 686-52번지","indutype":"사무통신 - 기타 사무용품","category":"other"}]},{"lat":"37.900295822","long":"127.05686557","imageIndex":17,"items":[{"name":"석경창호건업","tel":"031-865-9828","addr":"경기도 동두천시 생연동 724-13번지","indutype":"용역 서비스 - 기타용역서비스","category":"other"},{"name":"에어윈테크","tel":"031-866-1886","addr":"경기도 동두천시 생연동 724-13번지","indutype":"용역 서비스 - 종합용역","category":"other"},{"name":"청사초롱","tel":"031-868-1443","addr":"경기도 동두천시 생연동 724-13번지","indutype":"의류 - 기타의류","category":"other"}]},{"lat":"37.900520512","long":"127.05803682","imageIndex":17,"items":[{"name":"선물","tel":"031-000-0000","addr":"경기도 동두천시 생연동 420-10번지","indutype":"가구 - 기타가구","category":"other"}]},{"lat":"37.904829875","long":"127.05142243","imageIndex":17,"items":[{"name":"선우기획","tel":"031-861-8592","addr":"경기도 동두천시 생연동 824-8번지","indutype":"서적문구 - 출판 및 인쇄물","category":"other"}]},{"lat":"37.904691768","long":"127.05815364","imageIndex":17,"items":[{"name":"설아화원","tel":"031-861-0877","addr":"경기도 동두천시 생연동 450-47번지","indutype":"문화.취미 - 화원","category":"other"}]},{"lat":"37.907135464","long":"127.0533115","imageIndex":17,"items":[{"name":"성공","tel":"031-857-0881","addr":"경기도 동두천시 생연동 607-18번지","indutype":"신변잡화 - 기타잡화","category":"other"}]},{"lat":"37.903467752","long":"127.05542386","imageIndex":17,"items":[{"name":"성신공업사","tel":"031-865-8013","addr":"경기도 동두천시 생연동 679-2","indutype":"회원제형태 - 기타4","category":"other"}]},{"lat":"37.912350713","long":"127.05589641","imageIndex":17,"items":[{"name":"성지가전재활용","tel":"031-861-0606","addr":"경기도 동두천시 생연동 561-21번지","indutype":"전기제품 - 가전제품","category":"other"}]},{"lat":"37.901603852","long":"127.05306895","imageIndex":17,"items":[{"name":"성지애견","tel":"031-864-1474","addr":"경기도 동두천시 생연동 689-24번지","indutype":"문화.취미 - 애완동물","category":"other"}]},{"lat":"37.902991698","long":"127.05209206","imageIndex":17,"items":[{"name":"성훈사","tel":"031-865-7771","addr":"경기도 동두천시 생연동 662-2번지","indutype":"의류 - 기타의류","category":"other"}]},{"lat":"37.902630996","long":"127.05287636","imageIndex":17,"items":[{"name":"세계물산","tel":"","addr":"경기도 동두천시 생연동 688-4번지 2호","indutype":"의류 - 정장","category":"other"},{"name":"세계물산","tel":"","addr":"경기도 동두천시 생연동 688-4번지 2호","indutype":"의류 - 정장","category":"other"}]},{"lat":"37.906215983","long":"127.0545389","imageIndex":17,"items":[{"name":"세계이동통신","tel":"031-868-1015","addr":"경기도 동두천시 생연동 601-18번지","indutype":"사무통신 - 통신기기","category":"other"}]},{"lat":"37.903118773","long":"127.06861305","imageIndex":17,"items":[{"name":"세림공조시스템","tel":"031-847-5220","addr":"경기도 동두천시 생연동 250번지 현대빌라 가동 202호","indutype":"용역 서비스 - 기타용역서비스","category":"other"}]},{"lat":"37.908657603","long":"127.05431319","imageIndex":17,"items":[{"name":"세븐일레븐 방배동광점","tel":"","addr":"경기도 동두천시 생연동 611-98번지","indutype":"유통업 영리 - 편 의 점","category":"other"},{"name":"세인트폴","tel":"031-824-2228","addr":"경기도 동두천시 생연동 611-98번지 1층","indutype":"의류 - 정장","category":"other"},{"name":"중앙열쇠","tel":"031-863-1255","addr":"경기도 동두천시 생연동 611-98번지","indutype":"기타 - 기계공구","category":"other"},{"name":"중앙열쇠","tel":"031-861-0188","addr":"경기도 동두천시 생연동 611-98번지","indutype":"건축자재 - 목재·석재·철물","category":"other"}]},{"lat":"37.905684203","long":"127.05506158","imageIndex":17,"items":[{"name":"세븐일레븐동두천도심광장점","tel":"","addr":"경기도 동두천시 생연동 596-3번지","indutype":"유통업 영리 - 편 의 점","category":"other"}]},{"lat":"37.905829304","long":"127.05286715","imageIndex":17,"items":[{"name":"세븐일레븐동두천중앙시장점","tel":"031-1577-0711","addr":"경기도 동두천시 생연동 590-15번지 외 2필지","indutype":"유통업 영리 - 편 의 점","category":"other"}]},{"lat":"37.909021516","long":"127.06559358","imageIndex":17,"items":[{"name":"세븐일레븐온천랜드점","tel":"031-1577-0711","addr":"경기도 동두천시 생연동 219-11번지 1층","indutype":"유통업 영리 - 편 의 점","category":"other"}]},{"lat":"37.900387927","long":"127.05228361","imageIndex":17,"items":[{"name":"세종지물","tel":"031-865-0708","addr":"경기도 동두천시 생연동 698-16번지","indutype":"직물 - 카페트,커튼,천막,지물","category":"other"}]},{"lat":"37.900525395","long":"127.06623445","imageIndex":17,"items":[{"name":"세진공조","tel":"","addr":"경기도 동두천시 생연동 268-5번지 조흥아파트 101호","indutype":"전기제품 - 냉열기기","category":"other"}]},{"lat":"37.903052245","long":"127.05778857","imageIndex":17,"items":[{"name":"세화관광여행사","tel":"031-863-0295","addr":"경기도 동두천시 생연동 445-28번지","indutype":"여행 - 관광여행","category":"other"},{"name":"컴샤인","tel":"031-861-0382","addr":"경기도 동두천시 생연동 445-28번지","indutype":"사무통신 - 컴퓨터","category":"other"}]},{"lat":"37.896018523","long":"127.05200783","imageIndex":17,"items":[{"name":"소요산아동도서","tel":"031-864-7474","addr":"경기도 동두천시 생연동 714-13번지 1층","indutype":"서적문구 - 일반서적","category":"other"},{"name":"소요산아동도서","tel":"031-864-7474","addr":"경기도 동두천시 생연동 714-13번지 1층 2동","indutype":"서적문구 - 일반서적","category":"other"},{"name":"이성일세무회계사무소","tel":"031-865-9156","addr":"경기도 동두천시 생연동 714-13번지","indutype":"용역 서비스 - 법률회계서비스(개인)","category":"other"},{"name":"케이텔레콤 (K Telecom)","tel":"031-867-8767","addr":"경기도 동두천시 생연동 714-13번지 1층 5호","indutype":"사무통신 - 통신기기","category":"other"}]},{"lat":"37.8990817","long":"127.05198713","imageIndex":17,"items":[{"name":"송내합기도.검도","tel":"031-859-6667","addr":"경기도 동두천시 생연동 718메인프라자601호","indutype":"회원제형태 - 기타4","category":"other"}]},{"lat":"37.900019322","long":"127.05039599","imageIndex":17,"items":[{"name":"송미화원","tel":"031-862-4467","addr":"경기도 동두천시 생연동 809-7번지","indutype":"문화.취미 - 화원","category":"other"}]},{"lat":"37.913107616","long":"127.05562403","imageIndex":17,"items":[{"name":"송선물의집","tel":"031-862-9882","addr":"경기도 동두천시 생연동 570-109번지","indutype":"신변잡화 - 기타잡화","category":"other"}]},{"lat":"37.902358528","long":"127.05778805","imageIndex":17,"items":[{"name":"송월타월(경기상사)","tel":"031-868-5050","addr":"경기도 동두천시 생연동 444-17번지","indutype":"직물 - 옷감·직물","category":"other"}]},{"lat":"37.908579896","long":"127.06590023","imageIndex":17,"items":[{"name":"송화목재","tel":"031-859-8241","addr":"경기도 동두천시 생연동 218-1번지","indutype":"건축자재 - 목재·석재·철물","category":"other"}]},{"lat":"37.907856433","long":"127.07078911","imageIndex":17,"items":[{"name":"쇼하고있네","tel":"","addr":"경기도 동두천시 생연동 117-9번지 202호","indutype":"문화.취미 - 티켓","category":"other"}]},{"lat":"37.91301761","long":"127.05543065","imageIndex":17,"items":[{"name":"수다(SUDA)","tel":"02-942-5901","addr":"경기도 동두천시 생연동 570-6번지 1층","indutype":"용역 서비스 - 사무서비스","category":"other"},{"name":"프린스양복점","tel":"031-862-7547","addr":"경기도 동두천시 생연동 570-6번지","indutype":"의류 - 맞춤복점","category":"other"},{"name":"행복한 꽃날","tel":"070-4090-1679","addr":"경기도 동두천시 생연동 570-6번지 1동","indutype":"문화.취미 - 문화취미기타","category":"other"}]},{"lat":"37.906187275","long":"127.05823435","imageIndex":17,"items":[{"name":"수빈꽃조경","tel":"031-867-2243","addr":"경기도 동두천시 생연동 450-20번지","indutype":"문화.취미 - 화원","category":"other"}]},{"lat":"37.901109324","long":"127.05070368","imageIndex":17,"items":[{"name":"수성기획","tel":"031-863-9665","addr":"경기도 동두천시 생연동 814-1번지","indutype":"용역 서비스 - 종합용역","category":"other"}]},{"lat":"37.903108065","long":"127.05386589","imageIndex":17,"items":[{"name":"수앤수이온케어","tel":"031-865-4599","addr":"경기도 동두천시 생연동 670-16번지","indutype":"주방용구 - 정수기","category":"other"}]},{"lat":"37.899159568","long":"127.05917277","imageIndex":17,"items":[{"name":"수인테리어","tel":"031-866-4515","addr":"경기도 동두천시 생연동 376-2번지 1층","indutype":"건축자재 - 인테리어전문","category":"other"}]},{"lat":"37.902828977","long":"127.05339952","imageIndex":17,"items":[{"name":"순보당","tel":"031-865-2585","addr":"경기도 동두천시 생연동 669-16번지","indutype":"신변잡화 - 시계","category":"other"}]},{"lat":"37.89802324","long":"127.06153674","imageIndex":17,"items":[{"name":"쉬리세탁소","tel":"031-866-1352","addr":"경기도 동두천시 생연동 359번지","indutype":"수리서비스 - 세탁소","category":"other"},{"name":"우성기업","tel":"032-326-8868","addr":"경기도 동두천시 생연동 359번지 1층 지층","indutype":"수리서비스 - 기타수리서비스","category":"other"}]},{"lat":"37.900746068","long":"127.05734343","imageIndex":17,"items":[{"name":"스마트타일&인테리어","tel":"031-866-5070","addr":"경기도 동두천시 생연동 728-17번지","indutype":"건축자재 - 건축용 요업제품","category":"other"}]},{"lat":"37.906079334","long":"127.05787041","imageIndex":17,"items":[{"name":"스마트학생복","tel":"031-835-2121","addr":"경기도 동두천시 생연동 483-28번지","indutype":"의류 - 맞춤복점","category":"other"},{"name":"헬로꼬망","tel":"070-8778-5589","addr":"경기도 동두천시 생연동 483-28번지 영광빌 4층","indutype":"의류 - 아동의류","category":"other"}]},{"lat":"37.90557485","long":"127.05779044","imageIndex":17,"items":[{"name":"스쿨룩스","tel":"031-861-1474","addr":"경기도 동두천시 생연동 483-45","indutype":"의류 - 맞춤복점","category":"other"}]},{"lat":"37.913602953","long":"127.05601103","imageIndex":17,"items":[{"name":"스타스토어","tel":"031-863-6411","addr":"경기도 동두천시 생연동 542-16","indutype":"의류 - 정장","category":"other"}]},{"lat":"37.907386513","long":"127.05606342","imageIndex":17,"items":[{"name":"스타일","tel":"070-4176-9931","addr":"경기도 동두천시 생연동 616-20번지","indutype":"의류 - 정장","category":"other"},{"name":"스타일2호점","tel":"070-4176-9931","addr":"경기도 동두천시 생연동 616-20번지 2층 1호","indutype":"신변잡화 - 기타잡화","category":"other"}]},{"lat":"37.903909952","long":"127.05373","imageIndex":17,"items":[{"name":"스타일","tel":"031-864-2284","addr":"경기도 동두천시 생연동 665-23번지","indutype":"의류 - 정장","category":"other"}]},{"lat":"37.913774094","long":"127.05609076","imageIndex":17,"items":[{"name":"스타일세터","tel":"031-865-3891","addr":"경기도 동두천시 생연동 542-12번지","indutype":"의류 - 정장","category":"other"},{"name":"유니온","tel":"031-862-2132","addr":"경기도 동두천시 생연동 542-12번지","indutype":"의류 - 정장","category":"other"}]},{"lat":"37.908657503","long":"127.05454061","imageIndex":17,"items":[{"name":"시내텔레콤","tel":"031-866-4010","addr":"경기도 동두천시 생연동 611-31번지","indutype":"사무통신 - 통신기기","category":"other"}]},{"lat":"37.907828797","long":"127.0541989","imageIndex":17,"items":[{"name":"시너지 디톡스","tel":"031-835-8377","addr":"경기도 동두천시 생연동 611-110번지","indutype":"신변잡화 - 기타잡화","category":"other"},{"name":"패션욱","tel":"","addr":"경기도 동두천시 생연동 611-110번지","indutype":"의류 - 정장","category":"other"}]},{"lat":"37.908629288","long":"127.05717867","imageIndex":17,"items":[{"name":"시너지마켓","tel":"031-868-7563","addr":"경기도 동두천시 생연동 488-5","indutype":"용역 서비스 - 종합용역","category":"other"}]},{"lat":"37.907739334","long":"127.05273199","imageIndex":17,"items":[{"name":"시대전자","tel":"031-865-8989","addr":"경기도 동두천시 생연동 586-7번지","indutype":"전기제품 - 가전제품","category":"other"}]},{"lat":"37.90732461","long":"127.05342533","imageIndex":17,"items":[{"name":"시대패션","tel":"031-865-2702","addr":"경기도 동두천시 생연동 609-13번지","indutype":"의류 - 정장","category":"other"}]},{"lat":"37.908519223","long":"127.06126079","imageIndex":17,"items":[{"name":"시야크린","tel":"","addr":"경기도 동두천시 생연동 466-31번지","indutype":"용역 서비스 - 종합용역","category":"other"}]},{"lat":"37.903304351","long":"127.05811849","imageIndex":17,"items":[{"name":"시티광고","tel":"031-861-3965","addr":"경기도 동두천시 생연동 442-7번지","indutype":"용역 서비스 - 종합용역","category":"other"},{"name":"이담광고산업","tel":"031-868-1514","addr":"경기도 동두천시 생연동 442-7번지","indutype":"건축자재 - 인테리어전문","category":"other"}]},{"lat":"37.903046482","long":"127.05031835","imageIndex":17,"items":[{"name":"시티유리","tel":"031-864-4625","addr":"경기도 동두천시 생연동 819-48","indutype":"건축자재 - 유리","category":"other"}]},{"lat":"37.90785677","long":"127.05198159","imageIndex":17,"items":[{"name":"신성","tel":"031-859-7470","addr":"경기도 동두천시 생연동 585-8번지","indutype":"건축자재 - 인테리어전문","category":"other"}]},{"lat":"37.902937907","long":"127.05145529","imageIndex":17,"items":[{"name":"신성포목","tel":"031-865-2624","addr":"경기도 동두천시 생연동 823-15번지","indutype":"직물 - 옷감·직물","category":"other"}]},{"lat":"37.903271275","long":"127.05139866","imageIndex":17,"items":[{"name":"신우이브자리","tel":"031-865-3911","addr":"경기도 동두천시 생연동 823-179번지","indutype":"직물 - 침구·수예점","category":"other"}]},{"lat":"37.908719941","long":"127.05595066","imageIndex":17,"items":[{"name":"신화정보통신","tel":"031-863-3011","addr":"경기도 동두천시 생연동 615-25번지","indutype":"사무통신 - 통신기기","category":"other"}]},{"lat":"37.908685325","long":"127.05269852","imageIndex":17,"items":[{"name":"신흥철물건재","tel":"031-868-4823","addr":"경기도 동두천시 생연동 578-5번지","indutype":"건축자재 - 목재·석재·철물","category":"other"}]},{"lat":"37.90835142","long":"127.05400596","imageIndex":17,"items":[{"name":"실버라인","tel":"031-868-0088","addr":"경기도 동두천시 생연동 611-27번지","indutype":"신변잡화 - 액세서리","category":"other"}]},{"lat":"37.908351812","long":"127.05309628","imageIndex":17,"items":[{"name":"싱글벙글사진관","tel":"031-865-3228","addr":"경기도 동두천시 생연동 586-31번지","indutype":"광학제품 - 사진관","category":"other"}]},{"lat":"37.908188884","long":"127.0548473","imageIndex":17,"items":[{"name":"싸다구","tel":"031-0000-0000","addr":"경기도 동두천시 생연동 612-2번지 1층","indutype":"의류 - 정장","category":"other"},{"name":"현대스포츠","tel":"031-862-6667","addr":"경기도 동두천시 생연동 612-2번지","indutype":"레져용품 - 스포츠·레져용품","category":"other"}]},{"lat":"37.909522831","long":"127.05354055","imageIndex":17,"items":[{"name":"싼가게","tel":"031-861-8147","addr":"경기도 동두천시 생연동 578-43번지","indutype":"유통업 영리 - 편 의 점","category":"other"}]},{"lat":"37.902523535","long":"127.05131858","imageIndex":17,"items":[{"name":"쏘엔","tel":"031-862-1795","addr":"경기도 동두천시 생연동 821-31번지","indutype":"회원제형태 - 기타4","category":"other"}]},{"lat":"37.908657323","long":"127.05494997","imageIndex":17,"items":[{"name":"쏘잉 앤 핸즈","tel":"031-000-0000","addr":"경기도 동두천시 생연동 611-76번지 78,77","indutype":"수리서비스 - 세탁소","category":"other"}]},{"lat":"37.908604169","long":"127.05286903","imageIndex":17,"items":[{"name":"씨유동두천동광점","tel":"031-858-4948","addr":"경기도 동두천시 생연동 584-25 외1필지","indutype":"유통업 영리 - 편 의 점","category":"other"}]},{"lat":"37.912800249","long":"127.0579209","imageIndex":17,"items":[{"name":"씨유동두천보산점","tel":"031-864-0289","addr":"경기도 동두천시 생연동 508-5번지","indutype":"유통업 영리 - 편 의 점","category":"other"}]},{"lat":"37.900022608","long":"127.06292543","imageIndex":17,"items":[{"name":"씨유동두천생연점","tel":"031-863-1027","addr":"경기도 동두천시 생연동 392-34번지","indutype":"유통업 영리 - 편 의 점","category":"other"}]},{"lat":"37.904188144","long":"127.05620893","imageIndex":17,"items":[{"name":"씨유동두천정장로점","tel":"070-7523-9821","addr":"경기도 동두천시 생연동 641-24번지 1층","indutype":"유통업 영리 - 편 의 점","category":"other"}]},{"lat":"37.905522618","long":"127.05373111","imageIndex":17,"items":[{"name":"씨유동두천중앙로점","tel":"031-861-7545","addr":"경기도 동두천시 생연동 593-11번지 1층","indutype":"유통업 영리 - 편 의 점","category":"other"}]},{"lat":"37.901494107","long":"127.05676411","imageIndex":17,"items":[{"name":"씨유동두천중앙역점","tel":"031-864-1131","addr":"경기도 동두천시 생연동 726-1번지 1층 코너","indutype":"유통업 영리 - 편 의 점","category":"other"}]},{"lat":"37.908934972","long":"127.05853206","imageIndex":17,"items":[{"name":"씨유동연사거리점","tel":"031-859-7263","addr":"경기도 동두천시 생연동 476-1번지","indutype":"유통업 영리 - 편 의 점","category":"other"}]},{"lat":"37.903964879","long":"127.051672","imageIndex":17,"items":[{"name":"씨티보이","tel":"031-862-7140","addr":"경기도 동두천시 생연동 823-10번지 제일상가","indutype":"의류 - 정장","category":"other"}]},{"lat":"37.90332343","long":"127.05581035","imageIndex":17,"items":[{"name":"아몬광고","tel":"031-867-5404","addr":"경기도 동두천시 생연동 679-5번지","indutype":"용역 서비스 - 종합용역","category":"other"}]},{"lat":"37.90168509","long":"127.05270517","imageIndex":17,"items":[{"name":"아이더 동두천점","tel":"031-857-3334","addr":"경기도 동두천시 생연동 689-14번지","indutype":"레져용품 - 스포츠·레져용품","category":"other"}]},{"lat":"37.90093493","long":"127.05805987","imageIndex":17,"items":[{"name":"아이스블루","tel":"031-865-1660","addr":"경기도 동두천시 생연동 424-18번지","indutype":"의류 - 기타의류","category":"other"},{"name":"여백미디어","tel":"031-862-2715","addr":"경기도 동두천시 생연동 424-18번지","indutype":"전기제품 - 기타전기제품","category":"other"}]},{"lat":"37.897580581","long":"127.06390121","imageIndex":17,"items":[{"name":"아이엠폰","tel":"031-862-7811","addr":"경기도 동두천시 생연동 334번지 생연동,황금프라자 110호","indutype":"사무통신 - 통신기기","category":"other"},{"name":"하늘세탁","tel":"031-858-1918","addr":"경기도 동두천시 생연동 334번지 황금프라자 1층 108호","indutype":"수리서비스 - 세탁소","category":"other"}]},{"lat":"37.90816226","long":"127.05392623","imageIndex":17,"items":[{"name":"아카데미","tel":"031-865-4458","addr":"경기도 동두천시 생연동 611-34번지 1층","indutype":"서적문구 - 완구점","category":"other"}]},{"lat":"37.913080363","long":"127.05612437","imageIndex":17,"items":[{"name":"아트앤디자인 휘핑크림","tel":"031-000-0000","addr":"경기도 동두천시 생연동 541-53번지","indutype":"용역 서비스 - 사무서비스","category":"other"}]},{"lat":"37.902385412","long":"127.05809506","imageIndex":17,"items":[{"name":"아현스포츠","tel":"031-859-3909","addr":"경기도 동두천시 생연동 426-6번지","indutype":"레져용품 - 스포츠·레져용품","category":"other"}]},{"lat":"37.907801754","long":"127.054233","imageIndex":17,"items":[{"name":"애니텔레콤","tel":"031-862-1124","addr":"경기도 동두천시 생연동 611-56번지","indutype":"사무통신 - 통신기기","category":"other"},{"name":"올리비아로렌","tel":"031-858-3332","addr":"경기도 동두천시 생연동 611-56번지 1층","indutype":"레져용품 - 스포츠·레져용품","category":"other"},{"name":"올리비아로렌 동두천점","tel":"031-858-3332","addr":"경기도 동두천시 생연동 611-56번지","indutype":"의류 - 스포츠의류","category":"other"}]},{"lat":"37.906268359","long":"127.05823441","imageIndex":17,"items":[{"name":"양우공구","tel":"031-868-0904","addr":"경기도 동두천시 생연동 481-13번지","indutype":"기타 - 기계공구","category":"other"}]},{"lat":"37.903910519","long":"127.05239967","imageIndex":17,"items":[{"name":"어수로83번길(EoSu83.ST)","tel":"031-865-2009","addr":"경기도 동두천시 생연동 664-103번지","indutype":"의류 - 정장","category":"other"}]},{"lat":"37.907601687","long":"127.05833775","imageIndex":17,"items":[{"name":"어울림","tel":"070-4069-4839","addr":"경기도 동두천시 생연동 479-19번지 1층","indutype":"사무통신 - 통신기기","category":"other"}]},{"lat":"37.900188262","long":"127.05564893","imageIndex":17,"items":[{"name":"엄지","tel":"070-8952-5118","addr":"경기도 동두천시 생연동 707-6번지","indutype":"의류 - 정장","category":"other"},{"name":"인천목재","tel":"031-865-9920","addr":"경기도 동두천시 생연동 707-6번지","indutype":"건축자재 - 목재·석재·철물","category":"other"}]},{"lat":"37.909719038","long":"127.05798683","imageIndex":17,"items":[{"name":"에덴미술","tel":"031-861-1104","addr":"경기도 동두천시 생연동 491-4번지","indutype":"용역 서비스 - 종합용역","category":"other"}]},{"lat":"37.900080297","long":"127.05531913","imageIndex":17,"items":[{"name":"에스라인 디자인","tel":"031-824-0925","addr":"경기도 동두천시 생연동 706번지","indutype":"건축자재 - 인테리어전문","category":"other"},{"name":"에스지코리아","tel":"031-861-6426","addr":"경기도 동두천시 생연동 706번지","indutype":"건축자재 - 건축용 요업제품","category":"other"}]},{"lat":"37.911323766","long":"127.0556455","imageIndex":17,"items":[{"name":"에스제이홀딩스주식회사","tel":"031-859-8849","addr":"경기도 동두천시 생연동 559-12번지","indutype":"회원제형태 - 기타4","category":"other"}]},{"lat":"37.897660769","long":"127.04546017","imageIndex":17,"items":[{"name":"에이린 에띠임","tel":"070-7731-9921","addr":"경기도 동두천시 생연동 788-77번지 성원하이빌 401호","indutype":"의류 - 내의판매","category":"other"}]},{"lat":"37.903046075","long":"127.05131892","imageIndex":17,"items":[{"name":"엔소디","tel":"031-863-9440","addr":"경기도 동두천시 생연동 823-182번지","indutype":"의류 - 기타의류","category":"other"}]},{"lat":"37.907747842","long":"127.0539032","imageIndex":17,"items":[{"name":"엔케이","tel":"031-862-3953","addr":"경기도 동두천시 생연동 609-18번지","indutype":"신변잡화 - 가방","category":"other"},{"name":"잉꼬가방","tel":"031-862-3953","addr":"경기도 동두천시 생연동 609-18번지 1층 101호","indutype":"신변잡화 - 가방","category":"other"},{"name":"잉꼬가방","tel":"070-4409-0328","addr":"경기도 동두천시 생연동 609-18번지 1층 101호","indutype":"신변잡화 - 가방","category":"other"},{"name":"잉꼬가방","tel":"031-802-3953","addr":"경기도 동두천시 생연동 609-18번지","indutype":"신변잡화 - 가방","category":"other"}]},{"lat":"37.907629862","long":"127.05584754","imageIndex":17,"items":[{"name":"엘림정보통신","tel":"031-861-7117","addr":"경기도 동두천시 생연동 616-14번지 2호","indutype":"사무통신 - 컴퓨터","category":"other"}]},{"lat":"37.901990945","long":"127.05378553","imageIndex":17,"items":[{"name":"엘이디(LED)디에스","tel":"031-0000-0000","addr":"경기도 동두천시 생연동 686-6번지 청백빌딩 1층 일부","indutype":"건축자재 - 조명기구","category":"other"}]},{"lat":"37.896908252","long":"127.05701089","imageIndex":17,"items":[{"name":"엠케이시스템","tel":"031-860-1820","addr":"경기도 동두천시 생연동 754-3번지 104동 501호","indutype":"용역 서비스 - 기타용역서비스","category":"other"}]},{"lat":"37.906135475","long":"127.05320848","imageIndex":17,"items":[{"name":"여시","tel":"031-867-2738","addr":"경기도 동두천시 생연동 590-17번지 중앙상가연립","indutype":"의류 - 정장","category":"other"},{"name":"우리동네 팻","tel":"031-865-5859","addr":"경기도 동두천시 생연동 590-17번지 중앙상가연립주택 101호","indutype":"문화.취미 - 애완동물","category":"other"}]},{"lat":"37.911773072","long":"127.05817031","imageIndex":17,"items":[{"name":"여현자한복전문점","tel":"031-868-1244","addr":"경기도 동두천시 생연동 505-4번지","indutype":"의류 - 기타의류","category":"other"}]},{"lat":"37.899079255","long":"127.05753548","imageIndex":17,"items":[{"name":"연보라주식회사","tel":"031-857-2302","addr":"경기도 동두천시 생연동 733-21번지","indutype":"여행 - 렌터카","category":"other"}]},{"lat":"37.905216973","long":"127.05215039","imageIndex":17,"items":[{"name":"영광인쇄소","tel":"031-862-5524","addr":"경기도 동두천시 생연동 588-19번지","indutype":"서적문구 - 출판 및 인쇄물","category":"other"}]},{"lat":"37.901964647","long":"127.05206864","imageIndex":17,"items":[{"name":"영동보일러","tel":"031-868-5335","addr":"경기도 동두천시 생연동 692-70번지","indutype":"건축자재 - 보일러·펌프·샷시","category":"other"}]},{"lat":"37.899881005","long":"127.05770662","imageIndex":17,"items":[{"name":"예담인테리어","tel":"031-865-1705","addr":"경기도 동두천시 생연동 730-35번지","indutype":"직물 - 카페트,커튼,천막,지물","category":"other"}]},{"lat":"37.900603014","long":"127.05492155","imageIndex":17,"items":[{"name":"예루살렘 기독서점","tel":"031-862-3355","addr":"경기도 동두천시 생연동 683-17번지","indutype":"서적문구 - 전문서적","category":"other"},{"name":"예루살렘기독서적","tel":"031-862-3355","addr":"경기도 동두천시 생연동 683-17번지","indutype":"서적문구 - 일반서적","category":"other"},{"name":"예성디자인","tel":"031-838-7229","addr":"경기도 동두천시 생연동 683-17번지","indutype":"용역 서비스 - 종합용역","category":"other"},{"name":"우정피부관리","tel":"031-858-7697","addr":"경기도 동두천시 생연동 683-17번지","indutype":"회원제형태 - 기타4","category":"other"}]},{"lat":"37.901602825","long":"127.05542254","imageIndex":17,"items":[{"name":"예은","tel":"","addr":"경기도 동두천시 생연동 684-5번지 1층","indutype":"의류 - 내의판매","category":"other"},{"name":"코코샵(CoCoshop)","tel":"031-858-8071","addr":"경기도 동두천시 생연동 684-5번지","indutype":"신변잡화 - 기타잡화","category":"other"}]},{"lat":"37.913413733","long":"127.05606775","imageIndex":17,"items":[{"name":"오찬상회","tel":"070-4152-3672","addr":"경기도 동두천시 생연동 542-21","indutype":"의류 - 정장","category":"other"}]},{"lat":"37.902107483","long":"127.0551159","imageIndex":17,"items":[{"name":"온양공업사","tel":"031-863-4788","addr":"경기도 동두천시 생연동 678-24번지","indutype":"건축자재 - 기타건축자재","category":"other"}]},{"lat":"37.904469339","long":"127.05182015","imageIndex":17,"items":[{"name":"옷빨","tel":"031-858-3753","addr":"경기도 동두천시 생연동 823-79번지","indutype":"의류 - 정장","category":"other"}]},{"lat":"37.903856729","long":"127.0517629","imageIndex":17,"items":[{"name":"옷장정리","tel":"031-861-3937","addr":"경기도 동두천시 생연동 823-61번지 1호","indutype":"의류 - 정장","category":"other"}]},{"lat":"37.906910722","long":"127.05215152","imageIndex":17,"items":[{"name":"우성광고","tel":"031-862-0900","addr":"경기도 동두천시 생연동 825-23번지","indutype":"유통업 영리 - 기타유통업","category":"other"}]},{"lat":"37.903604801","long":"127.05095544","imageIndex":17,"items":[{"name":"우아미가구","tel":"031-862-9345","addr":"경기도 동두천시 생연동 824-6번지","indutype":"가구 - 일반가구","category":"other"}]},{"lat":"37.910297015","long":"127.05495112","imageIndex":17,"items":[{"name":"우진철물건재","tel":"031-865-2536","addr":"경기도 동두천시 생연동 555-18번지","indutype":"기타 - 기계공구","category":"other"},{"name":"진흥타일상사","tel":"031-865-7035","addr":"경기도 동두천시 생연동 555-18번지","indutype":"건축자재 - 건축용 요업제품","category":"other"}]},{"lat":"37.908854952","long":"127.05623504","imageIndex":17,"items":[{"name":"웅진편의점","tel":"031-865-1752","addr":"경기도 동두천시 생연동 615-5번지","indutype":"유통업 영리 - 편 의 점","category":"other"}]},{"lat":"37.908604217","long":"127.05275532","imageIndex":17,"items":[{"name":"원동광낚시","tel":"031-865-6216","addr":"경기도 동두천시 생연동 584-26번지","indutype":"레져용품 - 스포츠·레져용품","category":"other"}]},{"lat":"37.903800821","long":"127.05603809","imageIndex":17,"items":[{"name":"원스샵(onceshop)","tel":"031-111-1111","addr":"경기도 동두천시 생연동 641-2번지","indutype":"직물 - 침구·수예점","category":"other"}]},{"lat":"37.90480273","long":"127.05170667","imageIndex":17,"items":[{"name":"원앙표씽크","tel":"031-863-9327","addr":"경기도 동두천시 생연동 823-35번지","indutype":"가구 - 일반가구","category":"other"}]},{"lat":"37.904302","long":"127.06298576","imageIndex":17,"items":[{"name":"원애드","tel":"031-862-6814","addr":"경기도 동두천시 생연동 434-5번지 화성다세대주택","indutype":"서적문구 - 출판 및 인쇄물","category":"other"}]},{"lat":"37.905630729","long":"127.05373118","imageIndex":17,"items":[{"name":"월드컵","tel":"031-868-3365","addr":"경기도 동두천시 생연동 593-9번지 1층","indutype":"신변잡화 - 제화","category":"other"}]},{"lat":"37.903189301","long":"127.05351347","imageIndex":17,"items":[{"name":"유니공조","tel":"","addr":"경기도 동두천시 생연동 669-7번지 1층 좌측코너","indutype":"용역 서비스 - 기타용역서비스","category":"other"}]},{"lat":"37.900412618","long":"127.05757058","imageIndex":17,"items":[{"name":"유림세탁소","tel":"031-865-8307","addr":"경기도 동두천시 생연동 730-20번지","indutype":"수리서비스 - 세탁소","category":"other"}]},{"lat":"37.904522907","long":"127.05297997","imageIndex":17,"items":[{"name":"유스타 그루밍","tel":"","addr":"경기도 동두천시 생연동 665-14번지","indutype":"문화.취미 - 애완동물","category":"other"}]},{"lat":"37.900268053","long":"127.05845731","imageIndex":17,"items":[{"name":"유일설비","tel":"031-865-8380","addr":"경기도 동두천시 생연동 419번지","indutype":"건축자재 - 보일러·펌프·샷시","category":"other"}]},{"lat":"37.909018153","long":"127.05390408","imageIndex":17,"items":[{"name":"유한회사 은혜","tel":"031-862-4949","addr":"경기도 동두천시 생연동 577-4번지 중앙성모병원 C동 지하1층","indutype":"용역 서비스 - 가례서비스업","category":"other"}]},{"lat":"37.900045801","long":"127.05173764","imageIndex":17,"items":[{"name":"으뜸유통","tel":"031-858-1347","addr":"경기도 동두천시 생연동 698-6번지","indutype":"유통업 영리 - 기타유통업","category":"other"}]},{"lat":"37.896665141","long":"127.05670375","imageIndex":17,"items":[{"name":"은총군장","tel":"","addr":"경기도 동두천시 생연동 754-9번지 지행파크빌2 102동 203호","indutype":"신변잡화 - 기념품점","category":"other"}]},{"lat":"37.912107686","long":"127.05539589","imageIndex":17,"items":[{"name":"응답하라~뿡야레코드샵","tel":"","addr":"경기도 동두천시 생연동 570-28번지 1층","indutype":"레져용품 - 음반/영상물","category":"other"}]},{"lat":"37.909495087","long":"127.05517798","imageIndex":17,"items":[{"name":"이글미싱","tel":"031-862-8960","addr":"경기도 동두천시 생연동 553-6번지","indutype":"기타 - 기계공구","category":"other"}]},{"lat":"37.901045768","long":"127.05189748","imageIndex":17,"items":[{"name":"이담가구","tel":"031-862-1456","addr":"경기도 동두천시 생연동 692-54번지","indutype":"가구 - 일반가구","category":"other"}]},{"lat":"37.900468693","long":"127.05303407","imageIndex":17,"items":[{"name":"이담통신","tel":"031-859-0880","addr":"경기도 동두천시 생연동 695-3번지 고려빌딩 1층","indutype":"사무통신 - 통신기기","category":"other"}]},{"lat":"37.907630567","long":"127.05425562","imageIndex":17,"items":[{"name":"이동우컬렉션","tel":"","addr":"경기도 동두천시 생연동 608-14번지","indutype":"의류 - 스포츠의류","category":"other"}]},{"lat":"37.909438851","long":"127.05987424","imageIndex":17,"items":[{"name":"이레케어","tel":"031-866-1303","addr":"경기도 동두천시 생연동 498-18번지","indutype":"용역 서비스 - 종합용역","category":"other"}]},{"lat":"37.904550493","long":"127.05164965","imageIndex":17,"items":[{"name":"이레피앤알-K","tel":"031-861-3665","addr":"경기도 동두천시 생연동 823-145번지","indutype":"용역 서비스 - 종합용역","category":"other"}]},{"lat":"37.906684675","long":"127.05406166","imageIndex":17,"items":[{"name":"이마트24 동두천중앙점","tel":"","addr":"경기도 동두천시 생연동 605-4번지","indutype":"유통업 영리 - 편 의 점","category":"other"}]},{"lat":"37.900215488","long":"127.05520552","imageIndex":17,"items":[{"name":"이진목재","tel":"031-865-8365","addr":"경기도 동두천시 생연동 703-5번지","indutype":"건축자재 - 기타건축자재","category":"other"}]},{"lat":"37.906549342","long":"127.05450502","imageIndex":17,"items":[{"name":"인디안모드 동두천점","tel":"031-862-7876","addr":"경기도 동두천시 생연동 601-14번지 인디안","indutype":"레져용품 - 스포츠·레져용품","category":"other"}]},{"lat":"37.900383764","long":"127.06136807","imageIndex":17,"items":[{"name":"인혁인력","tel":"031-858-8580","addr":"경기도 동두천시 생연동 407-8번지","indutype":"용역 서비스 - 종합용역","category":"other"}]},{"lat":"37.91071123","long":"127.05542901","imageIndex":17,"items":[{"name":"일월광고","tel":"031-862-2128","addr":"경기도 동두천시 생연동 560-51번지","indutype":"용역 서비스 - 종합용역","category":"other"}]},{"lat":"37.908021749","long":"127.06509241","imageIndex":17,"items":[{"name":"일주광고산업","tel":"031-864-8484","addr":"경기도 동두천시 생연동 222번지","indutype":"건축자재 - 조명기구","category":"other"}]},{"lat":"37.903748608","long":"127.05178557","imageIndex":17,"items":[{"name":"자기표현","tel":"031-862-6621","addr":"경기도 동두천시 생연동 823-104번지","indutype":"직물 - 카페트,커튼,천막,지물","category":"other"}]},{"lat":"37.906163295","long":"127.05132097","imageIndex":17,"items":[{"name":"장군스포츠","tel":"031-865-3003","addr":"경기도 동두천시 생연동 825-167번지","indutype":"회원제형태 - 기타4","category":"other"}]},{"lat":"37.898718187","long":"127.05901326","imageIndex":17,"items":[{"name":"장자상사","tel":"031-863-1131","addr":"경기도 동두천시 생연동 369-8번지 서경코아 106호","indutype":"건축자재 - 보일러·펌프·샷시","category":"other"}]},{"lat":"37.90272088","long":"127.05336533","imageIndex":17,"items":[{"name":"쟈스킨","tel":"031-862-8287","addr":"경기도 동두천시 생연동 686-1번지","indutype":"의류 - 정장","category":"other"},{"name":"지센동두천중앙점","tel":"031-858-6848","addr":"경기도 동두천시 생연동 686-1번지","indutype":"의류 - 정장","category":"other"}]},{"lat":"37.900470565","long":"127.04842931","imageIndex":17,"items":[{"name":"전국망선불폰","tel":"","addr":"경기도 동두천시 생연동 792-1번지 보민연립주택 가동 204호","indutype":"전기제품 - 기타전기제품","category":"other"}]},{"lat":"37.908800116","long":"127.05792929","imageIndex":17,"items":[{"name":"정기사","tel":"031-862-5826","addr":"경기도 동두천시 생연동 489-8번지","indutype":"수리서비스 - 신변잡화수리","category":"other"},{"name":"행운열쇠","tel":"031-862-1382","addr":"경기도 동두천시 생연동 489-8번지","indutype":"건축자재 - 목재·석재·철물","category":"other"}]},{"lat":"37.901741035","long":"127.06737249","imageIndex":17,"items":[{"name":"정록건설","tel":"02-1111-1111","addr":"경기도 동두천시 생연동 255번지","indutype":"건축자재 - 인테리어전문","category":"other"}]},{"lat":"37.906855678","long":"127.05445975","imageIndex":17,"items":[{"name":"정진호댄스스포츠학원","tel":"031-858-1624","addr":"경기도 동두천시 생연동 605-1","indutype":"회원제형태 - 레져업소","category":"other"}]},{"lat":"37.907017825","long":"127.05450535","imageIndex":17,"items":[{"name":"제이디엑스(JDX)동두천","tel":"031-863-7878","addr":"경기도 동두천시 생연동 608-7번지","indutype":"레져용품 - 스포츠·레져용품","category":"other"}]},{"lat":"37.898525515","long":"127.04586997","imageIndex":17,"items":[{"name":"제이비시스템","tel":"","addr":"경기도 동두천시 생연동 788-38번지","indutype":"용역 서비스 - 기타용역서비스","category":"other"}]},{"lat":"37.907022224","long":"127.06412505","imageIndex":17,"items":[{"name":"제이케이","tel":"031-863-1429","addr":"경기도 동두천시 생연동 225-20번지 그린하우스 305호","indutype":"신변잡화 - 기타잡화","category":"other"}]},{"lat":"37.903604331","long":"127.05209247","imageIndex":17,"items":[{"name":"제일상회","tel":"031-823-0287","addr":"경기도 동두천시 생연동 661-26번지","indutype":"신변잡화 - 기타잡화","category":"other"},{"name":"코프세계주류","tel":"031-861-3617","addr":"경기도 동두천시 생연동 661-26번지","indutype":"의류 - 정장","category":"other"}]},{"lat":"37.902631188","long":"127.05242155","imageIndex":17,"items":[{"name":"제일악기","tel":"031-865-3883","addr":"경기도 동두천시 생연동 691-20번지","indutype":"레져용품 - 악기점","category":"other"}]},{"lat":"37.907773046","long":"127.05795127","imageIndex":17,"items":[{"name":"제일인테리어","tel":"031-859-3810","addr":"경기도 동두천시 생연동 488-26번지","indutype":"건축자재 - 인테리어전문","category":"other"}]},{"lat":"37.907522456","long":"127.05425554","imageIndex":17,"items":[{"name":"조이너스","tel":"031-858-2350","addr":"경기도 동두천시 생연동 608-20번지","indutype":"의류 - 스포츠의류","category":"other"}]},{"lat":"37.901938032","long":"127.05106806","imageIndex":17,"items":[{"name":"조이엔스","tel":"070-7690-2901","addr":"경기도 동두천시 생연동 821-49번지","indutype":"의류 - 정장","category":"other"}]},{"lat":"37.90079979","long":"127.05805977","imageIndex":17,"items":[{"name":"종로인테리어","tel":"031-868-5549","addr":"경기도 동두천시 생연동 422번지","indutype":"건축자재 - 인테리어전문","category":"other"}]},{"lat":"37.913044429","long":"127.05589691","imageIndex":17,"items":[{"name":"좋은가게","tel":"031-866-0058","addr":"경기도 동두천시 생연동 570-108번지 1층","indutype":"신변잡화 - 기타잡화","category":"other"}]},{"lat":"37.902829819","long":"127.05139837","imageIndex":17,"items":[{"name":"좋은가구","tel":"031-861-1954","addr":"경기도 동두천시 생연동 823-133번지","indutype":"가구 - 일반가구","category":"other"}]},{"lat":"37.90741415","long":"127.05469893","imageIndex":17,"items":[{"name":"주사랑요양원","tel":"031-865-0100","addr":"경기도 동두천시 생연동 612-15번지 동성빌딩 2-6층","indutype":"기타의료기관 - 기타의료기관 및 기타","category":"other"}]},{"lat":"37.91226709","long":"127.06126375","imageIndex":17,"items":[{"name":"주식회사 디엔이","tel":"031-857-5020","addr":"경기도 동두천시 생연동 523-1번지 5층","indutype":"건축자재 - 인테리어전문","category":"other"}]},{"lat":"37.89646932","long":"127.06964173","imageIndex":17,"items":[{"name":"주식회사 미래로투어","tel":"02-464-6668","addr":"경기도 동두천시 생연동 49번지","indutype":"여행 - 관광여행","category":"other"}]},{"lat":"37.900881928","long":"127.05576312","imageIndex":17,"items":[{"name":"주식회사 부흥","tel":"031-863-1262","addr":"경기도 동두천시 생연동 707-16번지","indutype":"건축자재 - 기타건축자재","category":"other"}]},{"lat":"37.902664701","long":"127.05809527","imageIndex":17,"items":[{"name":"주식회사 제이앤드비","tel":"031-857-3833","addr":"경기도 동두천시 생연동 427-13번지","indutype":"건축자재 - 조명기구","category":"other"}]},{"lat":"37.90557568","long":"127.05598252","imageIndex":17,"items":[{"name":"주식회사포스북","tel":"031-863-6196","addr":"경기도 동두천시 생연동 598-4번지","indutype":"회원제형태 - 서적","category":"other"}]},{"lat":"37.908523778","long":"127.0512088","imageIndex":17,"items":[{"name":"주현씽크","tel":"031-866-4266","addr":"경기도 동두천시 생연동 829-39번지","indutype":"주방용구 - 주방용구","category":"other"}]},{"lat":"37.898959059","long":"127.06380002","imageIndex":17,"items":[{"name":"줄눈마을","tel":"","addr":"경기도 동두천시 생연동 831번지 휴먼시아 303동 706호","indutype":"용역 서비스 - 기타용역서비스","category":"other"}]},{"lat":"37.901656927","long":"127.05532024","imageIndex":17,"items":[{"name":"중앙","tel":"031-863-0700","addr":"경기도 동두천시 생연동 684-3번지","indutype":"사무통신 - 통신기기","category":"other"}]},{"lat":"37.902018212","long":"127.05322841","imageIndex":17,"items":[{"name":"중앙전기","tel":"031-862-0608","addr":"경기도 동두천시 생연동 687-22번지","indutype":"건축자재 - 조명기구","category":"other"}]},{"lat":"37.901324563","long":"127.05306876","imageIndex":17,"items":[{"name":"중앙종묘농약사","tel":"031-865-7312","addr":"경기도 동두천시 생연동 689-48번지","indutype":"농업 - 기타농업관련","category":"other"}]},{"lat":"37.90860374","long":"127.05386968","imageIndex":17,"items":[{"name":"중앙텔레콤","tel":"031-867-9875","addr":"경기도 동두천시 생연동 577-17번지","indutype":"사무통신 - 통신기기","category":"other"}]},{"lat":"37.908017748","long":"127.05475621","imageIndex":17,"items":[{"name":"쥬니옷장","tel":"070-8249-0666","addr":"경기도 동두천시 생연동 612-11번지 2층","indutype":"의류 - 정장","category":"other"}]},{"lat":"37.900383668","long":"127.06156135","imageIndex":17,"items":[{"name":"지니골드","tel":"031-865-1593","addr":"경기도 동두천시 생연동 407-23번지 A동 103호","indutype":"신변잡화 - 귀금속","category":"other"}]},{"lat":"37.913711152","long":"127.05581779","imageIndex":17,"items":[{"name":"지큐양복점","tel":"031-863-9793","addr":"경기도 동두천시 생연동 543-17번지","indutype":"의류 - 맞춤복점","category":"other"}]},{"lat":"37.90496523","long":"127.05089947","imageIndex":17,"items":[{"name":"진 가구","tel":"031-866-1515","addr":"경기도 동두천시 생연동 818-2번지","indutype":"가구 - 일반가구","category":"other"}]},{"lat":"37.898079041","long":"127.05792131","imageIndex":17,"items":[{"name":"진용지물인테리어","tel":"031-862-2486","addr":"경기도 동두천시 생연동 361-11번지","indutype":"직물 - 카페트,커튼,천막,지물","category":"other"}]},{"lat":"37.904547619","long":"127.05815353","imageIndex":17,"items":[{"name":"진주내온","tel":"031-868-9289","addr":"경기도 동두천시 생연동 450-50번지","indutype":"기타 - 기계공구","category":"other"},{"name":"진주설비","tel":"031-867-0956","addr":"경기도 동두천시 생연동 450-50번지","indutype":"용역 서비스 - 기타용역서비스","category":"other"}]},{"lat":"37.905628725","long":"127.05817708","imageIndex":17,"items":[{"name":"창조인테리어","tel":"031-838-7749","addr":"경기도 동두천시 생연동 482-47번지","indutype":"건축자재 - 인테리어전문","category":"other"}]},{"lat":"37.908692211","long":"127.05748574","imageIndex":17,"items":[{"name":"천택슈즈","tel":"031-858-4525","addr":"경기도 동두천시 생연동 489-17","indutype":"신변잡화 - 신발","category":"other"}]},{"lat":"37.907910453","long":"127.05286856","imageIndex":17,"items":[{"name":"청마루(진)","tel":"031-864-1118","addr":"경기도 동두천시 생연동 586-19번지","indutype":"의류 - 정장","category":"other"}]},{"lat":"37.903379042","long":"127.05222876","imageIndex":17,"items":[{"name":"최씨네","tel":"031-862-3561","addr":"경기도 동두천시 생연동 664-27번지","indutype":"의류 - 정장","category":"other"}]},{"lat":"37.899382603","long":"127.06359572","imageIndex":17,"items":[{"name":"카오스넷","tel":"070-8286-1578","addr":"경기도 동두천시 생연동 307번지","indutype":"사무통신 - 컴퓨터","category":"other"}]},{"lat":"37.902547724","long":"127.05778819","imageIndex":17,"items":[{"name":"카피뱅크","tel":"031-865-8788","addr":"경기도 동두천시 생연동 445-12번지","indutype":"서적문구 - 문구용품","category":"other"}]},{"lat":"37.906385469","long":"127.05825724","imageIndex":17,"items":[{"name":"컴퓨토피아","tel":"031-868-6363","addr":"경기도 동두천시 생연동 481-11외1필지","indutype":"사무통신 - 컴퓨터","category":"other"}]},{"lat":"37.908657997","long":"127.0534035","imageIndex":17,"items":[{"name":"케빈 스튜디오","tel":"031-866-3131","addr":"경기도 동두천시 생연동 583-30번지","indutype":"광학제품 - 사진관","category":"other"}]},{"lat":"37.90860399","long":"127.05328976","imageIndex":17,"items":[{"name":"코리아씨큐리티&CCTV","tel":"031-1599-0459","addr":"경기도 동두천시 생연동 583-33번지","indutype":"전기제품 - 기타전기제품","category":"other"}]},{"lat":"37.906616976","long":"127.06379497","imageIndex":17,"items":[{"name":"콩이네","tel":"031-000-0000","addr":"경기도 동두천시 생연동 225-27번지 러빙홈타운빌 102동 102호","indutype":"문화.취미 - 애완동물","category":"other"}]},{"lat":"37.907216164","long":"127.05419848","imageIndex":17,"items":[{"name":"퀸즈","tel":"031-865-6380","addr":"경기도 동두천시 생연동 608-5번지","indutype":"신변잡화 - 기타잡화","category":"other"},{"name":"해피우먼","tel":"031-865-5084","addr":"경기도 동두천시 생연동 608-5번지","indutype":"의류 - 정장","category":"other"}]},{"lat":"37.901549951","long":"127.05270508","imageIndex":17,"items":[{"name":"크로커다일레이디","tel":"031-858-6996","addr":"경기도 동두천시 생연동 689-15번지","indutype":"레져용품 - 스포츠·레져용품","category":"other"}]},{"lat":"37.899852407","long":"127.06098107","imageIndex":17,"items":[{"name":"크린토피아","tel":"031-862-5006","addr":"경기도 동두천시 생연동 392번지","indutype":"수리서비스 - 세탁소","category":"other"}]},{"lat":"37.901992214","long":"127.0507611","imageIndex":17,"items":[{"name":"큰시장중고가전","tel":"031-827-9288","addr":"경기도 동두천시 생연동 821-56번지","indutype":"전기제품 - 가전제품","category":"other"}]},{"lat":"37.899109866","long":"127.04917886","imageIndex":17,"items":[{"name":"타미야공구","tel":"031-862-0972","addr":"경기도 동두천시 생연동 797-10번지","indutype":"기타 - 기계공구","category":"other"}]},{"lat":"37.902740166","long":"127.05031815","imageIndex":17,"items":[{"name":"태건공업사","tel":"031-865-7759","addr":"경기도 동두천시 생연동 819-96번지","indutype":"건축자재 - 기타건축자재","category":"other"}]},{"lat":"37.902325377","long":"127.05120475","imageIndex":17,"items":[{"name":"태광상회","tel":"031-865-3351","addr":"경기도 동두천시 생연동 821-8번지","indutype":"가구 - 일반가구","category":"other"},{"name":"한산건축","tel":"031-866-8637","addr":"경기도 동두천시 생연동 821-8번지","indutype":"용역 서비스 - 기타용역서비스","category":"other"}]},{"lat":"37.90260391","long":"127.05301278","imageIndex":17,"items":[{"name":"태호정보통신","tel":"031-858-5070","addr":"경기도 동두천시 생연동 688-53번지","indutype":"사무통신 - 통신기기","category":"other"}]},{"lat":"37.903658023","long":"127.05295664","imageIndex":17,"items":[{"name":"태후사랑","tel":"070-7622-3222","addr":"경기도 동두천시 생연동 667-17번지","indutype":"의류 - 기타의류","category":"other"}]},{"lat":"37.906189198","long":"127.05398172","imageIndex":17,"items":[{"name":"통통튀는패션","tel":"031-865-2004","addr":"경기도 동두천시 생연동 602-15번지","indutype":"의류 - 정장","category":"other"}]},{"lat":"37.898418383","long":"127.06402697","imageIndex":17,"items":[{"name":"투스토리","tel":"031-861-8833","addr":"경기도 동두천시 생연동 831번지 휴먼시아 상가동 103호","indutype":"의류 - 정장","category":"other"}]},{"lat":"37.906469219","long":"127.05226494","imageIndex":17,"items":[{"name":"트라이에이","tel":"070-8616-6445","addr":"경기도 동두천시 생연동 589-58번지 3층","indutype":"문화.취미 - 티켓","category":"other"}]},{"lat":"37.904082","long":"127.05167208","imageIndex":17,"items":[{"name":"패션대도","tel":"031-865-7317","addr":"경기도 동두천시 생연동 823-9번지","indutype":"의류 - 정장","category":"other"}]},{"lat":"37.903712595","long":"127.05172869","imageIndex":17,"items":[{"name":"패션리더","tel":"031-862-8289","addr":"경기도 동두천시 생연동 823-110번지","indutype":"의류 - 정장","category":"other"}]},{"lat":"37.900296632","long":"127.05506914","imageIndex":17,"items":[{"name":"평화타일상사","tel":"031-865-6066","addr":"경기도 동두천시 생연동 703-11번지","indutype":"건축자재 - 건축용 요업제품","category":"other"},{"name":"한국전기","tel":"031-864-0320","addr":"경기도 동두천시 생연동 703-11번지","indutype":"전기제품 - 기타전기제품","category":"other"}]},{"lat":"37.906684501","long":"127.05445963","imageIndex":17,"items":[{"name":"푸마","tel":"031-858-5000","addr":"경기도 동두천시 생연동 602-6번지 1층","indutype":"레져용품 - 스포츠·레져용품","category":"other"}]},{"lat":"37.907909621","long":"127.05479025","imageIndex":17,"items":[{"name":"풍기 인견(쟁이)","tel":"031-862-1231","addr":"경기도 동두천시 생연동 612-12번지 은아빌딩 1층","indutype":"의류 - 정장","category":"other"}]},{"lat":"37.909268273","long":"127.05862328","imageIndex":17,"items":[{"name":"프라브","tel":"031-848-9921","addr":"경기도 동두천시 생연동 497-9번지","indutype":"의류 - 정장","category":"other"}]},{"lat":"37.902187367","long":"127.05775381","imageIndex":17,"items":[{"name":"프로투어리즘 유엠스쿠버","tel":"031-868-0744","addr":"경기도 동두천시 생연동 444-23번지","indutype":"레져용품 - 스포츠·레져용품","category":"other"}]},{"lat":"37.913710926","long":"127.05631815","imageIndex":17,"items":[{"name":"플람주얼리","tel":"","addr":"경기도 동두천시 생연동 541-22번지","indutype":"신변잡화 - 귀금속","category":"other"}]},{"lat":"37.912495268","long":"127.05498679","imageIndex":17,"items":[{"name":"플럼파인","tel":"","addr":"경기도 동두천시 생연동 570-68번지","indutype":"신변잡화 - 액세서리","category":"other"}]},{"lat":"37.898963449","long":"127.05462479","imageIndex":17,"items":[{"name":"피에스(P.S)하우징","tel":"031-868-3651","addr":"경기도 동두천시 생연동 713-1번지 은혜 상가","indutype":"건축자재 - 보일러·펌프·샷시","category":"other"}]},{"lat":"37.90915913","long":"127.06076097","imageIndex":17,"items":[{"name":"피플라이프스토리(People Life Story) 의전","tel":"031-859-3235","addr":"경기도 동두천시 생연동 466-3번지 2층","indutype":"용역 서비스 - 가례서비스업","category":"other"}]},{"lat":"37.90349668","long":"127.05097811","imageIndex":17,"items":[{"name":"하이파가구","tel":"070-7809-5059","addr":"경기도 동두천시 생연동 824-7번지","indutype":"가구 - 일반가구","category":"other"}]},{"lat":"37.909385357","long":"127.05870296","imageIndex":17,"items":[{"name":"한건축","tel":"031-868-2015","addr":"경기도 동두천시 생연동 497-23번지","indutype":"용역 서비스 - 기타용역서비스","category":"other"}]},{"lat":"37.903133158","long":"127.05815247","imageIndex":17,"items":[{"name":"한국도기타일","tel":"031-858-5657","addr":"경기도 동두천시 생연동 442-10번지 한국수도배관","indutype":"건축자재 - 기타건축자재","category":"other"}]},{"lat":"37.905629909","long":"127.05559596","imageIndex":17,"items":[{"name":"한국설비공사","tel":"031-865-8424","addr":"경기도 동두천시 생연동 598번지 1층","indutype":"건축자재 - 보일러·펌프·샷시","category":"other"}]},{"lat":"37.906937352","long":"127.05309532","imageIndex":17,"items":[{"name":"한국장식","tel":"031-864-6674","addr":"경기도 동두천시 생연동 587-19번지","indutype":"직물 - 카페트,커튼,천막,지물","category":"other"}]},{"lat":"37.907802045","long":"127.05356211","imageIndex":17,"items":[{"name":"한나상사","tel":"031-868-1365","addr":"경기도 동두천시 생연동 609-1번지","indutype":"의류 - 정장","category":"other"}]},{"lat":"37.90763237","long":"127.06873077","imageIndex":17,"items":[{"name":"한독유리","tel":"031-865-4130","addr":"경기도 동두천시 생연동 208-5","indutype":"건축자재 - 유리","category":"other"}]},{"lat":"37.908076008","long":"127.06470584","imageIndex":17,"items":[{"name":"한방향기 좌훈","tel":"031-862-1182","addr":"경기도 동두천시 생연동 222-3번지 지중해사우나내","indutype":"회원제형태 - 기타4","category":"other"}]},{"lat":"37.904869024","long":"127.06407779","imageIndex":17,"items":[{"name":"한빛건설","tel":"","addr":"경기도 동두천시 생연동 231번지 동두천생연동월드메르디앙 101동 1303호","indutype":"건축자재 - 기타건축자재","category":"other"}]},{"lat":"37.907908212","long":"127.05789451","imageIndex":17,"items":[{"name":"한성기획","tel":"031-864-0580","addr":"경기도 동두천시 생연동 488-25","indutype":"건축자재 - 인테리어전문","category":"other"}]},{"lat":"37.903774068","long":"127.05542408","imageIndex":17,"items":[{"name":"한수종합상사","tel":"031-63-4408","addr":"경기도 동두천시 생연동 645-5번지","indutype":"직물 - 옷감·직물","category":"other"}]},{"lat":"37.901268274","long":"127.05806012","imageIndex":17,"items":[{"name":"한일모타펌프","tel":"031-846-2411","addr":"경기도 동두천시 생연동 424-8번지","indutype":"기타 - 기계공구","category":"other"}]},{"lat":"37.904468622","long":"127.05351434","imageIndex":17,"items":[{"name":"한일철물","tel":"031-864-2600","addr":"경기도 동두천시 생연동 658-5번지","indutype":"건축자재 - 목재·석재·철물","category":"other"}]},{"lat":"37.903523071","long":"127.05251311","imageIndex":17,"items":[{"name":"해광전자정보공사","tel":"054-273-7609","addr":"경기도 동두천시 생연동 664-14번지","indutype":"사무통신 - 통신기기","category":"other"}]},{"lat":"37.90701881","long":"127.05220845","imageIndex":17,"items":[{"name":"향기","tel":"","addr":"경기도 동두천시 생연동 825-21번지","indutype":"신변잡화 - 기타잡화","category":"other"}]},{"lat":"37.913990317","long":"127.05609091","imageIndex":17,"items":[{"name":"현대사","tel":"031-865-3334","addr":"경기도 동두천시 생연동 542-6번지 101호","indutype":"광학제품 - 사진관","category":"other"}]},{"lat":"37.908712468","long":"127.05242563","imageIndex":17,"items":[{"name":"현대재활용","tel":"031-866-5900","addr":"경기도 동두천시 생연동 578-30번지 1층","indutype":"주방용구 - 주방용구","category":"other"}]},{"lat":"37.908691759","long":"127.05845228","imageIndex":17,"items":[{"name":"현대전기","tel":"031-863-3645","addr":"경기도 동두천시 생연동 476-10번지","indutype":"전기제품 - 기타전기제품","category":"other"}]},{"lat":"37.905134524","long":"127.05531134","imageIndex":17,"items":[{"name":"현대전문요양원","tel":"031-828-8286","addr":"경기도 동두천시 생연동 644-1번지","indutype":"기타의료기관 - 기타의료기관 및 기타","category":"other"}]},{"lat":"37.908685763","long":"127.05165238","imageIndex":17,"items":[{"name":"현미지물","tel":"031-863-5906","addr":"경기도 동두천시 생연동 829-9번지 1층","indutype":"직물 - 카페트,커튼,천막,지물","category":"other"}]},{"lat":"37.900268395","long":"127.05772965","imageIndex":17,"items":[{"name":"현정홈아트","tel":"031-866-6844","addr":"경기도 동두천시 생연동 730-2번지","indutype":"직물 - 침구·수예점","category":"other"}]},{"lat":"37.900109063","long":"127.05126015","imageIndex":17,"items":[{"name":"형제상회","tel":"031-862-0958","addr":"경기도 동두천시 생연동 698-9번지","indutype":"의류 - 정장","category":"other"}]},{"lat":"37.906188674","long":"127.05517564","imageIndex":17,"items":[{"name":"호국불교천왕사","tel":"","addr":"경기도 동두천시 생연동 601-32번지","indutype":"기타 - 비영리/대상","category":"other"}]},{"lat":"37.905684508","long":"127.05436797","imageIndex":17,"items":[{"name":"호담시가","tel":"031-861-0021","addr":"경기도 동두천시 생연동 601-63번지","indutype":"기타 - 기타 전문점","category":"other"}]},{"lat":"37.900412374","long":"127.05809359","imageIndex":17,"items":[{"name":"호산나플라워","tel":"031-863-4300","addr":"경기도 동두천시 생연동 420-3번지","indutype":"문화.취미 - 화원","category":"other"}]},{"lat":"37.900601596","long":"127.05803688","imageIndex":17,"items":[{"name":"홍대홍플유림사거리점","tel":"031-861-7440","addr":"경기도 동두천시 생연동 422-5번지","indutype":"회원제형태 - 기타1","category":"other"}]},{"lat":"37.90685621","long":"127.05323171","imageIndex":17,"items":[{"name":"화랑지물커텐","tel":"031-864-2298","addr":"경기도 동두천시 생연동 607-2번지","indutype":"직물 - 카페트,커튼,천막,지물","category":"other"},{"name":"흥아상회","tel":"031-865-7404","addr":"경기도 동두천시 생연동 607-2번지","indutype":"주방용구 - 주방용구","category":"other"}]},{"lat":"37.911242708","long":"127.05558859","imageIndex":17,"items":[{"name":"화신양행","tel":"031-865-5969","addr":"경기도 동두천시 생연동 559-11번지","indutype":"직물 - 침구·수예점","category":"other"}]},{"lat":"37.906962048","long":"127.05829179","imageIndex":17,"items":[{"name":"화이트문구","tel":"031-863-4946","addr":"경기도 동두천시 생연동 480-19번지","indutype":"서적문구 - 문구용품","category":"other"}]},{"lat":"37.911213589","long":"127.06006892","imageIndex":17,"items":[{"name":"활인당서점","tel":"031-865-7792","addr":"경기도 동두천시 생연동 514-6번지","indutype":"서적문구 - 일반서적","category":"other"}]},{"lat":"37.898942477","long":"127.06095762","imageIndex":17,"items":[{"name":"황금빛 내 인생","tel":"031-000-0000","addr":"경기도 동두천시 생연동 387-4번지","indutype":"의류 - 정장","category":"other"},{"name":"황금애견","tel":"031-9518-9980","addr":"경기도 동두천시 생연동 387-4번지","indutype":"문화.취미 - 애완동물","category":"other"}]},{"lat":"37.903135824","long":"127.05214901","imageIndex":17,"items":[{"name":"황금상회","tel":"031-862-6060","addr":"경기도 동두천시 생연동 662-6번지","indutype":"의류 - 정장","category":"other"}]},{"lat":"37.913770562","long":"127.06340285","imageIndex":17,"items":[{"name":"효상문구","tel":"031-862-6935","addr":"경기도 동두천시 생연동 160-3번지 2호","indutype":"서적문구 - 문구용품","category":"other"}]},{"lat":"37.903826617","long":"127.05869877","imageIndex":17,"items":[{"name":"효성건축사사무소","tel":"031-866-1231","addr":"경기도 동두천시 생연동 455-15번지","indutype":"용역 서비스 - 사무서비스","category":"other"}]},{"lat":"37.90263114","long":"127.05253525","imageIndex":17,"items":[{"name":"효성전기","tel":"070-4084-1725","addr":"경기도 동두천시 생연동 691-46번지","indutype":"수리서비스 - 기타수리서비스","category":"other"}]},{"lat":"37.897997496","long":"127.05889901","imageIndex":17,"items":[{"name":"후트(HOOT)","tel":"02-546-6001","addr":"경기도 동두천시 생연동 832번지 브라운스톤 104동 1001호","indutype":"신변잡화 - 액세서리","category":"other"}]},{"lat":"37.906712693","long":"127.05173067","imageIndex":17,"items":[{"name":"훼미리청소","tel":"031-861-0021","addr":"경기도 동두천시 생연동 825-200번지","indutype":"회원제형태 - 기타4","category":"other"}]},{"lat":"37.899550993","long":"127.05000912","imageIndex":17,"items":[{"name":"흥농농약사","tel":"031-865-3080","addr":"경기도 동두천시 생연동 714번지","indutype":"농업 - 비료,사료,종자","category":"other"}]},{"lat":"37.903136159","long":"127.05134172","imageIndex":17,"items":[{"name":"희망산업","tel":"031-859-1995","addr":"경기도 동두천시 생연동 823-181번지","indutype":"직물 - 카페트,커튼,천막,지물","category":"other"}]},{"lat":"37.901136486","long":"127.05037397","imageIndex":17,"items":[{"name":"희철이네 지물포","tel":"031-861-8832","addr":"경기도 동두천시 생연동 814-5번지 1층","indutype":"건축자재 - 인테리어전문","category":"other"}]}]