[{"lat":"37.524519043","long":"127.20836209","imageIndex":17,"items":[{"name":"(주)첨단레저지엠티기술연구소","tel":"031-736-9962","addr":"경기도 하남시 교산동 25-1번지","indutype":"레져용품 - 스포츠·레져용품","category":"other"}]},{"lat":"37.522432012","long":"127.20647854","imageIndex":17,"items":[{"name":"(주)피앤케이","tel":"031-794-9990","addr":"경기도 하남시 교산동 143-1번지","indutype":"유통업 영리 - 기타유통업","category":"other"},{"name":"플루텍(FLOOTEC)","tel":"031-791-6507","addr":"경기도 하남시 교산동 143-1번지","indutype":"건축자재 - 기타건축자재","category":"other"}]},{"lat":"37.522539252","long":"127.20170509","imageIndex":17,"items":[{"name":"DK골프존","tel":"031-791-4858","addr":"경기도 하남시 교산동 259-1번지","indutype":"회원제형태 - 레져업소","category":"other"},{"name":"주식회사 쥬마트","tel":"070-7704-7542","addr":"경기도 하남시 교산동 259-1번지 1층","indutype":"문화.취미 - 애완동물","category":"other"},{"name":"한성상사","tel":"031-792-7569","addr":"경기도 하남시 교산동 259-1번지","indutype":"유통업 영리 - 기타유통업","category":"other"}]},{"lat":"37.521877916","long":"127.20384132","imageIndex":17,"items":[{"name":"GS25하남교산점","tel":"","addr":"경기도 하남시 교산동 122-6번지","indutype":"유통업 영리 - 편 의 점","category":"other"},{"name":"주식회사 알앤에이인터내셔날","tel":"031-795-4067","addr":"경기도 하남시 교산동 122-6번지","indutype":"기타 - 기계공구","category":"other"}]},{"lat":"37.522677959","long":"127.20491813","imageIndex":17,"items":[{"name":"W.I 원일 주방기기","tel":"031-792-9592","addr":"경기도 하남시 교산동 113-2번지","indutype":"주방용구 - 주방용구","category":"other"}]},{"lat":"37.52092875","long":"127.20567131","imageIndex":17,"items":[{"name":"건솔통상","tel":"031-796-2397","addr":"경기도 하남시 교산동 89-1번지 1층","indutype":"신변잡화 - 기타잡화","category":"other"}]},{"lat":"37.521571384","long":"127.19859171","imageIndex":17,"items":[{"name":"고골공인중개컨설팅","tel":"031-795-5454","addr":"경기도 하남시 교산동 227-6","indutype":"용역 서비스 - 부동산 중개·임대","category":"other"}]},{"lat":"37.523011458","long":"127.20483984","imageIndex":17,"items":[{"name":"교산골프존","tel":"031-793-2800","addr":"경기도 하남시 교산동 138-6번지","indutype":"회원제형태 - 레져업소","category":"other"}]},{"lat":"37.522680157","long":"127.19825524","imageIndex":17,"items":[{"name":"김환콜렉션하남점","tel":"031-791-7549","addr":"경기도 하남시 교산동 224-6번지","indutype":"의류 - 정장","category":"other"}]},{"lat":"37.519852064","long":"127.20828142","imageIndex":17,"items":[{"name":"꽃수예","tel":"031-793-4554","addr":"경기도 하남시 교산동 49-1 2층-2 1/","indutype":"직물 - 침구·수예점","category":"other"}]},{"lat":"37.519437119","long":"127.20856307","imageIndex":17,"items":[{"name":"넘버원ENG","tel":"031-1544-1104","addr":"경기도 하남시 교산동 49-10번지","indutype":"용역 서비스 - 기타용역서비스","category":"other"}]},{"lat":"37.525069842","long":"127.20767353","imageIndex":17,"items":[{"name":"다옴퍼니처","tel":"031-795-0245","addr":"경기도 하남시 교산동 160-1번지 202호","indutype":"가구 - 일반가구","category":"other"},{"name":"세인트로바니 코리아(St. Rovani Korea)","tel":"054-613-1192","addr":"경기도 하남시 교산동 160-1번지 1층 2층","indutype":"신변잡화 - 가방","category":"other"},{"name":"세인트로바니 코리아(St. Rovani Korea)","tel":"031-794-0970","addr":"경기도 하남시 교산동 160-1번지 1층,2층","indutype":"신변잡화 - 가방","category":"other"}]},{"lat":"37.520600303","long":"127.20278589","imageIndex":17,"items":[{"name":"대승상사","tel":"070-5227-1273","addr":"경기도 하남시 교산동 83-2번지","indutype":"신변잡화 - 가방","category":"other"}]},{"lat":"37.526318125","long":"127.1994752","imageIndex":17,"items":[{"name":"대왕판넬","tel":"031-793-8238","addr":"경기도 하남시 교산동 211-2번지","indutype":"건축자재 - 기타건축자재","category":"other"}]},{"lat":"37.522707505","long":"127.19806301","imageIndex":17,"items":[{"name":"동부공조","tel":"031-792-6768","addr":"경기도 하남시 교산동 224-1번지 1층 103호","indutype":"용역 서비스 - 기타용역서비스","category":"other"},{"name":"핑 (하남춘궁점)","tel":"031-795-8460","addr":"경기도 하남시 교산동 224-1번지","indutype":"의류 - 스포츠의류","category":"other"}]},{"lat":"37.52418467","long":"127.19833835","imageIndex":17,"items":[{"name":"동산화원","tel":"02-472-3830","addr":"경기도 하남시 교산동 220번지","indutype":"문화.취미 - 화원","category":"other"},{"name":"하남재활용센타","tel":"031-796-4943","addr":"경기도 하남시 교산동 220번지 1층","indutype":"신변잡화 - 기타잡화","category":"other"}]},{"lat":"37.52576875","long":"127.199338","imageIndex":17,"items":[{"name":"동성도어목재","tel":"031-792-0560","addr":"경기도 하남시 교산동 213-1번지","indutype":"건축자재 - 목재·석재·철물","category":"other"}]},{"lat":"37.522539823","long":"127.20136573","imageIndex":17,"items":[{"name":"만상철물","tel":"031-796-0409","addr":"경기도 하남시 교산동 260-1번지 103호","indutype":"건축자재 - 목재·석재·철물","category":"other"}]},{"lat":"37.520937041","long":"127.20608987","imageIndex":17,"items":[{"name":"미래상사","tel":"041-623-5513","addr":"경기도 하남시 교산동 92-2번지 예스런던건물 4층 일부","indutype":"레져용품 - 골프용품 전문점","category":"other"},{"name":"에스엠골프(SMG)","tel":"031-111-1111","addr":"경기도 하남시 교산동 92-2번지","indutype":"의류 - 기타의류","category":"other"},{"name":"이유미프로샵","tel":"","addr":"경기도 하남시 교산동 92-2번지","indutype":"레져용품 - 스포츠·레져용품","category":"other"},{"name":"정귀정상사","tel":"02-1577-0000","addr":"경기도 하남시 교산동 92-2번지","indutype":"레져용품 - 골프용품 전문점","category":"other"}]},{"lat":"37.523123226","long":"127.20795102","imageIndex":17,"items":[{"name":"백호스크린","tel":"031-792-6600","addr":"경기도 하남시 교산동 35-2번지","indutype":"레져용품 - 골프용품 전문점","category":"other"}]},{"lat":"37.522763166","long":"127.20775772","imageIndex":17,"items":[{"name":"베스트캐노피","tel":"031-796-7562","addr":"경기도 하남시 교산동 35-24번지","indutype":"직물 - 카페트,커튼,천막,지물","category":"other"}]},{"lat":"37.522460618","long":"127.20556233","imageIndex":17,"items":[{"name":"샘재골프존파크연습장","tel":"031-793-0725","addr":"경기도 하남시 교산동 111-6 외2필지(1층,2층)","indutype":"회원제형태 - 레져업소","category":"other"}]},{"lat":"37.522679089","long":"127.19890004","imageIndex":17,"items":[{"name":"서울건재","tel":"031-793-3318","addr":"경기도 하남시 교산동 229-1번지","indutype":"건축자재 - 기타건축자재","category":"other"},{"name":"주식회사 서울종합건재","tel":"031-793-3318","addr":"경기도 하남시 교산동 229-1번지","indutype":"건축자재 - 목재·석재·철물","category":"other"}]},{"lat":"37.528207005","long":"127.20667524","imageIndex":17,"items":[{"name":"서하공조","tel":"070-8031-4038","addr":"경기도 하남시 교산동 170-2번지 1층","indutype":"용역 서비스 - 기타용역서비스","category":"other"}]},{"lat":"37.524962312","long":"127.20733386","imageIndex":17,"items":[{"name":"세광건재","tel":"031-794-7578","addr":"경기도 하남시 교산동 161-4번지","indutype":"건축자재 - 기타건축자재","category":"other"}]},{"lat":"37.521657303","long":"127.20639725","imageIndex":17,"items":[{"name":"수지베이비","tel":"","addr":"경기도 하남시 교산동 107-1번지 1층","indutype":"서적문구 - 완구점","category":"other"}]},{"lat":"37.520738961","long":"127.20601015","imageIndex":17,"items":[{"name":"신영에어컨","tel":"","addr":"경기도 하남시 교산동 89-9번지 3층","indutype":"용역 서비스 - 기타용역서비스","category":"other"}]},{"lat":"37.526824022","long":"127.20925081","imageIndex":17,"items":[{"name":"신영전파사","tel":"031-794-6776","addr":"경기도 하남시 교산동 13-1번지","indutype":"전기제품 - 가전제품","category":"other"}]},{"lat":"37.521270172","long":"127.20622652","imageIndex":17,"items":[{"name":"아이티씨온","tel":"02-000-0000","addr":"경기도 하남시 교산동 99-1번지","indutype":"사무통신 - 기타 사무용품","category":"other"},{"name":"아이티에스 (ITS)","tel":"","addr":"경기도 하남시 교산동 99-1번지","indutype":"사무통신 - 사무용 OA기기","category":"other"}]},{"lat":"37.518903008","long":"127.20480614","imageIndex":17,"items":[{"name":"열린창호","tel":"031-795-2578","addr":"경기도 하남시 교산동 66-2번지","indutype":"건축자재 - 기타건축자재","category":"other"}]},{"lat":"37.522013126","long":"127.20903394","imageIndex":17,"items":[{"name":"유니콘S","tel":"070-4148-6104","addr":"경기도 하남시 교산동 39-1번지","indutype":"주방용구 - 주방용구","category":"other"}]},{"lat":"37.522407082","long":"127.20525676","imageIndex":17,"items":[{"name":"제이에스(JS)편의점","tel":"031-795-6691","addr":"경기도 하남시 교산동 111-2번지","indutype":"유통업 영리 - 편 의 점","category":"other"}]},{"lat":"37.524122591","long":"127.20837231","imageIndex":17,"items":[{"name":"태영N.T-자재천사","tel":"02-474-0730","addr":"경기도 하남시 교산동 26-2번지","indutype":"건축자재 - 기타건축자재","category":"other"}]},{"lat":"37.523075377","long":"127.20434227","imageIndex":17,"items":[{"name":"하남컨테이너","tel":"031-791-1226","addr":"경기도 하남시 교산동 119-1번지","indutype":"건축자재 - 기타건축자재","category":"other"}]},{"lat":"37.518040534","long":"127.20859317","imageIndex":17,"items":[{"name":"한국불교태고종선법사","tel":"031-792-2654","addr":"경기도 하남시 교산동 55-1","indutype":"기타 - 비영리/대상","category":"other"}]},{"lat":"37.521992242","long":"127.20548188","imageIndex":17,"items":[{"name":"한일스텐","tel":"02-478-2920","addr":"경기도 하남시 교산동 111-26번지","indutype":"기타 - 기계공구","category":"other"},{"name":"한일스텐(주)","tel":"031-796-2910","addr":"경기도 하남시 교산동 111-26번지","indutype":"건축자재 - 기타건축자재","category":"other"}]},{"lat":"37.527651362","long":"127.21014681","imageIndex":17,"items":[{"name":"호광산업","tel":"031-795-9625","addr":"경기도 하남시 교산동 7-6번지 102호","indutype":"기타 - 기계공구","category":"other"}]}]