[{"lat":"37.601172198","long":"127.15665179","imageIndex":17,"items":[{"name":"(주) 그리듯","tel":"070-7785-9292","addr":"경기도 남양주시 다산동 676-1번지 주공프라자 3층 302호","indutype":"직물 - 카페트,커튼,천막,지물","category":"other"},{"name":"팀코리아","tel":"070-4105-0608","addr":"경기도 남양주시 다산동 676-1번지 주공프라자 3층 301호","indutype":"레져용품 - 스포츠·레져용품","category":"other"}]},{"lat":"37.625367686","long":"127.14606485","imageIndex":17,"items":[{"name":"(주) 본컴퍼니","tel":"070-4100-5111","addr":"경기도 남양주시 다산동 6024번지 다산한양수자인리버팰리스상가2 2층 203호","indutype":"의류 - 정장","category":"other"},{"name":"GS25다산수자인점","tel":"","addr":"경기도 남양주시 다산동 6024번지 다산한양수자인리버팰리스 124동 101호","indutype":"유통업 영리 - 편 의 점","category":"other"},{"name":"다산대박공인중개사사무소","tel":"031-552-6200","addr":"경기도 남양주시 다산동 6024번지 다산 한양수자인리버팰리스 상가2 107호","indutype":"용역 서비스 - 부동산 중개·임대","category":"other"},{"name":"백마크리닝(남양주1호점)","tel":"","addr":"경기도 남양주시 다산동 6024번지 다산한양수자인리버팰리스 123동 102호","indutype":"수리서비스 - 세탁소","category":"other"},{"name":"인데코","tel":"","addr":"경기도 남양주시 다산동 6024번지 다산한양수자인리버팰리스 1105동 503호","indutype":"건축자재 - 인테리어전문","category":"other"}]},{"lat":"37.611591805","long":"127.16020684","imageIndex":17,"items":[{"name":"(주) 한별팜텍","tel":"031-556-9008","addr":"경기도 남양주시 다산동 4002-1번지 부영그린타운 216동 1804호","indutype":"용역 서비스 - 사무서비스","category":"other"},{"name":"(주)하나월드관광","tel":"02-1644-3317","addr":"경기도 남양주시 다산동 4002-1번지 부영그린타운 507동 1804호","indutype":"여행 - 관광여행","category":"other"},{"name":"그린공조","tel":"02-549-2503","addr":"경기도 남양주시 다산동 4002-1번지 부영그린타운 311동 2802호","indutype":"용역 서비스 - 기타용역서비스","category":"other"},{"name":"꿈나라솜틀","tel":"031-512-6815","addr":"경기도 남양주시 다산동 4002-1번지 부영그린타운 513동 1705호","indutype":"회원제형태 - 기타4","category":"other"},{"name":"담다","tel":"031-557-0285","addr":"경기도 남양주시 다산동 4002-1번지 부영그린타운 106동 803호","indutype":"회원제형태 - 기타3","category":"other"},{"name":"도농노인주간보호센터","tel":"031-512-1024","addr":"경기도 남양주시 다산동 4002-1번지 부영그린타운 513동 102호","indutype":"기타의료기관 - 기타의료기관 및 기타","category":"other"},{"name":"라까쉐뜨 (La cachette)","tel":"","addr":"경기도 남양주시 다산동 4002-1번지 부영그린타운 510동 1404호","indutype":"신변잡화 - 기타잡화","category":"other"},{"name":"리폼3.3.3 도농점","tel":"070-7469-5050","addr":"경기도 남양주시 다산동 4002-1번지 부영그린타운 511동 903호","indutype":"회원제형태 - 기타1","category":"other"},{"name":"멘토옵티칼","tel":"031-557-9863","addr":"경기도 남양주시 다산동 4002-1번지 부영그린타운 508동 104호","indutype":"회원제형태 - 기타2","category":"other"},{"name":"버스온","tel":"070-8161-4141","addr":"경기도 남양주시 다산동 4002-1번지 부영그린타운 401동 902호","indutype":"여행 - 관광여행","category":"other"},{"name":"버자이너빅토리","tel":"001-0000-0000","addr":"경기도 남양주시 다산동 4002-1번지 부영그린타운 201동 2301호","indutype":"신변잡화 - 액세서리","category":"other"},{"name":"베리팩토리","tel":"02-1111-1111","addr":"경기도 남양주시 다산동 4002-1번지 부영그린타운 514동 2305호","indutype":"의류 - 정장","category":"other"},{"name":"베스트앤굿파트너","tel":"031-563-8485","addr":"경기도 남양주시 다산동 4002-1번지 부영그린타운 105동 1202호","indutype":"회원제형태 - 기타4","category":"other"},{"name":"블루페페","tel":"070-4064-8385","addr":"경기도 남양주시 다산동 4002-1번지 부영그린타운 101동 401호","indutype":"회원제형태 - 기타4","category":"other"},{"name":"비전공조","tel":"","addr":"경기도 남양주시 다산동 4002-1번지 부영그린타운 505동 501호","indutype":"용역 서비스 - 기타용역서비스","category":"other"},{"name":"비포선셋 (BEFORE SUNSET)","tel":"031-553-3002","addr":"경기도 남양주시 다산동 4002-1번지 부영그린타운 308동 401호","indutype":"신변잡화 - 귀금속","category":"other"},{"name":"신우라이텍","tel":"070-8637-9276","addr":"경기도 남양주시 다산동 4002-1번지 부영그린타운 402동 507호","indutype":"광학제품 - 카메라","category":"other"},{"name":"씨앤씨(C&C)쥬얼리","tel":"02-6473-4880","addr":"경기도 남양주시 다산동 4002-1번지 부영그린타운 308동 1604호","indutype":"신변잡화 - 액세서리","category":"other"},{"name":"아바웨딩","tel":"02-927-3666","addr":"경기도 남양주시 다산동 4002-1번지 부영그린타운 309동 2201호","indutype":"회원제형태 - 기타4","category":"other"},{"name":"엔케이스튜디오(NK Studio)","tel":"031-558-1209","addr":"경기도 남양주시 다산동 4002-1번지 부영그린타운 303동 901호","indutype":"문화.취미 - 문화취미기타","category":"other"},{"name":"원 크래프티드","tel":"","addr":"경기도 남양주시 다산동 4002-1번지 부영그린타운 514동 1002호","indutype":"문화.취미 - 민예·공예품","category":"other"},{"name":"웰컴도로시","tel":"031-1111-1111","addr":"경기도 남양주시 다산동 4002-1번지 부영그린타운 110동 2702호","indutype":"의류 - 정장","category":"other"},{"name":"윤아트","tel":"02-521-1269","addr":"경기도 남양주시 다산동 4002-1번지 부영그린타운 301동 1802호","indutype":"용역 서비스 - 사무서비스","category":"other"},{"name":"인더미러","tel":"000-0000-0000","addr":"경기도 남양주시 다산동 4002-1번지 부영그린타운 106동 1503호","indutype":"의류 - 내의판매","category":"other"},{"name":"자연 and 건강","tel":"","addr":"경기도 남양주시 다산동 4002-1번지 부영그린타운 512동 1903호","indutype":"문화.취미 - 화원","category":"other"},{"name":"제이에스","tel":"031-558-4795","addr":"경기도 남양주시 다산동 4002-1번지 부영그린타운 106동 201호","indutype":"회원제형태 - 기타4","category":"other"},{"name":"좋은 자전거","tel":"02-914-2791","addr":"경기도 남양주시 다산동 4002-1번지 부영그린타운 301동 804호","indutype":"수리서비스 - 레져용품수리","category":"other"},{"name":"청개구리","tel":"","addr":"경기도 남양주시 다산동 4002-1번지 부영그린타운 110동 2402호","indutype":"의류 - 아동의류","category":"other"},{"name":"초록유통","tel":"031-5517-0247","addr":"경기도 남양주시 다산동 4002-1번지 부영그린타운 215동 902호","indutype":"회원제형태 - 기타4","category":"other"},{"name":"케이 엘 뮤직 메소드(K.L Music Method)","tel":"","addr":"경기도 남양주시 다산동 4002-1번지 부영그린타운 304동 301호","indutype":"서적문구 - 출판 및 인쇄물","category":"other"},{"name":"케이엠","tel":"031-555-7047","addr":"경기도 남양주시 다산동 4002-1번지 부영그린타운 305동 501호","indutype":"의류 - 정장","category":"other"},{"name":"크린업","tel":"031-554-0544","addr":"경기도 남양주시 다산동 4002-1번지 부영그린타운 211동 101호","indutype":"수리서비스 - 세탁소","category":"other"},{"name":"태영정보","tel":"02-323-7330","addr":"경기도 남양주시 다산동 4002-1번지 부영그린타운 201동 2401호","indutype":"사무통신 - 통신기기","category":"other"},{"name":"포이즈맨","tel":"070-8272-3464","addr":"경기도 남양주시 다산동 4002-1번지 부영그린타운 108동 501호","indutype":"회원제형태 - 기타4","category":"other"},{"name":"피닉스유통","tel":"031-558-2089","addr":"경기도 남양주시 다산동 4002-1번지 부영그린타운 311동 2002호","indutype":"회원제형태 - 기타1","category":"other"},{"name":"피오레벗님","tel":"070-5712-7173","addr":"경기도 남양주시 다산동 4002-1번지 부영그린타운 803동 603호","indutype":"회원제형태 - 기타1","category":"other"},{"name":"하기오스킨더가든","tel":"031-577-7144","addr":"경기도 남양주시 다산동 4002-1번지 부영그린타운 110동 102호","indutype":"회원제형태 - 기타4","category":"other"},{"name":"하이테크LED밝은세상","tel":"02-435-2945","addr":"경기도 남양주시 다산동 4002-1번지 부영그린타운 106동 702호","indutype":"건축자재 - 조명기구","category":"other"},{"name":"호놀룰루랄라","tel":"","addr":"경기도 남양주시 다산동 4002-1번지 부영그린타운 104동 2202호","indutype":"문화.취미 - 애완동물","category":"other"}]},{"lat":"37.608809677","long":"127.15180898","imageIndex":17,"items":[{"name":"(주)남양주구리친환경상품지원센터","tel":"031-554-2714","addr":"경기도 남양주시 다산동 4306-36번지","indutype":"신변잡화 - 기타잡화","category":"other"},{"name":"아트앤스마트락","tel":"031-564-0570","addr":"경기도 남양주시 다산동 4306-36번지 1층","indutype":"건축자재 - 목재·석재·철물","category":"other"}]},{"lat":"37.604307278","long":"127.15689606","imageIndex":17,"items":[{"name":"(주)드림에코이엔지","tel":"031-566-0600","addr":"경기도 남양주시 다산동 667-4번지 407호","indutype":"용역 서비스 - 기타용역서비스","category":"other"},{"name":"도이 (Doi)","tel":"","addr":"경기도 남양주시 다산동 667-4번지 마이라이프2 9층 907호","indutype":"의류 - 정장","category":"other"}]},{"lat":"37.598981275","long":"127.15783627","imageIndex":17,"items":[{"name":"(주)라이프 렌트카 남양주영업소","tel":"070-4711-8059","addr":"경기도 남양주시 다산동 680번지 B&M주차빌딩 2층 209호","indutype":"여행 - 렌터카","category":"other"},{"name":"안전25시","tel":"070-7116-2525","addr":"경기도 남양주시 다산동 680번지 B&M주차빌딩 1층 109호","indutype":"기타 - 기계공구","category":"other"},{"name":"우리동네 똥강아지","tel":"","addr":"경기도 남양주시 다산동 680번지 B&M주차빌딩 1층 107호","indutype":"문화.취미 - 애완동물","category":"other"},{"name":"윤선플라워","tel":"031-551-8105","addr":"경기도 남양주시 다산동 680번지 B&M주차빌딩 104호","indutype":"문화.취미 - 화원","category":"other"}]},{"lat":"37.603528968","long":"127.15953305","imageIndex":17,"items":[{"name":"(주)삼안측량설계","tel":"031-555-5295","addr":"경기도 남양주시 다산동 608-6번지 2층","indutype":"용역 서비스 - 사무서비스","category":"other"}]},{"lat":"37.604278944","long":"127.15789256","imageIndex":17,"items":[{"name":"(주)아이스하우스","tel":"031-552-0208","addr":"경기도 남양주시 다산동 666-1번지 아인스빌","indutype":"전기제품 - 기타전기제품","category":"other"},{"name":"대한라이프","tel":"031-556-9997","addr":"경기도 남양주시 다산동 666-1번지 아인스빌 810호","indutype":"용역 서비스 - 가례서비스업","category":"other"},{"name":"엘에스텍","tel":"070-7797-7123","addr":"경기도 남양주시 다산동 666-1번지 아인스빌 501호","indutype":"서적문구 - 과학기자재","category":"other"},{"name":"주식회사 문서보안관","tel":"031-1566-6204","addr":"경기도 남양주시 다산동 666-1번지 아인스빌오피스텔 1006호","indutype":"용역 서비스 - 사무서비스","category":"other"},{"name":"해성안전","tel":"031-552-9400","addr":"경기도 남양주시 다산동 666-1번지 아인스빌 714호","indutype":"기타 - 기계공구","category":"other"}]},{"lat":"37.609670713","long":"127.15486855","imageIndex":17,"items":[{"name":"(주)예림원","tel":"031-569-2357","addr":"경기도 남양주시 다산동 4029-10번지 104호","indutype":"가구 - 기타가구","category":"other"},{"name":"동대문오빠","tel":"031-0000-0000","addr":"경기도 남양주시 다산동 4029-10번지 1층 103호","indutype":"의류 - 정장","category":"other"}]},{"lat":"37.606142497","long":"127.15900626","imageIndex":17,"items":[{"name":"(주)월드하나","tel":"031-555-0022","addr":"경기도 남양주시 다산동 617-64번지 가운상가 3층","indutype":"여행 - 관광여행","category":"other"},{"name":"가운로타리클럽","tel":"031-566-3601","addr":"경기도 남양주시 다산동 617-64번지 가운상가 2층 202-1호","indutype":"기타 - 비영리/비대상","category":"other"},{"name":"법무사신태성사무소","tel":"031-567-0162","addr":"경기도 남양주시 다산동 617-64번지 가운상가 203호","indutype":"용역 서비스 - 법률회계서비스(개인)","category":"other"},{"name":"최경진법무사","tel":"031-559-6655","addr":"경기도 남양주시 다산동 617-64번지 가문 상가 202호","indutype":"용역 서비스 - 법률회계서비스(개인)","category":"other"}]},{"lat":"37.60453512","long":"127.15489207","imageIndex":17,"items":[{"name":"(주)유림산업","tel":"031-567-0505","addr":"경기도 남양주시 다산동 668-2번지 가운리슈빌 225호","indutype":"건축자재 - 기타건축자재","category":"other"},{"name":"이마트24 가운리슈빌","tel":"031-111-1111","addr":"경기도 남양주시 다산동 668-2번지 가운리슈빌 1층 103호","indutype":"유통업 영리 - 편 의 점","category":"other"},{"name":"케이씨씨(KCC)뷰","tel":"031-521-7798","addr":"경기도 남양주시 다산동 668-2번지 가운리슈빌 229호","indutype":"레져용품 - 스포츠·레져용품","category":"other"}]},{"lat":"37.608557629","long":"127.15861492","imageIndex":17,"items":[{"name":"(주)이현앤컴퍼니","tel":"070-8671-7599","addr":"경기도 남양주시 다산동 4001-29번지 부영애시앙상업시설원앙관 154호","indutype":"용역 서비스 - 부동산 중개·임대","category":"other"},{"name":"99프로","tel":"031-553-7529","addr":"경기도 남양주시 다산동 4001-29번지 부영애시앙원앙관 131호","indutype":"의류 - 정장","category":"other"},{"name":"J.S wisdom","tel":"031-567-1240","addr":"경기도 남양주시 다산동 4001-29번지 부영애시앙사랑관187호","indutype":"의류 - 정장","category":"other"},{"name":"Nail&Nails","tel":"031-551-5242","addr":"경기도 남양주시 다산동 4001-29번지 부영애시앙 상가 162호","indutype":"회원제형태 - 기타4","category":"other"},{"name":"그언니네공방","tel":"031-572-4242","addr":"경기도 남양주시 다산동 4001-29번지 상가동 랑관 2층 216호","indutype":"문화.취미 - 문화취미기타","category":"other"},{"name":"금비","tel":"031-566-4852","addr":"경기도 남양주시 다산동 4001-29번지 부영애시앙 146호 사랑관","indutype":"신변잡화 - 액세서리","category":"other"},{"name":"댕댕아 밥먹자","tel":"070-8731-6767","addr":"경기도 남양주시 다산동 4001-29번지 부영에시앙 상가동 1층 154호","indutype":"문화.취미 - 애완동물","category":"other"},{"name":"더블유 (W)","tel":"031-563-4236","addr":"경기도 남양주시 다산동 4001-29번지 부영애시앙 원양관 141호","indutype":"의류 - 정장","category":"other"},{"name":"라보떼(La Beaute)","tel":"031-551-2434","addr":"경기도 남양주시 다산동 4001-29번지 129호 상가","indutype":"신변잡화 - 액세서리","category":"other"},{"name":"라임","tel":"02-997-9977","addr":"경기도 남양주시 다산동 4001-29번지 부영애시앙 122호","indutype":"의류 - 정장","category":"other"},{"name":"로봇창의클럽도농점","tel":"031-567-2695","addr":"경기도 남양주시 다산동 4001-29번지 부영애시앙 지하1층","indutype":"서적문구 - 과학기자재","category":"other"},{"name":"로즈레","tel":"","addr":"경기도 남양주시 다산동 4001-29번지 애시앙원앙관 118호","indutype":"신변잡화 - 기타잡화","category":"other"},{"name":"림림","tel":"","addr":"경기도 남양주시 다산동 4001-29번지 상가동사랑관 138호","indutype":"의류 - 기타의류","category":"other"},{"name":"마린 공방","tel":"","addr":"경기도 남양주시 다산동 4001-29번지 부영애시앙 원앙관 145호","indutype":"문화.취미 - 문화취미기타","category":"other"},{"name":"매직아트","tel":"070-1111-1111","addr":"경기도 남양주시 다산동 4001-29번지 부영애시앙원앙관 138호","indutype":"회원제형태 - 기타1","category":"other"},{"name":"메인","tel":"031-555-3813","addr":"경기도 남양주시 다산동 4001-29번지 원앙관 123호","indutype":"의류 - 정장","category":"other"},{"name":"명품옷수선","tel":"031-565-7816","addr":"경기도 남양주시 다산동 4001-29번지 부영애시앙 139호","indutype":"수리서비스 - 세탁소","category":"other"},{"name":"미니골드도농점","tel":"070-8724-0057","addr":"경기도 남양주시 다산동 4001-29번지 부영애시앙 124호","indutype":"신변잡화 - 액세서리","category":"other"},{"name":"베일리마망","tel":"031-514-3773","addr":"경기도 남양주시 다산동 4001-29번지 부영애시앙 904동 1803호","indutype":"광학제품 - 사진관","category":"other"},{"name":"벨르","tel":"031-1111-1111","addr":"경기도 남양주시 다산동 4001-29번지 부영애시앙 사랑동 116호 사랑관","indutype":"신변잡화 - 기타잡화","category":"other"},{"name":"블랑","tel":"031-825-5009","addr":"경기도 남양주시 다산동 4001-29번지 부영애시앙 127호","indutype":"의류 - 정장","category":"other"},{"name":"블럭꾸러기","tel":"031-513-4938","addr":"경기도 남양주시 다산동 4001-29번지 부영애시앙 원앙관 122호","indutype":"서적문구 - 완구점","category":"other"},{"name":"블록피아도농교육원","tel":"031-563-3336","addr":"경기도 남양주시 다산동 4001-29번지 부영영애시앙사랑관 226호","indutype":"서적문구 - 완구점","category":"other"},{"name":"블루","tel":"031-556-2725","addr":"경기도 남양주시 다산동 4001-29번지 부영애시앙 137호 원앙관","indutype":"의류 - 정장","category":"other"},{"name":"블루밍","tel":"031-554-3578","addr":"경기도 남양주시 다산동 4001-29번지 부영애시앙사랑관 144호","indutype":"회원제형태 - 기타4","category":"other"},{"name":"비비드(Vivid)","tel":"031-552-6736","addr":"경기도 남양주시 다산동 4001-29번지 부영애시앙 원양관 153호","indutype":"의류 - 정장","category":"other"},{"name":"비와이씨(BYC)다산점","tel":"031-557-9572","addr":"경기도 남양주시 다산동 4001-29번지 부영애시앙 108호","indutype":"의류 - 정장","category":"other"},{"name":"새롬통신","tel":"031-510-8220","addr":"경기도 남양주시 다산동 4001-29번지 부영애시앙 140호","indutype":"사무통신 - 통신기기","category":"other"},{"name":"수지엔틱","tel":"031-565-7688","addr":"경기도 남양주시 다산동 4001-29번지 부영애시앙 169호","indutype":"가구 - 기타가구","category":"other"},{"name":"썬(SUN)","tel":"","addr":"경기도 남양주시 다산동 4001-29번지 부영애시앙 136호","indutype":"의류 - 정장","category":"other"},{"name":"쏘피","tel":"","addr":"경기도 남양주시 다산동 4001-29번지 부영애시앙사랑관 176호","indutype":"의류 - 정장","category":"other"},{"name":"씨유도농사랑점","tel":"031-556-4580","addr":"경기도 남양주시 다산동 4001-29번지 1층제원양관116-1호,116-2호","indutype":"유통업 영리 - 편 의 점","category":"other"},{"name":"아네(ane)","tel":"031-551-8043","addr":"경기도 남양주시 다산동 4001-29번지 부영애시앙 124호","indutype":"의류 - 기타의류","category":"other"},{"name":"아라","tel":"031-566-3135","addr":"경기도 남양주시 다산동 4001-29번지 106호 , 부영애시앙원앙관","indutype":"의류 - 기타의류","category":"other"},{"name":"애프리","tel":"031-848-3691","addr":"경기도 남양주시 다산동 4001-29번지 부영애시앙 135호","indutype":"의류 - 정장","category":"other"},{"name":"에카(eka)","tel":"031-555-1975","addr":"경기도 남양주시 다산동 4001-29번지 126호 부영에시앙사랑관","indutype":"의류 - 정장","category":"other"},{"name":"엘가든홈","tel":"111-1111-111","addr":"경기도 남양주시 다산동 4001-29번지 부영에시앙사랑관 101호","indutype":"직물 - 침구·수예점","category":"other"},{"name":"연주네","tel":"001-0000-0000","addr":"경기도 남양주시 다산동 4001-29번지 부영애시앙제사랑관 1층 124호","indutype":"신변잡화 - 신발","category":"other"},{"name":"오구오구내새끼","tel":"031-516-5959","addr":"경기도 남양주시 다산동 4001-29번지 부영에시앙 원양관 127호","indutype":"문화.취미 - 애완동물","category":"other"},{"name":"오드리","tel":"031-551-1975","addr":"경기도 남양주시 다산동 4001-29번지 부영에시앙사랑관 110호","indutype":"신변잡화 - 신발","category":"other"},{"name":"오페라","tel":"031-515-3536","addr":"경기도 남양주시 다산동 4001-29번지 부영애시앙 120호","indutype":"의류 - 정장","category":"other"},{"name":"온리원(ONLY ONE)","tel":"031-576-7351","addr":"경기도 남양주시 다산동 4001-29번지 원앙부영애시앙 140호","indutype":"의류 - 정장","category":"other"},{"name":"온엔오프","tel":"","addr":"경기도 남양주시 다산동 4001-29번지 부영애시앙 사랑관 134호","indutype":"의류 - 정장","category":"other"},{"name":"올리브2","tel":"031-565-5006","addr":"경기도 남양주시 다산동 4001-29번지 주상복합 1층 제사랑관 137호","indutype":"의류 - 정장","category":"other"},{"name":"옷다방","tel":"","addr":"경기도 남양주시 다산동 4001-29번지 부영 애시앙 사랑관 109호","indutype":"의류 - 정장","category":"other"},{"name":"웰빙앤스파","tel":"031-556-7006","addr":"경기도 남양주시 다산동 4001-29번지 부영베리홈원앙관 2층 201호","indutype":"회원제형태 - 기타4","category":"other"},{"name":"위즈덤","tel":"031-567-1240","addr":"경기도 남양주시 다산동 4001-29번지 부영애시앙 사랑관 188호","indutype":"의류 - 정장","category":"other"},{"name":"인더미러","tel":"070-4115-5693","addr":"경기도 남양주시 다산동 4001-29번지 부영애시앙 2동 134호","indutype":"의류 - 정장","category":"other"},{"name":"장미옷수선","tel":"03-111-1111","addr":"경기도 남양주시 다산동 4001-29번지 부영애시앙 1층 130호","indutype":"수리서비스 - 세탁소","category":"other"},{"name":"정원옷수선","tel":"031-564-7775","addr":"경기도 남양주시 다산동 4001-29번지 부영애시앙 사랑관 225-2","indutype":"수리서비스 - 세탁소","category":"other"},{"name":"제이스토리","tel":"031-557-3679","addr":"경기도 남양주시 다산동 4001-29번지 117호 , 부영애시앙사랑관","indutype":"의류 - 정장","category":"other"},{"name":"첼로","tel":"","addr":"경기도 남양주시 다산동 4001-29번지 부영애시앙 사랑관 147호","indutype":"의류 - 정장","category":"other"},{"name":"츠바사","tel":"031-567-1602","addr":"경기도 남양주시 다산동 4001-29번지 사랑관 171호","indutype":"의류 - 정장","category":"other"},{"name":"카라","tel":"031-000-0000","addr":"경기도 남양주시 다산동 4001-29번지 제상가동 1층 145호","indutype":"의류 - 정장","category":"other"},{"name":"코럴핑크","tel":"","addr":"경기도 남양주시 다산동 4001-29번지 부영에시앙원앙관 142호","indutype":"의류 - 정장","category":"other"},{"name":"클래식","tel":"031-562-6347","addr":"경기도 남양주시 다산동 4001-29번지 부영애시앙 상가동 사랑관 136호","indutype":"의류 - 정장","category":"other"},{"name":"타임몰","tel":"031-528-6263","addr":"경기도 남양주시 다산동 4001-29번지 원양관동 1층 155호","indutype":"신변잡화 - 액세서리","category":"other"},{"name":"프럼에스(from S)","tel":"031-566-1998","addr":"경기도 남양주시 다산동 4001-29번지 부영 애시앙 사랑관 168호","indutype":"문화.취미 - 화원","category":"other"},{"name":"프로바이오","tel":"070-8783-4003","addr":"경기도 남양주시 다산동 4001-29번지 부영애시앙 901동 1406호","indutype":"서적문구 - 과학기자재","category":"other"},{"name":"프리티 돈나","tel":"031-577-0707","addr":"경기도 남양주시 다산동 4001-29번지 173호 부영애시앙 사랑관","indutype":"의류 - 정장","category":"other"},{"name":"피오레(fiore)","tel":"","addr":"경기도 남양주시 다산동 4001-29번지 부영애시앙 904동 904호","indutype":"문화.취미 - 화원","category":"other"},{"name":"휴대폰쇼핑몰","tel":"","addr":"경기도 남양주시 다산동 4001-29번지 부영애시앙 132호","indutype":"사무통신 - 통신기기","category":"other"}]},{"lat":"37.626948989","long":"127.15672752","imageIndex":17,"items":[{"name":"(주)코쿤스","tel":"031-551-7776","addr":"경기도 남양주시 다산동 6031번지 다산아이파크 상가 121호","indutype":"사무통신 - 통신기기","category":"other"},{"name":"GS25다산아이파크점","tel":"","addr":"경기도 남양주시 다산동 6031번지 다산아이파크 상가동 1층 101호","indutype":"유통업 영리 - 편 의 점","category":"other"},{"name":"YJ통신","tel":"031-563-0829","addr":"경기도 남양주시 다산동 6031번지 다산아이파크 1층 109호","indutype":"사무통신 - 통신기기","category":"other"},{"name":"다산폰마트","tel":"031-551-7776","addr":"경기도 남양주시 다산동 6031번지 다산아이파크 상가동 121호","indutype":"사무통신 - 통신기기","category":"other"},{"name":"애플몽키","tel":"031-566-5562","addr":"경기도 남양주시 다산동 6031번지 다산아이파크 상가동 117호","indutype":"서적문구 - 문구용품","category":"other"},{"name":"이마트24 다산아이파크점","tel":"031-111-1111","addr":"경기도 남양주시 다산동 6031번지 상가 100동 113호 다산진건지구","indutype":"유통업 영리 - 편 의 점","category":"other"}]},{"lat":"37.605560399","long":"127.15630975","imageIndex":17,"items":[{"name":"(주)하나항공여행사","tel":"031-553-2626","addr":"경기도 남양주시 다산동 4117번지","indutype":"여행 - 관광여행","category":"other"}]},{"lat":"37.605418031","long":"127.15492784","imageIndex":17,"items":[{"name":"(주)현대리바트 스타일샵 남양주 전시장","tel":"031-558-2155","addr":"경기도 남양주시 다산동 4129-1번지 ,1-3층","indutype":"가구 - 일반가구","category":"other"}]},{"lat":"37.60936838","long":"127.15173081","imageIndex":17,"items":[{"name":"3K스포츠","tel":"031-551-6200","addr":"경기도 남양주시 다산동 4306-1번지 1층","indutype":"레져용품 - 스포츠·레져용품","category":"other"},{"name":"씨드","tel":"031-563-2780","addr":"경기도 남양주시 다산동 4306-1번지","indutype":"의류 - 기타의류","category":"other"}]},{"lat":"37.597592297","long":"127.15895442","imageIndex":17,"items":[{"name":"A+과학나라구리지사","tel":"031-557-7788","addr":"경기도 남양주시 다산동 691-1번 다성타워3층","indutype":"서적문구 - 일반서적","category":"other"},{"name":"백마크리닝(남양주4호점)","tel":"","addr":"경기도 남양주시 다산동 691-1번지 다성타워 1층 1호","indutype":"수리서비스 - 세탁소","category":"other"},{"name":"오렌지나무","tel":"031-522-5954","addr":"경기도 남양주시 다산동 691-1번지 다성타워 1층 2호","indutype":"문화.취미 - 문화취미기타","category":"other"}]},{"lat":"37.61486082","long":"127.16134635","imageIndex":17,"items":[{"name":"DM유통","tel":"","addr":"경기도 남양주시 다산동 3391-43번지 B동 302호","indutype":"기타 - 기계공구","category":"other"}]},{"lat":"37.611226265","long":"127.15728407","imageIndex":17,"items":[{"name":"E그린세탁","tel":"031-558-6440","addr":"경기도 남양주시 다산동 4002-10번지 부영1단지 상가 103호","indutype":"수리서비스 - 세탁소","category":"other"},{"name":"부영문구","tel":"070-8822-1630","addr":"경기도 남양주시 다산동 4002-10번지 제분산상가동 105호-2","indutype":"서적문구 - 문구용품","category":"other"}]},{"lat":"37.603557719","long":"127.15823079","imageIndex":17,"items":[{"name":"GS25가운주공점","tel":"","addr":"경기도 남양주시 다산동 671번지 남양주가운마을휴먼시아2단지 104호","indutype":"유통업 영리 - 편 의 점","category":"other"},{"name":"디자인숲 광고기획","tel":"031-577-3777","addr":"경기도 남양주시 다산동 671번지 남양주가운마을휴먼시아2단지 204동 103호","indutype":"용역 서비스 - 종합용역","category":"other"},{"name":"주영 에어컨나라","tel":"031-558-8511","addr":"경기도 남양주시 다산동 671번지 남양주가운마을휴먼시아2단지 202동 101호","indutype":"용역 서비스 - 기타용역서비스","category":"other"}]},{"lat":"37.59828335","long":"127.1609828","imageIndex":17,"items":[{"name":"GS25남양가운점","tel":"","addr":"경기도 남양주시 다산동 685-1번지 미성프라자 111호","indutype":"유통업 영리 - 편 의 점","category":"other"},{"name":"가운골프","tel":"031-557-2233","addr":"경기도 남양주시 다산동 685-1번지 미성프라자 302호","indutype":"회원제형태 - 레져업소","category":"other"},{"name":"디앤에이치어패럴 (D&H APPAREL)","tel":"031-568-3888","addr":"경기도 남양주시 다산동 685-1번지 미성프라자 201호","indutype":"의류 - 정장","category":"other"},{"name":"멜로망스 플라워","tel":"","addr":"경기도 남양주시 다산동 685-1번지 미성프라자 105호","indutype":"문화.취미 - 화원","category":"other"},{"name":"스튜디오미소감","tel":"031-555-3090","addr":"경기도 남양주시 다산동 685-1외1필지 미성프라자제3층제301호","indutype":"광학제품 - 사진관","category":"other"}]},{"lat":"37.608251173","long":"127.15172859","imageIndex":17,"items":[{"name":"GS25남양도농점","tel":"080-555-2525","addr":"경기도 남양주시 다산동 4306-5번지 연성프라자 1층 106호","indutype":"유통업 영리 - 편 의 점","category":"other"}]},{"lat":"37.604534331","long":"127.1555036","imageIndex":17,"items":[{"name":"GS25남양브릭스점","tel":"02-2006-2485","addr":"경기도 남양주시 다산동 668-3번지 브릭스타워 109호","indutype":"유통업 영리 - 편 의 점","category":"other"},{"name":"고은빛우리옷","tel":"031-555-4454","addr":"경기도 남양주시 다산동 668-3번지 브릭스타워 103호","indutype":"의류 - 맞춤복점","category":"other"},{"name":"광민정보통신","tel":"031-528-6263","addr":"경기도 남양주시 다산동 668-3번지 브릭스타워 1층 108호","indutype":"사무통신 - 통신기기","category":"other"},{"name":"라온 필라테스","tel":"031-556-5130","addr":"경기도 남양주시 다산동 668-3번지 브릭스타워 319호","indutype":"회원제형태 - 레져업소","category":"other"},{"name":"법무법인명성","tel":"031-555-6601","addr":"경기도 남양주시 다산동 668-3번지 브릭스타워","indutype":"용역 서비스 - 법률회계서비스(법인)","category":"other"},{"name":"변호사 안상일 법률사무소","tel":"031-523-8222","addr":"경기도 남양주시 다산동 668-3번지 브릭스타워 4층 414호","indutype":"용역 서비스 - 법률회계서비스(개인)","category":"other"},{"name":"변호사차유경법률사무소","tel":"031-555-6601","addr":"경기도 남양주시 다산동 668-3번지 브릭스타워 4층 401호","indutype":"용역 서비스 - 법률회계서비스(개인)","category":"other"},{"name":"신화세무회계사무소","tel":"031-552-0799","addr":"경기도 남양주시 다산동 668-3번지 브릭스타워 403호","indutype":"용역 서비스 - 법률회계서비스(개인)","category":"other"},{"name":"실리러브","tel":"031-556-9220","addr":"경기도 남양주시 다산동 668-3번지 브릭스타워 110호","indutype":"의류 - 정장","category":"other"},{"name":"제이앤시크","tel":"070-8639-5222","addr":"경기도 남양주시 다산동 668-3번지 브릭스타워 213호","indutype":"의류 - 정장","category":"other"}]},{"lat":"37.600065127","long":"127.17539059","imageIndex":17,"items":[{"name":"GS25다산금강점","tel":"","addr":"경기도 남양주시 다산동 6215번지 단지내상가 205호 ,206","indutype":"유통업 영리 - 편 의 점","category":"other"},{"name":"금강 명품 세탁 편의점","tel":"031-551-8282","addr":"경기도 남양주시 다산동 6215번지 다산 펜테리움 리버테라스 1 202호","indutype":"수리서비스 - 세탁소","category":"other"},{"name":"써니의식탁","tel":"","addr":"경기도 남양주시 다산동 6215번지 다산펜테리움리버테라스I 7301동 2403호","indutype":"문화.취미 - 문화취미기타","category":"other"},{"name":"씨유다산금강펜테리움점","tel":"080-080-3663","addr":"경기도 남양주시 다산동 6215번지 금강펜테리움 정문 상가동 104호","indutype":"유통업 영리 - 편 의 점","category":"other"},{"name":"찌니소잉","tel":"000-0000-0000","addr":"경기도 남양주시 다산동 6215번지 7307동 1802호 다산펜테리움리버테라스I","indutype":"신변잡화 - 기타잡화","category":"other"}]},{"lat":"37.611980361","long":"127.16600643","imageIndex":17,"items":[{"name":"GS25다산도서관점","tel":"","addr":"경기도 남양주시 다산동 6181-6번지 1층","indutype":"유통업 영리 - 편 의 점","category":"other"}]},{"lat":"37.623142379","long":"127.15323084","imageIndex":17,"items":[{"name":"GS25다산라페온빌점","tel":"","addr":"경기도 남양주시 다산동 6089-2번지 다산진건지구 업무1-3 1동 105호","indutype":"유통업 영리 - 편 의 점","category":"other"}]},{"lat":"37.606809923","long":"127.17158966","imageIndex":17,"items":[{"name":"GS25다산에일린점","tel":"","addr":"경기도 남양주시 다산동 6208번지 상가동 B214호, B215호","indutype":"유통업 영리 - 편 의 점","category":"other"},{"name":"에일린의뜰 명품세탁소","tel":"031-552-1395","addr":"경기도 남양주시 다산동 6208번지 상가동 B201호","indutype":"수리서비스 - 세탁소","category":"other"}]},{"lat":"37.598560524","long":"127.16909115","imageIndex":17,"items":[{"name":"GS25다산유보라점","tel":"","addr":"경기도 남양주시 다산동 6234번지 1동 109호(반도유보라 메이플타운 단지내상가)","indutype":"유통업 영리 - 편 의 점","category":"other"},{"name":"반도명품세탁소","tel":"031-551-1599","addr":"경기도 남양주시 다산동 6234번지 다산반도유보라메이플타운2.0 상가 2동 지하1층 B02호","indutype":"수리서비스 - 세탁소","category":"other"},{"name":"크린에이드","tel":"031-567-8880","addr":"경기도 남양주시 다산동 6234번지 1동 104호","indutype":"수리서비스 - 세탁소","category":"other"}]},{"lat":"37.620756494","long":"127.1588669","imageIndex":17,"items":[{"name":"GS25다산진건점","tel":"","addr":"경기도 남양주시 다산동 6104-3번지 다산진건지구 F2-9-4 102호","indutype":"유통업 영리 - 편 의 점","category":"other"}]},{"lat":"37.6196409","long":"127.15764127","imageIndex":17,"items":[{"name":"GS25다산플레이스점","tel":"","addr":"경기도 남양주시 다산동 6130-2번지 다산성산플레이스2 110호","indutype":"유통업 영리 - 편 의 점","category":"other"}]},{"lat":"37.600204018","long":"127.17280905","imageIndex":17,"items":[{"name":"GS25다산한강점","tel":"","addr":"경기도 남양주시 다산동 6222번지 1층","indutype":"유통업 영리 - 편 의 점","category":"other"}]},{"lat":"37.620141266","long":"127.14670046","imageIndex":17,"items":[{"name":"GS25다산한양점","tel":"","addr":"경기도 남양주시 다산동 6075번지 115동 108호 다산한양수자인리버파크 근린생활시설","indutype":"유통업 영리 - 편 의 점","category":"other"},{"name":"노랑풍선기프트","tel":"","addr":"경기도 남양주시 다산동 6075번지 다산한양수자인리버파크 3206동 201호","indutype":"유통업 영리 - 기타유통업","category":"other"},{"name":"다산 가족부동산 공인중개사사무소","tel":"031-565-2223","addr":"경기도 남양주시 다산동 6075번지 다산한양수자인리버파크 115동 103호","indutype":"용역 서비스 - 부동산 중개·임대","category":"other"},{"name":"루씨르","tel":"","addr":"경기도 남양주시 다산동 6075번지 다산한양수자인리버파크 3206동 703호","indutype":"신변잡화 - 액세서리","category":"other"}]},{"lat":"37.609813537","long":"127.15589945","imageIndex":17,"items":[{"name":"GS25도농부영점","tel":"","addr":"경기도 남양주시 다산동 4025-17번지 1층","indutype":"유통업 영리 - 편 의 점","category":"other"},{"name":"마이다스디자인(MIDAS DESIGN)","tel":"031-511-5600","addr":"경기도 남양주시 다산동 4025-17번지 3층","indutype":"건축자재 - 인테리어전문","category":"other"}]},{"lat":"37.608174169","long":"127.16239672","imageIndex":17,"items":[{"name":"HM종합공구공업사","tel":"031-563-8373","addr":"경기도 남양주시 다산동 3129-3번지","indutype":"기타 - 기계공구","category":"other"},{"name":"라멘떼","tel":"031-554-1450","addr":"경기도 남양주시 다산동 3129-3번지 2층","indutype":"회원제형태 - 기타1","category":"other"}]},{"lat":"37.605282286","long":"127.15539188","imageIndex":17,"items":[{"name":"MBT마사이워킹센타(엠베테코리아남양주도농","tel":"031-558-5552","addr":"경기도 남양주시 다산동 4118-1번지","indutype":"레져용품 - 스포츠·레져용품","category":"other"}]},{"lat":"37.607252798","long":"127.1503676","imageIndex":17,"items":[{"name":"SKY골프연습장","tel":"031-567-0077","addr":"경기도 남양주시 다산동 4432-2번지 남양아이좋은집 상가동 4층","indutype":"회원제형태 - 레져업소","category":"other"},{"name":"굿에어","tel":"031-512-9214","addr":"경기도 남양주시 다산동 4432-2번지 남양아이좋은집 723동 15층 1505호","indutype":"용역 서비스 - 종합용역","category":"other"},{"name":"마이베이비핀","tel":"070-4242-0229","addr":"경기도 남양주시 다산동 4432-2번지 남양아이좋은집 상가동 2층 201호","indutype":"신변잡화 - 액세서리","category":"other"},{"name":"시크베베","tel":"031-512-2036","addr":"경기도 남양주시 다산동 4432-2번지 남양좋은집 725동 201호","indutype":"회원제형태 - 기타1","category":"other"},{"name":"씨유도농남양스타점","tel":"031-555-1306","addr":"경기도 남양주시 다산동 4432-2번지 남양아이좋은집 상가동 206호, 207호","indutype":"유통업 영리 - 편 의 점","category":"other"},{"name":"우리교육사","tel":"070-4634-5362","addr":"경기도 남양주시 다산동 4432-2번지 남양아이좋은집 722동 2402호","indutype":"서적문구 - 기타서적문구","category":"other"},{"name":"크리스탈크리닝","tel":"031-566-6640","addr":"경기도 남양주시 다산동 4432-2번지 남양아이좋은집 상가 205호","indutype":"수리서비스 - 세탁소","category":"other"}]},{"lat":"37.608311153","long":"127.16761792","imageIndex":17,"items":[{"name":"SUB컴퍼니","tel":"070-4325-1265","addr":"경기도 남양주시 다산동 3085-50번지 102호","indutype":"유통업 영리 - 기타유통업","category":"other"}]},{"lat":"37.607088798","long":"127.1654748","imageIndex":17,"items":[{"name":"a5(아오)공방","tel":"031-000-0000","addr":"경기도 남양주시 다산동 3720번지 힐스테이트황금산 109동 502호","indutype":"문화.취미 - 문화취미기타","category":"other"},{"name":"그린팜네이처","tel":"","addr":"경기도 남양주시 다산동 3720번지 힐스테이트황금산 118동 1701호","indutype":"문화.취미 - 화원","category":"other"},{"name":"다드림세탁","tel":"031-553-3040","addr":"경기도 남양주시 다산동 3720번지 힐스테이트황금산 상가 114호","indutype":"수리서비스 - 세탁소","category":"other"},{"name":"더케이스튜디오","tel":"","addr":"경기도 남양주시 다산동 3720번지 힐스테이트황금산 112동 19층 1901호","indutype":"광학제품 - 사진관","category":"other"},{"name":"비전플러스(VISION PLUS)","tel":"02-747-4855","addr":"경기도 남양주시 다산동 3720번지 힐스테이트 107동 1003호","indutype":"기타 - 기계공구","category":"other"},{"name":"이마트24 지금동힐스테이트점","tel":"","addr":"경기도 남양주시 다산동 3720번지 힐스테이트황금산 상가동 1층 108호","indutype":"유통업 영리 - 편 의 점","category":"other"},{"name":"좋은날함께하는더진심","tel":"031-111-1111","addr":"경기도 남양주시 다산동 3720번지 힐스테이트황금산 114동 1204호","indutype":"문화.취미 - 문화취미기타","category":"other"}]},{"lat":"37.606615331","long":"127.15570037","imageIndex":17,"items":[{"name":"brand(브랜드)bus","tel":"031-567-7536","addr":"경기도 남양주시 다산동 4047-28번지 동부로얄빌라 A동","indutype":"여행 - 관광여행","category":"other"}]},{"lat":"37.602754055","long":"127.15958804","imageIndex":17,"items":[{"name":"가온누리 재활운동센터","tel":"070-4099-1792","addr":"경기도 남양주시 다산동 606번지 2층","indutype":"기타의료기관 - 기타의료기관 및 기타","category":"other"}]},{"lat":"37.602894544","long":"127.15551157","imageIndex":17,"items":[{"name":"가운마을세탁","tel":"031-555-3309","addr":"경기도 남양주시 다산동 669휴먼시아상가206","indutype":"수리서비스 - 세탁소","category":"other"},{"name":"도프","tel":"070-7651-5418","addr":"경기도 남양주시 다산동 669번지 남양주가운마을휴먼시아1단지 102동 707호","indutype":"신변잡화 - 기타잡화","category":"other"},{"name":"반석S&D","tel":"031-510-4305","addr":"경기도 남양주시 다산동 669번지 휴먼시아 115동 203호","indutype":"신변잡화 - 기타잡화","category":"other"},{"name":"빈스탑","tel":"","addr":"경기도 남양주시 다산동 669번지 남양주가운마을휴먼시아1단지","indutype":"주방용구 - 주방용구","category":"other"},{"name":"오프제108","tel":"","addr":"경기도 남양주시 다산동 669번지 남양주가운마을휴먼시아1단지 115동 1203호","indutype":"신변잡화 - 기타잡화","category":"other"},{"name":"정성유통","tel":"031-897-6544","addr":"경기도 남양주시 다산동 669번지 남양주가운마을휴먼시아1단지 116동 304호","indutype":"유통업 영리 - 기타유통업","category":"other"},{"name":"존 냉난방기","tel":"070-8990-5231","addr":"경기도 남양주시 다산동 669번지 남양주가운마을휴먼시아1단지 106동 1403호","indutype":"용역 서비스 - 기타용역서비스","category":"other"},{"name":"피제이엠씨(PJMC)","tel":"031-567-8860","addr":"경기도 남양주시 다산동 669번지 휴먼시아 101동 405호","indutype":"회원제형태 - 기타4","category":"other"},{"name":"핸디하우스","tel":"070-7715-4001","addr":"경기도 남양주시 다산동 669번지 남양주가운마을휴먼시아1단지 203호","indutype":"문화.취미 - 문화취미기타","category":"other"}]},{"lat":"37.600613195","long":"127.15695638","imageIndex":17,"items":[{"name":"가운해법영어학원","tel":"031-569-5105","addr":"경기도 남양주시 다산동 676-4번지 메티스프라자 302호","indutype":"서적문구 - 일반서적","category":"other"},{"name":"쁘띠퍼피","tel":"031-528-2560","addr":"경기도 남양주시 다산동 676-4번지 메티스프라자","indutype":"문화.취미 - 애완동물","category":"other"},{"name":"송화연헤어&피부샵","tel":"031-566-4575","addr":"경기도 남양주시 다산동 676-4번지 메티스프라자 204호","indutype":"회원제형태 - 기타4","category":"other"},{"name":"이젠스포츠","tel":"031-555-2667","addr":"경기도 남양주시 다산동 676-4번지 메티스프라자 104호","indutype":"레져용품 - 스포츠·레져용품","category":"other"},{"name":"태양커뮤니케이션","tel":"070-4136-7176","addr":"경기도 남양주시 다산동 676-4번지 메티스프라자 105호","indutype":"사무통신 - 통신기기","category":"other"}]},{"lat":"37.60536733","long":"127.15925378","imageIndex":17,"items":[{"name":"가인","tel":"070-7504-3182","addr":"경기도 남양주시 다산동 617-8번지","indutype":"의류 - 정장","category":"other"}]},{"lat":"37.606421799","long":"127.15900684","imageIndex":17,"items":[{"name":"강남부동사공인중개사사무소","tel":"031-564-0080","addr":"경기도 남양주시 다산동 4089-10번지 메터스프라자 101호","indutype":"용역 서비스 - 부동산 중개·임대","category":"other"},{"name":"김종건법무사사무소","tel":"031-554-4778","addr":"경기도 남양주시 다산동 4089-10번지 메터스프라자 102호","indutype":"용역 서비스 - 법률회계서비스(개인)","category":"other"}]},{"lat":"37.605062091","long":"127.15842644","imageIndex":17,"items":[{"name":"게이트맨부영홈CQ","tel":"031-564-1711","addr":"경기도 남양주시 다산동 619-21","indutype":"수리서비스 - 사무·통신기기수리","category":"other"}]},{"lat":"37.607811888","long":"127.15703918","imageIndex":17,"items":[{"name":"경기열쇠","tel":"031-568-1119","addr":"경기도 남양주시 다산동 4060-3번지 동신상가","indutype":"기타 - 기계공구","category":"other"},{"name":"복권나라","tel":"031-557-5759","addr":"경기도 남양주시 다산동 4060-3번지","indutype":"기타 - 기타 전문점","category":"other"}]},{"lat":"37.625113766","long":"127.15459413","imageIndex":17,"items":[{"name":"경원상사","tel":"02-0000-0000","addr":"경기도 남양주시 다산동 6054-2번지 1층 109호","indutype":"기타 - 기계공구","category":"other"}]},{"lat":"37.606583843","long":"127.15214429","imageIndex":17,"items":[{"name":"경일지물포","tel":"031-562-3292","addr":"경기도 남양주시 다산동 4305-4번지","indutype":"직물 - 카페트,커튼,천막,지물","category":"other"}]},{"lat":"37.605952271","long":"127.15284516","imageIndex":17,"items":[{"name":"경장인퍼스","tel":"031-956-3232","addr":"경기도 남양주시 다산동 4291-1번지","indutype":"가구 - 일반가구","category":"other"}]},{"lat":"37.607641073","long":"127.1567557","imageIndex":17,"items":[{"name":"골드스킨","tel":"031-557-6938","addr":"경기도 남양주시 다산동 4045-15번지 1층 3호","indutype":"회원제형태 - 기타4","category":"other"},{"name":"로뎀","tel":"031-553-7377","addr":"경기도 남양주시 다산동 4045-15번지 1층 1호","indutype":"의류 - 정장","category":"other"}]},{"lat":"37.613477504","long":"127.16489976","imageIndex":17,"items":[{"name":"골든베이프","tel":"","addr":"경기도 남양주시 다산동 6167번지 다산지금지구 F2-2-1 102호","indutype":"기타 - 기타 전문점","category":"other"}]},{"lat":"37.625698478","long":"127.15530897","imageIndex":17,"items":[{"name":"골프존 파크","tel":"031-553-0880","addr":"경기도 남양주시 다산동 6053번지 10층 1002-1004호","indutype":"레져용품 - 골프용품 전문점","category":"other"},{"name":"그루스터디카페 다산점","tel":"","addr":"경기도 남양주시 다산동 6053번지 KB골든타워 808,809호","indutype":"용역 서비스 - 사무서비스","category":"other"},{"name":"세븐일레븐다산골든타워점","tel":"031-1577-0711","addr":"경기도 남양주시 다산동 6053번지 KB골든타워 1층 121호","indutype":"유통업 영리 - 편 의 점","category":"other"}]},{"lat":"37.600203169","long":"127.1733979","imageIndex":17,"items":[{"name":"곰씨네그림책방","tel":"031-566-0301","addr":"경기도 남양주시 다산동 6217-6번지 대길프라자 301호","indutype":"서적문구 - 일반서적","category":"other"}]},{"lat":"37.601366665","long":"127.17253992","imageIndex":17,"items":[{"name":"구대의달인","tel":"","addr":"경기도 남양주시 다산동 6219-9번지 다산지금지구 F3-2-10 101호","indutype":"의류 - 정장","category":"other"}]},{"lat":"37.610007298","long":"127.15234366","imageIndex":17,"items":[{"name":"구리TV","tel":"","addr":"경기도 남양주시 다산동 4338-31번지 서광빌딩 1층","indutype":"전기제품 - 가전제품","category":"other"},{"name":"구제의류","tel":"031-595-2277","addr":"경기도 남양주시 다산동 4338-31번지 1층","indutype":"의류 - 기타의류","category":"other"}]},{"lat":"37.609279423","long":"127.16456222","imageIndex":17,"items":[{"name":"국제로타리3600지구 미금로타리클럽","tel":"031-563-6898","addr":"경기도 남양주시 다산동 3135-1번지 갈산빌딩","indutype":"기타 - 비영리/비대상","category":"other"},{"name":"리&리라이프","tel":"031-564-3132","addr":"경기도 남양주시 다산동 3135-1번지 갈산빌딩 지하 1호","indutype":"건축자재 - 인테리어전문","category":"other"},{"name":"바바사진관","tel":"031-563-5825","addr":"경기도 남양주시 다산동 3135-1번지","indutype":"광학제품 - 사진관","category":"other"}]},{"lat":"37.608782847","long":"127.15165037","imageIndex":17,"items":[{"name":"그루밍 독","tel":"031-566-4522","addr":"경기도 남양주시 다산동 4306-37번지","indutype":"문화.취미 - 애완동물","category":"other"},{"name":"코어바디","tel":"070-7505-7893","addr":"경기도 남양주시 다산동 4306-37번지 2층","indutype":"레져용품 - 스포츠·레져용품","category":"other"}]},{"lat":"37.608361851","long":"127.15675719","imageIndex":17,"items":[{"name":"금당보석","tel":"031-563-5846","addr":"경기도 남양주시 다산동 4065번지 부영프라자 1동 117호","indutype":"신변잡화 - 귀금속","category":"other"},{"name":"나빌레라","tel":"031-567-2426","addr":"경기도 남양주시 다산동 4065번지 부영프라자","indutype":"의류 - 정장","category":"other"},{"name":"부영프라자 관리단","tel":"031-567-0688","addr":"경기도 남양주시 다산동 4065번지 부영프라자 지하1층 관리사무소","indutype":"용역 서비스 - 사무서비스","category":"other"},{"name":"슬라블라","tel":"","addr":"경기도 남양주시 다산동 4065번지 외3필지 부영프라자 303호","indutype":"신변잡화 - 기타잡화","category":"other"},{"name":"신화스크린골프","tel":"031-551-0770","addr":"경기도 남양주시 다산동 4065번지 부영프라자 1층","indutype":"회원제형태 - 레져업소","category":"other"},{"name":"엘라스킨바디","tel":"031-554-2202","addr":"경기도 남양주시 다산동 4065번지 부영프라자 115호","indutype":"회원제형태 - 기타4","category":"other"},{"name":"휴대폰365아울렛","tel":"031-555-7751","addr":"경기도 남양주시 다산동 4065번지 66-11, 1-13, 1-22 부영프라나 제1층 112호","indutype":"사무통신 - 통신기기","category":"other"}]},{"lat":"37.608338024","long":"127.16773123","imageIndex":17,"items":[{"name":"금정클린케어","tel":"031-591-9246","addr":"경기도 남양주시 다산동 3085-51번지 지하1층","indutype":"용역 서비스 - 종합용역","category":"other"}]},{"lat":"37.612089898","long":"127.16497603","imageIndex":17,"items":[{"name":"금호24시","tel":"","addr":"경기도 남양주시 다산동 6170번지 1층 일부","indutype":"유통업 영리 - 편 의 점","category":"other"},{"name":"도로시(Dorothy)","tel":"","addr":"경기도 남양주시 다산동 6170번지 1층","indutype":"신변잡화 - 신발","category":"other"}]},{"lat":"37.609342149","long":"127.16481151","imageIndex":17,"items":[{"name":"김명조법무사사무소","tel":"031-551-8787","addr":"경기도 남양주시 다산동 3136번지 1층 103호","indutype":"용역 서비스 - 법률회계서비스(개인)","category":"other"},{"name":"다예린바디","tel":"031-564-6865","addr":"경기도 남양주시 다산동 3136번지","indutype":"회원제형태 - 기타1","category":"other"},{"name":"법무사윤동기사무소","tel":"031-557-5115","addr":"경기도 남양주시 다산동 3136번지 남경빌딩104호1호","indutype":"용역 서비스 - 법률회계서비스(개인)","category":"other"},{"name":"변호사김준석법률사무소","tel":"031-551-8789","addr":"경기도 남양주시 다산동 3136번지 남경빌딩 103호","indutype":"용역 서비스 - 법률회계서비스(개인)","category":"other"}]},{"lat":"37.608946744","long":"127.16406319","imageIndex":17,"items":[{"name":"꽃잎플라워","tel":"031-563-3951","addr":"경기도 남양주시 다산동 3129-62번지","indutype":"문화.취미 - 화원","category":"other"},{"name":"남양사","tel":"031-563-2951","addr":"경기도 남양주시 다산동 3129-62번지","indutype":"서적문구 - 출판 및 인쇄물","category":"other"},{"name":"리듬이머무르는공간","tel":"031-558-2830","addr":"경기도 남양주시 다산동 3129-62번지 2층","indutype":"용역 서비스 - 사무서비스","category":"other"},{"name":"씨유도농현대점","tel":"031-512-4800","addr":"경기도 남양주시 다산동 3129-62번지 2층","indutype":"유통업 영리 - 편 의 점","category":"other"},{"name":"주식회사 유투글로벌","tel":"031-553-5513","addr":"경기도 남양주시 다산동 3129-62번지 301호","indutype":"용역 서비스 - 종합용역","category":"other"}]},{"lat":"37.609894801","long":"127.15576371","imageIndex":17,"items":[{"name":"나눔펫","tel":"031-569-1285","addr":"경기도 남양주시 다산동 4025-12번지 1층","indutype":"문화.취미 - 애완동물","category":"other"}]},{"lat":"37.604560347","long":"127.15628505","imageIndex":17,"items":[{"name":"나무하우징(주)","tel":"031-567-8513","addr":"경기도 남양주시 다산동 667-1번지 수미소빌딩 601호","indutype":"용역 서비스 - 기타용역서비스","category":"other"},{"name":"백마크리닝","tel":"","addr":"경기도 남양주시 다산동 667-1번지 113호","indutype":"수리서비스 - 세탁소","category":"other"},{"name":"법무법인명성","tel":"031-553-3868","addr":"경기도 남양주시 다산동 667-1번지 수미소빌딩 407호","indutype":"용역 서비스 - 법률회계서비스(법인)","category":"other"},{"name":"씨유가운수미소점","tel":"031-554-5289","addr":"경기도 남양주시 다산동 667-1번지","indutype":"유통업 영리 - 편 의 점","category":"other"},{"name":"아이러브핏","tel":"031-554-2977","addr":"경기도 남양주시 다산동 667-1번지 수미소빌딩 407호","indutype":"회원제형태 - 레져업소","category":"other"},{"name":"토즈멤버십 라운지 도농센터","tel":"031-555-8884","addr":"경기도 남양주시 다산동 667-1번지 수미소빌딩 7층 705호","indutype":"용역 서비스 - 사무서비스","category":"other"}]},{"lat":"37.604341238","long":"127.15848156","imageIndex":17,"items":[{"name":"남양","tel":"031-564-6688","addr":"경기도 남양주시 다산동 666-3번지 드림프라자 304호","indutype":"신변잡화 - 신발","category":"other"},{"name":"법률사무소 지함","tel":"031-523-3037","addr":"경기도 남양주시 다산동 666-3번지 드림프라자 304호","indutype":"용역 서비스 - 법률회계서비스(개인)","category":"other"},{"name":"설기획사","tel":"031-123-9395","addr":"경기도 남양주시 다산동 666-3번지 드림프라자 502호","indutype":"주방용구 - 주방용구","category":"other"},{"name":"씨유가운드림프라자점","tel":"031-566-6777","addr":"경기도 남양주시 다산동 666-3번지 드림프라자 1층 109호","indutype":"유통업 영리 - 편 의 점","category":"other"},{"name":"일양차문화연구원","tel":"031-511-3122","addr":"경기도 남양주시 다산동 666-3번지 드림프라자 4층 407호","indutype":"문화.취미 - 민예·공예품","category":"other"},{"name":"주식회사로얄스탠다드","tel":"0361-511-3122","addr":"경기도 남양주시 다산동 666-3번지 드림프라자","indutype":"용역 서비스 - 사무서비스","category":"other"}]},{"lat":"37.614617451","long":"127.16142511","imageIndex":17,"items":[{"name":"남양공업사","tel":"031-563-7565","addr":"경기도 남양주시 다산동 3391-45번지","indutype":"신변잡화 - 가방","category":"other"}]},{"lat":"37.606088843","long":"127.15870038","imageIndex":17,"items":[{"name":"남양기획","tel":"031-562-8681","addr":"경기도 남양주시 다산동 567-7번지","indutype":"건축자재 - 인테리어전문","category":"other"}]},{"lat":"37.606807488","long":"127.16031002","imageIndex":17,"items":[{"name":"남양주 서비스 센터","tel":"031-557-3713","addr":"경기도 남양주시 다산동 4113-6번지 101호 102호","indutype":"수리서비스 - 가정용품수리","category":"other"},{"name":"부일장갑","tel":"031-551-4960","addr":"경기도 남양주시 다산동 4113-6번지","indutype":"신변잡화 - 기타잡화","category":"other"},{"name":"이지금속","tel":"031-553-0870","addr":"경기도 남양주시 다산동 4113-6번지 1층 좌","indutype":"건축자재 - 기타건축자재","category":"other"},{"name":"형제종합기획","tel":"031-568-0052","addr":"경기도 남양주시 다산동 4113-6번지","indutype":"건축자재 - 인테리어전문","category":"other"}]},{"lat":"37.611612317","long":"127.17145327","imageIndex":17,"items":[{"name":"남양주경찰서상조회","tel":"031-551-5348","addr":"경기도 남양주시 다산동 3020-15번지","indutype":"유통업 비영리 - 구내매점(국가기관","category":"other"}]},{"lat":"37.60909059","long":"127.16429","imageIndex":17,"items":[{"name":"남양주기독교백화점","tel":"031-567-3927","addr":"경기도 남양주시 다산동 3135-8번지 백석빌딩 지하1층 1호","indutype":"서적문구 - 전문서적","category":"other"}]},{"lat":"37.606505772","long":"127.15680999","imageIndex":17,"items":[{"name":"남양주삼산무에타이GYM","tel":"031-565-7903","addr":"경기도 남양주시 다산동 4046-6번지 302호","indutype":"회원제형태 - 레져업소","category":"other"},{"name":"도후통신","tel":"031-556-9010","addr":"경기도 남양주시 다산동 4046-6번지","indutype":"사무통신 - 통신기기","category":"other"},{"name":"엠에스핏","tel":"031-568-6565","addr":"경기도 남양주시 다산동 4046-6번지 301호","indutype":"회원제형태 - 레져업소","category":"other"}]},{"lat":"37.610198114","long":"127.17122357","imageIndex":17,"items":[{"name":"남양주시평생교육원","tel":"031-590-3944","addr":"경기도 남양주시 다산동 3159-7번지","indutype":"문화.취미 - 티켓","category":"other"},{"name":"백교산업","tel":"031-564-8978","addr":"경기도 남양주시 다산동 3159-7번지","indutype":"기타 - 기타 전문점","category":"other"}]},{"lat":"37.605702587","long":"127.15781624","imageIndex":17,"items":[{"name":"남양주아이폰수리 아이폰브라더스","tel":"070-7556-1528","addr":"경기도 남양주시 다산동 4114-24번지","indutype":"수리서비스 - 사무·통신기기수리","category":"other"}]},{"lat":"37.597563901","long":"127.15998481","imageIndex":17,"items":[{"name":"낫 에브리원 언더스탠드","tel":"","addr":"경기도 남양주시 다산동 690번지 남양주가운마을휴먼시아8단지 801동 504호","indutype":"문화.취미 - 문화취미기타","category":"other"}]},{"lat":"37.611560183","long":"127.1636158","imageIndex":17,"items":[{"name":"노재옥법무사사무소","tel":"031-555-8998","addr":"경기도 남양주시 다산동 4002-39번지 분산 상가동 201호","indutype":"용역 서비스 - 법률회계서비스(개인)","category":"other"},{"name":"부동산정보공인중개사사무소","tel":"031-558-8700","addr":"경기도 남양주시 다산동 4002-39번지 부영그린타운제분산상가동101호~102호 101호","indutype":"용역 서비스 - 부동산 중개·임대","category":"other"},{"name":"하늘세탁","tel":"031-557-4404","addr":"경기도 남양주시 다산동 4002-39번지 부영3단지2차상가 104호","indutype":"수리서비스 - 세탁소","category":"other"}]},{"lat":"37.607946827","long":"127.15719801","imageIndex":17,"items":[{"name":"녹산정보통신","tel":"031-565-1520","addr":"경기도 남양주시 다산동 4001-21번지","indutype":"사무통신 - 통신기기","category":"other"}]},{"lat":"37.60747552","long":"127.15237257","imageIndex":17,"items":[{"name":"늑대와여우 컴퓨터","tel":"02-989-9874","addr":"경기도 남양주시 다산동 4296-4번지 3층 사무실","indutype":"사무통신 - 컴퓨터","category":"other"}]},{"lat":"37.625528009","long":"127.15475356","imageIndex":17,"items":[{"name":"니팅앤쏘잉","tel":"031-111-1111","addr":"경기도 남양주시 다산동 6055-4번지 마운틴프라자 705호","indutype":"문화.취미 - 문화취미기타","category":"other"},{"name":"담연스튜디오","tel":"031-563-5254","addr":"경기도 남양주시 다산동 6055-4번지","indutype":"광학제품 - 사진관","category":"other"}]},{"lat":"37.613445117","long":"127.15539722","imageIndex":17,"items":[{"name":"다산1동주민센터","tel":"031-590-4978","addr":"경기도 남양주시 다산동 6150번지","indutype":"용역 서비스 - 사무서비스","category":"other"}]},{"lat":"37.597590466","long":"127.16694884","imageIndex":17,"items":[{"name":"다산교육","tel":"031-556-2231","addr":"경기도 남양주시 다산동 454-1번지","indutype":"회원제형태 - 서적","category":"other"}]},{"lat":"37.619362321","long":"127.16383648","imageIndex":17,"items":[{"name":"다산기획","tel":"","addr":"경기도 남양주시 다산동 6123번지 1층 일부","indutype":"신변잡화 - 기타잡화","category":"other"}]},{"lat":"37.629700505","long":"127.15398039","imageIndex":17,"items":[{"name":"다산세탁","tel":"031-551-6500","addr":"경기도 남양주시 다산동 6014번지 다산반도유보라메이플타운 상가동 1동 104호","indutype":"수리서비스 - 세탁소","category":"other"},{"name":"블로우(BLOW)","tel":"031-8034-5550","addr":"경기도 남양주시 다산동 6014번지 다산반도유보라메이플타운 2110동 2603호","indutype":"의류 - 정장","category":"other"},{"name":"씨유다산메이플유보라점","tel":"080-080-3663","addr":"경기도 남양주시 다산동 6014번지 다산반도유보라 메이플타운 상가1동 101,102호","indutype":"유통업 영리 - 편 의 점","category":"other"},{"name":"영감","tel":"","addr":"경기도 남양주시 다산동 6014번지 다산반도유보라메이플타운 2101동 4층 404호","indutype":"용역 서비스 - 사무서비스","category":"other"},{"name":"오빌애드플러스","tel":"031-501-7714","addr":"경기도 남양주시 다산동 6014번지 다산반도유보라메이플타운 2110동 801호","indutype":"사무통신 - 통신기기","category":"other"}]},{"lat":"37.625113416","long":"127.154866","imageIndex":17,"items":[{"name":"다산어린이전문서점","tel":"031-557-8482","addr":"경기도 남양주시 다산동 6054-3번지 205호","indutype":"서적문구 - 일반서적","category":"other"},{"name":"블럭팡 다산신도시점","tel":"031-555-2254","addr":"경기도 남양주시 다산동 6054-3번지 303호","indutype":"서적문구 - 완구점","category":"other"},{"name":"이마트24 (다산파크뷰점)","tel":"","addr":"경기도 남양주시 다산동 6054-3번지 파크뷰타워 105,106호","indutype":"유통업 영리 - 편 의 점","category":"other"},{"name":"이마트24 (다산파크뷰점)","tel":"","addr":"경기도 남양주시 다산동 6054-3번지 파크뷰타워 105,106호","indutype":"유통업 영리 - 편 의 점","category":"other"},{"name":"플랜에이스터디카페다산센터","tel":"031-551-5055","addr":"경기도 남양주시 다산동 6054-3번지 4층 401호","indutype":"용역 서비스 - 사무서비스","category":"other"}]},{"lat":"37.611279892","long":"127.16434004","imageIndex":17,"items":[{"name":"다산웰부동산 공인중개사사무소","tel":"031-569-0033","addr":"경기도 남양주시 다산동 3198-21번지 다산법조메디컬타워 104호","indutype":"용역 서비스 - 부동산 중개·임대","category":"other"},{"name":"씨유다산타워점","tel":"02-1577-8007","addr":"경기도 남양주시 다산동 3198-21번지 다산지금지구 근생4-1 107호","indutype":"유통업 영리 - 편 의 점","category":"other"},{"name":"주식회사 마이다스디자인","tel":"031-511-5600","addr":"경기도 남양주시 다산동 3198-21번지 다산법조메디컬타워 502호 다산지금지구 근생 4-1","indutype":"건축자재 - 인테리어전문","category":"other"}]},{"lat":"37.625754284","long":"127.15394975","imageIndex":17,"items":[{"name":"다산음악스튜디오","tel":"031-552-1606","addr":"경기도 남양주시 다산동 6055번지 거성프라자 8층 805호","indutype":"용역 서비스 - 사무서비스","category":"other"},{"name":"에이스정보통신","tel":"031-573-6262","addr":"경기도 남양주시 다산동 6055번지 거성프라자 802,803,804호","indutype":"사무통신 - 통신기기","category":"other"}]},{"lat":"37.622835833","long":"127.15340013","imageIndex":17,"items":[{"name":"다산하나여행사","tel":"031-567-7377","addr":"경기도 남양주시 다산동 6089-3번지 다산한강르네상스 209-1호","indutype":"여행 - 관광여행","category":"other"}]},{"lat":"37.607451676","long":"127.15690254","imageIndex":17,"items":[{"name":"다원길","tel":"","addr":"경기도 남양주시 다산동 4045-2번지 1층 1호","indutype":"의류 - 정장","category":"other"},{"name":"제이코코","tel":"031-551-7188","addr":"경기도 남양주시 다산동 4045-2번지 1층 2호","indutype":"신변잡화 - 기타잡화","category":"other"}]},{"lat":"37.610647333","long":"127.15207313","imageIndex":17,"items":[{"name":"다정한 손뜨개","tel":"02-904-8383","addr":"경기도 남양주시 다산동 4338-42번지 대영그린빌라 나동 3층 3호","indutype":"직물 - 침구·수예점","category":"other"},{"name":"에덴침구","tel":"031-551-7276","addr":"경기도 남양주시 다산동 4338-42번지 대영빌라 나동 302호","indutype":"직물 - 침구·수예점","category":"other"}]},{"lat":"37.607583852","long":"127.15220291","imageIndex":17,"items":[{"name":"달인인테리어","tel":"031-565-0906","addr":"경기도 남양주시 다산동 4303-1번지","indutype":"건축자재 - 인테리어전문","category":"other"},{"name":"도농한빛철물","tel":"031-566-1242","addr":"경기도 남양주시 다산동 4303-1번지 1층 1호, 2호","indutype":"건축자재 - 목재·석재·철물","category":"other"}]},{"lat":"37.619305435","long":"127.15228298","imageIndex":17,"items":[{"name":"당당텔레콤","tel":"","addr":"경기도 남양주시 다산동 6133번지 다산자연앤e편한세상자이 3508동 2604호","indutype":"사무통신 - 통신기기","category":"other"},{"name":"자이명품세탁소","tel":"031-555-2885","addr":"경기도 남양주시 다산동 6133번지 다산자연앤이편한세상자이근린생활시설 2층 203호","indutype":"수리서비스 - 세탁소","category":"other"}]},{"lat":"37.606556283","long":"127.15256325","imageIndex":17,"items":[{"name":"대교","tel":"031-567-6686","addr":"경기도 남양주시 다산동 4295-6번지","indutype":"서적문구 - 문구용품","category":"other"}]},{"lat":"37.617310135","long":"127.16887236","imageIndex":17,"items":[{"name":"대성건철","tel":"031-572-6244","addr":"경기도 남양주시 다산동 3270번지","indutype":"기타 - 기계공구","category":"other"}]},{"lat":"37.6065569","long":"127.1590411","imageIndex":17,"items":[{"name":"대성공구철물","tel":"031-551-2078","addr":"경기도 남양주시 다산동 4089-1번지","indutype":"건축자재 - 기타건축자재","category":"other"}]},{"lat":"37.609839327","long":"127.14978378","imageIndex":17,"items":[{"name":"대성냉난방","tel":"","addr":"경기도 남양주시 다산동 4312-49번지 동주타운 A동 108호","indutype":"용역 서비스 - 기타용역서비스","category":"other"}]},{"lat":"37.606368145","long":"127.15870096","imageIndex":17,"items":[{"name":"대우상사","tel":"031-552-7713","addr":"경기도 남양주시 다산동 4089-3번지","indutype":"건축자재 - 페인트","category":"other"}]},{"lat":"37.607088009","long":"127.15939328","imageIndex":17,"items":[{"name":"대웅스포츠","tel":"031-569-7722","addr":"경기도 남양주시 다산동 4090-3번지","indutype":"레져용품 - 스포츠·레져용품","category":"other"}]},{"lat":"37.606619233","long":"127.15959615","imageIndex":17,"items":[{"name":"대정화학","tel":"031-556-3117","addr":"경기도 남양주시 다산동 617-24번지","indutype":"기타 - 기타 전문점","category":"other"}]},{"lat":"37.610006983","long":"127.15259282","imageIndex":17,"items":[{"name":"대진철물건재","tel":"031-563-5466","addr":"경기도 남양주시 다산동 4338-36번지","indutype":"건축자재 - 기타건축자재","category":"other"}]},{"lat":"37.625307844","long":"127.15075442","imageIndex":17,"items":[{"name":"더블제이컴퍼니","tel":"","addr":"경기도 남양주시 다산동 6063-1번지 신해센트럴타워II 906호","indutype":"의류 - 정장","category":"other"},{"name":"이마트24 다산신해센트럴점","tel":"","addr":"경기도 남양주시 다산동 6063-1번지 신해센트럴타워II 1층 102호","indutype":"유통업 영리 - 편 의 점","category":"other"}]},{"lat":"37.600616338","long":"127.17428211","imageIndex":17,"items":[{"name":"더킹스크린아카데미","tel":"031-551-3282","addr":"경기도 남양주시 다산동 6216-4번지 5층 507-511호","indutype":"레져용품 - 골프용품 전문점","category":"other"}]},{"lat":"37.605531773","long":"127.15753277","imageIndex":17,"items":[{"name":"도농모터스","tel":"031-551-3670","addr":"경기도 남양주시 다산동 4114-15번지","indutype":"수리서비스 - 레져용품수리","category":"other"}]},{"lat":"37.6072277","long":"127.15592813","imageIndex":17,"items":[{"name":"도농지물포","tel":"031-566-4831","addr":"경기도 남양주시 다산동 4047-14번지","indutype":"직물 - 카페트,커튼,천막,지물","category":"other"}]},{"lat":"37.609339599","long":"127.16003222","imageIndex":17,"items":[{"name":"도도","tel":"031-566-9700","addr":"경기도 남양주시 다산동 4001-10번지 부영그린타운 상가 1동 110호","indutype":"의류 - 정장","category":"other"},{"name":"디자인 산들","tel":"031-557-8296","addr":"경기도 남양주시 다산동 4001-10번지 부영그린타운 상가동 지층 B113호","indutype":"건축자재 - 인테리어전문","category":"other"},{"name":"부영세탁소","tel":"031-558-3838","addr":"경기도 남양주시 다산동 4001-10번지 부영중앙상가B109,114호","indutype":"수리서비스 - 세탁소","category":"other"},{"name":"성시연리폼패션","tel":"031-555-6664","addr":"경기도 남양주시 다산동 4001-10번지 지하층 110호 부영그린타운제상가동지","indutype":"수리서비스 - 세탁소","category":"other"},{"name":"센스샵","tel":"031-558-3511","addr":"경기도 남양주시 다산동 4001-10번지 부영그린타운 상가 1층 108호","indutype":"의류 - 기타의류","category":"other"},{"name":"오렌지&코코","tel":"031-555-7845","addr":"경기도 남양주시 다산동 4001-10번지 부영그린타운 상가 1동 103호","indutype":"의류 - 기타의류","category":"other"},{"name":"인(IN)","tel":"031-555-1024","addr":"경기도 남양주시 다산동 4001-10번지 부영그린타운 1동 B112호","indutype":"의류 - 정장","category":"other"},{"name":"인테리어 베네코","tel":"070-8945-3313","addr":"경기도 남양주시 다산동 4001-10번지 제상가 1동 310호","indutype":"건축자재 - 인테리어전문","category":"other"},{"name":"주식회사웰컴교육그룹","tel":"031-569-4902","addr":"경기도 남양주시 다산동 4001-10번지 부영그린타운주 상가동 601호","indutype":"용역 서비스 - 소프트웨어","category":"other"},{"name":"주식회사웰컴교육그룹","tel":"02-1688-5813","addr":"경기도 남양주시 다산동 4001-10번지 부영그린타운주 상가동 601호","indutype":"용역 서비스 - 소프트웨어","category":"other"},{"name":"커브스 도농클럽","tel":"031-557-3082","addr":"경기도 남양주시 다산동 4001-10번지 부영그린타운 504호","indutype":"회원제형태 - 레져업소","category":"other"},{"name":"피부관리","tel":"031-572-0133","addr":"경기도 남양주시 다산동 4001-10번지 부영그린타워 상가 301호","indutype":"회원제형태 - 기타4","category":"other"},{"name":"황금사과","tel":"031-558-0008","addr":"경기도 남양주시 다산동 4001-10번지 부영 상가 1동 103호","indutype":"신변잡화 - 액세서리","category":"other"}]},{"lat":"37.608785248","long":"127.16356453","imageIndex":17,"items":[{"name":"동부실버요양원","tel":"031-567-9966","addr":"경기도 남양주시 다산동 3129-58번지","indutype":"기타의료기관 - 기타의료기관 및 기타","category":"other"}]},{"lat":"37.609977656","long":"127.1543935","imageIndex":17,"items":[{"name":"동서건축설비","tel":"031-595-7545","addr":"경기도 남양주시 다산동 4026번지","indutype":"용역 서비스 - 기타용역서비스","category":"other"}]},{"lat":"37.60836247","long":"127.15628153","imageIndex":17,"items":[{"name":"동신","tel":"","addr":"경기도 남양주시 다산동 4044-1번지 동신빌딩 302호","indutype":"용역 서비스 - 기타용역서비스","category":"other"},{"name":"동신철물건재","tel":"031-562-0718","addr":"경기도 남양주시 다산동 4044-1번지 동신빌딩","indutype":"기타 - 기계공구","category":"other"}]},{"lat":"37.607195901","long":"127.15956338","imageIndex":17,"items":[{"name":"동아모타","tel":"031-563-3749","addr":"경기도 남양주시 다산동 4090-1번지","indutype":"기타 - 기계공구","category":"other"},{"name":"수복공예","tel":"031-553-9404","addr":"경기도 남양주시 다산동 4090-1번지","indutype":"문화.취미 - 민예·공예품","category":"other"}]},{"lat":"37.609780789","long":"127.15333984","imageIndex":17,"items":[{"name":"동진","tel":"031-529-9398","addr":"경기도 남양주시 다산동 4027-8번지","indutype":"신변잡화 - 기타잡화","category":"other"}]},{"lat":"37.606893515","long":"127.15656164","imageIndex":17,"items":[{"name":"동화광고","tel":"031-552-4224","addr":"경기도 남양주시 다산동 4046-8번지","indutype":"용역 서비스 - 종합용역","category":"other"},{"name":"씨유도농굴다리점","tel":"031-554-2486","addr":"경기도 남양주시 다산동 4046-8번지","indutype":"유통업 영리 - 편 의 점","category":"other"}]},{"lat":"37.607253979","long":"127.15650575","imageIndex":17,"items":[{"name":"동화마을대우실업","tel":"031-567-6682","addr":"경기도 남양주시 다산동 4045-5번지","indutype":"서적문구 - 문구용품","category":"other"},{"name":"유일냉난방","tel":"070-8031-4038","addr":"경기도 남양주시 다산동 4045-5번지 3층","indutype":"용역 서비스 - 기타용역서비스","category":"other"}]},{"lat":"37.606670034","long":"127.15520219","imageIndex":17,"items":[{"name":"동화장식","tel":"031-555-8704","addr":"경기도 남양주시 다산동 4049-31번지","indutype":"직물 - 카페트,커튼,천막,지물","category":"other"}]},{"lat":"37.622115337","long":"127.16009309","imageIndex":17,"items":[{"name":"드레스 마켓 (Dress Market)","tel":"031-111-1111","addr":"경기도 남양주시 다산동 6095-5번지 다산진건지구 F2-1-6 1층 103호","indutype":"의류 - 정장","category":"other"}]},{"lat":"37.623585551","long":"127.15189508","imageIndex":17,"items":[{"name":"디스타일(D.Style)","tel":"","addr":"경기도 남양주시 다산동 6086번지 203호","indutype":"문화.취미 - 애완동물","category":"other"},{"name":"미니스톱 다산제이타워점","tel":"031-1577-9621","addr":"경기도 남양주시 다산동 6086번지 다산진건지구 1층 104호","indutype":"유통업 영리 - 편 의 점","category":"other"}]},{"lat":"37.627114677","long":"127.15400914","imageIndex":17,"items":[{"name":"디앤비 브랜딩","tel":"","addr":"경기도 남양주시 다산동 6029번지 다산자연앤롯데캐슬 2202동 603호","indutype":"용역 서비스 - 소프트웨어","category":"other"},{"name":"롯데 세탁","tel":"031-568-7776","addr":"경기도 남양주시 다산동 6029번지 다산자연앤롯데캐슬 상가동 201호","indutype":"수리서비스 - 세탁소","category":"other"},{"name":"마이영","tel":"031-000-0000","addr":"경기도 남양주시 다산동 6029번지 다산자연앤롯데캐슬 2202동 1101호","indutype":"의류 - 정장","category":"other"},{"name":"씨유다산롯데캐슬점","tel":"080-080-3663","addr":"경기도 남양주시 다산동 6029번지 다산자연앤롯데캐슬상가 106,107호","indutype":"유통업 영리 - 편 의 점","category":"other"},{"name":"엘디앤에스","tel":"","addr":"경기도 남양주시 다산동 6029번지 다산자연앤롯데캐슬 2204동 2001호","indutype":"주방용구 - 주방용구","category":"other"}]},{"lat":"37.608424064","long":"127.15036991","imageIndex":17,"items":[{"name":"디자인 키루","tel":"","addr":"경기도 남양주시 다산동 4432번지 남양아이좋은집 711동 1101호","indutype":"문화.취미 - 화원","category":"other"}]},{"lat":"37.607425664","long":"127.15612106","imageIndex":17,"items":[{"name":"디자인다움","tel":"031-555-7980","addr":"경기도 남양주시 다산동 4045-43번지 1층","indutype":"용역 서비스 - 사무서비스","category":"other"}]},{"lat":"37.610559484","long":"127.15028352","imageIndex":17,"items":[{"name":"디자인레드","tel":"031-558-1708","addr":"경기도 남양주시 다산동 4331번지","indutype":"건축자재 - 인테리어전문","category":"other"},{"name":"명성차유리","tel":"031-563-4259","addr":"경기도 남양주시 다산동 4331번지","indutype":"건축자재 - 유리","category":"other"}]},{"lat":"37.621421798","long":"127.15301215","imageIndex":17,"items":[{"name":"라이플라워 (Liflower)","tel":"","addr":"경기도 남양주시 다산동 6090번지 다산유승한내들센트럴 3602동 205호","indutype":"문화.취미 - 화원","category":"other"},{"name":"러블리 한별한이네","tel":"","addr":"경기도 남양주시 다산동 6090번지 다산유승한내들센트럴 3605동 1902호","indutype":"의류 - 정장","category":"other"},{"name":"씨유다산유승센트럴점","tel":"080-080-3663","addr":"경기도 남양주시 다산동 6090번지 유승한내들센트럴 상가동 101호","indutype":"유통업 영리 - 편 의 점","category":"other"}]},{"lat":"37.605894083","long":"127.15606129","imageIndex":17,"items":[{"name":"러브레터","tel":"031-558-5454","addr":"경기도 남양주시 다산동 4434번지 효성해링턴타워 102동 104호","indutype":"의류 - 정장","category":"other"},{"name":"엘레강에스알(ElegantSR)","tel":"031-564-3539","addr":"경기도 남양주시 다산동 4434번지 마제스타워 101동 2302호","indutype":"회원제형태 - 기타1","category":"other"}]},{"lat":"37.60864743","long":"127.15186528","imageIndex":17,"items":[{"name":"러브리독애견클럽","tel":"031-568-7360","addr":"경기도 남양주시 다산동 4306-40번지","indutype":"문화.취미 - 애완동물","category":"other"},{"name":"빙그레오토바이","tel":"031-558-5736","addr":"경기도 남양주시 다산동 4306-40번지","indutype":"수리서비스 - 레져용품수리","category":"other"}]},{"lat":"37.622034284","long":"127.14589987","imageIndex":17,"items":[{"name":"러블리","tel":"","addr":"경기도 남양주시 다산동 6025번지 유승한내들골든뷰 3101동 703호","indutype":"의류 - 정장","category":"other"}]},{"lat":"37.608611033","long":"127.15214834","imageIndex":17,"items":[{"name":"리디자인 인테리어","tel":"031-557-9267","addr":"경기도 남양주시 다산동 4302-23번지 102호","indutype":"직물 - 카페트,커튼,천막,지물","category":"other"},{"name":"스카이25","tel":"031-566-3761","addr":"경기도 남양주시 다산동 4302-23번지","indutype":"유통업 영리 - 편 의 점","category":"other"},{"name":"스터디카페공간남양주다산점","tel":"031-553-0910","addr":"경기도 남양주시 다산동 4302-23번지 ,2,3층","indutype":"용역 서비스 - 사무서비스","category":"other"}]},{"lat":"37.607338427","long":"127.16078679","imageIndex":17,"items":[{"name":"리싸이클시티도농점","tel":"031-565-8425","addr":"경기도 남양주시 다산동 4111-7번지 , 9, 16","indutype":"전기제품 - 가전제품","category":"other"}]},{"lat":"37.609056646","long":"127.15595452","imageIndex":17,"items":[{"name":"리치아이","tel":"031-553-2779","addr":"경기도 남양주시 다산동 4071-3번지 1층","indutype":"회원제형태 - 서적","category":"other"}]},{"lat":"37.607751129","long":"127.15526102","imageIndex":17,"items":[{"name":"마린","tel":"031-000-0000","addr":"경기도 남양주시 다산동 4036-45번지 정원빌라 203호","indutype":"의류 - 정장","category":"other"}]},{"lat":"37.621639071","long":"127.15915193","imageIndex":17,"items":[{"name":"마망엘리펀트 다산점","tel":"","addr":"경기도 남양주시 다산동 6096-3번지 1동의일부","indutype":"의류 - 아동의류","category":"other"}]},{"lat":"37.615922548","long":"127.16240195","imageIndex":17,"items":[{"name":"멋진친구들","tel":"031-552-3840","addr":"경기도 남양주시 다산동 3387-4번지","indutype":"기타 - 기타 전문점","category":"other"},{"name":"엠지코리아환경","tel":"031-555-2870","addr":"경기도 남양주시 다산동 3387-4번지","indutype":"용역 서비스 - 종합용역","category":"other"}]},{"lat":"37.609452398","long":"127.1564763","imageIndex":17,"items":[{"name":"메리제이","tel":"","addr":"경기도 남양주시 다산동 4002-107번지 103호","indutype":"의류 - 정장","category":"other"},{"name":"메리제이","tel":"031-1111-1111","addr":"경기도 남양주시 다산동 4002-107번지","indutype":"의류 - 정장","category":"other"}]},{"lat":"37.596287752","long":"127.16426235","imageIndex":17,"items":[{"name":"메사.홈","tel":"031-557-1414","addr":"경기도 남양주시 다산동 558-1번지","indutype":"직물 - 카페트,커튼,천막,지물","category":"other"},{"name":"코리아하이텍","tel":"031-558-8175","addr":"경기도 남양주시 다산동 558-1번지 106호","indutype":"기타 - 기계공구","category":"other"}]},{"lat":"37.609755097","long":"127.15228653","imageIndex":17,"items":[{"name":"명품생활용품할인매장","tel":"031-565-4588","addr":"경기도 남양주시 다산동 4302-3번지","indutype":"신변잡화 - 기타잡화","category":"other"}]},{"lat":"37.596783072","long":"127.16442194","imageIndex":17,"items":[{"name":"명품조명","tel":"031-555-7411","addr":"경기도 남양주시 다산동 576번지 B동 1호","indutype":"건축자재 - 조명기구","category":"other"}]},{"lat":"37.609861905","long":"127.15331735","imageIndex":17,"items":[{"name":"모든종합설비","tel":"031-555-0904","addr":"경기도 남양주시 다산동 4027-3번지","indutype":"건축자재 - 보일러·펌프·샷시","category":"other"}]},{"lat":"37.609061978","long":"127.15178683","imageIndex":17,"items":[{"name":"미금당","tel":"031-553-7711","addr":"경기도 남양주시 다산동 4306-48번지","indutype":"신변잡화 - 귀금속","category":"other"}]},{"lat":"37.610006306","long":"127.15312511","imageIndex":17,"items":[{"name":"미니스톱 다산한신점","tel":"031-1577-9621","addr":"경기도 남양주시 다산동 4340-18번지","indutype":"유통업 영리 - 편 의 점","category":"other"}]},{"lat":"37.599645935","long":"127.15940034","imageIndex":17,"items":[{"name":"미세스꼴통","tel":"","addr":"경기도 남양주시 다산동 683번지 휴먼시아 502동 1302호","indutype":"의류 - 정장","category":"other"},{"name":"아리에뜨","tel":"070-4206-1603","addr":"경기도 남양주시 다산동 683번지 남양주가운마을휴먼시아5단지 505동 301호","indutype":"서적문구 - 출판 및 인쇄물","category":"other"},{"name":"휴먼크리닝","tel":"031-562-5858","addr":"경기도 남양주시 다산동 683번지 휴먼시아 상가-102","indutype":"수리서비스 - 세탁소","category":"other"}]},{"lat":"37.597868081","long":"127.16159339","imageIndex":17,"items":[{"name":"미스터","tel":"","addr":"경기도 남양주시 다산동 687-6번지 301호","indutype":"수리서비스 - 레져용품수리","category":"other"}]},{"lat":"37.612952753","long":"127.16648424","imageIndex":17,"items":[{"name":"미스터&미세스벌룬","tel":"","addr":"경기도 남양주시 다산동 6174-8번지 다산지금지구 F2-5-7 101호","indutype":"신변잡화 - 기타잡화","category":"other"}]},{"lat":"37.601535166","long":"127.17439746","imageIndex":17,"items":[{"name":"바른통신 지금점","tel":"","addr":"경기도 남양주시 다산동 6216번지 보람프라자 104호","indutype":"사무통신 - 통신기기","category":"other"}]},{"lat":"37.622256329","long":"127.15564176","imageIndex":17,"items":[{"name":"바이온리","tel":"031-567-0731","addr":"경기도 남양주시 다산동 6091번지 다산자연앤e편한세상 5103동 1102호","indutype":"서적문구 - 과학기자재","category":"other"},{"name":"세탁프리 다산점","tel":"070-894-3313","addr":"경기도 남양주시 다산동 6091번지 다산자연앤E편한세상단지내상가 202호","indutype":"수리서비스 - 세탁소","category":"other"},{"name":"슈가센트","tel":"","addr":"경기도 남양주시 다산동 6091번지 다산자연앤e편한세상 5112동 22층 2205호","indutype":"문화.취미 - 문화취미기타","category":"other"},{"name":"씨유다산이편한점","tel":"080-080-3663","addr":"경기도 남양주시 다산동 6091번지 다산자연앤이편한세상 상가동 1층 104,105호","indutype":"유통업 영리 - 편 의 점","category":"other"},{"name":"이편한세탁소","tel":"031-564-3331","addr":"경기도 남양주시 다산동 6091번지 자연앤이편한세상그린생활시설 B02호","indutype":"수리서비스 - 세탁소","category":"other"},{"name":"타지마마켓","tel":"070-4024-3334","addr":"경기도 남양주시 다산동 6091번지 다산자연앤e편한세상 5101동 2601호","indutype":"신변잡화 - 기타잡화","category":"other"},{"name":"힐링 아로마&공방","tel":"031-562-8887","addr":"경기도 남양주시 다산동 6091번지 다산자연앤이편한세상 상가동 206호","indutype":"문화.취미 - 문화취미기타","category":"other"}]},{"lat":"37.605980905","long":"127.15856425","imageIndex":17,"items":[{"name":"바이크랜드","tel":"031-556-2384","addr":"경기도 남양주시 다산동 567-9번지 102호","indutype":"레져용품 - 스포츠·레져용품","category":"other"}]},{"lat":"37.609196809","long":"127.15203626","imageIndex":17,"items":[{"name":"백마크리닝(남양주9호점)","tel":"","addr":"경기도 남양주시 다산동 4302-15번지 101호","indutype":"수리서비스 - 세탁소","category":"other"}]},{"lat":"37.604258757","long":"127.15953458","imageIndex":17,"items":[{"name":"법률사무소 이수","tel":"031-593-7150","addr":"경기도 남양주시 다산동 608번지 2층","indutype":"용역 서비스 - 법률회계서비스(개인)","category":"other"}]},{"lat":"37.606726657","long":"127.16011732","imageIndex":17,"items":[{"name":"법률사무소남양","tel":"031-556-5858","addr":"경기도 남양주시 다산동 4113-18번지","indutype":"용역 서비스 - 법률회계서비스(개인)","category":"other"},{"name":"시로코시스템즈","tel":"031-544-7751","addr":"경기도 남양주시 다산동 4113-18번지 104호","indutype":"사무통신 - 전자(상우회)","category":"other"},{"name":"우진저울","tel":"02-491-6411","addr":"경기도 남양주시 다산동 4113-18번지","indutype":"주방용구 - 주방용구","category":"other"}]},{"lat":"37.623306878","long":"127.15139612","imageIndex":17,"items":[{"name":"법률사무소명현","tel":"031-552-2268","addr":"경기도 남양주시 다산동 6085번지 다산역리더스타워 805호","indutype":"용역 서비스 - 법률회계서비스(개인)","category":"other"}]},{"lat":"37.609615898","long":"127.16880996","imageIndex":17,"items":[{"name":"법무법인현담","tel":"031-552-8100","addr":"경기도 남양주시 다산동 3073-1번지 다산타임 4층 403호","indutype":"용역 서비스 - 법률회계서비스(법인)","category":"other"},{"name":"씨유다산타임스퀘어점","tel":"02-1577-8007","addr":"경기도 남양주시 다산동 3073-1번지 다산타임프라자 1층 108호","indutype":"유통업 영리 - 편 의 점","category":"other"}]},{"lat":"37.609755366","long":"127.16570711","imageIndex":17,"items":[{"name":"법무사 이갑신 사무소","tel":"031-566-3511","addr":"경기도 남양주시 다산동 3136-5번지 1층","indutype":"용역 서비스 - 법률회계서비스(개인)","category":"other"},{"name":"법무사성용국사무소","tel":"031-564-6100","addr":"경기도 남양주시 다산동 3136-5번지 206호","indutype":"용역 서비스 - 법률회계서비스(개인)","category":"other"}]},{"lat":"37.613755745","long":"127.16567053","imageIndex":17,"items":[{"name":"베이퍼스타","tel":"","addr":"경기도 남양주시 다산동 6167-5번지 1층 일부","indutype":"신변잡화 - 기타잡화","category":"other"}]},{"lat":"37.613809569","long":"127.16584054","imageIndex":17,"items":[{"name":"벤자민무어 남양주 다산점","tel":"031-562-6681","addr":"경기도 남양주시 다산동 6167-6번지","indutype":"건축자재 - 페인트","category":"other"}]},{"lat":"37.60530733","long":"127.15692077","imageIndex":17,"items":[{"name":"변호사심학무법률사무소","tel":"031-565-3838","addr":"경기도 남양주시 다산동 4153-6번지 2층","indutype":"용역 서비스 - 법률회계서비스(개인)","category":"other"},{"name":"신동아상사","tel":"031-569-2555","addr":"경기도 남양주시 다산동 4153-6번지","indutype":"기타 - 기계공구","category":"other"}]},{"lat":"37.606090807","long":"127.1572055","imageIndex":17,"items":[{"name":"변호사정현석법률사무소","tel":"031-562-2020","addr":"경기도 남양주시 다산동 4053-4번지","indutype":"용역 서비스 - 법률회계서비스(개인)","category":"other"}]},{"lat":"37.609669675","long":"127.15567265","imageIndex":17,"items":[{"name":"보경","tel":"070-7723-5168","addr":"경기도 남양주시 다산동 4025-14번지 3층","indutype":"용역 서비스 - 기타용역서비스","category":"other"}]},{"lat":"37.622945159","long":"127.15244885","imageIndex":17,"items":[{"name":"봄날휘트니스","tel":"02-422-9492","addr":"경기도 남양주시 다산동 6087-3번지 다산퍼스트타워 1층 106호","indutype":"레져용품 - 스포츠·레져용품","category":"other"},{"name":"인 인터내셔널","tel":"","addr":"경기도 남양주시 다산동 6087-3번지 퍼스트타워 303호","indutype":"가구 - 기타가구","category":"other"}]},{"lat":"37.622865117","long":"127.15162179","imageIndex":17,"items":[{"name":"브레인에듀","tel":"","addr":"경기도 남양주시 다산동 6085-2번지 신해센트럴타워 810호","indutype":"서적문구 - 기타서적문구","category":"other"},{"name":"세븐일레븐다산신해센트럴점","tel":"031-1577-0711","addr":"경기도 남양주시 다산동 6085-2번지 신해센트럴타워 107호","indutype":"유통업 영리 - 편 의 점","category":"other"},{"name":"신해SG골프(다산점)","tel":"031-554-0753","addr":"경기도 남양주시 다산동 6085-2번지 신해센트럴타워상가 906,907,909호","indutype":"레져용품 - 골프용품 전문점","category":"other"}]},{"lat":"37.609752412","long":"127.15439305","imageIndex":17,"items":[{"name":"블링하루","tel":"031-512-1253","addr":"경기도 남양주시 다산동 4028-3번지 상가 101호","indutype":"신변잡화 - 기타잡화","category":"other"}]},{"lat":"37.605145612","long":"127.15656937","imageIndex":17,"items":[{"name":"비데머신","tel":"031-567-8245","addr":"경기도 남양주시 다산동 4135-5번지 대진빌딩 1층","indutype":"전기제품 - 가전제품","category":"other"}]},{"lat":"37.598116992","long":"127.15733624","imageIndex":17,"items":[{"name":"삐삐수선실","tel":"031-551-1477","addr":"경기도 남양주시 다산동 681번지 남양주가운마을휴먼시아7단지 상가 103호","indutype":"수리서비스 - 세탁소","category":"other"},{"name":"요셉코퍼레이션","tel":"031-568-9322","addr":"경기도 남양주시 다산동 681번지 휴먼시아 701동 101호","indutype":"회원제형태 - 기타4","category":"other"}]},{"lat":"37.602199501","long":"127.15650669","imageIndex":17,"items":[{"name":"산책가는 길","tel":"070-2614-3368","addr":"경기도 남양주시 다산동 674번지 남양주가운마을휴먼시아3단지 상가동 102호","indutype":"문화.취미 - 애완동물","category":"other"},{"name":"엘비에스(LBS)","tel":"","addr":"경기도 남양주시 다산동 674번지 남양주가운마을휴먼시아3단지 305동 801호","indutype":"수리서비스 - 가정용품수리","category":"other"}]},{"lat":"37.607283119","long":"127.15487501","imageIndex":17,"items":[{"name":"삼성ENG","tel":"070-8267-0974","addr":"경기도 남양주시 다산동 4036-52번지","indutype":"회원제형태 - 기타4","category":"other"}]},{"lat":"37.607752237","long":"127.15440031","imageIndex":17,"items":[{"name":"삼성프라자","tel":"02-3465-2545","addr":"경기도 남양주시 다산동 4036-7번지 풍림 상가 4호","indutype":"전기제품 - 가전제품","category":"other"},{"name":"선일설비","tel":"070-8879-7750","addr":"경기도 남양주시 다산동 4036-7번지","indutype":"건축자재 - 인테리어전문","category":"other"},{"name":"주식회사 수엔지니어링","tel":"031-000-0000","addr":"경기도 남양주시 다산동 4036-7번지 202호","indutype":"용역 서비스 - 종합용역","category":"other"}]},{"lat":"37.604535644","long":"127.15448439","imageIndex":17,"items":[{"name":"삼영사","tel":"031-000-0000","addr":"경기도 남양주시 다산동 668-1번지 에브리데이 가운점","indutype":"의류 - 정장","category":"other"}]},{"lat":"37.606808656","long":"127.15248449","imageIndex":17,"items":[{"name":"성요한요양원","tel":"031-558-7373","addr":"경기도 남양주시 다산동 4294-10번지 도농플라자 3층","indutype":"기타의료기관 - 기타의료기관 및 기타","category":"other"},{"name":"세광실업(주)/성요한요양원","tel":"031-558-7373","addr":"경기도 남양주시 다산동 4294-10번지","indutype":"기타의료기관 - 기타의료기관 및 기타","category":"other"},{"name":"주식회사 스팬디컴즈 (Spandy Comms CO. ,","tel":"031-516-8686","addr":"경기도 남양주시 다산동 4294-10번지 도농플라자 1층","indutype":"사무통신 - 통신기기","category":"other"},{"name":"크린토피아 GS슈퍼도농점","tel":"031-551-1539","addr":"경기도 남양주시 다산동 4294-10번지 도농플라자 1층","indutype":"수리서비스 - 세탁소","category":"other"}]},{"lat":"37.599224717","long":"127.15770089","imageIndex":17,"items":[{"name":"세븐일레븐가운중학교점","tel":"031-1577-0711","addr":"경기도 남양주시 다산동 679-6번지 가운프라자 105호","indutype":"유통업 영리 - 편 의 점","category":"other"}]},{"lat":"37.608228074","long":"127.16251009","imageIndex":17,"items":[{"name":"세븐일레븐남양주도농역점","tel":"031-1577-0711","addr":"경기도 남양주시 다산동 3129-5번지","indutype":"유통업 영리 - 편 의 점","category":"other"}]},{"lat":"37.615336191","long":"127.15614861","imageIndex":17,"items":[{"name":"세븐일레븐다산대림점","tel":"031-1577-0711","addr":"경기도 남양주시 다산동 6152-3번지 다산진건지구 F3-1-4 102호","indutype":"유통업 영리 - 편 의 점","category":"other"}]},{"lat":"37.6218373","long":"127.15914102","imageIndex":17,"items":[{"name":"세븐일레븐다산중앙점","tel":"031-1577-0711","addr":"경기도 남양주시 다산동 6096번지 1,2호","indutype":"유통업 영리 - 편 의 점","category":"other"}]},{"lat":"37.608475887","long":"127.15214807","imageIndex":17,"items":[{"name":"세연통신","tel":"031-556-0183","addr":"경기도 남양주시 다산동 4302-26번지","indutype":"사무통신 - 통신기기","category":"other"}]},{"lat":"37.608250572","long":"127.15220424","imageIndex":17,"items":[{"name":"수빈모바일","tel":"031-000-0000","addr":"경기도 남양주시 다산동 4302-30번지 101호","indutype":"사무통신 - 통신기기","category":"other"}]},{"lat":"37.609924265","long":"127.15387243","imageIndex":17,"items":[{"name":"스타들의구제마켓","tel":"031-528-6263","addr":"경기도 남양주시 다산동 4027-22번지 지층","indutype":"의류 - 정장","category":"other"},{"name":"에디타","tel":"031-528-6263","addr":"경기도 남양주시 다산동 4027-22번지","indutype":"의류 - 정장","category":"other"}]},{"lat":"37.622808341","long":"127.16725344","imageIndex":17,"items":[{"name":"스타스포츠","tel":"031-577-8860","addr":"경기도 남양주시 다산동 3304-2번지 1층","indutype":"레져용품 - 스포츠·레져용품","category":"other"}]},{"lat":"37.601584615","long":"127.15820404","imageIndex":17,"items":[{"name":"시스템 마스터 공조","tel":"","addr":"경기도 남양주시 다산동 673번지 남양주가운마을휴먼시아4단지 407동 903호","indutype":"용역 서비스 - 기타용역서비스","category":"other"},{"name":"악기&컴퓨터 클리닉","tel":"070-7753-9870","addr":"경기도 남양주시 다산동 673번지 휴먼시아 402동 802호","indutype":"수리서비스 - 사무·통신기기수리","category":"other"}]},{"lat":"37.608947558","long":"127.15670177","imageIndex":17,"items":[{"name":"시작스터디카페 도농점","tel":"031-555-8277","addr":"경기도 남양주시 다산동 4002-3번지 3층","indutype":"용역 서비스 - 사무서비스","category":"other"}]},{"lat":"37.609313936","long":"127.15203649","imageIndex":17,"items":[{"name":"신명잉크토너","tel":"031-562-1172","addr":"경기도 남양주시 다산동 4302-12번지","indutype":"사무통신 - 기타 사무용품","category":"other"},{"name":"프린터베이 (PrinterBay)","tel":"031-111-1111","addr":"경기도 남양주시 다산동 4302-12번지 1층","indutype":"사무통신 - 컴퓨터","category":"other"}]},{"lat":"37.608363006","long":"127.16266893","imageIndex":17,"items":[{"name":"신일부속","tel":"031-552-8763","addr":"경기도 남양주시 다산동 3129-4번지 1층 3호","indutype":"기타 - 기계공구","category":"other"}]},{"lat":"37.61008761","long":"127.1529554","imageIndex":17,"items":[{"name":"싸인빙코리아","tel":"031-562-0921","addr":"경기도 남양주시 다산동 4340-13번지","indutype":"용역 서비스 - 종합용역","category":"other"}]},{"lat":"37.610115874","long":"127.15198146","imageIndex":17,"items":[{"name":"썬플라워골프아카데미","tel":"031-553-0753","addr":"경기도 남양주시 다산동 4338-45번지 성지프라자 B103,104호","indutype":"회원제형태 - 레져업소","category":"other"}]},{"lat":"37.614535387","long":"127.16214981","imageIndex":17,"items":[{"name":"씨스페이스 다산청운점","tel":"","addr":"경기도 남양주시 다산동 3390-16번지 예전빌딩 1층 102호","indutype":"유통업 영리 - 편 의 점","category":"other"}]},{"lat":"37.616948228","long":"127.16994757","imageIndex":17,"items":[{"name":"씨앤씨월드","tel":"02-1661-6721","addr":"경기도 남양주시 다산동 3268-4번지","indutype":"사무통신 - 컴퓨터","category":"other"}]},{"lat":"37.598088548","long":"127.171536","imageIndex":17,"items":[{"name":"씨유다산지금로점","tel":"02-1577-8007","addr":"경기도 남양주시 다산동 6235번지 금강펜트리움 후문 상가동 205호","indutype":"유통업 영리 - 편 의 점","category":"other"}]},{"lat":"37.623361361","long":"127.1580681","imageIndex":17,"items":[{"name":"씨유다산힐스테이트점","tel":"080-080-3663","addr":"경기도 남양주시 다산동 6092번지 힐스테이트 다산 근린생활시설 1층 107호","indutype":"유통업 영리 - 편 의 점","category":"other"},{"name":"현대세탁","tel":"031-551-1177","addr":"경기도 남양주시 다산동 6092번지 힐스테이트 다산 근린생활시설 1층 101호","indutype":"수리서비스 - 세탁소","category":"other"}]},{"lat":"37.61630505","long":"127.15934464","imageIndex":17,"items":[{"name":"아름다운창","tel":"031-554-4452","addr":"경기도 남양주시 다산동 3396번지 운현빌딩 104호","indutype":"직물 - 카페트,커튼,천막,지물","category":"other"}]},{"lat":"37.613972976","long":"127.16494614","imageIndex":17,"items":[{"name":"아성에어텍","tel":"02-1600-5251","addr":"경기도 남양주시 다산동 3433번지","indutype":"전기제품 - 냉열기기","category":"other"}]},{"lat":"37.614197799","long":"127.1716743","imageIndex":17,"items":[{"name":"아쿠아키즈","tel":"070-7556-5923","addr":"경기도 남양주시 다산동 3008-53번지","indutype":"문화.취미 - 수족관","category":"other"}]},{"lat":"37.609919036","long":"127.16462023","imageIndex":17,"items":[{"name":"아트텔레콤","tel":"031-523-2008","addr":"경기도 남양주시 다산동 3445-4번지","indutype":"사무통신 - 통신기기","category":"other"}]},{"lat":"37.609808135","long":"127.15309074","imageIndex":17,"items":[{"name":"엄지옷수선","tel":"031-552-6205","addr":"경기도 남양주시 다산동 4298-11번지","indutype":"수리서비스 - 세탁소","category":"other"},{"name":"퍼핏","tel":"","addr":"경기도 남양주시 다산동 4298-11번지","indutype":"문화.취미 - 애완동물","category":"other"}]},{"lat":"37.610168525","long":"127.15309146","imageIndex":17,"items":[{"name":"에듀맘","tel":"070-5030-4144","addr":"경기도 남양주시 다산동 4340-12번지 1층","indutype":"서적문구 - 기타서적문구","category":"other"}]},{"lat":"37.612836018","long":"127.16620084","imageIndex":17,"items":[{"name":"에스토리","tel":"","addr":"경기도 남양주시 다산동 6173-7번지 102호,다산지금지구 F2-4-8","indutype":"의류 - 정장","category":"other"}]},{"lat":"37.616867845","long":"127.16944903","imageIndex":17,"items":[{"name":"에이스산업안전","tel":"031-576-7403","addr":"경기도 남양주시 다산동 3259-4번지","indutype":"기타 - 기타 전문점","category":"other"}]},{"lat":"37.6086199","long":"127.15226161","imageIndex":17,"items":[{"name":"에이치앤그린","tel":"031-559-0309","addr":"경기도 남양주시 다산동 4302-24번지 1층","indutype":"사무통신 - 컴퓨터","category":"other"}]},{"lat":"37.607002999","long":"127.15550864","imageIndex":17,"items":[{"name":"에코클리어","tel":"031-566-0942","addr":"경기도 남양주시 다산동 4047-35번지 원미빌라 C동 102호","indutype":"용역 서비스 - 종합용역","category":"other"}]},{"lat":"37.61756084","long":"127.16998292","imageIndex":17,"items":[{"name":"엘와이테크","tel":"031-1661-7880","addr":"경기도 남양주시 다산동 3267-7번지","indutype":"전기제품 - 냉열기기","category":"other"}]},{"lat":"37.628112184","long":"127.15600492","imageIndex":17,"items":[{"name":"엘케이대박통신 다산점","tel":"070-4146-4011","addr":"경기도 남양주시 다산동 6030번지 다산노블레스 105호","indutype":"사무통신 - 통신기기","category":"other"},{"name":"크린에이드 다산노블레스점","tel":"031-551-5501","addr":"경기도 남양주시 다산동 6030번지 다산진건지구 근생1-1-1 1층 104호","indutype":"수리서비스 - 세탁소","category":"other"},{"name":"크린에이드 다산노블레스점","tel":"031-551-5501","addr":"경기도 남양주시 다산동 6030번지 다산노블레스 상가동 1층 104호","indutype":"수리서비스 - 세탁소","category":"other"}]},{"lat":"37.600973851","long":"127.1567533","imageIndex":17,"items":[{"name":"엘케이퍼니쳐","tel":"031-566-2502","addr":"경기도 남양주시 다산동 676-2번지 한림빌딩 302호","indutype":"가구 - 기타가구","category":"other"},{"name":"코맥스 엔씨에스","tel":"031-554-3024","addr":"경기도 남양주시 다산동 676-2번지 105호","indutype":"사무통신 - 통신기기","category":"other"}]},{"lat":"37.622115564","long":"127.15992318","imageIndex":17,"items":[{"name":"엣지(eage)","tel":"","addr":"경기도 남양주시 다산동 6095-4번지 다산진건지구 F2-1-5 101호","indutype":"의류 - 정장","category":"other"}]},{"lat":"37.60925417","long":"127.16325975","imageIndex":17,"items":[{"name":"영림합판목재","tel":"031-564-7300","addr":"경기도 남양주시 다산동 3130-7번지","indutype":"건축자재 - 기타건축자재","category":"other"},{"name":"은하수꽃나라","tel":"031-551-0044","addr":"경기도 남양주시 다산동 3130-7번지","indutype":"문화.취미 - 화원","category":"other"}]},{"lat":"37.616422476","long":"127.15911836","imageIndex":17,"items":[{"name":"영진씨엠에스(주)","tel":"031-568-0182","addr":"경기도 남양주시 다산동 3534번지","indutype":"건축자재 - 기타건축자재","category":"other"}]},{"lat":"37.605145804","long":"127.15642215","imageIndex":17,"items":[{"name":"영화공구","tel":"031-562-4210","addr":"경기도 남양주시 다산동 4136-3번지","indutype":"기타 - 기계공구","category":"other"}]},{"lat":"37.625112832","long":"127.1553191","imageIndex":17,"items":[{"name":"오채화실","tel":"031-510-9118","addr":"경기도 남양주시 다산동 6053-2번지 푸리마타워 6층 605호","indutype":"문화.취미 - 문화취미기타","category":"other"}]},{"lat":"37.608695413","long":"127.16337181","imageIndex":17,"items":[{"name":"용진상사","tel":"031-553-7400","addr":"경기도 남양주시 다산동 3129-56번지","indutype":"건축자재 - 페인트","category":"other"},{"name":"용진캐미칼","tel":"031-553-7400","addr":"경기도 남양주시 다산동 3129-56번지","indutype":"건축자재 - 페인트","category":"other"}]},{"lat":"37.624307127","long":"127.15126218","imageIndex":17,"items":[{"name":"원앤스튜디오","tel":"","addr":"경기도 남양주시 다산동 6060-1번지 801호,802호,803호","indutype":"광학제품 - 사진관","category":"other"}]},{"lat":"37.608638734","long":"127.15161611","imageIndex":17,"items":[{"name":"월드피씨","tel":"031-512-2722","addr":"경기도 남양주시 다산동 4306-38번지","indutype":"사무통신 - 컴퓨터","category":"other"}]},{"lat":"37.599396006","long":"127.15762198","imageIndex":17,"items":[{"name":"웬지데이","tel":"070-4152-8254","addr":"경기도 남양주시 다산동 679-5번지 맥산빌딩 501호","indutype":"신변잡화 - 기념품점","category":"other"},{"name":"휴(HUE)디자인","tel":"031-556-0402","addr":"경기도 남양주시 다산동 679-5번지 맥산빌딩 102호","indutype":"직물 - 카페트,커튼,천막,지물","category":"other"}]},{"lat":"37.597175513","long":"127.16731028","imageIndex":17,"items":[{"name":"웰파코리아(주)","tel":"031-554-0752","addr":"경기도 남양주시 다산동 478-1번지","indutype":"의류 - 정장","category":"other"}]},{"lat":"37.601176106","long":"127.17347938","imageIndex":17,"items":[{"name":"위듀(widue) 스터디 센터","tel":"","addr":"경기도 남양주시 다산동 6217-2번지 502호,503호","indutype":"용역 서비스 - 사무서비스","category":"other"}]},{"lat":"37.609172536","long":"127.1498391","imageIndex":17,"items":[{"name":"유림상사","tel":"","addr":"경기도 남양주시 다산동 4312-27번지","indutype":"신변잡화 - 기타잡화","category":"other"}]},{"lat":"37.606536489","long":"127.15395618","imageIndex":17,"items":[{"name":"윤태희프로","tel":"02-529-9400","addr":"경기도 남양주시 다산동 4436번지 도농동부센트레빌 106동 1004호","indutype":"회원제형태 - 레져업소","category":"other"}]},{"lat":"37.612833037","long":"127.16834142","imageIndex":17,"items":[{"name":"이마트24 다산법조타워점","tel":"031-1111-1111","addr":"경기도 남양주시 다산동 6183번지 중앙법조타워 107호","indutype":"유통업 영리 - 편 의 점","category":"other"}]},{"lat":"37.623755429","long":"127.15292623","imageIndex":17,"items":[{"name":"이마트24 다산솔보점","tel":"031-111-1111","addr":"경기도 남양주시 다산동 6089번지 다산진건지구 업무1-1 1층 113호","indutype":"유통업 영리 - 편 의 점","category":"other"}]},{"lat":"37.595649194","long":"127.16992259","imageIndex":17,"items":[{"name":"이마트24 다산인스빌","tel":"","addr":"경기도 남양주시 다산동 540번지 자금지구 B-6블럭 신안인스빌퍼스트리버 단지내상가 2동 104호","indutype":"유통업 영리 - 편 의 점","category":"other"}]},{"lat":"37.621140625","long":"127.1472914","imageIndex":17,"items":[{"name":"이마트24 다산화성점","tel":"","addr":"경기도 남양주시 다산동 6077번지 다산진건지구 근생2-1-1 1층 108호","indutype":"유통업 영리 - 편 의 점","category":"other"}]},{"lat":"37.615256291","long":"127.15523103","imageIndex":17,"items":[{"name":"이쁜이애견","tel":"031-565-5589","addr":"경기도 남양주시 다산동 3504-6번지 ,7","indutype":"문화.취미 - 애완동물","category":"other"}]},{"lat":"37.607007836","long":"127.15870229","imageIndex":17,"items":[{"name":"이석희/삼원FA(일반)","tel":"031-559-8611","addr":"경기도 남양주시 다산동 4053-1번지","indutype":"기타 - 기타 전문점","category":"other"}]},{"lat":"37.601392307","long":"127.17350253","imageIndex":17,"items":[{"name":"인스와친구들 다산신도시점","tel":"031-555-3236","addr":"경기도 남양주시 다산동 6217-1번지 하나프라자2 401호 다산지금지구근생 7-1","indutype":"서적문구 - 완구점","category":"other"}]},{"lat":"37.616029545","long":"127.14936556","imageIndex":17,"items":[{"name":"인창벤딩","tel":"031-554-0009","addr":"경기도 남양주시 다산동 4347-8번지","indutype":"건축자재 - 기타건축자재","category":"other"}]},{"lat":"37.605448512","long":"127.16584495","imageIndex":17,"items":[{"name":"인현정밀","tel":"031-557-1940","addr":"경기도 남양주시 다산동 3106-3번지","indutype":"기타 - 기계공구","category":"other"}]},{"lat":"37.608452744","long":"127.15614581","imageIndex":17,"items":[{"name":"일공삼에스티(103ST)","tel":"031-567-8050","addr":"경기도 남양주시 다산동 4043-8번지 1층 1호","indutype":"의류 - 정장","category":"other"}]},{"lat":"37.605283714","long":"127.15428206","imageIndex":17,"items":[{"name":"일신인쇄","tel":"031-571-8612","addr":"경기도 남양주시 다산동 4133번지 강호연립 나동 103호","indutype":"서적문구 - 출판 및 인쇄물","category":"other"}]},{"lat":"37.599946001","long":"127.15731737","imageIndex":17,"items":[{"name":"자연주의조산원","tel":"031-544-0100","addr":"경기도 남양주시 다산동 679-1번지 삼원프라자 4층 402, 403호","indutype":"기타의료기관 - 조산원","category":"other"},{"name":"주식회사포커스나린","tel":"031-551-7589","addr":"경기도 남양주시 다산동 679-1번지 삼원프라자 201호","indutype":"용역 서비스 - 종합용역","category":"other"},{"name":"크린토피아가운중앙구름다리점","tel":"031-558-6100","addr":"경기도 남양주시 다산동 679-1번지 삼원프라자 1층 102호","indutype":"수리서비스 - 세탁소","category":"other"}]},{"lat":"37.606307336","long":"127.15697945","imageIndex":17,"items":[{"name":"정현빌딩","tel":"031-555-7675","addr":"경기도 남양주시 다산동 4116-1번지","indutype":"용역 서비스 - 부동산 중개·임대","category":"other"},{"name":"정현스포츠","tel":"031-553-7561","addr":"경기도 남양주시 다산동 4116-1번지","indutype":"레져용품 - 스포츠·레져용품","category":"other"}]},{"lat":"37.606528221","long":"127.16690052","imageIndex":17,"items":[{"name":"제이앤비(J&B)하우스","tel":"031-567-2277","addr":"경기도 남양주시 다산동 3103-30번지 지하1층","indutype":"신변잡화 - 귀금속","category":"other"}]},{"lat":"37.605647366","long":"127.15869946","imageIndex":17,"items":[{"name":"조선일보도농지국","tel":"031-562-1950","addr":"경기도 남양주시 다산동 617-14번지","indutype":"서적문구 - 정기간행물","category":"other"}]},{"lat":"37.614006984","long":"127.16641859","imageIndex":17,"items":[{"name":"주식회사 워시와 (다산점)","tel":"070-5175-8900","addr":"경기도 남양주시 다산동 6166번지","indutype":"수리서비스 - 세탁소","category":"other"}]},{"lat":"37.605952738","long":"127.15942488","imageIndex":17,"items":[{"name":"주영광교회","tel":"070-7612-7075","addr":"경기도 남양주시 다산동 산59-3번지","indutype":"기타 - 비영리/대상","category":"other"}]},{"lat":"37.609647826","long":"127.16528784","imageIndex":17,"items":[{"name":"준공업사","tel":"031-553-4400","addr":"경기도 남양주시 다산동 3136-9번지","indutype":"용역 서비스 - 기타용역서비스","category":"other"}]},{"lat":"37.610202855","long":"127.15442794","imageIndex":17,"items":[{"name":"준킥보드","tel":"031-557-7587","addr":"경기도 남양주시 다산동 산4013-2번지 대방빌라 1층","indutype":"레져용품 - 스포츠·레져용품","category":"other"}]},{"lat":"37.605834727","long":"127.15317335","imageIndex":17,"items":[{"name":"첼시크린","tel":"031-555-3312","addr":"경기도 남양주시 다산동 4436-2번지","indutype":"기타 - 기타 전문점","category":"other"},{"name":"퍼스트웨어","tel":"070-4239-8298","addr":"경기도 남양주시 다산동 4436-2번지 송라빌라 107호","indutype":"사무통신 - 컴퓨터","category":"other"},{"name":"필퍼니처","tel":"031-562-9570","addr":"경기도 남양주시 다산동 4436-2번지 송라빌딩 306호","indutype":"가구 - 일반가구","category":"other"}]},{"lat":"37.61339382","long":"127.16677968","imageIndex":17,"items":[{"name":"컴퓨터수리 라인컴퓨터 남양주다산점","tel":"","addr":"경기도 남양주시 다산동 6166-5번지","indutype":"수리서비스 - 사무·통신기기수리","category":"other"}]},{"lat":"37.607731244","long":"127.15669926","imageIndex":17,"items":[{"name":"크린 옷수선","tel":"031-562-8084","addr":"경기도 남양주시 다산동 4045-37번지","indutype":"수리서비스 - 세탁소","category":"other"}]},{"lat":"37.623611906","long":"127.15242753","imageIndex":17,"items":[{"name":"킹덤","tel":"031-558-4242","addr":"경기도 남양주시 다산동 6086-2번지 로데오프라자 602호","indutype":"가구 - 기타가구","category":"other"}]},{"lat":"37.62339501","long":"127.16650712","imageIndex":17,"items":[{"name":"타조(TAZO)","tel":"031-555-7724","addr":"경기도 남양주시 다산동 3307-3번지","indutype":"사무통신 - 사무용 OA기기","category":"other"}]},{"lat":"37.605423983","long":"127.1572834","imageIndex":17,"items":[{"name":"탑LED조명","tel":"031-568-8811","addr":"경기도 남양주시 다산동 4114-26번지","indutype":"건축자재 - 조명기구","category":"other"}]},{"lat":"37.609170266","long":"127.15165114","imageIndex":17,"items":[{"name":"태성전기조명","tel":"031-553-4521","addr":"경기도 남양주시 다산동 4306-32번지","indutype":"건축자재 - 조명기구","category":"other"}]},{"lat":"37.604087527","long":"127.15956819","imageIndex":17,"items":[{"name":"태송세무회계사무소","tel":"031-1566-6771","addr":"경기도 남양주시 다산동 608-3번지 2층","indutype":"용역 서비스 - 법률회계서비스(개인)","category":"other"}]},{"lat":"37.606340861","long":"127.15889342","imageIndex":17,"items":[{"name":"태정법무사사무소","tel":"031-567-2989","addr":"경기도 남양주시 다산동 4089-3번지","indutype":"용역 서비스 - 법률회계서비스(개인)","category":"other"},{"name":"하우스인테리어","tel":"031-558-1214","addr":"경기도 남양주시 다산동 4089-3번지 1층","indutype":"건축자재 - 인테리어전문","category":"other"}]},{"lat":"37.615221892","long":"127.16083743","imageIndex":17,"items":[{"name":"테이크멘토","tel":"031-554-4226","addr":"경기도 남양주시 다산동 3391-55번지","indutype":"서적문구 - 문구용품","category":"other"}]},{"lat":"37.606673081","long":"127.15975481","imageIndex":17,"items":[{"name":"토탈타일","tel":"031-566-0482","addr":"경기도 남양주시 다산동 617-23번지 1층","indutype":"건축자재 - 건축용 요업제품","category":"other"},{"name":"휘닉스전기조명","tel":"031-562-1300","addr":"경기도 남양주시 다산동 617-23번지","indutype":"건축자재 - 조명기구","category":"other"}]},{"lat":"37.607894214","long":"127.15608804","imageIndex":17,"items":[{"name":"티파니","tel":"031-997-5483","addr":"경기도 남양주시 다산동 4045-54번지 201호","indutype":"회원제형태 - 기타1","category":"other"}]},{"lat":"37.608255718","long":"127.15522807","imageIndex":17,"items":[{"name":"파츠매니아","tel":"031-564-7463","addr":"경기도 남양주시 다산동 4035-5번지 송학빌라 101호","indutype":"기타 - 기계공구","category":"other"}]},{"lat":"37.6083955","long":"127.15159297","imageIndex":17,"items":[{"name":"플라워 파니","tel":"031-000-0000","addr":"경기도 남양주시 다산동 4306-45번지 101호","indutype":"문화.취미 - 화원","category":"other"}]},{"lat":"37.620031234","long":"127.14826337","imageIndex":17,"items":[{"name":"플라워가든송령","tel":"","addr":"경기도 남양주시 다산동 6079-2번지 예스파라자다산주건축물 1동 110호","indutype":"문화.취미 - 화원","category":"other"}]},{"lat":"37.609638672","long":"127.15173135","imageIndex":17,"items":[{"name":"피엔모바일","tel":"031-557-9097","addr":"경기도 남양주시 다산동 4302-52번지","indutype":"사무통신 - 통신기기","category":"other"}]},{"lat":"37.607479443","long":"127.15633634","imageIndex":17,"items":[{"name":"하늘문구도매몰","tel":"070-8779-4181","addr":"경기도 남양주시 다산동 4045-13번지","indutype":"서적문구 - 문구용품","category":"other"}]},{"lat":"37.613391748","long":"127.16170566","imageIndex":17,"items":[{"name":"하얀세탁소","tel":"031-555-6912","addr":"경기도 남양주시 다산동 4002-32번지 202호 4차상가","indutype":"수리서비스 - 세탁소","category":"other"},{"name":"현대스크린골프","tel":"031-558-0909","addr":"경기도 남양주시 다산동 4002-32번지 부영그린타운 제분산상가동 지하층 101호","indutype":"회원제형태 - 레져업소","category":"other"}]},{"lat":"37.612251528","long":"127.16537278","imageIndex":17,"items":[{"name":"하엘 플라워(Hael Flower)","tel":"031-555-5676","addr":"경기도 남양주시 다산동 6170-3번지 다산지금지구 F2-7-4 103호","indutype":"문화.취미 - 화원","category":"other"}]},{"lat":"37.607336037","long":"127.15575847","imageIndex":17,"items":[{"name":"한국종이문화원","tel":"031-567-1570","addr":"경기도 남양주시 다산동 4036-115번지 1층","indutype":"문화.취미 - 문화취미기타","category":"other"}]},{"lat":"37.612226446","long":"127.17042402","imageIndex":17,"items":[{"name":"한국축산기기","tel":"031-554-9880","addr":"경기도 남양주시 다산동 3170-2번지","indutype":"농업 - 농기계","category":"other"}]},{"lat":"37.608758575","long":"127.1565315","imageIndex":17,"items":[{"name":"한길기획","tel":"031-564-7950","addr":"경기도 남양주시 다산동 4066-8번지","indutype":"회원제형태 - 기타4","category":"other"}]},{"lat":"37.609584992","long":"127.16511782","imageIndex":17,"items":[{"name":"한양스튜디오","tel":"031-562-5743","addr":"경기도 남양주시 다산동 3136-2번지","indutype":"광학제품 - 사진관","category":"other"}]},{"lat":"37.606591661","long":"127.16000379","imageIndex":17,"items":[{"name":"해바라기도예공방","tel":"031-553-6377","addr":"경기도 남양주시 다산동 4113-7번지 도농빌딩 2층","indutype":"문화.취미 - 민예·공예품","category":"other"}]},{"lat":"37.608533464","long":"127.15642911","imageIndex":17,"items":[{"name":"허브플레이스","tel":"031-569-0803","addr":"경기도 남양주시 다산동 4067-1번지","indutype":"의류 - 정장","category":"other"}]},{"lat":"37.623865174","long":"127.16530743","imageIndex":17,"items":[{"name":"혁승사","tel":"031-571-1775","addr":"경기도 남양주시 다산동 3310번지","indutype":"직물 - 침구·수예점","category":"other"}]},{"lat":"37.607114963","long":"127.15944997","imageIndex":17,"items":[{"name":"화성종합밸브","tel":"031-557-1717","addr":"경기도 남양주시 다산동 4090-2번지","indutype":"기타 - 기계공구","category":"other"}]},{"lat":"37.609143515","long":"127.16511686","imageIndex":17,"items":[{"name":"황금산크린에이드","tel":"031-558-8353","addr":"경기도 남양주시 다산동 3720-1번지","indutype":"수리서비스 - 세탁소","category":"other"}]},{"lat":"37.621140292","long":"127.14756325","imageIndex":17,"items":[{"name":"황진현 세무회계 사무소","tel":"031-515-2780","addr":"경기도 남양주시 다산동 6077-1번지 폴리프라자 5층 504호","indutype":"용역 서비스 - 법률회계서비스(개인)","category":"other"}]},{"lat":"37.622394619","long":"127.16673147","imageIndex":17,"items":[{"name":"효성ENG","tel":"031-556-3166","addr":"경기도 남양주시 다산동 3303번지","indutype":"기타 - 기계공구","category":"other"}]},{"lat":"37.608727284","long":"127.15283941","imageIndex":17,"items":[{"name":"흰둥이문구팬시","tel":"031-569-1553","addr":"경기도 남양주시 다산동 4299-25번지 1층","indutype":"서적문구 - 문구용품","category":"other"}]}]