[{"lat":"36.99674506","long":"127.08767507","imageIndex":13,"items":[{"name":"대왕","tel":"031-653-5605","addr":"경기도 평택시 통복동 81-4번지","indutype":"레저업소 - 당 구 장","category":"leisure"}]},{"lat":"36.995108714","long":"127.0824721","imageIndex":13,"items":[{"name":"데일리","tel":"070-7642-0121","addr":"경기도 평택시 통복동 110-3번지 1층 101호","indutype":"레저업소 - 헬스클럽","category":"leisure"}]},{"lat":"36.997546875","long":"127.08786694","imageIndex":13,"items":[{"name":"동네노래방","tel":"031-651-2727","addr":"경기도 평택시 통복동 81-2번지","indutype":"레저업소 - 노 래 방","category":"leisure"}]},{"lat":"36.995934649","long":"127.08689905","imageIndex":13,"items":[{"name":"둘리노래연습장","tel":"031-618-7689","addr":"경기도 평택시 통복동 89-15번지","indutype":"레저업소 - 노 래 방","category":"leisure"}]},{"lat":"37.000268481","long":"127.08734195","imageIndex":13,"items":[{"name":"명성당구장","tel":"","addr":"경기도 평택시 통복동 38-1번지 한국방송통신대학교 2층","indutype":"레저업소 - 당 구 장","category":"leisure"}]},{"lat":"36.992605568","long":"127.07969488","imageIndex":13,"items":[{"name":"삼성노래연습장","tel":"031-655-0558","addr":"경기도 평택시 통복동 139-3번지","indutype":"레저업소 - 노 래 방","category":"leisure"}]},{"lat":"36.997745925","long":"127.08672129","imageIndex":13,"items":[{"name":"신나는 노래연습장","tel":"031-658-0355","addr":"경기도 평택시 통복동 77-7번지","indutype":"레저업소 - 노 래 방","category":"leisure"}]},{"lat":"36.997719806","long":"127.08541812","imageIndex":13,"items":[{"name":"아우네노래연습장","tel":"031-652-6926","addr":"경기도 평택시 통복동 70-20번지","indutype":"레저업소 - 노 래 방","category":"leisure"}]},{"lat":"36.995188999","long":"127.08367418","imageIndex":13,"items":[{"name":"에이스당구장","tel":"031-652-9993","addr":"경기도 평택시 통복동 111-13번지 4층","indutype":"레저업소 - 당 구 장","category":"leisure"}]},{"lat":"36.998079471","long":"127.08650821","imageIndex":13,"items":[{"name":"열풍노래연습장","tel":"031-656-7948","addr":"경기도 평택시 통복동 75-32번지","indutype":"레저업소 - 노 래 방","category":"leisure"}]},{"lat":"36.997827212","long":"127.08645177","imageIndex":13,"items":[{"name":"춤추는노래연습장","tel":"031-692-9151","addr":"경기도 평택시 통복동 76-1번지 지하1층","indutype":"레저업소 - 노 래 방","category":"leisure"}]},{"lat":"36.993021962","long":"127.07669601","imageIndex":13,"items":[{"name":"훼미리스크린골프","tel":"031-651-0246","addr":"경기도 평택시 통복동 368-8번지","indutype":"레저업소 - 스크린골프","category":"leisure"}]}]