[{"lat":"37.010186354","long":"127.20793568","imageIndex":13,"items":[{"name":"(주)다해","tel":"031-657-9625","addr":"경기도 안성시 공도읍 마정리 90-23번지 (주)다해","indutype":"보건위생 - 화장품","category":"beauty"}]},{"lat":"37.014548465","long":"127.20738558","imageIndex":13,"items":[{"name":"VIP헤어살롱","tel":"031-655-9763","addr":"경기도 안성시 공도읍 마정리 45-70번지","indutype":"보건위생 - 미용원","category":"beauty"}]},{"lat":"37.012048929","long":"127.20421031","imageIndex":13,"items":[{"name":"노랑머리","tel":"","addr":"경기도 안성시 공도읍 마정리 100-38번지","indutype":"보건위생 - 미용원","category":"beauty"},{"name":"신세대머리나라","tel":"031-672-5053","addr":"경기도 안성시 공도읍 마정리 100-38번지","indutype":"보건위생 - 미용원","category":"beauty"}]},{"lat":"37.011103783","long":"127.20363478","imageIndex":13,"items":[{"name":"머리끄댕이","tel":"031-651-3863","addr":"경기도 안성시 공도읍 마정리 100-55번지","indutype":"보건위생 - 미용원","category":"beauty"}]},{"lat":"37.008629872","long":"127.19577461","imageIndex":13,"items":[{"name":"뷰티스킨케어","tel":"031-653-4806","addr":"경기도 안성시 공도읍 마정리 144-2번지 석경프라자 가동 3층 4호","indutype":"보건위생 - 피부미용실","category":"beauty"},{"name":"조이왁싱&속눈썹","tel":"031-651-0774","addr":"경기도 안성시 공도읍 마정리 144-2번지 3층","indutype":"보건위생 - 피부미용실","category":"beauty"}]},{"lat":"37.014218501","long":"127.20538462","imageIndex":13,"items":[{"name":"송헤어샵","tel":"031-655-7724","addr":"경기도 안성시 공도읍 마정리 100-4번지 1층","indutype":"보건위생 - 미용원","category":"beauty"}]},{"lat":"37.013106547","long":"127.20221305","imageIndex":13,"items":[{"name":"승연헤어샵","tel":"031-674-7125","addr":"경기도 안성시 공도읍 마정리 112-156번지 시그마빌4차 1층 우측호","indutype":"보건위생 - 미용원","category":"beauty"}]},{"lat":"37.014882206","long":"127.20718422","imageIndex":13,"items":[{"name":"아방궁 피부관리실","tel":"031-618-8860","addr":"경기도 안성시 공도읍 마정리 223-138번지 아방궁사우나 1층","indutype":"보건위생 - 피부미용실","category":"beauty"}]},{"lat":"37.014047912","long":"127.2050246","imageIndex":13,"items":[{"name":"전원이발소","tel":"070-8113-9965","addr":"경기도 안성시 공도읍 마정리 100-73번지 B동","indutype":"보건위생 - 이용원","category":"beauty"}]},{"lat":"37.012189535","long":"127.20630059","imageIndex":13,"items":[{"name":"콩이네일","tel":"031-655-2288","addr":"경기도 안성시 공도읍 마정리 100-45번지 광양빌리지 가동 1층","indutype":"보건위생 - 피부미용실","category":"beauty"}]},{"lat":"37.012874881","long":"127.20598781","imageIndex":13,"items":[{"name":"헤어공간","tel":"031-618-0822","addr":"경기도 안성시 공도읍 마정리 100-92번지 한스빌 A동 102호","indutype":"보건위생 - 미용원","category":"beauty"}]}]