[{"lat":"37.336860046","long":"126.74743954","imageIndex":4,"items":[{"name":"1.2.3회 해물포차(123회도매센터)","tel":"031-433-3888","addr":"경기도 시흥시 정왕동 1782-6번지 101호","indutype":"음식점업 - 기타음식점","category":"restaurant"}]},{"lat":"37.352085499","long":"126.72280587","imageIndex":4,"items":[{"name":"100세곱창","tel":"031-433-0107","addr":"경기도 시흥시 정왕동 1855-17번지 1층","indutype":"음식점업 - 일반음식점","category":"restaurant"}]},{"lat":"37.337500128","long":"126.74760664","imageIndex":4,"items":[{"name":"10온스","tel":"070-4105-0651","addr":"경기도 시흥시 정왕동 1624-8번지","indutype":"음식점업 - 커피숍","category":"restaurant"},{"name":"신의주찹쌀순대","tel":"031-433-2380","addr":"경기도 시흥시 정왕동 1624-8번지 1층","indutype":"음식점업 - 한식","category":"restaurant"}]},{"lat":"37.377773858","long":"126.72686525","imageIndex":4,"items":[{"name":"24시 전주명가콩나물국밥 시흥배곧점","tel":"031-499-3322","addr":"경기도 시흥시 정왕동 2475-1번지 배곧타운2 101~102호","indutype":"음식점업 - 일반음식점","category":"restaurant"},{"name":"갈비천국 배곧직영점","tel":"031-8042-7292","addr":"경기도 시흥시 정왕동 2475-1번지 배곧타운2 2층 207~208호","indutype":"음식점업 - 한식","category":"restaurant"},{"name":"감동반찬","tel":"031-499-0234","addr":"경기도 시흥시 정왕동 2475-1번지 배곧타운2 1층 123호","indutype":"음식점업 - 반찬류","category":"restaurant"},{"name":"곤지암할매소머리국밥 배곧신도시점","tel":"","addr":"경기도 시흥시 정왕동 2475-1번지 배곧타운2 132호","indutype":"음식점업 - 음식","category":"restaurant"},{"name":"담은숯불갈비","tel":"031-319-5939","addr":"경기도 시흥시 정왕동 2475-1번지 120~121호","indutype":"음식점업 - 음식점","category":"restaurant"},{"name":"도나수제도넛앤커피","tel":"","addr":"경기도 시흥시 정왕동 2475-1번지 배곧타운2 1층 118호","indutype":"음식점업 - 음식점","category":"restaurant"},{"name":"돈통마늘보쌈 배곧신도시점","tel":"031-431-5382","addr":"경기도 시흥시 정왕동 2475-1번지 배곧타운2 2층 217~8호","indutype":"음식점업 - 한식","category":"restaurant"},{"name":"마르쿠스","tel":"031-432-8266","addr":"경기도 시흥시 정왕동 2475-1번지 배곧타운2 201호","indutype":"음식점업 - 양식","category":"restaurant"},{"name":"백년식당","tel":"031-432-6892","addr":"경기도 시흥시 정왕동 2475-1번지 배곧타운2 131호","indutype":"음식점업 - 일반음식점","category":"restaurant"},{"name":"수내닭꼬치","tel":"031-499-5792","addr":"경기도 시흥시 정왕동 2475-1번지 배곧타운2 129호","indutype":"음식점업 - 음식점,닭꼬치","category":"restaurant"},{"name":"이디야배곧타운점","tel":"031-319-6877","addr":"경기도 시흥시 정왕동 2475-1번지 배곧타운2 119호","indutype":"음식점업 - 커피","category":"restaurant"},{"name":"카페동네 시흥배곧점","tel":"031-432-3229","addr":"경기도 시흥시 정왕동 2475-1번지 104호 203호","indutype":"음식점업 - 카페","category":"restaurant"},{"name":"푸라닭 시흥배곧신도시점","tel":"031-499-9206","addr":"경기도 시흥시 정왕동 2475-1번지 배곧타운2 1층 126호","indutype":"음식점업 - 피자,치킨 등","category":"restaurant"},{"name":"하남한우곱창","tel":"031-431-3412","addr":"경기도 시흥시 정왕동 2475-1번지 배곧타운2 125호","indutype":"음식점업 - 한식","category":"restaurant"},{"name":"화로상회배곧점","tel":"031-432-8592","addr":"경기도 시흥시 정왕동 2475-1번지 배곧타운2 2층 207,208호","indutype":"음식점업 - 한식","category":"restaurant"}]},{"lat":"37.347166461","long":"126.74688549","imageIndex":4,"items":[{"name":"25시 병천토종순대","tel":"","addr":"경기도 시흥시 정왕동 1208-1번지","indutype":"음식점업 - 한식","category":"restaurant"}]},{"lat":"37.362442842","long":"126.71353373","imageIndex":4,"items":[{"name":"292 짬떡 배곧점","tel":"031-433-0292","addr":"경기도 시흥시 정왕동 2564번지 한라비발디캠퍼스2차 상가4동 111B호","indutype":"음식점업 - 분식","category":"restaurant"},{"name":"달빛맥주 시흥배곧점","tel":"031-497-9953","addr":"경기도 시흥시 정왕동 2564번지 한라비발디캠퍼스2차 상가2동 110B호","indutype":"음식점업 - 맥주","category":"restaurant"},{"name":"맛깔참죽","tel":"","addr":"경기도 시흥시 정왕동 2564번지 한라비발디캠퍼스2차","indutype":"음식점업 - 한식","category":"restaurant"},{"name":"모모카페","tel":"031-432-1187","addr":"경기도 시흥시 정왕동 2564번지 한라비발디2차 401동 110A","indutype":"음식점업 - 커피전문점","category":"restaurant"},{"name":"배도한식당","tel":"","addr":"경기도 시흥시 정왕동 2564번지 한라비발디캠퍼스2차 403동 102호","indutype":"음식점업 - 한식","category":"restaurant"},{"name":"수내닭꼬치","tel":"031-432-7501","addr":"경기도 시흥시 정왕동 2564번지 한라비발디캠퍼스2차 상가3동 102A호","indutype":"음식점업 - 일반음식점","category":"restaurant"},{"name":"유로코피자시흥배곧점","tel":"031-434-2223","addr":"경기도 시흥시 정왕동 2564번지 한라비발디캠퍼스2차 상가4동 1층 110비호","indutype":"음식점업 - 피자,치킨,기타","category":"restaurant"},{"name":"인사동설렁탕","tel":"031-432-9292","addr":"경기도 시흥시 정왕동 2564번지 한라비발디캠퍼스2차 상가403동 101B호","indutype":"음식점업 - 일반음식점","category":"restaurant"},{"name":"푸딩김밥(배곧점)","tel":"031-498-5033","addr":"경기도 시흥시 정왕동 2564번지 한라비발디캠퍼스2차 상가2동 1층 111A호","indutype":"음식점업 - 한식","category":"restaurant"},{"name":"한상고기","tel":"031-319-3686","addr":"경기도 시흥시 정왕동 2564번지 한라비발디 상가 3동 103호","indutype":"음식점업 - 한식","category":"restaurant"},{"name":"한우부추곱창","tel":"031-431-4314","addr":"경기도 시흥시 정왕동 2564번지 한라비발디캠퍼스2차 1동 1층 106호","indutype":"음식점업 - 한식","category":"restaurant"},{"name":"홍이네오징어보쌈부대찌개","tel":"031-433-9292","addr":"경기도 시흥시 정왕동 2564번지 상가 3동 1층 101에이호","indutype":"음식점업 - 음식","category":"restaurant"}]},{"lat":"37.344307015","long":"126.73724619","imageIndex":4,"items":[{"name":"302카페","tel":"031-433-1696","addr":"경기도 시흥시 정왕동 1738-5번지 KT공영주차장 203호","indutype":"음식점업 - 카페","category":"restaurant"},{"name":"기찬고기","tel":"","addr":"경기도 시흥시 정왕동 1738-5번지 KT공영주차장 103호","indutype":"음식점업 - 한식","category":"restaurant"},{"name":"빽다방(시흥정왕로데오점)","tel":"","addr":"경기도 시흥시 정왕동 1738-5번지","indutype":"음식점업 - 카페","category":"restaurant"},{"name":"희래등","tel":"031-497-4572","addr":"경기도 시흥시 정왕동 1738-5번지","indutype":"음식점업 - 음식","category":"restaurant"}]},{"lat":"37.377944389","long":"126.72658236","imageIndex":4,"items":[{"name":"33떡볶이 배곧점","tel":"","addr":"경기도 시흥시 정왕동 2475번지 에이플러스 105호","indutype":"음식점업 - 분식","category":"restaurant"},{"name":"교촌치킨배곧신도시1호점","tel":"031-433-1992","addr":"경기도 시흥시 정왕동 2475번지 115~6호","indutype":"음식점업 - 일반음식점","category":"restaurant"}]},{"lat":"37.37741501","long":"126.72753269","imageIndex":4,"items":[{"name":"430해물포차","tel":"","addr":"경기도 시흥시 정왕동 2475-3번지 배곧타운 1층 109호","indutype":"음식점업 - 음식","category":"restaurant"},{"name":"우림관","tel":"031-432-0189","addr":"경기도 시흥시 정왕동 2475-3번지 배곧타운1 201호","indutype":"음식점업 - 한식","category":"restaurant"},{"name":"족보스 족발보쌈","tel":"031-434-7882","addr":"경기도 시흥시 정왕동 2475-3번지 배곧타운 1층 115호","indutype":"음식점업 - 일반음식점","category":"restaurant"},{"name":"한우궁배곧신도시점","tel":"031-432-5533","addr":"경기도 시흥시 정왕동 2475-3번지 배곧타운 117호","indutype":"음식점업 - 한식","category":"restaurant"},{"name":"호미 불닭발","tel":"","addr":"경기도 시흥시 정왕동 2475-3번지 배곧타운 107호","indutype":"음식점업 - 한식","category":"restaurant"}]},{"lat":"37.347254051","long":"126.73357921","imageIndex":4,"items":[{"name":"48춘천닭갈비","tel":"031-431-5849","addr":"경기도 시흥시 정왕동 1728-1번지 두원프라자 105호","indutype":"음식점업 - 한식","category":"restaurant"},{"name":"가고시마","tel":"070-7543-1945","addr":"경기도 시흥시 정왕동 1728-1번지 두원프라자 1층 113호","indutype":"음식점업 - 이자카야","category":"restaurant"},{"name":"뉴코리안숯불닭바베큐정왕점","tel":"031-499-9244","addr":"경기도 시흥시 정왕동 1728-1번지 두원프라자 107호","indutype":"음식점업 - 기타음식","category":"restaurant"},{"name":"미각양꼬치구이","tel":"031-432-1314","addr":"경기도 시흥시 정왕동 1728-1번지 외 1필지 114호,115호","indutype":"음식점업 - 기타음식","category":"restaurant"},{"name":"플레이펍","tel":"070-7723-1359","addr":"경기도 시흥시 정왕동 1728-1번지 두원프라자 지하층 102","indutype":"음식점업 - 펍","category":"restaurant"}]},{"lat":"37.374473194","long":"126.73339161","imageIndex":4,"items":[{"name":"59쌀피자 배곧신도시점","tel":"031-319-8008","addr":"경기도 시흥시 정왕동 2470-1번지 베스트프라자 108호","indutype":"음식점업 - 피자","category":"restaurant"},{"name":"김가네","tel":"031-433-5656","addr":"경기도 시흥시 정왕동 2470-1번지 베스트프라자 115호","indutype":"음식점업 - 분식","category":"restaurant"},{"name":"더(the) 매운갈비찜","tel":"031-498-9829","addr":"경기도 시흥시 정왕동 2470-1번지 베스트플라자 123호","indutype":"음식점업 - 음식점","category":"restaurant"},{"name":"봉구스밥버거 배곧점","tel":"031-433-1014","addr":"경기도 시흥시 정왕동 2470-1번지 베스트프라자 101호","indutype":"음식점업 - 휴게음식","category":"restaurant"},{"name":"위치커피배곧점","tel":"","addr":"경기도 시흥시 정왕동 2470-1번지 베스트프라자 107호","indutype":"음식점업 - 커피,음료","category":"restaurant"},{"name":"이디야커피 배곧고등학교점","tel":"031-488-9411","addr":"경기도 시흥시 정왕동 2470-1번지 베스트프라자 1층 116~7호","indutype":"음식점업 - 커피","category":"restaurant"},{"name":"청춘핫도그킹콩쥬스","tel":"","addr":"경기도 시흥시 정왕동 2470-1번지 베스트프라자 1층 122호","indutype":"음식점업 - 분식및기타음식","category":"restaurant"},{"name":"촌가추어탕앤시로이돈까스","tel":"031-431-1521","addr":"경기도 시흥시 정왕동 2470-1번지 베스트프라자 210호","indutype":"음식점업 - 한식","category":"restaurant"},{"name":"투민'스 베이커리(투민스)","tel":"031-432-3332","addr":"경기도 시흥시 정왕동 2470-1번지 베스트프라자 113~114호","indutype":"음식점업 - 제과","category":"restaurant"},{"name":"홍루이젠 배곧점 ","tel":"031-431-5627","addr":"경기도 시흥시 정왕동 2470-1번지 베스트프라자 102호","indutype":"음식점업 - 샌드위치","category":"restaurant"}]},{"lat":"37.356051433","long":"126.73116619","imageIndex":4,"items":[{"name":"59쌀피자, 청과","tel":"031-431-5982","addr":"경기도 시흥시 정왕동 1873-3번지","indutype":"음식점업 - 피자전문점, 과일","category":"restaurant"},{"name":"떡기야본점","tel":"031-498-3335","addr":"경기도 시흥시 정왕동 1873-3번지 월드아파트","indutype":"음식점업 - 분식","category":"restaurant"},{"name":"병천순대국","tel":"031-497-2515","addr":"경기도 시흥시 정왕동 1873-3번지 월드아파트","indutype":"음식점업 - 음식점","category":"restaurant"},{"name":"빠네뜨리아 과자점","tel":"031-432-0559","addr":"경기도 시흥시 정왕동 1873-3번지 월드아파트 101호","indutype":"음식점업 - 제과","category":"restaurant"},{"name":"정통숯불바베큐","tel":"031-431-7281","addr":"경기도 시흥시 정왕동 1873-3번지","indutype":"음식점업 - 간이음식","category":"restaurant"},{"name":"한우동","tel":"031-488-9528","addr":"경기도 시흥시 정왕동 1873-3번지","indutype":"음식점업 - 음식점","category":"restaurant"},{"name":"홍희통닭","tel":"031-498-9293","addr":"경기도 시흥시 정왕동 1873-3번지 월드아파트 115동 1층 103호","indutype":"음식점업 - 통닭","category":"restaurant"}]},{"lat":"37.369696959","long":"126.72908494","imageIndex":4,"items":[{"name":"79대포 시흥배곧점","tel":"","addr":"경기도 시흥시 정왕동 2517번지 다인로얄팰리스배곧3차 1층 107호","indutype":"음식점업 - 한식","category":"restaurant"},{"name":"돈워리","tel":"031-477-4999","addr":"경기도 시흥시 정왕동 2517번지 다인로얄팰리스 배곧3차 2층 201호","indutype":"음식점업 - 양식","category":"restaurant"},{"name":"라무진","tel":"031-498-3738","addr":"경기도 시흥시 정왕동 2517번지 다인로얄팰리스배곧3차 102호","indutype":"음식점업 - 한식","category":"restaurant"},{"name":"사천훠궈","tel":"","addr":"경기도 시흥시 정왕동 2517번지 2층 211~214호","indutype":"음식점업 - 중식","category":"restaurant"},{"name":"인생고기 (오늘은 인생고기)","tel":"031-431-1833","addr":"경기도 시흥시 정왕동 2517번지 다인로얄팰리스 배곧3차 1층 111호, 112호","indutype":"음식점업 - 한식","category":"restaurant"},{"name":"주식회사 수호푸드 (곱창전설)","tel":"031-497-8060","addr":"경기도 시흥시 정왕동 2517번지 다인로얄팰리스 배곧3차 108호, 109호","indutype":"음식점업 - 한식","category":"restaurant"},{"name":"중화가정배곧신도시점","tel":"031-319-1477","addr":"경기도 시흥시 정왕동 2517번지 다인로얄팰리스 배곧3차 2층 215호","indutype":"음식점업 - 중식","category":"restaurant"},{"name":"하남돼지집 배곧신도시점","tel":"031-319-3323","addr":"경기도 시흥시 정왕동 2517번지 2층 204,205호","indutype":"음식점업 - 돼지고기구이","category":"restaurant"}]},{"lat":"37.368196494","long":"126.72702451","imageIndex":4,"items":[{"name":"90℃ (구십도씨)","tel":"031-503-0799","addr":"경기도 시흥시 정왕동 2535-2번지 다인로얄팰리스배곧5차 109호","indutype":"음식점업 - 커피숍","category":"restaurant"},{"name":"만족오향족발 배곧서울대점","tel":"031-431-5007","addr":"경기도 시흥시 정왕동 2535-1번지 다인로얄팰리스배곧6차 1층 112호","indutype":"음식점업 - 한식","category":"restaurant"},{"name":"메가엠지씨커피 배곧로얄팰리스점","tel":"031-498-7570","addr":"경기도 시흥시 정왕동 2534-2번지 다인로얄팰리스배곧7차 106호","indutype":"음식점업 - 커피","category":"restaurant"},{"name":"바로바로즉석떡볶이","tel":"031-365-5460","addr":"경기도 시흥시 정왕동 2531-1번지 해든트윈스오피스텔 1층 118호","indutype":"음식점업 - 분식","category":"restaurant"},{"name":"백년상회","tel":"","addr":"경기도 시흥시 정왕동 2531-1번지 1층 120, 121호","indutype":"음식점업 - 한식","category":"restaurant"},{"name":"상어가족어시장","tel":"031-319-2323","addr":"경기도 시흥시 정왕동 2534-1번지 다인 로얄팰리스 배곧8차 112~113호","indutype":"음식점업 - 한식","category":"restaurant"},{"name":"횡성생고기","tel":"031-496-9289","addr":"경기도 시흥시 정왕동 2531-1번지 해든트윈스오피스텔 116~7호","indutype":"음식점업 - 한식","category":"restaurant"}]},{"lat":"37.352746059","long":"126.7239998","imageIndex":4,"items":[{"name":"929숯불갈비 시흥점","tel":"031-496-9290","addr":"경기도 시흥시 정왕동 1860-5번지 향창빌딩 101, 103호","indutype":"음식점업 - 한식","category":"restaurant"},{"name":"소문난양꼬치","tel":"","addr":"경기도 시흥시 정왕동 1860-5번지 향창빌딩 102호","indutype":"음식점업 - 일반음식점","category":"restaurant"}]},{"lat":"37.343642909","long":"126.74661532","imageIndex":4,"items":[{"name":"BBQ 정왕본동점","tel":"031-497-4997","addr":"경기도 시흥시 정왕동 1583-6번지 1층","indutype":"음식점업 - 치킨","category":"restaurant"}]},{"lat":"37.364495891","long":"126.73202753","imageIndex":4,"items":[{"name":"BBQ함현마을점","tel":"031-432-0091","addr":"경기도 시흥시 정왕동 1879-5번지 세계로교회 103호","indutype":"음식점업 - 기타음식","category":"restaurant"}]},{"lat":"37.366611717","long":"126.73530494","imageIndex":4,"items":[{"name":"BHC치킨 정왕4동점","tel":"031-499-9970","addr":"경기도 시흥시 정왕동 1878-5번지 동원아파트 상가동 1층 103호","indutype":"음식점업 - 치킨","category":"restaurant"}]},{"lat":"37.340081931","long":"126.73355968","imageIndex":4,"items":[{"name":"TIP푸드라운지","tel":"","addr":"경기도 시흥시 정왕동 2121-1번지 1층","indutype":"음식점업 - 음식","category":"restaurant"},{"name":"김밥천국","tel":"","addr":"경기도 시흥시 정왕동 2121-1번지 기술혁신파크 지하1층","indutype":"음식점업 - 기타음식","category":"restaurant"},{"name":"까페토스피아","tel":"031-496-8595","addr":"경기도 시흥시 정왕동 2121-1번지 기술혁신파크 1층일부 110-2호","indutype":"음식점업 - 토스트,커피","category":"restaurant"},{"name":"나드리김밥","tel":"","addr":"경기도 시흥시 정왕동 2121-1번지 스마트허브산학융합본부 1층 134,136호","indutype":"음식점업 - 분식","category":"restaurant"},{"name":"배너박스","tel":"031-439-2710","addr":"경기도 시흥시 정왕동 2121-1번지 기술혁신파크 지하1층","indutype":"음식점업 - 교내식당","category":"restaurant"},{"name":"썬푸드","tel":"","addr":"경기도 시흥시 정왕동 2121-1번지 기술혁신파크 지하1층","indutype":"음식점업 - 한식","category":"restaurant"},{"name":"올리브그린","tel":"031-8041-1215","addr":"경기도 시흥시 정왕동 2121-1번지 한국산업기술대학교 기술혁신파크 204호","indutype":"음식점업 - 음식","category":"restaurant"},{"name":"우쿠야 산기대점","tel":"","addr":"경기도 시흥시 정왕동 2121-1번지 기술혁신파크 B1호","indutype":"음식점업 - 휴게음식점","category":"restaurant"},{"name":"한스델리?","tel":"","addr":"경기도 시흥시 정왕동 2121-1번지 기술혁신파크 지하1층","indutype":"음식점업 - 한식","category":"restaurant"}]},{"lat":"37.351750013","long":"126.72191549","imageIndex":4,"items":[{"name":"muglog","tel":"031-499-3214","addr":"경기도 시흥시 정왕동 1855-10번지","indutype":"음식점업 - 커피전문점","category":"restaurant"},{"name":"돈몰이구이&샤브","tel":"031-496-8889","addr":"경기도 시흥시 정왕동 1855-10번지","indutype":"음식점업 - 한식","category":"restaurant"}]},{"lat":"37.368024793","long":"126.73069404","imageIndex":4,"items":[{"name":"㈜ 리쉬코리아 (오감다이닝카페)","tel":"031-431-3488","addr":"경기도 시흥시 정왕동 2537-2번지 1층 T-18~20","indutype":"음식점업 - 음식점","category":"restaurant"},{"name":"고주남스테이크","tel":"070-7818-8118","addr":"경기도 시흥시 정왕동 2537-2번지 1층 S-10호","indutype":"음식점업 - 양식","category":"restaurant"},{"name":"궁중삼계탕","tel":"031-498-3380","addr":"경기도 시흥시 정왕동 2537-2번지 서영베니스스퀘어 A동 2층 235호","indutype":"음식점업 - 한식","category":"restaurant"},{"name":"뀨로아상","tel":"070-7766-4048","addr":"경기도 시흥시 정왕동 2537-2번지 1층 C-28호","indutype":"음식점업 - 제과점","category":"restaurant"},{"name":"노랑강정 배곧점","tel":"","addr":"경기도 시흥시 정왕동 2537-2번지 1층 A-23호","indutype":"음식점업 - 음식점","category":"restaurant"},{"name":"니팅카페히비","tel":"","addr":"경기도 시흥시 정왕동 2537-2번지 서영베니스스퀘어 407호","indutype":"음식점업 - 카페","category":"restaurant"},{"name":"돈떵어리","tel":"","addr":"경기도 시흥시 정왕동 2537-2번지 2층 258,259호","indutype":"음식점업 - 음식점","category":"restaurant"},{"name":"돈프라이","tel":"031-498-6084","addr":"경기도 시흥시 정왕동 2537-2번지 서영베니스스퀘어 6층 633호","indutype":"음식점업 - 분식","category":"restaurant"},{"name":"디저트39시흥배곧점","tel":"031-498-5995","addr":"경기도 시흥시 정왕동 2537-2번지 1층 s-4호","indutype":"음식점업 - 커피,케익","category":"restaurant"},{"name":"명륜진사갈비 배곧점","tel":"031-488-9291","addr":"경기도 시흥시 정왕동 2537-2번지 284,285호","indutype":"음식점업 - 한식","category":"restaurant"},{"name":"밀겨울(배곧점)","tel":"031-432-7774","addr":"경기도 시흥시 정왕동 2537-2번지 베니스스퀘어A-24호 1층","indutype":"음식점업 - 분식","category":"restaurant"},{"name":"불맛짬뽕","tel":"031-499-0214","addr":"경기도 시흥시 정왕동 2537-2번지 베니스스퀘어 452호","indutype":"음식점업 - 중화요리","category":"restaurant"},{"name":"뽕잎사랑","tel":"031-319-4339","addr":"경기도 시흥시 정왕동 2537-2번지 베니스스퀘어 250,251호","indutype":"음식점업 - 한식","category":"restaurant"},{"name":"사랑스럽개","tel":"031-499-1003","addr":"경기도 시흥시 정왕동 2537-2번지 3층 303, 304호","indutype":"음식점업 - 카페","category":"restaurant"},{"name":"산마르코","tel":"031-499-0607","addr":"경기도 시흥시 정왕동 2537-2번지 서영베니스스퀘어 1동 T-5,6,7호","indutype":"음식점업 - 서양음식","category":"restaurant"},{"name":"성준이네왕순대","tel":"031-496-9888","addr":"경기도 시흥시 정왕동 2537-2번지 서영베니스스퀘어 4층 450호","indutype":"음식점업 - 순대국","category":"restaurant"},{"name":"순남시래기 시흥배곧점","tel":"031-498-0243","addr":"경기도 시흥시 정왕동 2537-2번지 서영베니스스퀘어 2층 243호","indutype":"음식점업 - 한식","category":"restaurant"},{"name":"슬라임카페 누뷜 배곧점","tel":"031-433-1017","addr":"경기도 시흥시 정왕동 2537-2번지 서영베니스스퀘어 528호","indutype":"음식점업 - 카페","category":"restaurant"},{"name":"아날로그키친 배곧점","tel":"031-362-6979","addr":"경기도 시흥시 정왕동 2537-2번지 1층 C-29, 30호","indutype":"음식점업 - 이탈리안","category":"restaurant"},{"name":"오이골순대국","tel":"","addr":"경기도 시흥시 정왕동 2537-2번지 서영베니스스퀘어 3층 331-1호","indutype":"음식점업 - 한식","category":"restaurant"},{"name":"오후세시","tel":"070-8822-0300","addr":"경기도 시흥시 정왕동 2537-2번지 베니스스퀘어 271호","indutype":"음식점업 - 기타음식","category":"restaurant"},{"name":"온담","tel":"031-499-1233","addr":"경기도 시흥시 정왕동 2537-2번지 서영베니스스퀘어 606호","indutype":"음식점업 - 한식 음식점업","category":"restaurant"},{"name":"요거프레소 시흥배곧점","tel":"031-319-2035","addr":"경기도 시흥시 정왕동 2537-2번지 1층 T-4호","indutype":"음식점업 - 커피, 카페","category":"restaurant"},{"name":"이런쭈꾸미","tel":"031-433-7611","addr":"경기도 시흥시 정왕동 2537-2번지 서영베니스스퀘어 2층 286호","indutype":"음식점업 - 한식","category":"restaurant"},{"name":"이지통골뱅이","tel":"","addr":"경기도 시흥시 정왕동 2537-2번지 서영베니스스퀘어 288호","indutype":"음식점업 - 기타음식","category":"restaurant"},{"name":"장호덕손만두","tel":"","addr":"경기도 시흥시 정왕동 2537-2번지 서영베니스스퀘어 에이-9호","indutype":"음식점업 - 만두","category":"restaurant"},{"name":"주원충무김밥","tel":"031-498-1073","addr":"경기도 시흥시 정왕동 2537-2번지 A-3호","indutype":"음식점업 - 분식","category":"restaurant"},{"name":"청년다방배곧CGV점","tel":"031-433-2009","addr":"경기도 시흥시 정왕동 2537-2번지 배곧신도시 상5-1-3블럭 베니스 스퀘어 6층 621호","indutype":"음식점업 - 분식","category":"restaurant"},{"name":"카페라곰","tel":"","addr":"경기도 시흥시 정왕동 2537-2번지 서영베니스스퀘어 1층 A-22호","indutype":"음식점업 - 카페","category":"restaurant"},{"name":"카페모두","tel":"031-498-0308","addr":"경기도 시흥시 정왕동 2537-2번지 베니스스퀘어 1층 S-7, 8호","indutype":"음식점업 - 카페","category":"restaurant"},{"name":"켄타로라멘","tel":"031-432-8047","addr":"경기도 시흥시 정왕동 2537-2번지 서영베니스스퀘어 634호","indutype":"음식점업 - 일식","category":"restaurant"},{"name":"파주닭국수 배곧베니스스퀘어점","tel":"031-488-8250","addr":"경기도 시흥시 정왕동 2537-2번지 서영베니스스퀘어 2층 234호","indutype":"음식점업 - 한식","category":"restaurant"},{"name":"팔공티","tel":"","addr":"경기도 시흥시 정왕동 2537-2번지 서영베니스스퀘어 1층 C-1호","indutype":"음식점업 - 버블티","category":"restaurant"},{"name":"포마마","tel":"","addr":"경기도 시흥시 정왕동 2537-2번지 1층 A-20호","indutype":"음식점업 - 한식","category":"restaurant"},{"name":"피그미","tel":"","addr":"경기도 시흥시 정왕동 2537-2번지 서영베니스스퀘어 2층 266호","indutype":"음식점업 - 카페","category":"restaurant"},{"name":"화쭈","tel":"031-434-0792","addr":"경기도 시흥시 정왕동 2537-2번지 서영베니스스퀘어 2층 238호","indutype":"음식점업 - 한식","category":"restaurant"}]},{"lat":"37.352190504","long":"126.74522059","imageIndex":4,"items":[{"name":"㈜대박짬뽕","tel":"031-433-7001","addr":"경기도 시흥시 정왕동 2313-8번지 금광빌딩 1층 102호","indutype":"음식점업 - 중식","category":"restaurant"}]},{"lat":"37.340532663","long":"126.68972787","imageIndex":4,"items":[{"name":"㈜맛자랑","tel":"031-434-9229","addr":"경기도 시흥시 정왕동 2042-12번지 , 1-3층","indutype":"음식점업 - 한식","category":"restaurant"}]},{"lat":"37.347974497","long":"126.73341863","imageIndex":4,"items":[{"name":"가마솥보신탕","tel":"031-433-0733","addr":"경기도 시흥시 정왕동 1726-1번지 광개토빌딩1 121호","indutype":"음식점업 - 일반음식점","category":"restaurant"},{"name":"카페89도씨","tel":"","addr":"경기도 시흥시 정왕동 1726-1번지 광개토빌딩1 112호","indutype":"음식점업 - 음료","category":"restaurant"},{"name":"카페89도씨","tel":"031-499-2204","addr":"경기도 시흥시 정왕동 1726-1번지 광개토빌딩1 112호","indutype":"음식점업 - 커피숍","category":"restaurant"}]},{"lat":"37.347552736","long":"126.69017273","imageIndex":4,"items":[{"name":"가마솥소머리국밥","tel":"031-434-7088","addr":"경기도 시흥시 정왕동 1976-1번지","indutype":"음식점업 - 한식","category":"restaurant"}]},{"lat":"37.353806713","long":"126.72292363","imageIndex":4,"items":[{"name":"가장맛있는족발시흥정왕점","tel":"031-434-5849","addr":"경기도 시흥시 정왕동 1858-7번지 106~7호","indutype":"음식점업 - 한식,족발","category":"restaurant"},{"name":"불타는황소막창구이","tel":"031-432-0924","addr":"경기도 시흥시 정왕동 1858-7번지","indutype":"음식점업 - 한식","category":"restaurant"},{"name":"왕십리야채곱창","tel":"","addr":"경기도 시흥시 정왕동 1858-7번지 103, 104호","indutype":"음식점업 - 기타음식","category":"restaurant"},{"name":"춘천닭갈비 (정왕3동)","tel":"031-497-7496","addr":"경기도 시흥시 정왕동 1858-7번지","indutype":"음식점업 - 한식","category":"restaurant"},{"name":"황금인맥","tel":"","addr":"경기도 시흥시 정왕동 1858-7번지 102호","indutype":"음식점업 - 기타음식","category":"restaurant"}]},{"lat":"37.373970507","long":"126.73421756","imageIndex":4,"items":[{"name":"갈비명가 궁 시흥배곧점","tel":"031-488-9191","addr":"경기도 시흥시 정왕동 2471-1번지 로얄페스타 1층 101~105호","indutype":"음식점업 - 한식","category":"restaurant"},{"name":"로워4. 99","tel":"","addr":"경기도 시흥시 정왕동 2471-1번지 로얄페스타 2층 201호","indutype":"음식점업 - 카페","category":"restaurant"}]},{"lat":"37.353142983","long":"126.73994644","imageIndex":4,"items":[{"name":"감성낙곱새(신천점)","tel":"031-432-5163","addr":"경기도 시흥시 정왕동 2298-6번지 1층 일부호","indutype":"음식점업 - 일반음식점","category":"restaurant"}]},{"lat":"37.354024581","long":"126.72361132","imageIndex":4,"items":[{"name":"강고집바지락칼국수","tel":"031-432-2808","addr":"경기도 시흥시 정왕동 1861-3번지 128호","indutype":"음식점업 - 칼국수","category":"restaurant"},{"name":"똘이네해신탕","tel":"031-431-2001","addr":"경기도 시흥시 정왕동 1861-3번지 메가쇼핑몰 2층 211호","indutype":"음식점업 - 한식","category":"restaurant"},{"name":"몽펠리에","tel":"031-433-0933","addr":"경기도 시흥시 정왕동 1861-3번지 115호","indutype":"음식점업 - 제과점","category":"restaurant"},{"name":"바다양푼이동태탕","tel":"","addr":"경기도 시흥시 정왕동 1861-3번지 119,120호","indutype":"음식점업 - 한식","category":"restaurant"},{"name":"본죽시화병원점","tel":"","addr":"경기도 시흥시 정왕동 1861-3번지","indutype":"음식점업 - 한식","category":"restaurant"},{"name":"봉구스밥버거","tel":"031-498-0989","addr":"경기도 시흥시 정왕동 1861-3번지 메가쇼핑몰 1층 122호","indutype":"음식점업 - 휴게음식","category":"restaurant"},{"name":"아리가또맘마","tel":"031-432-0999","addr":"경기도 시흥시 정왕동 1861-3번지 118호","indutype":"음식점업 - 일식","category":"restaurant"},{"name":"이디야 시흥시화점","tel":"031-431-9940","addr":"경기도 시흥시 정왕동 1861-3번지 129~130호","indutype":"음식점업 - 커피 및 음료","category":"restaurant"},{"name":"함지박떡마을","tel":"","addr":"경기도 시흥시 정왕동 1861-3번지","indutype":"음식점업 - 떡","category":"restaurant"}]},{"lat":"37.34833777","long":"126.74275084","imageIndex":4,"items":[{"name":"개마고원","tel":"031-433-9800","addr":"경기도 시흥시 정왕동 1830-13번지","indutype":"음식점업 - 한식","category":"restaurant"}]},{"lat":"37.347252662","long":"126.73296978","imageIndex":4,"items":[{"name":"갯골1890","tel":"031-434-5658","addr":"경기도 시흥시 정왕동 1727-3번지 1층 일부호","indutype":"음식점업 - 호프","category":"restaurant"},{"name":"소꼼닭","tel":"031-488-9233","addr":"경기도 시흥시 정왕동 1727-3번지 2층","indutype":"음식점업 - 한식","category":"restaurant"}]},{"lat":"37.344915368","long":"126.68775729","imageIndex":4,"items":[{"name":"갯마을","tel":"031-498-4419","addr":"경기도 시흥시 정왕동 2006-22번지","indutype":"음식점업 - 한식","category":"restaurant"}]},{"lat":"37.345357611","long":"126.68803758","imageIndex":4,"items":[{"name":"갯마을조개","tel":"","addr":"경기도 시흥시 정왕동 2003-12번지","indutype":"음식점업 - 조개","category":"restaurant"}]},{"lat":"37.36669497","long":"126.72838466","imageIndex":4,"items":[{"name":"건강밥상심마니","tel":"031-434-0010","addr":"경기도 시흥시 정왕동 2549번지 배곧헤리움반크로스2차 2층 202~6호","indutype":"음식점업 - 한식","category":"restaurant"},{"name":"골뱅이서식지","tel":"","addr":"경기도 시흥시 정왕동 2532번지 배곧 유호 N-CITY 2차 1층 106호","indutype":"음식점업 - 음식,호프","category":"restaurant"},{"name":"동원양꼬치","tel":"031-434-6638","addr":"경기도 시흥시 정왕동 2536-1번지 2층 221~2호","indutype":"음식점업 - 중식","category":"restaurant"},{"name":"땡초옛날치킨","tel":"031-365-4949","addr":"경기도 시흥시 정왕동 2536-1번지 배곧중앙프라자 1층 104호","indutype":"음식점업 - 호프,치킨","category":"restaurant"},{"name":"라바리스커피(Labar r is coffee)","tel":"031-506-8043","addr":"경기도 시흥시 정왕동 2549-1번지 배곧헤리움어반크로스1차 B동 103호","indutype":"음식점업 - 카페","category":"restaurant"},{"name":"라쿵푸","tel":"","addr":"경기도 시흥시 정왕동 2536-1번지 배곧중앙프라자 136호","indutype":"음식점업 - 마라탕","category":"restaurant"},{"name":"배곧한라식당","tel":"031-499-5988","addr":"경기도 시흥시 정왕동 2535번지 에스프라자 312호","indutype":"음식점업 - 음식점","category":"restaurant"},{"name":"범벅치킨","tel":"031-432-0927","addr":"경기도 시흥시 정왕동 2532번지 배곧 유호 N-CITY 2차 1층 114호","indutype":"음식점업 - 치킨","category":"restaurant"},{"name":"블럭제빵소 시흥배곧서울대점","tel":"031-432-6969","addr":"경기도 시흥시 정왕동 2536-1번지 배곧중앙프라자 1층 125호","indutype":"음식점업 - 제과점","category":"restaurant"},{"name":"비비큐시흥배곧점","tel":"031-499-9289","addr":"경기도 시흥시 정왕동 2549번지 배곧헤리움어반크로스2차 B동 1층 115호","indutype":"음식점업 - 치킨","category":"restaurant"},{"name":"이조설렁탕,삼계탕","tel":"031-432-0778","addr":"경기도 시흥시 정왕동 2536-1번지 배곧중앙프라자 2층 218호","indutype":"음식점업 - 한식","category":"restaurant"},{"name":"진주한식부페","tel":"","addr":"경기도 시흥시 정왕동 2536-1번지 배곧중앙프라자 227호","indutype":"음식점업 - 기타음식","category":"restaurant"},{"name":"커피스미스(배곧신도시점)","tel":"","addr":"경기도 시흥시 정왕동 2536-1번지 배곧중앙프라자 108~12호","indutype":"음식점업 - 커피숍","category":"restaurant"},{"name":"해블랑디저트","tel":"","addr":"경기도 시흥시 정왕동 2536-1번지 배곧중앙프라자 142호","indutype":"음식점업 - 커피","category":"restaurant"},{"name":"해아래","tel":"031-434-7993","addr":"경기도 시흥시 정왕동 2535번지 215호 216호","indutype":"음식점업 - 음식점","category":"restaurant"}]},{"lat":"37.373800009","long":"126.734523","imageIndex":4,"items":[{"name":"검은 순수","tel":"031-487-3107","addr":"경기도 시흥시 정왕동 2471-2번지 대경프라자 1층 110호","indutype":"음식점업 - 커피숍","category":"restaurant"},{"name":"제주부리는돼지배곧점","tel":"031-431-5892","addr":"경기도 시흥시 정왕동 2471-2번지 대경프라자 111호","indutype":"음식점업 - 한식","category":"restaurant"}]},{"lat":"37.349636807","long":"126.74346867","imageIndex":4,"items":[{"name":"경아두마리치킨 정왕역점","tel":"031-499-9997","addr":"경기도 시흥시 정왕동 1809-2번지 102호","indutype":"음식점업 - 치킨","category":"restaurant"},{"name":"업텐브로피자시흥점","tel":"031-496-0059","addr":"경기도 시흥시 정왕동 1809-2번지 1층 좌측호","indutype":"음식점업 - 피자","category":"restaurant"},{"name":"여우네분식","tel":"031-319-1119","addr":"경기도 시흥시 정왕동 1809-2번지 1층 일부호","indutype":"음식점업 - 분식","category":"restaurant"}]},{"lat":"37.341920831","long":"126.74197174","imageIndex":4,"items":[{"name":"계동치킨 정왕점","tel":"031-503-3399","addr":"경기도 시흥시 정왕동 1788-1번지","indutype":"음식점업 - 기타음식","category":"restaurant"},{"name":"만두박사","tel":"031-495-5541","addr":"경기도 시흥시 정왕동 1788-1번지 시화평안마을건영아파트 104-1호","indutype":"음식점업 - 분식","category":"restaurant"}]},{"lat":"37.369802828","long":"126.72811368","imageIndex":4,"items":[{"name":"계림원시흥배곧점","tel":"031-319-9978","addr":"경기도 시흥시 정왕동 2515-1번지 새롬프라자 1층 110호","indutype":"음식점업 - 음식","category":"restaurant"},{"name":"만나꼬마김밥 배곧점","tel":"031-431-5900","addr":"경기도 시흥시 정왕동 2515-1번지 새롬프라자1차 107호","indutype":"음식점업 - 분식, 김밥","category":"restaurant"},{"name":"문선생 탄돈","tel":"031-431-3310","addr":"경기도 시흥시 정왕동 2515-1번지 새롬프라자 118호","indutype":"음식점업 - 일반음식점","category":"restaurant"},{"name":"본죽앤비빔밥카페 시흥배곧점","tel":"031-431-6289","addr":"경기도 시흥시 정왕동 2515-1번지 새롬프라자 115호","indutype":"음식점업 - 한식, 죽","category":"restaurant"},{"name":"팔도실비집 배곧신도시점","tel":"031-499-5867","addr":"경기도 시흥시 정왕동 2515-1번지 새롬프라자1차 116호","indutype":"음식점업 - 일반음식점","category":"restaurant"},{"name":"황소갈비","tel":"031-432-9288","addr":"경기도 시흥시 정왕동 2515-1번지 새롬프라자 1층 101-2호","indutype":"음식점업 - 한식점업","category":"restaurant"}]},{"lat":"37.353607957","long":"126.72269864","imageIndex":4,"items":[{"name":"계백","tel":"031-431-1565","addr":"경기도 시흥시 정왕동 1858-6번지 1층","indutype":"음식점업 - 한식","category":"restaurant"}]},{"lat":"37.344635707","long":"126.73516852","imageIndex":4,"items":[{"name":"고가네 맛집","tel":"031-319-0415","addr":"경기도 시흥시 정왕동 1742-1번지 모아프라자 104호","indutype":"음식점업 - 일반음식점","category":"restaurant"},{"name":"애바다참치","tel":"031-434-3788","addr":"경기도 시흥시 정왕동 1742-1번지 108,109호","indutype":"음식점업 - 한식","category":"restaurant"},{"name":"해바라기","tel":"","addr":"경기도 시흥시 정왕동 1742-1번지 모아프라자 201호,202호","indutype":"음식점업 - 호프전문점","category":"restaurant"}]},{"lat":"37.369138781","long":"126.72927888","imageIndex":4,"items":[{"name":"고기청정","tel":"031-433-2240","addr":"경기도 시흥시 정왕동 2518-1번지 다인로얄팰리스 배곧2차 1층 104-6호","indutype":"음식점업 - 한식","category":"restaurant"},{"name":"홍춘천치즈닭갈비","tel":"","addr":"경기도 시흥시 정왕동 2518-1번지 다인로얄팰리스배곧2차 103호","indutype":"음식점업 - 한식","category":"restaurant"}]},{"lat":"37.363969159","long":"126.73022329","imageIndex":4,"items":[{"name":"고기한판","tel":"031-497-9228","addr":"경기도 시흥시 정왕동 1881-11번지 화신프라자 202호","indutype":"음식점업 - 한식","category":"restaurant"},{"name":"궁궐 닭갈비","tel":"031-434-5292","addr":"경기도 시흥시 정왕동 1881-11번지 화신프라자 1층 103호","indutype":"음식점업 - 한식","category":"restaurant"},{"name":"신호미불닭발","tel":"031-432-5166","addr":"경기도 시흥시 정왕동 1881-11번지","indutype":"음식점업 - 실내포차","category":"restaurant"},{"name":"연탄갈비","tel":"031-319-9092","addr":"경기도 시흥시 정왕동 1881-11번지","indutype":"음식점업 - 한식","category":"restaurant"},{"name":"전설의 짬뽕","tel":"031-488-8608","addr":"경기도 시흥시 정왕동 1881-11번지 화신프라자 101호","indutype":"음식점업 - 중식","category":"restaurant"},{"name":"정도너츠 정왕점","tel":"031-432-1002","addr":"경기도 시흥시 정왕동 1881-11번지 106~107호","indutype":"음식점업 - 도너츠 외","category":"restaurant"}]},{"lat":"37.369861331","long":"126.73003263","imageIndex":4,"items":[{"name":"고래식당","tel":"031-365-5656","addr":"경기도 시흥시 정왕동 2514번지 M-플러스 208호","indutype":"음식점업 - 한식","category":"restaurant"},{"name":"그릴룸","tel":"070-7766-5614","addr":"경기도 시흥시 정왕동 2514번지 엠플러스 139호, 140호","indutype":"음식점업 - 한식전업","category":"restaurant"},{"name":"김밥천국","tel":"031-319-1088","addr":"경기도 시흥시 정왕동 2514번지 엠플러스 상가 136호","indutype":"음식점업 - 분식","category":"restaurant"},{"name":"미래아구찜","tel":"031-432-6664","addr":"경기도 시흥시 정왕동 2514번지 엠플러스 2층 201호","indutype":"음식점업 - 한식","category":"restaurant"},{"name":"이바돔 외식패밀리","tel":"031-431-4988","addr":"경기도 시흥시 정왕동 2514번지 정왕엠플러스 2층 205~207호","indutype":"음식점업 - 한식","category":"restaurant"},{"name":"채선당 배곧신도시점","tel":"031-432-1154","addr":"경기도 시흥시 정왕동 2514번지 M플러스 2층 204호","indutype":"음식점업 - 한식","category":"restaurant"},{"name":"토마토김밥 배곧점","tel":"031-520-6438","addr":"경기도 시흥시 정왕동 2514번지 M-플러스 104호","indutype":"음식점업 - 분식","category":"restaurant"}]},{"lat":"37.354140601","long":"126.74288883","imageIndex":4,"items":[{"name":"고향참우마을","tel":"031-319-5529","addr":"경기도 시흥시 정왕동 808-4번지","indutype":"음식점업 - 한식, 식육","category":"restaurant"}]},{"lat":"37.343252769","long":"126.68936674","imageIndex":4,"items":[{"name":"곤지암한우소머리국밥 오이도점","tel":"031-319-2787","addr":"경기도 시흥시 정왕동 2011-10번지","indutype":"음식점업 - 한식","category":"restaurant"}]},{"lat":"37.347387066","long":"126.73264201","imageIndex":4,"items":[{"name":"곱창맛집1977","tel":"031-432-5382","addr":"경기도 시흥시 정왕동 1727-6번지 신안(프)103호","indutype":"음식점업 - 곱창","category":"restaurant"}]},{"lat":"37.345774367","long":"126.73269293","imageIndex":4,"items":[{"name":"곱창박사","tel":"031-433-8188","addr":"경기도 시흥시 정왕동 1731-18번지","indutype":"음식점업 - 곱창","category":"restaurant"}]},{"lat":"37.370302119","long":"126.72972623","imageIndex":4,"items":[{"name":"곱창이야기","tel":"031-319-0792","addr":"경기도 시흥시 정왕동 2513-1번지 센터프라자2차 121호","indutype":"음식점업 - 한식","category":"restaurant"},{"name":"그램그램 배곧점","tel":"031-433-0092","addr":"경기도 시흥시 정왕동 2513-1번지 센터프라자2차 208호","indutype":"음식점업 - 한식","category":"restaurant"},{"name":"김밥천국","tel":"","addr":"경기도 시흥시 정왕동 2513-1번지 센터프라자2, 105호","indutype":"음식점업 - 기타음식","category":"restaurant"},{"name":"뜰애","tel":"","addr":"경기도 시흥시 정왕동 2513-1번지 센터프라자2 203~4호","indutype":"음식점업 - 한식","category":"restaurant"},{"name":"띠아모커피 시흥배곧신도시점","tel":"031-499-5953","addr":"경기도 시흥시 정왕동 2513-1번지 센터프라자2차 120호","indutype":"음식점업 - 커피, 카페","category":"restaurant"},{"name":"명성손만두전골","tel":"031-434-9117","addr":"경기도 시흥시 정왕동 2513-1번지 센터프라자2차 216~219호","indutype":"음식점업 - 한식","category":"restaurant"},{"name":"육장장이","tel":"031-433-0092","addr":"경기도 시흥시 정왕동 2513-1번지 센터프라자2 208호","indutype":"음식점업 - 한식","category":"restaurant"},{"name":"이차돌시흥배곧점","tel":"031-433-9923","addr":"경기도 시흥시 정왕동 2513-1번지 센터프라자2 116호","indutype":"음식점업 - 한식","category":"restaurant"},{"name":"후라이드참잘하는집 배곧점","tel":"031-432-3633","addr":"경기도 시흥시 정왕동 2513-1번지 센터프라자2 1층 109호","indutype":"음식점업 - 치킨","category":"restaurant"}]},{"lat":"37.336644535","long":"126.7477788","imageIndex":4,"items":[{"name":"곽두리 쪽갈비","tel":"031-431-4109","addr":"경기도 시흥시 정왕동 1782-16번지","indutype":"음식점업 - 한식","category":"restaurant"}]},{"lat":"37.347338019","long":"126.74705419","imageIndex":4,"items":[{"name":"광수낙지마당","tel":"031-499-8080","addr":"경기도 시흥시 정왕동 1183-3번지","indutype":"음식점업 - 한식","category":"restaurant"}]},{"lat":"37.376666205","long":"126.72711769","imageIndex":4,"items":[{"name":"광안시장박고지김밥","tel":"031-499-5893","addr":"경기도 시흥시 정왕동 2477-4번지 골든프라자 1층 110호","indutype":"음식점업 - 분식","category":"restaurant"},{"name":"굽네치킨 배곧신도시점","tel":"031-431-9294","addr":"경기도 시흥시 정왕동 2477-4번지 골든프라자 114호","indutype":"음식점업 - 치킨","category":"restaurant"},{"name":"등촌샤브칼국수","tel":"031-432-0991","addr":"경기도 시흥시 정왕동 2477-4번지 골든프라자 207호","indutype":"음식점업 - 일반음식점","category":"restaurant"},{"name":"아지트","tel":"070-7543-8952","addr":"경기도 시흥시 정왕동 2477-4번지 골든프라자 109호","indutype":"음식점업 - 음식","category":"restaurant"},{"name":"제이드웍","tel":"031-499-2688","addr":"경기도 시흥시 정왕동 2477-4번지 골든프라자 202호","indutype":"음식점업 - 중식","category":"restaurant"},{"name":"제주 뒷고기","tel":"031-431-3975","addr":"경기도 시흥시 정왕동 2477-4번지 골든프라자 113호","indutype":"음식점업 - 한식","category":"restaurant"},{"name":"총각네옛날통닭","tel":"","addr":"경기도 시흥시 정왕동 2477-4번지 골든프라자 102호","indutype":"음식점업 - 기타음식","category":"restaurant"}]},{"lat":"37.378472992","long":"126.7253046","imageIndex":4,"items":[{"name":"교화","tel":"031-496-0805","addr":"경기도 시흥시 정왕동 2473번지 한울프라자 1층 114호","indutype":"음식점업 - 분식","category":"restaurant"},{"name":"배곧갈비맛집","tel":"031-497-8337","addr":"경기도 시흥시 정왕동 2473번지 한울프라자 201호","indutype":"음식점업 - 한식","category":"restaurant"},{"name":"배곧갈비맛집","tel":"031-497-8338","addr":"경기도 시흥시 정왕동 2473번지 한울프라자 201호","indutype":"음식점업 - 일반음식점","category":"restaurant"},{"name":"배곧소리향7080라이브카페","tel":"","addr":"경기도 시흥시 정왕동 2473번지 한울프라자 405호","indutype":"음식점업 - 주점","category":"restaurant"},{"name":"와라쿠라멘","tel":"031-434-7665","addr":"경기도 시흥시 정왕동 2473번지 한울프라자 1층 113호","indutype":"음식점업 - 라멘","category":"restaurant"}]},{"lat":"37.345891833","long":"126.73283922","imageIndex":4,"items":[{"name":"구어조은닭","tel":"031-319-9239","addr":"경기도 시흥시 정왕동 1731-17번지 신아프라자 101호","indutype":"음식점업 - 음식","category":"restaurant"},{"name":"짬장정육상회시화점","tel":"031-433-1976","addr":"경기도 시흥시 정왕동 1731-17번지 신아프라자 102호","indutype":"음식점업 - 한식","category":"restaurant"}]},{"lat":"37.352888995","long":"126.74325432","imageIndex":4,"items":[{"name":"구이가","tel":"031-497-3757","addr":"경기도 시흥시 정왕동 2309-8번지 대한빌딩","indutype":"음식점업 - 한식","category":"restaurant"}]},{"lat":"37.382190231","long":"126.73532864","imageIndex":4,"items":[{"name":"국수나무 시흥신세계아울렛점","tel":"031-431-2480","addr":"경기도 시흥시 정왕동 2393-2번지 지음프라자2 109호","indutype":"음식점업 - 한식","category":"restaurant"},{"name":"배곧반점","tel":"031-497-5959","addr":"경기도 시흥시 정왕동 2393-2번지 지음프라자ll 101호","indutype":"음식점업 - 중식","category":"restaurant"},{"name":"왕가(王家)","tel":"031-507-5455","addr":"경기도 시흥시 정왕동 2393-2번지 지음프라자II 204호","indutype":"음식점업 - 한식","category":"restaurant"},{"name":"카페도도한","tel":"031-496-0355","addr":"경기도 시흥시 정왕동 2393-2번지 지음프라자ll 105호","indutype":"음식점업 - 비알콜 음료점","category":"restaurant"}]},{"lat":"37.362667209","long":"126.71317165","imageIndex":4,"items":[{"name":"굽네치킨 배곧캠퍼스점","tel":"031-503-9494","addr":"경기도 시흥시 정왕동 2566번지 상가3동 104,105호","indutype":"음식점업 - 치킨, 호프","category":"restaurant"},{"name":"도담도담식빵 배곧한라점","tel":"031-319-3069","addr":"경기도 시흥시 정왕동 2566번지 한라비발디캠퍼스 상가 1동 1층 109호","indutype":"음식점업 - 식빵","category":"restaurant"},{"name":"떡후","tel":"031-488-8841","addr":"경기도 시흥시 정왕동 2566번지 한라비발디캠퍼스 상가 2동 1층 108호","indutype":"음식점업 - 한식","category":"restaurant"},{"name":"반반한명태가","tel":"031-520-2077","addr":"경기도 시흥시 정왕동 2566번지 한라비발디캠퍼스 3동 109호","indutype":"음식점업 - 한식","category":"restaurant"},{"name":"샌드리아","tel":"031-432-7797","addr":"경기도 시흥시 정왕동 2566번지 한라비발디캠퍼스 상가 1동 108호","indutype":"음식점업 - 샌드위치,음료","category":"restaurant"},{"name":"홍짜장 배곧한라비발디점","tel":"031-499-2809","addr":"경기도 시흥시 정왕동 2566번지 한라비발디캠퍼스 단지내상가 302동 105호","indutype":"음식점업 - 중식","category":"restaurant"}]},{"lat":"37.349892739","long":"126.72522927","imageIndex":4,"items":[{"name":"굿타임 숯불바베큐치킨","tel":"031-498-9800","addr":"경기도 시흥시 정왕동 1851번지 대림아파트 1층 101호","indutype":"음식점업 - 기타음식점","category":"restaurant"}]},{"lat":"37.349388164","long":"126.74103172","imageIndex":4,"items":[{"name":"그집냉면","tel":"031-498-0309","addr":"경기도 시흥시 정왕동 1804-8번지","indutype":"음식점업 - 음식점","category":"restaurant"}]},{"lat":"37.352357575","long":"126.74333516","imageIndex":4,"items":[{"name":"금두꺼비식당","tel":"070-8111-8592","addr":"경기도 시흥시 정왕동 2318-7번지","indutype":"음식점업 - 한식","category":"restaurant"}]},{"lat":"37.34511515","long":"126.6883433","imageIndex":4,"items":[{"name":"금산가든","tel":"031-499-8852","addr":"경기도 시흥시 정왕동 2004-2번지","indutype":"음식점업 - 한식","category":"restaurant"}]},{"lat":"37.363502352","long":"126.73097001","imageIndex":4,"items":[{"name":"기가찬족발보쌈","tel":"031-499-4111","addr":"경기도 시흥시 정왕동 1881-8번지 미성프라자 111,114호","indutype":"음식점업 - 한식","category":"restaurant"},{"name":"송주불냉면","tel":"031-433-8836","addr":"경기도 시흥시 정왕동 1881-8번지","indutype":"음식점업 - 냉면","category":"restaurant"},{"name":"통닭원5900","tel":"031-319-5902","addr":"경기도 시흥시 정왕동 1881-8번지 미성프라자 112호","indutype":"음식점업 - 음식점업","category":"restaurant"}]},{"lat":"37.34658566","long":"126.73285931","imageIndex":4,"items":[{"name":"김가네김밥","tel":"031-497-8749","addr":"경기도 시흥시 정왕동 1728-6번지 광장프라자 103호","indutype":"음식점업 - 간이음식","category":"restaurant"},{"name":"베이스챔프","tel":"031-431-7717","addr":"경기도 시흥시 정왕동 1728-6번지 광장프라자 105호","indutype":"음식점업 - 간이음식점","category":"restaurant"},{"name":"유연감자탕","tel":"031-434-1887","addr":"경기도 시흥시 정왕동 1728-6번지","indutype":"음식점업 - 한식","category":"restaurant"}]},{"lat":"37.370083292","long":"126.72860939","imageIndex":4,"items":[{"name":"김가닭강점5호점","tel":"","addr":"경기도 시흥시 정왕동 2515번지 배곧프라자 116호","indutype":"음식점업 - 닭강정","category":"restaurant"},{"name":"베트남노상식당배곧신도시점","tel":"031-433-7222","addr":"경기도 시흥시 정왕동 2515번지 배곧프라자 113호","indutype":"음식점업 - 한식","category":"restaurant"},{"name":"신포가빈배곧점","tel":"031-433-1227","addr":"경기도 시흥시 정왕동 2515번지 배곧프라자 2층 202,203호","indutype":"음식점업 - 한식","category":"restaurant"},{"name":"우레골고기돼지집","tel":"031-432-2474","addr":"경기도 시흥시 정왕동 2515번지 배곧프라자 110호","indutype":"음식점업 - 한식","category":"restaurant"},{"name":"이가원항아리수제비","tel":"031-496-0201","addr":"경기도 시흥시 정왕동 2515번지 배곧프라자 101호","indutype":"음식점업 - 한식","category":"restaurant"},{"name":"진진삼계탕","tel":"031-433-2257","addr":"경기도 시흥시 정왕동 2515번지 배곧프라자 206호","indutype":"음식점업 - 한식","category":"restaurant"},{"name":"크래프트월드(craftworld)","tel":"031-319-7509","addr":"경기도 시흥시 정왕동 2515번지 106~7호","indutype":"음식점업 - 레스토랑","category":"restaurant"},{"name":"하얼빈양꼬치","tel":"031-498-0888","addr":"경기도 시흥시 정왕동 2515번지 배곧프라자 1층 108호","indutype":"음식점업 - 양꼬치","category":"restaurant"},{"name":"한제소곱창전골 배곧점","tel":"031-497-1869","addr":"경기도 시흥시 정왕동 2515번지 배곧프라자 103호","indutype":"음식점업 - 한식","category":"restaurant"},{"name":"홍대개미 배곧신도시점","tel":"031-433-8508","addr":"경기도 시흥시 정왕동 2515번지 배곧프라자 2층 201호","indutype":"음식점업 - 한식","category":"restaurant"}]},{"lat":"37.344976531","long":"126.75086541","imageIndex":4,"items":[{"name":"김밥나라","tel":"031-406-0844","addr":"경기도 시흥시 정왕동 1193-11번지 1층","indutype":"음식점업 - 분식","category":"restaurant"}]},{"lat":"37.363221248","long":"126.73019214","imageIndex":4,"items":[{"name":"김밥속에단무지","tel":"031-433-2989","addr":"경기도 시흥시 정왕동 1882-4번지 세종프라자 1층 122호","indutype":"음식점업 - 분식","category":"restaurant"},{"name":"본죽 정왕4동점","tel":"031-433-8288","addr":"경기도 시흥시 정왕동 1882-4번지 세종프라자 1층","indutype":"음식점업 - 죽","category":"restaurant"},{"name":"빈대떡과찜","tel":"031-319-2520","addr":"경기도 시흥시 정왕동 1882-4번지 세종프라자 104호","indutype":"음식점업 - 한식","category":"restaurant"},{"name":"오비베어스클럽정왕점","tel":"031-431-8306","addr":"경기도 시흥시 정왕동 1882-4번지 세종프라자 205호","indutype":"음식점업 - 기타주점","category":"restaurant"},{"name":"유가네 떡볶이","tel":"031-431-3235","addr":"경기도 시흥시 정왕동 1882-4번지 세종프라자 109호","indutype":"음식점업 - 분식","category":"restaurant"},{"name":"피자이탈리 시화정왕점","tel":"031-431-5571","addr":"경기도 시흥시 정왕동 1882-4번지 세종프라자 102호","indutype":"음식점업 - 음식","category":"restaurant"},{"name":"한스델리?시흥세종점","tel":"","addr":"경기도 시흥시 정왕동 1882-4번지 세종프라자 206호","indutype":"음식점업 - 경양식","category":"restaurant"}]},{"lat":"37.336753069","long":"126.74797027","imageIndex":4,"items":[{"name":"김밥지상낙원","tel":"031-434-5955","addr":"경기도 시흥시 정왕동 1782-17번지","indutype":"음식점업 - 분식","category":"restaurant"}]},{"lat":"37.344112386","long":"126.74705385","imageIndex":4,"items":[{"name":"김밥참맛","tel":"","addr":"경기도 시흥시 정왕동 1583-1번지","indutype":"음식점업 - 기타음식점","category":"restaurant"}]},{"lat":"37.351086114","long":"126.74286551","imageIndex":4,"items":[{"name":"김밥천국 정왕역","tel":"031-434-6980","addr":"경기도 시흥시 정왕동 2326-1번지","indutype":"음식점업 - 분식","category":"restaurant"},{"name":"웰빙엄마손꼬마김밥정왕점","tel":"031-434-7753","addr":"경기도 시흥시 정왕동 2326-1번지 정왕프라자 1층 104호","indutype":"음식점업 - 간이음식","category":"restaurant"},{"name":"쥬씨","tel":"031-499-7774","addr":"경기도 시흥시 정왕동 2326-1번지 정왕프라자 109호","indutype":"음식점업 - 주스,커피","category":"restaurant"}]},{"lat":"37.370444608","long":"126.7290032","imageIndex":4,"items":[{"name":"김밥킹","tel":"031-497-2468","addr":"경기도 시흥시 정왕동 2513번지 센터프라자 1층 112호","indutype":"음식점업 - 분식","category":"restaurant"},{"name":"꼬꼬아찌숯불치킨","tel":"","addr":"경기도 시흥시 정왕동 2513번지 센터프라자 1층 118호","indutype":"음식점업 - 기타음식","category":"restaurant"},{"name":"남원추어탕","tel":"031-434-5533","addr":"경기도 시흥시 정왕동 2513번지 센터프라자 119, 120호","indutype":"음식점업 - 한식","category":"restaurant"},{"name":"두찜시흥배곧점","tel":"031-433-1041","addr":"경기도 시흥시 정왕동 2513번지 센터프라자 1층 122호","indutype":"음식점업 - 한식","category":"restaurant"},{"name":"서창서서갈비","tel":"031-433-6060","addr":"경기도 시흥시 정왕동 2513번지 센터프라자 208, 209호","indutype":"음식점업 - 한식","category":"restaurant"},{"name":"유케야","tel":"031-503-0808","addr":"경기도 시흥시 정왕동 2513번지 센터프라자 122호","indutype":"음식점업 - 한식음식점","category":"restaurant"},{"name":"카툰명가 만화카페","tel":"","addr":"경기도 시흥시 정왕동 2513번지 센터프라자 6층 604호","indutype":"음식점업 - 분식","category":"restaurant"}]},{"lat":"37.345054674","long":"126.73716456","imageIndex":4,"items":[{"name":"김빈(베트남쌀국수)","tel":"031-503-5881","addr":"경기도 시흥시 정왕동 1737-12번지 청진프라자 201호","indutype":"음식점업 - 음식점","category":"restaurant"}]},{"lat":"37.36132923","long":"126.71875303","imageIndex":4,"items":[{"name":"김순례 닭강정","tel":"031-498-8244","addr":"경기도 시흥시 정왕동 2558번지 한라비발디캠퍼스3차 1층123씨호","indutype":"음식점업 - 치킨","category":"restaurant"},{"name":"깔롱당","tel":"","addr":"경기도 시흥시 정왕동 2558번지 한라비발디캠퍼스3차 상가4동 124A호","indutype":"음식점업 - 디저트카페","category":"restaurant"},{"name":"죽이야기(배곧한라점)","tel":"031-497-6233","addr":"경기도 시흥시 정왕동 2558번지 한라비발디캠퍼스3차 4동 1층 107호","indutype":"음식점업 - 한식","category":"restaurant"},{"name":"커피에 반하다","tel":"","addr":"경기도 시흥시 정왕동 2558번지 한라비발디캠퍼스3차 4동 102호","indutype":"음식점업 - 커피","category":"restaurant"}]},{"lat":"37.348000369","long":"126.68908742","imageIndex":4,"items":[{"name":"김치","tel":"","addr":"경기도 시흥시 정왕동 1973-2번지","indutype":"음식점업 - 기타음식","category":"restaurant"}]},{"lat":"37.353392304","long":"126.72294775","imageIndex":4,"items":[{"name":"김치찌개와삼겹살","tel":"031-434-0395","addr":"경기도 시흥시 정왕동 1858-3번지 1층","indutype":"음식점업 - 일반음식점","category":"restaurant"}]},{"lat":"37.35216545","long":"126.73002897","imageIndex":4,"items":[{"name":"꼬꼬치킨","tel":"","addr":"경기도 시흥시 정왕동 1871-1번지 건영3차아파트","indutype":"음식점업 - 음식점","category":"restaurant"}]},{"lat":"37.343616661","long":"126.74697653","imageIndex":4,"items":[{"name":"꽃나라","tel":"031-433-2278","addr":"경기도 시흥시 정왕동 1558-12번지","indutype":"음식점업 - 한식","category":"restaurant"}]},{"lat":"37.344417261","long":"126.73819378","imageIndex":4,"items":[{"name":"꽃담","tel":"031-491-8870","addr":"경기도 시흥시 정왕동 1739-1번지 시흥한방병원 1층 103호","indutype":"음식점업 - 카페","category":"restaurant"}]},{"lat":"37.344669555","long":"126.69019597","imageIndex":4,"items":[{"name":"꿈꾸는다락방 커피디저트","tel":"","addr":"경기도 시흥시 정왕동 1994-15번지","indutype":"음식점업 - 커피디저트","category":"restaurant"}]},{"lat":"37.352249921","long":"126.72375334","imageIndex":4,"items":[{"name":"나나돼지갈비","tel":"031-432-8292","addr":"경기도 시흥시 정왕동 1859-20번지 102호","indutype":"음식점업 - 한식","category":"restaurant"}]},{"lat":"37.352615688","long":"126.74188958","imageIndex":4,"items":[{"name":"나노 갈매기","tel":"031-319-6392","addr":"경기도 시흥시 정왕동 2320-3번지","indutype":"음식점업 - 한식","category":"restaurant"}]},{"lat":"37.374132072","long":"126.73394603","imageIndex":4,"items":[{"name":"나움","tel":"031-498-5328","addr":"경기도 시흥시 정왕동 1772-31번지 지음프라자 3층 305호","indutype":"음식점업 - 카페","category":"restaurant"},{"name":"멕시카나 배곧해피점","tel":"031-475-7307","addr":"경기도 시흥시 정왕동 1772-31번지 지음프라자 111호","indutype":"음식점업 - 음식업","category":"restaurant"},{"name":"봄봄","tel":"031-499-2723","addr":"경기도 시흥시 정왕동 1772-31번지 지음프라자 205호","indutype":"음식점업 - 브런치,커피","category":"restaurant"},{"name":"아키야","tel":"031-496-9336","addr":"경기도 시흥시 정왕동 1772-31번지 지음프라자 2층 204호","indutype":"음식점업 - 퓨전일식","category":"restaurant"},{"name":"얌샘김밥 시흥배곧","tel":"","addr":"경기도 시흥시 정왕동 1772-31번지 지음프라자 1층 110호","indutype":"음식점업 - 한식","category":"restaurant"},{"name":"요런떡볶이","tel":"031-433-3562","addr":"경기도 시흥시 정왕동 1772-31번지 지음프라자 1층 108호","indutype":"음식점업 - 분식","category":"restaurant"},{"name":"죽이야기 배곧점","tel":"031-319-6233","addr":"경기도 시흥시 정왕동 1772-31번지 지음프라자 106호","indutype":"음식점업 - 죽","category":"restaurant"},{"name":"핵밥 시흥배곧점","tel":"031-498-8223","addr":"경기도 시흥시 정왕동 1772-31번지 지음프라자 1층 109호","indutype":"음식점업 - 스테이크 덮밥","category":"restaurant"}]},{"lat":"37.346802094","long":"126.68911498","imageIndex":4,"items":[{"name":"나주곰탕","tel":"","addr":"경기도 시흥시 정왕동 1974-7번지","indutype":"음식점업 - 한식","category":"restaurant"}]},{"lat":"37.347441238","long":"126.68889789","imageIndex":4,"items":[{"name":"나짱더복 오이도점","tel":"031-488-9333","addr":"경기도 시흥시 정왕동 1973-7번지","indutype":"음식점업 - 한식","category":"restaurant"}]},{"lat":"37.362968342","long":"126.72992213","imageIndex":4,"items":[{"name":"남경관","tel":"031-431-7272","addr":"경기도 시흥시 정왕동 1884-6번지 신도프라자 101~103호","indutype":"음식점업 - 중식","category":"restaurant"}]},{"lat":"37.382384189","long":"126.72952433","imageIndex":4,"items":[{"name":"낭만포차","tel":"","addr":"경기도 시흥시 정왕동 2383번지 시흥배곧신도시이지더원1차더퍼스트 상가2동 105,106호","indutype":"음식점업 - 기타음식","category":"restaurant"},{"name":"메가커피배곧이지더원점","tel":"031-319-2282","addr":"경기도 시흥시 정왕동 2383번지 시흥배곧신도시이지더원1차더퍼스트","indutype":"음식점업 - 카페","category":"restaurant"},{"name":"밥도둑","tel":"031-319-7772","addr":"경기도 시흥시 정왕동 2383번지 이지더원1차상가 1동 102호","indutype":"음식점업 - 일반음식점","category":"restaurant"},{"name":"술꽃","tel":"031-497-7949","addr":"경기도 시흥시 정왕동 2383번지 시흥배곧신도시 이지더원1차 더 퍼스트 2동 113호","indutype":"음식점업 - 주류,음식,coffee","category":"restaurant"},{"name":"외계인방앗간 시흥배곧점","tel":"031-488-8436","addr":"경기도 시흥시 정왕동 2383번지 시흥배곧신고시 이지더원1차 더 퍼스트 상가동-2동 1층 107호","indutype":"음식점업 - 제과점업","category":"restaurant"},{"name":"피자애 시흥배곧점","tel":"031-431-0685~6","addr":"경기도 시흥시 정왕동 2383번지 시흥배곧신도시 이지더원1차 더 퍼스트 상가2동 지1층 116호","indutype":"음식점업 - 피자","category":"restaurant"},{"name":"황금돼지","tel":"","addr":"경기도 시흥시 정왕동 2383번지 시흥배곧신도시이지더원1차더퍼스트 상가2동 110,111호","indutype":"음식점업 - 한식","category":"restaurant"}]},{"lat":"37.37722269","long":"126.72620114","imageIndex":4,"items":[{"name":"내고향 왕만두","tel":"","addr":"경기도 시흥시 정왕동 2477-1번지 SK월드프라자 116호","indutype":"음식점업 - 만두","category":"restaurant"},{"name":"무쏘","tel":"031-488-9992","addr":"경기도 시흥시 정왕동 2477-1번지 SK월드프라자 205~7호","indutype":"음식점업 - 한식","category":"restaurant"},{"name":"시나본 배곧신도시점","tel":"","addr":"경기도 시흥시 정왕동 2477-1번지 113호","indutype":"음식점업 - 휴게음식점","category":"restaurant"},{"name":"양대수맥항아리숯불양갈비앤수제맥주","tel":"031-434-6888","addr":"경기도 시흥시 정왕동 2477-1번지 2층 208호","indutype":"음식점업 - 양꼬치,양갈비","category":"restaurant"},{"name":"오가다 배곧신도시점","tel":"031-434-6790","addr":"경기도 시흥시 정왕동 2477-1번지 SK월드프라자 115호","indutype":"음식점업 - 카페","category":"restaurant"}]},{"lat":"37.346560056","long":"126.75405398","imageIndex":4,"items":[{"name":"내사랑수타생돈까스","tel":"031-498-4517","addr":"경기도 시흥시 정왕동 1168-6번지","indutype":"음식점업 - 돈가스","category":"restaurant"}]},{"lat":"37.364251921","long":"126.73172362","imageIndex":4,"items":[{"name":"냠냠 불삼겹","tel":"031-433-3600","addr":"경기도 시흥시 정왕동 1881-1번지 고려빌딩 107호","indutype":"음식점업 - 일반음식점","category":"restaurant"},{"name":"시골밥상","tel":"031-433-5475","addr":"경기도 시흥시 정왕동 1881-1번지 고려빌딩 106호","indutype":"음식점업 - 한식","category":"restaurant"}]},{"lat":"37.363634172","long":"126.72952463","imageIndex":4,"items":[{"name":"넓은마당","tel":"031-433-9948","addr":"경기도 시흥시 정왕동 1882-1번지 2층","indutype":"음식점업 - 한식","category":"restaurant"},{"name":"이디야 시흥정왕동점","tel":"031-431-9229","addr":"경기도 시흥시 정왕동 1882-1번지 1층 102, 103호","indutype":"음식점업 - 카페","category":"restaurant"}]},{"lat":"37.377861106","long":"126.72564556","imageIndex":4,"items":[{"name":"네네치킨 배곧점","tel":"031-432-4492","addr":"경기도 시흥시 정왕동 2476-2번지 광장프라자 107호","indutype":"음식점업 - 음식","category":"restaurant"},{"name":"바른치킨배곧수변공원점","tel":"031-499-2999","addr":"경기도 시흥시 정왕동 2476-2번지 배곧프라자 114호","indutype":"음식점업 - 기타음식","category":"restaurant"},{"name":"부르스터스 배곧신도시점","tel":"031-319-2030","addr":"경기도 시흥시 정왕동 2476-2번지 광장프라자 1층 116호","indutype":"음식점업 - 아이스크림,커피등","category":"restaurant"},{"name":"처갓집양념치킨 배곧점","tel":"031-432-9998","addr":"경기도 시흥시 정왕동 2476-2번지 광장프라자 1층 111호","indutype":"음식점업 - 치킨","category":"restaurant"},{"name":"후루룩 즉석떡볶이","tel":"031-497-3001","addr":"경기도 시흥시 정왕동 2476-2번지 광장프라자 2층 204호","indutype":"음식점업 - 분식","category":"restaurant"}]},{"lat":"37.345420017","long":"126.73535759","imageIndex":4,"items":[{"name":"노랑통닭 정왕점","tel":"031-504-7020","addr":"경기도 시흥시 정왕동 1735-4번지 대하빌딩 105호, 104호일부,103호일부","indutype":"음식점업 - 치킨 전문점","category":"restaurant"},{"name":"노랑통닭 정왕점","tel":"031-504-7020","addr":"경기도 시흥시 정왕동 1735-4번지 1층 103~105호","indutype":"음식점업 - 치킨","category":"restaurant"}]},{"lat":"37.343279486","long":"126.73708053","imageIndex":4,"items":[{"name":"노명준보쌈한판","tel":"031-319-9927","addr":"경기도 시흥시 정왕동 1744-2번지","indutype":"음식점업 - 한식","category":"restaurant"}]},{"lat":"37.34514391","long":"126.74908174","imageIndex":4,"items":[{"name":"노점구이","tel":"","addr":"경기도 시흥시 정왕동 1201-11번지","indutype":"음식점업 - 기타음식점","category":"restaurant"}]},{"lat":"37.344054175","long":"126.73699881","imageIndex":4,"items":[{"name":"놀숲 시흥정왕점","tel":"070-8887-6285","addr":"경기도 시흥시 정왕동 1737-20번지 영창프라자 402~404호","indutype":"음식점업 - 북카페, 서적대여, 휴게","category":"restaurant"}]},{"lat":"37.336720325","long":"126.74950503","imageIndex":4,"items":[{"name":"누이네생태마을","tel":"","addr":"경기도 시흥시 정왕동 1627-4번지 1층","indutype":"음식점업 - 한식","category":"restaurant"}]},{"lat":"37.347172214","long":"126.74538445","imageIndex":4,"items":[{"name":"다사랑치킨피자","tel":"031-488-9182~3","addr":"경기도 시흥시 정왕동 1837-4번지","indutype":"음식점업 - 기타음식","category":"restaurant"}]},{"lat":"37.347031674","long":"126.69075046","imageIndex":4,"items":[{"name":"다산정육식당 2호점","tel":"031-319-0037","addr":"경기도 시흥시 정왕동 1980-5번지","indutype":"음식점업 - 한식, 식육","category":"restaurant"}]},{"lat":"37.344362915","long":"126.69008439","imageIndex":4,"items":[{"name":"다산정육점식당","tel":"031-319-0037","addr":"경기도 시흥시 정왕동 2014-3번지 1층","indutype":"음식점업 - 한식","category":"restaurant"}]},{"lat":"37.346309355","long":"126.74635797","imageIndex":4,"items":[{"name":"다온칼국수","tel":"031-434-6868","addr":"경기도 시흥시 정왕동 1211번지 1층","indutype":"음식점업 - 한식","category":"restaurant"}]},{"lat":"37.345722031","long":"126.73344925","imageIndex":4,"items":[{"name":"다이와","tel":"031-499-7504","addr":"경기도 시흥시 정왕동 1731-15번지","indutype":"음식점업 - 회","category":"restaurant"},{"name":"해강","tel":"031-432-4556","addr":"경기도 시흥시 정왕동 1731-15번지 윤성빌딩 102호","indutype":"음식점업 - 기타음식","category":"restaurant"}]},{"lat":"37.345864326","long":"126.74063768","imageIndex":4,"items":[{"name":"단골밥상","tel":"","addr":"경기도 시흥시 정왕동 1611-8번지","indutype":"음식점업 - 기타음식","category":"restaurant"}]},{"lat":"37.353078925","long":"126.72378413","imageIndex":4,"items":[{"name":"단골포차","tel":"031-319-7877","addr":"경기도 시흥시 정왕동 1859-13번지","indutype":"음식점업 - 간이주점","category":"restaurant"}]},{"lat":"37.364223622","long":"126.7311706","imageIndex":4,"items":[{"name":"달구지","tel":"031-496-0730","addr":"경기도 시흥시 정왕동 1880-9번지","indutype":"음식점업 - 기타음식","category":"restaurant"},{"name":"대경반점","tel":"031-498-7435","addr":"경기도 시흥시 정왕동 1880-9번지","indutype":"음식점업 - 중식","category":"restaurant"}]},{"lat":"37.377277516","long":"126.72652835","imageIndex":4,"items":[{"name":"달콤달콤회","tel":"031-433-8002","addr":"경기도 시흥시 정왕동 2477-2번지 배곧 로자벨 104호","indutype":"음식점업 - 회","category":"restaurant"},{"name":"배부장찌개배곧신도시점","tel":"031-434-7787","addr":"경기도 시흥시 정왕동 2477-2번지 배곧 로자벨","indutype":"음식점업 - 한식","category":"restaurant"},{"name":"올리바바양꼬치 배곧점","tel":"","addr":"경기도 시흥시 정왕동 2477-2번지 105~106호","indutype":"음식점업 - 양꼬치","category":"restaurant"}]},{"lat":"37.374412075","long":"126.73424986","imageIndex":4,"items":[{"name":"달콤주의","tel":"031-499-2373","addr":"경기도 시흥시 정왕동 2468번지 솔로몬프라자 1층 101호","indutype":"음식점업 - 카페","category":"restaurant"},{"name":"슬라임몬스터","tel":"031-433-6875","addr":"경기도 시흥시 정왕동 2468번지 솔로몬프라자 3층 302호","indutype":"음식점업 - 슬라임카페","category":"restaurant"},{"name":"호야치킨앤달콤한닭강정","tel":"031-498-0058","addr":"경기도 시흥시 정왕동 2468번지 솔로몬프라자 110호","indutype":"음식점업 - 기타음식","category":"restaurant"}]},{"lat":"37.352417218","long":"126.7417774","imageIndex":4,"items":[{"name":"닭해진미","tel":"031-405-3523","addr":"경기도 시흥시 정왕동 2320-5번지","indutype":"음식점업 - 한식","category":"restaurant"}]},{"lat":"37.345005731","long":"126.75616949","imageIndex":4,"items":[{"name":"대관령식당","tel":"031-499-8659","addr":"경기도 시흥시 정왕동 1503-12번지","indutype":"음식점업 - 한식","category":"restaurant"}]},{"lat":"37.34078126","long":"126.74827263","imageIndex":4,"items":[{"name":"대관령황태해장국","tel":"031-433-4413","addr":"경기도 시흥시 정왕동 1428-5번지","indutype":"음식점업 - 한식","category":"restaurant"}]},{"lat":"37.369415134","long":"126.72800221","imageIndex":4,"items":[{"name":"대돈단결 배곧점","tel":"031-506-8314","addr":"경기도 시흥시 정왕동 2515-2번지 새롬프라자2 114호","indutype":"음식점업 - 기타음식","category":"restaurant"},{"name":"야끼화로 배곧점","tel":"031-496-9291","addr":"경기도 시흥시 정왕동 2515-2번지 1층 116-117호","indutype":"음식점업 - 고기","category":"restaurant"},{"name":"우림한방삼계탕","tel":"031-431-9987","addr":"경기도 시흥시 정왕동 2515-2번지 새롬프라자2 2층 207호","indutype":"음식점업 - 한식","category":"restaurant"},{"name":"응급실떡볶이시흥배곧점","tel":"031-498-2119","addr":"경기도 시흥시 정왕동 2515-2번지 새롬프라자2 1층 113호","indutype":"음식점업 - 한식","category":"restaurant"},{"name":"천향부","tel":"031-319-6786","addr":"경기도 시흥시 정왕동 2515-2번지 새롬프라자2 2층 204호","indutype":"음식점업 - 중식","category":"restaurant"},{"name":"카츠오모이","tel":"","addr":"경기도 시흥시 정왕동 2515-2번지 새롬프라자2 1층 108호","indutype":"음식점업 - 돈까스","category":"restaurant"},{"name":"태영생막창 배곧점","tel":"031-507-5015","addr":"경기도 시흥시 정왕동 2515-2번지 새롬프라자2 118호","indutype":"음식점업 - 막창외 기타음식","category":"restaurant"}]},{"lat":"37.343283123","long":"126.73469934","imageIndex":4,"items":[{"name":"더베이징","tel":"031-319-4289","addr":"경기도 시흥시 정왕동 1745-3번지","indutype":"음식점업 - 중화요리","category":"restaurant"},{"name":"무한칼집생고기","tel":"","addr":"경기도 시흥시 정왕동 1745-3번지","indutype":"음식점업 - 한식","category":"restaurant"}]},{"lat":"37.36302909","long":"126.72891727","imageIndex":4,"items":[{"name":"더아구찜(THE AGUZZIM)","tel":"031-433-5979","addr":"경기도 시흥시 정왕동 1883-3번지 정왕프라자 101호","indutype":"음식점업 - 한식","category":"restaurant"},{"name":"홍가네감자탕","tel":"","addr":"경기도 시흥시 정왕동 1883-3번지 정왕프라자 102~103호","indutype":"음식점업 - 한식","category":"restaurant"}]},{"lat":"37.345695624","long":"126.68978543","imageIndex":4,"items":[{"name":"덕원갈비","tel":"031-499-6510","addr":"경기도 시흥시 정왕동 1999-4번지","indutype":"음식점업 - 한식","category":"restaurant"}]},{"lat":"37.374412511","long":"126.73444179","imageIndex":4,"items":[{"name":"데스땅(DEstE)","tel":"","addr":"경기도 시흥시 정왕동 2468-1번지 신세계프라자 109호","indutype":"음식점업 - 다방(일반)/인삼찻집","category":"restaurant"},{"name":"카페벨(Caf? belle)","tel":"","addr":"경기도 시흥시 정왕동 2468-1번지 신세계프라자 1층 103~4호","indutype":"음식점업 - 카페","category":"restaurant"}]},{"lat":"37.351796779","long":"126.71513213","imageIndex":4,"items":[{"name":"도담","tel":"031-319-1078","addr":"경기도 시흥시 정왕동 2164-2번지 B동 133,114호","indutype":"음식점업 - 한식","category":"restaurant"},{"name":"화로닭갈비","tel":"031-499-1911","addr":"경기도 시흥시 정왕동 2164-2번지 메가폴리스 B동 116호","indutype":"음식점업 - 한식","category":"restaurant"}]},{"lat":"37.347001679","long":"126.74986549","imageIndex":4,"items":[{"name":"도시와농부","tel":"031-432-3396","addr":"경기도 시흥시 정왕동 1181-4번지 1층 102호","indutype":"음식점업 - 한식","category":"restaurant"}]},{"lat":"37.347111692","long":"126.74655838","imageIndex":4,"items":[{"name":"도화","tel":"031-433-3016","addr":"경기도 시흥시 정왕동 1208-14번지 1층","indutype":"음식점업 - 한식","category":"restaurant"}]},{"lat":"37.369105243","long":"126.73036276","imageIndex":4,"items":[{"name":"돈까스빌리지 배곧점","tel":"031-434-1633","addr":"경기도 시흥시 정왕동 2519번지 스타타워 2층 206호","indutype":"음식점업 - 요식업","category":"restaurant"},{"name":"육대장배곧점","tel":"031-498-7929","addr":"경기도 시흥시 정왕동 2519번지 스타타워 111호","indutype":"음식점업 - 음식","category":"restaurant"},{"name":"은하수회관","tel":"031-432-5553","addr":"경기도 시흥시 정왕동 2519번지 1층 113-4호","indutype":"음식점업 - 고기구이","category":"restaurant"},{"name":"조마루감자탕 배곧점","tel":"031-497-3942","addr":"경기도 시흥시 정왕동 2519번지 203호","indutype":"음식점업 - 감자탕(한식)","category":"restaurant"}]},{"lat":"37.348916792","long":"126.7438323","imageIndex":4,"items":[{"name":"돈도니 석쇠한판불고기","tel":"031-506-9969","addr":"경기도 시흥시 정왕동 1826-5번지","indutype":"음식점업 - 한식","category":"restaurant"},{"name":"화정불닭발","tel":"031-492-2991","addr":"경기도 시흥시 정왕동 1826-5번지","indutype":"음식점업 - 야식","category":"restaurant"}]},{"lat":"37.345421419","long":"126.73597829","imageIndex":4,"items":[{"name":"돈통매콤명태밥상정왕점","tel":"031-498-5377","addr":"경기도 시흥시 정왕동 1736-6번지 완도프라자 1층","indutype":"음식점업 - 음식점","category":"restaurant"},{"name":"해까득 시화이마트점","tel":"031-319-1335","addr":"경기도 시흥시 정왕동 1736-6번지 완도프라자 107,108호","indutype":"음식점업 - 한식","category":"restaurant"}]},{"lat":"37.35555188","long":"126.73335768","imageIndex":4,"items":[{"name":"돈특수부위전문점","tel":"031-506-1166","addr":"경기도 시흥시 정왕동 1872-6번지 한신아파트 106호","indutype":"음식점업 - 한식","category":"restaurant"},{"name":"해촌","tel":"","addr":"경기도 시흥시 정왕동 1872-6번지 한신아파트 상가","indutype":"음식점업 - 횟집","category":"restaurant"}]},{"lat":"37.344554576","long":"126.68761209","imageIndex":4,"items":[{"name":"돌섬호남집","tel":"031-497-7650","addr":"경기도 시흥시 정왕동 2006-19번지","indutype":"음식점업 - 한식","category":"restaurant"}]},{"lat":"37.353003295","long":"126.74196725","imageIndex":4,"items":[{"name":"돗세우리흑돼지두루치기","tel":"031-497-2344","addr":"경기도 시흥시 정왕동 2320-1번지 1층","indutype":"음식점업 - 음식점","category":"restaurant"}]},{"lat":"37.346392557","long":"126.69097882","imageIndex":4,"items":[{"name":"동네방네","tel":"","addr":"경기도 시흥시 정왕동 1981-7번지","indutype":"음식점업 - 한식","category":"restaurant"}]},{"lat":"37.362859961","long":"126.72980965","imageIndex":4,"items":[{"name":"동대문엽기떡볶이시흥정왕점","tel":"031-497-8592","addr":"경기도 시흥시 정왕동 1884-7번지 한양코아 112호","indutype":"음식점업 - 음식","category":"restaurant"},{"name":"맘스터치시화신도시점","tel":"031-497-9288","addr":"경기도 시흥시 정왕동 1884-7번지","indutype":"음식점업 - 음식업","category":"restaurant"},{"name":"바다목장","tel":"031-431-3323","addr":"경기도 시흥시 정왕동 1884-7번지","indutype":"음식점업 - 한식","category":"restaurant"},{"name":"불불이 족발 정왕점","tel":"070-7789-9292","addr":"경기도 시흥시 정왕동 1884-7번지 105호","indutype":"음식점업 - 한식","category":"restaurant"}]},{"lat":"37.34130783","long":"126.68645203","imageIndex":4,"items":[{"name":"동키커피숍","tel":"031-503-3820","addr":"경기도 시흥시 정왕동 2031-13번지","indutype":"음식점업 - 커피","category":"restaurant"}]},{"lat":"37.353387394","long":"126.72468592","imageIndex":4,"items":[{"name":"동하수산","tel":"031-488-9789","addr":"경기도 시흥시 정왕동 1861-7번지 트윈프라자 A동 114호","indutype":"음식점업 - 한식, 활어, 어패류","category":"restaurant"},{"name":"포청천","tel":"031-319-2294","addr":"경기도 시흥시 정왕동 1861-7번지 트윈프라자 A동 111호","indutype":"음식점업 - 중식","category":"restaurant"}]},{"lat":"37.344276682","long":"126.7357792","imageIndex":4,"items":[{"name":"돼지박사","tel":"031-432-0599","addr":"경기도 시흥시 정왕동 1742-5번지 202,203호","indutype":"음식점업 - 한식","category":"restaurant"}]},{"lat":"37.352163107","long":"126.72133833","imageIndex":4,"items":[{"name":"돼지족족시화점","tel":"031-343-5911","addr":"경기도 시흥시 정왕동 1854-6번지 1층","indutype":"음식점업 - 한식,족발","category":"restaurant"}]},{"lat":"37.337365415","long":"126.74781022","imageIndex":4,"items":[{"name":"두근반세근반","tel":"031-499-2978","addr":"경기도 시흥시 정왕동 1624-7번지","indutype":"음식점업 - 육류, 삼겹살","category":"restaurant"}]},{"lat":"37.352499105","long":"126.74213829","imageIndex":4,"items":[{"name":"두리부대찌개","tel":"031-433-9338","addr":"경기도 시흥시 정왕동 2321-1번지","indutype":"음식점업 - 한식","category":"restaurant"}]},{"lat":"37.336256248","long":"126.74738517","imageIndex":4,"items":[{"name":"두리쌈밥집","tel":"031-432-0706","addr":"경기도 시흥시 정왕동 1782-13번지 1층","indutype":"음식점업 - 한식","category":"restaurant"}]},{"lat":"37.363165859","long":"126.72961664","imageIndex":4,"items":[{"name":"두부가","tel":"031-497-3178","addr":"경기도 시흥시 정왕동 1884-1번지 포란빌딩 102-1, 102-2호","indutype":"음식점업 - 한식","category":"restaurant"},{"name":"칭따오양꼬치","tel":"031-319-9262","addr":"경기도 시흥시 정왕동 1884-1번지","indutype":"음식점업 - 기타음식","category":"restaurant"}]},{"lat":"37.34728108","long":"126.74161462","imageIndex":4,"items":[{"name":"두부랑","tel":"031-432-1095","addr":"경기도 시흥시 정왕동 1600-2번지 창일빌딩 102호","indutype":"음식점업 - 한식","category":"restaurant"}]},{"lat":"37.338366088","long":"126.74391368","imageIndex":4,"items":[{"name":"두산반점","tel":"031-497-6331","addr":"경기도 시흥시 정왕동 1786번지","indutype":"음식점업 - 중식","category":"restaurant"}]},{"lat":"37.353362758","long":"126.7218869","imageIndex":4,"items":[{"name":"두찜 ","tel":"031-431-2526","addr":"경기도 시흥시 정왕동 1857-7번지 1층","indutype":"음식점업 - 한식","category":"restaurant"}]},{"lat":"37.343834372","long":"126.73541964","imageIndex":4,"items":[{"name":"둘둘치킨정왕점","tel":"031-493-2299","addr":"경기도 시흥시 정왕동 1742-8번지 대신프라자 102호","indutype":"음식점업 - 기타음식","category":"restaurant"}]},{"lat":"37.346412535","long":"126.68831532","imageIndex":4,"items":[{"name":"등대횟집","tel":"031-431-8868","addr":"경기도 시흥시 정왕동 2003-27번지","indutype":"음식점업 - 일식","category":"restaurant"}]},{"lat":"37.344610742","long":"126.73608272","imageIndex":4,"items":[{"name":"디델리라볶기","tel":"031-432-1192","addr":"경기도 시흥시 정왕동 1737-6번지","indutype":"음식점업 - 분식","category":"restaurant"}]},{"lat":"37.351167361","long":"126.73091292","imageIndex":4,"items":[{"name":"또봉이 통닭","tel":"031-434-9770","addr":"경기도 시흥시 정왕동 1871-5번지 시흥교회 108호","indutype":"음식점업 - 음식","category":"restaurant"}]},{"lat":"37.337171723","long":"126.74992104","imageIndex":4,"items":[{"name":"또봉이통닭","tel":"","addr":"경기도 시흥시 정왕동 1627번지","indutype":"음식점업 - 음식점","category":"restaurant"}]},{"lat":"37.346998679","long":"126.73222582","imageIndex":4,"items":[{"name":"또봉이통닭","tel":"031-497-8292","addr":"경기도 시흥시 정왕동 1728-10번지 선빌딩 103호","indutype":"음식점업 - 치킨","category":"restaurant"}]},{"lat":"37.360613415","long":"126.73241398","imageIndex":4,"items":[{"name":"또와치킨","tel":"031-507-0555","addr":"경기도 시흥시 정왕동 1876-3번지 부성파스텔아파트 1층 110호","indutype":"음식점업 - 치킨","category":"restaurant"}]},{"lat":"37.338666173","long":"126.7535835","imageIndex":4,"items":[{"name":"뚱뚱이 삼겹살","tel":"","addr":"경기도 시흥시 정왕동 1420-20번지","indutype":"음식점업 - 음식점","category":"restaurant"}]},{"lat":"37.35113851","long":"126.74210914","imageIndex":4,"items":[{"name":"뚱스컵밥","tel":"031-498-2545","addr":"경기도 시흥시 정왕동 2327-5번지","indutype":"음식점업 - 음식점","category":"restaurant"}]},{"lat":"37.352472343","long":"126.72255613","imageIndex":4,"items":[{"name":"뜨끈이 감자탕","tel":"031-432-7578","addr":"경기도 시흥시 정왕동 1855-5번지","indutype":"음식점업 - 한식","category":"restaurant"}]},{"lat":"37.348192607","long":"126.74641928","imageIndex":4,"items":[{"name":"뜨끈이 감자탕 3호점","tel":"031-434-7578","addr":"경기도 시흥시 정왕동 1823-1번지 1층","indutype":"음식점업 - 한식","category":"restaurant"},{"name":"뜨끈이 감자탕 3호점","tel":"031-434-7578","addr":"경기도 시흥시 정왕동 1823-1번지 1층","indutype":"음식점업 - 한식","category":"restaurant"}]},{"lat":"37.353805242","long":"126.72230287","imageIndex":4,"items":[{"name":"뜨끈이 해장국","tel":"031-432-7493","addr":"경기도 시흥시 정왕동 1857-3번지","indutype":"음식점업 - 한식","category":"restaurant"}]},{"lat":"37.342888187","long":"126.73536657","imageIndex":4,"items":[{"name":"뜨끈이감자탕","tel":"031-433-7578","addr":"경기도 시흥시 정왕동 1745-5번지","indutype":"음식점업 - 한식","category":"restaurant"}]},{"lat":"37.341366984","long":"126.75252507","imageIndex":4,"items":[{"name":"뜨끈이감자탕 시화점","tel":"031-434-7493","addr":"경기도 시흥시 정왕동 1498-11번지","indutype":"음식점업 - 한식","category":"restaurant"}]},{"lat":"37.343802979","long":"126.68959016","imageIndex":4,"items":[{"name":"뜨끈이감자탕 오이도점","tel":"031-431-7571","addr":"경기도 시흥시 정왕동 2011-4번지","indutype":"음식점업 - 한식","category":"restaurant"}]},{"lat":"37.343144082","long":"126.73696816","imageIndex":4,"items":[{"name":"라라감자탕","tel":"031-497-3631","addr":"경기도 시흥시 정왕동 1744-3번지","indutype":"음식점업 - 한식","category":"restaurant"}]},{"lat":"37.345476872","long":"126.74888877","imageIndex":4,"items":[{"name":"라쇼샤","tel":"031-433-4999","addr":"경기도 시흥시 정왕동 1202번지","indutype":"음식점업 - 기타음식점","category":"restaurant"},{"name":"병천토종순대","tel":"031-432-1212","addr":"경기도 시흥시 정왕동 1202번지","indutype":"음식점업 - 한식","category":"restaurant"},{"name":"브랑제리","tel":"031-499-0142","addr":"경기도 시흥시 정왕동 1202번지 정왕시장 115호","indutype":"음식점업 - 제과","category":"restaurant"},{"name":"황금바로구운빵","tel":"","addr":"경기도 시흥시 정왕동 1202번지 정왕시장 1층 129호","indutype":"음식점업 - 제과","category":"restaurant"}]},{"lat":"37.353051778","long":"126.73945015","imageIndex":4,"items":[{"name":"레시피(recipe)97","tel":"031-499-1244","addr":"경기도 시흥시 정왕동 2295-8번지 정현빌딩 1층 101호","indutype":"음식점업 - 기타음식","category":"restaurant"}]},{"lat":"37.382299423","long":"126.73580248","imageIndex":4,"items":[{"name":"로데오김밥카페","tel":"031-499-4994","addr":"경기도 시흥시 정왕동 2393-4번지 로데오프라자 101호","indutype":"음식점업 - 분식","category":"restaurant"},{"name":"만선회센타","tel":"","addr":"경기도 시흥시 정왕동 2393-4번지 로데오프라자 201,202호","indutype":"음식점업 - 활어, 회","category":"restaurant"}]},{"lat":"37.376998805","long":"126.73067291","imageIndex":4,"items":[{"name":"마데몽","tel":"","addr":"경기도 시흥시 정왕동 2450-1번지 1층 102호","indutype":"음식점업 - 제과","category":"restaurant"}]},{"lat":"37.36410745","long":"126.73158868","imageIndex":4,"items":[{"name":"마부감자탕","tel":"031-497-7113","addr":"경기도 시흥시 정왕동 1881-2번지","indutype":"음식점업 - 한식","category":"restaurant"}]},{"lat":"37.36366391","long":"126.73069851","imageIndex":4,"items":[{"name":"마시내탕수육","tel":"031-434-2550","addr":"경기도 시흥시 정왕동 1881-9번지 굿모닝프라자 103호","indutype":"음식점업 - 음식점업","category":"restaurant"},{"name":"새댁쭈꾸미","tel":"031-431-5288","addr":"경기도 시흥시 정왕동 1881-9번지 굿모닝프라자 2층","indutype":"음식점업 - 한식","category":"restaurant"},{"name":"시소후르츠 정왕점","tel":"031-497-3390","addr":"경기도 시흥시 정왕동 1881-9번지 굿모닝프라자 2층 203호","indutype":"음식점업 - 카페","category":"restaurant"},{"name":"카페아리빈","tel":"031-499-7332","addr":"경기도 시흥시 정왕동 1881-9번지 굿모닝프라자 106호","indutype":"음식점업 - 커피숍","category":"restaurant"}]},{"lat":"37.352112162","long":"126.7383022","imageIndex":4,"items":[{"name":"마실","tel":"031-434-7778","addr":"경기도 시흥시 정왕동 2305-36번지 서해빌딩 1층","indutype":"음식점업 - 분식","category":"restaurant"}]},{"lat":"37.35630348","long":"126.72716963","imageIndex":4,"items":[{"name":"마실꼬닭","tel":"031-509-8292","addr":"경기도 시흥시 정왕동 1866-6번지 영남5차아파트 102호","indutype":"음식점업 - 치킨","category":"restaurant"}]},{"lat":"37.34350156","long":"126.73566909","imageIndex":4,"items":[{"name":"마포갈매기","tel":"031-497-2340","addr":"경기도 시흥시 정왕동 1742-20번지","indutype":"음식점업 - 일반음식","category":"restaurant"},{"name":"오사카부루스","tel":"","addr":"경기도 시흥시 정왕동 1742-20번지 2층","indutype":"음식점업 - 주점","category":"restaurant"},{"name":"한가네숯불닭갈비","tel":"031-432-4792","addr":"경기도 시흥시 정왕동 1742-20번지 금영프라자 101~102호","indutype":"음식점업 - 기타음식","category":"restaurant"}]},{"lat":"37.36230758","long":"126.72861511","imageIndex":4,"items":[{"name":"만나꼬마김밥 정왕점","tel":"031-432-1124","addr":"경기도 시흥시 정왕동 1886-2번지 1층 110호","indutype":"음식점업 - 분식","category":"restaurant"},{"name":"카페브릭스","tel":"031-434-6678","addr":"경기도 시흥시 정왕동 1886-2번지 119호","indutype":"음식점업 - 휴게음식","category":"restaurant"}]},{"lat":"37.346838637","long":"126.73316312","imageIndex":4,"items":[{"name":"만남포차","tel":"031-319-8656","addr":"경기도 시흥시 정왕동 1728-4번지 흥보프라자 101호","indutype":"음식점업 - 기타주점","category":"restaurant"}]},{"lat":"37.369416994","long":"126.72880373","imageIndex":4,"items":[{"name":"만식이네 와인포차 배곧신도시점","tel":"031-831-7799","addr":"경기도 시흥시 정왕동 2517-1번지 다인로얄팰리스배곧4차 1층 104호","indutype":"음식점업 - 양식","category":"restaurant"},{"name":"신의주순대와쭈꾸미 배곧신도시점","tel":"031-432-1256","addr":"경기도 시흥시 정왕동 2517-1번지 로얄팰리스4차 110호","indutype":"음식점업 - 한식","category":"restaurant"},{"name":"이군가맥","tel":"031-497-0705","addr":"경기도 시흥시 정왕동 2517-1번지 다인로얄팰리스 101호","indutype":"음식점업 - 음식점","category":"restaurant"}]},{"lat":"37.337031433","long":"126.74752924","imageIndex":4,"items":[{"name":"만원포차","tel":"","addr":"경기도 시흥시 정왕동 1782-5번지 서울프라자 107호","indutype":"음식점업 - 기타음식","category":"restaurant"},{"name":"호남짚불산꼼장어","tel":"031-498-2229","addr":"경기도 시흥시 정왕동 1782-5번지","indutype":"음식점업 - 기타음식점","category":"restaurant"}]},{"lat":"37.34589063","long":"126.7403103","imageIndex":4,"items":[{"name":"맘스케익(청주오믈렛)시흥점","tel":"031-319-7150","addr":"경기도 시흥시 정왕동 1610-5번지 평화빌딩 1층 101호","indutype":"음식점업 - 빵","category":"restaurant"}]},{"lat":"37.345252084","long":"126.73680273","imageIndex":4,"items":[{"name":"맘스터치49로데오점","tel":"031-433-6968","addr":"경기도 시흥시 정왕동 1737-1번지 한솔프라자 2층","indutype":"음식점업 - 치킨, 햄버거","category":"restaurant"},{"name":"이모네 분식","tel":"","addr":"경기도 시흥시 정왕동 1737-1번지 한솔프라자 107호","indutype":"음식점업 - 분식","category":"restaurant"}]},{"lat":"37.338501808","long":"126.7360592","imageIndex":4,"items":[{"name":"맘스터치경기과기대점","tel":"031-488-9882","addr":"경기도 시흥시 정왕동 2121-3번지 경기과학기술대학교 학생회관건물 내 2층 푸드코트","indutype":"음식점업 - 기타음식","category":"restaurant"},{"name":"봉구스밥버거 경기과기대점","tel":"031-432-0905","addr":"경기도 시흥시 정왕동 2121-3번지 학생회관 2층","indutype":"음식점업 - 휴게음식","category":"restaurant"},{"name":"청우푸드 경기과기대점","tel":"031-496-4606","addr":"경기도 시흥시 정왕동 2121-3번지 경기과학기술대학교 학생회관 1층","indutype":"음식점업 - 구내식당","category":"restaurant"}]},{"lat":"37.34766574","long":"126.74036055","imageIndex":4,"items":[{"name":"맛뜨레푸드","tel":"070-7602-5723","addr":"경기도 시흥시 정왕동 1800-7번지","indutype":"음식점업 - 한식","category":"restaurant"}]},{"lat":"37.350530004","long":"126.73194228","imageIndex":4,"items":[{"name":"매코미치킨","tel":"031-433-9939","addr":"경기도 시흥시 정왕동 1844-1번지 주공아파트(가상가동) 102호","indutype":"음식점업 - 기타음식점","category":"restaurant"}]},{"lat":"37.35167129","long":"126.73457921","imageIndex":4,"items":[{"name":"맥주먹는닭","tel":"031-492-3030","addr":"경기도 시흥시 정왕동 1843번지 주공4단지아파트(나상가동) 상가동 102호","indutype":"음식점업 - 치킨, 호프","category":"restaurant"}]},{"lat":"37.345116628","long":"126.73666778","imageIndex":4,"items":[{"name":"맵도리탕시흥정왕점","tel":"070-7543-8636","addr":"경기도 시흥시 정왕동 1737-2번지 지성빌딩 1층 101호","indutype":"음식점업 - 한식","category":"restaurant"},{"name":"왕의밥상","tel":"031-433-5566","addr":"경기도 시흥시 정왕동 1737-2번지 지성빌딩 지하1층","indutype":"음식점업 - 한식","category":"restaurant"}]},{"lat":"37.363445666","long":"126.7298301","imageIndex":4,"items":[{"name":"맵콩","tel":"031-431-5430","addr":"경기도 시흥시 정왕동 1882-2번지 대림하이츠프라자 102호","indutype":"음식점업 - 떡볶이","category":"restaurant"},{"name":"부추곱창","tel":"031-498-0992","addr":"경기도 시흥시 정왕동 1882-2번지 대림하이츠프라자 111호","indutype":"음식점업 - 기타음식","category":"restaurant"},{"name":"어부와바다","tel":"031-433-4471","addr":"경기도 시흥시 정왕동 1882-2번지 대림하이츠프라자 108호","indutype":"음식점업 - 기타음식","category":"restaurant"},{"name":"오박집","tel":"031-319-0665","addr":"경기도 시흥시 정왕동 1882-2번지 대림하이츠프라자 110호","indutype":"음식점업 - 육류","category":"restaurant"},{"name":"커피에반하다(시흥함송로점)","tel":"031-488-9772","addr":"경기도 시흥시 정왕동 1882-2번지 대림하이츠프라자 104호","indutype":"음식점업 - 커피","category":"restaurant"},{"name":"토마토김밥 오이도역점","tel":"031-319-5259","addr":"경기도 시흥시 정왕동 1882-2번지 대림하이츠프라자 1층 제107호","indutype":"음식점업 - 일반음식","category":"restaurant"}]},{"lat":"37.368662215","long":"126.72969831","imageIndex":4,"items":[{"name":"메가커피 유호N-CITY점","tel":"031-499-8187","addr":"경기도 시흥시 정왕동 2519-1번지 배곧 유호 N-CITY 1차 1층 136호","indutype":"음식점업 - 커피, 카페","category":"restaurant"},{"name":"배부장찌개배곧상업지구점","tel":"031-503-5331","addr":"경기도 시흥시 정왕동 2519-1번지 배곧 유호 N-CITY 1차 1층 129-130호","indutype":"음식점업 - 한식","category":"restaurant"},{"name":"연안식당 배곧점","tel":"","addr":"경기도 시흥시 정왕동 2519-1번지 배곧 유호 N-CITY 1차 123호","indutype":"음식점업 - 한식","category":"restaurant"},{"name":"컴포즈커피시흥배곧신도시점","tel":"031-319-4344","addr":"경기도 시흥시 정왕동 2519-1번지 배곧 유호 N-CITY 1차 1층 126호","indutype":"음식점업 - 카페","category":"restaurant"},{"name":"한끼식탁","tel":"031-319-5904","addr":"경기도 시흥시 정왕동 2519-1번지 배곧 유호 N-CITY 1차 128호","indutype":"음식점업 - 경양식","category":"restaurant"},{"name":"한솥도시락배곧유호엔시티점","tel":"031-488-9870","addr":"경기도 시흥시 정왕동 2519-1번지 배곧 유호 N-CITY 1차 131호","indutype":"음식점업 - 기타음식","category":"restaurant"}]},{"lat":"37.344859259","long":"126.73841794","imageIndex":4,"items":[{"name":"메차쿠차정왕2호점","tel":"","addr":"경기도 시흥시 정왕동 1734-7번지 제일프라자 112호","indutype":"음식점업 - 일반음식점","category":"restaurant"}]},{"lat":"37.361942904","long":"126.73461038","imageIndex":4,"items":[{"name":"멕시카나 정왕베스트점","tel":"031-432-8522","addr":"경기도 시흥시 정왕동 1877-5번지 보성아파트 105호","indutype":"음식점업 - 치킨","category":"restaurant"}]},{"lat":"37.35136476","long":"126.72666851","imageIndex":4,"items":[{"name":"멕시칸 요진점","tel":"031-497-7484","addr":"경기도 시흥시 정왕동 1850번지","indutype":"음식점업 - 치킨","category":"restaurant"},{"name":"빵굼터하우스","tel":"031-497-1080","addr":"경기도 시흥시 정왕동 1850번지 요진아파트 102호","indutype":"음식점업 - 제과","category":"restaurant"}]},{"lat":"37.352057495","long":"126.73803152","imageIndex":4,"items":[{"name":"멕시칸치킨","tel":"031-433-2334","addr":"경기도 시흥시 정왕동 2305-41번지 101호","indutype":"음식점업 - 기타음식점","category":"restaurant"}]},{"lat":"37.341200439","long":"126.75047177","imageIndex":4,"items":[{"name":"멕시칸치킨정왕1점","tel":"031-432-3919","addr":"경기도 시흥시 정왕동 1411-8번지 1층 103호","indutype":"음식점업 - 치킨","category":"restaurant"}]},{"lat":"37.338283524","long":"126.75158741","imageIndex":4,"items":[{"name":"명가","tel":"031-498-2929","addr":"경기도 시흥시 정왕동 1427-15번지","indutype":"음식점업 - 중식","category":"restaurant"}]},{"lat":"37.34378151","long":"126.73595023","imageIndex":4,"items":[{"name":"명가꼬치구이","tel":"031-319-8859","addr":"경기도 시흥시 정왕동 1742-18번지 대원프라자 102호","indutype":"음식점업 - 꼬치구이","category":"restaurant"},{"name":"보드람 치킨 시화점","tel":"031-319-4488","addr":"경기도 시흥시 정왕동 1742-18번지","indutype":"음식점업 - 치킨","category":"restaurant"},{"name":"쉘위정 2020라이브카페","tel":"031-497-7602","addr":"경기도 시흥시 정왕동 1742-18번지 대원프라자 4층 401호","indutype":"음식점업 - 기타음식","category":"restaurant"}]},{"lat":"37.353498257","long":"126.72203313","imageIndex":4,"items":[{"name":"명동보리밥 시화점","tel":"031-497-9700","addr":"경기도 시흥시 정왕동 1857-6번지 청한빌딩 2층","indutype":"음식점업 - 한식","category":"restaurant"},{"name":"어부의밥상","tel":"031-319-9997","addr":"경기도 시흥시 정왕동 1857-6번지 청한빌딩 1층","indutype":"음식점업 - 전복삼합","category":"restaurant"}]},{"lat":"37.344807698","long":"126.68792702","imageIndex":4,"items":[{"name":"명동손칼국수","tel":"031-433-0507","addr":"경기도 시흥시 정왕동 2006-1번지","indutype":"음식점업 - 일반음식점","category":"restaurant"},{"name":"오이도생선구이","tel":"031-434-4354","addr":"경기도 시흥시 정왕동 2006-1번지","indutype":"음식점업 - 한식","category":"restaurant"},{"name":"조개섬","tel":"031-433-4751","addr":"경기도 시흥시 정왕동 2006-1번지","indutype":"음식점업 - 한식","category":"restaurant"}]},{"lat":"37.344776121","long":"126.73750411","imageIndex":4,"items":[{"name":"명동칼국수","tel":"031-431-2113","addr":"경기도 시흥시 정왕동 1738-1번지","indutype":"음식점업 - 음식점","category":"restaurant"},{"name":"샤브린","tel":"031-434-9988","addr":"경기도 시흥시 정왕동 1738-1번지 금정프라자 2층 203호","indutype":"음식점업 - 기타음식","category":"restaurant"},{"name":"신참떡볶이시화로데오점","tel":"031-498-7008","addr":"경기도 시흥시 정왕동 1738-1번지 금정프라자 106호","indutype":"음식점업 - 분식","category":"restaurant"}]},{"lat":"37.342198744","long":"126.68942754","imageIndex":4,"items":[{"name":"명인족발보쌈","tel":"031-434-5022","addr":"경기도 시흥시 정왕동 2024-6번지","indutype":"음식점업 - 한식","category":"restaurant"}]},{"lat":"37.353887649","long":"126.74258496","imageIndex":4,"items":[{"name":"명태식당","tel":"031-432-4445","addr":"경기도 시흥시 정왕동 2306-2번지 1층","indutype":"음식점업 - 한식","category":"restaurant"}]},{"lat":"37.35216644","long":"126.74658635","imageIndex":4,"items":[{"name":"명태장인","tel":"031-497-4488","addr":"경기도 시흥시 정왕동 2315-9번지","indutype":"음식점업 - 한식","category":"restaurant"}]},{"lat":"37.351945279","long":"126.72067324","imageIndex":4,"items":[{"name":"모박사부대찌개 시화2점","tel":"031-498-8903","addr":"경기도 시흥시 정왕동 1852-1번지 1층","indutype":"음식점업 - 한식","category":"restaurant"}]},{"lat":"37.34514198","long":"126.73592285","imageIndex":4,"items":[{"name":"무교동낙지시화점","tel":"031-433-7705","addr":"경기도 시흥시 정왕동 1736-5번지 1019~10호","indutype":"음식점업 - 기타음식","category":"restaurant"},{"name":"청년다방 시흥정왕점","tel":"031-432-0032","addr":"경기도 시흥시 정왕동 1736-5번지 103,104호","indutype":"음식점업 - 일반음식점","category":"restaurant"}]},{"lat":"37.350305339","long":"126.74019335","imageIndex":4,"items":[{"name":"무봉리토종순대국 시화점","tel":"031-319-5589","addr":"경기도 시흥시 정왕동 1802-4번지","indutype":"음식점업 - 한식","category":"restaurant"}]},{"lat":"37.350913135","long":"126.71486463","imageIndex":4,"items":[{"name":"묵자골순대","tel":"031-401-0818","addr":"경기도 시흥시 정왕동 2164-8번지 라성아카데미타워 101,102호","indutype":"음식점업 - 한식","category":"restaurant"}]},{"lat":"37.34113893","long":"126.68731039","imageIndex":4,"items":[{"name":"문성5호 (2호점)","tel":"031-432-0251","addr":"경기도 시흥시 정왕동 2036-17번지","indutype":"음식점업 - 한식","category":"restaurant"}]},{"lat":"37.345476416","long":"126.73242314","imageIndex":4,"items":[{"name":"물회와 막회","tel":"031-319-1112","addr":"경기도 시흥시 정왕동 1731-20번지 명동프라자 1층 114호","indutype":"음식점업 - 한식","category":"restaurant"}]},{"lat":"37.351670128","long":"126.72242368","imageIndex":4,"items":[{"name":"미가낙지&뽈테기","tel":"031-433-4429","addr":"경기도 시흥시 정왕동 1855-20번지 1층 일부","indutype":"음식점업 - 한식","category":"restaurant"}]},{"lat":"37.345746945","long":"126.74052523","imageIndex":4,"items":[{"name":"미미삼겹","tel":"031-497-3398","addr":"경기도 시흥시 정왕동 1611-7번지 1층 일부호","indutype":"음식점업 - 한식, 배달음식","category":"restaurant"},{"name":"정아콩불","tel":"031-497-3398","addr":"경기도 시흥시 정왕동 1611-7번지 1층 일부호","indutype":"음식점업 - 한식","category":"restaurant"}]},{"lat":"37.357804559","long":"126.70702742","imageIndex":4,"items":[{"name":"미소셀프뷔페","tel":"031-312-7478","addr":"경기도 시흥시 정왕동 2580-2번지 배곧로얄팰리스테크노1차 207호","indutype":"음식점업 - 한식","category":"restaurant"},{"name":"커피337","tel":"","addr":"경기도 시흥시 정왕동 2580-2번지 지식산업센터 1층 170호","indutype":"음식점업 - 커피","category":"restaurant"}]},{"lat":"37.349082325","long":"126.74536665","imageIndex":4,"items":[{"name":"미친생고기","tel":"031-509-6692","addr":"경기도 시흥시 정왕동 1819-5번지","indutype":"음식점업 - 음식점","category":"restaurant"}]},{"lat":"37.34538677","long":"126.68883873","imageIndex":4,"items":[{"name":"민혁이네","tel":"031-432-5064","addr":"경기도 시흥시 정왕동 2001-7번지","indutype":"음식점업 - 음식","category":"restaurant"}]},{"lat":"37.361998194","long":"126.7312012","imageIndex":4,"items":[{"name":"바다치킨","tel":"031-499-9959","addr":"경기도 시흥시 정왕동 1876-2번지","indutype":"음식점업 - 기타음식","category":"restaurant"}]},{"lat":"37.346694167","long":"126.7330282","imageIndex":4,"items":[{"name":"바다회포차","tel":"031-432-8708","addr":"경기도 시흥시 정왕동 1728-5번지 유성프라자 101호","indutype":"음식점업 - 한식","category":"restaurant"},{"name":"송가네 홍어","tel":"031-319-2794","addr":"경기도 시흥시 정왕동 1728-5번지","indutype":"음식점업 - 한식","category":"restaurant"},{"name":"영구스 피자","tel":"031-498-0985","addr":"경기도 시흥시 정왕동 1728-5번지","indutype":"음식점업 - 피자전문점","category":"restaurant"},{"name":"한잔비어","tel":"031-319-8810","addr":"경기도 시흥시 정왕동 1728-5번지 유성프라자 102호","indutype":"음식점업 - 치킨, 호프","category":"restaurant"},{"name":"해남 팥 칼국수","tel":"031-432-0863","addr":"경기도 시흥시 정왕동 1728-5번지","indutype":"음식점업 - 한식","category":"restaurant"}]},{"lat":"37.346552473","long":"126.69012045","imageIndex":4,"items":[{"name":"바로구은빵","tel":"031-319-4498","addr":"경기도 시흥시 정왕동 1977-11번지","indutype":"음식점업 - 제과점","category":"restaurant"}]},{"lat":"37.357527028","long":"126.72638632","imageIndex":4,"items":[{"name":"반디북카페(정왕3동 주민자치위원회)","tel":"031-433-3612","addr":"경기도 시흥시 정왕동 1866-1번지","indutype":"음식점업 - 카페","category":"restaurant"}]},{"lat":"37.3747515","long":"126.73295031","imageIndex":4,"items":[{"name":"밥이야기 쏭스핫도그","tel":"031-496-8825","addr":"경기도 시흥시 정왕동 2470번지 아이프라자 1층 101호","indutype":"음식점업 - 핫도그","category":"restaurant"},{"name":"셀렉토 커피 시흥배곧아이프라자점","tel":"031-497-0708","addr":"경기도 시흥시 정왕동 2470번지 아이프라자 110호","indutype":"음식점업 - 커피,음료","category":"restaurant"},{"name":"에이트인꼬끄(8-in-coque)","tel":"031-432-4680","addr":"경기도 시흥시 정왕동 2470번지 아이프라자 1층 102호","indutype":"음식점업 - 마카롱, 커피","category":"restaurant"},{"name":"토닭토닭","tel":"031-433-2233","addr":"경기도 시흥시 정왕동 2470번지 아이프라자 111호","indutype":"음식점업 - 치킨","category":"restaurant"}]},{"lat":"37.363836502","long":"126.73130745","imageIndex":4,"items":[{"name":"방어진회포차","tel":"031-434-1775","addr":"경기도 시흥시 정왕동 1881-5번지 JK학원 107호","indutype":"음식점업 - 기타음식","category":"restaurant"}]},{"lat":"37.340942783","long":"126.68808986","imageIndex":4,"items":[{"name":"방파제횟집","tel":"031-319-4417","addr":"경기도 시흥시 정왕동 2036-11번지","indutype":"음식점업 - 횟집","category":"restaurant"}]},{"lat":"37.346000315","long":"126.73299683","imageIndex":4,"items":[{"name":"배가족발 시화점","tel":"031-497-7100","addr":"경기도 시흥시 정왕동 1731-12번지 시화하나프라자 106호","indutype":"음식점업 - 기타음식","category":"restaurant"},{"name":"임실치즈피자 정왕점","tel":"031-434-8484","addr":"경기도 시흥시 정왕동 1731-12번지 시화하나프라자 103호","indutype":"음식점업 - 기타음식","category":"restaurant"}]},{"lat":"37.371779912","long":"126.72208917","imageIndex":4,"items":[{"name":"배곧마루카페","tel":"","addr":"경기도 시흥시 정왕동 2506번지 1층","indutype":"음식점업 - 카페","category":"restaurant"}]},{"lat":"37.378139092","long":"126.72508002","imageIndex":4,"items":[{"name":"배곧어촌마을","tel":"031-498-1617","addr":"경기도 시흥시 정왕동 2476번지 파크뷰2 1층 116,117호","indutype":"음식점업 - 횟집","category":"restaurant"},{"name":"양콩당","tel":"031-432-6580","addr":"경기도 시흥시 정왕동 2476번지 파크뷰2 2층 205호","indutype":"음식점업 - 레스토랑","category":"restaurant"},{"name":"옥천불난족발","tel":"031-319-7882","addr":"경기도 시흥시 정왕동 2476번지 파크뷰2 1층 118호","indutype":"음식점업 - 한식","category":"restaurant"},{"name":"키키도그","tel":"031-434-7337","addr":"경기도 시흥시 정왕동 2476번지 파크뷰2, 2층 203호","indutype":"음식점업 - 음식점","category":"restaurant"}]},{"lat":"37.336609321","long":"126.74816258","imageIndex":4,"items":[{"name":"배보네생선구이","tel":"031-434-5679","addr":"경기도 시흥시 정왕동 1782-18번지","indutype":"음식점업 - 한식","category":"restaurant"},{"name":"본죽","tel":"031-319-9987","addr":"경기도 시흥시 정왕동 1782-18번지","indutype":"음식점업 - 기타음식","category":"restaurant"}]},{"lat":"37.353663273","long":"126.72322891","imageIndex":4,"items":[{"name":"백년맛교동짬뽕","tel":"031-499-8100","addr":"경기도 시흥시 정왕동 1858-1번지 중앙빌딩 1층","indutype":"음식점업 - 중식","category":"restaurant"},{"name":"세나클","tel":"031-431-0424","addr":"경기도 시흥시 정왕동 1858-1번지 중앙프라자 103호","indutype":"음식점업 - 커피,브런치","category":"restaurant"}]},{"lat":"37.347664962","long":"126.75247031","imageIndex":4,"items":[{"name":"백만불 삼계탕","tel":"031-496-9394","addr":"경기도 시흥시 정왕동 1163-16번지","indutype":"음식점업 - 일반음식","category":"restaurant"}]},{"lat":"37.353557815","long":"126.72435798","imageIndex":4,"items":[{"name":"베베시에로","tel":"031-432-7718","addr":"경기도 시흥시 정왕동 1861-6번지 뉴스타프라자 506,507호","indutype":"음식점업 - 키즈카페","category":"restaurant"},{"name":"빽다방 시흥정왕옥구점","tel":"031-434-1255","addr":"경기도 시흥시 정왕동 1861-6번지 뉴스타프라자 1층 107호","indutype":"음식점업 - 카페","category":"restaurant"},{"name":"아빠분식","tel":"031-433-8842","addr":"경기도 시흥시 정왕동 1861-6번지","indutype":"음식점업 - 분식","category":"restaurant"},{"name":"우막창 돈막창","tel":"031-498-2001","addr":"경기도 시흥시 정왕동 1861-6번지 뉴스터프라자 1층 101호","indutype":"음식점업 - 한식","category":"restaurant"},{"name":"응급실국물떡볶이 시흥정왕점","tel":"031-434-2119","addr":"경기도 시흥시 정왕동 1861-6번지 뉴스타프라자 103호","indutype":"음식점업 - 분식","category":"restaurant"},{"name":"토랑","tel":"031-431-0017","addr":"경기도 시흥시 정왕동 1861-6번지 뉴스타프라자 207호","indutype":"음식점업 - 한식","category":"restaurant"}]},{"lat":"37.346612285","long":"126.68889006","imageIndex":4,"items":[{"name":"별이네조개구이손칼국수","tel":"","addr":"경기도 시흥시 정왕동 1998-1번지","indutype":"음식점업 - 한식","category":"restaurant"}]},{"lat":"37.345388984","long":"126.68967385","imageIndex":4,"items":[{"name":"별일이네김밥","tel":"","addr":"경기도 시흥시 정왕동 1999-7번지","indutype":"음식점업 - 음식점","category":"restaurant"}]},{"lat":"37.345556422","long":"126.73194886","imageIndex":4,"items":[{"name":"보성정가네","tel":"","addr":"경기도 시흥시 정왕동 1731-10번지 화프라자 1층 101호","indutype":"음식점업 - 한식","category":"restaurant"}]},{"lat":"37.354831572","long":"126.72577543","imageIndex":4,"items":[{"name":"보스치킨","tel":"031-433-6885","addr":"경기도 시흥시 정왕동 1867-3번지","indutype":"음식점업 - 기타음식","category":"restaurant"}]},{"lat":"37.346002345","long":"126.73388839","imageIndex":4,"items":[{"name":"본도시락","tel":"","addr":"경기도 시흥시 정왕동 1728-20번지 그라미아빌딩 104호","indutype":"음식점업 - 한식","category":"restaurant"}]},{"lat":"37.347364019","long":"126.73439139","imageIndex":4,"items":[{"name":"본설","tel":"031-433-4990","addr":"경기도 시흥시 정왕동 1726-4번지 한성타운 106~9호","indutype":"음식점업 - 한식","category":"restaurant"},{"name":"제주흑돼지생삽겹","tel":"031-431-8886","addr":"경기도 시흥시 정왕동 1726-4번지 한성타운 115호","indutype":"음식점업 - 한식","category":"restaurant"},{"name":"청수 코다리","tel":"031-433-2008","addr":"경기도 시흥시 정왕동 1726-4번지 한성타운","indutype":"음식점업 - 기타음식점","category":"restaurant"}]},{"lat":"37.357944271","long":"126.75616101","imageIndex":4,"items":[{"name":"봉우재식당","tel":"031-497-4300","addr":"경기도 시흥시 정왕동 2262-11번지","indutype":"음식점업 - 한식","category":"restaurant"}]},{"lat":"37.343554498","long":"126.73517235","imageIndex":4,"items":[{"name":"봉쥬비어","tel":"","addr":"경기도 시흥시 정왕동 1742-10번지","indutype":"음식점업 - 호프","category":"restaurant"}]},{"lat":"37.350308289","long":"126.74152512","imageIndex":4,"items":[{"name":"봉평막국수갈비찜","tel":"031-506-5858","addr":"경기도 시흥시 정왕동 1806-3번지 101호","indutype":"음식점업 - 국수","category":"restaurant"}]},{"lat":"37.377080139","long":"126.72689037","imageIndex":4,"items":[{"name":"부산아지매육개장","tel":"031-498-8290","addr":"경기도 시흥시 정왕동 2477-3번지 102호","indutype":"음식점업 - 한식","category":"restaurant"},{"name":"시간의 선물","tel":"031-432-3566","addr":"경기도 시흥시 정왕동 2477-3번지 2층 206-1호","indutype":"음식점업 - 카페","category":"restaurant"},{"name":"장혁민의 부대찌개","tel":"031-319-0137","addr":"경기도 시흥시 정왕동 2477-3번지 204호","indutype":"음식점업 - 한식(부대찌개)","category":"restaurant"},{"name":"창신동매운족발","tel":"031-499-3077","addr":"경기도 시흥시 정왕동 2477-3번지 103~104호","indutype":"음식점업 - 한식","category":"restaurant"}]},{"lat":"37.336309236","long":"126.74688848","imageIndex":4,"items":[{"name":"북경","tel":"031-431-6333","addr":"경기도 시흥시 정왕동 1782-10번지 , 1~2층","indutype":"음식점업 - 중식","category":"restaurant"},{"name":"한방보신명가","tel":"031-432-5155","addr":"경기도 시흥시 정왕동 1782-10번지","indutype":"음식점업 - 한식","category":"restaurant"}]},{"lat":"37.344058629","long":"126.74305902","imageIndex":4,"items":[{"name":"북깐 앤 전주추어탕","tel":"031-497-5470","addr":"경기도 시흥시 정왕동 1593-6번지 102호","indutype":"음식점업 - 치킨호프,전주추어탕","category":"restaurant"}]},{"lat":"37.347001152","long":"126.73330925","imageIndex":4,"items":[{"name":"불난닭발","tel":"031-431-0037","addr":"경기도 시흥시 정왕동 1728-3번지 한미프라자 104호","indutype":"음식점업 - 기타음식","category":"restaurant"},{"name":"카페몽샤","tel":"","addr":"경기도 시흥시 정왕동 1728-3번지","indutype":"음식점업 - 커피외주류","category":"restaurant"},{"name":"홍어나라","tel":"031-498-8790","addr":"경기도 시흥시 정왕동 1728-3번지 한미프라자","indutype":"음식점업 - 음식","category":"restaurant"}]},{"lat":"37.343440962","long":"126.68898226","imageIndex":4,"items":[{"name":"불난술집 오이도점","tel":"031-504-7711","addr":"경기도 시흥시 정왕동 2010-9번지","indutype":"음식점업 - 기타음식점","category":"restaurant"}]},{"lat":"37.346087784","long":"126.68816996","imageIndex":4,"items":[{"name":"불란서찐빵","tel":"031-431-2261","addr":"경기도 시흥시 정왕동 2003-24번지 1층","indutype":"음식점업 - 기타음식","category":"restaurant"}]},{"lat":"37.346775663","long":"126.6893408","imageIndex":4,"items":[{"name":"불향쭈꾸미","tel":"031-432-2224","addr":"경기도 시흥시 정왕동 1975-8번지 1층","indutype":"음식점업 - 한식","category":"restaurant"}]},{"lat":"37.343998439","long":"126.73625417","imageIndex":4,"items":[{"name":"브레드클럽 시화정왕점","tel":"031-431-2960","addr":"경기도 시흥시 정왕동 1742-12번지 상록프라자 1층 108호","indutype":"음식점업 - 제과제빵","category":"restaurant"},{"name":"통닭5900 시화점","tel":"031-434-5982","addr":"경기도 시흥시 정왕동 1742-12번지 상록프라자 105호","indutype":"음식점업 - 일반음식점","category":"restaurant"}]},{"lat":"37.377966484","long":"126.72833229","imageIndex":4,"items":[{"name":"비스트로어썸(Bistro Awesome)","tel":"","addr":"경기도 시흥시 정왕동 2435-2번지 1층 일부호","indutype":"음식점업 - 양식","category":"restaurant"}]},{"lat":"37.346586606","long":"126.74130102","imageIndex":4,"items":[{"name":"빅스타피자","tel":"031-498-7440","addr":"경기도 시흥시 정왕동 1608-3번지 102호","indutype":"음식점업 - 피자","category":"restaurant"}]},{"lat":"37.351309901","long":"126.74219884","imageIndex":4,"items":[{"name":"빨간떡볶이","tel":"031-319-9133","addr":"경기도 시흥시 정왕동 2327-4번지","indutype":"음식점업 - 음식점","category":"restaurant"}]},{"lat":"37.352999006","long":"126.72428104","imageIndex":4,"items":[{"name":"빨강떡볶이","tel":"","addr":"경기도 시흥시 정왕동 1860-7번지 104호","indutype":"음식점업 - 분식","category":"restaurant"}]},{"lat":"37.351389871","long":"126.74169067","imageIndex":4,"items":[{"name":"빽다방정왕역점","tel":"031-433-7714","addr":"경기도 시흥시 정왕동 2327-2번지 롯데시네마 시화점 104호","indutype":"음식점업 - 커피","category":"restaurant"},{"name":"숯불바베큐","tel":"031-497-9285","addr":"경기도 시흥시 정왕동 2327-2번지 롯데시네마 시화점 108호","indutype":"음식점업 - 호프","category":"restaurant"},{"name":"에스프레소플래닛","tel":"031-432-0998","addr":"경기도 시흥시 정왕동 2327-2번지 롯데시네마 시화점 110호","indutype":"음식점업 - 커피숍","category":"restaurant"}]},{"lat":"37.347057482","long":"126.69028764","imageIndex":4,"items":[{"name":"뼈대있는감자탕","tel":"031-499-6168","addr":"경기도 시흥시 정왕동 1977-6번지","indutype":"음식점업 - 한식","category":"restaurant"}]},{"lat":"37.375831334","long":"126.72458047","imageIndex":4,"items":[{"name":"뽕뜨락피자","tel":"031-497-9082","addr":"경기도 시흥시 정왕동 2483번지 SK뷰 1동 2층 205호","indutype":"음식점업 - 피자","category":"restaurant"}]},{"lat":"37.352387569","long":"126.74468945","imageIndex":4,"items":[{"name":"뽕의전쟁","tel":"031-433-6366","addr":"경기도 시흥시 정왕동 2313-10번지 1층","indutype":"음식점업 - 중식","category":"restaurant"}]},{"lat":"37.347696187","long":"126.73385977","imageIndex":4,"items":[{"name":"사계절김밥","tel":"031-434-3282","addr":"경기도 시흥시 정왕동 1726-2번지 광개토빌딩2 1층 105호","indutype":"음식점업 - 일반음식점","category":"restaurant"},{"name":"원할머니보쌈족발 시흥정왕배달점","tel":"031-499-6935","addr":"경기도 시흥시 정왕동 1726-2번지 광개토빌딩2 1층 101호","indutype":"음식점업 - 한식","category":"restaurant"},{"name":"치어스 시화점","tel":"031-432-2769","addr":"경기도 시흥시 정왕동 1726-2번지 광개토빌딩(정왕대로42) 205호","indutype":"음식점업 - 호프전문점","category":"restaurant"}]},{"lat":"37.345028568","long":"126.74991726","imageIndex":4,"items":[{"name":"사계절면관","tel":"031-319-6268","addr":"경기도 시흥시 정왕동 1200-3번지","indutype":"음식점업 - 한식","category":"restaurant"}]},{"lat":"37.340998313","long":"126.68864259","imageIndex":4,"items":[{"name":"사라굴밥전문점","tel":"031-434-2251","addr":"경기도 시흥시 정왕동 2042-2번지","indutype":"음식점업 - 한식","category":"restaurant"}]},{"lat":"37.346614208","long":"126.73352506","imageIndex":4,"items":[{"name":"사조회참치","tel":"031-498-1369","addr":"경기도 시흥시 정왕동 1728-15번지 1호","indutype":"음식점업 - 횟집","category":"restaurant"}]},{"lat":"37.337417428","long":"126.74686215","imageIndex":4,"items":[{"name":"삼겹살전문점","tel":"","addr":"경기도 시흥시 정왕동 1782-1번지","indutype":"음식점업 - 한식","category":"restaurant"}]},{"lat":"37.377969464","long":"126.72574678","imageIndex":4,"items":[{"name":"삼고깃집","tel":"031-319-2333","addr":"경기도 시흥시 정왕동 2473-2번지 1층 118호","indutype":"음식점업 - 한식","category":"restaurant"},{"name":"아구랑홈밀","tel":"031-520-5518","addr":"경기도 시흥시 정왕동 2473-2번지 그랜드프라자 216호","indutype":"음식점업 - 한식","category":"restaurant"},{"name":"앙플, caf?","tel":"","addr":"경기도 시흥시 정왕동 2473-2번지 4층 404호","indutype":"음식점업 - 쌀디저트","category":"restaurant"},{"name":"이화원","tel":"031-499-2663","addr":"경기도 시흥시 정왕동 2473-2번지 109호","indutype":"음식점업 - 한식","category":"restaurant"},{"name":"카페","tel":"","addr":"경기도 시흥시 정왕동 2473-2번지 그랜드프라자 1층 112호","indutype":"음식점업 - 커피","category":"restaurant"},{"name":"행복한다이닝인배곧","tel":"031-433-5881","addr":"경기도 시흥시 정왕동 2473-2번지 그랜드프라자 3층 303호","indutype":"음식점업 - 양식","category":"restaurant"}]},{"lat":"37.351918967","long":"126.74056019","imageIndex":4,"items":[{"name":"삼국지돼지국밥","tel":"031-498-8935","addr":"경기도 시흥시 정왕동 2302번지 역전프라자 110~111호","indutype":"음식점업 - 한식","category":"restaurant"},{"name":"자금성","tel":"031-498-3969","addr":"경기도 시흥시 정왕동 2302번지 112~113호","indutype":"음식점업 - 중화요리","category":"restaurant"}]},{"lat":"37.347224527","long":"126.74458298","imageIndex":4,"items":[{"name":"삼대 장충동왕족발","tel":"031-497-3300","addr":"경기도 시흥시 정왕동 1838-14번지","indutype":"음식점업 - 한식","category":"restaurant"}]},{"lat":"37.3426672","long":"126.75382983","imageIndex":4,"items":[{"name":"삼삼오오포차","tel":"031-433-5660","addr":"경기도 시흥시 정왕동 1519-1번지","indutype":"음식점업 - 기타음식","category":"restaurant"}]},{"lat":"37.374861319","long":"126.73369505","imageIndex":4,"items":[{"name":"삼식이감자탕","tel":"031-433-7227","addr":"경기도 시흥시 정왕동 2467번지 현대프라자 204호","indutype":"음식점업 - 한식","category":"restaurant"}]},{"lat":"37.344921269","long":"126.6899805","imageIndex":4,"items":[{"name":"삽다리토종순대국","tel":"031-433-4667","addr":"경기도 시흥시 정왕동 1995-6번지 1층","indutype":"음식점업 - 한식","category":"restaurant"}]},{"lat":"37.343339073","long":"126.73553425","imageIndex":4,"items":[{"name":"새마을식당 정왕점","tel":"031-433-7855","addr":"경기도 시흥시 정왕동 1742-21번지","indutype":"음식점업 - 한식","category":"restaurant"},{"name":"참나무 누룽닭","tel":"","addr":"경기도 시흥시 정왕동 1742-21번지","indutype":"음식점업 - 한식","category":"restaurant"},{"name":"포차어게인","tel":"031-498-3690","addr":"경기도 시흥시 정왕동 1742-21번지","indutype":"음식점업 - 호프","category":"restaurant"}]},{"lat":"37.35913442","long":"126.71283531","imageIndex":4,"items":[{"name":"생생삼겹","tel":"031-488-9697","addr":"경기도 시흥시 정왕동 2575번지 시흥배곧신도시 이지더원2차 에듀그린 상가501동 지1층 118호","indutype":"음식점업 - 삼겹살","category":"restaurant"},{"name":"아부찌부대찌개","tel":"","addr":"경기도 시흥시 정왕동 2575번지 시흥배곧신도시 이지더원2차 에듀그린 상가 502동 지1층 122호","indutype":"음식점업 - 부대찌개","category":"restaurant"},{"name":"어부김씨","tel":"031-319-6904","addr":"경기도 시흥시 정왕동 2575번지 시흥배곧신도시이지더원2차에듀그린 501동 115호","indutype":"음식점업 - 일식","category":"restaurant"},{"name":"어부김씨 아구해물찜탕","tel":"031-499-3555","addr":"경기도 시흥시 정왕동 2575번지 시흥배곧신도시 이지더원2차 에듀그린 상가502동 113,114호","indutype":"음식점업 - 한식","category":"restaurant"},{"name":"이지더김밥(이지The김밥)","tel":"031-433-2447","addr":"경기도 시흥시 정왕동 2575번지 시흥배곧신도시이지더원2차에듀그린 502동 106호","indutype":"음식점업 - 일반음식점","category":"restaurant"},{"name":"커피베이배곧한울초교점","tel":"031-520-0063","addr":"경기도 시흥시 정왕동 2575번지 이지더원2차에듀그린 502동 115호","indutype":"음식점업 - 카페","category":"restaurant"},{"name":"한성양꼬치","tel":"031-496-9556","addr":"경기도 시흥시 정왕동 2575번지 시흥배곧신도시 이지더원2차 에듀그린 상가동 502동 123~4호","indutype":"음식점업 - 한식","category":"restaurant"}]},{"lat":"37.344332421","long":"126.73652384","imageIndex":4,"items":[{"name":"생활커피 정왕1호점","tel":"031-431-4111","addr":"경기도 시흥시 정왕동 1737-17번지","indutype":"음식점업 - 커피","category":"restaurant"},{"name":"와르바시","tel":"","addr":"경기도 시흥시 정왕동 1737-17번지 센타프라자 201호","indutype":"음식점업 - 일반음식점","category":"restaurant"},{"name":"유가네닭갈비 정왕점","tel":"031-499-0205","addr":"경기도 시흥시 정왕동 1737-17번지 센타프라자 2층 201호","indutype":"음식점업 - 한식","category":"restaurant"},{"name":"피자마루 정왕1동","tel":"031-431-4422","addr":"경기도 시흥시 정왕동 1737-17번지","indutype":"음식점업 - 일반음식","category":"restaurant"}]},{"lat":"37.347775716","long":"126.68931407","imageIndex":4,"items":[{"name":"샵앤플랫","tel":"031-433-1486","addr":"경기도 시흥시 정왕동 1974-14번지 1층","indutype":"음식점업 - 커피","category":"restaurant"}]},{"lat":"37.336807934","long":"126.72820006","imageIndex":4,"items":[{"name":"서부리감자탕해장국 센트럴병원점","tel":"031-434-0809","addr":"경기도 시흥시 정왕동 1366-11번지","indutype":"음식점업 - 뼈해장국,해장국","category":"restaurant"},{"name":"센트럴한식전문점","tel":"031-434-8053","addr":"경기도 시흥시 정왕동 1366-11번지 b동104호 설렁탕집","indutype":"음식점업 - 한식","category":"restaurant"},{"name":"친구네","tel":"","addr":"경기도 시흥시 정왕동 1366-11번지","indutype":"음식점업 - 분식","category":"restaurant"}]},{"lat":"37.35030589","long":"126.74044165","imageIndex":4,"items":[{"name":"서울냉면","tel":"031-432-9449","addr":"경기도 시흥시 정왕동 1802-6번지","indutype":"음식점업 - 한식","category":"restaurant"}]},{"lat":"37.342172012","long":"126.74558209","imageIndex":4,"items":[{"name":"석수부대찌개","tel":"031-498-3051","addr":"경기도 시흥시 정왕동 1437번지","indutype":"음식점업 - 한식","category":"restaurant"}]},{"lat":"37.348391318","long":"126.74664432","imageIndex":4,"items":[{"name":"선경반점","tel":"031-498-2110","addr":"경기도 시흥시 정왕동 1820-8번지 1층 101~102호","indutype":"음식점업 - 기타음식","category":"restaurant"}]},{"lat":"37.363971963","long":"126.73144242","imageIndex":4,"items":[{"name":"선비촌한방순대국2","tel":"031-496-9431","addr":"경기도 시흥시 정왕동 1881-4번지 월드프라자 105,106호","indutype":"음식점업 - 한식","category":"restaurant"}]},{"lat":"37.341332015","long":"126.74880116","imageIndex":4,"items":[{"name":"선수촌식당","tel":"031-319-1987","addr":"경기도 시흥시 정왕동 1428번지","indutype":"음식점업 - 일반음식점","category":"restaurant"}]},{"lat":"37.35391363","long":"126.72241533","imageIndex":4,"items":[{"name":"선술집모로미(정왕점)","tel":"031-434-2005","addr":"경기도 시흥시 정왕동 1857-2번지 21세기프라자 103호","indutype":"음식점업 - 한식","category":"restaurant"}]},{"lat":"37.33652716","long":"126.74766636","imageIndex":4,"items":[{"name":"선운산풍천장어구이","tel":"031-498-2920","addr":"경기도 시흥시 정왕동 1782-15번지 1층","indutype":"음식점업 - 한식","category":"restaurant"}]},{"lat":"37.349810637","long":"126.74057881","imageIndex":4,"items":[{"name":"세숫대야냉면","tel":"031-319-4644","addr":"경기도 시흥시 정왕동 1803-8번지 1층","indutype":"음식점업 - 냉면","category":"restaurant"}]},{"lat":"37.343976642","long":"126.73458402","imageIndex":4,"items":[{"name":"소담","tel":"031-434-3001","addr":"경기도 시흥시 정왕동 1741-5번지 101호","indutype":"음식점업 - 한식","category":"restaurant"}]},{"lat":"37.348363187","long":"126.74613655","imageIndex":4,"items":[{"name":"소왔쏘 정왕점","tel":"031-433-5293","addr":"경기도 시흥시 정왕동 1822-1번지 구월빌딩 101호","indutype":"음식점업 - 한식","category":"restaurant"}]},{"lat":"37.337583508","long":"126.72850191","imageIndex":4,"items":[{"name":"속초생태찌개","tel":"031-499-9365","addr":"경기도 시흥시 정왕동 1366-14번지 파인힐오피스텔상가 112,113,114호","indutype":"음식점업 - 한식","category":"restaurant"},{"name":"아구나라 양품이찌개","tel":"031-431-6226","addr":"경기도 시흥시 정왕동 1366-14번지 파인힐오피스텔 115호","indutype":"음식점업 - 한식","category":"restaurant"},{"name":"자성화맛집코다리네 정왕점","tel":"041-546-5556","addr":"경기도 시흥시 정왕동 1366-14번지 파인힐오피스텔 105호","indutype":"음식점업 - 한식","category":"restaurant"},{"name":"페리카나 파인힐(공단)점","tel":"031-319-0084","addr":"경기도 시흥시 정왕동 1366-14번지 파인힐오피스텔 120호","indutype":"음식점업 - 치킨","category":"restaurant"},{"name":"황태와 코다리","tel":"031-319-0452","addr":"경기도 시흥시 정왕동 1366-14번지 파인힐오피스텔 104호","indutype":"음식점업 - 한식","category":"restaurant"}]},{"lat":"37.346224679","long":"126.74061385","imageIndex":4,"items":[{"name":"속초집 생선찜구이 조림","tel":"031)-431-2522","addr":"경기도 시흥시 정왕동 1610-1번지 1층","indutype":"음식점업 - 한식","category":"restaurant"},{"name":"착한밥상","tel":"02-433-7300","addr":"경기도 시흥시 정왕동 1610-1번지 102호","indutype":"음식점업 - 한식","category":"restaurant"}]},{"lat":"37.337113334","long":"126.72394477","imageIndex":4,"items":[{"name":"손맛순대국","tel":"031-430-3963","addr":"경기도 시흥시 정왕동 1364번지 시화유통상가 105호","indutype":"음식점업 - 한식","category":"restaurant"}]},{"lat":"37.362527162","long":"126.73005919","imageIndex":4,"items":[{"name":"손미명태항구시화점","tel":"031-432-9295","addr":"경기도 시흥시 정왕동 1882-10번지 동곡빌딩 102호","indutype":"음식점업 - 한식","category":"restaurant"}]},{"lat":"37.343055061","long":"126.75403169","imageIndex":4,"items":[{"name":"송가네 막국수","tel":"","addr":"경기도 시흥시 정왕동 1518-5번지","indutype":"음식점업 - 한식","category":"restaurant"}]},{"lat":"37.347083266","long":"126.74591519","imageIndex":4,"items":[{"name":"송도막창","tel":"031-498-2524","addr":"경기도 시흥시 정왕동 1209-11번지","indutype":"음식점업 - 한식","category":"restaurant"}]},{"lat":"37.344473718","long":"126.75169093","imageIndex":4,"items":[{"name":"송주불냉면","tel":"031-497-7784","addr":"경기도 시흥시 정왕동 1195-11번지","indutype":"음식점업 - 기타음식점","category":"restaurant"}]},{"lat":"37.35211015","long":"126.74555946","imageIndex":4,"items":[{"name":"송화잔기지떡","tel":"031-319-7246","addr":"경기도 시흥시 정왕동 2313-12번지 1층","indutype":"음식점업 - 떡집","category":"restaurant"}]},{"lat":"37.357610027","long":"126.75574447","imageIndex":4,"items":[{"name":"수라면가","tel":"031-497-5977","addr":"경기도 시흥시 정왕동 2262-20번지 1층","indutype":"음식점업 - 한식","category":"restaurant"}]},{"lat":"37.337309722","long":"126.74705435","imageIndex":4,"items":[{"name":"수우미양가","tel":"031-365-3372","addr":"경기도 시흥시 정왕동 1782-2번지 101,103호","indutype":"음식점업 - 한식","category":"restaurant"},{"name":"황태고향낙지골","tel":"031-498-5696","addr":"경기도 시흥시 정왕동 1782-2번지 1층","indutype":"음식점업 - 한식","category":"restaurant"}]},{"lat":"37.341420844","long":"126.7567229","imageIndex":4,"items":[{"name":"승리네떡볶이","tel":"","addr":"경기도 시흥시 정왕동 1540-2번지 1층","indutype":"음식점업 - 분식","category":"restaurant"}]},{"lat":"37.364247552","long":"126.73375554","imageIndex":4,"items":[{"name":"시화동카페","tel":"070-7755-1118","addr":"경기도 시흥시 정왕동 1877-2번지 세종상가 2층 201호","indutype":"음식점업 - 카페","category":"restaurant"}]},{"lat":"37.35291405","long":"126.72264478","imageIndex":4,"items":[{"name":"시화탕탕","tel":"031-433-9001","addr":"경기도 시흥시 정왕동 1859-7번지 1층 103, 104호","indutype":"음식점업 - 한식","category":"restaurant"},{"name":"오군의인생극장","tel":"031-433-4355","addr":"경기도 시흥시 정왕동 1859-7번지 1층","indutype":"음식점업 - 기타음식","category":"restaurant"}]},{"lat":"37.339421568","long":"126.75289264","imageIndex":4,"items":[{"name":"시흥본가숯불뒷고기","tel":"031-432-7002","addr":"경기도 시흥시 정왕동 1420번지 1층 102호 1층","indutype":"음식점업 - 한식","category":"restaurant"}]},{"lat":"37.341195122","long":"126.75649794","imageIndex":4,"items":[{"name":"시흥식당","tel":"031-498-6103","addr":"경기도 시흥시 정왕동 1541-2번지","indutype":"음식점업 - 한식","category":"restaurant"}]},{"lat":"37.345636769","long":"126.73558253","imageIndex":4,"items":[{"name":"시흥정왕점 한신포차","tel":"031-499-4536","addr":"경기도 시흥시 정왕동 1735-2번지","indutype":"음식점업 - 기타음식","category":"restaurant"}]},{"lat":"37.335942452","long":"126.74810841","imageIndex":4,"items":[{"name":"신가네","tel":"031-431-5583","addr":"경기도 시흥시 정왕동 1781-3번지 105~6호","indutype":"음식점업 - 기타음식","category":"restaurant"}]},{"lat":"37.352310068","long":"126.74221795","imageIndex":4,"items":[{"name":"신마포갈매기 정왕역점","tel":"031-432-6092","addr":"경기도 시흥시 정왕동 2321-11번지","indutype":"음식점업 - 한식","category":"restaurant"}]},{"lat":"37.363057478","long":"126.72950415","imageIndex":4,"items":[{"name":"신마포갈매기정왕세종점","tel":"031-319-6092","addr":"경기도 시흥시 정왕동 1884-2번지 1층","indutype":"음식점업 - 한식","category":"restaurant"}]},{"lat":"37.34736242","long":"126.74172719","imageIndex":4,"items":[{"name":"신미짬뽕","tel":"031-497-7892","addr":"경기도 시흥시 정왕동 1600-1번지","indutype":"음식점업 - 기타음식","category":"restaurant"}]},{"lat":"37.351524839","long":"126.74571947","imageIndex":4,"items":[{"name":"신천순대국","tel":"031-497-4241","addr":"경기도 시흥시 정왕동 2317-17번지","indutype":"음식점업 - 한식","category":"restaurant"}]},{"lat":"37.376083849","long":"126.73244877","imageIndex":4,"items":[{"name":"신통치킨","tel":"","addr":"경기도 시흥시 정왕동 2456번지 시흥배곧신도시골드클래스 101호","indutype":"음식점업 - 음식점","category":"restaurant"}]},{"lat":"37.350081389","long":"126.74078102","imageIndex":4,"items":[{"name":"신화장어","tel":"031-494-0933","addr":"경기도 시흥시 정왕동 1803-11번지","indutype":"음식점업 - 한식","category":"restaurant"}]},{"lat":"37.351663255","long":"126.74308925","imageIndex":4,"items":[{"name":"실버카페 다정 정왕역점(시흥시노인종합복지관)","tel":"070-4129-3100","addr":"경기도 시흥시 정왕동 2325-12번지 정왕역 1층","indutype":"음식점업 - 비알콜음료점업","category":"restaurant"}]},{"lat":"37.353637413","long":"126.73146835","imageIndex":4,"items":[{"name":"심봉사 도로케","tel":"031-431-0528","addr":"경기도 시흥시 정왕동 1870-1번지 신우아파트 상가 101호","indutype":"음식점업 - 도너츠,고로케","category":"restaurant"}]},{"lat":"37.344166289","long":"126.7347752","imageIndex":4,"items":[{"name":"쑥이맥주","tel":"031-499-6454","addr":"경기도 시흥시 정왕동 1741-6번지 옥산프라자 101호","indutype":"음식점업 - 호프","category":"restaurant"}]},{"lat":"37.352579875","long":"126.72230743","imageIndex":4,"items":[{"name":"씨앤에프 치킨.호프","tel":"031-433-8080","addr":"경기도 시흥시 정왕동 1855-4번지","indutype":"음식점업 - 치킨.호프","category":"restaurant"}]},{"lat":"37.346747352","long":"126.7326443","imageIndex":4,"items":[{"name":"아로하치킨","tel":"031-488-8295","addr":"경기도 시흥시 정왕동 1728-7번지 진성프라자 102호","indutype":"음식점업 - 치킨","category":"restaurant"}]},{"lat":"37.34550441","long":"126.68903009","imageIndex":4,"items":[{"name":"아방리추어탕해물탕","tel":"","addr":"경기도 시흥시 정왕동 2001-5번지","indutype":"음식점업 - 해물탕","category":"restaurant"}]},{"lat":"37.318448924","long":"126.70017593","imageIndex":4,"items":[{"name":"아침","tel":"","addr":"경기도 시흥시 정왕동 2768-3번지 1층 105~6호","indutype":"음식점업 - 카페","category":"restaurant"}]},{"lat":"37.337643827","long":"126.74739175","imageIndex":4,"items":[{"name":"안동본가국밥","tel":"031-434-9990","addr":"경기도 시흥시 정왕동 1624-10번지 1층","indutype":"음식점업 - 한식","category":"restaurant"}]},{"lat":"37.34785842","long":"126.68992317","imageIndex":4,"items":[{"name":"압구정돈까스","tel":"031-319-3194","addr":"경기도 시흥시 정왕동 1972-13번지","indutype":"음식점업 - 돈가스","category":"restaurant"}]},{"lat":"37.341359039","long":"126.75733249","imageIndex":4,"items":[{"name":"양반옥 설렁탕","tel":"","addr":"경기도 시흥시 정왕동 1539-6번지","indutype":"음식점업 - 기타음식","category":"restaurant"}]},{"lat":"37.352029994","long":"126.72219661","imageIndex":4,"items":[{"name":"양평해장국","tel":"031-497-0909","addr":"경기도 시흥시 정왕동 1855-8번지","indutype":"음식점업 - 한식","category":"restaurant"}]},{"lat":"37.347913882","long":"126.69045338","imageIndex":4,"items":[{"name":"어반 카페 (urban caf?)","tel":"031-312-0745","addr":"경기도 시흥시 정왕동 1972-7번지 1층","indutype":"음식점업 - 기타음식","category":"restaurant"},{"name":"어반카페 (urban caf?)","tel":"","addr":"경기도 시흥시 정왕동 1972-7번지 1층","indutype":"음식점업 - 기타음식","category":"restaurant"}]},{"lat":"37.336701047","long":"126.74891832","imageIndex":4,"items":[{"name":"어부의딸 쭈꾸미,꼼장어","tel":"031-499-9172","addr":"경기도 시흥시 정왕동 1625-10번지","indutype":"음식점업 - 한식","category":"restaurant"},{"name":"얼큰이포차","tel":"031-497-0977","addr":"경기도 시흥시 정왕동 1625-10번지","indutype":"음식점업 - 기타음식","category":"restaurant"}]},{"lat":"37.351497019","long":"126.74125013","imageIndex":4,"items":[{"name":"어울림만두","tel":"","addr":"경기도 시흥시 정왕동 2327-1번지 월드프라자 109호","indutype":"음식점업 - 분식","category":"restaurant"},{"name":"춘천본가닭갈비","tel":"031-493-8885","addr":"경기도 시흥시 정왕동 2327-1번지 월드프라자 113호","indutype":"음식점업 - 음식","category":"restaurant"},{"name":"해민서푸드","tel":"031-315-2072","addr":"경기도 시흥시 정왕동 2327-1번지 월드프라자 1층 109호","indutype":"음식점업 - 한식","category":"restaurant"}]},{"lat":"37.352557675","long":"126.74419225","imageIndex":4,"items":[{"name":"엄마손맛밥상","tel":"031-496-0053","addr":"경기도 시흥시 정왕동 2311-9번지","indutype":"음식점업 - 한식","category":"restaurant"}]},{"lat":"37.357915685","long":"126.75541614","imageIndex":4,"items":[{"name":"엄마손밥상","tel":"031-499-2227","addr":"경기도 시흥시 정왕동 2262-7번지","indutype":"음식점업 - 한식","category":"restaurant"}]},{"lat":"37.351617565","long":"126.71553913","imageIndex":4,"items":[{"name":"엄마의밥상","tel":"031-503-3003","addr":"경기도 시흥시 정왕동 2164-2번지 메가폴리스 A동 106호","indutype":"음식점업 - 한식","category":"restaurant"},{"name":"예담돈까스우동","tel":"031-432-1005","addr":"경기도 시흥시 정왕동 2164-2번지 메가폴리스오피스텔 A동 105호","indutype":"음식점업 - 일반음식점","category":"restaurant"},{"name":"토부리순대국해장국","tel":"031-431-7008","addr":"경기도 시흥시 정왕동 2164-2번지 메가폴리스 A동 114호","indutype":"음식점업 - 한식","category":"restaurant"}]},{"lat":"37.346832169","long":"126.73428043","imageIndex":4,"items":[{"name":"엉클짱왕해물탕","tel":"031-431-0940","addr":"경기도 시흥시 정왕동 1729-1번지","indutype":"음식점업 - 한식","category":"restaurant"}]},{"lat":"37.343886646","long":"126.74682891","imageIndex":4,"items":[{"name":"엘리스제과","tel":"031-319-9872","addr":"경기도 시흥시 정왕동 1583-3번지","indutype":"음식점업 - 제빵","category":"restaurant"}]},{"lat":"37.345282753","long":"126.75080796","imageIndex":4,"items":[{"name":"연길냉면","tel":"031-434-2733","addr":"경기도 시흥시 정왕동 1192-3번지","indutype":"음식점업 - 면류","category":"restaurant"}]},{"lat":"37.352023781","long":"126.74314444","imageIndex":4,"items":[{"name":"옛날부추곱창","tel":"031-497-8011","addr":"경기도 시흥시 정왕동 2322-5번지","indutype":"음식점업 - 한식","category":"restaurant"},{"name":"쪽땡(쪽갈비땡기는날)","tel":"031-496-8592","addr":"경기도 시흥시 정왕동 2322-5번지","indutype":"음식점업 - 한식","category":"restaurant"}]},{"lat":"37.336031726","long":"126.74772445","imageIndex":4,"items":[{"name":"옛수원갈비","tel":"031-498-4393","addr":"경기도 시흥시 정왕동 1781-6번지 1층","indutype":"음식점업 - 한식","category":"restaurant"}]},{"lat":"37.343720066","long":"126.73667271","imageIndex":4,"items":[{"name":"오도로","tel":"031-496-8897","addr":"경기도 시흥시 정왕동 1742-15번지 영남빌딩 201호","indutype":"음식점업 - 한식","category":"restaurant"}]},{"lat":"37.358223889","long":"126.75630683","imageIndex":4,"items":[{"name":"오마니순대국","tel":"031-439-9290","addr":"경기도 시흥시 정왕동 2260-5번지","indutype":"음식점업 - 한식","category":"restaurant"}]},{"lat":"37.345754347","long":"126.75225094","imageIndex":4,"items":[{"name":"오미토종순대국","tel":"031-432-5202","addr":"경기도 시흥시 정왕동 1178번지","indutype":"음식점업 - 한식","category":"restaurant"}]},{"lat":"37.338167021","long":"126.74767209","imageIndex":4,"items":[{"name":"오서방닭개장","tel":"031-431-3118","addr":"경기도 시흥시 정왕동 1623-5번지 104,105호","indutype":"음식점업 - 한식","category":"restaurant"}]},{"lat":"37.347719171","long":"126.69178592","imageIndex":4,"items":[{"name":"오이도 손칼국수","tel":"031-433-5322","addr":"경기도 시흥시 정왕동 1978-6번지","indutype":"음식점업 - 칼국수","category":"restaurant"}]},{"lat":"37.341528886","long":"126.68825669","imageIndex":4,"items":[{"name":"오이도연탄집","tel":"070-8172-1192","addr":"경기도 시흥시 정왕동 2035-8번지 1층","indutype":"음식점업 - 한식.생고기","category":"restaurant"}]},{"lat":"37.34813516","long":"126.68895143","imageIndex":4,"items":[{"name":"오이도옥귀횟집","tel":"031-497-4417","addr":"경기도 시흥시 정왕동 1973-24번지 1,2,3층","indutype":"음식점업 - 일반음식","category":"restaurant"}]},{"lat":"37.347191487","long":"126.69327782","imageIndex":4,"items":[{"name":"오이도전망대카페","tel":"","addr":"경기도 시흥시 정왕동 1089-1번지 1층","indutype":"음식점업 - 카페","category":"restaurant"}]},{"lat":"37.347162436","long":"126.68909091","imageIndex":4,"items":[{"name":"오이도커피집","tel":"070-4046-5253","addr":"경기도 시흥시 정왕동 1974-10번지 우정아트빌 102호","indutype":"음식점업 - 카페","category":"restaurant"}]},{"lat":"37.347976147","long":"126.6901484","imageIndex":4,"items":[{"name":"오이도회조개구이","tel":"031-499-9793","addr":"경기도 시흥시 정왕동 1972-5번지","indutype":"음식점업 - 한식","category":"restaurant"}]},{"lat":"37.34611626","long":"126.73247728","imageIndex":4,"items":[{"name":"오천갈비","tel":"031-319-1927","addr":"경기도 시흥시 정왕동 1731-6번지 이윤프라자 103호","indutype":"음식점업 - 한식","category":"restaurant"},{"name":"월전술사발퓨전대포집","tel":"","addr":"경기도 시흥시 정왕동 1731-6번지 이윤프라자 101호","indutype":"음식점업 - 음식점","category":"restaurant"},{"name":"진미호프","tel":"","addr":"경기도 시흥시 정왕동 1731-6번지 이윤프라자 102호","indutype":"음식점업 - 호프","category":"restaurant"}]},{"lat":"37.351776581","long":"126.74547031","imageIndex":4,"items":[{"name":"오천갈비","tel":"","addr":"경기도 시흥시 정왕동 2317-6번지 101호","indutype":"음식점업 - 한식","category":"restaurant"}]},{"lat":"37.363970692","long":"126.7308893","imageIndex":4,"items":[{"name":"옥이네주물럭","tel":"031-431-8063","addr":"경기도 시흥시 정왕동 1880-11번지 101호 102호","indutype":"음식점업 - 한식","category":"restaurant"},{"name":"행복식당","tel":"","addr":"경기도 시흥시 정왕동 1880-11번지 대명프라자","indutype":"음식점업 - 음식점업","category":"restaurant"}]},{"lat":"37.35250186","long":"126.7433911","imageIndex":4,"items":[{"name":"올리바바양꼬치","tel":"070-8111-1888","addr":"경기도 시흥시 정왕동 2318-1번지 1층 101호","indutype":"음식점업 - 음식점","category":"restaurant"}]},{"lat":"37.345250788","long":"126.73622717","imageIndex":4,"items":[{"name":"완산골명가","tel":"031-434-2609","addr":"경기도 시흥시 정왕동 1736-3번지 한강프라자 103호","indutype":"음식점업 - 음식점","category":"restaurant"}]},{"lat":"37.343609936","long":"126.73578156","imageIndex":4,"items":[{"name":"왕대박포차","tel":"031-434-9866","addr":"경기도 시흥시 정왕동 1742-19번지 대성빌딩 106, 107호","indutype":"음식점업 - 음식점","category":"restaurant"}]},{"lat":"37.341412925","long":"126.68869729","imageIndex":4,"items":[{"name":"용문각","tel":"","addr":"경기도 시흥시 정왕동 2037-8번지","indutype":"음식점업 - 중화요리","category":"restaurant"}]},{"lat":"37.354419529","long":"126.72297779","imageIndex":4,"items":[{"name":"용추골순대","tel":"031-503-5375","addr":"경기도 시흥시 정왕동 1861-1번지 세종월드프라자 119, 120호","indutype":"음식점업 - 한식","category":"restaurant"}]},{"lat":"37.351166794","long":"126.72294472","imageIndex":4,"items":[{"name":"우강","tel":"031-433-0592","addr":"경기도 시흥시 정왕동 1856-4번지 1층","indutype":"음식점업 - 한식","category":"restaurant"},{"name":"우강삼계탕","tel":"031-431-3328","addr":"경기도 시흥시 정왕동 1856-4번지","indutype":"음식점업 - 한식","category":"restaurant"}]},{"lat":"37.344642972","long":"126.69036536","imageIndex":4,"items":[{"name":"우리정육점식당","tel":"031-319-7410","addr":"경기도 시흥시 정왕동 1994-14번지 1층","indutype":"음식점업 - 한식","category":"restaurant"}]},{"lat":"37.335889654","long":"126.74869537","imageIndex":4,"items":[{"name":"우림정","tel":"031-432-6665","addr":"경기도 시흥시 정왕동 1780-3번지","indutype":"음식점업 - 한식","category":"restaurant"},{"name":"힘찬한우 정왕점","tel":"031-433-1118","addr":"경기도 시흥시 정왕동 1780-3번지","indutype":"음식점업 - 한식, 식육","category":"restaurant"}]},{"lat":"37.347029621","long":"126.73394115","imageIndex":4,"items":[{"name":"우사돈","tel":"031-319-7284","addr":"경기도 시흥시 정왕동 1728-12번지 101호","indutype":"음식점업 - 음식","category":"restaurant"}]},{"lat":"37.346529725","long":"126.6883374","imageIndex":4,"items":[{"name":"우정횟집","tel":"031-497-3827","addr":"경기도 시흥시 정왕동 2003-28번지","indutype":"음식점업 - 일식, 한식","category":"restaurant"}]},{"lat":"37.351805599","long":"126.72255861","imageIndex":4,"items":[{"name":"우촌","tel":"031-416-7799","addr":"경기도 시흥시 정왕동 1855-19번지 1,2층","indutype":"음식점업 - 한식","category":"restaurant"}]},{"lat":"37.345972697","long":"126.74075016","imageIndex":4,"items":[{"name":"울진곰치","tel":"031-319-8969","addr":"경기도 시흥시 정왕동 1611-9번지","indutype":"음식점업 - 음식","category":"restaurant"}]},{"lat":"37.342169259","long":"126.68850229","imageIndex":4,"items":[{"name":"원조남도갈비탕","tel":"031-319-0623","addr":"경기도 시흥시 정왕동 2035-1번지","indutype":"음식점업 - 한식","category":"restaurant"}]},{"lat":"37.35236169","long":"126.72917048","imageIndex":4,"items":[{"name":"위드블레싱","tel":"031-431-0098","addr":"경기도 시흥시 정왕동 1868-1번지 주공2단지아파트(상가동) 상가동 105호","indutype":"음식점업 - 카페","category":"restaurant"}]},{"lat":"37.3789724","long":"126.72695118","imageIndex":4,"items":[{"name":"위드센느","tel":"","addr":"경기도 시흥시 정왕동 2428-1번지 101호","indutype":"음식점업 - 디저트,커피","category":"restaurant"}]},{"lat":"37.34533192","long":"126.73227695","imageIndex":4,"items":[{"name":"유명환명품족발","tel":"031-403-4556","addr":"경기도 시흥시 정왕동 1731-21번지 한솔빌딩 105호","indutype":"음식점업 - 족발","category":"restaurant"}]},{"lat":"37.342358619","long":"126.68855793","imageIndex":4,"items":[{"name":"육장갈비","tel":"031-432-4841","addr":"경기도 시흥시 정왕동 2026-10번지","indutype":"음식점업 - 한식","category":"restaurant"}]},{"lat":"37.345719319","long":"126.74850424","imageIndex":4,"items":[{"name":"윤정구리향","tel":"","addr":"경기도 시흥시 정왕동 1203번지 정왕시장 1층 21호","indutype":"음식점업 - 기타음식","category":"restaurant"},{"name":"하루","tel":"031-431-4397","addr":"경기도 시흥시 정왕동 1203번지 정왕시장 204호 일부","indutype":"음식점업 - 커피","category":"restaurant"}]},{"lat":"37.353503016","long":"126.74386169","imageIndex":4,"items":[{"name":"으뜸남도맛집","tel":"031-431-1594","addr":"경기도 시흥시 정왕동 2310-1번지 찬현빌딩 103호","indutype":"음식점업 - 한식","category":"restaurant"}]},{"lat":"37.328781374","long":"126.70641914","imageIndex":4,"items":[{"name":"은경식당","tel":"","addr":"경기도 시흥시 정왕동 2172-4번지 시화공단2바 804호","indutype":"음식점업 - 구내식당","category":"restaurant"}]},{"lat":"37.340672604","long":"126.74802473","imageIndex":4,"items":[{"name":"이가네명태찜","tel":"","addr":"경기도 시흥시 정왕동 1439-6번지","indutype":"음식점업 - 한식","category":"restaurant"}]},{"lat":"37.346919929","long":"126.74127729","imageIndex":4,"items":[{"name":"이디야커피(시흥정왕보건소점)","tel":"031-431-6785","addr":"경기도 시흥시 정왕동 1600-6번지 우촌빌딩 102호","indutype":"음식점업 - 커피","category":"restaurant"},{"name":"태가 매운명태조림","tel":"","addr":"경기도 시흥시 정왕동 1600-6번지","indutype":"음식점업 - 한식","category":"restaurant"}]},{"lat":"37.346642633","long":"126.69014264","imageIndex":4,"items":[{"name":"이맛에산닭","tel":"031-504-5849","addr":"경기도 시흥시 정왕동 1977-10번지 경진빌딩 102호","indutype":"음식점업 - 치킨, 배달","category":"restaurant"}]},{"lat":"37.364359032","long":"126.73128299","imageIndex":4,"items":[{"name":"이바돔감자탕(세종점)","tel":"031-319-0220","addr":"경기도 시흥시 정왕동 1880-8번지","indutype":"음식점업 - 한식","category":"restaurant"}]},{"lat":"37.353836089","long":"126.72391676","imageIndex":4,"items":[{"name":"이삭토스트 시화점","tel":"","addr":"경기도 시흥시 정왕동 1861-4번지 로얄타운 107호","indutype":"음식점업 - 기타음식","category":"restaurant"},{"name":"장충당 시화1호점","tel":"031-499-8185","addr":"경기도 시흥시 정왕동 1861-4번지 로얄타운 104~105호","indutype":"음식점업 - 한식 음식전업","category":"restaurant"},{"name":"피자스쿨 시흥옥구점","tel":"031-431-7575","addr":"경기도 시흥시 정왕동 1861-4번지 로얄타운 106호","indutype":"음식점업 - 피자","category":"restaurant"}]},{"lat":"37.346307377","long":"126.73331173","imageIndex":4,"items":[{"name":"이승철동태집","tel":"031-434-6665","addr":"경기도 시흥시 정왕동 1728-17번지 금성프라자 102호","indutype":"음식점업 - 한식","category":"restaurant"}]},{"lat":"37.351885512","long":"126.72206171","imageIndex":4,"items":[{"name":"이화숯불바베큐","tel":"031-509-1592","addr":"경기도 시흥시 정왕동 1855-9번지","indutype":"음식점업 - 음식","category":"restaurant"}]},{"lat":"37.354829516","long":"126.72109135","imageIndex":4,"items":[{"name":"임가네갈비","tel":"031-497-5779","addr":"경기도 시흥시 정왕동 1863번지 상가동 105호","indutype":"음식점업 - 한식","category":"restaurant"}]},{"lat":"37.336364613","long":"126.74749764","imageIndex":4,"items":[{"name":"장박사부대찌개시화점","tel":"031-433-9909","addr":"경기도 시흥시 정왕동 1782-14번지","indutype":"음식점업 - 한식","category":"restaurant"}]},{"lat":"37.353057756","long":"126.72245238","imageIndex":4,"items":[{"name":"장산도","tel":"031-488-8835","addr":"경기도 시흥시 정왕동 1859-9번지","indutype":"음식점업 - 일식","category":"restaurant"}]},{"lat":"37.340947931","long":"126.69003084","imageIndex":4,"items":[{"name":"장털보한우곰탕","tel":"031-433-6558","addr":"경기도 시흥시 정왕동 2041-7번지 1층","indutype":"음식점업 - 한식","category":"restaurant"}]},{"lat":"37.353276564","long":"126.73522813","imageIndex":4,"items":[{"name":"전설갈비 아주점","tel":"","addr":"경기도 시흥시 정왕동 1394번지","indutype":"음식점업 - 한식","category":"restaurant"}]},{"lat":"37.341057245","long":"126.69048178","imageIndex":4,"items":[{"name":"전주탕집","tel":"","addr":"경기도 시흥시 정왕동 2200-13번지","indutype":"음식점업 - 한식","category":"restaurant"}]},{"lat":"37.345440231","long":"126.6886128","imageIndex":4,"items":[{"name":"정가네회양념","tel":"031-434-1151","addr":"경기도 시흥시 정왕동 2002-6번지 1층 일부호","indutype":"음식점업 - 한식","category":"restaurant"}]},{"lat":"37.350306216","long":"126.74058837","imageIndex":4,"items":[{"name":"정남진한우곰탕","tel":"031-432-4550","addr":"경기도 시흥시 정왕동 1802-7번지","indutype":"음식점업 - 한식","category":"restaurant"}]},{"lat":"37.347170128","long":"126.6885943","imageIndex":4,"items":[{"name":"정동진분점","tel":"","addr":"경기도 시흥시 정왕동 1973-15번지","indutype":"음식점업 - 한식","category":"restaurant"},{"name":"주식회사 정동진","tel":"031-497-0895","addr":"경기도 시흥시 정왕동 1973-15번지","indutype":"음식점업 - 한식","category":"restaurant"}]},{"lat":"37.382135429","long":"126.73500139","imageIndex":4,"items":[{"name":"정든한우소머리국밥","tel":"031-496-0098","addr":"경기도 시흥시 정왕동 2393-1번지 스타플렉스 104호","indutype":"음식점업 - 음식","category":"restaurant"}]},{"lat":"37.352613977","long":"126.74521914","imageIndex":4,"items":[{"name":"정왕동뽀글이","tel":"031-431-5655","addr":"경기도 시흥시 정왕동 2312-3번지 102호","indutype":"음식점업 - 음식점","category":"restaurant"}]},{"lat":"37.352640236","long":"126.72116725","imageIndex":4,"items":[{"name":"정왕돼지집(가야해장국)","tel":"031-497-0068","addr":"경기도 시흥시 정왕동 1853-5번지","indutype":"음식점업 - 한식","category":"restaurant"}]},{"lat":"37.345834907","long":"126.73158672","imageIndex":4,"items":[{"name":"정정아식당 정왕점","tel":"031-496-9870","addr":"경기도 시흥시 정왕동 1730-4번지 1층","indutype":"음식점업 - 한식","category":"restaurant"}]},{"lat":"37.345552628","long":"126.69022616","imageIndex":4,"items":[{"name":"제주 처녀꿀돼지","tel":"","addr":"경기도 시흥시 정왕동 1996-8번지","indutype":"음식점업 - 한식","category":"restaurant"}]},{"lat":"37.347386518","long":"126.68864983","imageIndex":4,"items":[{"name":"조개천사","tel":"031-499-7228","addr":"경기도 시흥시 정왕동 1973-17번지","indutype":"음식점업 - 기타음식","category":"restaurant"}]},{"lat":"37.377887607","long":"126.72541966","imageIndex":4,"items":[{"name":"조선우","tel":"031-432-1001","addr":"경기도 시흥시 정왕동 2476-1번지 파크뷰 1층 113호 114호","indutype":"음식점업 - 한식","category":"restaurant"},{"name":"태영생막창","tel":"031-432-9595","addr":"경기도 시흥시 정왕동 2476-1번지 파크뷰 1층 102,103호","indutype":"음식점업 - 음식점","category":"restaurant"}]},{"lat":"37.351781132","long":"126.72364221","imageIndex":4,"items":[{"name":"족꾼","tel":"031-499-3214","addr":"경기도 시흥시 정왕동 1855-16번지","indutype":"음식점업 - 한식","category":"restaurant"}]},{"lat":"37.35030799","long":"126.74138969","imageIndex":4,"items":[{"name":"종가대박집","tel":"","addr":"경기도 시흥시 정왕동 1806-2번지","indutype":"음식점업 - 한식","category":"restaurant"}]},{"lat":"37.346143338","long":"126.74050128","imageIndex":4,"items":[{"name":"종가집","tel":"031-497-2024","addr":"경기도 시흥시 정왕동 1610-2번지","indutype":"음식점업 - 한식","category":"restaurant"}]},{"lat":"37.351083591","long":"126.72205341","imageIndex":4,"items":[{"name":"주식회사 늘봄가","tel":"031-433-4577","addr":"경기도 시흥시 정왕동 1852-5번지 , 2~4층","indutype":"음식점업 - 한식","category":"restaurant"}]},{"lat":"37.346616542","long":"126.73455205","imageIndex":4,"items":[{"name":"진 1926 시화점","tel":"031-433-1926","addr":"경기도 시흥시 정왕동 1729-2번지 그린프라자 1층 101호","indutype":"음식점업 - 한식","category":"restaurant"},{"name":"천년학이 우렁먹는날","tel":"031-319-7933","addr":"경기도 시흥시 정왕동 1729-2번지 그린프라자 102호","indutype":"음식점업 - 기타음식점","category":"restaurant"}]},{"lat":"37.350307066","long":"126.7409721","imageIndex":4,"items":[{"name":"진골감자탕","tel":"031-321-1543","addr":"경기도 시흥시 정왕동 1802-10번지","indutype":"음식점업 - 한식","category":"restaurant"}]},{"lat":"37.342000214","long":"126.74947601","imageIndex":4,"items":[{"name":"찐짜루","tel":"031-499-0858","addr":"경기도 시흥시 정왕동 1566-5번지","indutype":"음식점업 - 중화요리","category":"restaurant"}]},{"lat":"37.352525513","long":"126.74185603","imageIndex":4,"items":[{"name":"참맛숯불갈비","tel":"031-497-2380","addr":"경기도 시흥시 정왕동 2320-4번지","indutype":"음식점업 - 한식","category":"restaurant"}]},{"lat":"37.344972428","long":"126.74894689","imageIndex":4,"items":[{"name":"참쇠구이","tel":"031-498-7832","addr":"경기도 시흥시 정왕동 1201-9번지 1층","indutype":"음식점업 - 한식","category":"restaurant"}]},{"lat":"37.340306583","long":"126.74960583","imageIndex":4,"items":[{"name":"참이맛감자탕","tel":"031-499-3259","addr":"경기도 시흥시 정왕동 1413-9번지","indutype":"음식점업 - 한식","category":"restaurant"}]},{"lat":"37.348942239","long":"126.74310991","imageIndex":4,"items":[{"name":"찹쌀스마일꽈배기","tel":"031-488-9898","addr":"경기도 시흥시 정왕동 1827-6번지","indutype":"음식점업 - 기타음식","category":"restaurant"}]},{"lat":"37.353330372","long":"126.71964097","imageIndex":4,"items":[{"name":"처갓집양념치킨 3호","tel":"031-433-1457","addr":"경기도 시흥시 정왕동 1862번지 동남아파트 1층 110호","indutype":"음식점업 - 치킨","category":"restaurant"}]},{"lat":"37.346585644","long":"126.68903688","imageIndex":4,"items":[{"name":"천룡양꼬치","tel":"031-434-6911","addr":"경기도 시흥시 정왕동 1998-2번지","indutype":"음식점업 - 기타음식","category":"restaurant"}]},{"lat":"37.342972535","long":"126.73681077","imageIndex":4,"items":[{"name":"철판세상","tel":"","addr":"경기도 시흥시 정왕동 1744-5번지 정인빌딩 102호","indutype":"음식점업 - 한식","category":"restaurant"}]},{"lat":"37.347469734","long":"126.69287039","imageIndex":4,"items":[{"name":"첫번째키친","tel":"031-497-4668","addr":"경기도 시흥시 정왕동 1985-3번지 2층 일부","indutype":"음식점업 - 기타음식","category":"restaurant"}]},{"lat":"37.363692082","long":"126.73119509","imageIndex":4,"items":[{"name":"청춘핫도그","tel":"","addr":"경기도 시흥시 정왕동 1881-6번지 다나의원 102호","indutype":"음식점업 - 기타음식","category":"restaurant"}]},{"lat":"37.353807105","long":"126.74283355","imageIndex":4,"items":[{"name":"촌가 추어탕","tel":"031-319-7988","addr":"경기도 시흥시 정왕동 2307-1번지","indutype":"음식점업 - 한식","category":"restaurant"}]},{"lat":"37.340080872","long":"126.74939218","imageIndex":4,"items":[{"name":"최가네 양평해장국","tel":"031-431-4317","addr":"경기도 시흥시 정왕동 1413-7번지","indutype":"음식점업 - 한식","category":"restaurant"}]},{"lat":"37.361665718","long":"126.72769183","imageIndex":4,"items":[{"name":"카페 선","tel":"","addr":"경기도 시흥시 정왕동 1886-3번지 서해 상가 1층","indutype":"음식점업 - 휴게음식업,카페","category":"restaurant"}]},{"lat":"37.350024685","long":"126.74367049","imageIndex":4,"items":[{"name":"카페글렌 정왕점","tel":"031-497-5020","addr":"경기도 시흥시 정왕동 1811-7번지 1층 일부호","indutype":"음식점업 - 카페","category":"restaurant"}]},{"lat":"37.349891928","long":"126.74066881","imageIndex":4,"items":[{"name":"카페로터스","tel":"031-506-7151","addr":"경기도 시흥시 정왕동 1803-9번지","indutype":"음식점업 - 휴게음식,커피","category":"restaurant"}]},{"lat":"37.341831468","long":"126.68684481","imageIndex":4,"items":[{"name":"카페바이탈","tel":"031-319-5250","addr":"경기도 시흥시 정왕동 2031-7번지 1층","indutype":"음식점업 - 한식","category":"restaurant"}]},{"lat":"37.343585347","long":"126.73686504","imageIndex":4,"items":[{"name":"카페별","tel":"","addr":"경기도 시흥시 정왕동 1742-16번지 1층","indutype":"음식점업 - 커피","category":"restaurant"}]},{"lat":"37.328195131","long":"126.73250766","imageIndex":4,"items":[{"name":"카페스퀘어원","tel":"031-8085-8680","addr":"경기도 시흥시 정왕동 1287-5번지 보성스퀘어원지식산업센터 127호","indutype":"음식점업 - 카페","category":"restaurant"},{"name":"테이스트하우스(진성푸드트럭)","tel":"031-315-3667","addr":"경기도 시흥시 정왕동 1287-5번지 보성스퀘어원 지식산업센터 425호","indutype":"음식점업 - 커피, 음료,푸드트럭","category":"restaurant"}]},{"lat":"37.347781499","long":"126.69150351","imageIndex":4,"items":[{"name":"커피몽","tel":"","addr":"경기도 시흥시 정왕동 1978-4번지 1층","indutype":"음식점업 - 커피","category":"restaurant"}]},{"lat":"37.346281991","long":"126.7340341","imageIndex":4,"items":[{"name":"커피뷰","tel":"070-4221-2272","addr":"경기도 시흥시 정왕동 1729-5번지","indutype":"음식점업 - 카페","category":"restaurant"}]},{"lat":"37.352863536","long":"126.7241461","imageIndex":4,"items":[{"name":"커피브라운","tel":"031-319-8336","addr":"경기도 시흥시 정왕동 1860-6번지 화병원 103호","indutype":"음식점업 - 커피전문점","category":"restaurant"}]},{"lat":"37.347052847","long":"126.68853836","imageIndex":4,"items":[{"name":"커피하우스 (오이도점)","tel":"031-498-2197","addr":"경기도 시흥시 정왕동 1973-14번지","indutype":"음식점업 - 커피,음료","category":"restaurant"}]},{"lat":"37.369418745","long":"126.72956009","imageIndex":4,"items":[{"name":"콩꼬물꽈배기","tel":"031-498-8848","addr":"경기도 시흥시 정왕동 2518번지 다인로얄팰리스배곧1차 107호","indutype":"음식점업 - 콩꼬물꽈배기","category":"restaurant"}]},{"lat":"37.352141135","long":"126.74324561","imageIndex":4,"items":[{"name":"쿨","tel":"031-498-9920","addr":"경기도 시흥시 정왕동 2322-1번지","indutype":"음식점업 - 호프","category":"restaurant"}]},{"lat":"37.352115302","long":"126.72397956","imageIndex":4,"items":[{"name":"큰맘할매순대국","tel":"031-319-7020","addr":"경기도 시흥시 정왕동 1859-21번지 1층 103호","indutype":"음식점업 - 한식","category":"restaurant"}]},{"lat":"37.340885905","long":"126.69042607","imageIndex":4,"items":[{"name":"큰손 오리농장","tel":"031-431-6477","addr":"경기도 시흥시 정왕동 2200-14번지 , 1, 2층","indutype":"음식점업 - 한식","category":"restaurant"}]},{"lat":"37.347693238","long":"126.6922036","imageIndex":4,"items":[{"name":"큰손조개구이칼국수","tel":"031-431-2989","addr":"경기도 시흥시 정왕동 1978-8번지","indutype":"음식점업 - 칼국수","category":"restaurant"}]},{"lat":"37.345837813","long":"126.74497144","imageIndex":4,"items":[{"name":"태백칡냉면","tel":"031-498-7182","addr":"경기도 시흥시 정왕동 1575-11번지","indutype":"음식점업 - 기타음식","category":"restaurant"}]},{"lat":"37.347582625","long":"126.69125604","imageIndex":4,"items":[{"name":"토담골순대국","tel":"","addr":"경기도 시흥시 정왕동 1979-3번지","indutype":"음식점업 - 한식","category":"restaurant"}]},{"lat":"37.342031433","long":"126.7514395","imageIndex":4,"items":[{"name":"토담찌개마을","tel":"031-432-5078","addr":"경기도 시흥시 정왕동 1498-1번지 1층 102호","indutype":"음식점업 - 한식","category":"restaurant"}]},{"lat":"37.377723528","long":"126.72846866","imageIndex":4,"items":[{"name":"토모루제과점","tel":"031-433-0459","addr":"경기도 시흥시 정왕동 2441-3번지","indutype":"음식점업 - 제과","category":"restaurant"}]},{"lat":"37.344698887","long":"126.68766791","imageIndex":4,"items":[{"name":"통큰동호네","tel":"031-319-6853","addr":"경기도 시흥시 정왕동 2006-20번지","indutype":"음식점업 - 기타음식","category":"restaurant"}]},{"lat":"37.35224732","long":"126.74236489","imageIndex":4,"items":[{"name":"팔도실비집 정왕역점","tel":"031-319-3882","addr":"경기도 시흥시 정왕동 2321-10번지","indutype":"음식점업 - 한식","category":"restaurant"}]},{"lat":"37.341641503","long":"126.68656348","imageIndex":4,"items":[{"name":"팔도회센타","tel":"031-498-4677","addr":"경기도 시흥시 정왕동 2031-16번지","indutype":"음식점업 - 일식","category":"restaurant"}]},{"lat":"37.34330336","long":"126.73969862","imageIndex":4,"items":[{"name":"페리카나 금강점","tel":"031-433-2992","addr":"경기도 시흥시 정왕동 1789번지","indutype":"음식점업 - 기타음식점","category":"restaurant"}]},{"lat":"37.358080645","long":"126.72425097","imageIndex":4,"items":[{"name":"페리카나 시화3점","tel":"031-432-1113","addr":"경기도 시흥시 정왕동 1865번지 한일아파트 주상가 108호","indutype":"음식점업 - 기타음식점","category":"restaurant"}]},{"lat":"37.343721917","long":"126.73749653","imageIndex":4,"items":[{"name":"평양즉석왕족발","tel":"031-497-0337","addr":"경기도 시흥시 정왕동 1739-7번지 이송빌딩 1층 106호","indutype":"음식점업 - 한식","category":"restaurant"},{"name":"푸딩김밥","tel":"031-498-5033","addr":"경기도 시흥시 정왕동 1739-7번지","indutype":"음식점업 - 일반음식점","category":"restaurant"}]},{"lat":"37.35266353","long":"126.72339063","imageIndex":4,"items":[{"name":"폭풍갈비","tel":"","addr":"경기도 시흥시 정왕동 1859-16번지 102호","indutype":"음식점업 - 한식","category":"restaurant"}]},{"lat":"37.353664282","long":"126.74344353","imageIndex":4,"items":[{"name":"푸짐한밥상","tel":"","addr":"경기도 시흥시 정왕동 2308-1번지","indutype":"음식점업 - 한식","category":"restaurant"}]},{"lat":"37.347918679","long":"126.68886204","imageIndex":4,"items":[{"name":"풍차횟집","tel":"031-499-8259","addr":"경기도 시흥시 정왕동 1973-22번지","indutype":"음식점업 - 일식","category":"restaurant"}]},{"lat":"37.337529394","long":"126.7486447","imageIndex":4,"items":[{"name":"플젠","tel":"031-497-1616","addr":"경기도 시흥시 정왕동 1625-2번지 신원레이크빌","indutype":"음식점업 - 호프","category":"restaurant"}]},{"lat":"37.34952918","long":"126.74369477","imageIndex":4,"items":[{"name":"피자샵","tel":"031-434-6999","addr":"경기도 시흥시 정왕동 1813-5번지","indutype":"음식점업 - 음식점","category":"restaurant"}]},{"lat":"37.362662625","long":"126.73019416","imageIndex":4,"items":[{"name":"한솥도시락 시화세종점","tel":"031-434-9494","addr":"경기도 시흥시 정왕동 1882-8번지 신도빌딩 106호","indutype":"음식점업 - 한식","category":"restaurant"}]},{"lat":"37.350310429","long":"126.74249574","imageIndex":4,"items":[{"name":"한아름전주콩나물국밥","tel":"031-434-2321","addr":"경기도 시흥시 정왕동 1806-10번지 1층","indutype":"음식점업 - 한식","category":"restaurant"}]},{"lat":"37.352361784","long":"126.72152946","imageIndex":4,"items":[{"name":"한우모리","tel":"031-431-2580","addr":"경기도 시흥시 정왕동 1854-7번지","indutype":"음식점업 - 한식","category":"restaurant"}]},{"lat":"37.353198846","long":"126.72496879","imageIndex":4,"items":[{"name":"한촌설렁탕","tel":"031-434-9598","addr":"경기도 시흥시 정왕동 1861-8번지 트윈프라자 B동 134,135호","indutype":"음식점업 - 한식","category":"restaurant"}]},{"lat":"37.339809964","long":"126.74911098","imageIndex":4,"items":[{"name":"할멈병천순대","tel":"031-431-5933","addr":"경기도 시흥시 정왕동 1416-15번지","indutype":"음식점업 - 한식","category":"restaurant"}]},{"lat":"37.341058501","long":"126.68755899","imageIndex":4,"items":[{"name":"해군본부","tel":"031-433-8279","addr":"경기도 시흥시 정왕동 2036-15번지","indutype":"음식점업 - 일반음식점","category":"restaurant"}]},{"lat":"37.355223416","long":"126.70533322","imageIndex":4,"items":[{"name":"해넘이","tel":"031-497-7245","addr":"경기도 시흥시 정왕동 2590번지","indutype":"음식점업 - 음식점","category":"restaurant"}]},{"lat":"37.344420333","long":"126.73555298","imageIndex":4,"items":[{"name":"해물잔치","tel":"031-432-9644","addr":"경기도 시흥시 정왕동 1742-4번지","indutype":"음식점업 - 한식","category":"restaurant"}]},{"lat":"37.34800264","long":"126.68994514","imageIndex":4,"items":[{"name":"해상공원회집","tel":"031-431-2694","addr":"경기도 시흥시 정왕동 1972-4번지","indutype":"음식점업 - 일식","category":"restaurant"}]},{"lat":"37.343223673","long":"126.68858818","imageIndex":4,"items":[{"name":"해우돈","tel":"031-507-6670","addr":"경기도 시흥시 정왕동 2027-1번지 1층","indutype":"음식점업 - 한식","category":"restaurant"}]},{"lat":"37.362804622","long":"126.72925673","imageIndex":4,"items":[{"name":"해전옥","tel":"","addr":"경기도 시흥시 정왕동 1884-4번지 한창프라자 103호","indutype":"음식점업 - 음식","category":"restaurant"}]},{"lat":"37.353223406","long":"126.72391903","imageIndex":4,"items":[{"name":"핵스테이크","tel":"031-431-2221","addr":"경기도 시흥시 정왕동 1859-12번지","indutype":"음식점업 - 기타음식점","category":"restaurant"}]},{"lat":"37.352527725","long":"126.74286054","imageIndex":4,"items":[{"name":"호남집","tel":"","addr":"경기도 시흥시 정왕동 2319-9번지 1층","indutype":"음식점업 - 음식점","category":"restaurant"}]},{"lat":"37.344999243","long":"126.73655534","imageIndex":4,"items":[{"name":"홍루이젠 시흥정왕점","tel":"031-8032-7914","addr":"경기도 시흥시 정왕동 1737-3번지 금강프라자 1층 101호","indutype":"음식점업 - 샌드위피 및 음료","category":"restaurant"}]},{"lat":"37.344753866","long":"126.74372247","imageIndex":4,"items":[{"name":"홍성한우촌식당","tel":"031-505-7284","addr":"경기도 시흥시 정왕동 1593번지 1층","indutype":"음식점업 - 한식","category":"restaurant"}]},{"lat":"37.345309254","long":"126.75055959","imageIndex":4,"items":[{"name":"화룡소탕집","tel":"","addr":"경기도 시흥시 정왕동 1192-7번지","indutype":"음식점업 - 한식","category":"restaurant"}]},{"lat":"37.347334121","long":"126.72152565","imageIndex":4,"items":[{"name":"화인그늘집","tel":"031-319-7892","addr":"경기도 시흥시 정왕동 2166-1번지","indutype":"음식점업 - 음식점업","category":"restaurant"}]},{"lat":"37.342197904","long":"126.74922708","imageIndex":4,"items":[{"name":"황소꼼장어","tel":"031-431-8913","addr":"경기도 시흥시 정왕동 1565-4번지","indutype":"음식점업 - 음식점","category":"restaurant"}]},{"lat":"37.349501358","long":"126.74333371","imageIndex":4,"items":[{"name":"후라이드참잘하는집 (정왕점)","tel":"031-499-3633","addr":"경기도 시흥시 정왕동 1809-3번지 102호","indutype":"음식점업 - 기타음식","category":"restaurant"}]},{"lat":"37.354140938","long":"126.73897229","imageIndex":4,"items":[{"name":"후레쉬초이스","tel":"031-365-5161","addr":"경기도 시흥시 정왕동 2293-2번지 1층","indutype":"음식점업 - 한식","category":"restaurant"}]},{"lat":"37.349641331","long":"126.7294738","imageIndex":4,"items":[{"name":"후루룩즉석떡볶이","tel":"031-432-2006","addr":"경기도 시흥시 정왕동 1849-6번지 세종아파트","indutype":"음식점업 - 기타음식점","category":"restaurant"}]},{"lat":"37.339811125","long":"126.7454773","imageIndex":4,"items":[{"name":"훌랄라바베큐치킨","tel":"","addr":"경기도 시흥시 정왕동 1785-1번지 건영아파트 1층 108호","indutype":"음식점업 - 기타음식점","category":"restaurant"}]},{"lat":"37.3361695","long":"126.74894268","imageIndex":4,"items":[{"name":"훌랄라참숯바베큐","tel":"","addr":"경기도 시흥시 정왕동 1780-1번지 은성빌딩 102호","indutype":"음식점업 - 기타음식","category":"restaurant"}]}]