[{"lat":"36.990861648","long":"127.26978862","imageIndex":9,"items":[{"name":"(주)경기에너지","tel":"031-673-0021","addr":"경기도 안성시 계동 65번지","indutype":"연료판매점 - 주유소","category":"oil"},{"name":"(주)씨엔씨네트윅스","tel":"041-557-7716","addr":"경기도 안성시 계동 65번지","indutype":"연료판매점 - 유류판매","category":"oil"},{"name":"뉴타운주유소","tel":"031-465-5182","addr":"경기도 안성시 계동 65번지 안성뉴타운주유소","indutype":"연료판매점 - 주유소","category":"oil"}]},{"lat":"36.982168691","long":"127.26468153","imageIndex":9,"items":[{"name":"(주)세종광유두꺼비주유소","tel":"031-671-1070","addr":"경기도 안성시 계동 203-20,206,-6,산37-4,47-3","indutype":"연료판매점 - 주유소","category":"oil"},{"name":"경유버스보조금_두꺼비주유소","tel":"031-671-1070","addr":"경기도 안성시 계동 203-20번지","indutype":"연료판매점 - 쌍용S-OIL","category":"oil"},{"name":"두꺼비주유소","tel":"031-671-1070","addr":"경기도 안성시 계동 203-20번지","indutype":"연료판매점 - 쌍용S-OIL","category":"oil"}]},{"lat":"36.987277263","long":"127.26895613","imageIndex":9,"items":[{"name":"(주)필앤유 오케이주유소","tel":"031-677-6527","addr":"경기도 안성시 계동 168-5번지","indutype":"연료판매점 - SK주유소","category":"oil"}]},{"lat":"36.990971264","long":"127.26912625","imageIndex":9,"items":[{"name":"VIP주유소/(주)케이엘페트로 안성지점","tel":"031-676-1382","addr":"경기도 안성시 계동 76-9번지","indutype":"연료판매점 - GS주유소","category":"oil"},{"name":"vip주유소","tel":"031-673-5151","addr":"경기도 안성시 계동 76-9번지","indutype":"연료판매점 - 주유소","category":"oil"}]},{"lat":"36.990557027","long":"127.26901248","imageIndex":9,"items":[{"name":"계동충전소","tel":"031-677-2179","addr":"경기도 안성시 계동 76-3번지 외1필지","indutype":"연료판매점 - LPG 취급점","category":"oil"},{"name":"주식회사계동에너지","tel":"031-677-2179","addr":"경기도 안성시 계동 76-3번지","indutype":"연료판매점 - SK가스충전소","category":"oil"}]},{"lat":"36.989133526","long":"127.26892889","imageIndex":9,"items":[{"name":"계림주유소","tel":"031-675-3293","addr":"경기도 안성시 계동 88번지","indutype":"연료판매점 - 현대정유(오일뱅크)","category":"oil"}]},{"lat":"36.988304184","long":"127.26503954","imageIndex":9,"items":[{"name":"안성종합가스","tel":"031-675-5333","addr":"경기도 안성시 계동 123번지","indutype":"연료판매점 - LPG 취급점","category":"oil"}]},{"lat":"36.994276013","long":"127.27009262","imageIndex":9,"items":[{"name":"우리가스충전소","tel":"031-674-7363","addr":"경기도 안성시 계동 3번지","indutype":"연료판매점 - 현대정유 가스충전소","category":"oil"}]},{"lat":"36.991942543","long":"127.26996089","imageIndex":9,"items":[{"name":"한일크린에너지(주)","tel":"031-677-3120","addr":"경기도 안성시 계동 5,6","indutype":"연료판매점 - 현대정유 가스충전소","category":"oil"}]}]