[{"lat":"37.333197917","long":"126.86399032","imageIndex":13,"items":[{"name":"14일의약속","tel":"031-406-1409","addr":"경기도 안산시 상록구 부곡동 533-1번지","indutype":"보건위생 - 미용재료","category":"beauty"},{"name":"부곡불가마","tel":"031-409-5551","addr":"경기도 안산시 상록구 부곡동 533-1번지","indutype":"보건위생 - 사우나","category":"beauty"},{"name":"부곡불가마사우나","tel":"031-409-5551","addr":"경기도 안산시 상록구 부곡동 533-1,533-2","indutype":"보건위생 - 사우나","category":"beauty"}]},{"lat":"37.3331979174","long":"126.8639903243","imageIndex":13,"items":[{"name":"14일의약속","tel":"031-406-1409","addr":"경기도 안산시 상록구 부곡동 533-1번지","indutype":"도매 및 소매업 - 미용기구","category":"beauty"}]},{"lat":"37.332142772","long":"126.86317985","imageIndex":13,"items":[{"name":"20세기김태연헤어짱","tel":"031-417-3343","addr":"경기도 안산시 상록구 부곡동 538-4번지 서광빌딩 1층","indutype":"보건위생 - 미용원","category":"beauty"},{"name":"나리네일","tel":"070-7568-8597","addr":"경기도 안산시 상록구 부곡동 538-4번지 서광빌딩 107호","indutype":"보건위생 - 피부미용실","category":"beauty"}]},{"lat":"37.330952508","long":"126.8624035","imageIndex":13,"items":[{"name":"가휘헤어샵&샵","tel":"031-814-6659","addr":"경기도 안산시 상록구 부곡동 627-12번지 1층","indutype":"보건위생 - 미용원","category":"beauty"}]},{"lat":"37.324614718","long":"126.85938032","imageIndex":13,"items":[{"name":"기분전환헤어샵","tel":"031-417-9285","addr":"경기도 안산시 상록구 부곡동 692-3번지 1층","indutype":"보건위생 - 미용원","category":"beauty"},{"name":"제이뷰티살롱","tel":"031-407-6018","addr":"경기도 안산시 상록구 부곡동 692-3번지 101호","indutype":"보건위생 - 미용원","category":"beauty"}]},{"lat":"37.322731591","long":"126.8593839","imageIndex":13,"items":[{"name":"까끌레뽀끌레","tel":"031-413-0232","addr":"경기도 안산시 상록구 부곡동 695-11,1층","indutype":"보건위생 - 미용원","category":"beauty"}]},{"lat":"37.333063188","long":"126.86435165","imageIndex":13,"items":[{"name":"내손에피어나","tel":"031-438-1163","addr":"경기도 안산시 상록구 부곡동 533-4번지 부곡시장 114,115호","indutype":"보건위생 - 미용원","category":"beauty"},{"name":"뷰티챠밍","tel":"031-409-7077","addr":"경기도 안산시 상록구 부곡동 533-4번지 부곡시장 302호","indutype":"보건위생 - 화장품","category":"beauty"}]},{"lat":"37.334090373","long":"126.86437233","imageIndex":13,"items":[{"name":"네일에반하다","tel":"","addr":"경기도 안산시 상록구 부곡동 643-13번지 102호","indutype":"보건위생 - 피부미용실","category":"beauty"},{"name":"헤어존","tel":"031-438-4009","addr":"경기도 안산시 상록구 부곡동 643-13번지 1층","indutype":"보건위생 - 미용원","category":"beauty"}]},{"lat":"37.333280604","long":"126.86535551","imageIndex":13,"items":[{"name":"노랑머리","tel":"031-438-2022","addr":"경기도 안산시 상록구 부곡동 640-13번지 102호","indutype":"보건위생 - 미용원","category":"beauty"}]},{"lat":"37.335525328","long":"126.85878407","imageIndex":13,"items":[{"name":"대명사","tel":"031-407-1678","addr":"경기도 안산시 상록구 부곡동 725-21번지 한라하이츠빌라 나동 B01호","indutype":"보건위생 - 기타대인서비스","category":"beauty"}]},{"lat":"37.334561392","long":"126.85891004","imageIndex":13,"items":[{"name":"대성헤어칼라","tel":"031-411-8769","addr":"경기도 안산시 상록구 부곡동 728-7번지","indutype":"보건위생 - 미용원","category":"beauty"}]},{"lat":"37.336639803","long":"126.85651381","imageIndex":13,"items":[{"name":"더헤어","tel":"031-487-9787","addr":"경기도 안산시 상록구 부곡동 717번지","indutype":"보건위생 - 미용원","category":"beauty"}]},{"lat":"37.335389473","long":"126.85820885","imageIndex":13,"items":[{"name":"라라헤어","tel":"031-403-2255","addr":"경기도 안산시 상록구 부곡동 727-17번지 1층","indutype":"보건위생 - 미용원","category":"beauty"}]},{"lat":"37.321585939","long":"126.85826916","imageIndex":13,"items":[{"name":"마임(안산 한대지사)","tel":"031-406-9232","addr":"경기도 안산시 상록구 부곡동 704-10번지 302호","indutype":"보건위생 - 화장품","category":"beauty"}]},{"lat":"37.33373119","long":"126.85787351","imageIndex":13,"items":[{"name":"매일좋은날헤어샵","tel":"031-000-0000","addr":"경기도 안산시 상록구 부곡동 734-6번지 102호","indutype":"보건위생 - 미용원","category":"beauty"}]},{"lat":"37.324308973","long":"126.85987732","imageIndex":13,"items":[{"name":"머리사랑","tel":"031-408-2456","addr":"경기도 안산시 상록구 부곡동 606-8번지 1층","indutype":"보건위생 - 미용원","category":"beauty"}]},{"lat":"37.334063896","long":"126.8648463","imageIndex":13,"items":[{"name":"모델미용실","tel":"031-406-1010","addr":"경기도 안산시 상록구 부곡동 642번지 진우아트빌 1층","indutype":"보건위생 - 미용원","category":"beauty"}]},{"lat":"37.334756383","long":"126.86373921","imageIndex":13,"items":[{"name":"미강","tel":"031-494-6800","addr":"경기도 안산시 상록구 부곡동 658-15번지 동부빌라 102호","indutype":"보건위생 - 의료용품","category":"beauty"}]},{"lat":"37.3246147179","long":"126.8593803156","imageIndex":13,"items":[{"name":"미녀는개로워","tel":"","addr":"경기도 안산시 상록구 부곡동 692-3번지","indutype":"도매 및 소매업 - 동물미용업, 애견","category":"beauty"}]},{"lat":"37.333809625","long":"126.86315419","imageIndex":13,"items":[{"name":"미소","tel":"031-407-6033","addr":"경기도 안산시 상록구 부곡동 661-11번지 101호","indutype":"보건위생 - 미용원","category":"beauty"}]},{"lat":"37.334370232","long":"126.85731937","imageIndex":13,"items":[{"name":"민피부사랑","tel":"031-403-6528","addr":"경기도 안산시 상록구 부곡동 733-11번지 103호","indutype":"보건위생 - 피부미용실","category":"beauty"},{"name":"순헤어 화장품 잡화","tel":"031-481-8926","addr":"경기도 안산시 상록구 부곡동 733-11번지 1층 103호","indutype":"보건위생 - 화장품","category":"beauty"}]},{"lat":"37.333585487","long":"126.86410245","imageIndex":13,"items":[{"name":"박현진헤어창작공간","tel":"031-487-6649","addr":"경기도 안산시 상록구 부곡동 643-9번지 1층 103호","indutype":"보건위생 - 미용원","category":"beauty"}]},{"lat":"37.332557546","long":"126.8634386","imageIndex":13,"items":[{"name":"밝은안경원","tel":"070-5088-3251","addr":"경기도 안산시 상록구 부곡동 538-6번지 1층 4호, 5호","indutype":"보건위생 - 안경","category":"beauty"},{"name":"헤어락","tel":"031-408-9928","addr":"경기도 안산시 상록구 부곡동 538-6번지","indutype":"보건위생 - 미용원","category":"beauty"}]},{"lat":"37.332452179","long":"126.86579708","imageIndex":13,"items":[{"name":"버르장머리미용실","tel":"031-417-1634","addr":"경기도 안산시 상록구 부곡동 537-8번지 1층","indutype":"보건위생 - 미용원","category":"beauty"}]},{"lat":"37.332926002","long":"126.8626255","imageIndex":13,"items":[{"name":"보그헤어","tel":"031-417-3144","addr":"경기도 안산시 상록구 부곡동 665-9번지","indutype":"보건위생 - 미용원","category":"beauty"}]},{"lat":"37.32745423","long":"126.86045807","imageIndex":13,"items":[{"name":"샘헤어","tel":"031-407-2220","addr":"경기도 안산시 상록구 부곡동 619-9번지 1층","indutype":"보건위생 - 미용원","category":"beauty"}]},{"lat":"37.3363695596","long":"126.8640409058","imageIndex":13,"items":[{"name":"소중하개 사랑하개","tel":"031-506-9943","addr":"경기도 안산시 상록구 부곡동 654-10번지","indutype":"도매 및 소매업 - 애견용품,애견미용","category":"beauty"}]},{"lat":"37.334000343","long":"126.85693643","imageIndex":13,"items":[{"name":"스타일바이쥴리 (style by julie)","tel":"031-402-4892","addr":"경기도 안산시 상록구 부곡동 734-17번지 102호","indutype":"보건위생 - 미용원","category":"beauty"}]},{"lat":"37.334417092","long":"126.85879748","imageIndex":13,"items":[{"name":"슬로미헤어샵","tel":"031-482-2575","addr":"경기도 안산시 상록구 부곡동 728-8번지 103호","indutype":"보건위생 - 미용원","category":"beauty"}]},{"lat":"37.334784657","long":"126.86479985","imageIndex":13,"items":[{"name":"신데렐라 헤어팜","tel":"070-8114-6366","addr":"경기도 안산시 상록구 부곡동 644-11번지 103호","indutype":"보건위생 - 미용원","category":"beauty"}]},{"lat":"37.336723183","long":"126.85837555","imageIndex":13,"items":[{"name":"안산제일복지재단빛과둥지","tel":"031-405-0957","addr":"경기도 안산시 상록구 부곡동 714-11번지","indutype":"보건위생 - 화장품","category":"beauty"}]},{"lat":"37.328869802","long":"126.86126778","imageIndex":13,"items":[{"name":"언니야네일","tel":"031-415-0441","addr":"경기도 안산시 상록구 부곡동 622-15번지 1층 2호","indutype":"보건위생 - 피부미용실","category":"beauty"}]},{"lat":"37.333973149","long":"126.86429356","imageIndex":13,"items":[{"name":"엘샤론","tel":"031-234-6126","addr":"경기도 안산시 상록구 부곡동 643-12번지 103호","indutype":"보건위생 - 이용원","category":"beauty"}]},{"lat":"37.329446857","long":"126.8616052","imageIndex":13,"items":[{"name":"엠헤어","tel":"031-419-1580","addr":"경기도 안산시 상록구 부곡동 623-9번지 103호","indutype":"보건위생 - 미용원","category":"beauty"}]},{"lat":"37.327895566","long":"126.86032184","imageIndex":13,"items":[{"name":"여기서헤어","tel":"031-501-1314","addr":"경기도 안산시 상록구 부곡동 682-8번지 1층 102호","indutype":"보건위생 - 미용원","category":"beauty"}]},{"lat":"37.331963273","long":"126.86377821","imageIndex":13,"items":[{"name":"여성의도시2","tel":"031-408-9965","addr":"경기도 안산시 상록구 부곡동 539-7번지 삼성파크빌 B동 102호","indutype":"보건위생 - 미용원","category":"beauty"}]},{"lat":"37.332728991","long":"126.86365268","imageIndex":13,"items":[{"name":"오케이","tel":"070-9148-1124","addr":"경기도 안산시 상록구 부곡동 538번지 부곡프라자 305호","indutype":"보건위생 - 미용재료","category":"beauty"},{"name":"피카소안경","tel":"031-416-1245","addr":"경기도 안산시 상록구 부곡동 538번지 부곡프라자 107호","indutype":"보건위생 - 안경","category":"beauty"},{"name":"헤어토크","tel":"031-409-8694","addr":"경기도 안산시 상록구 부곡동 538번지 부곡프라자 1층 109호","indutype":"보건위생 - 미용원","category":"beauty"}]},{"lat":"37.332585293","long":"126.86404787","imageIndex":13,"items":[{"name":"오케이헤어샵","tel":"032-415-4357","addr":"경기도 안산시 상록구 부곡동 539번지 부곡쇼핑 201호","indutype":"보건위생 - 미용원","category":"beauty"}]},{"lat":"37.335361662","long":"126.86510346","imageIndex":13,"items":[{"name":"유정아머리박사","tel":"031-501-7883","addr":"경기도 안산시 상록구 부곡동 647-17번지 1층","indutype":"보건위생 - 미용원","category":"beauty"}]},{"lat":"37.33336862","long":"126.86357251","imageIndex":13,"items":[{"name":"유준헤어샵","tel":"031-501-4213","addr":"경기도 안산시 상록구 부곡동 662-4번지","indutype":"보건위생 - 미용원","category":"beauty"}]},{"lat":"37.334505565","long":"126.8574658","imageIndex":13,"items":[{"name":"윤헤어뷰티","tel":"031-484-4396","addr":"경기도 안산시 상록구 부곡동 733-12번지 102호","indutype":"보건위생 - 미용재료","category":"beauty"},{"name":"윤헤어비스","tel":"031-484-4396","addr":"경기도 안산시 상록구 부곡동 733-12번지 101호","indutype":"보건위생 - 미용원","category":"beauty"}]},{"lat":"37.334531752","long":"126.86426997","imageIndex":13,"items":[{"name":"은혜헤어라인","tel":"031-487-9559","addr":"경기도 안산시 상록구 부곡동 657-10번지","indutype":"보건위생 - 미용원","category":"beauty"}]},{"lat":"37.324588084","long":"126.85970756","imageIndex":13,"items":[{"name":"이기가머리하는곳","tel":"031-417-4678","addr":"경기도 안산시 상록구 부곡동 606-10번지","indutype":"보건위생 - 미용원","category":"beauty"}]},{"lat":"37.333668298","long":"126.85802032","imageIndex":13,"items":[{"name":"이레코스","tel":"031-411-8177","addr":"경기도 안산시 상록구 부곡동 734-7번지","indutype":"보건위생 - 화장품","category":"beauty"}]},{"lat":"37.334532174","long":"126.86463105","imageIndex":13,"items":[{"name":"이안헤어","tel":"031-419-1397","addr":"경기도 안산시 상록구 부곡동 644-9번지 상가 1층 2호","indutype":"보건위생 - 미용원","category":"beauty"}]},{"lat":"37.332200143","long":"126.86601192","imageIndex":13,"items":[{"name":"이은경헤어샵","tel":"031-418-8766","addr":"경기도 안산시 상록구 부곡동 536-10번지 106호","indutype":"보건위생 - 미용원","category":"beauty"}]},{"lat":"37.335389243","long":"126.86557734","imageIndex":13,"items":[{"name":"조은이헤어라인","tel":"031-417-0325","addr":"경기도 안산시 상록구 부곡동 647-3번지","indutype":"보건위생 - 미용원","category":"beauty"}]},{"lat":"37.325784791","long":"126.85835137","imageIndex":13,"items":[{"name":"주식회사케이넌코리아","tel":"031-418-5315","addr":"경기도 안산시 상록구 부곡동 686-1번지 광산빌딩 2층","indutype":"보건위생 - 의료용품","category":"beauty"}]},{"lat":"37.334000885","long":"126.8573765","imageIndex":13,"items":[{"name":"진선미미용실","tel":"031-414-8754","addr":"경기도 안산시 상록구 부곡동 734-2번지","indutype":"보건위생 - 미용원","category":"beauty"}]},{"lat":"37.324785911","long":"126.85937999","imageIndex":13,"items":[{"name":"초콜릿헤어","tel":"031-407-0593","addr":"경기도 안산시 상록구 부곡동 692-2번지","indutype":"보건위생 - 미용원","category":"beauty"},{"name":"행복한미용실","tel":"031-000-0000","addr":"경기도 안산시 상록구 부곡동 692-2번지 101호","indutype":"보건위생 - 미용원","category":"beauty"}]},{"lat":"37.326146953","long":"126.85979486","imageIndex":13,"items":[{"name":"커트보이","tel":"031-406-8400","addr":"경기도 안산시 상록구 부곡동 613-8번지 1층 일부","indutype":"보건위생 - 미용원","category":"beauty"}]},{"lat":"37.324921064","long":"126.85937973","imageIndex":13,"items":[{"name":"퀸헤어샵","tel":"031-416-9370","addr":"경기도 안산시 상록구 부곡동 692-1번지 1층 102호","indutype":"보건위생 - 미용원","category":"beauty"}]},{"lat":"37.330084478","long":"126.85985509","imageIndex":13,"items":[{"name":"클린팜","tel":"070-8187-1373","addr":"경기도 안산시 상록구 부곡동 679번지 102,103호","indutype":"보건위생 - 의료용품","category":"beauty"}]},{"lat":"37.333172062","long":"126.86499462","imageIndex":13,"items":[{"name":"태후사랑","tel":"031-415-0066","addr":"경기도 안산시 상록구 부곡동 641-6번지","indutype":"보건위생 - 화장품","category":"beauty"}]},{"lat":"37.333197294","long":"126.86345999","imageIndex":13,"items":[{"name":"토리헤어","tel":"031-407-9701","addr":"경기도 안산시 상록구 부곡동 662-5번지 2층","indutype":"보건위생 - 미용원","category":"beauty"}]},{"lat":"37.332861844","long":"126.86171164","imageIndex":13,"items":[{"name":"파마쟁이","tel":"031-111-1111","addr":"경기도 안산시 상록구 부곡동 667-14번지 1층","indutype":"보건위생 - 미용원","category":"beauty"}]},{"lat":"37.331700459","long":"126.86249237","imageIndex":13,"items":[{"name":"한국불교토속금강종정심사","tel":"031-438-5030","addr":"경기도 안산시 상록구 부곡동 670-1번지","indutype":"보건위생 - 기타대인서비스","category":"beauty"},{"name":"현아네일(Hyun a-Nail)","tel":"031-417-4112","addr":"경기도 안산시 상록구 부곡동 670-1번지 1층","indutype":"보건위생 - 피부미용실","category":"beauty"}]},{"lat":"37.322532613","long":"126.85876376","imageIndex":13,"items":[{"name":"헤어닥터미용실","tel":"","addr":"경기도 안산시 상록구 부곡동 695-16번지 1층","indutype":"보건위생 - 미용원","category":"beauty"}]},{"lat":"37.327309973","long":"126.86037936","imageIndex":13,"items":[{"name":"헤어머리꾼","tel":"031-418-6179","addr":"경기도 안산시 상록구 부곡동 619-8번지 1층","indutype":"보건위생 - 미용원","category":"beauty"}]},{"lat":"37.327147259","long":"126.85993964","imageIndex":13,"items":[{"name":"헤어사랑","tel":"031-406-3640","addr":"경기도 안산시 상록구 부곡동 684-4번지 103호","indutype":"보건위생 - 미용원","category":"beauty"}]},{"lat":"37.335812812","long":"126.85809519","imageIndex":13,"items":[{"name":"헤어스타일","tel":"031-405-7797","addr":"경기도 안산시 상록구 부곡동 715-5번지 101호","indutype":"보건위생 - 미용원","category":"beauty"}]},{"lat":"37.327534928","long":"126.86013072","imageIndex":13,"items":[{"name":"헤어아트","tel":"031-417-3433","addr":"경기도 안산시 상록구 부곡동 684-2번지 103호","indutype":"보건위생 - 미용원","category":"beauty"}]},{"lat":"37.324308768","long":"126.85970809","imageIndex":13,"items":[{"name":"헤어일번지","tel":"031-416-1151","addr":"경기도 안산시 상록구 부곡동 606-9번지 1층","indutype":"보건위생 - 미용원","category":"beauty"}]},{"lat":"37.333088319","long":"126.86273803","imageIndex":13,"items":[{"name":"헤어탤런트샵","tel":"031-408-5833","addr":"경기도 안산시 상록구 부곡동 665번지 근린상가 102호","indutype":"보건위생 - 미용원","category":"beauty"}]},{"lat":"37.325173745","long":"126.85970645","imageIndex":13,"items":[{"name":"헤어피카소","tel":"031-419-1530","addr":"경기도 안산시 상록구 부곡동 612-9번지 102호","indutype":"보건위생 - 미용원","category":"beauty"}]}]