[{"lat":"37.282053292","long":"127.44670849","imageIndex":0,"items":[{"name":"(주)보성자동차공업사","tel":"031-635-7890","addr":"경기도 이천시 창전동 146-1 146-2 146-8","indutype":"자동차정비 유지 - 자동차정비","category":"car"}]},{"lat":"37.283076583","long":"127.45013118","imageIndex":0,"items":[{"name":"2000모터스","tel":"031-634-5249","addr":"경기도 이천시 창전동 453-38번지 1층","indutype":"자동차판매 - 이륜차판매","category":"car"}]},{"lat":"37.283967043","long":"127.44815181","imageIndex":0,"items":[{"name":"경기오토바이","tel":"031-633-5780","addr":"경기도 이천시 창전동 450번지","indutype":"자동차판매 - 이륜차판매","category":"car"}]},{"lat":"37.280717796","long":"127.44963236","imageIndex":0,"items":[{"name":"고려자동차공업사","tel":"031-635-5066","addr":"경기도 이천시 창전동 458-21번지","indutype":"자동차정비 유지 - 자동차정비","category":"car"}]},{"lat":"37.287108109","long":"127.44668179","imageIndex":0,"items":[{"name":"기적상사","tel":"031-634-3258","addr":"경기도 이천시 창전동 442-1번지 1층","indutype":"자동차정비 유지 - 자동차부품","category":"car"}]},{"lat":"37.28512912","long":"127.44821504","imageIndex":0,"items":[{"name":"대림오토바이 이천대리점","tel":"031-635-3341","addr":"경기도 이천시 창전동 445-28번지","indutype":"자동차판매 - 이륜차판매","category":"car"},{"name":"혼다모터사이클이천점","tel":"031-638-3341","addr":"경기도 이천시 창전동 445-28번지","indutype":"자동차판매 - 이륜차판매","category":"car"}]},{"lat":"37.27962882","long":"127.44929893","imageIndex":0,"items":[{"name":"덕평만물","tel":"031-633-3713","addr":"경기도 이천시 창전동 466-1현대연립B-305,13/","indutype":"자동차정비 유지 - 자동차부품","category":"car"}]},{"lat":"37.279803243","long":"127.44604129","imageIndex":0,"items":[{"name":"도예밧데리","tel":"031-637-2777","addr":"경기도 이천시 창전동 167-1번지 오구은광빌딩 204-2호","indutype":"자동차정비 유지 - 자동차부품","category":"car"}]},{"lat":"37.281605823","long":"127.45068627","imageIndex":0,"items":[{"name":"두두자동차공업사","tel":"031-638-9911","addr":"경기도 이천시 창전동 454-10번지","indutype":"자동차정비 유지 - 자동차정비","category":"car"}]},{"lat":"37.279851559","long":"127.44996551","imageIndex":0,"items":[{"name":"르노삼성자동차지정정비코너이천점","tel":"031-635-5033","addr":"경기도 이천시 창전동 461-22번지","indutype":"자동차정비 유지 - 세차장","category":"car"}]},{"lat":"37.28557401","long":"127.44970617","imageIndex":0,"items":[{"name":"삼성공업사","tel":"031-636-7144","addr":"경기도 이천시 창전동 444-8번지","indutype":"자동차정비 유지 - 카인테리어","category":"car"}]},{"lat":"37.280381193","long":"127.44809686","imageIndex":0,"items":[{"name":"삼원주차장/(주)도예","tel":"031-635-2525","addr":"경기도 이천시 창전동 462번지","indutype":"자동차정비 유지 - 주차장","category":"car"}]},{"lat":"37.284577728","long":"127.4486854","imageIndex":0,"items":[{"name":"스피드","tel":"","addr":"경기도 이천시 창전동 448-11번지 크리스탈타운 나동 303호","indutype":"자동차정비 유지 - 자동차부품","category":"car"}]},{"lat":"37.28654794","long":"127.44948639","imageIndex":0,"items":[{"name":"오토랩샤인","tel":"031-694-2711","addr":"경기도 이천시 창전동 443-35번지 1층","indutype":"자동차정비 유지 - 카인테리어","category":"car"}]},{"lat":"37.285970109","long":"127.44979872","imageIndex":0,"items":[{"name":"이천 블랙박스","tel":"031-632-4815","addr":"경기도 이천시 창전동 444-5번지","indutype":"자동차정비 유지 - 자동차부품","category":"car"}]},{"lat":"37.285107571","long":"127.43948692","imageIndex":0,"items":[{"name":"제트바이크","tel":"031-632-7122","addr":"경기도 이천시 창전동 412-27번지","indutype":"자동차판매 - 이륜차판매","category":"car"}]},{"lat":"37.281407273","long":"127.44356999","imageIndex":0,"items":[{"name":"지인주차장","tel":"070-4763-5091","addr":"경기도 이천시 창전동 150-11번지 추새로메디칼빌딩 내지하주차장","indutype":"자동차정비 유지 - 주차장","category":"car"}]},{"lat":"37.284350264","long":"127.4444667","imageIndex":0,"items":[{"name":"창전카모터스","tel":"031-694-2322","addr":"경기도 이천시 창전동 428-5번지","indutype":"자동차정비 유지 - 자동차정비","category":"car"}]},{"lat":"37.283134195","long":"127.44679377","imageIndex":0,"items":[{"name":"타이어프로이천점","tel":"031-638-2110","addr":"경기도 이천시 창전동 142-2번지","indutype":"자동차정비 유지 - 자동차시트·타이어","category":"car"}]},{"lat":"37.282330414","long":"127.44968699","imageIndex":0,"items":[{"name":"한강세차장","tel":"031-637-2500","addr":"경기도 이천시 창전동 455-19번지","indutype":"자동차정비 유지 - 세차장","category":"car"}]},{"lat":"37.282330967","long":"127.44954041","imageIndex":0,"items":[{"name":"한강카프라자","tel":"031-637-2500","addr":"경기도 이천시 창전동 455-6번지","indutype":"자동차정비 유지 - 자동차정비","category":"car"}]},{"lat":"37.279519466","long":"127.44962528","imageIndex":0,"items":[{"name":"현대카차유리","tel":"031-633-4238","addr":"경기도 이천시 창전동 466-3번지","indutype":"자동차정비 유지 - 자동차정비","category":"car"}]}]