[{"lat":"37.834942006","long":"126.9752664","imageIndex":4,"items":[{"name":"(주)란싸와디명타이","tel":"031-836-1117","addr":"경기도 양주시 광적면 석우리 464-24","indutype":"일반휴게음식 - 일반한식","category":"restaurant"}]},{"lat":"37.840804593","long":"126.96599394","imageIndex":4,"items":[{"name":"7856부대","tel":"031-855-3054","addr":"경기도 양주시 광적면 석우리 701-7번지","indutype":"일반휴게음식 - 서양음식","category":"restaurant"}]},{"lat":"37.827222418","long":"126.98257283","imageIndex":4,"items":[{"name":"BBQ양주광적점","tel":"031-837-9291","addr":"경기도 양주시 광적면 석우리 714-4번지 동성빌딩 102호","indutype":"일반휴게음식 - 일반한식","category":"restaurant"},{"name":"숯겹살집","tel":"031-855-6698","addr":"경기도 양주시 광적면 석우리 714-4번지 동성빌딩","indutype":"일반휴게음식 - 일반한식","category":"restaurant"},{"name":"한가람","tel":"","addr":"경기도 양주시 광적면 석우리 714-4번지 동성빌딩 1층 101호","indutype":"일반휴게음식 - 일반한식","category":"restaurant"}]},{"lat":"37.826528449","long":"126.98121","imageIndex":4,"items":[{"name":"가래비대구뽈찜","tel":"031-836-1321","addr":"경기도 양주시 광적면 석우리 716-3번지","indutype":"일반휴게음식 - 일반한식","category":"restaurant"},{"name":"신(  )쭈꾸123","tel":"031-855-0990","addr":"경기도 양주시 광적면 석우리 716-3번지 1층","indutype":"일반휴게음식 - 일반한식","category":"restaurant"}]},{"lat":"37.828915839","long":"126.98063001","imageIndex":4,"items":[{"name":"곁두리농가까페","tel":"031-498-6087","addr":"경기도 양주시 광적면 석우리 392번지 1층","indutype":"일반휴게음식 - 일반한식","category":"restaurant"},{"name":"원두막메기메운탕","tel":"031-855-1812","addr":"경기도 양주시 광적면 석우리 392번지 B동 1층","indutype":"일반휴게음식 - 일반한식","category":"restaurant"}]},{"lat":"37.828168035","long":"126.98051664","imageIndex":4,"items":[{"name":"김가네찌개맛집","tel":"031-877-6246","addr":"경기도 양주시 광적면 석우리 711-1번지","indutype":"일반휴게음식 - 서양음식","category":"restaurant"}]},{"lat":"37.827006118","long":"126.98215262","imageIndex":4,"items":[{"name":"남원추어탕(가래비점)","tel":"031-836-7676","addr":"경기도 양주시 광적면 석우리 715-1번지 당성빌딩 103호","indutype":"일반휴게음식 - 일반한식","category":"restaurant"},{"name":"어수정국수집(광적점)","tel":"031-856-8639","addr":"경기도 양주시 광적면 석우리 715-1번지 101호","indutype":"일반휴게음식 - 일반한식","category":"restaurant"}]},{"lat":"37.826834759","long":"126.98115312","imageIndex":4,"items":[{"name":"대패삼겹살전문","tel":"031-878-0291","addr":"경기도 양주시 광적면 석우리 716-1번지","indutype":"일반휴게음식 - 일반한식","category":"restaurant"}]},{"lat":"37.827393587","long":"126.98251599","imageIndex":4,"items":[{"name":"도리돈","tel":"031-877-7782","addr":"경기도 양주시 광적면 석우리 714-2번지 1층","indutype":"일반휴게음식 - 일반한식","category":"restaurant"}]},{"lat":"37.831527967","long":"126.97763039","imageIndex":4,"items":[{"name":"돈돈두루치기전문점(광적점)","tel":"031-829-3393","addr":"경기도 양주시 광적면 석우리 433-4번지 나동","indutype":"일반휴게음식 - 일반한식","category":"restaurant"}]},{"lat":"37.830140932","long":"126.97965276","imageIndex":4,"items":[{"name":"동화","tel":"031-836-3232","addr":"경기도 양주시 광적면 석우리 382-7번지","indutype":"일반휴게음식 - 중국식","category":"restaurant"}]},{"lat":"37.827339564","long":"126.9827091","imageIndex":4,"items":[{"name":"돼지네","tel":"031-829-8892","addr":"경기도 양주시 광적면 석우리 714-6번지","indutype":"일반휴게음식 - 일반한식","category":"restaurant"},{"name":"우가네곱창이야기","tel":"031-855-4419","addr":"경기도 양주시 광적면 석우리 714-6","indutype":"일반휴게음식 - 일반한식","category":"restaurant"}]},{"lat":"37.834672043","long":"126.97666374","imageIndex":4,"items":[{"name":"땡큐로드","tel":"031-855-4946","addr":"경기도 양주시 광적면 석우리 441-7번지","indutype":"일반휴게음식 - 서양음식","category":"restaurant"}]},{"lat":"37.830699458","long":"126.97935725","imageIndex":4,"items":[{"name":"만선쭈꾸미","tel":"031-829-3639","addr":"경기도 양주시 광적면 석우리 368-3번지","indutype":"일반휴게음식 - 일반한식","category":"restaurant"}]},{"lat":"37.837560263","long":"126.96309872","imageIndex":4,"items":[{"name":"먹골농장","tel":"031-855-7180","addr":"경기도 양주시 광적면 석우리 695번지","indutype":"일반휴게음식 - 일반한식","category":"restaurant"}]},{"lat":"37.831861462","long":"126.97832319","imageIndex":4,"items":[{"name":"명동식당","tel":"031-837-1983","addr":"경기도 양주시 광적면 석우리 364-1번지","indutype":"일반휴게음식 - 일반한식","category":"restaurant"}]},{"lat":"37.827420473","long":"126.98170952","imageIndex":4,"items":[{"name":"모모라","tel":"070-8839-3546","addr":"경기도 양주시 광적면 석우리 712-5번지 1층 일부","indutype":"일반휴게음식 - 서양음식","category":"restaurant"},{"name":"미소가","tel":"031-855-3777","addr":"경기도 양주시 광적면 석우리 712-5번지 1층","indutype":"일반휴게음식 - 중국식","category":"restaurant"}]},{"lat":"37.835696998","long":"126.96843885","imageIndex":4,"items":[{"name":"모심푸드","tel":"070-7780-8542","addr":"경기도 양주시 광적면 석우리 633-1","indutype":"일반휴게음식 - 위탁급식업","category":"restaurant"}]},{"lat":"37.826420618","long":"126.98280021","imageIndex":4,"items":[{"name":"밥도둑한정식부페","tel":"031-829-0520","addr":"경기도 양주시 광적면 석우리 719-6번지 1층","indutype":"일반휴게음식 - 일반한식","category":"restaurant"},{"name":"앗싸곱창","tel":"031-836-6670","addr":"경기도 양주시 광적면 석우리 719-6번지","indutype":"일반휴게음식 - 일반한식","category":"restaurant"},{"name":"흑산도","tel":"031-836-9963","addr":"경기도 양주시 광적면 석우리 719-6번지","indutype":"일반휴게음식 - 일식·회집","category":"restaurant"}]},{"lat":"37.826113975","long":"126.98099432","imageIndex":4,"items":[{"name":"빠박이껍데기","tel":"031-535-0825","addr":"경기도 양주시 광적면 석우리 717-4번지","indutype":"일반휴게음식 - 일반한식","category":"restaurant"}]},{"lat":"37.83644591","long":"126.97255081","imageIndex":4,"items":[{"name":"뼈다귀천국","tel":"031-877-6486","addr":"경기도 양주시 광적면 석우리 474-2번지","indutype":"일반휴게음식 - 일반한식","category":"restaurant"}]},{"lat":"37.835581322","long":"126.97380074","imageIndex":4,"items":[{"name":"상명밥먹는집","tel":"031-855-5801","addr":"경기도 양주시 광적면 석우리 464-16번지 1층 3호","indutype":"일반휴게음식 - 일반한식","category":"restaurant"}]},{"lat":"37.83608541","long":"126.97207384","imageIndex":4,"items":[{"name":"석우식당","tel":"031-871-0789","addr":"경기도 양주시 광적면 석우리 639-5번지 1층","indutype":"일반휴게음식 - 일반한식","category":"restaurant"}]},{"lat":"37.840525745","long":"126.96743687","imageIndex":4,"items":[{"name":"송가네해장국","tel":"031-836-8787","addr":"경기도 양주시 광적면 석우리 578-2번지","indutype":"일반휴게음식 - 일반한식","category":"restaurant"}]},{"lat":"37.828636884","long":"126.98249293","imageIndex":4,"items":[{"name":"수니비어","tel":"","addr":"경기도 양주시 광적면 석우리 708-1번지 양주가납주공아파트 103호","indutype":"일반휴게음식 - 주점","category":"restaurant"}]},{"lat":"37.835887353","long":"126.97265328","imageIndex":4,"items":[{"name":"실비식당","tel":"031-855-9498","addr":"경기도 양주시 광적면 석우리 470-3번지","indutype":"일반휴게음식 - 일반한식","category":"restaurant"}]},{"lat":"37.827276363","long":"126.98193673","imageIndex":4,"items":[{"name":"양주뒷고기","tel":"031-875-7277","addr":"경기도 양주시 광적면 석우리 712-4번지","indutype":"일반휴게음식 - 일반한식","category":"restaurant"}]},{"lat":"37.829448253","long":"126.98576406","imageIndex":4,"items":[{"name":"양주뜰에모아","tel":"031-855-5888","addr":"경기도 양주시 광적면 석우리 94-2번지","indutype":"일반휴게음식 - 일반한식","category":"restaurant"}]},{"lat":"37.839642979","long":"126.96795988","imageIndex":4,"items":[{"name":"양주식당","tel":"031-821-6761","addr":"경기도 양주시 광적면 석우리 586-1번지","indutype":"일반휴게음식 - 일반한식","category":"restaurant"}]},{"lat":"37.823250164","long":"126.98876399","imageIndex":4,"items":[{"name":"오닉스","tel":"031-000-0000","addr":"경기도 양주시 광적면 석우리 66-17번지 1층","indutype":"일반휴게음식 - 서양음식","category":"restaurant"}]},{"lat":"37.8273934","long":"126.98145964","imageIndex":4,"items":[{"name":"우리칼국수","tel":"031-879-8727","addr":"경기도 양주시 광적면 석우리 712-6번지","indutype":"일반휴게음식 - 일반한식","category":"restaurant"}]},{"lat":"37.836643773","long":"126.97124433","imageIndex":4,"items":[{"name":"우정식당","tel":"031-855-6441","addr":"경기도 양주시 광적면 석우리 638-5번지","indutype":"일반휴게음식 - 일반한식","category":"restaurant"}]},{"lat":"37.833726182","long":"126.97724342","imageIndex":4,"items":[{"name":"자연밥상","tel":"031-836-8145","addr":"경기도 양주시 광적면 석우리 445-2번지","indutype":"일반휴게음식 - 일반한식","category":"restaurant"}]},{"lat":"37.833169343","long":"126.98718314","imageIndex":4,"items":[{"name":"장수감자탕","tel":"031-845-5531","addr":"경기도 양주시 광적면 석우리 129-12번지","indutype":"일반휴게음식 - 일반한식","category":"restaurant"}]},{"lat":"37.831366003","long":"126.97860733","imageIndex":4,"items":[{"name":"장수식당","tel":"031-836-6353","addr":"경기도 양주시 광적면 석우리 372-1번지","indutype":"일반휴게음식 - 일반한식","category":"restaurant"}]},{"lat":"37.826447461","long":"126.98174387","imageIndex":4,"items":[{"name":"젠라쿠(ZENRAKU)","tel":"031-836-1124","addr":"경기도 양주시 광적면 석우리 719-4번지","indutype":"일반휴게음식 - 주점","category":"restaurant"}]},{"lat":"37.83433873","long":"126.9768229","imageIndex":4,"items":[{"name":"조가네약선순대국","tel":"031-855-0858","addr":"경기도 양주시 광적면 석우리 449-2번지","indutype":"일반휴게음식 - 일반한식","category":"restaurant"}]},{"lat":"37.834861177","long":"126.97637968","imageIndex":4,"items":[{"name":"토마토도시락 양주광적점(석우리주유소)","tel":"031-855-8554","addr":"경기도 양주시 광적면 석우리 441-9번지","indutype":"일반휴게음식 - 일반한식","category":"restaurant"}]},{"lat":"37.835394773","long":"126.98798921","imageIndex":4,"items":[{"name":"한우리한식기사뷔페","tel":"031-855-3123","addr":"경기도 양주시 광적면 석우리 131-1번지","indutype":"일반휴게음식 - 일반한식","category":"restaurant"}]},{"lat":"37.841417683","long":"126.96745917","imageIndex":4,"items":[{"name":"홍아네칼국수","tel":"031-855-0744","addr":"경기도 양주시 광적면 석우리 575-2번지","indutype":"일반휴게음식 - 일반한식","category":"restaurant"}]}]