[{"lat":"37.277636701","long":"127.44713357","imageIndex":16,"items":[{"name":"SLAM BEAT 이천점","tel":"031-631-1376","addr":"경기도 이천시 중리동 219번지 종합버스터미널 2층 205호","indutype":"학원 - 예·체능계학원","category":"study"}]},{"lat":"37.278718897","long":"127.44204339","imageIndex":16,"items":[{"name":"광제고시텔","tel":"031-636-1132","addr":"경기도 이천시 중리동 186-3번지","indutype":"학원 - 기타 교육기관","category":"study"}]},{"lat":"37.277103091","long":"127.44284583","imageIndex":16,"items":[{"name":"더에밀리무용아카데미학원","tel":"031-633-4486","addr":"경기도 이천시 중리동 231-6번지 2층","indutype":"학원 - 예·체능계학원","category":"study"}]},{"lat":"37.276995664","long":"127.44507771","imageIndex":16,"items":[{"name":"더하다","tel":"031-635-8283","addr":"경기도 이천시 중리동 216-14번지 (씨앤에스타운빌) 405호","indutype":"회원제형태 - 학원","category":"study"}]},{"lat":"37.275886005","long":"127.44060627","imageIndex":16,"items":[{"name":"디오댄스학원","tel":"031-632-0071","addr":"경기도 이천시 중리동 450-24번지 2층","indutype":"학원 - 예·체능계학원","category":"study"}]},{"lat":"37.275602016","long":"127.44429157","imageIndex":16,"items":[{"name":"뮤직쉐프","tel":"031-634-5677","addr":"경기도 이천시 중리동 456-7번지 2층","indutype":"학원 - 기타 교육기관","category":"study"},{"name":"시편음악학원","tel":"031-634-5677","addr":"경기도 이천시 중리동 456-7번지 시편음악학원","indutype":"학원 - 예·체능계학원","category":"study"},{"name":"이천태권도장","tel":"031-638-7007","addr":"경기도 이천시 중리동 456-7번지","indutype":"학원 - 예·체능계학원","category":"study"}]},{"lat":"37.27835394","long":"127.44568325","imageIndex":16,"items":[{"name":"박병훈 영어전문클래스","tel":"031-638-7040","addr":"경기도 이천시 중리동 213번지 이천라온팰리스 1806호","indutype":"학원 - 외국어학원","category":"study"},{"name":"성모간호학원","tel":"031-635-6366","addr":"경기도 이천시 중리동 213번지 이천라온팰리스 3층","indutype":"학원 - 기타 교육기관","category":"study"}]},{"lat":"37.277609333","long":"127.43996228","imageIndex":16,"items":[{"name":"비앤비(B&B)실용음악학원","tel":"031-632-9951","addr":"경기도 이천시 중리동 233-1번지 4층","indutype":"회원제형태 - 학원","category":"study"}]},{"lat":"37.277967549","long":"127.44298616","imageIndex":16,"items":[{"name":"삼성영어보습학원","tel":"031-631-4510","addr":"경기도 이천시 중리동 205번지","indutype":"학원 - 보습학원","category":"study"}]},{"lat":"37.278212004","long":"127.44023638","imageIndex":16,"items":[{"name":"새명진학원","tel":"031-634-3037","addr":"경기도 이천시 중리동 172-9번지","indutype":"학원 - 보습학원","category":"study"}]},{"lat":"37.277158785","long":"127.44240642","imageIndex":16,"items":[{"name":"새정우보습학원","tel":"031-636-0550","addr":"경기도 이천시 중리동 231-3번지 2동","indutype":"학원 - 보습학원","category":"study"}]},{"lat":"37.278632701","long":"127.43854748","imageIndex":16,"items":[{"name":"설봉어린이집[아이행복]","tel":"031-637-9700","addr":"경기도 이천시 중리동 15번지","indutype":"학원 - 유아원","category":"study"}]},{"lat":"37.277769007","long":"127.44548814","imageIndex":16,"items":[{"name":"소망고시텔","tel":"031-638-3885","addr":"경기도 이천시 중리동 214-7번지","indutype":"학원 - 독서실","category":"study"}]},{"lat":"37.275685458","long":"127.44366066","imageIndex":16,"items":[{"name":"아르떼피아노학원","tel":"031-632-2537","addr":"경기도 이천시 중리동 456-4번지 2층","indutype":"학원 - 예·체능계학원","category":"study"}]},{"lat":"37.277634346","long":"127.44293912","imageIndex":16,"items":[{"name":"에디슨보습학원","tel":"031-631-8573","addr":"경기도 이천시 중리동 206-2번지","indutype":"학원 - 보습학원","category":"study"}]},{"lat":"37.277076857","long":"127.44263144","imageIndex":16,"items":[{"name":"예원음악학원","tel":"031-635-2636","addr":"경기도 이천시 중리동 231-5번지","indutype":"학원 - 예·체능계학원","category":"study"},{"name":"파레뜨미술교습소","tel":"","addr":"경기도 이천시 중리동 231-5번지","indutype":"학원 - 예·체능계학원","category":"study"}]},{"lat":"37.276441921","long":"127.44376655","imageIndex":16,"items":[{"name":"이천남초등학교","tel":"031-633-3110","addr":"경기도 이천시 중리동 455번지 이천남초등학교","indutype":"학원 - 초중고교육기관","category":"study"},{"name":"이천남초등학교_수업료","tel":"031-633-3110","addr":"경기도 이천시 중리동 455번지 이천남초등학교","indutype":"학원 - 초중고교육기관","category":"study"}]},{"lat":"37.275519665","long":"127.44943251","imageIndex":16,"items":[{"name":"이천박문각고시학원","tel":"031-633-2980","addr":"경기도 이천시 중리동 468-11번지 경기동부자폐아전문치료센터 202호","indutype":"학원 - 기타 교육기관","category":"study"}]},{"lat":"37.277017928","long":"127.44635194","imageIndex":16,"items":[{"name":"이천현대중장비자동차정비학원","tel":"031-636-1207","addr":"경기도 이천시 중리동 217-2번지 동원빌딩 2층","indutype":"학원 - 기타 교육기관","category":"study"}]},{"lat":"37.2793848","long":"127.44227277","imageIndex":16,"items":[{"name":"인하렘벨리댄스","tel":"031-634-1799","addr":"경기도 이천시 중리동 181-6번지 3층","indutype":"회원제형태 - 학원","category":"study"}]},{"lat":"37.278462177","long":"127.4432371","imageIndex":16,"items":[{"name":"주식회사라온대부자산관리(다온원룸텔)","tel":"031-694-8443","addr":"경기도 이천시 중리동 190-4번지 1층","indutype":"학원 - 독서실","category":"study"}]},{"lat":"37.277355246","long":"127.44288112","imageIndex":16,"items":[{"name":"참피온체육관","tel":"031-633-0509","addr":"경기도 이천시 중리동 206-5번지","indutype":"회원제형태 - 학원","category":"study"}]},{"lat":"37.279157414","long":"127.44284651","imageIndex":16,"items":[{"name":"초록어린이집[아이행복]","tel":"031-631-2154","addr":"경기도 이천시 중리동 193-6번지","indutype":"학원 - 유아원","category":"study"}]},{"lat":"37.276747121","long":"127.44648566","imageIndex":16,"items":[{"name":"한명희요리학원","tel":"031-633-5538","addr":"경기도 이천시 중리동 217-4번지","indutype":"학원 - 기타 교육기관","category":"study"}]},{"lat":"37.271602267","long":"127.4343016","imageIndex":16,"items":[{"name":"함초롱어린이집[아이행복]","tel":"031-632-3925","addr":"경기도 이천시 중리동 490번지 이천시청","indutype":"학원 - 유아원","category":"study"}]},{"lat":"37.27838615","long":"127.44429656","imageIndex":16,"items":[{"name":"후아(HUA)리빙텔","tel":"031-626-2120","addr":"경기도 이천시 중리동 211-9번지","indutype":"학원 - 독서실","category":"study"}]}]