[{"lat":"37.2823140574","long":"126.8469892591","imageIndex":5,"items":[{"name":"1인자감자탕","tel":"031-406-8002","addr":"경기도 안산시 상록구 사동 1431-10번지","indutype":"숙박 및 음식점업 - 일반음식","category":"hotel"}]},{"lat":"37.3013425907","long":"126.8394945884","imageIndex":5,"items":[{"name":"6번지","tel":"","addr":"경기도 안산시 상록구 사동 1568-6번지","indutype":"숙박 및 음식점업 - 기타음식","category":"hotel"}]},{"lat":"37.2845935801","long":"126.8539308680","imageIndex":5,"items":[{"name":"BBQ사동점","tel":"031-418-8292","addr":"경기도 안산시 상록구 사동 1398-5번지","indutype":"숙박 및 음식점업 - 프렌차이즈","category":"hotel"}]},{"lat":"37.2955893386","long":"126.8237740591","imageIndex":5,"items":[{"name":"BHC","tel":"031-501-4747","addr":"경기도 안산시 상록구 사동 1512번지 안산고잔6차푸르지오","indutype":"숙박 및 음식점업 - 치킨","category":"hotel"},{"name":"돈맘삼겹살","tel":"","addr":"경기도 안산시 상록구 사동 1512번지","indutype":"숙박 및 음식점업 - 한식","category":"hotel"},{"name":"런던다방","tel":"","addr":"경기도 안산시 상록구 사동 1512번지 안산고잔6차푸르지오","indutype":"숙박 및 음식점업 - 커피","category":"hotel"},{"name":"산앤들한우","tel":"031-501-6738","addr":"경기도 안산시 상록구 사동 1512번지 안산고잔6차푸르지오","indutype":"숙박 및 음식점업 - 일반음식","category":"hotel"},{"name":"커피하우스","tel":"031-438-8255","addr":"경기도 안산시 상록구 사동 1512번지","indutype":"숙박 및 음식점업 - 커피숍","category":"hotel"},{"name":"파리바게트","tel":"031-501-8240","addr":"경기도 안산시 상록구 사동 1512번지","indutype":"숙박 및 음식점업 - 제과점","category":"hotel"},{"name":"홍희통닭","tel":"031-408-5592","addr":"경기도 안산시 상록구 사동 1512번지","indutype":"숙박 및 음식점업 - 요식업","category":"hotel"}]},{"lat":"37.2983737087","long":"126.8180492421","imageIndex":5,"items":[{"name":"CBSC 매점카페","tel":"","addr":"경기도 안산시 상록구 사동 1509-2번지","indutype":"숙박 및 음식점업 - 매점","category":"hotel"}]},{"lat":"37.3018724575","long":"126.8382414669","imageIndex":5,"items":[{"name":"R(샐러드)","tel":"031-438-9441","addr":"경기도 안산시 상록구 사동 1564-2번지","indutype":"숙박 및 음식점업 - 기타","category":"hotel"},{"name":"기찬고기 한양대점","tel":"031-406-8811","addr":"경기도 안산시 상록구 사동 1564-2번지","indutype":"숙박 및 음식점업 - 일반음식","category":"hotel"}]},{"lat":"37.3011436020","long":"126.8389423504","imageIndex":5,"items":[{"name":"The 빱집","tel":"031-408-6412","addr":"경기도 안산시 상록구 사동 1568-9번지","indutype":"숙박 및 음식점업 - 일반음식","category":"hotel"},{"name":"언니네화덕핏짜","tel":"031-407-4596","addr":"경기도 안산시 상록구 사동 1568-9번지","indutype":"숙박 및 음식점업 - 일반음식점","category":"hotel"}]},{"lat":"37.2835974662","long":"126.8500199446","imageIndex":5,"items":[{"name":"e착한커피","tel":"031-509-3686","addr":"경기도 안산시 상록구 사동 1412-7번지","indutype":"숙박 및 음식점업 - 커피숍","category":"hotel"},{"name":"집밥","tel":"031-409-4860","addr":"경기도 안산시 상록구 사동 1412-7번지","indutype":"숙박 및 음식점업 - 한식","category":"hotel"}]},{"lat":"37.2969786667","long":"126.8579666487","imageIndex":5,"items":[{"name":"가경목장","tel":"031-418-5262","addr":"경기도 안산시 상록구 사동 1267-5번지","indutype":"숙박 및 음식점업 - 한식","category":"hotel"}]},{"lat":"37.2950904910","long":"126.8539101742","imageIndex":5,"items":[{"name":"가마솥순대국","tel":"","addr":"경기도 안산시 상록구 사동 1321-5번지","indutype":"숙박 및 음식점업 - 한식","category":"hotel"},{"name":"토종순대","tel":"031-415-5678","addr":"경기도 안산시 상록구 사동 1321-5번지","indutype":"숙박 및 음식점업 - 일반음식","category":"hotel"},{"name":"팥선생","tel":"031-501-3367","addr":"경기도 안산시 상록구 사동 1321-5번지","indutype":"숙박 및 음식점업 - 한식","category":"hotel"}]},{"lat":"37.2797633118","long":"126.8533202201","imageIndex":5,"items":[{"name":"가마솥왕족발","tel":"031-415-5507","addr":"경기도 안산시 상록구 사동 1506번지","indutype":"숙박 및 음식점업 - 일반음식","category":"hotel"},{"name":"식빵마을","tel":"","addr":"경기도 안산시 상록구 사동 1506번지","indutype":"숙박 및 음식점업 - 제과점업","category":"hotel"}]},{"lat":"37.2943732218","long":"126.8428253756","imageIndex":5,"items":[{"name":"갈릴리바다","tel":"031-408-8430","addr":"경기도 안산시 상록구 사동 1348-2번지","indutype":"숙박 및 음식점업 - 한식","category":"hotel"}]},{"lat":"37.3024016881","long":"126.8499029398","imageIndex":5,"items":[{"name":"갈비락","tel":"031-408-9595","addr":"경기도 안산시 상록구 사동 1199-17번지","indutype":"숙박 및 음식점업 - 음식","category":"hotel"}]},{"lat":"37.2870980547","long":"126.8536327334","imageIndex":5,"items":[{"name":"감골분식","tel":"031-418-7445","addr":"경기도 안산시 상록구 사동 1346번지 상록수타운월드아파트","indutype":"숙박 및 음식점업 - 한식","category":"hotel"},{"name":"둥이반점","tel":"031-417-1577","addr":"경기도 안산시 상록구 사동 1346번지","indutype":"숙박 및 음식점업 - 중식","category":"hotel"},{"name":"미림식당","tel":"031-502-3508","addr":"경기도 안산시 상록구 사동 1346번지 상록수타운월드아파트","indutype":"숙박 및 음식점업 - 간이음식","category":"hotel"},{"name":"셀렉토커피 사동점","tel":"031-408-1510","addr":"경기도 안산시 상록구 사동 1346번지","indutype":"숙박 및 음식점업 - 휴게음식점","category":"hotel"},{"name":"쉐프의정육점.식당","tel":"031-417-1004","addr":"경기도 안산시 상록구 사동 1346번지","indutype":"숙박 및 음식점업 - 한식","category":"hotel"},{"name":"카페갤러리","tel":"031-409-3069","addr":"경기도 안산시 상록구 사동 1346번지","indutype":"숙박 및 음식점업 - 카페,의류","category":"hotel"},{"name":"현주네웰빙식당","tel":"031-502-1464","addr":"경기도 안산시 상록구 사동 1346번지","indutype":"숙박 및 음식점업 - 한식","category":"hotel"}]},{"lat":"37.2943428842","long":"126.8541033733","imageIndex":5,"items":[{"name":"감골분식","tel":"031-418-7445","addr":"경기도 안산시 상록구 사동 1320-2번지","indutype":"숙박 및 음식점업 - 일반","category":"hotel"},{"name":"마을숲사회적협동조합","tel":"031-408-7601","addr":"경기도 안산시 상록구 사동 1320-2번지","indutype":"숙박 및 음식점업 - 서양음식","category":"hotel"}]},{"lat":"37.2841237237","long":"126.8528830880","imageIndex":5,"items":[{"name":"감자골닭발","tel":"031-407-8769","addr":"경기도 안산시 상록구 사동 1408-8번지","indutype":"숙박 및 음식점업 - 일반음식","category":"hotel"},{"name":"인삼식당","tel":"031-408-7011","addr":"경기도 안산시 상록구 사동 1408-8번지","indutype":"숙박 및 음식점업 - 한식","category":"hotel"}]},{"lat":"37.2841179369","long":"126.8483838128","imageIndex":5,"items":[{"name":"강릉막회","tel":"031-415-0415","addr":"경기도 안산시 상록구 사동 1421-21번지","indutype":"숙박 및 음식점업 - 한식","category":"hotel"}]},{"lat":"37.3030914237","long":"126.8467997518","imageIndex":5,"items":[{"name":"경성짬뽕","tel":"031-501-4888","addr":"경기도 안산시 상록구 사동 1182-5번지","indutype":"숙박 및 음식점업 - 중식","category":"hotel"}]},{"lat":"37.2956477567","long":"126.8528263749","imageIndex":5,"items":[{"name":"경일해장국","tel":"031-407-4951","addr":"경기도 안산시 상록구 사동 1304-12번지","indutype":"숙박 및 음식점업 - 한식","category":"hotel"}]},{"lat":"37.3022320481","long":"126.8376541693","imageIndex":5,"items":[{"name":"계림원안산한양대점","tel":"031-419-9595","addr":"경기도 안산시 상록구 사동 1559-3번지","indutype":"숙박 및 음식점업 - 한식","category":"hotel"}]},{"lat":"37.2938679468","long":"126.8561907133","imageIndex":5,"items":[{"name":"고기먹고 기절하는집","tel":"031-416-0552","addr":"경기도 안산시 상록구 사동 1341-8번지","indutype":"숙박 및 음식점업 - 한식","category":"hotel"}]},{"lat":"37.3002022669","long":"126.8562912003","imageIndex":5,"items":[{"name":"고려참숯구이","tel":"031-408-0334","addr":"경기도 안산시 상록구 사동 1241번지","indutype":"숙박 및 음식점업 - 한식","category":"hotel"}]},{"lat":"37.3028711571","long":"126.8372128821","imageIndex":5,"items":[{"name":"고산정 장수추어탕","tel":"031-409-4560","addr":"경기도 안산시 상록구 사동 1555-5번지","indutype":"숙박 및 음식점업 - 음식","category":"hotel"}]},{"lat":"37.2962900080","long":"126.8477950111","imageIndex":5,"items":[{"name":"고향칼국수","tel":"031-501-9488","addr":"경기도 안산시 상록구 사동 1293번지","indutype":"숙박 및 음식점업 - 기타음식","category":"hotel"},{"name":"또봉이통닭(사동2호점)","tel":"031-419-2998","addr":"경기도 안산시 상록구 사동 1293번지","indutype":"숙박 및 음식점업 - 치킨","category":"hotel"}]},{"lat":"37.3060923398","long":"126.8471883386","imageIndex":5,"items":[{"name":"공주네회조개구이","tel":"031-409-2394","addr":"경기도 안산시 상록구 사동 1518-3번지","indutype":"숙박 및 음식점업 - 한식","category":"hotel"}]},{"lat":"37.2955893104","long":"126.8426085148","imageIndex":5,"items":[{"name":"교동짬뽕","tel":"","addr":"경기도 안산시 상록구 사동 1274-1번지","indutype":"숙박 및 음식점업 - 중식","category":"hotel"}]},{"lat":"37.2835635975","long":"126.8517114618","imageIndex":5,"items":[{"name":"구포멸치국수","tel":"031-502-7779","addr":"경기도 안산시 상록구 사동 1407-22번지","indutype":"숙박 및 음식점업 - 한식","category":"hotel"}]},{"lat":"37.3022542026","long":"126.8473541587","imageIndex":5,"items":[{"name":"궁 해물탕","tel":"031-407-2959","addr":"경기도 안산시 상록구 사동 1191번지","indutype":"숙박 및 음식점업 - 반찬","category":"hotel"}]},{"lat":"37.3060355902","long":"126.8451581134","imageIndex":5,"items":[{"name":"궁전족발보쌈","tel":"031-485-7979","addr":"경기도 안산시 상록구 사동 1521-6번지","indutype":"숙박 및 음식점업 - 기타음식","category":"hotel"}]},{"lat":"37.3016192674","long":"126.8510437056","imageIndex":5,"items":[{"name":"궁중삼계탕","tel":"031-502-9090","addr":"경기도 안산시 상록구 사동 1197-4번지","indutype":"숙박 및 음식점업 - 한식","category":"hotel"}]},{"lat":"37.2996199858","long":"126.8383027703","imageIndex":5,"items":[{"name":"그리심","tel":"031-502-0990","addr":"경기도 안산시 상록구 사동 1149-21번지","indutype":"숙박 및 음식점업 - 일반음식","category":"hotel"}]},{"lat":"37.3030907980","long":"126.8463260251","imageIndex":5,"items":[{"name":"그린피그갈비","tel":"031-438-5426","addr":"경기도 안산시 상록구 사동 1182-2번지","indutype":"숙박 및 음식점업 - 한식","category":"hotel"}]},{"lat":"37.2974555505","long":"126.8502738658","imageIndex":5,"items":[{"name":"그집","tel":"031-414-7706","addr":"경기도 안산시 상록구 사동 1299-8번지","indutype":"숙박 및 음식점업 - 한식","category":"hotel"}]},{"lat":"37.3002061033","long":"126.8386285786","imageIndex":5,"items":[{"name":"긴자인도레스토랑","tel":"031-407-4456","addr":"경기도 안산시 상록구 사동 1149-5번지","indutype":"숙박 및 음식점업 - 인도음식","category":"hotel"},{"name":"은화수식당","tel":"070-8899-7628","addr":"경기도 안산시 상록구 사동 1149-5번지","indutype":"숙박 및 음식점업 - 일반음식점","category":"hotel"}]},{"lat":"37.3000343296","long":"126.8382116372","imageIndex":5,"items":[{"name":"김가네","tel":"031-409-0022","addr":"경기도 안산시 상록구 사동 1149-1번지","indutype":"숙박 및 음식점업 - 분식","category":"hotel"}]},{"lat":"37.3029209871","long":"126.8473753440","imageIndex":5,"items":[{"name":"김명자 낙지마당","tel":"","addr":"경기도 안산시 상록구 사동 1185-15번지","indutype":"숙박 및 음식점업 - 한식","category":"hotel"}]},{"lat":"37.2966238582","long":"126.8481552305","imageIndex":5,"items":[{"name":"김밥이랑돈가스","tel":"031-415-3111","addr":"경기도 안산시 상록구 사동 1294번지","indutype":"숙박 및 음식점업 - 일반음식","category":"hotel"}]},{"lat":"37.2938943474","long":"126.8556831580","imageIndex":5,"items":[{"name":"김밥천국","tel":"031-406-0772","addr":"경기도 안산시 상록구 사동 1341-11번지","indutype":"숙박 및 음식점업 - 기타","category":"hotel"}]},{"lat":"37.2801485022","long":"126.8515491549","imageIndex":5,"items":[{"name":"김밥천국","tel":"031-408-3929","addr":"경기도 안산시 상록구 사동 1471-12번지","indutype":"숙박 및 음식점업 - 일반음식","category":"hotel"},{"name":"남도목포맛집","tel":"031-418-2728","addr":"경기도 안산시 상록구 사동 1471-12번지","indutype":"숙박 및 음식점업 - 한식","category":"hotel"},{"name":"제주돈마을","tel":"031-415-9446","addr":"경기도 안산시 상록구 사동 1471-12번지","indutype":"숙박 및 음식점업 - 한식","category":"hotel"}]},{"lat":"37.2952618979","long":"126.8540790072","imageIndex":5,"items":[{"name":"김밥천국","tel":"031-418-6959","addr":"경기도 안산시 상록구 사동 1322-6번지","indutype":"숙박 및 음식점업 - 기타음식","category":"hotel"}]},{"lat":"37.3010090108","long":"126.8393486839","imageIndex":5,"items":[{"name":"김밥큐","tel":"031-416-5657","addr":"경기도 안산시 상록구 사동 1570-6번지","indutype":"숙박 및 음식점업 - 기타음식","category":"hotel"},{"name":"피자스쿨 안산한양대점","tel":"031-409-9122","addr":"경기도 안산시 상록구 사동 1570-6번지","indutype":"숙박 및 음식점업 - 음식","category":"hotel"}]},{"lat":"37.3056222605","long":"126.8460162276","imageIndex":5,"items":[{"name":"까페레드지","tel":"031-407-0012","addr":"경기도 안산시 상록구 사동 1525번지","indutype":"숙박 및 음식점업 - 커피전문점","category":"hotel"}]},{"lat":"37.3013107086","long":"126.8493299219","imageIndex":5,"items":[{"name":"깻잎두마리치킨사동점","tel":"","addr":"경기도 안산시 상록구 사동 1194-1번지","indutype":"숙박 및 음식점업 - 치킨","category":"hotel"},{"name":"난다곱창안산점","tel":"031-416-9282","addr":"경기도 안산시 상록구 사동 1194-1번지","indutype":"숙박 및 음식점업 - 한식","category":"hotel"}]},{"lat":"37.2798153395","long":"126.8517189584","imageIndex":5,"items":[{"name":"꺼멍","tel":"031-407-9975","addr":"경기도 안산시 상록구 사동 1472-5번지","indutype":"숙박 및 음식점업 - 한식","category":"hotel"}]},{"lat":"37.2952586228","long":"126.8514963355","imageIndex":5,"items":[{"name":"꼬꼬마니아옛날통닭 닭강정","tel":"031-502-1041","addr":"경기도 안산시 상록구 사동 1314번지 초원빌라","indutype":"숙박 및 음식점업 - 치킨","category":"hotel"}]},{"lat":"37.2880690677","long":"126.8450715747","imageIndex":5,"items":[{"name":"나혼자닭","tel":"031-417-9982","addr":"경기도 안산시 상록구 사동 1371-3번지","indutype":"숙박 및 음식점업 - 기타음식","category":"hotel"}]},{"lat":"37.2846181830","long":"126.8520138174","imageIndex":5,"items":[{"name":"남도해장국","tel":"031-406-1566","addr":"경기도 안산시 상록구 사동 1409-6번지","indutype":"숙박 및 음식점업 - 한식","category":"hotel"}]},{"lat":"37.2944507940","long":"126.8539339915","imageIndex":5,"items":[{"name":"남매제주고기국수","tel":"","addr":"경기도 안산시 상록구 사동 1320-1번지","indutype":"숙박 및 음식점업 - 한식","category":"hotel"}]},{"lat":"37.3065328428","long":"126.8464316869","imageIndex":5,"items":[{"name":"낭만닭발","tel":"031-487-2881","addr":"경기도 안산시 상록구 사동 1517-4번지","indutype":"숙박 및 음식점업 - 한식","category":"hotel"}]},{"lat":"37.3065335870","long":"126.8469956731","imageIndex":5,"items":[{"name":"내가사케","tel":"","addr":"경기도 안산시 상록구 사동 1517-7번지","indutype":"숙박 및 음식점업 - 일반음식점","category":"hotel"},{"name":"사리참치","tel":"031-438-3789","addr":"경기도 안산시 상록구 사동 1517-7번지","indutype":"숙박 및 음식점업 - 한식","category":"hotel"}]},{"lat":"37.2902915105","long":"126.8495778646","imageIndex":5,"items":[{"name":"네네치킨","tel":"050-7964-1205","addr":"경기도 안산시 상록구 사동 1345-1번지 요진아파트","indutype":"숙박 및 음식점업 - 치킨","category":"hotel"}]},{"lat":"37.2833683287","long":"126.8470434660","imageIndex":5,"items":[{"name":"노가리앤비어","tel":"031-406-4677","addr":"경기도 안산시 상록구 사동 1431-1번지","indutype":"숙박 및 음식점업 - 일반음식","category":"hotel"}]},{"lat":"37.2833450340","long":"126.8499076922","imageIndex":5,"items":[{"name":"누리대구막창","tel":"031-407-4278","addr":"경기도 안산시 상록구 사동 1413-2번지","indutype":"숙박 및 음식점업 - 기타주점","category":"hotel"}]},{"lat":"37.3014851821","long":"126.8518786212","imageIndex":5,"items":[{"name":"뉴욕 바닷가재","tel":"031-418-5273","addr":"경기도 안산시 상록구 사동 1203-7번지","indutype":"숙박 및 음식점업 - 한식","category":"hotel"}]},{"lat":"37.2959500892","long":"126.8181341192","imageIndex":5,"items":[{"name":"뉴하얀뮤직아카데미","tel":"031-502-7972","addr":"경기도 안산시 상록구 사동 1510번지","indutype":"숙박 및 음식점업 - 음악","category":"hotel"},{"name":"맥코원숯불바베큐","tel":"031-501-9244","addr":"경기도 안산시 상록구 사동 1510번지 안산고잔7차푸르지오","indutype":"숙박 및 음식점업 - 치킨","category":"hotel"},{"name":"술사임당","tel":"031-402-8051","addr":"경기도 안산시 상록구 사동 1510번지","indutype":"숙박 및 음식점업 - 기타음식","category":"hotel"},{"name":"피자마루","tel":"031-501-1082","addr":"경기도 안산시 상록구 사동 1510번지 안산고잔7차푸르지오","indutype":"숙박 및 음식점업 - 피자","category":"hotel"},{"name":"한우생구이","tel":"","addr":"경기도 안산시 상록구 사동 1510번지","indutype":"숙박 및 음식점업 - 한식","category":"hotel"}]},{"lat":"37.3062611005","long":"126.8453493975","imageIndex":5,"items":[{"name":"니코카페","tel":"031-413-7108","addr":"경기도 안산시 상록구 사동 1520-8번지","indutype":"숙박 및 음식점업 - 휴게음식점","category":"hotel"}]},{"lat":"37.2831478843","long":"126.8507425347","imageIndex":5,"items":[{"name":"다솜","tel":"031-418-9788","addr":"경기도 안산시 상록구 사동 1413-9번지","indutype":"숙박 및 음식점업 - 분식","category":"hotel"}]},{"lat":"37.2835637846","long":"126.8518580537","imageIndex":5,"items":[{"name":"다원양꼬치","tel":"070-4007-0999","addr":"경기도 안산시 상록구 사동 1407-21번지","indutype":"숙박 및 음식점업 - 일반음식","category":"hotel"}]},{"lat":"37.3017050909","long":"126.8410164734","imageIndex":5,"items":[{"name":"달구","tel":"","addr":"경기도 안산시 상록구 사동 1581-2번지","indutype":"숙박 및 음식점업 - 과자","category":"hotel"}]},{"lat":"37.2995121612","long":"126.8385173006","imageIndex":5,"items":[{"name":"달달식당","tel":"","addr":"경기도 안산시 상록구 사동 1154-1번지","indutype":"숙박 및 음식점업 - 일반음식","category":"hotel"},{"name":"토프레소(안산한양대점)","tel":"031-407-3406","addr":"경기도 안산시 상록구 사동 1154-1번지","indutype":"숙박 및 음식점업 - 휴게음식","category":"hotel"}]},{"lat":"37.2888738073","long":"126.8542156362","imageIndex":5,"items":[{"name":"달달한봄날","tel":"031-409-8228","addr":"경기도 안산시 상록구 사동 1344-1번지","indutype":"숙박 및 음식점업 - 커피숍","category":"hotel"},{"name":"초이김밥","tel":"031-408-7327","addr":"경기도 안산시 상록구 사동 1344-1번지","indutype":"숙박 및 음식점업 - 한식","category":"hotel"}]},{"lat":"37.2848458098","long":"126.8538852648","imageIndex":5,"items":[{"name":"달보드레","tel":"031-408-9996","addr":"경기도 안산시 상록구 사동 1393-7번지","indutype":"숙박 및 음식점업 - 휴게음식점","category":"hotel"}]},{"lat":"37.2962053720","long":"126.8520245142","imageIndex":5,"items":[{"name":"닭발닥","tel":"031-407-8253","addr":"경기도 안산시 상록구 사동 1304-6번지","indutype":"숙박 및 음식점업 - 호프","category":"hotel"}]},{"lat":"37.3002901034","long":"126.8407375353","imageIndex":5,"items":[{"name":"닭요리하는 남자","tel":"","addr":"경기도 안산시 상록구 사동 1167-1번지","indutype":"숙박 및 음식점업 - 일반음식","category":"hotel"}]},{"lat":"37.2936789774","long":"126.8424885114","imageIndex":5,"items":[{"name":"대가","tel":"031-417-7870","addr":"경기도 안산시 상록구 사동 1353번지","indutype":"숙박 및 음식점업 - 한식","category":"hotel"}]},{"lat":"37.2845669746","long":"126.8542692147","imageIndex":5,"items":[{"name":"대가영양탕","tel":"031-406-0023","addr":"경기도 안산시 상록구 사동 1397번지","indutype":"숙박 및 음식점업 - 한식","category":"hotel"}]},{"lat":"37.3028933480","long":"126.8469129533","imageIndex":5,"items":[{"name":"대관령황태해장국","tel":"031-417-5254","addr":"경기도 안산시 상록구 사동 1182-7번지","indutype":"숙박 및 음식점업 - 한식","category":"hotel"}]},{"lat":"37.2938955496","long":"126.8566530523","imageIndex":5,"items":[{"name":"대동북카페","tel":"070-4345-8104","addr":"경기도 안산시 상록구 사동 1339-6번지","indutype":"숙박 및 음식점업 - 레스토랑","category":"hotel"},{"name":"좋은아침PASTRY","tel":"031-407-3461","addr":"경기도 안산시 상록구 사동 1339-6번지","indutype":"숙박 및 음식점업 - 제과점","category":"hotel"}]},{"lat":"37.2840080996","long":"126.8470759759","imageIndex":5,"items":[{"name":"대명식당","tel":"031-418-8999","addr":"경기도 안산시 상록구 사동 1424-7번지","indutype":"숙박 및 음식점업 - 한식","category":"hotel"},{"name":"대명식당","tel":"","addr":"경기도 안산시 상록구 사동 1424-7번지","indutype":"숙박 및 음식점업 - 한식","category":"hotel"}]},{"lat":"37.3065331110","long":"126.8466347219","imageIndex":5,"items":[{"name":"대박닭발&황을순감자탕","tel":"031-406-2881","addr":"경기도 안산시 상록구 사동 1517-5번지","indutype":"숙박 및 음식점업 - 기타음식","category":"hotel"}]},{"lat":"37.2794805009","long":"126.8505807807","imageIndex":5,"items":[{"name":"대박식당","tel":"031-407-8488","addr":"경기도 안산시 상록구 사동 1479-7번지","indutype":"숙박 및 음식점업 - 일반음식","category":"hotel"}]},{"lat":"37.2798149070","long":"126.8513806863","imageIndex":5,"items":[{"name":"대보영양탕삼계탕","tel":"031-418-7363","addr":"경기도 안산시 상록구 사동 1472-3번지","indutype":"숙박 및 음식점업 - 한식","category":"hotel"},{"name":"치킨클럽","tel":"031-419-5399","addr":"경기도 안산시 상록구 사동 1472-3번지","indutype":"숙박 및 음식점업 - 치킨, 호프","category":"hotel"}]},{"lat":"37.2900628451","long":"126.8539651963","imageIndex":5,"items":[{"name":"대학로","tel":"031-504-5959","addr":"경기도 안산시 상록구 사동 1344번지","indutype":"숙박 및 음식점업 - 한식","category":"hotel"},{"name":"대학로김밥","tel":"031-504-5959","addr":"경기도 안산시 상록구 사동 1344번지","indutype":"숙박 및 음식점업 - 한식","category":"hotel"}]},{"lat":"37.3016508445","long":"126.8408812414","imageIndex":5,"items":[{"name":"대학통닭","tel":"","addr":"경기도 안산시 상록구 사동 1581-1번지","indutype":"숙박 및 음식점업 - 치킨","category":"hotel"}]},{"lat":"37.2798146904","long":"126.8512115502","imageIndex":5,"items":[{"name":"대흥장","tel":"031-438-2727","addr":"경기도 안산시 상록구 사동 1472-2번지","indutype":"숙박 및 음식점업 - 중식","category":"hotel"},{"name":"육덕삼","tel":"031-415-3392","addr":"경기도 안산시 상록구 사동 1472-2번지","indutype":"숙박 및 음식점업 - 한식","category":"hotel"}]},{"lat":"37.2848733932","long":"126.8543249947","imageIndex":5,"items":[{"name":"더노다지장어랑","tel":"031-407-3911","addr":"경기도 안산시 상록구 사동 1396-10번지","indutype":"숙박 및 음식점업 - 한식","category":"hotel"}]},{"lat":"37.3005063946","long":"126.8407709075","imageIndex":5,"items":[{"name":"더술","tel":"","addr":"경기도 안산시 상록구 사동 1169-17번지 삼원빌라 지층","indutype":"숙박 및 음식점업 - 기타주점","category":"hotel"}]},{"lat":"37.3014519398","long":"126.8403853923","imageIndex":5,"items":[{"name":"도너&케밥(Doner&Kebab)","tel":"","addr":"경기도 안산시 상록구 사동 1571-3번지","indutype":"숙박 및 음식점업 - 기타 외국식 음","category":"hotel"},{"name":"우리동네커피공장카페","tel":"031-407-0035","addr":"경기도 안산시 상록구 사동 1571-3번지","indutype":"숙박 및 음식점업 - 휴게음식업","category":"hotel"}]},{"lat":"37.3038648230","long":"126.8456814973","imageIndex":5,"items":[{"name":"도니스","tel":"","addr":"경기도 안산시 상록구 사동 1545-4번지","indutype":"숙박 및 음식점업 - 일반음식점","category":"hotel"}]},{"lat":"37.3013140133","long":"126.8383780319","imageIndex":5,"items":[{"name":"돈까스원","tel":"","addr":"경기도 안산시 상록구 사동 1568-12번지","indutype":"숙박 및 음식점업 - 일반음식","category":"hotel"},{"name":"포나향","tel":"","addr":"경기도 안산시 상록구 사동 1568-12번지","indutype":"숙박 및 음식점업 - 일반음식","category":"hotel"}]},{"lat":"37.2960401896","long":"126.8496902593","imageIndex":5,"items":[{"name":"돈사장과 김여사","tel":"","addr":"경기도 안산시 상록구 사동 1308번지","indutype":"숙박 및 음식점업 - 일반음식","category":"hotel"}]},{"lat":"37.2861081342","long":"126.8545932084","imageIndex":5,"items":[{"name":"돈스김밥","tel":"031-407-6226","addr":"경기도 안산시 상록구 사동 1346번지 상록수타운월드아파트","indutype":"숙박 및 음식점업 - 간이음식점","category":"hotel"}]},{"lat":"37.2836500807","long":"126.8489034807","imageIndex":5,"items":[{"name":"돈키호테의풍차","tel":"070-4686-9001","addr":"경기도 안산시 상록구 사동 1420-17번지","indutype":"숙박 및 음식점업 - 기타주점","category":"hotel"},{"name":"피자마루","tel":"031-408-1082","addr":"경기도 안산시 상록구 사동 1420-17번지","indutype":"숙박 및 음식점업 - 일반음식","category":"hotel"}]},{"lat":"37.3023415110","long":"126.8521588873","imageIndex":5,"items":[{"name":"돌쇠네실내포장마차","tel":"031-415-9151","addr":"경기도 안산시 상록구 사동 1202-5번지","indutype":"숙박 및 음식점업 - 간이주점","category":"hotel"}]},{"lat":"37.2951440975","long":"126.8535491707","imageIndex":5,"items":[{"name":"동강통돼지숯불구이","tel":"031-408-0345","addr":"경기도 안산시 상록구 사동 1321-8번지","indutype":"숙박 및 음식점업 - 한식","category":"hotel"}]},{"lat":"37.3005951640","long":"126.8398007346","imageIndex":5,"items":[{"name":"동그라미","tel":"031-407-3267","addr":"경기도 안산시 상록구 사동 1152번지","indutype":"숙박 및 음식점업 - 일반음식점","category":"hotel"},{"name":"신발신은기봉이","tel":"031-438-2777","addr":"경기도 안산시 상록구 사동 1152번지","indutype":"숙박 및 음식점업 - 기타주점","category":"hotel"}]},{"lat":"37.3001442339","long":"126.8394971806","imageIndex":5,"items":[{"name":"동아리식당","tel":"031-407-8685","addr":"경기도 안산시 상록구 사동 1151-3번지","indutype":"숙박 및 음식점업 - 한식점업","category":"hotel"}]},{"lat":"37.3015642488","long":"126.8502994014","imageIndex":5,"items":[{"name":"동태밥상","tel":"031-501-1203","addr":"경기도 안산시 상록구 사동 1197-8번지","indutype":"숙박 및 음식점업 - 한식","category":"hotel"}]},{"lat":"37.2949556073","long":"126.8541247226","imageIndex":5,"items":[{"name":"동해루","tel":"031-502-3666","addr":"경기도 안산시 상록구 사동 1333번지","indutype":"숙박 및 음식점업 - 중식","category":"hotel"}]},{"lat":"37.3011152082","long":"126.8379611440","imageIndex":5,"items":[{"name":"돼지우리","tel":"031-487-5587","addr":"경기도 안산시 상록구 사동 1569-6번지 한대트윈스빌2","indutype":"숙박 및 음식점업 - 한식","category":"hotel"},{"name":"브이떡볶이","tel":"031-416-3964","addr":"경기도 안산시 상록구 사동 1569-6번지","indutype":"숙박 및 음식점업 - 떡볶이","category":"hotel"},{"name":"취해","tel":"031-408-2427","addr":"경기도 안산시 상록구 사동 1569-6번지 한대트윈스빌2","indutype":"숙박 및 음식점업 - 한식","category":"hotel"}]},{"lat":"37.3023666507","long":"126.8506812709","imageIndex":5,"items":[{"name":"둥근상시골집","tel":"031-408-0408","addr":"경기도 안산시 상록구 사동 1199-12번지","indutype":"숙박 및 음식점업 - 한식","category":"hotel"}]},{"lat":"37.3008987747","long":"126.8378262696","imageIndex":5,"items":[{"name":"디델리","tel":"031-501-1195","addr":"경기도 안산시 상록구 사동 1569-5번지","indutype":"숙박 및 음식점업 - 기타음식","category":"hotel"},{"name":"유원치킨","tel":"031-502-9279","addr":"경기도 안산시 상록구 사동 1569-5번지","indutype":"숙박 및 음식점업 - 치킨","category":"hotel"},{"name":"유원치킨","tel":"031-502-9279","addr":"경기도 안산시 상록구 사동 1569-5번지","indutype":"숙박 및 음식점업 - 호프","category":"hotel"}]},{"lat":"37.3017282158","long":"126.8381853861","imageIndex":5,"items":[{"name":"떼드떼 한양대","tel":"031-406-6789","addr":"경기도 안산시 상록구 사동 1564-3번지","indutype":"숙박 및 음식점업 - 휴게음식","category":"hotel"}]},{"lat":"37.3010402582","long":"126.8563234108","imageIndex":5,"items":[{"name":"또봉이통닭","tel":"031-418-9288","addr":"경기도 안산시 상록구 사동 1240-17번지","indutype":"숙박 및 음식점업 - 기타주점","category":"hotel"}]},{"lat":"37.2798413017","long":"126.8508844995","imageIndex":5,"items":[{"name":"또봉이통닭","tel":"031-482-1555","addr":"경기도 안산시 상록구 사동 1472번지","indutype":"숙박 및 음식점업 - 치킨","category":"hotel"}]},{"lat":"37.2807347002","long":"126.8519651897","imageIndex":5,"items":[{"name":"라라분식","tel":"","addr":"경기도 안산시 상록구 사동 1470-7번지","indutype":"숙박 및 음식점업 - 분식,일반음식업","category":"hotel"}]},{"lat":"37.3003425985","long":"126.8395982610","imageIndex":5,"items":[{"name":"라이크잇(Like Eat)","tel":"","addr":"경기도 안산시 상록구 사동 1151-6번지","indutype":"숙박 및 음식점업 - 기타음식","category":"hotel"}]},{"lat":"37.2971201556","long":"126.8487181313","imageIndex":5,"items":[{"name":"락궁중화요리","tel":"031-409-8400","addr":"경기도 안산시 상록구 사동 1296번지","indutype":"숙박 및 음식점업 - 중식","category":"hotel"}]},{"lat":"37.2975905581","long":"126.8501608089","imageIndex":5,"items":[{"name":"러브커피엔비어","tel":"","addr":"경기도 안산시 상록구 사동 1299-9번지","indutype":"숙박 및 음식점업 - 기타음식","category":"hotel"},{"name":"명품국수 족발","tel":"","addr":"경기도 안산시 상록구 사동 1299-9번지","indutype":"숙박 및 음식점업 - 한식","category":"hotel"}]},{"lat":"37.2939502597","long":"126.8432097194","imageIndex":5,"items":[{"name":"류식당","tel":"031-438-3161","addr":"경기도 안산시 상록구 사동 1349-15번지","indutype":"숙박 및 음식점업 - 일반음식","category":"hotel"}]},{"lat":"37.3012601872","long":"126.8385473336","imageIndex":5,"items":[{"name":"리틀포레스트","tel":"","addr":"경기도 안산시 상록구 사동 1568-11번지","indutype":"숙박 및 음식점업 - 일반음식점업","category":"hotel"}]},{"lat":"37.3002608678","long":"126.8391360062","imageIndex":5,"items":[{"name":"마루","tel":"031-406-1259","addr":"경기도 안산시 상록구 사동 1149-10번지","indutype":"숙박 및 음식점업 - 휴게음식","category":"hotel"}]},{"lat":"37.3029270305","long":"126.8520449267","imageIndex":5,"items":[{"name":"마마 닭강정","tel":"031-502-9222","addr":"경기도 안산시 상록구 사동 1201-4번지","indutype":"숙박 및 음식점업 - 기타음식","category":"hotel"}]},{"lat":"37.3018655246","long":"126.8397415963","imageIndex":5,"items":[{"name":"마시내탕수육","tel":"031-415-6611","addr":"경기도 안산시 상록구 사동 1573-8번지","indutype":"숙박 및 음식점업 - 일반음식","category":"hotel"}]},{"lat":"37.2957286340","long":"126.8526570421","imageIndex":5,"items":[{"name":"마엑스(x)포차","tel":"031-405-4404","addr":"경기도 안산시 상록구 사동 1304-11번지","indutype":"숙박 및 음식점업 - 기타주점","category":"hotel"}]},{"lat":"37.2809864254","long":"126.8515249254","imageIndex":5,"items":[{"name":"마이웨이","tel":"031-520-4822","addr":"경기도 안산시 상록구 사동 1469-13번지","indutype":"숙박 및 음식점업 - 호프","category":"hotel"}]},{"lat":"37.3042340313","long":"126.8455228171","imageIndex":5,"items":[{"name":"마칼홍언니","tel":"","addr":"경기도 안산시 상록구 사동 1546-3번지","indutype":"숙박 및 음식점업 - 마카롱","category":"hotel"}]},{"lat":"37.2877907557","long":"126.8458277120","imageIndex":5,"items":[{"name":"마포화로구이","tel":"031-416-3070","addr":"경기도 안산시 상록구 사동 1372-6번지","indutype":"숙박 및 음식점업 - 한식","category":"hotel"}]},{"lat":"37.3059827132","long":"126.8460493178","imageIndex":5,"items":[{"name":"만볶셰프본점","tel":"031-407-7011","addr":"경기도 안산시 상록구 사동 1523번지","indutype":"숙박 및 음식점업 - 일반음식","category":"hotel"}]},{"lat":"37.3003959740","long":"126.8391018768","imageIndex":5,"items":[{"name":"맛자랑","tel":"031-409-3993","addr":"경기도 안산시 상록구 사동 1149-9번지","indutype":"숙박 및 음식점업 - 한식","category":"hotel"},{"name":"참새방앗간","tel":"031-406-8381","addr":"경기도 안산시 상록구 사동 1149-9번지","indutype":"숙박 및 음식점업 - 한식","category":"hotel"}]},{"lat":"37.2798409104","long":"126.8505800545","imageIndex":5,"items":[{"name":"맛죠타","tel":"031-418-5100","addr":"경기도 안산시 상록구 사동 1480-5번지","indutype":"숙박 및 음식점업 - 한식","category":"hotel"},{"name":"맛짱호프","tel":"","addr":"경기도 안산시 상록구 사동 1480-5번지","indutype":"숙박 및 음식점업 - 기타음식","category":"hotel"}]},{"lat":"37.2837095671","long":"126.8531319896","imageIndex":5,"items":[{"name":"매콤허니","tel":"","addr":"경기도 안산시 상록구 사동 1400번지","indutype":"숙박 및 음식점업 - 분식 및 김밥전","category":"hotel"},{"name":"행복열매 구원식당","tel":"031-409-6944","addr":"경기도 안산시 상록구 사동 1400번지","indutype":"숙박 및 음식점업 - 한식","category":"hotel"}]},{"lat":"37.2972008799","long":"126.8484360076","imageIndex":5,"items":[{"name":"맥코윈숯불바베큐","tel":"031-502-8292","addr":"경기도 안산시 상록구 사동 1285-2번지","indutype":"숙박 및 음식점업 - 기타음식점","category":"hotel"}]},{"lat":"37.3040114548","long":"126.8408310603","imageIndex":5,"items":[{"name":"머꼬가게","tel":"","addr":"경기도 안산시 상록구 사동 1553번지 숲속마을아파트","indutype":"숙박 및 음식점업 - 음식점","category":"hotel"},{"name":"숲속쉼표","tel":"","addr":"경기도 안산시 상록구 사동 1553번지 숲속마을아파트","indutype":"숙박 및 음식점업 - 카페","category":"hotel"}]},{"lat":"37.3000100287","long":"126.8401854764","imageIndex":5,"items":[{"name":"머꼬가자","tel":"031-408-0033","addr":"경기도 안산시 상록구 사동 1155-12번지","indutype":"숙박 및 음식점업 - 한식","category":"hotel"}]},{"lat":"37.3020920189","long":"126.8473544926","imageIndex":5,"items":[{"name":"머슴식당양푼생갈비","tel":"031-409-8886","addr":"경기도 안산시 상록구 사동 1191-15번지","indutype":"숙박 및 음식점업 - 한식","category":"hotel"},{"name":"장군왕족발보쌈","tel":"0507-0493-5731","addr":"경기도 안산시 상록구 사동 1191-15번지","indutype":"숙박 및 음식점업 - 일반음식점(족발","category":"hotel"}]},{"lat":"37.3013124718","long":"126.8372726959","imageIndex":5,"items":[{"name":"먹보의 밥상","tel":"070-8780-8898","addr":"경기도 안산시 상록구 사동 1562-3번지","indutype":"숙박 및 음식점업 - 기타","category":"hotel"}]},{"lat":"37.2832602060","long":"126.8470436889","imageIndex":5,"items":[{"name":"명동찌개마을","tel":"031-407-8839","addr":"경기도 안산시 상록구 사동 1431-2번지","indutype":"숙박 및 음식점업 - 한식","category":"hotel"},{"name":"소메랑 사동점","tel":"031-501-4025","addr":"경기도 안산시 상록구 사동 1431-2번지","indutype":"숙박 및 음식점업 - 한식","category":"hotel"}]},{"lat":"37.3062345198","long":"126.8456878442","imageIndex":5,"items":[{"name":"명옥부대찌개","tel":"031-417-8686","addr":"경기도 안산시 상록구 사동 1519-15번지","indutype":"숙박 및 음식점업 - 한식","category":"hotel"}]},{"lat":"37.2844856863","long":"126.8471088207","imageIndex":5,"items":[{"name":"명태마루","tel":"031-415-4181","addr":"경기도 안산시 상록구 사동 1424-3번지","indutype":"숙박 및 음식점업 - 일반음식점","category":"hotel"}]},{"lat":"37.2950614912","long":"126.8523538616","imageIndex":5,"items":[{"name":"명품치킨포차","tel":"031-437-9982","addr":"경기도 안산시 상록구 사동 1318-8번지","indutype":"숙박 및 음식점업 - 기타음식","category":"hotel"},{"name":"북경장","tel":"031-406-1120","addr":"경기도 안산시 상록구 사동 1318-8번지","indutype":"숙박 및 음식점업 - 한식","category":"hotel"},{"name":"자담치킨","tel":"031-437-9982","addr":"경기도 안산시 상록구 사동 1318-8번지","indutype":"숙박 및 음식점업 - 치킨","category":"hotel"},{"name":"착한밥상","tel":"","addr":"경기도 안산시 상록구 사동 1318-8번지","indutype":"숙박 및 음식점업 - 한식","category":"hotel"},{"name":"카페글렌","tel":"","addr":"경기도 안산시 상록구 사동 1318-8번지","indutype":"숙박 및 음식점업 - 카페","category":"hotel"},{"name":"홍도네백반","tel":"","addr":"경기도 안산시 상록구 사동 1318-8번지","indutype":"숙박 및 음식점업 - 음식점","category":"hotel"}]},{"lat":"37.3022626636","long":"126.8469368140","imageIndex":5,"items":[{"name":"모박사부대찌개","tel":"031-406-2223","addr":"경기도 안산시 상록구 사동 1184-3번지","indutype":"숙박 및 음식점업 - 한식점업","category":"hotel"}]},{"lat":"37.2936795879","long":"126.8429396234","imageIndex":5,"items":[{"name":"무교낙지","tel":"031-408-7305","addr":"경기도 안산시 상록구 사동 1352-1번지","indutype":"숙박 및 음식점업 - 한식","category":"hotel"}]},{"lat":"37.2949822264","long":"126.8537976074","imageIndex":5,"items":[{"name":"무궁화생갈비&왕갈비","tel":"031-407-5808","addr":"경기도 안산시 상록구 사동 1321-6번지","indutype":"숙박 및 음식점업 - 기타음식","category":"hotel"}]},{"lat":"37.3028686378","long":"126.8486838397","imageIndex":5,"items":[{"name":"무봉리토종순대국","tel":"031-419-9907","addr":"경기도 안산시 상록구 사동 1186-15번지","indutype":"숙박 및 음식점업 - 한식","category":"hotel"}]},{"lat":"37.3028660322","long":"126.8536805334","imageIndex":5,"items":[{"name":"무한버섯샤브","tel":"031-407-9449","addr":"경기도 안산시 상록구 사동 1209-7번지","indutype":"숙박 및 음식점업 - 일반음식점","category":"hotel"}]},{"lat":"37.2959838642","long":"126.8347467884","imageIndex":5,"items":[{"name":"미가현","tel":"031-436-8025","addr":"경기도 안산시 상록구 사동 1271번지","indutype":"숙박 및 음식점업 - 한식","category":"hotel"},{"name":"바르바커피","tel":"031-419-1855","addr":"경기도 안산시 상록구 사동 1271번지","indutype":"숙박 및 음식점업 - 휴게음식","category":"hotel"}]},{"lat":"37.3037557396","long":"126.8449598467","imageIndex":5,"items":[{"name":"미도호프","tel":"031-416-1758","addr":"경기도 안산시 상록구 사동 1545-9번지","indutype":"숙박 및 음식점업 - 호프","category":"hotel"}]},{"lat":"37.3008960949","long":"126.8563236905","imageIndex":5,"items":[{"name":"미선씨꼼장어","tel":"031-417-0507","addr":"경기도 안산시 상록구 사동 1240-16번지","indutype":"숙박 및 음식점업 - 기타음식","category":"hotel"}]},{"lat":"37.2947614340","long":"126.8573844461","imageIndex":5,"items":[{"name":"미스터파파임실치즈피자","tel":"031-408-0090","addr":"경기도 안산시 상록구 사동 1338-6번지","indutype":"숙박 및 음식점업 - 피자","category":"hotel"}]},{"lat":"37.3008173366","long":"126.8375783118","imageIndex":5,"items":[{"name":"미스터피자","tel":"031-416-3300","addr":"경기도 안산시 상록구 사동 1569-4번지","indutype":"숙박 및 음식점업 - 일반음식점업","category":"hotel"},{"name":"미스터피자(안산한대점)","tel":"031-416-3300","addr":"경기도 안산시 상록구 사동 1569-4번지","indutype":"숙박 및 음식점업 - 일반음식","category":"hotel"},{"name":"비엔나커피하우스 안산한양대점","tel":"031-502-1683","addr":"경기도 안산시 상록구 사동 1569-4번지","indutype":"숙박 및 음식점업 - 휴게음식업","category":"hotel"}]},{"lat":"37.3015644889","long":"126.8370804002","imageIndex":5,"items":[{"name":"미하루식당","tel":"031-408-3065","addr":"경기도 안산시 상록구 사동 1562-1번지","indutype":"숙박 및 음식점업 - 일반음식점","category":"hotel"}]},{"lat":"37.3007879724","long":"126.8563239003","imageIndex":5,"items":[{"name":"민진이네","tel":"031-480-0861","addr":"경기도 안산시 상록구 사동 1240-15번지","indutype":"숙박 및 음식점업 - 음식","category":"hotel"}]},{"lat":"37.3020055616","long":"126.8367748969","imageIndex":5,"items":[{"name":"밀숲칼국수(안산한양대점)","tel":"031-408-8625","addr":"경기도 안산시 상록구 사동 1561-5번지 해비치","indutype":"숙박 및 음식점업 - 일반음식점","category":"hotel"}]},{"lat":"37.3001438444","long":"126.8392152115","imageIndex":5,"items":[{"name":"밀플랜비","tel":"","addr":"경기도 안산시 상록구 사동 1149-11번지","indutype":"숙박 및 음식점업 - 분식","category":"hotel"}]},{"lat":"37.3056147549","long":"126.8471554844","imageIndex":5,"items":[{"name":"바다탈출광어한마리","tel":"031-502-7001","addr":"경기도 안산시 상록구 사동 1524-2번지","indutype":"숙박 및 음식점업 - 한식","category":"hotel"}]},{"lat":"37.2938662054","long":"126.8547922616","imageIndex":5,"items":[{"name":"바삭","tel":"031-408-8485","addr":"경기도 안산시 상록구 사동 1320-6번지","indutype":"숙박 및 음식점업 - 일반음식","category":"hotel"},{"name":"요거프레소감골도서관점","tel":"031-417-9228","addr":"경기도 안산시 상록구 사동 1320-6번지","indutype":"숙박 및 음식점업 - 카페","category":"hotel"}]},{"lat":"37.2933950215","long":"126.8206102028","imageIndex":5,"items":[{"name":"반반한명태가","tel":"031-502-6601","addr":"경기도 안산시 상록구 사동 1511번지","indutype":"숙박 및 음식점업 - 한식","category":"hotel"},{"name":"별일이네","tel":"031-502-9009","addr":"경기도 안산시 상록구 사동 1511번지","indutype":"숙박 및 음식점업 - 한식","category":"hotel"},{"name":"상하이궁","tel":"031-520-7745","addr":"경기도 안산시 상록구 사동 1511번지 안산고잔9차푸르지오","indutype":"숙박 및 음식점업 - 중식","category":"hotel"},{"name":"코만도숯불바베큐","tel":"031-502-7753","addr":"경기도 안산시 상록구 사동 1511번지","indutype":"숙박 및 음식점업 - 치킨","category":"hotel"}]},{"lat":"37.3000886731","long":"126.8384145370","imageIndex":5,"items":[{"name":"밥풀","tel":"","addr":"경기도 안산시 상록구 사동 1149-3번지","indutype":"숙박 및 음식점업 - 한식","category":"hotel"}]},{"lat":"37.2967073682","long":"126.8500159767","imageIndex":5,"items":[{"name":"배달삼겹돼지되지","tel":"031-8032-9258","addr":"경기도 안산시 상록구 사동 1297-6번지","indutype":"숙박 및 음식점업 - 한식","category":"hotel"},{"name":"옛날통닭","tel":"031-501-9985","addr":"경기도 안산시 상록구 사동 1297-6번지","indutype":"숙박 및 음식점업 - 치킨","category":"hotel"}]},{"lat":"37.2825351160","long":"126.8506873873","imageIndex":5,"items":[{"name":"베이크썸","tel":"031-500-8786","addr":"경기도 안산시 상록구 사동 1415-4번지","indutype":"숙박 및 음식점업 - 즉석판매제조가공","category":"hotel"}]},{"lat":"37.2848190945","long":"126.8471306865","imageIndex":5,"items":[{"name":"베트남쌀국수(DAM)","tel":"","addr":"경기도 안산시 상록구 사동 1424번지","indutype":"숙박 및 음식점업 - 일반음식","category":"hotel"}]},{"lat":"37.2837918541","long":"126.8470764217","imageIndex":5,"items":[{"name":"벡년순대","tel":"031-419-6678","addr":"경기도 안산시 상록구 사동 1424-9번지","indutype":"숙박 및 음식점업 - 한식","category":"hotel"}]},{"lat":"37.3023926516","long":"126.8365259046","imageIndex":5,"items":[{"name":"병천순대","tel":"031-437-5822","addr":"경기도 안산시 상록구 사동 1561-2번지","indutype":"숙박 및 음식점업 - 한식","category":"hotel"}]},{"lat":"37.3032829735","long":"126.8556535818","imageIndex":5,"items":[{"name":"보리수치킨","tel":"031-407-1553","addr":"경기도 안산시 상록구 사동 1536번지 푸른마을주공5단지아파트","indutype":"숙박 및 음식점업 - 음식","category":"hotel"}]},{"lat":"37.2960667818","long":"126.8493518597","imageIndex":5,"items":[{"name":"봄이네누룽지","tel":"","addr":"경기도 안산시 상록구 사동 1295-8번지","indutype":"숙박 및 음식점업 - 누룽지","category":"hotel"}]},{"lat":"37.3002585909","long":"126.8581295383","imageIndex":5,"items":[{"name":"봉수아피자","tel":"031-437-8885","addr":"경기도 안산시 상록구 사동 1248-21번지","indutype":"숙박 및 음식점업 - 음식","category":"hotel"}]},{"lat":"37.3002603210","long":"126.8387412489","imageIndex":5,"items":[{"name":"부대통령뚝배기","tel":"031-501-7400","addr":"경기도 안산시 상록구 사동 1149-6번지","indutype":"숙박 및 음식점업 - 일반음식점","category":"hotel"},{"name":"북촌손만두","tel":"","addr":"경기도 안산시 상록구 사동 1149-6번지","indutype":"숙박 및 음식점업 - 일반음식","category":"hotel"},{"name":"요거프레소","tel":"031-501-7500","addr":"경기도 안산시 상록구 사동 1149-6번지","indutype":"숙박 및 음식점업 - 커피숍","category":"hotel"}]},{"lat":"37.2856210790","long":"126.8471854169","imageIndex":5,"items":[{"name":"부뚜막집밥","tel":"031-416-5455","addr":"경기도 안산시 상록구 사동 1386-6번지","indutype":"숙박 및 음식점업 - 한식","category":"hotel"}]},{"lat":"37.3029016602","long":"126.8533533659","imageIndex":5,"items":[{"name":"부엉이돈까스안산사동점","tel":"031-407-0908","addr":"경기도 안산시 상록구 사동 1209-5번지","indutype":"숙박 및 음식점업 - 일반음식","category":"hotel"},{"name":"카페파우즈","tel":"031-407-8260","addr":"경기도 안산시 상록구 사동 1209-5번지","indutype":"숙박 및 음식점업 - 커피전문점","category":"hotel"}]},{"lat":"37.2801748976","long":"126.8510529660","imageIndex":5,"items":[{"name":"불량한퓨전호프","tel":"031-408-6692","addr":"경기도 안산시 상록구 사동 1471-15번지","indutype":"숙박 및 음식점업 - 한식","category":"hotel"}]},{"lat":"37.2859811912","long":"126.8469591412","imageIndex":5,"items":[{"name":"불타는 포차","tel":"031-405-4404","addr":"경기도 안산시 상록구 사동 1386-3번지","indutype":"숙박 및 음식점업 - 기타 주점","category":"hotel"}]},{"lat":"37.3014813529","long":"126.8559954638","imageIndex":5,"items":[{"name":"브꾸스냐쉬까","tel":"031-409-6375","addr":"경기도 안산시 상록구 사동 1253-4번지","indutype":"숙박 및 음식점업 - 기타 음식점업","category":"hotel"}]},{"lat":"37.3000642759","long":"126.8403207050","imageIndex":5,"items":[{"name":"브라더스테이크","tel":"070-4617-1333","addr":"경기도 안산시 상록구 사동 1155-11번지","indutype":"숙박 및 음식점업 - 한식","category":"hotel"}]},{"lat":"37.2966991865","long":"126.8506588555","imageIndex":5,"items":[{"name":"브로스경양식","tel":"031-418-5736","addr":"경기도 안산시 상록구 사동 1305-1번지","indutype":"숙박 및 음식점업 - 호프","category":"hotel"}]},{"lat":"37.3020891822","long":"126.8521255536","imageIndex":5,"items":[{"name":"비어파크","tel":"031-402-8882","addr":"경기도 안산시 상록구 사동 1203-1번지","indutype":"숙박 및 음식점업 - 치킨","category":"hotel"}]},{"lat":"37.2834854617","long":"126.8470432244","imageIndex":5,"items":[{"name":"빵익는아침","tel":"031-406-9390","addr":"경기도 안산시 상록구 사동 1431번지","indutype":"숙박 및 음식점업 - 제과점","category":"hotel"}]},{"lat":"37.2798151234","long":"126.8515498223","imageIndex":5,"items":[{"name":"사동 어사출또","tel":"031-504-2984","addr":"경기도 안산시 상록구 사동 1472-4번지","indutype":"숙박 및 음식점업 - 한식,포장판매","category":"hotel"}]},{"lat":"37.2795150273","long":"126.8494080361","imageIndex":5,"items":[{"name":"사동기사식당","tel":"031-418-3623","addr":"경기도 안산시 상록구 사동 1479번지","indutype":"숙박 및 음식점업 - 한식","category":"hotel"}]},{"lat":"37.2850359178","long":"126.8475700249","imageIndex":5,"items":[{"name":"사동맛짜장","tel":"031-408-3323","addr":"경기도 안산시 상록구 사동 1388-4번지","indutype":"숙박 및 음식점업 - 중식","category":"hotel"}]},{"lat":"37.2826744003","long":"126.8539346503","imageIndex":5,"items":[{"name":"사동면옥","tel":"031-415-5040","addr":"경기도 안산시 상록구 사동 1403-2번지","indutype":"숙박 및 음식점업 - 한식 음식점업","category":"hotel"}]},{"lat":"37.2835900946","long":"126.8512941847","imageIndex":5,"items":[{"name":"사동포구","tel":"031-418-9409","addr":"경기도 안산시 상록구 사동 1407-25번지","indutype":"숙박 및 음식점업 - 간이음식","category":"hotel"}]},{"lat":"37.2999009585","long":"126.8394977068","imageIndex":5,"items":[{"name":"사이랩공간디자인","tel":"","addr":"경기도 안산시 상록구 사동 1155번지","indutype":"숙박 및 음식점업 - 음료","category":"hotel"}]},{"lat":"37.2937625461","long":"126.8443266229","imageIndex":5,"items":[{"name":"산골송어","tel":"031-416-2280","addr":"경기도 안산시 상록구 사동 1352-7번지","indutype":"숙박 및 음식점업 - 한식","category":"hotel"}]},{"lat":"37.2939220697","long":"126.8423526608","imageIndex":5,"items":[{"name":"산두리비빔국수","tel":"031-408-4613","addr":"경기도 안산시 상록구 사동 1349-22번지","indutype":"숙박 및 음식점업 - 일반음식","category":"hotel"}]},{"lat":"37.2985915639","long":"126.8580199473","imageIndex":5,"items":[{"name":"산촌오리참옻집","tel":"031-407-3690","addr":"경기도 안산시 상록구 사동 1266-4번지","indutype":"숙박 및 음식점업 - 한식","category":"hotel"}]},{"lat":"37.2832062169","long":"126.8541027463","imageIndex":5,"items":[{"name":"삼계탕하우스","tel":"031-416-3233","addr":"경기도 안산시 상록구 사동 1401-7번지","indutype":"숙박 및 음식점업 - 한식","category":"hotel"}]},{"lat":"37.2943728402","long":"126.8425434279","imageIndex":5,"items":[{"name":"삼수갑산","tel":"031-417-1792","addr":"경기도 안산시 상록구 사동 1348번지","indutype":"숙박 및 음식점업 - 한식","category":"hotel"}]},{"lat":"37.2971800439","long":"126.8462931624","imageIndex":5,"items":[{"name":"삿뽀로","tel":"031-415-6999","addr":"경기도 안산시 상록구 사동 1284-18번지","indutype":"숙박 및 음식점업 - 호프","category":"hotel"}]},{"lat":"37.2907869136","long":"126.8298526845","imageIndex":5,"items":[{"name":"상록한정식","tel":"031-500-4455","addr":"경기도 안산시 상록구 사동 1271-11번지","indutype":"숙박 및 음식점업 - 한식 음식점업","category":"hotel"},{"name":"옹고집","tel":"031-500-4999","addr":"경기도 안산시 상록구 사동 1271-11번지","indutype":"숙박 및 음식점업 - 한식","category":"hotel"}]},{"lat":"37.2812337775","long":"126.8477131497","imageIndex":5,"items":[{"name":"상록한정식뷔페","tel":"031-502-0705","addr":"경기도 안산시 상록구 사동 1485-1번지","indutype":"숙박 및 음식점업 - 한식","category":"hotel"}]},{"lat":"37.3000636709","long":"126.8398808336","imageIndex":5,"items":[{"name":"성북동경양식","tel":"031-501-2668","addr":"경기도 안산시 상록구 사동 1155-3번지","indutype":"숙박 및 음식점업 - 경양식","category":"hotel"}]},{"lat":"37.2843673426","long":"126.8531532391","imageIndex":5,"items":[{"name":"성일이네맛집","tel":"","addr":"경기도 안산시 상록구 사동 1398-12번지","indutype":"숙박 및 음식점업 - 일반음식점,매점","category":"hotel"},{"name":"케익델리","tel":"031-501-0104","addr":"경기도 안산시 상록구 사동 1398-12번지","indutype":"숙박 및 음식점업 - 제과","category":"hotel"}]},{"lat":"37.2807605919","long":"126.8510743413","imageIndex":5,"items":[{"name":"세븐치킨","tel":"","addr":"경기도 안산시 상록구 사동 1470-1번지","indutype":"숙박 및 음식점업 - 기타음식","category":"hotel"}]},{"lat":"37.3028162012","long":"126.8499359378","imageIndex":5,"items":[{"name":"세븐호프경양식","tel":"031-406-9383","addr":"경기도 안산시 상록구 사동 1200-17번지","indutype":"숙박 및 음식점업 - 일반음식점","category":"hotel"}]},{"lat":"37.2943734504","long":"126.8429945441","imageIndex":5,"items":[{"name":"소담불쭈꾸미","tel":"031-437-6011","addr":"경기도 안산시 상록구 사동 1348-3번지","indutype":"숙박 및 음식점업 - 한식","category":"hotel"}]},{"lat":"37.2963109807","long":"126.8432385644","imageIndex":5,"items":[{"name":"소문난 토종순대","tel":"031-415-7108","addr":"경기도 안산시 상록구 사동 1275-6번지","indutype":"숙박 및 음식점업 - 한식","category":"hotel"}]},{"lat":"37.2945685220","long":"126.8544074340","imageIndex":5,"items":[{"name":"소문난쭈꾸미","tel":"031-407-1040","addr":"경기도 안산시 상록구 사동 1333-14번지","indutype":"숙박 및 음식점업 - 일반음식","category":"hotel"}]},{"lat":"37.2993101863","long":"126.8562365383","imageIndex":5,"items":[{"name":"숯겹살집","tel":"031-417-2690","addr":"경기도 안산시 상록구 사동 1241-8번지","indutype":"숙박 및 음식점업 - 한식","category":"hotel"}]},{"lat":"37.2798415043","long":"126.8510423599","imageIndex":5,"items":[{"name":"숯불고기굽는집","tel":"031-417-9266","addr":"경기도 안산시 상록구 사동 1472-1번지","indutype":"숙박 및 음식점업 - 한식","category":"hotel"}]},{"lat":"37.2918691299","long":"126.8502174848","imageIndex":5,"items":[{"name":"슈가블라썸","tel":"","addr":"경기도 안산시 상록구 사동 1345번지","indutype":"숙박 및 음식점업 - 휴게음식","category":"hotel"}]},{"lat":"37.3010903051","long":"126.8394951341","imageIndex":5,"items":[{"name":"스낵플랜트","tel":"031-407-8609","addr":"경기도 안산시 상록구 사동 1570-7번지","indutype":"숙박 및 음식점업 - 분식","category":"hotel"}]},{"lat":"37.2809868143","long":"126.8518293750","imageIndex":5,"items":[{"name":"스몰비어","tel":"031-487-0032","addr":"경기도 안산시 상록구 사동 1469-11번지","indutype":"숙박 및 음식점업 - 기타주점","category":"hotel"}]},{"lat":"37.2952870333","long":"126.8525789737","imageIndex":5,"items":[{"name":"스시향","tel":"031-407-4313","addr":"경기도 안산시 상록구 사동 1318-1번지","indutype":"숙박 및 음식점업 - 일식","category":"hotel"},{"name":"현일병까스돈 상록구점","tel":"031-409-3200","addr":"경기도 안산시 상록구 사동 1318-1번지","indutype":"숙박 및 음식점업 - 한식","category":"hotel"}]},{"lat":"37.2844030409","long":"126.8528825336","imageIndex":5,"items":[{"name":"스프링탑","tel":"031-505-1526","addr":"경기도 안산시 상록구 사동 1409-13번지","indutype":"숙박 및 음식점업 - 커피숍","category":"hotel"}]},{"lat":"37.3023404852","long":"126.8378795146","imageIndex":5,"items":[{"name":"시골밥상","tel":"","addr":"경기도 안산시 상록구 사동 1558-3번지","indutype":"숙박 및 음식점업 - 한식","category":"hotel"},{"name":"쌈앤쌈","tel":"031-407-3234","addr":"경기도 안산시 상록구 사동 1558-3번지","indutype":"숙박 및 음식점업 - 기타음식점","category":"hotel"}]},{"lat":"37.3019568659","long":"126.8473547709","imageIndex":5,"items":[{"name":"시골우렁쌈밥","tel":"","addr":"경기도 안산시 상록구 사동 1191-14번지","indutype":"숙박 및 음식점업 - 한식","category":"hotel"}]},{"lat":"37.2997021104","long":"126.8390469877","imageIndex":5,"items":[{"name":"시저","tel":"031-502-7825","addr":"경기도 안산시 상록구 사동 1154-5번지","indutype":"숙박 및 음식점업 - 일반음식","category":"hotel"}]},{"lat":"37.2836511632","long":"126.8497379275","imageIndex":5,"items":[{"name":"신김밥나라","tel":"031-438-3588","addr":"경기도 안산시 상록구 사동 1420-11번지","indutype":"숙박 및 음식점업 - 분식","category":"hotel"},{"name":"피츠버그","tel":"031-418-2145","addr":"경기도 안산시 상록구 사동 1420-11번지","indutype":"숙박 및 음식점업 - 기타음식","category":"hotel"}]},{"lat":"37.3035058186","long":"126.8467424989","imageIndex":5,"items":[{"name":"신라샤브칼국수","tel":"031-418-6014","addr":"경기도 안산시 상록구 사동 1543-4번지","indutype":"숙박 및 음식점업 - 한식","category":"hotel"}]},{"lat":"37.2826745112","long":"126.8470223442","imageIndex":5,"items":[{"name":"신마포갈매기 사동점","tel":"031-502-6692","addr":"경기도 안산시 상록구 사동 1431-7번지","indutype":"숙박 및 음식점업 - 일반음식점업","category":"hotel"}]},{"lat":"37.2965912379","long":"126.8507944123","imageIndex":5,"items":[{"name":"신세대 꼼장어 닭발","tel":"031-408-6738","addr":"경기도 안산시 상록구 사동 1305-2번지","indutype":"숙박 및 음식점업 - 일반음식점업","category":"hotel"}]},{"lat":"37.3021443427","long":"126.8393800630","imageIndex":5,"items":[{"name":"신정골뼈해장국","tel":"031-418-0992","addr":"경기도 안산시 상록구 사동 1574-9번지","indutype":"숙박 및 음식점업 - 한식","category":"hotel"}]},{"lat":"37.2938952225","long":"126.8424880523","imageIndex":5,"items":[{"name":"신중한커피","tel":"031-406-9760","addr":"경기도 안산시 상록구 사동 1349-20번지","indutype":"숙박 및 음식점업 - 카페","category":"hotel"}]},{"lat":"37.3028654700","long":"126.8396040859","imageIndex":5,"items":[{"name":"신풍남원추어탕","tel":"031-408-8809","addr":"경기도 안산시 상록구 사동 1576-3번지","indutype":"숙박 및 음식점업 - 한식","category":"hotel"}]},{"lat":"37.3028704614","long":"126.8367165986","imageIndex":5,"items":[{"name":"아로하","tel":"031-418-7243","addr":"경기도 안산시 상록구 사동 1555-2번지","indutype":"숙박 및 음식점업 - 일반음식","category":"hotel"}]},{"lat":"37.2832085500","long":"126.8488818277","imageIndex":5,"items":[{"name":"아리솔푸드","tel":"031-407-5567","addr":"경기도 안산시 상록구 사동 1419-8번지","indutype":"숙박 및 음식점업 - 음식","category":"hotel"},{"name":"카페리안","tel":"031-502-1209","addr":"경기도 안산시 상록구 사동 1419-8번지","indutype":"숙박 및 음식점업 - 휴게음식점","category":"hotel"}]},{"lat":"37.3012572639","long":"126.8429912520","imageIndex":5,"items":[{"name":"아베크모이","tel":"","addr":"경기도 안산시 상록구 사동 1176-11번지","indutype":"숙박 및 음식점업 - 휴게음식점","category":"hotel"}]},{"lat":"37.3029784140","long":"126.8499581678","imageIndex":5,"items":[{"name":"아사도회 청우","tel":"031-406-1555","addr":"경기도 안산시 상록구 사동 1200번지","indutype":"숙박 및 음식점업 - 주점","category":"hotel"},{"name":"카페아지트","tel":"","addr":"경기도 안산시 상록구 사동 1200번지","indutype":"숙박 및 음식점업 - 휴게음식업","category":"hotel"}]},{"lat":"37.2945901982","long":"126.8573509420","imageIndex":5,"items":[{"name":"아인","tel":"","addr":"경기도 안산시 상록구 사동 1338-7번지","indutype":"숙박 및 음식점업 - 일반음식","category":"hotel"}]},{"lat":"37.3009808710","long":"126.8385479413","imageIndex":5,"items":[{"name":"앤의식탁","tel":"031-407-5360","addr":"경기도 안산시 상록구 사동 1570번지","indutype":"숙박 및 음식점업 - 일반음식","category":"hotel"},{"name":"팬시","tel":"070-8615-2204","addr":"경기도 안산시 상록구 사동 1570번지","indutype":"숙박 및 음식점업 - 일반음식","category":"hotel"}]},{"lat":"37.2940101712","long":"126.8546340890","imageIndex":5,"items":[{"name":"약선족발","tel":"031-408-5567","addr":"경기도 안산시 상록구 사동 1320-5번지","indutype":"숙박 및 음식점업 - 한식","category":"hotel"}]},{"lat":"37.3020896414","long":"126.8524864836","imageIndex":5,"items":[{"name":"양푼이탕앤조림","tel":"031-415-4117","addr":"경기도 안산시 상록구 사동 1207번지","indutype":"숙박 및 음식점업 - 한식","category":"hotel"}]},{"lat":"37.2941765319","long":"126.8439648610","imageIndex":5,"items":[{"name":"어담","tel":"031-408-7789","addr":"경기도 안산시 상록구 사동 1350번지","indutype":"숙박 및 음식점업 - 한식","category":"hotel"}]},{"lat":"37.2831520832","long":"126.8470439118","imageIndex":5,"items":[{"name":"어부횟집","tel":"031-415-9190","addr":"경기도 안산시 상록구 사동 1431-3번지","indutype":"숙박 및 음식점업 - 기타주점","category":"hotel"}]},{"lat":"37.3018127026","long":"126.8473550678","imageIndex":5,"items":[{"name":"어부횟집 상록구청점","tel":"031-406-7770","addr":"경기도 안산시 상록구 사동 1191-13번지","indutype":"숙박 및 음식점업 - 일반음식점업","category":"hotel"}]},{"lat":"37.3040901229","long":"126.8457148665","imageIndex":5,"items":[{"name":"얼크니 손 칼국수","tel":"031-406-5980","addr":"경기도 안산시 상록구 사동 1546-5번지","indutype":"숙박 및 음식점업 - 일반음식","category":"hotel"}]},{"lat":"37.2835374862","long":"126.8524331986","imageIndex":5,"items":[{"name":"엄마손 포천 순대국","tel":"031-417-8283","addr":"경기도 안산시 상록구 사동 1407-17번지","indutype":"숙박 및 음식점업 - 한식","category":"hotel"}]},{"lat":"37.2956188870","long":"126.8513828323","imageIndex":5,"items":[{"name":"엄마손반찬","tel":"031-501-1421","addr":"경기도 안산시 상록구 사동 1305-12번지","indutype":"숙박 및 음식점업 - 반찬","category":"hotel"}]},{"lat":"37.3001722898","long":"126.8402415209","imageIndex":5,"items":[{"name":"에비수","tel":"031-502-3012","addr":"경기도 안산시 상록구 사동 1155-10번지","indutype":"숙박 및 음식점업 - 일식","category":"hotel"},{"name":"에비수","tel":"031-502-3012","addr":"경기도 안산시 상록구 사동 1155-10번지","indutype":"숙박 및 음식점업 - 일식","category":"hotel"}]},{"lat":"37.2833453980","long":"126.8501895988","imageIndex":5,"items":[{"name":"역전 꽈배기","tel":"031-418-1200","addr":"경기도 안산시 상록구 사동 1413-4번지","indutype":"숙박 및 음식점업 - 휴게음식점","category":"hotel"}]},{"lat":"37.3023148965","long":"126.8524860350","imageIndex":5,"items":[{"name":"연안생태찌개","tel":"031-406-1104","addr":"경기도 안산시 상록구 사동 1208-10번지","indutype":"숙박 및 음식점업 - 한식","category":"hotel"}]},{"lat":"37.3037269711","long":"126.8436627835","imageIndex":5,"items":[{"name":"영덕해물탕","tel":"031-415-7776","addr":"경기도 안산시 상록구 사동 1552-3번지","indutype":"숙박 및 음식점업 - 한식","category":"hotel"}]},{"lat":"37.2798760499","long":"126.8498808857","imageIndex":5,"items":[{"name":"영양누룽지백숙","tel":"031-437-6337","addr":"경기도 안산시 상록구 사동 1480-2번지","indutype":"숙박 및 음식점업 - 일반음식","category":"hotel"}]},{"lat":"37.3027294375","long":"126.8525416055","imageIndex":5,"items":[{"name":"영퓨전호프","tel":"","addr":"경기도 안산시 상록구 사동 1209-15번지","indutype":"숙박 및 음식점업 - 기타음식","category":"hotel"}]},{"lat":"37.3013434299","long":"126.8401036513","imageIndex":5,"items":[{"name":"예산닭갈비감자탕","tel":"031-501-8134","addr":"경기도 안산시 상록구 사동 1571-1번지","indutype":"숙박 및 음식점업 - 한식","category":"hotel"}]},{"lat":"37.2836509881","long":"126.8496026118","imageIndex":5,"items":[{"name":"옛날순대국","tel":"031-419-4199","addr":"경기도 안산시 상록구 사동 1420-12번지","indutype":"숙박 및 음식점업 - 한식","category":"hotel"}]},{"lat":"37.3002883193","long":"126.8394404748","imageIndex":5,"items":[{"name":"옛날학사","tel":"031-418-7184","addr":"경기도 안산시 상록구 사동 1151-2번지","indutype":"숙박 및 음식점업 - 한식점업","category":"hotel"}]},{"lat":"37.2823679530","long":"126.8538563212","imageIndex":5,"items":[{"name":"오복영양탕","tel":"031-409-7694","addr":"경기도 안산시 상록구 사동 1403-4번지","indutype":"숙박 및 음식점업 - 한식","category":"hotel"}]},{"lat":"37.3017863832","long":"126.8411629268","imageIndex":5,"items":[{"name":"오븐에 빠진 닭","tel":"031-418-5892","addr":"경기도 안산시 상록구 사동 1581-3번지","indutype":"숙박 및 음식점업 - 기타음식","category":"hotel"}]},{"lat":"37.3005902917","long":"126.8567641597","imageIndex":5,"items":[{"name":"오빠가 구운돼지","tel":"031-506-4279","addr":"경기도 안산시 상록구 사동 1243번지","indutype":"숙박 및 음식점업 - 일반음식","category":"hotel"},{"name":"치킨과 요리의만남 상록수점","tel":"031-502-1272","addr":"경기도 안산시 상록구 사동 1243번지","indutype":"숙박 및 음식점업 - 기타음식","category":"hotel"}]},{"lat":"37.2943730387","long":"126.8426900407","imageIndex":5,"items":[{"name":"오소돈","tel":"031-415-5060","addr":"경기도 안산시 상록구 사동 1348-1번지","indutype":"숙박 및 음식점업 - 일반음식","category":"hotel"}]},{"lat":"37.2992578496","long":"126.8576351947","imageIndex":5,"items":[{"name":"오아시스분식","tel":"","addr":"경기도 안산시 상록구 사동 1252-6번지","indutype":"숙박 및 음식점업 - 기타음식","category":"hotel"},{"name":"펭떡(펭귄즉석떡볶이)","tel":"","addr":"경기도 안산시 상록구 사동 1252-6번지","indutype":"숙박 및 음식점업 - 일반음식","category":"hotel"}]},{"lat":"37.2912888304","long":"126.8544364341","imageIndex":5,"items":[{"name":"오후의테이블","tel":"031-528-6440","addr":"경기도 안산시 상록구 사동 1343번지","indutype":"숙박 및 음식점업 - 일반음식","category":"hotel"},{"name":"행복한안경","tel":"031-418-5877","addr":"경기도 안산시 상록구 사동 1343번지","indutype":"숙박 및 음식점업 - 음식","category":"hotel"}]},{"lat":"37.3019777415","long":"126.8495428682","imageIndex":5,"items":[{"name":"옥향 민속주점","tel":"031-501-0771","addr":"경기도 안산시 상록구 사동 1187-6번지","indutype":"숙박 및 음식점업 - 대중음식","category":"hotel"}]},{"lat":"37.3018392545","long":"126.8402943266","imageIndex":5,"items":[{"name":"올데이디저트","tel":"031-781-9973","addr":"경기도 안산시 상록구 사동 1572-4번지","indutype":"숙박 및 음식점업 - 디저트","category":"hotel"}]},{"lat":"37.3002268464","long":"126.8406023253","imageIndex":5,"items":[{"name":"와부대제육","tel":"031-415-5577","addr":"경기도 안산시 상록구 사동 1167번지","indutype":"숙박 및 음식점업 - 한식","category":"hotel"}]},{"lat":"37.2889856989","long":"126.8500992620","imageIndex":5,"items":[{"name":"왕손쌈밥","tel":"031-418-5224","addr":"경기도 안산시 상록구 사동 1345-2번지","indutype":"숙박 및 음식점업 - 일반음식","category":"hotel"},{"name":"장미빵카페","tel":"031-419-8053","addr":"경기도 안산시 상록구 사동 1345-2번지","indutype":"숙박 및 음식점업 - 휴게음식점","category":"hotel"}]},{"lat":"37.3018429727","long":"126.8430238492","imageIndex":5,"items":[{"name":"외갓집 코다리찜","tel":"031-415-7112","addr":"경기도 안산시 상록구 사동 1172-14번지","indutype":"숙박 및 음식점업 - 일반음식","category":"hotel"}]},{"lat":"37.2952082473","long":"126.8544061767","imageIndex":5,"items":[{"name":"요끼미녀","tel":"070-4239-9751","addr":"경기도 안산시 상록구 사동 1332번지","indutype":"숙박 및 음식점업 - 한식","category":"hotel"}]},{"lat":"37.2939504574","long":"126.8433563313","imageIndex":5,"items":[{"name":"용대리황태촌","tel":"031-407-2196","addr":"경기도 안산시 상록구 사동 1349-14번지","indutype":"숙박 및 음식점업 - 한식","category":"hotel"}]},{"lat":"37.2836747211","long":"126.8470766632","imageIndex":5,"items":[{"name":"우리동네 해물파전","tel":"031-502-0333","addr":"경기도 안산시 상록구 사동 1424-10번지","indutype":"숙박 및 음식점업 - 한식","category":"hotel"}]},{"lat":"37.2966171203","long":"126.8499033766","imageIndex":5,"items":[{"name":"우리동네밥집","tel":"","addr":"경기도 안산시 상록구 사동 1297-7번지","indutype":"숙박 및 음식점업 - 음식","category":"hotel"}]},{"lat":"37.2803204017","long":"126.8521013270","imageIndex":5,"items":[{"name":"우리분식","tel":"031-417-8843","addr":"경기도 안산시 상록구 사동 1471-8번지","indutype":"숙박 및 음식점업 - 일반음식","category":"hotel"}]},{"lat":"37.2940060484","long":"126.8444952801","imageIndex":5,"items":[{"name":"우리옥목포뻘낙지","tel":"031-437-0021","addr":"경기도 안산시 상록구 사동 1350-6번지","indutype":"숙박 및 음식점업 - 한식","category":"hotel"}]},{"lat":"37.3004280801","long":"126.8567419158","imageIndex":5,"items":[{"name":"우리집분식","tel":"031-416-0904","addr":"경기도 안산시 상록구 사동 1243-13번지","indutype":"숙박 및 음식점업 - 분식","category":"hotel"}]},{"lat":"37.2811752796","long":"126.8512426480","imageIndex":5,"items":[{"name":"우림관화로구이","tel":"031-415-2983","addr":"경기도 안산시 상록구 사동 1469-2번지","indutype":"숙박 및 음식점업 - 한식점업","category":"hotel"}]},{"lat":"37.2992868278","long":"126.8384613976","imageIndex":5,"items":[{"name":"워터킹커피로스터스","tel":"031-409-0655","addr":"경기도 안산시 상록구 사동 1154-15번지 하늘채 지층","indutype":"숙박 및 음식점업 - 커피전문점,커피","category":"hotel"},{"name":"피자헤븐 안산한양대점","tel":"031-407-7007","addr":"경기도 안산시 상록구 사동 1154-15번지","indutype":"숙박 및 음식점업 - 한식","category":"hotel"}]},{"lat":"37.3018112767","long":"126.8396063649","imageIndex":5,"items":[{"name":"월수금(한대점)","tel":"031-502-2272","addr":"경기도 안산시 상록구 사동 1573-9번지","indutype":"숙박 및 음식점업 - 한식","category":"hotel"}]},{"lat":"37.2801746805","long":"126.8508838291","imageIndex":5,"items":[{"name":"월출기사식당","tel":"031-419-8089","addr":"경기도 안산시 상록구 사동 1471-16번지","indutype":"숙박 및 음식점업 - 한식","category":"hotel"}]},{"lat":"37.3038124925","long":"126.8469900105","imageIndex":5,"items":[{"name":"웰빙영광들깨수제비","tel":"031-409-0333","addr":"경기도 안산시 상록구 사동 1540-3번지","indutype":"숙박 및 음식점업 - 한식","category":"hotel"}]},{"lat":"37.3007640931","long":"126.8381649307","imageIndex":5,"items":[{"name":"유가네닭갈비(안산한양대점)","tel":"031-417-8865","addr":"경기도 안산시 상록구 사동 1569-1번지","indutype":"숙박 및 음식점업 - 한식","category":"hotel"}]},{"lat":"37.3010345403","long":"126.8382658513","imageIndex":5,"items":[{"name":"육앤샤","tel":"031-409-3535","addr":"경기도 안산시 상록구 사동 1569번지","indutype":"숙박 및 음식점업 - 한식","category":"hotel"}]},{"lat":"37.3005961874","long":"126.8405451375","imageIndex":5,"items":[{"name":"은성밥차","tel":"031-417-4235","addr":"경기도 안산시 상록구 사동 1169-1번지","indutype":"숙박 및 음식점업 - 일반음식점","category":"hotel"}]},{"lat":"37.3025041538","long":"126.8525194956","imageIndex":5,"items":[{"name":"은진추어탕","tel":"031-407-6303","addr":"경기도 안산시 상록구 사동 1208번지","indutype":"숙박 및 음식점업 - 한식","category":"hotel"}]},{"lat":"37.2801482858","long":"126.8513800181","imageIndex":5,"items":[{"name":"음씨네떡집","tel":"031-406-9628","addr":"경기도 안산시 상록구 사동 1471-13번지","indutype":"숙박 및 음식점업 - 떡","category":"hotel"},{"name":"태극김밥","tel":"031-484-2988","addr":"경기도 안산시 상록구 사동 1471-13번지","indutype":"숙박 및 음식점업 - 분식","category":"hotel"}]},{"lat":"37.2961514401","long":"126.8521261258","imageIndex":5,"items":[{"name":"이도수산","tel":"031-409-4569","addr":"경기도 안산시 상록구 사동 1304-7번지","indutype":"숙박 및 음식점업 - 한식","category":"hotel"}]},{"lat":"37.2944785895","long":"126.8545429462","imageIndex":5,"items":[{"name":"이삭토스트","tel":"031-417-4524","addr":"경기도 안산시 상록구 사동 1333-13번지","indutype":"숙박 및 음식점업 - 프렌차이즈","category":"hotel"}]},{"lat":"37.3007009048","long":"126.8446842620","imageIndex":5,"items":[{"name":"이음카페","tel":"","addr":"경기도 안산시 상록구 사동 1584번지","indutype":"숙박 및 음식점업 - 휴게음식","category":"hotel"}]},{"lat":"37.2824582211","long":"126.8469889617","imageIndex":5,"items":[{"name":"이천영양돌솥밥","tel":"031-408-2008","addr":"경기도 안산시 상록구 사동 1431-9번지","indutype":"숙박 및 음식점업 - 한식","category":"hotel"}]},{"lat":"37.2807600562","long":"126.8506571338","imageIndex":5,"items":[{"name":"일미정식당","tel":"031-407-3523","addr":"경기도 안산시 상록구 사동 1482-8번지","indutype":"숙박 및 음식점업 - 한식","category":"hotel"}]},{"lat":"37.2979020064","long":"126.8471601076","imageIndex":5,"items":[{"name":"자연애","tel":"031-407-2712","addr":"경기도 안산시 상록구 사동 1282-5번지","indutype":"숙박 및 음식점업 - 한식","category":"hotel"}]},{"lat":"37.2840940022","long":"126.8507744593","imageIndex":5,"items":[{"name":"장소갈비","tel":"031-504-9920","addr":"경기도 안산시 상록구 사동 1411-2번지","indutype":"숙박 및 음식점업 - 일반음식점","category":"hotel"}]},{"lat":"37.3035931191","long":"126.8446330867","imageIndex":5,"items":[{"name":"장충동왕족발보쌈","tel":"","addr":"경기도 안산시 상록구 사동 1551-3번지","indutype":"숙박 및 음식점업 - 일반음식점업","category":"hotel"},{"name":"황금찹쌀꽈배기","tel":"031-419-8080","addr":"경기도 안산시 상록구 사동 1551-3번지","indutype":"숙박 및 음식점업 - 꽈베기","category":"hotel"}]},{"lat":"37.3014807902","long":"126.8417162520","imageIndex":5,"items":[{"name":"장터삼겹살","tel":"031-419-3392","addr":"경기도 안산시 상록구 사동 1172번지","indutype":"숙박 및 음식점업 - 삼겹살","category":"hotel"}]},{"lat":"37.2935686705","long":"126.8546349554","imageIndex":5,"items":[{"name":"장홍규 중화요리","tel":"031-409-9527","addr":"경기도 안산시 상록구 사동 1319번지","indutype":"숙박 및 음식점업 - 중식","category":"hotel"}]},{"lat":"37.2945660727","long":"126.8524676284","imageIndex":5,"items":[{"name":"전라도밥상","tel":"031-407-0123","addr":"경기도 안산시 상록구 사동 1317-5번지","indutype":"숙박 및 음식점업 - 한식","category":"hotel"}]},{"lat":"37.3016509927","long":"126.8477163296","imageIndex":5,"items":[{"name":"전예숙 속초명태조림","tel":"031-406-3336","addr":"경기도 안산시 상록구 사동 1191-10번지","indutype":"숙박 및 음식점업 - 한식","category":"hotel"}]},{"lat":"37.2810127049","long":"126.8509385236","imageIndex":5,"items":[{"name":"제주어촌마을","tel":"031-409-8855","addr":"경기도 안산시 상록구 사동 1469-17번지","indutype":"숙박 및 음식점업 - 한식음식점업","category":"hotel"}]},{"lat":"37.3002616622","long":"126.8397112241","imageIndex":5,"items":[{"name":"젤리팩토리","tel":"","addr":"경기도 안산시 상록구 사동 1151-5번지","indutype":"숙박 및 음식점업 - 일반음식","category":"hotel"}]},{"lat":"37.3015957155","long":"126.8401031076","imageIndex":5,"items":[{"name":"조박사부대찌개","tel":"031-406-3885","addr":"경기도 안산시 상록구 사동 1572-7번지","indutype":"숙박 및 음식점업 - 한식","category":"hotel"}]},{"lat":"37.3013452221","long":"126.8414120089","imageIndex":5,"items":[{"name":"좋은생각어린이집","tel":"031-407-5807","addr":"경기도 안산시 상록구 사동 1171-8번지","indutype":"숙박 및 음식점업 - 어린이집","category":"hotel"}]},{"lat":"37.2998990196","long":"126.8380991446","imageIndex":5,"items":[{"name":"주식회사 장수기획","tel":"031-416-7998","addr":"경기도 안산시 상록구 사동 1149번지","indutype":"숙박 및 음식점업 - 카페 및 외식업","category":"hotel"}]},{"lat":"37.3038995412","long":"126.8446888414","imageIndex":5,"items":[{"name":"주얼성","tel":"031-415-8818","addr":"경기도 안산시 상록구 사동 1550-4번지","indutype":"숙박 및 음식점업 - 중식","category":"hotel"}]},{"lat":"37.3041986194","long":"126.8459966259","imageIndex":5,"items":[{"name":"진가김치찌게","tel":"","addr":"경기도 안산시 상록구 사동 1541번지","indutype":"숙박 및 음식점업 - 한식","category":"hotel"}]},{"lat":"37.2944774837","long":"126.8536632680","imageIndex":5,"items":[{"name":"진미샤브샤브 칼국수","tel":"031-418-7922","addr":"경기도 안산시 상록구 사동 1320-13번지","indutype":"숙박 및 음식점업 - 한식","category":"hotel"}]},{"lat":"37.2836506227","long":"126.8493207041","imageIndex":5,"items":[{"name":"짬뽕의달인","tel":"031-416-3235","addr":"경기도 안산시 상록구 사동 1420-14번지","indutype":"숙박 및 음식점업 - 중식","category":"hotel"}]},{"lat":"37.3021152911","long":"126.8514036394","imageIndex":5,"items":[{"name":"착한치킨호프","tel":"031-418-8060","addr":"경기도 안산시 상록구 사동 1204번지","indutype":"숙박 및 음식점업 - 기타주점","category":"hotel"},{"name":"할배전가","tel":"031-407-5532","addr":"경기도 안산시 상록구 사동 1204번지","indutype":"숙박 및 음식점업 - 음식","category":"hotel"}]},{"lat":"37.3007347788","long":"126.8430713103","imageIndex":5,"items":[{"name":"참맛골","tel":"031-409-0122","addr":"경기도 안산시 상록구 사동 1176-14번지","indutype":"숙박 및 음식점업 - 한식","category":"hotel"}]},{"lat":"37.2964249098","long":"126.8476030040","imageIndex":5,"items":[{"name":"참숯생고기마을","tel":"031-417-9122","addr":"경기도 안산시 상록구 사동 1286-9번지","indutype":"숙박 및 음식점업 - 한식","category":"hotel"}]},{"lat":"37.3028650027","long":"126.8392657108","imageIndex":5,"items":[{"name":"참치바라기","tel":"031-407-5766","addr":"경기도 안산시 상록구 사동 1576-1번지","indutype":"숙박 및 음식점업 - 일식","category":"hotel"}]},{"lat":"37.2845402268","long":"126.8544947967","imageIndex":5,"items":[{"name":"처갓집 양념치킨 사동점","tel":"0507-744-9984","addr":"경기도 안산시 상록구 사동 1397-1번지","indutype":"숙박 및 음식점업 - 일반음식점","category":"hotel"}]},{"lat":"37.3025395630","long":"126.8520231422","imageIndex":5,"items":[{"name":"처갓집양념치킨 상록점","tel":"0507-744-8300","addr":"경기도 안산시 상록구 사동 1202-3번지","indutype":"숙박 및 음식점업 - 치킨","category":"hotel"}]},{"lat":"37.3038999028","long":"126.8449595453","imageIndex":5,"items":[{"name":"천지한우","tel":"","addr":"경기도 안산시 상록구 사동 1545번지","indutype":"숙박 및 음식점업 - 한식","category":"hotel"}]},{"lat":"37.2970118862","long":"126.8486055690","imageIndex":5,"items":[{"name":"청애뜰뼈감자탕","tel":"031-417-2412","addr":"경기도 안산시 상록구 사동 1296-10번지","indutype":"숙박 및 음식점업 - 한식","category":"hotel"},{"name":"치우","tel":"070-4384-0881","addr":"경기도 안산시 상록구 사동 1296-10번지","indutype":"숙박 및 음식점업 - 일반음식","category":"hotel"}]},{"lat":"37.3012621519","long":"126.8399684789","imageIndex":5,"items":[{"name":"청학칡냉면","tel":"031-418-2255","addr":"경기도 안산시 상록구 사동 1571번지","indutype":"숙박 및 음식점업 - 한식","category":"hotel"}]},{"lat":"37.2965920623","long":"126.8514372720","imageIndex":5,"items":[{"name":"초지참숯불갈비","tel":"031-437-9292","addr":"경기도 안산시 상록구 사동 1304-2번지","indutype":"숙박 및 음식점업 - 일반음식","category":"hotel"}]},{"lat":"37.3028647843","long":"126.8391078024","imageIndex":5,"items":[{"name":"최고집칼국수","tel":"031-415-1179","addr":"경기도 안산시 상록구 사동 1576번지","indutype":"숙박 및 음식점업 - 한식","category":"hotel"}]},{"lat":"37.3054510369","long":"126.8459940241","imageIndex":5,"items":[{"name":"최씨네횟집","tel":"031-410-0227","addr":"경기도 안산시 상록구 사동 1525-11번지","indutype":"숙박 및 음식점업 - 횟집","category":"hotel"}]},{"lat":"37.2965364943","long":"126.8502644442","imageIndex":5,"items":[{"name":"최영태피자","tel":"031-437-8245","addr":"경기도 안산시 상록구 사동 1306번지","indutype":"숙박 및 음식점업 - 간이음식","category":"hotel"}]},{"lat":"37.2801489198","long":"126.8518761527","imageIndex":5,"items":[{"name":"치킨앤포차","tel":"","addr":"경기도 안산시 상록구 사동 1471-10번지","indutype":"숙박 및 음식점업 - 일반음식","category":"hotel"}]},{"lat":"37.2835981059","long":"126.8505161018","imageIndex":5,"items":[{"name":"치킨퐁","tel":"031-438-9292","addr":"경기도 안산시 상록구 사동 1411-7번지","indutype":"숙박 및 음식점업 - 치킨","category":"hotel"}]},{"lat":"37.3010873273","long":"126.8373521422","imageIndex":5,"items":[{"name":"카바레식당","tel":"","addr":"경기도 안산시 상록구 사동 1562-7번지","indutype":"숙박 및 음식점업 - 휴게음식점","category":"hotel"}]},{"lat":"37.2846180105","long":"126.8518785000","imageIndex":5,"items":[{"name":"카페906","tel":"031-501-0248","addr":"경기도 안산시 상록구 사동 1409-5번지","indutype":"숙박 및 음식점업 - 기타음식","category":"hotel"}]},{"lat":"37.3012882958","long":"126.8393255213","imageIndex":5,"items":[{"name":"카페누엘","tel":"070-5043-1786","addr":"경기도 안산시 상록구 사동 1568-7번지","indutype":"숙박 및 음식점업 - 카페","category":"hotel"}]},{"lat":"37.2968427397","long":"126.8501848774","imageIndex":5,"items":[{"name":"카페달콤스","tel":"070-7583-4332","addr":"경기도 안산시 상록구 사동 1298-9번지","indutype":"숙박 및 음식점업 - 일반음식점업","category":"hotel"}]},{"lat":"37.3006201495","long":"126.8383231487","imageIndex":5,"items":[{"name":"카페모리아","tel":"031-8254-6614","addr":"경기도 안산시 상록구 사동 1569-2번지","indutype":"숙박 및 음식점업 - 카페","category":"hotel"},{"name":"커피플레닛","tel":"031-415-9734","addr":"경기도 안산시 상록구 사동 1569-2번지","indutype":"숙박 및 음식점업 - 휴게음식점","category":"hotel"},{"name":"파리바게뜨(안산한양대)","tel":"031-408-8245","addr":"경기도 안산시 상록구 사동 1569-2번지","indutype":"숙박 및 음식점업 - 제과점","category":"hotel"},{"name":"홍당무","tel":"031-503-2297","addr":"경기도 안산시 상록구 사동 1569-2번지","indutype":"숙박 및 음식점업 - 한식","category":"hotel"}]},{"lat":"37.2938992947","long":"126.8455217897","imageIndex":5,"items":[{"name":"카페브솔","tel":"070-4353-0079","addr":"경기도 안산시 상록구 사동 1351-1번지","indutype":"숙박 및 음식점업 - 커피","category":"hotel"}]},{"lat":"37.2836764356","long":"126.8483847153","imageIndex":5,"items":[{"name":"카페빌리지","tel":"","addr":"경기도 안산시 상록구 사동 1420-21번지","indutype":"숙박 및 음식점업 - 일반음식점","category":"hotel"}]},{"lat":"37.2942872427","long":"126.8528516331","imageIndex":5,"items":[{"name":"카페세실리","tel":"","addr":"경기도 안산시 상록구 사동 1317-8번지","indutype":"숙박 및 음식점업 - 커피숍","category":"hotel"}]},{"lat":"37.2796535723","long":"126.8520462784","imageIndex":5,"items":[{"name":"카페시모","tel":"031-503-5444","addr":"경기도 안산시 상록구 사동 1472-8번지","indutype":"숙박 및 음식점업 - 카페","category":"hotel"}]},{"lat":"37.3035921819","long":"126.8439337712","imageIndex":5,"items":[{"name":"커피브루윔","tel":"031-408-0055","addr":"경기도 안산시 상록구 사동 1551번지","indutype":"숙박 및 음식점업 - 커피숍","category":"hotel"}]},{"lat":"37.2958455233","long":"126.8524650810","imageIndex":5,"items":[{"name":"커피스토커","tel":"070-7808-5733","addr":"경기도 안산시 상록구 사동 1304-10번지","indutype":"숙박 및 음식점업 - 카페","category":"hotel"}]},{"lat":"37.3014776191","long":"126.8394040643","imageIndex":5,"items":[{"name":"커피플랜트","tel":"031-501-8609","addr":"경기도 안산시 상록구 사동 1568-5번지","indutype":"숙박 및 음식점업 - 커피숍","category":"hotel"}]},{"lat":"37.2937627726","long":"126.8444957901","imageIndex":5,"items":[{"name":"커피허브나무","tel":"031-416-2007","addr":"경기도 안산시 상록구 사동 1352-8번지","indutype":"숙박 및 음식점업 - 휴게음식","category":"hotel"}]},{"lat":"37.2842291557","long":"126.8507741873","imageIndex":5,"items":[{"name":"커피허브나무 사동점","tel":"031-409-2504","addr":"경기도 안산시 상록구 사동 1411-1번지","indutype":"숙박 및 음식점업 - 휴게음식","category":"hotel"}]},{"lat":"37.3016222181","long":"126.8397195638","imageIndex":5,"items":[{"name":"콩사돈","tel":"031-415-1352","addr":"경기도 안산시 상록구 사동 1572번지","indutype":"숙박 및 음식점업 - 한식","category":"hotel"}]},{"lat":"37.2991158375","long":"126.8386083922","imageIndex":5,"items":[{"name":"쿡스빌","tel":"031-403-7942","addr":"경기도 안산시 상록구 사동 1157번지","indutype":"숙박 및 음식점업 - 치킨,호프","category":"hotel"}]},{"lat":"37.3018406600","long":"126.8413207173","imageIndex":5,"items":[{"name":"크레바스","tel":"031-402-5798","addr":"경기도 안산시 상록구 사동 1581-4번지","indutype":"숙박 및 음식점업 - 커피","category":"hotel"}]},{"lat":"37.3015875878","long":"126.8407460289","imageIndex":5,"items":[{"name":"큰맘할매순대국","tel":"031-408-8096","addr":"경기도 안산시 상록구 사동 1581번지","indutype":"숙박 및 음식점업 - 한식","category":"hotel"}]},{"lat":"37.2975088541","long":"126.8496872810","imageIndex":5,"items":[{"name":"큰손막창","tel":"031-415-5352","addr":"경기도 안산시 상록구 사동 1298-2번지","indutype":"숙박 및 음식점업 - 한식","category":"hotel"}]},{"lat":"37.3000918016","long":"126.8406815670","imageIndex":5,"items":[{"name":"키작은꽃","tel":"070-8623-1925","addr":"경기도 안산시 상록구 사동 1167-19번지","indutype":"숙박 및 음식점업 - 기타음식","category":"hotel"}]},{"lat":"37.3019553154","long":"126.8395158210","imageIndex":5,"items":[{"name":"타르트블라썸","tel":"070-8851-1698","addr":"경기도 안산시 상록구 사동 1573번지","indutype":"숙박 및 음식점업 - 휴게음식","category":"hotel"}]},{"lat":"37.3020087374","long":"126.8390532633","imageIndex":5,"items":[{"name":"탐나는바지락손칼국수","tel":"031-438-1007","addr":"경기도 안산시 상록구 사동 1566-2번지","indutype":"숙박 및 음식점업 - 한식","category":"hotel"}]},{"lat":"37.3065333194","long":"126.8467926380","imageIndex":5,"items":[{"name":"탐라석기","tel":"031-415-3390","addr":"경기도 안산시 상록구 사동 1517-6번지","indutype":"숙박 및 음식점업 - 한식","category":"hotel"}]},{"lat":"37.3027038201","long":"126.8536582955","imageIndex":5,"items":[{"name":"토담","tel":"031-438-7246","addr":"경기도 안산시 상록구 사동 1209-8번지 은하수타운","indutype":"숙박 및 음식점업 - 일반음식","category":"hotel"}]},{"lat":"37.3009003891","long":"126.8389879939","imageIndex":5,"items":[{"name":"토마토도시락","tel":"031-411-7224","addr":"경기도 안산시 상록구 사동 1570-4번지","indutype":"숙박 및 음식점업 - 일반음식점","category":"hotel"}]},{"lat":"37.2941180818","long":"126.8544647088","imageIndex":5,"items":[{"name":"토부리 병천순대","tel":"031-418-7098","addr":"경기도 안산시 상록구 사동 1320-4번지","indutype":"숙박 및 음식점업 - 일반음식점업","category":"hotel"}]},{"lat":"37.3040648226","long":"126.8470233278","imageIndex":5,"items":[{"name":"토스트&친구들","tel":"031-403-3396","addr":"경기도 안산시 상록구 사동 1540-1번지","indutype":"숙박 및 음식점업 - 일반음식","category":"hotel"},{"name":"토스트&친구들","tel":"031-403-3396","addr":"경기도 안산시 상록구 사동 1540-1번지","indutype":"숙박 및 음식점업 - 일반음식점","category":"hotel"}]},{"lat":"37.2970392693","long":"126.8488761931","imageIndex":5,"items":[{"name":"토탈피자치킨","tel":"031-419-0506","addr":"경기도 안산시 상록구 사동 1296-1번지","indutype":"숙박 및 음식점업 - 치킨,피자","category":"hotel"}]},{"lat":"37.3024789382","long":"126.8469589257","imageIndex":5,"items":[{"name":"토프레스(상록구청점)","tel":"031-503-4401","addr":"경기도 안산시 상록구 사동 1183-5번지","indutype":"숙박 및 음식점업 - 휴게음식점","category":"hotel"}]},{"lat":"37.2829545250","long":"126.8475517497","imageIndex":5,"items":[{"name":"통닭원5900 사동점","tel":"031-507-5988","addr":"경기도 안산시 상록구 사동 1418-4번지","indutype":"숙박 및 음식점업 - 치킨","category":"hotel"}]},{"lat":"37.3028725581","long":"126.8382167283","imageIndex":5,"items":[{"name":"통영굴밥","tel":"031-501-0559","addr":"경기도 안산시 상록구 사동 1556-3번지","indutype":"숙박 및 음식점업 - 한식","category":"hotel"}]},{"lat":"37.3009507000","long":"126.8567634625","imageIndex":5,"items":[{"name":"통큰두마리찜닭","tel":"031-417-2299","addr":"경기도 안산시 상록구 사동 1244번지","indutype":"숙박 및 음식점업 - 일반음식","category":"hotel"}]},{"lat":"37.3001990102","long":"126.8400158872","imageIndex":5,"items":[{"name":"투다리","tel":"031-409-9279","addr":"경기도 안산시 상록구 사동 1155-5번지","indutype":"숙박 및 음식점업 - 기타음식","category":"hotel"}]},{"lat":"37.2965103343","long":"126.8509411925","imageIndex":5,"items":[{"name":"투다리사1동점","tel":"031-501-1413","addr":"경기도 안산시 상록구 사동 1305-3번지","indutype":"숙박 및 음식점업 - 호프","category":"hotel"}]},{"lat":"37.3011236361","long":"126.8375438046","imageIndex":5,"items":[{"name":"투파인드피터","tel":"","addr":"경기도 안산시 상록구 사동 1562-6번지","indutype":"숙박 및 음식점업 - 서양식","category":"hotel"}]},{"lat":"37.2947024118","long":"126.8534034300","imageIndex":5,"items":[{"name":"티파니롤","tel":"031-506-1611","addr":"경기도 안산시 상록구 사동 1318-4번지 엘리지움","indutype":"숙박 및 음식점업 - 일반음식점","category":"hotel"},{"name":"효금죽이야기","tel":"031-406-8833","addr":"경기도 안산시 상록구 사동 1318-4번지 엘리지움","indutype":"숙박 및 음식점업 - 한식","category":"hotel"}]},{"lat":"37.2805636781","long":"126.8521008417","imageIndex":5,"items":[{"name":"파리바게뜨 사동점","tel":"031-418-8202","addr":"경기도 안산시 상록구 사동 1470-9번지","indutype":"숙박 및 음식점업 - 제과","category":"hotel"}]},{"lat":"37.2970655501","long":"126.8483009442","imageIndex":5,"items":[{"name":"페라카나 사동점","tel":"031-408-0411","addr":"경기도 안산시 상록구 사동 1285-3번지","indutype":"숙박 및 음식점업 - 치킨","category":"hotel"}]},{"lat":"37.2856489371","long":"126.8548534721","imageIndex":5,"items":[{"name":"페리카나","tel":"031-417-9492","addr":"경기도 안산시 상록구 사동 1396-2번지","indutype":"숙박 및 음식점업 - 기타주점업","category":"hotel"}]},{"lat":"37.3030049777","long":"126.8495971787","imageIndex":5,"items":[{"name":"페리카나","tel":"031-437-3392","addr":"경기도 안산시 상록구 사동 1186-8번지","indutype":"숙박 및 음식점업 - 치킨","category":"hotel"}]},{"lat":"37.2995678766","long":"126.8397127228","imageIndex":5,"items":[{"name":"포지타노","tel":"","addr":"경기도 안산시 상록구 사동 1158번지","indutype":"숙박 및 음식점업 - 일반음식","category":"hotel"}]},{"lat":"37.3040904970","long":"126.8459968505","imageIndex":5,"items":[{"name":"풍물옹심이칼국수","tel":"031-415-0505","addr":"경기도 안산시 상록구 사동 1541-9번지","indutype":"숙박 및 음식점업 - 일반음식점","category":"hotel"}]},{"lat":"37.3020081903","long":"126.8386584968","imageIndex":5,"items":[{"name":"풍천장어","tel":"031-406-1117","addr":"경기도 안산시 상록구 사동 1566-4번지","indutype":"숙박 및 음식점업 - 일반음식","category":"hotel"}]},{"lat":"37.2971498607","long":"126.8579663203","imageIndex":5,"items":[{"name":"퓨전탕수육","tel":"031-408-5335","addr":"경기도 안산시 상록구 사동 1267-4번지","indutype":"숙박 및 음식점업 - 중식 음식점업","category":"hotel"}]},{"lat":"37.2942026201","long":"126.8572389094","imageIndex":5,"items":[{"name":"피자나라 치킨공주","tel":"031-417-6551","addr":"경기도 안산시 상록구 사동 1339-2번지","indutype":"숙박 및 음식점업 - 휴게음식점","category":"hotel"}]},{"lat":"37.2965329584","long":"126.8475463906","imageIndex":5,"items":[{"name":"피자헐","tel":"031-406-3606","addr":"경기도 안산시 상록구 사동 1286-8번지","indutype":"숙박 및 음식점업 - 일반음식점","category":"hotel"}]},{"lat":"37.3027550156","long":"126.8514023564","imageIndex":5,"items":[{"name":"필라프에빠지다","tel":"070-7798-2172","addr":"경기도 안산시 상록구 사동 1201-11번지","indutype":"숙박 및 음식점업 - 일반음식","category":"hotel"}]},{"lat":"37.2940401306","long":"126.8569911091","imageIndex":5,"items":[{"name":"하라","tel":"031-417-6418","addr":"경기도 안산시 상록구 사동 1339-10번지","indutype":"숙박 및 음식점업 - 일반음식점","category":"hotel"}]},{"lat":"37.3028713939","long":"126.8373820697","imageIndex":5,"items":[{"name":"한끼부대찌개","tel":"031-439-0505","addr":"경기도 안산시 상록구 사동 1555-6번지","indutype":"숙박 및 음식점업 - 음식","category":"hotel"}]},{"lat":"37.3026175097","long":"126.8495754068","imageIndex":5,"items":[{"name":"한누리우돈","tel":"031-437-5909","addr":"경기도 안산시 상록구 사동 1187-1번지","indutype":"숙박 및 음식점업 - 일반음식","category":"hotel"}]},{"lat":"37.3014781637","long":"126.8397988280","imageIndex":5,"items":[{"name":"한뚝수육국밥(한양에리카점)","tel":"031-418-9582","addr":"경기도 안산시 상록구 사동 1572-9번지","indutype":"숙박 및 음식점업 - 한식","category":"hotel"}]},{"lat":"37.3063962534","long":"126.8453491156","imageIndex":5,"items":[{"name":"한방전주콩나물국밥","tel":"031-406-7717","addr":"경기도 안산시 상록구 사동 1520-7번지","indutype":"숙박 및 음식점업 - 음식","category":"hotel"}]},{"lat":"37.2839528434","long":"126.8531315076","imageIndex":5,"items":[{"name":"한빛식당","tel":"031-406-8222","addr":"경기도 안산시 상록구 사동 1399-10번지","indutype":"숙박 및 음식점업 - 한식","category":"hotel"}]},{"lat":"37.2846780522","long":"126.8495215933","imageIndex":5,"items":[{"name":"한상차림","tel":"031-438-7982","addr":"경기도 안산시 상록구 사동 1422-8번지","indutype":"숙박 및 음식점업 - 한식","category":"hotel"}]},{"lat":"37.2797057133","long":"126.8505464997","imageIndex":5,"items":[{"name":"한샘","tel":"031-238-5566","addr":"경기도 안산시 상록구 사동 1480-6번지 한샘빌리지","indutype":"숙박 및 음식점업 - 주점","category":"hotel"}]},{"lat":"37.2833707342","long":"126.8488814972","imageIndex":5,"items":[{"name":"한성화로구이","tel":"031-406-5884","addr":"경기도 안산시 상록구 사동 1419-7번지","indutype":"숙박 및 음식점업 - 한식","category":"hotel"}]},{"lat":"37.2807611551","long":"126.8515141006","imageIndex":5,"items":[{"name":"한아름본토왕족발","tel":"031-408-4170","addr":"경기도 안산시 상록구 사동 1470-4번지 신성아트빌","indutype":"숙박 및 음식점업 - 족발","category":"hotel"}]},{"lat":"37.3025111436","long":"126.8374956506","imageIndex":5,"items":[{"name":"한양동태마을","tel":"031-407-5655","addr":"경기도 안산시 상록구 사동 1559-1번지","indutype":"숙박 및 음식점업 - 한식","category":"hotel"}]},{"lat":"37.3010396587","long":"126.8419878877","imageIndex":5,"items":[{"name":"한양베이크카페","tel":"","addr":"경기도 안산시 상록구 사동 1174-9번지","indutype":"숙박 및 음식점업 - 베이커리,카페","category":"hotel"}]},{"lat":"37.3000358311","long":"126.8392943970","imageIndex":5,"items":[{"name":"한양식당","tel":"031-417-6730","addr":"경기도 안산시 상록구 사동 1149-12번지","indutype":"숙박 및 음식점업 - 한식","category":"hotel"}]},{"lat":"37.3006504033","long":"126.8406578097","imageIndex":5,"items":[{"name":"한양통닭한마리","tel":"031-419-2552","addr":"경기도 안산시 상록구 사동 1169-2번지","indutype":"숙박 및 음식점업 - 치킨","category":"hotel"}]},{"lat":"37.3066739719","long":"126.8441528801","imageIndex":5,"items":[{"name":"한우목장","tel":"031-406-9922","addr":"경기도 안산시 상록구 사동 1516번지","indutype":"숙박 및 음식점업 - 한식","category":"hotel"},{"name":"한우목장","tel":"031-406-9922","addr":"경기도 안산시 상록구 사동 1516번지","indutype":"숙박 및 음식점업 - 한식","category":"hotel"}]},{"lat":"37.2958954122","long":"126.8492168700","imageIndex":5,"items":[{"name":"한일떡방앗간","tel":"031-484-2217","addr":"경기도 안산시 상록구 사동 1294-8번지","indutype":"숙박 및 음식점업 - 제조","category":"hotel"}]},{"lat":"37.2842893519","long":"126.8485526088","imageIndex":5,"items":[{"name":"해피데이나눔카페","tel":"031-418-2414","addr":"경기도 안산시 상록구 사동 1421-1번지","indutype":"숙박 및 음식점업 - 카페","category":"hotel"}]},{"lat":"37.3057859486","long":"126.8471551314","imageIndex":5,"items":[{"name":"해피업 뼈&뼈진골탕전문점","tel":"031-501-8300","addr":"경기도 안산시 상록구 사동 1524-1번지","indutype":"숙박 및 음식점업 - 한식","category":"hotel"}]},{"lat":"37.3001984352","long":"126.8395985726","imageIndex":5,"items":[{"name":"행복한 짬뽕","tel":"031-417-0606","addr":"경기도 안산시 상록구 사동 1151-4번지","indutype":"숙박 및 음식점업 - 중식","category":"hotel"}]},{"lat":"37.3012560977","long":"126.8559959019","imageIndex":5,"items":[{"name":"행운오리농장","tel":"031-418-9200","addr":"경기도 안산시 상록구 사동 1254-1번지","indutype":"숙박 및 음식점업 - 한식","category":"hotel"}]},{"lat":"37.3056202450","long":"126.8513853296","imageIndex":5,"items":[{"name":"향이 김밥","tel":"031-501-4447","addr":"경기도 안산시 상록구 사동 1533번지 늘푸른아파트","indutype":"숙박 및 음식점업 - 간이음식","category":"hotel"}]},{"lat":"37.2967078773","long":"126.8504107157","imageIndex":5,"items":[{"name":"혀니쭈니분식","tel":"","addr":"경기도 안산시 상록구 사동 1305-22번지","indutype":"숙박 및 음식점업 - 휴게음식","category":"hotel"}]},{"lat":"37.2968161145","long":"126.8436547941","imageIndex":5,"items":[{"name":"형제 감자탕 함흥냉면","tel":"","addr":"경기도 안산시 상록구 사동 1275-1번지","indutype":"숙박 및 음식점업 - 한식","category":"hotel"}]},{"lat":"37.3020889090","long":"126.8519112514","imageIndex":5,"items":[{"name":"호수꼬치","tel":"031-416-8295","addr":"경기도 안산시 상록구 사동 1203번지","indutype":"숙박 및 음식점업 - 일반음식","category":"hotel"}]},{"lat":"37.2802359194","long":"126.8494629516","imageIndex":5,"items":[{"name":"홍콩차이나","tel":"031-418-5948","addr":"경기도 안산시 상록구 사동 1481-11번지","indutype":"숙박 및 음식점업 - 중식","category":"hotel"}]},{"lat":"37.3019004271","long":"126.8524868604","imageIndex":5,"items":[{"name":"화개가마솥장터국밥","tel":"031-419-1020","addr":"경기도 안산시 상록구 사동 1207-9번지","indutype":"숙박 및 음식점업 - 일반음식","category":"hotel"}]},{"lat":"37.2833973684","long":"126.8485769829","imageIndex":5,"items":[{"name":"화평동 왕냉면","tel":"031-406-9295","addr":"경기도 안산시 상록구 사동 1419-5번지","indutype":"숙박 및 음식점업 - 한식","category":"hotel"}]},{"lat":"37.3013976772","long":"126.8402388822","imageIndex":5,"items":[{"name":"황산","tel":"031-408-7776","addr":"경기도 안산시 상록구 사동 1571-2번지","indutype":"숙박 및 음식점업 - 중식 일반음식점","category":"hotel"}]},{"lat":"37.3023672590","long":"126.8511549932","imageIndex":5,"items":[{"name":"횡성한우곤드레밥","tel":"031-418-5858","addr":"경기도 안산시 상록구 사동 1199-9번지","indutype":"숙박 및 음식점업 - 한식","category":"hotel"}]},{"lat":"37.3037813961","long":"126.8439333730","imageIndex":5,"items":[{"name":"흑염소 흑마루","tel":"031-406-0220","addr":"경기도 안산시 상록구 사동 1550-9번지","indutype":"숙박 및 음식점업 - 한식","category":"hotel"}]},{"lat":"37.2798155409","long":"126.8518768187","imageIndex":5,"items":[{"name":"힐링터","tel":"031-415-8883","addr":"경기도 안산시 상록구 사동 1472-6번지","indutype":"숙박 및 음식점업 - 기타음식","category":"hotel"}]}]