[{"lat":"37.09128791","long":"126.92291024","imageIndex":0,"items":[{"name":"(주)삼보특수차","tel":"031-353-0550","addr":"경기도 화성시 향남읍 하길리 862-2번지 2층","indutype":"자동차판매 - 중고자동차판매","category":"car"}]},{"lat":"37.120221624","long":"126.91166151","imageIndex":0,"items":[{"name":"경기타이어 이동빵구","tel":"031-351-2821","addr":"경기도 화성시 향남읍 하길리 1441-2번지 201호","indutype":"자동차정비 유지 - 자동차시트·타이어","category":"car"}]},{"lat":"37.085927861","long":"126.91210752","imageIndex":0,"items":[{"name":"금오유화산업","tel":"031-366-5151","addr":"경기도 화성시 향남읍 하길리 1411-2번지","indutype":"자동차정비 유지 - 윤활유 전문 판매","category":"car"}]},{"lat":"37.118063323","long":"126.91732373","imageIndex":0,"items":[{"name":"빛나는카외형복원","tel":"031-366-1184","addr":"경기도 화성시 향남읍 하길리 1449번지 101호","indutype":"자동차정비 유지 - 세차장","category":"car"}]},{"lat":"37.115369694","long":"126.90626669","imageIndex":0,"items":[{"name":"스팀닥터 봉담읍","tel":"","addr":"경기도 화성시 향남읍 하길리 1477번지 서봉마을5단지 508동 207호","indutype":"자동차정비 유지 - 세차장","category":"car"}]},{"lat":"37.116837125","long":"126.91626746","imageIndex":0,"items":[{"name":"스팀부스향남점","tel":"031-8059-7778","addr":"경기도 화성시 향남읍 하길리 1453-13번지","indutype":"자동차정비 유지 - 세차장","category":"car"}]},{"lat":"37.119698972","long":"126.91160588","imageIndex":0,"items":[{"name":"제이에이취 모터스","tel":"070-4038-4972","addr":"경기도 화성시 향남읍 하길리 1443-1번지 101호","indutype":"자동차정비 유지 - 세차장","category":"car"}]},{"lat":"37.116251236","long":"126.91598684","imageIndex":0,"items":[{"name":"제이제이 모터 오일","tel":"031-352-1673","addr":"경기도 화성시 향남읍 하길리 1451-2번지 101호","indutype":"자동차정비 유지 - 윤활유 전문 판매","category":"car"}]},{"lat":"37.10209198","long":"126.9235401","imageIndex":0,"items":[{"name":"주식회사 제일오토","tel":"031-354-5188","addr":"경기도 화성시 향남읍 하길리 688-9번지 A동","indutype":"자동차정비 유지 - 자동차부품","category":"car"}]},{"lat":"37.116393632","long":"126.91360136","imageIndex":0,"items":[{"name":"키움프라자 상가관리단","tel":"","addr":"경기도 화성시 향남읍 하길리 1467번지 키움프라자 지하1층 관리사무소","indutype":"자동차정비 유지 - 주차장","category":"car"}]},{"lat":"37.107842908","long":"126.92690917","imageIndex":0,"items":[{"name":"향남서비스","tel":"031-831-5630","addr":"경기도 화성시 향남읍 하길리 1375번지","indutype":"자동차정비 유지 - 자동차정비","category":"car"},{"name":"화성구구특수렉카","tel":"031-353-9922","addr":"경기도 화성시 향남읍 하길리 1375번지","indutype":"자동차정비 유지 - 견인서비스","category":"car"}]},{"lat":"37.085927861","long":"126.91210752","imageIndex":17,"items":[{"name":"(주)한빛유니온","tel":"031-366-1563","addr":"경기도 화성시 향남읍 하길리 1411-2번지 비동 103,104호","indutype":"건축자재 - 기타건축자재","category":"other"},{"name":"LH기계공업","tel":"031-353-0498","addr":"경기도 화성시 향남읍 하길리 1411-2번지 A동 112호","indutype":"기타 - 기계공구","category":"other"},{"name":"LS전기","tel":"031-8059-1354","addr":"경기도 화성시 향남읍 하길리 1411-2번지 발안코아유통타운 B동 108호","indutype":"건축자재 - 조명기구","category":"other"},{"name":"e테크","tel":"031-353-2514","addr":"경기도 화성시 향남읍 하길리 1411-2번지 발안코아유통타운 B동 113호","indutype":"기타 - 기계공구","category":"other"},{"name":"강원베아링종합상사","tel":"031-366-0432","addr":"경기도 화성시 향남읍 하길리 1411-2번지 발안코아유통타운 B동 111호","indutype":"기타 - 기계공구","category":"other"},{"name":"금강종합상사","tel":"031-352-6745","addr":"경기도 화성시 향남읍 하길리 1411-2","indutype":"건축자재 - 기타건축자재","category":"other"},{"name":"동윤상사","tel":"031-354-6007","addr":"경기도 화성시 향남읍 하길리 1411-2번지 A동 1층 110.111호","indutype":"건축자재 - 페인트","category":"other"},{"name":"발안전기","tel":"031-8059-1355","addr":"경기도 화성시 향남읍 하길리 1411-2번지 발안코아유통타운 A동 104호","indutype":"전기제품 - 기타전기제품","category":"other"},{"name":"발안종합공구","tel":"031-352-4209","addr":"경기도 화성시 향남읍 하길리 1411-2번지 발안코아유통타운 A동 119호","indutype":"기타 - 기계공구","category":"other"},{"name":"선진레이저특수용접","tel":"031-354-6233","addr":"경기도 화성시 향남읍 하길리 1411-2번지 발안코아유통 A-115호","indutype":"기타 - 기계공구","category":"other"},{"name":"우리포장","tel":"031-366-2363","addr":"경기도 화성시 향남읍 하길리 1411-2번지 발안코아유통타운 13동 109호","indutype":"기타 - 기계공구","category":"other"},{"name":"태성종합기계","tel":"031-366-3608","addr":"경기도 화성시 향남읍 하길리 1411-2번지 발안코아유통타운 A동 1113호","indutype":"기타 - 기계공구","category":"other"},{"name":"현대스프링","tel":"031-359-8867","addr":"경기도 화성시 향남읍 하길리 1411-2번지 발안지방산업단지발안코아유통타운 A동 117호","indutype":"기타 - 기타 전문점","category":"other"}]},{"lat":"37.101842476","long":"126.92782636","imageIndex":17,"items":[{"name":"GB 베이스볼","tel":"","addr":"경기도 화성시 향남읍 하길리 산131-3번지 외 5필지 GB야구장","indutype":"레져용품 - 스포츠·레져용품","category":"other"}]},{"lat":"37.114785581","long":"126.9082139","imageIndex":17,"items":[{"name":"GS25향남6단지점","tel":"","addr":"경기도 화성시 향남읍 하길리 1475번지 서봉마을사랑으로부영6단지 상가동 101호","indutype":"유통업 영리 - 편 의 점","category":"other"}]},{"lat":"37.116421588","long":"126.90344123","imageIndex":17,"items":[{"name":"GS25향남미래도점","tel":"","addr":"경기도 화성시 향남읍 하길리 1515번지 모아미래도에듀파크서봉마을4단지 상가2동 115~116호","indutype":"유통업 영리 - 편 의 점","category":"other"}]},{"lat":"37.112477596","long":"126.9184326","imageIndex":17,"items":[{"name":"GS25향남부영점","tel":"","addr":"경기도 화성시 향남읍 하길리 1507번지 오색마을사랑으로부영9단지아파트 107호","indutype":"유통업 영리 - 편 의 점","category":"other"}]},{"lat":"37.11456368","long":"126.91252339","imageIndex":17,"items":[{"name":"GS25향남시티점","tel":"","addr":"경기도 화성시 향남읍 하길리 1470-5번지 105호","indutype":"유통업 영리 - 편 의 점","category":"other"},{"name":"베스트올 향남","tel":"070-8106-5097","addr":"경기도 화성시 향남읍 하길리 1470-5번지 105호","indutype":"유통업 영리 - 편 의 점","category":"other"},{"name":"수목화","tel":"031-353-3267","addr":"경기도 화성시 향남읍 하길리 1470-5번지 향남시티프라자 1동 107호","indutype":"문화.취미 - 화원","category":"other"}]},{"lat":"37.119504702","long":"126.91690578","imageIndex":17,"items":[{"name":"GS25향남하길점","tel":"","addr":"경기도 화성시 향남읍 하길리 1447번지 서봉마을2단지아파트 101,102호","indutype":"유통업 영리 - 편 의 점","category":"other"}]},{"lat":"37.116557412","long":"126.91573896","imageIndex":17,"items":[{"name":"GS25향남행복점","tel":"080-555-2525","addr":"경기도 화성시 향남읍 하길리 1452-4번지","indutype":"유통업 영리 - 편 의 점","category":"other"}]},{"lat":"37.115950679","long":"126.91171164","imageIndex":17,"items":[{"name":"가차샵향남점","tel":"041-335-2358","addr":"경기도 화성시 향남읍 하길리 1465-5번지 스카이프라자 301호","indutype":"서적문구 - 완구점","category":"other"},{"name":"맥퀸","tel":"070-4343-6194","addr":"경기도 화성시 향남읍 하길리 1465-5번지 스카이프라자 1층 103호","indutype":"의류 - 정장","category":"other"}]},{"lat":"37.115369694","long":"126.90626669","imageIndex":17,"items":[{"name":"공간 창","tel":"","addr":"경기도 화성시 향남읍 하길리 1477번지 서봉마을5단지 504동 701호","indutype":"용역 서비스 - 기타용역서비스","category":"other"},{"name":"벨루(bellot)","tel":"","addr":"경기도 화성시 향남읍 하길리 1477번지 서봉마을5단지 505동 4층 1호","indutype":"의류 - 정장","category":"other"},{"name":"슈가야","tel":"070-8744-0013","addr":"경기도 화성시 향남읍 하길리 1477번지 서봉마을5단지 503동 3층 305호","indutype":"신변잡화 - 기타잡화","category":"other"}]},{"lat":"37.09034315","long":"126.92493581","imageIndex":17,"items":[{"name":"나산도어텍","tel":"031-354-2433","addr":"경기도 화성시 향남읍 하길리 862-14번지","indutype":"기타 - 기계공구","category":"other"}]},{"lat":"37.116977599","long":"126.91135036","imageIndex":17,"items":[{"name":"더블유티(WT)메소드봉담점","tel":"031-297-7066","addr":"경기도 화성시 향남읍 하길리 1465번지 탑스프라자 1동 305호","indutype":"회원제형태 - 기타4","category":"other"}]},{"lat":"37.113309799","long":"126.91067971","imageIndex":17,"items":[{"name":"동원인테리어","tel":"031-353-9724","addr":"경기도 화성시 향남읍 하길리 1474번지 서봉마을사랑으로부영7단지아파트 710동 104호","indutype":"건축자재 - 인테리어전문","category":"other"},{"name":"엘지냉난방","tel":"031-358-4982","addr":"경기도 화성시 향남읍 하길리 1474번지 서봉마을사랑으로부영7단지아파트 704동 1503호","indutype":"용역 서비스 - 기타용역서비스","category":"other"}]},{"lat":"37.115618073","long":"126.91273592","imageIndex":17,"items":[{"name":"디자인1235","tel":"","addr":"경기도 화성시 향남읍 하길리 1467-3번지 101호","indutype":"의류 - 정장","category":"other"},{"name":"보석사랑","tel":"031-352-8949","addr":"경기도 화성시 향남읍 하길리 1467-3번지 1층 107호","indutype":"신변잡화 - 귀금속","category":"other"},{"name":"써니","tel":"","addr":"경기도 화성시 향남읍 하길리 1467-3번지 메안탑프라자 1층 105호","indutype":"의류 - 정장","category":"other"},{"name":"써니","tel":"","addr":"경기도 화성시 향남읍 하길리 1467-3번지 메인탑프라자 1층 105호","indutype":"의류 - 정장","category":"other"},{"name":"하하랜독캣","tel":"031-352-5668","addr":"경기도 화성시 향남읍 하길리 1467-3번지 1동 110호","indutype":"문화.취미 - 애완동물","category":"other"}]},{"lat":"37.116278128","long":"126.91579554","imageIndex":17,"items":[{"name":"뚜또펫살롱","tel":"","addr":"경기도 화성시 향남읍 하길리 1451-1번지 101호","indutype":"문화.취미 - 애완동물","category":"other"},{"name":"사라컴퍼니","tel":"070-4792-7662","addr":"경기도 화성시 향남읍 하길리 1451-1번지 302호","indutype":"수리서비스 - 가정용품수리","category":"other"}]},{"lat":"37.116393632","long":"126.91360136","imageIndex":17,"items":[{"name":"라벨르","tel":"031-353-1831","addr":"경기도 화성시 향남읍 하길리 1467번지 105호","indutype":"의류 - 정장","category":"other"},{"name":"레드문 led moon","tel":"070-7862-6628","addr":"경기도 화성시 향남읍 하길리 1467번지 1동 1층 103호","indutype":"의류 - 정장","category":"other"},{"name":"키움프로샵","tel":"031-8059-8860","addr":"경기도 화성시 향남읍 하길리 1467번지 키움프라자 901호","indutype":"레져용품 - 스포츠·레져용품","category":"other"}]},{"lat":"37.117782949","long":"126.91588383","imageIndex":17,"items":[{"name":"러블리 하남매","tel":"070-7608-3342","addr":"경기도 화성시 향남읍 하길리 1456-4번지","indutype":"의류 - 정장","category":"other"},{"name":"코코폰","tel":"","addr":"경기도 화성시 향남읍 하길리 1456-4번지 202호","indutype":"신변잡화 - 기타잡화","category":"other"}]},{"lat":"37.114807041","long":"126.91262437","imageIndex":17,"items":[{"name":"로데오 주얼리","tel":"031-831-8544","addr":"경기도 화성시 향남읍 하길리 1470-4번지 109호","indutype":"신변잡화 - 귀금속","category":"other"},{"name":"워닝(Warning)","tel":"","addr":"경기도 화성시 향남읍 하길리 1470-4번지 롯데시네마 111호 2","indutype":"의류 - 정장","category":"other"}]},{"lat":"37.115283667","long":"126.91140866","imageIndex":17,"items":[{"name":"메종드엘르","tel":"031-354-0505","addr":"경기도 화성시 향남읍 하길리 1472-5번지 603,604호","indutype":"광학제품 - 사진관","category":"other"}]},{"lat":"37.111281314","long":"126.92146038","imageIndex":17,"items":[{"name":"미니스톱 향남부영점","tel":"031-1577-9621","addr":"경기도 화성시 향남읍 하길리 1502번지 부영10단지 상가 101호","indutype":"유통업 영리 - 편 의 점","category":"other"}]},{"lat":"37.116618393","long":"126.91293726","imageIndex":17,"items":[{"name":"미니스톱 향남신도시점","tel":"031-1577-9621","addr":"경기도 화성시 향남읍 하길리 1466-3번지 108호","indutype":"유통업 영리 - 편 의 점","category":"other"},{"name":"블럭키즈","tel":"070-7543-1566","addr":"경기도 화성시 향남읍 하길리 1466-3번지 3층 301호","indutype":"서적문구 - 완구점","category":"other"}]},{"lat":"37.11783762","long":"126.91671639","imageIndex":17,"items":[{"name":"미인개애견","tel":"031-352-0208","addr":"경기도 화성시 향남읍 하길리 1454-10번지 101호(상가)","indutype":"문화.취미 - 애완동물","category":"other"}]},{"lat":"37.114697662","long":"126.91099307","imageIndex":17,"items":[{"name":"베이핑클래스","tel":"031-1899-3272","addr":"경기도 화성시 향남읍 하길리 1471-4번지 109호","indutype":"기타 - 기타 전문점","category":"other"},{"name":"세븐일레븐향남GBNT점","tel":"031-1577-0711","addr":"경기도 화성시 향남읍 하길리 1471-4번지 1층 106호","indutype":"유통업 영리 - 편 의 점","category":"other"}]},{"lat":"37.115032012","long":"126.91224155","imageIndex":17,"items":[{"name":"사진정거장","tel":"031-352-4460","addr":"경기도 화성시 향남읍 하길리 1470-2번지 1동 210호","indutype":"광학제품 - 사진관","category":"other"},{"name":"씨유향남케이티씨네마점","tel":"02-576-9161","addr":"경기도 화성시 향남읍 하길리 1470-2번지","indutype":"유통업 영리 - 편 의 점","category":"other"}]},{"lat":"37.118224604","long":"126.9160746","imageIndex":17,"items":[{"name":"세븐일레븐향남신도시점","tel":"031-1577-0711","addr":"경기도 화성시 향남읍 하길리 1456-1번지 101호","indutype":"유통업 영리 - 편 의 점","category":"other"}]},{"lat":"37.117944457","long":"126.914961","imageIndex":17,"items":[{"name":"수인ENG","tel":"","addr":"경기도 화성시 향남읍 하길리 1461-4번지 201호","indutype":"기타 - 기계공구","category":"other"}]},{"lat":"37.116500536","long":"126.91199227","imageIndex":17,"items":[{"name":"수재샵 (향남점)","tel":"","addr":"경기도 화성시 향남읍 하길리 1466번지 101호","indutype":"문화.취미 - 민예·공예품","category":"other"},{"name":"월드크리닝 향남점","tel":"031-353-3781","addr":"경기도 화성시 향남읍 하길리 1466번지 1층","indutype":"수리서비스 - 세탁소","category":"other"},{"name":"지안골프용품점","tel":"031-8059-6952","addr":"경기도 화성시 향남읍 하길리 1466번지 플러스타워 207호","indutype":"레져용품 - 골프용품 전문점","category":"other"}]},{"lat":"37.117639707","long":"126.91715543","imageIndex":17,"items":[{"name":"쉬즈","tel":"031-352-1673","addr":"경기도 화성시 향남읍 하길리 1449-3번지 102호","indutype":"전기제품 - 가전제품","category":"other"}]},{"lat":"37.115528181","long":"126.91301731","imageIndex":17,"items":[{"name":"스튜디오 베베카","tel":"031-352-8186","addr":"경기도 화성시 향남읍 하길리 1467-2번지 2층 201호","indutype":"광학제품 - 사진관","category":"other"},{"name":"슬라임캠프향남점","tel":"031-354-5386","addr":"경기도 화성시 향남읍 하길리 1467-2번지 케이티시네마쓰리 305호","indutype":"신변잡화 - 액세서리","category":"other"},{"name":"양키캔들 화성향남점","tel":"031-354-8992","addr":"경기도 화성시 향남읍 하길리 1467-2번지 케이티시네마쓰리 1층 110호","indutype":"신변잡화 - 기타잡화","category":"other"},{"name":"초콜릿","tel":"031-352-1815","addr":"경기도 화성시 향남읍 하길리 1467-2번지 107호","indutype":"의류 - 정장","category":"other"}]},{"lat":"37.117701465","long":"126.91535509","imageIndex":17,"items":[{"name":"씨유향남프리미엄점","tel":"031-352-3124","addr":"경기도 화성시 향남읍 하길리 1459-5번지 101호","indutype":"유통업 영리 - 편 의 점","category":"other"}]},{"lat":"37.117196334","long":"126.91462432","imageIndex":17,"items":[{"name":"아이로망","tel":"031-8059-1591","addr":"경기도 화성시 향남읍 하길리 1462-3번지 1층 102호","indutype":"의류 - 정장","category":"other"}]},{"lat":"37.11686287","long":"126.91452344","imageIndex":17,"items":[{"name":"아이에스문구도매","tel":"031-354-3150","addr":"경기도 화성시 향남읍 하길리 1462-5번지","indutype":"서적문구 - 문구용품","category":"other"}]},{"lat":"37.118252201","long":"126.91685094","imageIndex":17,"items":[{"name":"아이큐브이(I.Q.V)소품","tel":"031-000-0000","addr":"경기도 화성시 향남읍 하길리 1448-2번지 1층 102호","indutype":"가구 - 기타가구","category":"other"}]},{"lat":"37.117531401","long":"126.91690802","imageIndex":17,"items":[{"name":"앵두갤러리","tel":"","addr":"경기도 화성시 향남읍 하길리 1454-4번지","indutype":"의류 - 정장","category":"other"}]},{"lat":"37.119590542","long":"126.91121219","imageIndex":17,"items":[{"name":"에이치에스 (HS)홈케어 용인점","tel":"","addr":"경기도 화성시 향남읍 하길리 1441-11번지 302호","indutype":"용역 서비스 - 종합용역","category":"other"}]},{"lat":"37.120004641","long":"126.9107166","imageIndex":17,"items":[{"name":"에이치에이치엘","tel":"031-8059-2252","addr":"경기도 화성시 향남읍 하길리 1439-3번지 104호","indutype":"전기제품 - 기타전기제품","category":"other"}]},{"lat":"37.117810784","long":"126.91698646","imageIndex":17,"items":[{"name":"엘로우or블루","tel":"031-353-7389","addr":"경기도 화성시 향남읍 하길리 1454-2번지 102호","indutype":"의류 - 정장","category":"other"}]},{"lat":"37.118395902","long":"126.91620943","imageIndex":17,"items":[{"name":"엘프스타일","tel":"070-4086-2332","addr":"경기도 화성시 향남읍 하길리 1460-6번지 302호","indutype":"의류 - 정장","category":"other"}]},{"lat":"37.117089927","long":"126.91696477","imageIndex":17,"items":[{"name":"오케이(OK)365(편의점)","tel":"031-352-1296","addr":"경기도 화성시 향남읍 하길리 1450번지","indutype":"유통업 영리 - 편 의 점","category":"other"},{"name":"학교시설관리","tel":"","addr":"경기도 화성시 향남읍 하길리 1450번지 다정빌 22동 4층 1호","indutype":"용역 서비스 - 종합용역","category":"other"}]},{"lat":"37.116368092","long":"126.91560416","imageIndex":17,"items":[{"name":"온더씨 (ON THE SEA)","tel":"","addr":"경기도 화성시 향남읍 하길리 1451번지 302호","indutype":"의류 - 정장","category":"other"}]},{"lat":"37.101700364","long":"126.91754462","imageIndex":17,"items":[{"name":"용성콘테이너","tel":"031-366-5331","addr":"경기도 화성시 향남읍 하길리 662-2번지","indutype":"건축자재 - 기타건축자재","category":"other"}]},{"lat":"37.116224329","long":"126.91615564","imageIndex":17,"items":[{"name":"워시프렌즈 셀프빨래방 화성 향남 하길점","tel":"","addr":"경기도 화성시 향남읍 하길리 1451-3번지 1층 101호","indutype":"수리서비스 - 세탁소","category":"other"}]},{"lat":"37.115337557","long":"126.91118356","imageIndex":17,"items":[{"name":"위드미 향남로데오점","tel":"02-6916-1500","addr":"경기도 화성시 향남읍 하길리 1472-4번지 한울프라자 108호","indutype":"유통업 영리 - 편 의 점","category":"other"},{"name":"플레이써니","tel":"","addr":"경기도 화성시 향남읍 하길리 1472-4번지 한울프라자 5층 504호","indutype":"광학제품 - 사진관","category":"other"}]},{"lat":"37.116782018","long":"126.91484983","imageIndex":17,"items":[{"name":"이마트24 향남센터점","tel":"","addr":"경기도 화성시 향남읍 하길리 1458-6번지","indutype":"유통업 영리 - 편 의 점","category":"other"}]},{"lat":"37.115418503","long":"126.91099219","imageIndex":17,"items":[{"name":"이불마트","tel":"031-232-5257","addr":"경기도 화성시 향남읍 하길리 1472-3번지 102호,103호","indutype":"직물 - 침구·수예점","category":"other"},{"name":"코인워시 향남2지구 중앙점","tel":"031-8059-0900","addr":"경기도 화성시 향남읍 하길리 1472-3번지 109호","indutype":"수리서비스 - 세탁소","category":"other"}]},{"lat":"37.087616771","long":"126.91740295","imageIndex":17,"items":[{"name":"주식회사 삼이송메탈","tel":"031-366-5620","addr":"경기도 화성시 향남읍 하길리 1406-9번지","indutype":"건축자재 - 기타건축자재","category":"other"}]},{"lat":"37.120221624","long":"126.91166151","imageIndex":17,"items":[{"name":"청소나라 홈크린","tel":"031-354-5542","addr":"경기도 화성시 향남읍 하길리 1441-2번지 202호","indutype":"용역 서비스 - 종합용역","category":"other"}]},{"lat":"37.116864444","long":"126.91666124","imageIndex":17,"items":[{"name":"치치누리","tel":"070-5545-5541","addr":"경기도 화성시 향남읍 하길리 1453-3번지 광진빌 3층 302호","indutype":"의류 - 아동의류","category":"other"}]},{"lat":"37.117836681","long":"126.9154337","imageIndex":17,"items":[{"name":"크리에이티브 마케팅","tel":"","addr":"경기도 화성시 향남읍 하길리 1459-4번지 3층 302호","indutype":"사무통신 - 통신기기","category":"other"}]},{"lat":"37.118476758","long":"126.91588303","imageIndex":17,"items":[{"name":"크린토피아코인워시향남2지구점","tel":"031-375-6065","addr":"경기도 화성시 향남읍 하길리 1460-4번지 1층 102호","indutype":"수리서비스 - 세탁소","category":"other"}]},{"lat":"37.115779945","long":"126.91231942","imageIndex":17,"items":[{"name":"크린팩토리앤슈즈크린","tel":"031-352-5981","addr":"경기도 화성시 향남읍 하길리 1467-4번지 1동 112호","indutype":"수리서비스 - 세탁소","category":"other"}]},{"lat":"37.112645047","long":"126.91332449","imageIndex":17,"items":[{"name":"톨이톨이 작업실","tel":"","addr":"경기도 화성시 향남읍 하길리 1473번지 서봉마을모아엘가 806동 2104호","indutype":"문화.취미 - 문화취미기타","category":"other"}]},{"lat":"37.116944698","long":"126.91551348","imageIndex":17,"items":[{"name":"파워시스템","tel":"031-353-0114","addr":"경기도 화성시 향남읍 하길리 1457-4번지","indutype":"사무통신 - 컴퓨터","category":"other"}]},{"lat":"37.117918148","long":"126.91593993","imageIndex":17,"items":[{"name":"핑크하우스","tel":"031-8077-2665","addr":"경기도 화성시 향남읍 하길리 1456-3번지 104호","indutype":"의류 - 아동의류","category":"other"}]},{"lat":"37.117088542","long":"126.91507451","imageIndex":17,"items":[{"name":"하나광고기획","tel":"031-366-0627","addr":"경기도 화성시 향남읍 하길리 1458-4번지","indutype":"건축자재 - 인테리어전문","category":"other"}]},{"lat":"37.107784774","long":"126.92080036","imageIndex":17,"items":[{"name":"향남 테니스핏","tel":"031-352-6430","addr":"경기도 화성시 향남읍 하길리 437-7번지","indutype":"레져용품 - 스포츠·레져용품","category":"other"}]},{"lat":"37.118584536","long":"126.91541033","imageIndex":17,"items":[{"name":"향남바이크","tel":"031-366-4956","addr":"경기도 화성시 향남읍 하길리 1460-1번지","indutype":"레져용품 - 스포츠·레져용품","category":"other"}]},{"lat":"37.107784774","long":"126.92080036","imageIndex":16,"items":[{"name":"(주)향남에프시","tel":"031-111-1111","addr":"경기도 화성시 향남읍 하길리 437-7번지","indutype":"학원 - 예·체능계학원","category":"study"}]},{"lat":"37.114868381","long":"126.91037404","imageIndex":16,"items":[{"name":"EIE고려대국제어학원","tel":"031-352-0700","addr":"경기도 화성시 향남읍 하길리 1472번지 센타프라자 502,503,504호","indutype":"학원 - 외국어학원","category":"study"},{"name":"이화피아노학원","tel":"031-354-0977","addr":"경기도 화성시 향남읍 하길리 1472번지 센타프라자 604호","indutype":"학원 - 예·체능계학원","category":"study"},{"name":"충효태권도장","tel":"031-354-4833","addr":"경기도 화성시 향남읍 하길리 1472번지 601호","indutype":"학원 - 예·체능계학원","category":"study"},{"name":"필즈창의수학학원","tel":"031-352-0343","addr":"경기도 화성시 향남읍 하길리 1472번지 센터프라자 7층 704호","indutype":"학원 - 보습학원","category":"study"},{"name":"한길학원","tel":"031-353-3730","addr":"경기도 화성시 향남읍 하길리 1472번지 센터프라자 4층 405호","indutype":"학원 - 보습학원","category":"study"}]},{"lat":"37.112645047","long":"126.91332449","imageIndex":16,"items":[{"name":"e-해법수학 모이점","tel":"031-354-0039","addr":"경기도 화성시 향남읍 하길리 1473번지 서봉마을모아엘가 805동 203호","indutype":"학원 - 기타 교육기관","category":"study"},{"name":"모아음악학원","tel":"031-111-1111","addr":"경기도 화성시 향남읍 하길리 1473번지 서봉마을모아엘가 811동 201호","indutype":"학원 - 예·체능계학원","category":"study"},{"name":"사랑모아어린이집[아이행복]","tel":"031-8059-4657","addr":"경기도 화성시 향남읍 하길리 1473번지 서봉마을모아엘가 806동 101호","indutype":"학원 - 유아원","category":"study"},{"name":"향남모아엘가아소비","tel":"","addr":"경기도 화성시 향남읍 하길리 1473번지 서봉마을모아엘가 803동 101호","indutype":"학원 - 보습학원","category":"study"},{"name":"향남초록나무어린이집[아이행복]","tel":"031-352-0449","addr":"경기도 화성시 향남읍 하길리 1473번지 서봉마을모아엘가","indutype":"학원 - 유아원","category":"study"},{"name":"향남홍익미술학원","tel":"031-354-1695","addr":"경기도 화성시 향남읍 하길리 1473번지 서봉마을모아엘가 202호","indutype":"학원 - 예·체능계학원","category":"study"}]},{"lat":"37.114785581","long":"126.9082139","imageIndex":16,"items":[{"name":"김슬기음악학원","tel":"031-359-9010","addr":"경기도 화성시 향남읍 하길리 1475번지 단지 2층 202호 상가","indutype":"학원 - 예·체능계학원","category":"study"},{"name":"아소비","tel":"","addr":"경기도 화성시 향남읍 하길리 1475번지 부영6단지 605동 102호","indutype":"학원 - 기타 교육기관","category":"study"},{"name":"영렘브란트미술학원","tel":"031-7582-3928","addr":"경기도 화성시 향남읍 하길리 1475번지 서봉마을사랑으로부영6단지아파트 1동 302호","indutype":"학원 - 예·체능계학원","category":"study"},{"name":"화성향남6단지부영사랑으로어린이집[아이행","tel":"031-366-2777","addr":"경기도 화성시 향남읍 하길리 1475번지 서봉마을사랑으로부영6단지아파트","indutype":"학원 - 유아원","category":"study"}]},{"lat":"37.110368173","long":"126.91709612","imageIndex":16,"items":[{"name":"꿈나무어린이집[아이행복]","tel":"031-352-7550","addr":"경기도 화성시 향남읍 하길리 1505번지 오색마을사랑으로부영11단지아파트 1110동 104호","indutype":"학원 - 유아원","category":"study"},{"name":"빅아트센터","tel":"031-354-5538","addr":"경기도 화성시 향남읍 하길리 1505번지 화성향남오색마을 사랑으로부영11차단지상가동 2층 201,202호","indutype":"학원 - 기타 교육기관","category":"study"},{"name":"향남오색마을 해법영어학원","tel":"032-671-7973","addr":"경기도 화성시 향남읍 하길리 1505번지 오색마을사랑으로부영11단지 상가동 102호 동","indutype":"회원제형태 - 학원","category":"study"}]},{"lat":"37.116421588","long":"126.90344123","imageIndex":16,"items":[{"name":"뉴피아노이야기 음악교습소","tel":"031-353-1851","addr":"경기도 화성시 향남읍 하길리 1515번지 모아미래도에듀파크서봉마을4단지 상가동 117호","indutype":"학원 - 예·체능계학원","category":"study"},{"name":"더퍼스트학원","tel":"031-8077-2521","addr":"경기도 화성시 향남읍 하길리 1515번지 모아미래도에듀파크서봉마을4단지 1층 120-122호","indutype":"학원 - 보습학원","category":"study"},{"name":"이나피아노","tel":"","addr":"경기도 화성시 향남읍 하길리 1515번지 모아미래도에듀파크서봉마을4단지 413동 503호","indutype":"학원 - 기타 교육기관","category":"study"},{"name":"향남반디어린이집[아이행복]","tel":"031-354-2782","addr":"경기도 화성시 향남읍 하길리 1515번지 모아미래도에듀파크서봉마을4단지 관리동 보육시설","indutype":"학원 - 유아원","category":"study"}]},{"lat":"37.11456368","long":"126.91252339","imageIndex":16,"items":[{"name":"단국대 엘리트수호 태권도장","tel":"031-366-3898","addr":"경기도 화성시 향남읍 하길리 1470-5번지 602호 603호","indutype":"학원 - 예·체능계학원","category":"study"},{"name":"스완스무용학원","tel":"031-359-9397","addr":"경기도 화성시 향남읍 하길리 1470-5번지 601호","indutype":"학원 - 예·체능계학원","category":"study"},{"name":"예스잉글리시어학원","tel":"031-354-7122","addr":"경기도 화성시 향남읍 하길리 1470-5번지 502호","indutype":"학원 - 외국어학원","category":"study"}]},{"lat":"37.115952058","long":"126.91352312","imageIndex":16,"items":[{"name":"마스터키(Master Key)","tel":"02-1111-1111","addr":"경기도 화성시 향남읍 하길리 1467-1번지 로데오프라자 4층 403호,404호","indutype":"학원 - 독서실","category":"study"}]},{"lat":"37.11814369","long":"126.91632223","imageIndex":16,"items":[{"name":"매쓰포럼 수학교습소","tel":"031-366-0032","addr":"경기도 화성시 향남읍 하길리 1455번지 101호","indutype":"학원 - 보습학원","category":"study"}]},{"lat":"37.113309799","long":"126.91067971","imageIndex":16,"items":[{"name":"봄봄어린이집[아이행복]","tel":"031-352-9569","addr":"경기도 화성시 향남읍 하길리 1474번지 서봉마을사랑으로부영7단지아파트 711동 102호","indutype":"학원 - 유아원","category":"study"},{"name":"부영7단지 셀파 우동생교실","tel":"031-353-2214","addr":"경기도 화성시 향남읍 하길리 1474번지 서봉마을사랑으로부영7단지아파트 710동 301호","indutype":"학원 - 기타 교육기관","category":"study"},{"name":"사랑어린이집[아이행복]","tel":"031-8058-4758","addr":"경기도 화성시 향남읍 하길리 1474번지 서봉마을사랑으로부영7단지아파트 711동 104호","indutype":"학원 - 유아원","category":"study"},{"name":"아기둥지어린이집[아이행복]","tel":"031-366-4507","addr":"경기도 화성시 향남읍 하길리 1474번지 서봉마을사랑으로부영7단지아파트 708동 103호","indutype":"학원 - 유아원","category":"study"},{"name":"잉글리시 아이","tel":"","addr":"경기도 화성시 향남읍 하길리 1474번지 서봉마을사랑으로부영7단지아파트 707동 103호","indutype":"학원 - 외국어학원","category":"study"},{"name":"향남부영영렘브란트","tel":"070-5110-8349","addr":"경기도 화성시 향남읍 하길리 1474번지 서봉마을사랑으로부영7단지아파트 706동 102호","indutype":"학원 - 기타 교육기관","category":"study"},{"name":"화성향남7단지부영사랑으로어린이집[아이행","tel":"031-353-8387","addr":"경기도 화성시 향남읍 하길리 1474번지 서봉마을 사랑으로부영7단지아파트","indutype":"학원 - 유아원","category":"study"}]},{"lat":"37.111281314","long":"126.92146038","imageIndex":16,"items":[{"name":"부영사랑어린이집[아이행복]","tel":"031-8043-4279","addr":"경기도 화성시 향남읍 하길리 1502번지 오색마을사랑으로부영10단지아파트 1006동 103호","indutype":"학원 - 유아원","category":"study"}]},{"lat":"37.112477596","long":"126.9184326","imageIndex":16,"items":[{"name":"사랑으로빛나는어린이집[아이행복]","tel":"031-8059-0302","addr":"경기도 화성시 향남읍 하길리 1507번지 오색마을사랑으로부영 904동 103호","indutype":"학원 - 유아원","category":"study"}]},{"lat":"37.114697662","long":"126.91099307","imageIndex":16,"items":[{"name":"서일영어학원","tel":"031-366-5952","addr":"경기도 화성시 향남읍 하길리 1471-4번지 705호","indutype":"학원 - 외국어학원","category":"study"},{"name":"엘리학원","tel":"","addr":"경기도 화성시 향남읍 하길리 1471-4번지 7층 702호","indutype":"학원 - 보습학원","category":"study"},{"name":"차이랑중국어향남2보습학원","tel":"031-354-5855","addr":"경기도 화성시 향남읍 하길리 1471-4번지 7층 706호","indutype":"학원 - 외국어학원","category":"study"},{"name":"필아트미술향남점학원","tel":"031-353-9354","addr":"경기도 화성시 향남읍 하길리 1471-4번지 1동 503호","indutype":"학원 - 예·체능계학원","category":"study"},{"name":"향남노아요양보호사교육원","tel":"031-8059-0027","addr":"경기도 화성시 향남읍 하길리 1471-4번지 701호","indutype":"학원 - 기능학원","category":"study"},{"name":"향남대명학원","tel":"031-354-6516","addr":"경기도 화성시 향남읍 하길리 1471-4번지 지비앤티타워 708호","indutype":"학원 - 보습학원","category":"study"},{"name":"향남더조은간호학원","tel":"031-352-7378","addr":"경기도 화성시 향남읍 하길리 1471-4번지 610,611호","indutype":"학원 - 기능학원","category":"study"}]},{"lat":"37.11972887","long":"126.91540902","imageIndex":16,"items":[{"name":"성심어린이집[아이행복]","tel":"031-352-7962","addr":"경기도 화성시 향남읍 하길리 1376-1번지","indutype":"학원 - 유아원","category":"study"}]},{"lat":"37.116393632","long":"126.91360136","imageIndex":16,"items":[{"name":"송인수학원","tel":"031-8059-4625","addr":"경기도 화성시 향남읍 하길리 1467번지 705호","indutype":"학원 - 보습학원","category":"study"},{"name":"올바른영수학원","tel":"031-366-1744","addr":"경기도 화성시 향남읍 하길리 1467번지 키움프라자 6층 602,603호","indutype":"학원 - 보습학원","category":"study"}]},{"lat":"37.116643871","long":"126.91091195","imageIndex":16,"items":[{"name":"스터디존독서실","tel":"031-8077-9449","addr":"경기도 화성시 향남읍 하길리 1465-1번지 403호","indutype":"학원 - 독서실","category":"study"},{"name":"향남퍼즈실용음악학원","tel":"031-351-3399","addr":"경기도 화성시 향남읍 하길리 1465-1번지 701호","indutype":"학원 - 예·체능계학원","category":"study"},{"name":"향남퍼즈실용음악학원","tel":"031-351-3399","addr":"경기도 화성시 향남읍 하길리 1465-1번지 탑스프라자 1동 7층 1호 2","indutype":"학원 - 예·체능계학원","category":"study"}]},{"lat":"37.115369694","long":"126.90626669","imageIndex":16,"items":[{"name":"시립서봉제3어린이집[아이행복]","tel":"031-8059-7955","addr":"경기도 화성시 향남읍 하길리 1477번지 서봉마을5단지","indutype":"학원 - 유아원","category":"study"}]},{"lat":"37.114807041","long":"126.91262437","imageIndex":16,"items":[{"name":"윤화평 축구클럽","tel":"070-0000-0000","addr":"경기도 화성시 향남읍 하길리 1470-4번지 6층 601호","indutype":"학원 - 예·체능계학원","category":"study"}]},{"lat":"37.115032012","long":"126.91224155","imageIndex":16,"items":[{"name":"케어로드 화성센터","tel":"031-366-3834","addr":"경기도 화성시 향남읍 하길리 1470-2번지 301호","indutype":"학원 - 기타 교육기관","category":"study"}]},{"lat":"37.116977599","long":"126.91135036","imageIndex":16,"items":[{"name":"클래스세븐학원","tel":"031-354-7107","addr":"경기도 화성시 향남읍 하길리 1465번지 탑스프라자 507호, 508호","indutype":"학원 - 보습학원","category":"study"},{"name":"탑스뮤즈음악학원","tel":"031-366-0310","addr":"경기도 화성시 향남읍 하길리 1465번지 607,608호","indutype":"학원 - 예·체능계학원","category":"study"},{"name":"향남어학원(FTK)","tel":"031-354-5556","addr":"경기도 화성시 향남읍 하길리 1465번지 탑스프라자 6층 601호","indutype":"학원 - 외국어학원","category":"study"}]},{"lat":"37.112119086","long":"126.90899353","imageIndex":16,"items":[{"name":"하길중학교","tel":"031-8077-2305","addr":"경기도 화성시 향남읍 하길리 1510번지","indutype":"학원 - 초중고교육기관","category":"study"}]},{"lat":"37.115422453","long":"126.90468018","imageIndex":16,"items":[{"name":"하길초등학교병설유치원[아이행복]","tel":"031-8077-6401","addr":"경기도 화성시 향남읍 하길리 1-9번지 하길초등학교","indutype":"학원 - 유치원","category":"study"}]},{"lat":"37.116952157","long":"126.91343193","imageIndex":16,"items":[{"name":"햇살좋은어린이집[아이행복]","tel":"031-353-3099","addr":"경기도 화성시 향남읍 하길리 1464번지 서봉마을사랑으로부영3단지아파트 302동 101호","indutype":"학원 - 유아원","category":"study"},{"name":"화성향남3단지부영사랑으로어린이집[아이행","tel":"031-352-2778","addr":"경기도 화성시 향남읍 하길리 1464번지 서봉마을사랑으로부영3단지아파트 1층","indutype":"학원 - 유아원","category":"study"}]},{"lat":"37.117313722","long":"126.91496173","imageIndex":16,"items":[{"name":"향남 미래에듀학원","tel":"031-353-1969","addr":"경기도 화성시 향남읍 하길리 1458-10번지 101호","indutype":"학원 - 보습학원","category":"study"}]},{"lat":"37.106089981","long":"126.90766222","imageIndex":16,"items":[{"name":"향남유치원[아이행복]","tel":"031-359-9510","addr":"경기도 화성시 향남읍 하길리 1542번지","indutype":"학원 - 유치원","category":"study"}]},{"lat":"37.117367951","long":"126.9151867","imageIndex":4,"items":[{"name":"102테이블","tel":"070-8947-4490","addr":"경기도 화성시 향남읍 하길리 1458-2번지 1층","indutype":"일반휴게음식 - 일반한식","category":"restaurant"},{"name":"골목길 코다리조림","tel":"070-7814-7077","addr":"경기도 화성시 향남읍 하길리 1458-2번지 1층 101호","indutype":"일반휴게음식 - 일반한식","category":"restaurant"}]},{"lat":"37.116727603","long":"126.91437733","imageIndex":4,"items":[{"name":"24시마을회관","tel":"031-353-6835","addr":"경기도 화성시 향남읍 하길리 1463번지","indutype":"일반휴게음식 - 일반한식","category":"restaurant"}]},{"lat":"37.115950679","long":"126.91171164","imageIndex":4,"items":[{"name":"60계치킨","tel":"031-353-1979","addr":"경기도 화성시 향남읍 하길리 1465-5번지 106호","indutype":"일반휴게음식 - 스넥","category":"restaurant"},{"name":"구노포차 향남점","tel":"031-000-0000","addr":"경기도 화성시 향남읍 하길리 1465-5번지 1층 107호,108호","indutype":"일반휴게음식 - 주점","category":"restaurant"},{"name":"노랑통닭","tel":"031-353-5881","addr":"경기도 화성시 향남읍 하길리 1465-5번지 1층 113호","indutype":"일반휴게음식 - 스넥","category":"restaurant"},{"name":"노마세야매운갈비찜 향남2지구점","tel":"031-353-3292","addr":"경기도 화성시 향남읍 하길리 1465-5번지 스카이프라자 1층 104호","indutype":"일반휴게음식 - 일반한식","category":"restaurant"},{"name":"명불허전 원조골뱅이","tel":"031-354-4938","addr":"경기도 화성시 향남읍 하길리 1465-5번지 스카이프라자 110호","indutype":"일반휴게음식 - 일반한식","category":"restaurant"},{"name":"블루컵오브커피","tel":"031-353-1146","addr":"경기도 화성시 향남읍 하길리 1465-5번지 스카이빌딩 105호","indutype":"일반휴게음식 - 서양음식","category":"restaurant"},{"name":"비너스","tel":"","addr":"경기도 화성시 향남읍 하길리 1465-5번지 901호","indutype":"일반휴게음식 - 주점","category":"restaurant"},{"name":"빨간석쇠구이 ( 향남점)","tel":"031-831-8876","addr":"경기도 화성시 향남읍 하길리 1465-5번지 1층 101호","indutype":"일반휴게음식 - 주점","category":"restaurant"},{"name":"생활맥주","tel":"031-352-0305","addr":"경기도 화성시 향남읍 하길리 1465-5번지 109호","indutype":"일반휴게음식 - 주점","category":"restaurant"},{"name":"셀렉토화성향남2지구","tel":"031-354-0774","addr":"경기도 화성시 향남읍 하길리 1465-5번지 스카이프라자 1동 102호","indutype":"일반휴게음식 - 서양음식","category":"restaurant"},{"name":"에이 바 (A BAR)","tel":"","addr":"경기도 화성시 향남읍 하길리 1465-5번지 502호","indutype":"일반휴게음식 - 주점","category":"restaurant"},{"name":"제이1953 (J1953)","tel":"070-8947-4490","addr":"경기도 화성시 향남읍 하길리 1465-5번지 203,204호","indutype":"일반휴게음식 - 주점","category":"restaurant"},{"name":"통큰갈비","tel":"031-352-1252","addr":"경기도 화성시 향남읍 하길리 1465-5번지 2층 202호","indutype":"일반휴게음식 - 일반한식","category":"restaurant"},{"name":"화성양꼬치","tel":"070-7764-0029","addr":"경기도 화성시 향남읍 하길리 1465-5번지 305호","indutype":"일반휴게음식 - 중국식","category":"restaurant"}]},{"lat":"37.118251536","long":"126.91593955","imageIndex":4,"items":[{"name":"94번가","tel":"031-8059-9944","addr":"경기도 화성시 향남읍 하길리 1456번지 1층 일부","indutype":"일반휴게음식 - 스넥","category":"restaurant"}]},{"lat":"37.115418503","long":"126.91099219","imageIndex":4,"items":[{"name":"가마로강정 (향남2지구점)","tel":"031-353-7992","addr":"경기도 화성시 향남읍 하길리 1472-3번지 1동 101호","indutype":"일반휴게음식 - 일반한식","category":"restaurant"},{"name":"꼬미곳","tel":"031-353-1191","addr":"경기도 화성시 향남읍 하길리 1472-3번지 1층 105,106호","indutype":"일반휴게음식 - 일반한식","category":"restaurant"}]},{"lat":"37.116170307","long":"126.91621196","imageIndex":4,"items":[{"name":"가장맛있는족발 향남2지구점","tel":"031-366-5884","addr":"경기도 화성시 향남읍 하길리 1451-4번지 1층","indutype":"일반휴게음식 - 일반한식","category":"restaurant"}]},{"lat":"37.114697662","long":"126.91099307","imageIndex":4,"items":[{"name":"감탄떡볶이 향남2지구점","tel":"031-354-5202","addr":"경기도 화성시 향남읍 하길리 1471-4번지 지비앤티타워 1동 103-1호","indutype":"일반휴게음식 - 스넥","category":"restaurant"},{"name":"사발고기","tel":"031-366-1630","addr":"경기도 화성시 향남읍 하길리 1471-4번지 2층 205호","indutype":"일반휴게음식 - 일반한식","category":"restaurant"},{"name":"심심푸리 북만화카페","tel":"031-8059-4993","addr":"경기도 화성시 향남읍 하길리 1471-4번지 7층 710,711호","indutype":"일반휴게음식 - 서양음식","category":"restaurant"},{"name":"천유향 마라향솔 & 훠궈뷔페 향남점","tel":"","addr":"경기도 화성시 향남읍 하길리 1471-4번지 2층 206호","indutype":"일반휴게음식 - 중국식","category":"restaurant"},{"name":"회뜨는날","tel":"","addr":"경기도 화성시 향남읍 하길리 1471-4번지 111, 112호","indutype":"일반휴게음식 - 일식·회집","category":"restaurant"}]},{"lat":"37.115616367","long":"126.9105194","imageIndex":4,"items":[{"name":"검은소새끼","tel":"","addr":"경기도 화성시 향남읍 하길리 1472-2번지 111호","indutype":"일반휴게음식 - 일반한식","category":"restaurant"},{"name":"대동집향남점","tel":"031-353-4010","addr":"경기도 화성시 향남읍 하길리 1472-2번지 1층 109호","indutype":"일반휴게음식 - 일반한식","category":"restaurant"},{"name":"미치GO양꼬치전문점","tel":"031-353-8884","addr":"경기도 화성시 향남읍 하길리 1472-2번지 1층 110호","indutype":"일반휴게음식 - 일반한식","category":"restaurant"},{"name":"자연수산","tel":"031-352-7731","addr":"경기도 화성시 향남읍 하길리 1472-2번지 연세메디컬프라자 1동 114,115호","indutype":"일반휴게음식 - 일반한식","category":"restaurant"}]},{"lat":"37.118062233","long":"126.91582725","imageIndex":4,"items":[{"name":"경성주막1929-화성향남","tel":"031-353-7222","addr":"경기도 화성시 향남읍 하길리 1456-9번지","indutype":"일반휴게음식 - 주점","category":"restaurant"}]},{"lat":"37.116809913","long":"126.91601996","imageIndex":4,"items":[{"name":"경아두마리치킨","tel":"031-352-2168","addr":"경기도 화성시 향남읍 하길리 1452-1번지 103호","indutype":"일반휴게음식 - 스넥","category":"restaurant"}]},{"lat":"37.115618073","long":"126.91273592","imageIndex":4,"items":[{"name":"고기원칙","tel":"031-352-2727","addr":"경기도 화성시 향남읍 하길리 1467-3번지 115,116호","indutype":"일반휴게음식 - 일반한식","category":"restaurant"},{"name":"곱창이야기","tel":"031-354-4544","addr":"경기도 화성시 향남읍 하길리 1467-3번지 메인탑프라자 1층 104호","indutype":"일반휴게음식 - 일반한식","category":"restaurant"},{"name":"메가MGC커피 향남2지구점","tel":"031-353-0822","addr":"경기도 화성시 향남읍 하길리 1467-3번지 메인탑프라자 1층 103호","indutype":"일반휴게음식 - 서양음식","category":"restaurant"},{"name":"벳남반미","tel":"031-352-4633","addr":"경기도 화성시 향남읍 하길리 1467-3번지 메인탑프라자 1층 109호","indutype":"일반휴게음식 - 일반한식","category":"restaurant"},{"name":"설빙 (향남신도시점)","tel":"031-353-1188","addr":"경기도 화성시 향남읍 하길리 1467-3번지 2층 204호","indutype":"일반휴게음식 - 서양음식","category":"restaurant"},{"name":"육회말투아웃","tel":"031-354-6697","addr":"경기도 화성시 향남읍 하길리 1467-3번지 메인탑프라자 1층 112호","indutype":"일반휴게음식 - 일반한식","category":"restaurant"},{"name":"청해양꼬치","tel":"031-353-7994","addr":"경기도 화성시 향남읍 하길리 1467-3번지 304호","indutype":"일반휴게음식 - 일반한식","category":"restaurant"},{"name":"칭다오양다리구이","tel":"031-366-5411","addr":"경기도 화성시 향남읍 하길리 1467-3번지 메인탑프라자 102호","indutype":"일반휴게음식 - 일반한식","category":"restaurant"}]},{"lat":"37.116500536","long":"126.91199227","imageIndex":4,"items":[{"name":"고봉민김밥인 화성향남2지구점","tel":"031-353-3525","addr":"경기도 화성시 향남읍 하길리 1466번지 107호","indutype":"일반휴게음식 - 일반한식","category":"restaurant"},{"name":"교촌치킨 향남2지구점","tel":"031-8059-5432","addr":"경기도 화성시 향남읍 하길리 1466번지 1층 112,113호","indutype":"일반휴게음식 - 스넥","category":"restaurant"},{"name":"더블핸더스테이크 향남점","tel":"031-352-7997","addr":"경기도 화성시 향남읍 하길리 1466번지 플러스타워 1동 126호","indutype":"일반휴게음식 - 서양음식","category":"restaurant"},{"name":"본죽&비빔밥Cafe","tel":"031-354-6242","addr":"경기도 화성시 향남읍 하길리 1466번지 1층 106호","indutype":"일반휴게음식 - 일반한식","category":"restaurant"},{"name":"신의주순대와쭈꾸미","tel":"031-366-0041","addr":"경기도 화성시 향남읍 하길리 1466번지 플러스타워 1동 1층 114,115호","indutype":"일반휴게음식 - 일반한식","category":"restaurant"},{"name":"신참떡볶이","tel":"031-354-3768","addr":"경기도 화성시 향남읍 하길리 1466번지 1층 104호","indutype":"일반휴게음식 - 스넥","category":"restaurant"},{"name":"오붓","tel":"","addr":"경기도 화성시 향남읍 하길리 1466번지 1층 139호","indutype":"일반휴게음식 - 일반한식","category":"restaurant"},{"name":"육감만족 향남점","tel":"031-352-9215","addr":"경기도 화성시 향남읍 하길리 1466번지 128,129호","indutype":"일반휴게음식 - 일반한식","category":"restaurant"},{"name":"청담이상 향남점","tel":"031-3252-2434","addr":"경기도 화성시 향남읍 하길리 1466번지 플러스타워 130호 131호","indutype":"일반휴게음식 - 일반한식","category":"restaurant"},{"name":"하남돼지집 (향남점)","tel":"031-8059-2033","addr":"경기도 화성시 향남읍 하길리 1466번지 플러스타워 1동 1층 132,133,134호","indutype":"일반휴게음식 - 일반한식","category":"restaurant"}]},{"lat":"37.115283667","long":"126.91140866","imageIndex":4,"items":[{"name":"골든호프","tel":"031-354-3777","addr":"경기도 화성시 향남읍 하길리 1472-5번지 향남골든프라자 5층 506호","indutype":"일반휴게음식 - 주점","category":"restaurant"},{"name":"구구향허궈","tel":"031-354-6878","addr":"경기도 화성시 향남읍 하길리 1472-5번지 골든프라자 1동 2층 206호","indutype":"일반휴게음식 - 중국식","category":"restaurant"},{"name":"구주네옛날통닭","tel":"031-374-5543","addr":"경기도 화성시 향남읍 하길리 1472-5번지 1층 114호","indutype":"일반휴게음식 - 일반한식","category":"restaurant"},{"name":"더 아이리쉬 펍","tel":"031-352-7909","addr":"경기도 화성시 향남읍 하길리 1472-5번지 1층 402호","indutype":"일반휴게음식 - 서양음식","category":"restaurant"},{"name":"도쿄술집 화성향남점","tel":"","addr":"경기도 화성시 향남읍 하길리 1472-5번지 2층 203호","indutype":"일반휴게음식 - 일식·회집","category":"restaurant"},{"name":"미술관 향남점","tel":"031-111-1111","addr":"경기도 화성시 향남읍 하길리 1472-5번지 골든프라자 104,105호","indutype":"일반휴게음식 - 일반한식","category":"restaurant"},{"name":"반반국시","tel":"","addr":"경기도 화성시 향남읍 하길리 1472-5번지 골든프라자 1층 107호","indutype":"일반휴게음식 - 일반한식","category":"restaurant"},{"name":"소곱한술","tel":"","addr":"경기도 화성시 향남읍 하길리 1472-5번지 골든프라자 1층 101호","indutype":"일반휴게음식 - 일반한식","category":"restaurant"},{"name":"스시영 향남2지구","tel":"031-353-0533","addr":"경기도 화성시 향남읍 하길리 1472-5번지 골든프라자 111호","indutype":"일반휴게음식 - 일반한식","category":"restaurant"},{"name":"십원집 향남로데오점","tel":"","addr":"경기도 화성시 향남읍 하길리 1472-5번지 1동 1층 102,103호","indutype":"일반휴게음식 - 일반한식","category":"restaurant"},{"name":"홍콩 광동식 통오리 구이","tel":"031-1111-1111","addr":"경기도 화성시 향남읍 하길리 1472-5번지 112호","indutype":"일반휴게음식 - 일반한식","category":"restaurant"}]},{"lat":"37.114807041","long":"126.91262437","imageIndex":4,"items":[{"name":"공차 향남신도시점","tel":"070-1111-1111","addr":"경기도 화성시 향남읍 하길리 1470-4번지 1층 110호","indutype":"일반휴게음식 - 서양음식","category":"restaurant"},{"name":"국수나무 향남 롯데시네마점","tel":"031-352-7126","addr":"경기도 화성시 향남읍 하길리 1470-4번지 304호","indutype":"일반휴게음식 - 일반한식","category":"restaurant"},{"name":"뉴욕야시장(향남롯데시네마점)","tel":"031-354-2449","addr":"경기도 화성시 향남읍 하길리 1470-4번지 103호","indutype":"일반휴게음식 - 주점","category":"restaurant"},{"name":"도담부대찌개","tel":"031-354-4656","addr":"경기도 화성시 향남읍 하길리 1470-4번지 203호","indutype":"일반휴게음식 - 일반한식","category":"restaurant"},{"name":"도원참치","tel":"031-353-1989","addr":"경기도 화성시 향남읍 하길리 1470-4번지 2층 205호","indutype":"일반휴게음식 - 일반한식","category":"restaurant"},{"name":"두끼떡볶이 화성향남점","tel":"031-353-1289","addr":"경기도 화성시 향남읍 하길리 1470-4번지 305호","indutype":"일반휴게음식 - 스넥","category":"restaurant"},{"name":"맘스터치 롯데시네마점","tel":"031-354-6858","addr":"경기도 화성시 향남읍 하길리 1470-4번지 112,113호(KT씨네마II)","indutype":"일반휴게음식 - 서양음식","category":"restaurant"},{"name":"맘스터치 롯데시네마점","tel":"031-354-6858","addr":"경기도 화성시 향남읍 하길리 1470-4번지 112,113호","indutype":"일반휴게음식 - 서양음식","category":"restaurant"},{"name":"명랑핫도그 향남롯데시네마점","tel":"031-354-0750","addr":"경기도 화성시 향남읍 하길리 1470-4번지 106호","indutype":"일반휴게음식 - 일반한식","category":"restaurant"},{"name":"모모스테이크","tel":"031-354-5406","addr":"경기도 화성시 향남읍 하길리 1470-4번지","indutype":"일반휴게음식 - 서양음식","category":"restaurant"},{"name":"봉구스밥버거 향남롯데시네마점","tel":"031-354-5191","addr":"경기도 화성시 향남읍 하길리 1470-4번지 111-1호","indutype":"일반휴게음식 - 일반한식","category":"restaurant"},{"name":"심마니백숙삼계탕","tel":"031-366-3693","addr":"경기도 화성시 향남읍 하길리 1470-4번지 401 ,402,403,404,405호","indutype":"일반휴게음식 - 일반한식","category":"restaurant"},{"name":"예향정","tel":"031-8059-4305","addr":"경기도 화성시 향남읍 하길리 1470-4번지 2층 206호","indutype":"일반휴게음식 - 일반한식","category":"restaurant"},{"name":"월척손맛낚시카페","tel":"031-366-3479","addr":"경기도 화성시 향남읍 하길리 1470-4번지 KT시네마 7층 704,705호","indutype":"일반휴게음식 - 서양음식","category":"restaurant"},{"name":"유레카츠","tel":"031-353-6647","addr":"경기도 화성시 향남읍 하길리 1470-4번지 2층 202호","indutype":"일반휴게음식 - 일반한식","category":"restaurant"},{"name":"청년다방","tel":"031-356-2266","addr":"경기도 화성시 향남읍 하길리 1470-4번지 케이티시네마루 101호","indutype":"일반휴게음식 - 스넥","category":"restaurant"},{"name":"홍루이젠 향남점","tel":"031-8059-8956","addr":"경기도 화성시 향남읍 하길리 1470-4번지 102호","indutype":"일반휴게음식 - 서양음식","category":"restaurant"}]},{"lat":"37.108063576","long":"126.92004629","imageIndex":4,"items":[{"name":"광자네","tel":"031-8059-0590","addr":"경기도 화성시 향남읍 하길리 1297번지 1층","indutype":"일반휴게음식 - 일반한식","category":"restaurant"}]},{"lat":"37.115952058","long":"126.91352312","imageIndex":4,"items":[{"name":"광주리 상차림","tel":"","addr":"경기도 화성시 향남읍 하길리 1467-1번지 2층 204호","indutype":"일반휴게음식 - 일반한식","category":"restaurant"},{"name":"돌판과껌정돼지","tel":"","addr":"경기도 화성시 향남읍 하길리 1467-1번지 로데오프라자 203호","indutype":"일반휴게음식 - 일반한식","category":"restaurant"},{"name":"발칙한 떡볶이","tel":"02-1234-1234","addr":"경기도 화성시 향남읍 하길리 1467-1번지 107호","indutype":"일반휴게음식 - 스넥","category":"restaurant"},{"name":"백채김치찌개","tel":"031-467-0880","addr":"경기도 화성시 향남읍 하길리 1467-1번지 106호","indutype":"일반휴게음식 - 일반한식","category":"restaurant"},{"name":"베트남 쌀국수","tel":"","addr":"경기도 화성시 향남읍 하길리 1467-1번지 로데오프라자 1층 104호","indutype":"일반휴게음식 - 서양음식","category":"restaurant"},{"name":"불티나왕만두, 찐빵","tel":"031-1111-1111","addr":"경기도 화성시 향남읍 하길리 1467-1번지 로데오프라자 101호","indutype":"일반휴게음식 - 스넥","category":"restaurant"},{"name":"일빠(1Bar)","tel":"031-8059-5187","addr":"경기도 화성시 향남읍 하길리 1467-1번지 1동 303호","indutype":"일반휴게음식 - 주점","category":"restaurant"},{"name":"족발꾼 화성향남점","tel":"070-1111-1111","addr":"경기도 화성시 향남읍 하길리 1467-1번지 1층 110호, 111호","indutype":"일반휴게음식 - 일반한식","category":"restaurant"},{"name":"종로맥주가게 향남점","tel":"031-000-0000","addr":"경기도 화성시 향남읍 하길리 1467-1번지 로데오프라자 103호, 201호","indutype":"일반휴게음식 - 주점","category":"restaurant"},{"name":"토프레소화성향남로데오점","tel":"031-352-7657","addr":"경기도 화성시 향남읍 하길리 1467-1번지 1층 105호","indutype":"일반휴게음식 - 서양음식","category":"restaurant"}]},{"lat":"37.11456368","long":"126.91252339","imageIndex":4,"items":[{"name":"굽네치킨(향남2지구)","tel":"031-352-4837","addr":"경기도 화성시 향남읍 하길리 1470-5번지 1층 111호","indutype":"일반휴게음식 - 스넥","category":"restaurant"},{"name":"논두렁 우렁쌈밥","tel":"031-8059-8862","addr":"경기도 화성시 향남읍 하길리 1470-5번지 향남시티프라자 1동 204호","indutype":"일반휴게음식 - 일반한식","category":"restaurant"},{"name":"마블랑","tel":"","addr":"경기도 화성시 향남읍 하길리 1470-5번지 향남시티프라자 1층 106호","indutype":"일반휴게음식 - 서양음식","category":"restaurant"},{"name":"분식연구소","tel":"02-1111-1111","addr":"경기도 화성시 향남읍 하길리 1470-5번지 1동 102호","indutype":"일반휴게음식 - 스넥","category":"restaurant"},{"name":"울엄니","tel":"031-366-3138","addr":"경기도 화성시 향남읍 하길리 1470-5번지 2층 205호","indutype":"일반휴게음식 - 일반한식","category":"restaurant"},{"name":"잇또라멘향남로데오점","tel":"031-352-4672","addr":"경기도 화성시 향남읍 하길리 1470-5번지 향남시티프라자 1동 109호","indutype":"일반휴게음식 - 일식·회집","category":"restaurant"},{"name":"콩불향남롯데시네마점","tel":"070-8788-7312","addr":"경기도 화성시 향남읍 하길리 1470-5번지 향남시티프라자 103호","indutype":"일반휴게음식 - 일반한식","category":"restaurant"},{"name":"향남명가 부대찌개","tel":"031-352-5346","addr":"경기도 화성시 향남읍 하길리 1470-5번지 202호","indutype":"일반휴게음식 - 일반한식","category":"restaurant"}]},{"lat":"37.117476318","long":"126.91551287","imageIndex":4,"items":[{"name":"금강숯불장어구이","tel":"070-4354-8910","addr":"경기도 화성시 향남읍 하길리 1457번지 예서빌","indutype":"일반휴게음식 - 일반한식","category":"restaurant"},{"name":"벼탄집","tel":"070-4354-8910","addr":"경기도 화성시 향남읍 하길리 1457번지 1층 1호","indutype":"일반휴게음식 - 일반한식","category":"restaurant"}]},{"lat":"37.118116798","long":"126.91651354","imageIndex":4,"items":[{"name":"김가네숯불돼지갈비","tel":"031-352-8192","addr":"경기도 화성시 향남읍 하길리 1455-1번지 101호","indutype":"일반휴게음식 - 일반한식","category":"restaurant"}]},{"lat":"37.114868381","long":"126.91037404","imageIndex":4,"items":[{"name":"김밥 매니아","tel":"031-354-8583","addr":"경기도 화성시 향남읍 하길리 1472번지 센타프라자 103호","indutype":"일반휴게음식 - 스넥","category":"restaurant"}]},{"lat":"37.117396179","long":"126.91681816","imageIndex":4,"items":[{"name":"꼬꼬삼촌네","tel":"031-352-7573","addr":"경기도 화성시 향남읍 하길리 1454-5번지 상가동 1층 101호","indutype":"일반휴게음식 - 스넥","category":"restaurant"}]},{"lat":"37.118197059","long":"126.91537702","imageIndex":4,"items":[{"name":"꿀닭청해","tel":"070-8817-7600","addr":"경기도 화성시 향남읍 하길리 1459-9번지 1층","indutype":"일반휴게음식 - 일반한식","category":"restaurant"}]},{"lat":"37.115337557","long":"126.91118356","imageIndex":4,"items":[{"name":"넘버원(NO.1)교동짬뽕","tel":"031-8059-1765","addr":"경기도 화성시 향남읍 하길리 1472-4번지 한울프라자 2층 205호","indutype":"일반휴게음식 - 중국식","category":"restaurant"},{"name":"노군꼬치","tel":"031-1234-5678","addr":"경기도 화성시 향남읍 하길리 1472-4번지 102호","indutype":"일반휴게음식 - 일반한식","category":"restaurant"},{"name":"대구뭉티기포차","tel":"070-8111-0868","addr":"경기도 화성시 향남읍 하길리 1472-4번지 109호","indutype":"일반휴게음식 - 일반한식","category":"restaurant"},{"name":"램하우스","tel":"","addr":"경기도 화성시 향남읍 하길리 1472-4번지 1층 105호","indutype":"일반휴게음식 - 일반한식","category":"restaurant"},{"name":"문식당","tel":"","addr":"경기도 화성시 향남읍 하길리 1472-4번지 1층 103호","indutype":"일반휴게음식 - 일반한식","category":"restaurant"},{"name":"향남마실","tel":"031-354-3633","addr":"경기도 화성시 향남읍 하길리 1472-4번지 1동 1층 101호","indutype":"일반휴게음식 - 일반한식","category":"restaurant"}]},{"lat":"37.116393632","long":"126.91360136","imageIndex":4,"items":[{"name":"넝파타이레스토랑","tel":"031-354-7341","addr":"경기도 화성시 향남읍 하길리 1467번지 키움프라자 1층 117호","indutype":"일반휴게음식 - 서양음식","category":"restaurant"},{"name":"데니스베이커리카페","tel":"","addr":"경기도 화성시 향남읍 하길리 1467번지 1층 102호","indutype":"일반휴게음식 - 서양음식","category":"restaurant"},{"name":"명륜진사갈비 향남점","tel":"031-352-3407","addr":"경기도 화성시 향남읍 하길리 1467번지 키움프라자 1동 2층 204,205호","indutype":"일반휴게음식 - 일반한식","category":"restaurant"},{"name":"빽다방화성향남로데오점","tel":"031-352-0188","addr":"경기도 화성시 향남읍 하길리 1467번지 키움프라자 1층 101호","indutype":"일반휴게음식 - 서양음식","category":"restaurant"},{"name":"수미정","tel":"031-353-6556","addr":"경기도 화성시 향남읍 하길리 1467번지 116호","indutype":"일반휴게음식 - 일반한식","category":"restaurant"},{"name":"페브레로.이공(FEBRERO.20)","tel":"031-111-1111","addr":"경기도 화성시 향남읍 하길리 1467번지 키움프라자 1동 1층 110호","indutype":"일반휴게음식 - 서양음식","category":"restaurant"},{"name":"포레스트","tel":"070-1111-1111","addr":"경기도 화성시 향남읍 하길리 1467번지 806호","indutype":"일반휴게음식 - 서양음식","category":"restaurant"},{"name":"화로집","tel":"","addr":"경기도 화성시 향남읍 하길리 1467번지 키움프라자 113호,114호","indutype":"일반휴게음식 - 일반한식","category":"restaurant"}]},{"lat":"37.116477066","long":"126.91676294","imageIndex":4,"items":[{"name":"네네치킨","tel":"031-358-0119","addr":"경기도 화성시 향남읍 하길리 1450-4번지 103호","indutype":"일반휴게음식 - 일반한식","category":"restaurant"}]},{"lat":"37.118062374","long":"126.91601853","imageIndex":4,"items":[{"name":"농가원","tel":"","addr":"경기도 화성시 향남읍 하길리 1456-2번지 104호","indutype":"일반휴게음식 - 일반한식","category":"restaurant"}]},{"lat":"37.118061636","long":"126.91501712","imageIndex":4,"items":[{"name":"누나홀닭","tel":"031-353-2204","addr":"경기도 화성시 향남읍 하길리 1461-3번지 1층","indutype":"일반휴게음식 - 스넥","category":"restaurant"},{"name":"휴 이나리 스시","tel":"02-1234-1234","addr":"경기도 화성시 향남읍 하길리 1461-3번지 1층 101호","indutype":"일반휴게음식 - 일식·회집","category":"restaurant"}]},{"lat":"37.106197518","long":"126.90693084","imageIndex":4,"items":[{"name":"늘찬애 쭈꾸미","tel":"031-8059-1033","addr":"경기도 화성시 향남읍 하길리 1541-1번지 1층","indutype":"일반휴게음식 - 일반한식","category":"restaurant"}]},{"lat":"37.118088875","long":"126.91529839","imageIndex":4,"items":[{"name":"다다코리아 향남점","tel":"051-111-1111","addr":"경기도 화성시 향남읍 하길리 1459-8번지 1층 103호","indutype":"일반휴게음식 - 서양음식","category":"restaurant"},{"name":"육회한녀석들","tel":"031-352-2390","addr":"경기도 화성시 향남읍 하길리 1459-8번지 101호","indutype":"일반휴게음식 - 일반한식","category":"restaurant"}]},{"lat":"37.118395149","long":"126.91518551","imageIndex":4,"items":[{"name":"다락","tel":"031-353-4368","addr":"경기도 화성시 향남읍 하길리 1461번지 1층 101호","indutype":"일반휴게음식 - 일반한식","category":"restaurant"}]},{"lat":"37.115779945","long":"126.91231942","imageIndex":4,"items":[{"name":"다와양꼬치","tel":"031-352-2111","addr":"경기도 화성시 향남읍 하길리 1467-4번지 테라스뷰동 203호","indutype":"일반휴게음식 - 일반한식","category":"restaurant"},{"name":"멱골매운탕","tel":"031-353-5039","addr":"경기도 화성시 향남읍 하길리 1467-4번지 1동 2층 204호","indutype":"일반휴게음식 - 일반한식","category":"restaurant"},{"name":"발빠닭","tel":"","addr":"경기도 화성시 향남읍 하길리 1467-4번지 1층 110호","indutype":"일반휴게음식 - 일반한식","category":"restaurant"},{"name":"엘리팝","tel":"031-359-9696","addr":"경기도 화성시 향남읍 하길리 1467-4번지 1층 109호","indutype":"일반휴게음식 - 주점","category":"restaurant"},{"name":"오라방","tel":"031-8059-3300","addr":"경기도 화성시 향남읍 하길리 1467-4번지 116호","indutype":"일반휴게음식 - 일반한식","category":"restaurant"},{"name":"육회참치야시장 (경기지사)","tel":"031-353-0838","addr":"경기도 화성시 향남읍 하길리 1467-4번지 테라스뷰 205호","indutype":"일반휴게음식 - 일반한식","category":"restaurant"},{"name":"육회천지","tel":"","addr":"경기도 화성시 향남읍 하길리 1467-4번지 테라스뷰 106호","indutype":"일반휴게음식 - 일반한식","category":"restaurant"},{"name":"이차돌 화성향남점","tel":"031-354-0037","addr":"경기도 화성시 향남읍 하길리 1467-4번지 테라스뷰 1동 1층 113,114호","indutype":"일반휴게음식 - 일반한식","category":"restaurant"},{"name":"쪽찌","tel":"","addr":"경기도 화성시 향남읍 하길리 1467-4번지 115호","indutype":"일반휴게음식 - 일반한식","category":"restaurant"},{"name":"카페 홀릭","tel":"","addr":"경기도 화성시 향남읍 하길리 1467-4번지 테라스뷰 1동 111호","indutype":"일반휴게음식 - 서양음식","category":"restaurant"},{"name":"투다리 향남2점","tel":"041-354-0519","addr":"경기도 화성시 향남읍 하길리 1467-4번지 107호","indutype":"일반휴게음식 - 주점","category":"restaurant"},{"name":"포차천국 향남점","tel":"031-354-2219","addr":"경기도 화성시 향남읍 하길리 1467-4번지 204호","indutype":"일반휴게음식 - 일반한식","category":"restaurant"},{"name":"하낭","tel":"031-352-7190","addr":"경기도 화성시 향남읍 하길리 1467-4번지 2층 201호","indutype":"일반휴게음식 - 일반한식","category":"restaurant"},{"name":"하야부사","tel":"031-354-4044","addr":"경기도 화성시 향남읍 하길리 1467-4번지 103호.104호","indutype":"일반휴게음식 - 일식·회집","category":"restaurant"},{"name":"홍춘천치즈닭갈비 향남점","tel":"031-366-6584","addr":"경기도 화성시 향남읍 하길리 1467-4번지 1동 1층 102호","indutype":"일반휴게음식 - 일반한식","category":"restaurant"},{"name":"화돌농장","tel":"031-353-7852","addr":"경기도 화성시 향남읍 하길리 1467-4번지 206호","indutype":"일반휴게음식 - 일반한식","category":"restaurant"},{"name":"황소고집","tel":"","addr":"경기도 화성시 향남읍 하길리 1467-4번지 1층 105호","indutype":"일반휴게음식 - 일반한식","category":"restaurant"}]},{"lat":"37.118638491","long":"126.915264","imageIndex":4,"items":[{"name":"달기삼계탕","tel":"031-359-9010","addr":"경기도 화성시 향남읍 하길리 1460번지","indutype":"일반휴게음식 - 일반한식","category":"restaurant"}]},{"lat":"37.11597752","long":"126.91146408","imageIndex":4,"items":[{"name":"닭코치비어선수","tel":"031-354-5787","addr":"경기도 화성시 향남읍 하길리 1465-4번지 에코프라자 106호","indutype":"일반휴게음식 - 일반한식","category":"restaurant"},{"name":"뚱보집(향남점)","tel":"031-353-3389","addr":"경기도 화성시 향남읍 하길리 1465-4번지 에코프라자 110호","indutype":"일반휴게음식 - 일반한식","category":"restaurant"},{"name":"말자싸롱향남점","tel":"02-1111-1111","addr":"경기도 화성시 향남읍 하길리 1465-4번지 에코프라자 1층 103호","indutype":"일반휴게음식 - 일반한식","category":"restaurant"},{"name":"맵도리탕 화성향남점","tel":"02-1599-7670","addr":"경기도 화성시 향남읍 하길리 1465-4번지 1층 109호","indutype":"일반휴게음식 - 일반한식","category":"restaurant"},{"name":"문어집","tel":"031-000-0000","addr":"경기도 화성시 향남읍 하길리 1465-4번지 에코프라자 1층 105호","indutype":"일반휴게음식 - 일반한식","category":"restaurant"},{"name":"배부장찌개(향남2지구점)","tel":"031-353-3389","addr":"경기도 화성시 향남읍 하길리 1465-4번지 1층 110호, 111호","indutype":"일반휴게음식 - 일반한식","category":"restaurant"},{"name":"식감이야기","tel":"","addr":"경기도 화성시 향남읍 하길리 1465-4번지 에코프라자 1층 104호","indutype":"일반휴게음식 - 주점","category":"restaurant"},{"name":"아우라","tel":"070-4124-6066","addr":"경기도 화성시 향남읍 하길리 1465-4번지 403호","indutype":"일반휴게음식 - 일반한식","category":"restaurant"},{"name":"양화양갈비","tel":"031-111-1111","addr":"경기도 화성시 향남읍 하길리 1465-4번지 206호","indutype":"일반휴게음식 - 일반한식","category":"restaurant"},{"name":"용범이네인계동껍데기향남2지구점","tel":"","addr":"경기도 화성시 향남읍 하길리 1465-4번지 에코프라자 101호","indutype":"일반휴게음식 - 일반한식","category":"restaurant"},{"name":"이도비어","tel":"070-7578-3787","addr":"경기도 화성시 향남읍 하길리 1465-4번지 1동 102호","indutype":"일반휴게음식 - 주점","category":"restaurant"},{"name":"차돌박사","tel":"031-352-9040","addr":"경기도 화성시 향남읍 하길리 1465-4번지 107,108호","indutype":"일반휴게음식 - 일반한식","category":"restaurant"}]},{"lat":"37.116618393","long":"126.91293726","imageIndex":4,"items":[{"name":"대박식당","tel":"031-352-3362","addr":"경기도 화성시 향남읍 하길리 1466-3번지 203호 202호, 203호","indutype":"일반휴게음식 - 일반한식","category":"restaurant"},{"name":"라떼떼 향남2지구점","tel":"031-353-7383","addr":"경기도 화성시 향남읍 하길리 1466-3번지 스카이프라자 1층 106호 2","indutype":"일반휴게음식 - 서양음식","category":"restaurant"},{"name":"백종원의돌배기집 화성향남점","tel":"031-354-7600","addr":"경기도 화성시 향남읍 하길리 1466-3번지 스카이프라자 1층 101호, 102호, 103호","indutype":"일반휴게음식 - 일반한식","category":"restaurant"},{"name":"복고설렁탕","tel":"031-352-8250","addr":"경기도 화성시 향남읍 하길리 1466-3번지 204호","indutype":"일반휴게음식 - 일반한식","category":"restaurant"}]},{"lat":"37.118449842","long":"126.91604059","imageIndex":4,"items":[{"name":"대하축제","tel":"","addr":"경기도 화성시 향남읍 하길리 1460-5번지 1층 101호","indutype":"일반휴게음식 - 일반한식","category":"restaurant"},{"name":"비에이치씨(BHC)","tel":"031-353-8094","addr":"경기도 화성시 향남읍 하길리 1460-5번지 103호","indutype":"일반휴게음식 - 스넥","category":"restaurant"},{"name":"연안부두참치","tel":"031-353-5253","addr":"경기도 화성시 향남읍 하길리 1460-5번지 1층 103호","indutype":"일반휴게음식 - 일식·회집","category":"restaurant"}]},{"lat":"37.115032012","long":"126.91224155","imageIndex":4,"items":[{"name":"더벤티(향남롯데시네마점)","tel":"070-3744-9174","addr":"경기도 화성시 향남읍 하길리 1470-2번지 104호","indutype":"일반휴게음식 - 서양음식","category":"restaurant"},{"name":"락앤웍향남점","tel":"031-352-1586","addr":"경기도 화성시 향남읍 하길리 1470-2번지 307동 312호","indutype":"일반휴게음식 - 중국식","category":"restaurant"},{"name":"마녀커피","tel":"031-354-1689","addr":"경기도 화성시 향남읍 하길리 1470-2번지 1동 902호 케이티시네마원","indutype":"일반휴게음식 - 서양음식","category":"restaurant"},{"name":"이디야커피 향남롯데시네마점","tel":"031-366-1920","addr":"경기도 화성시 향남읍 하길리 1470-2번지 105호","indutype":"일반휴게음식 - 서양음식","category":"restaurant"},{"name":"조몰락","tel":"","addr":"경기도 화성시 향남읍 하길리 1470-2번지 6층 609호","indutype":"일반휴게음식 - 서양음식","category":"restaurant"},{"name":"커피베이향남롯데시네마점","tel":"031-8059-8159","addr":"경기도 화성시 향남읍 하길리 1470-2번지 108호","indutype":"일반휴게음식 - 서양음식","category":"restaurant"}]},{"lat":"37.115369694","long":"126.90626669","imageIndex":4,"items":[{"name":"도담치킨","tel":"031-366-3633","addr":"경기도 화성시 향남읍 하길리 1477번지 서봉마을5단지 105호","indutype":"일반휴게음식 - 스넥","category":"restaurant"}]},{"lat":"37.117945459","long":"126.91632246","imageIndex":4,"items":[{"name":"동네창고(향남점)","tel":"031-352-7702","addr":"경기도 화성시 향남읍 하길리 1455-6번지","indutype":"일반휴게음식 - 일반한식","category":"restaurant"},{"name":"속초오징어보쌈","tel":"031-353-4722","addr":"경기도 화성시 향남읍 하길리 1455-6번지 1층 102호","indutype":"일반휴게음식 - 일반한식","category":"restaurant"}]},{"lat":"37.116278777","long":"126.9166844","imageIndex":4,"items":[{"name":"동대문 순대국족발","tel":"031-353-1225","addr":"경기도 화성시 향남읍 하길리 1450-5번지","indutype":"일반휴게음식 - 일반한식","category":"restaurant"}]},{"lat":"37.116089516","long":"126.91662836","imageIndex":4,"items":[{"name":"동서닭발","tel":"031-354-9239","addr":"경기도 화성시 향남읍 하길리 1450-7번지 101호","indutype":"일반휴게음식 - 일반한식","category":"restaurant"}]},{"lat":"37.112645047","long":"126.91332449","imageIndex":4,"items":[{"name":"또봉이통닭화성향남모아점","tel":"031-366-0081","addr":"경기도 화성시 향남읍 하길리 1473번지 서봉마을모아엘가 103호","indutype":"일반휴게음식 - 스넥","category":"restaurant"}]},{"lat":"37.116977599","long":"126.91135036","imageIndex":4,"items":[{"name":"라라커피","tel":"031-8059-0099","addr":"경기도 화성시 향남읍 하길리 1465번지 1층 116,117호","indutype":"일반휴게음식 - 서양음식","category":"restaurant"},{"name":"만리성","tel":"031-366-0727","addr":"경기도 화성시 향남읍 하길리 1465번지 206,207호","indutype":"일반휴게음식 - 중국식","category":"restaurant"},{"name":"샤브20","tel":"031-353-2028","addr":"경기도 화성시 향남읍 하길리 1465번지 1동 2층 204-5호","indutype":"일반휴게음식 - 일반한식","category":"restaurant"}]},{"lat":"37.115528181","long":"126.91301731","imageIndex":4,"items":[{"name":"롯데리아 향남2신도시","tel":"031-354-5512","addr":"경기도 화성시 향남읍 하길리 1467-2번지 112호, 208호","indutype":"일반휴게음식 - 서양음식","category":"restaurant"},{"name":"올리앤 향남 로데오점","tel":"","addr":"경기도 화성시 향남읍 하길리 1467-2번지 케이티시네마쓰리 3층 303-304호","indutype":"일반휴게음식 - 일반한식","category":"restaurant"},{"name":"정든칼국수","tel":"031-353-0028","addr":"경기도 화성시 향남읍 하길리 1467-2번지 2층 207호(케이티씨네마3)","indutype":"일반휴게음식 - 일반한식","category":"restaurant"},{"name":"정쿡","tel":"031-354-8354","addr":"경기도 화성시 향남읍 하길리 1467-2번지 씨네마쓰리 2층 205호","indutype":"일반휴게음식 - 일반한식","category":"restaurant"},{"name":"직화로92번길","tel":"031-354-9266","addr":"경기도 화성시 향남읍 하길리 1467-2번지 2층 202호, 203호","indutype":"일반휴게음식 - 일반한식","category":"restaurant"},{"name":"크라운호프 향남2지구점","tel":"031-366-3511","addr":"경기도 화성시 향남읍 하길리 1467-2번지 1층 113, 114호","indutype":"일반휴게음식 - 주점","category":"restaurant"}]},{"lat":"37.112477596","long":"126.9184326","imageIndex":4,"items":[{"name":"마마두분식","tel":"031-297-3401","addr":"경기도 화성시 향남읍 하길리 1507번지 오색마을사랑으로부영9단지아파트 106호","indutype":"일반휴게음식 - 스넥","category":"restaurant"}]},{"lat":"37.116674714","long":"126.91596385","imageIndex":4,"items":[{"name":"마왕족발 화성향남점","tel":"031-8059-4192","addr":"경기도 화성시 향남읍 하길리 1452-2번지 101호","indutype":"일반휴게음식 - 일반한식","category":"restaurant"}]},{"lat":"37.116917276","long":"126.91498469","imageIndex":4,"items":[{"name":"만송이","tel":"031-352-2500","addr":"경기도 화성시 향남읍 하길리 1458-5번지 1층","indutype":"일반휴게음식 - 중국식","category":"restaurant"}]},{"lat":"37.087477443","long":"126.91180199","imageIndex":4,"items":[{"name":"맥킨(MACKIN)","tel":"031-354-1406","addr":"경기도 화성시 향남읍 하길리 1410-2번지 105호","indutype":"일반휴게음식 - 스넥","category":"restaurant"},{"name":"숲","tel":"031-352-3528","addr":"경기도 화성시 향남읍 하길리 1410-2번지 106호","indutype":"일반휴게음식 - 서양음식","category":"restaurant"}]},{"lat":"37.117944665","long":"126.91524229","imageIndex":4,"items":[{"name":"맵지오(MAPZIO) 떡볶이","tel":"031-8055-7933","addr":"경기도 화성시 향남읍 하길리 1459-7번지 103호","indutype":"일반휴게음식 - 스넥","category":"restaurant"}]},{"lat":"37.117864307","long":"126.91624379","imageIndex":4,"items":[{"name":"멕시카나 향남2지구점","tel":"031-8059-3944","addr":"경기도 화성시 향남읍 하길리 1455-5번지 1층 1101호","indutype":"일반휴게음식 - 주점","category":"restaurant"},{"name":"토마토김밥","tel":"031-354-4869","addr":"경기도 화성시 향남읍 하길리 1455-5번지","indutype":"일반휴게음식 - 일반한식","category":"restaurant"}]},{"lat":"37.085007226","long":"126.92243323","imageIndex":4,"items":[{"name":"무리소향남점","tel":"","addr":"경기도 화성시 향남읍 하길리 960-13번지 1층","indutype":"일반휴게음식 - 일반한식","category":"restaurant"}]},{"lat":"37.087281228","long":"126.91446781","imageIndex":4,"items":[{"name":"미소푸드","tel":"031-354-3925","addr":"경기도 화성시 향남읍 하길리 1408-6번지 1층(상가공장내1층 구내식당전부)","indutype":"일반휴게음식 - 위탁급식업","category":"restaurant"}]},{"lat":"37.117223742","long":"126.91513061","imageIndex":4,"items":[{"name":"미스터오징어(향남점)","tel":"031-353-5348","addr":"경기도 화성시 향남읍 하길리 1458-3번지 101호","indutype":"일반휴게음식 - 일식·회집","category":"restaurant"}]},{"lat":"37.118503682","long":"126.91573673","imageIndex":4,"items":[{"name":"바보스향남2지구점","tel":"031-8059-8158","addr":"경기도 화성시 향남읍 하길리 1460-3번지 102호","indutype":"일반휴게음식 - 스넥","category":"restaurant"}]},{"lat":"37.116585233","long":"126.91681907","imageIndex":4,"items":[{"name":"반올림피자샵 향남점","tel":"031-352-1192","addr":"경기도 화성시 향남읍 하길리 1450-3번지 1층","indutype":"일반휴게음식 - 서양음식","category":"restaurant"}]},{"lat":"37.116197683","long":"126.91668449","imageIndex":4,"items":[{"name":"배달의쌀국수","tel":"031-354-8001","addr":"경기도 화성시 향남읍 하길리 1450-6번지 1층 104호","indutype":"일반휴게음식 - 서양음식","category":"restaurant"}]},{"lat":"37.117314071","long":"126.9154343","imageIndex":4,"items":[{"name":"백년전집","tel":"031-366-0076","addr":"경기도 화성시 향남읍 하길리 1457-11번지 1층","indutype":"일반휴게음식 - 일반한식","category":"restaurant"}]},{"lat":"37.118007922","long":"126.91548976","imageIndex":4,"items":[{"name":"봉쥬비어","tel":"031-353-6659","addr":"경기도 화성시 향남읍 하길리 1459-3번지 1층","indutype":"일반휴게음식 - 주점","category":"restaurant"}]},{"lat":"37.111281314","long":"126.92146038","imageIndex":4,"items":[{"name":"비비큐치킨 향남부영점","tel":"031-352-4545","addr":"경기도 화성시 향남읍 하길리 1502번지 오색마을사랑으로부영10단지아파트 상가동 103호","indutype":"일반휴게음식 - 스넥","category":"restaurant"}]},{"lat":"37.117342099","long":"126.91679571","imageIndex":4,"items":[{"name":"뼈짬뽕집","tel":"031-366-6321","addr":"경기도 화성시 향남읍 하길리 1454-6번지","indutype":"일반휴게음식 - 일반한식","category":"restaurant"},{"name":"양철북향남점","tel":"031-359-9323","addr":"경기도 화성시 향남읍 하길리 1454-6번지","indutype":"일반휴게음식 - 일반한식","category":"restaurant"}]},{"lat":"37.1082245","long":"126.93199392","imageIndex":4,"items":[{"name":"뽕나무골","tel":"031-353-6220","addr":"경기도 화성시 향남읍 하길리 569-5번지","indutype":"일반휴게음식 - 일반한식","category":"restaurant"}]},{"lat":"37.117638715","long":"126.91579398","imageIndex":4,"items":[{"name":"뽕뜨락피자&쌀닭","tel":"031-366-2535","addr":"경기도 화성시 향남읍 하길리 1456-5번지","indutype":"일반휴게음식 - 서양음식","category":"restaurant"},{"name":"솟뇨16","tel":"070-8779-7709","addr":"경기도 화성시 향남읍 하길리 1456-5번지 102호","indutype":"일반휴게음식 - 서양음식","category":"restaurant"}]},{"lat":"37.118035933","long":"126.91682868","imageIndex":4,"items":[{"name":"삐에노스터피드","tel":"031-366-2255","addr":"경기도 화성시 향남읍 하길리 1454번지 1층","indutype":"일반휴게음식 - 서양음식","category":"restaurant"}]},{"lat":"37.117945983","long":"126.91704257","imageIndex":4,"items":[{"name":"사랑이네 애견카페","tel":"031-353-6929","addr":"경기도 화성시 향남읍 하길리 1454-1번지","indutype":"일반휴게음식 - 서양음식","category":"restaurant"}]},{"lat":"37.116728205","long":"126.91518744","imageIndex":4,"items":[{"name":"사조참치","tel":"031-8059-2500","addr":"경기도 화성시 향남읍 하길리 1457-7번지 1층","indutype":"일반휴게음식 - 일반한식","category":"restaurant"}]},{"lat":"37.116395471","long":"126.91607669","imageIndex":4,"items":[{"name":"산청자매훠궈","tel":"","addr":"경기도 화성시 향남읍 하길리 1453-9번지 1층 101호","indutype":"일반휴게음식 - 중국식","category":"restaurant"}]},{"lat":"37.117450429","long":"126.91707688","imageIndex":4,"items":[{"name":"삼겹시대1900향남점","tel":"031-355-6794","addr":"경기도 화성시 향남읍 하길리 1449-5번지 1층","indutype":"일반휴게음식 - 일반한식","category":"restaurant"}]},{"lat":"37.117918148","long":"126.91593993","imageIndex":4,"items":[{"name":"삼냥이디저트","tel":"","addr":"경기도 화성시 향남읍 하길리 1456-3번지 1층 104호","indutype":"일반휴게음식 - 서양음식","category":"restaurant"}]},{"lat":"37.116980233","long":"126.9148271","imageIndex":4,"items":[{"name":"석돈","tel":"031-8059-3161","addr":"경기도 화성시 향남읍 하길리 1458-8번지 101호","indutype":"일반휴게음식 - 일반한식","category":"restaurant"}]},{"lat":"37.117584137","long":"126.91509644","imageIndex":4,"items":[{"name":"성경만두요리전문점","tel":"031-354-7324","addr":"경기도 화성시 향남읍 하길리 1458번지 1층","indutype":"일반휴게음식 - 일반한식","category":"restaurant"}]},{"lat":"37.117007631","long":"126.91532213","imageIndex":4,"items":[{"name":"소담수제비","tel":"031-359-9697","addr":"경기도 화성시 향남읍 하길리 1457-9번지 101호","indutype":"일반휴게음식 - 일반한식","category":"restaurant"}]},{"lat":"37.117088891","long":"126.91554707","imageIndex":4,"items":[{"name":"소담애","tel":"031-354-2606","addr":"경기도 화성시 향남읍 하길리 1457-3번지 103호","indutype":"일반휴게음식 - 일반한식","category":"restaurant"}]},{"lat":"37.117089927","long":"126.91696477","imageIndex":4,"items":[{"name":"소래회포차","tel":"031-366-0770","addr":"경기도 화성시 향남읍 하길리 1450번지 102호","indutype":"일반휴게음식 - 일반한식","category":"restaurant"}]},{"lat":"37.117702601","long":"126.91690782","imageIndex":4,"items":[{"name":"소소한","tel":"031-111-1111","addr":"경기도 화성시 향남읍 하길리 1454-3번지 1층","indutype":"일반휴게음식 - 서양음식","category":"restaurant"},{"name":"향남집","tel":"031-505-7007","addr":"경기도 화성시 향남읍 하길리 1454-3번지","indutype":"일반휴게음식 - 일반한식","category":"restaurant"}]},{"lat":"37.114311317","long":"126.91243368","imageIndex":4,"items":[{"name":"수경왕만두찐빵","tel":"031-352-3437","addr":"경기도 화성시 향남읍 하길리 1470-6번지 대성프라자 107호","indutype":"일반휴게음식 - 스넥","category":"restaurant"},{"name":"후남이 아구낙지찜","tel":"031-353-3459","addr":"경기도 화성시 향남읍 하길리 1470-6번지 대성프라자 1동 1층 114, 115호","indutype":"일반휴게음식 - 일반한식","category":"restaurant"}]},{"lat":"37.117782435","long":"126.91518622","imageIndex":4,"items":[{"name":"순수치킨 화성향남점","tel":"","addr":"경기도 화성시 향남읍 하길리 1459-6번지 101호","indutype":"일반휴게음식 - 스넥","category":"restaurant"},{"name":"황가네곱창막창","tel":"031-352-2899","addr":"경기도 화성시 향남읍 하길리 1459-6번지 103호","indutype":"일반휴게음식 - 일반한식","category":"restaurant"}]},{"lat":"37.11814369","long":"126.91632223","imageIndex":4,"items":[{"name":"스페셜티","tel":"031-353-6470","addr":"경기도 화성시 향남읍 하길리 1455번지 102호","indutype":"일반휴게음식 - 서양음식","category":"restaurant"}]},{"lat":"37.116728958","long":"126.91621133","imageIndex":4,"items":[{"name":"싸릿골감자탕순대국","tel":"031-354-7119","addr":"경기도 화성시 향남읍 하길리 1453-12번지 1층","indutype":"일반휴게음식 - 일반한식","category":"restaurant"}]},{"lat":"37.116808949","long":"126.91471478","imageIndex":4,"items":[{"name":"아쭈구리","tel":"031-8059-5150","addr":"경기도 화성시 향남읍 하길리 1458-7번지 101호","indutype":"일반휴게음식 - 일반한식","category":"restaurant"}]},{"lat":"37.117782825","long":"126.91571505","imageIndex":4,"items":[{"name":"알마니동태탕","tel":"031-352-8253","addr":"경기도 화성시 향남읍 하길리 1456-7번지","indutype":"일반휴게음식 - 일반한식","category":"restaurant"}]},{"lat":"37.108976586","long":"126.9243767","imageIndex":4,"items":[{"name":"양석가든","tel":"031-353-8514","addr":"경기도 화성시 향남읍 하길리 502-1번지","indutype":"일반휴게음식 - 일반한식","category":"restaurant"},{"name":"양석가든","tel":"031-352-8514","addr":"경기도 화성시 향남읍 하길리 502-1번지 1층","indutype":"일반휴게음식 - 일반한식","category":"restaurant"}]},{"lat":"37.116530669","long":"126.91613279","imageIndex":4,"items":[{"name":"양평해장국","tel":"031-353-8535","addr":"경기도 화성시 향남읍 하길리 1453-10번지 1동 1층","indutype":"일반휴게음식 - 일반한식","category":"restaurant"}]},{"lat":"37.116944698","long":"126.91551348","imageIndex":4,"items":[{"name":"엄마분식","tel":"031-353-5299","addr":"경기도 화성시 향남읍 하길리 1457-4번지 1층 103호","indutype":"일반휴게음식 - 일반한식","category":"restaurant"}]},{"lat":"37.116611193","long":"126.91535635","imageIndex":4,"items":[{"name":"예감쪽갈비","tel":"031-352-2694","addr":"경기도 화성시 향남읍 하길리 1457-6번지 1층 103호","indutype":"일반휴게음식 - 일반한식","category":"restaurant"}]},{"lat":"37.089921838","long":"126.9151621","imageIndex":4,"items":[{"name":"우정한식부페","tel":"031-0000-0000","addr":"경기도 화성시 향남읍 하길리 1407-1번지","indutype":"일반휴게음식 - 위탁급식업","category":"restaurant"}]},{"lat":"37.116643871","long":"126.91091195","imageIndex":4,"items":[{"name":"위치커피 향남2지구점","tel":"","addr":"경기도 화성시 향남읍 하길리 1465-1번지 103호","indutype":"일반휴게음식 - 서양음식","category":"restaurant"},{"name":"짝태 앤 노가리","tel":"","addr":"경기도 화성시 향남읍 하길리 1465-1번지 탐스프라자2) 109호","indutype":"일반휴게음식 - 일반한식","category":"restaurant"},{"name":"키키보드게임카페","tel":"031-352-7929","addr":"경기도 화성시 향남읍 하길리 1465-1번지 704호","indutype":"일반휴게음식 - 서양음식","category":"restaurant"}]},{"lat":"37.116089393","long":"126.91645959","imageIndex":4,"items":[{"name":"육미식당","tel":"031-366-3136","addr":"경기도 화성시 향남읍 하길리 1451-5번지 101,102호","indutype":"일반휴게음식 - 일반한식","category":"restaurant"}]},{"lat":"37.117729453","long":"126.91666025","imageIndex":4,"items":[{"name":"육콩","tel":"031-366-3068","addr":"경기도 화성시 향남읍 하길리 1454-9번지 1층","indutype":"일반휴게음식 - 일반한식","category":"restaurant"}]},{"lat":"37.116175281","long":"126.91085626","imageIndex":4,"items":[{"name":"육풍향남프라임점","tel":"","addr":"경기도 화성시 향남읍 하길리 1465-2번지 113,114호","indutype":"일반휴게음식 - 일반한식","category":"restaurant"},{"name":"향남락스낵바","tel":"031-354-7557","addr":"경기도 화성시 향남읍 하길리 1465-2번지 9층 902호","indutype":"일반휴게음식 - 일반한식","category":"restaurant"},{"name":"향남소담촌","tel":"031-8059-0704","addr":"경기도 화성시 향남읍 하길리 1465-2번지 8층 804호","indutype":"일반휴게음식 - 일반한식","category":"restaurant"}]},{"lat":"37.117756337","long":"126.91645769","imageIndex":4,"items":[{"name":"육회화로","tel":"","addr":"경기도 화성시 향남읍 하길리 1455-3번지 1층","indutype":"일반휴게음식 - 일반한식","category":"restaurant"}]},{"lat":"37.117115799","long":"126.91537827","imageIndex":4,"items":[{"name":"윤쉐프중화객잔","tel":"031-352-1673","addr":"경기도 화성시 향남읍 하길리 1457-10번지","indutype":"일반휴게음식 - 중국식","category":"restaurant"},{"name":"황소고집우곱창","tel":"031-353-9979","addr":"경기도 화성시 향남읍 하길리 1457-10번지 102호","indutype":"일반휴게음식 - 일반한식","category":"restaurant"}]},{"lat":"37.08992344","long":"126.91735537","imageIndex":4,"items":[{"name":"이모네손칼국수","tel":"031-352-7913","addr":"경기도 화성시 향남읍 하길리 1406-1번지 1층","indutype":"일반휴게음식 - 일반한식","category":"restaurant"}]},{"lat":"37.116475886","long":"126.91515397","imageIndex":4,"items":[{"name":"일일공팔(1108)","tel":"","addr":"경기도 화성시 향남읍 하길리 1463-5번지 1층 101호","indutype":"일반휴게음식 - 서양음식","category":"restaurant"}]},{"lat":"37.117836681","long":"126.9154337","imageIndex":4,"items":[{"name":"일품양꼬치","tel":"031-354-6058","addr":"경기도 화성시 향남읍 하길리 1459-4번지 1층","indutype":"일반휴게음식 - 중국식","category":"restaurant"},{"name":"일품양꼬치","tel":"031-354-6058","addr":"경기도 화성시 향남읍 하길리 1459-4번지 1층","indutype":"일반휴게음식 - 일반한식","category":"restaurant"}]},{"lat":"37.116341687","long":"126.9164593","imageIndex":4,"items":[{"name":"자인트커피","tel":"050-5299-3401","addr":"경기도 화성시 향남읍 하길리 1453-8번지","indutype":"일반휴게음식 - 서양음식","category":"restaurant"}]},{"lat":"37.085448858","long":"126.92260146","imageIndex":4,"items":[{"name":"장수촌","tel":"","addr":"경기도 화성시 향남읍 하길리 960-14번지 1동 1,2층","indutype":"일반휴게음식 - 일반한식","category":"restaurant"}]},{"lat":"37.117502775","long":"126.91473648","imageIndex":4,"items":[{"name":"장인왕족발","tel":"031-498-8400","addr":"경기도 화성시 향남읍 하길리 1462-1번지 1층","indutype":"일반휴게음식 - 일반한식","category":"restaurant"}]},{"lat":"37.116503448","long":"126.91587404","imageIndex":4,"items":[{"name":"젠알파","tel":"031-354-8866","addr":"경기도 화성시 향남읍 하길리 1452-3번지 1층","indutype":"일반휴게음식 - 일반한식","category":"restaurant"}]},{"lat":"37.118584636","long":"126.91554535","imageIndex":4,"items":[{"name":"진미식당","tel":"031-352-3257","addr":"경기도 화성시 향남읍 하길리 1460-2번지","indutype":"일반휴게음식 - 일반한식","category":"restaurant"}]},{"lat":"37.117340544","long":"126.91468041","imageIndex":4,"items":[{"name":"찌글이와 짜글이","tel":"031-000-0000","addr":"경기도 화성시 향남읍 하길리 1462-2번지 1층","indutype":"일반휴게음식 - 일반한식","category":"restaurant"}]},{"lat":"37.116864444","long":"126.91666124","imageIndex":4,"items":[{"name":"차맛고","tel":"","addr":"경기도 화성시 향남읍 하길리 1453-3번지 1층 101호","indutype":"일반휴게음식 - 일반한식","category":"restaurant"}]},{"lat":"37.116755436","long":"126.91545744","imageIndex":4,"items":[{"name":"착한양꼬치","tel":"031-8059-7686","addr":"경기도 화성시 향남읍 하길리 1457-5번지 1층","indutype":"일반휴게음식 - 일반한식","category":"restaurant"}]},{"lat":"37.118196835","long":"126.91507323","imageIndex":4,"items":[{"name":"철뚝집(향남점)","tel":"031-8059-4569","addr":"경기도 화성시 향남읍 하길리 1461-2번지","indutype":"일반휴게음식 - 일반한식","category":"restaurant"}]},{"lat":"37.118278946","long":"126.9164571","imageIndex":4,"items":[{"name":"치우","tel":"031-354-7730","addr":"경기도 화성시 향남읍 하길리 1448번지 1층","indutype":"일반휴게음식 - 일식·회집","category":"restaurant"}]},{"lat":"37.116890867","long":"126.91582859","imageIndex":4,"items":[{"name":"치킨앤호프","tel":"031-575-4875","addr":"경기도 화성시 향남읍 하길리 1452-6번지 103호","indutype":"일반휴게음식 - 스넥","category":"restaurant"}]},{"lat":"37.116421588","long":"126.90344123","imageIndex":4,"items":[{"name":"카페 희","tel":"070-7718-2283","addr":"경기도 화성시 향남읍 하길리 1515번지 모아미래도에듀파크서봉마을4단지 상가 2동 113호","indutype":"일반휴게음식 - 서양음식","category":"restaurant"},{"name":"한앤둘(향남2호점)","tel":"031-354-6199","addr":"경기도 화성시 향남읍 하길리 1515번지 모아미래도에듀파크 상가 2동 118호","indutype":"일반휴게음식 - 스넥","category":"restaurant"}]},{"lat":"37.116619829","long":"126.91485002","imageIndex":4,"items":[{"name":"카페아하","tel":"031-354-8949","addr":"경기도 화성시 향남읍 하길리 1463-3번지","indutype":"일반휴게음식 - 서양음식","category":"restaurant"}]},{"lat":"37.118252201","long":"126.91685094","imageIndex":4,"items":[{"name":"커피나무","tel":"031-353-1545","addr":"경기도 화성시 향남읍 하길리 1448-2번지 1층 102호","indutype":"일반휴게음식 - 서양음식","category":"restaurant"}]},{"lat":"37.11834141","long":"126.9156244","imageIndex":4,"items":[{"name":"커피베이 화성향남 2지구점","tel":"031-359-9570","addr":"경기도 화성시 향남읍 하길리 1459-1번지","indutype":"일반휴게음식 - 서양음식","category":"restaurant"}]},{"lat":"37.116673683","long":"126.91456867","imageIndex":4,"items":[{"name":"큰맘할매순대국","tel":"031-352-1586","addr":"경기도 화성시 향남읍 하길리 1463-1번지 1층","indutype":"일반휴게음식 - 일반한식","category":"restaurant"}]},{"lat":"37.118368326","long":"126.91546684","imageIndex":4,"items":[{"name":"탐나석기(향남점)","tel":"031-1600-7617","addr":"경기도 화성시 향남읍 하길리 1459번지 1층","indutype":"일반휴게음식 - 일반한식","category":"restaurant"}]},{"lat":"37.117530224","long":"126.91529903","imageIndex":4,"items":[{"name":"태영막창&꼼장어","tel":"031-359-8835","addr":"경기도 화성시 향남읍 하길리 1458-1번지 101호","indutype":"일반휴게음식 - 일반한식","category":"restaurant"}]},{"lat":"37.117197628","long":"126.91637957","imageIndex":4,"items":[{"name":"토시래스몰(화성향남2지구점)&짝태시대","tel":"031-354-7648","addr":"경기도 화성시 향남읍 하길리 1453번지 1층","indutype":"일반휴게음식 - 주점","category":"restaurant"},{"name":"토시래스몰(화성향남2지구점)&짝태시대","tel":"031-354-7648","addr":"경기도 화성시 향남읍 하길리 1453번지 1층","indutype":"일반휴게음식 - 일반한식","category":"restaurant"}]},{"lat":"37.117196334","long":"126.91462432","imageIndex":4,"items":[{"name":"푸라닭치킨향남1호점","tel":"031-8059-3633","addr":"경기도 화성시 향남읍 하길리 1462-3번지 101호","indutype":"일반휴게음식 - 스넥","category":"restaurant"}]},{"lat":"37.118395902","long":"126.91620943","imageIndex":4,"items":[{"name":"한솥도시락향남2지구점","tel":"031-353-9144","addr":"경기도 화성시 향남읍 하길리 1460-6번지","indutype":"일반휴게음식 - 일반한식","category":"restaurant"}]},{"lat":"37.117448938","long":"126.91504033","imageIndex":4,"items":[{"name":"햇살머믄꼬마김밥","tel":"031-354-1296","addr":"경기도 화성시 향남읍 하길리 1458-11번지","indutype":"일반휴게음식 - 일반한식","category":"restaurant"}]},{"lat":"37.08826216","long":"126.91284706","imageIndex":4,"items":[{"name":"행복을 담은 밥상","tel":"031-359-9630","addr":"경기도 화성시 향남읍 하길리 1408-11번지","indutype":"일반휴게음식 - 위탁급식업","category":"restaurant"}]},{"lat":"37.117919098","long":"126.91724513","imageIndex":4,"items":[{"name":"향남메밀막국수전문점","tel":"031-352-2669","addr":"경기도 화성시 향남읍 하길리 1449-1번지 101호","indutype":"일반휴게음식 - 일반한식","category":"restaurant"}]},{"lat":"37.117395348","long":"126.91568174","imageIndex":4,"items":[{"name":"향남회관","tel":"070-8947-4490","addr":"경기도 화성시 향남읍 하길리 1457-1번지 1층 102호,103호","indutype":"일반휴게음식 - 일반한식","category":"restaurant"}]},{"lat":"37.116972365","long":"126.91637982","imageIndex":4,"items":[{"name":"향숙이네","tel":"031-353-7663","addr":"경기도 화성시 향남읍 하길리 1453-14번지 101호","indutype":"일반휴게음식 - 일반한식","category":"restaurant"}]},{"lat":"37.085927861","long":"126.91210752","imageIndex":4,"items":[{"name":"호남한식뷔페","tel":"031-354-0876","addr":"경기도 화성시 향남읍 하길리 1411-2번지 115 ,116,117,118호","indutype":"일반휴게음식 - 일반한식","category":"restaurant"}]},{"lat":"37.116503917","long":"126.91651537","imageIndex":4,"items":[{"name":"호우양꼬치","tel":"031-353-4757","addr":"경기도 화성시 향남읍 하길리 1453-6번지","indutype":"일반휴게음식 - 일반한식","category":"restaurant"}]},{"lat":"37.116638837","long":"126.91618893","imageIndex":4,"items":[{"name":"화포식당","tel":"031-8059-0824","addr":"경기도 화성시 향남읍 하길리 1453-11번지 101호","indutype":"일반휴게음식 - 일반한식","category":"restaurant"}]},{"lat":"37.115528181","long":"126.91301731","imageIndex":13,"items":[{"name":"204호프로젝트헤어","tel":"031-352-7321","addr":"경기도 화성시 향남읍 하길리 1467-2번지 2층 204호","indutype":"보건위생 - 미용원","category":"beauty"},{"name":"미르주 네일","tel":"","addr":"경기도 화성시 향남읍 하길리 1467-2번지 505호","indutype":"보건위생 - 피부미용실","category":"beauty"},{"name":"민낯연구소","tel":"031-373-2880","addr":"경기도 화성시 향남읍 하길리 1467-2번지 405호","indutype":"보건위생 - 화장품","category":"beauty"}]},{"lat":"37.115032012","long":"126.91224155","imageIndex":13,"items":[{"name":"7데이 (7Day)","tel":"031-699-3634","addr":"경기도 화성시 향남읍 하길리 1470-2번지 케이티시네마원 204호","indutype":"보건위생 - 피부미용실","category":"beauty"},{"name":"시네마안경","tel":"031-366-5877","addr":"경기도 화성시 향남읍 하길리 1470-2번지 113,114호","indutype":"보건위생 - 안경","category":"beauty"},{"name":"윤슬헤어","tel":"031-352-0259","addr":"경기도 화성시 향남읍 하길리 1470-2번지 2층 209호","indutype":"보건위생 - 미용원","category":"beauty"},{"name":"지오헤어","tel":"070-3318-1059","addr":"경기도 화성시 향남읍 하길리 1470-2번지 202호","indutype":"보건위생 - 미용원","category":"beauty"},{"name":"헤어팡팡 향남이호점","tel":"031-366-4084","addr":"경기도 화성시 향남읍 하길리 1470-2번지 302호","indutype":"보건위생 - 미용원","category":"beauty"}]},{"lat":"37.115283667","long":"126.91140866","imageIndex":13,"items":[{"name":"골든","tel":"031-354-3252","addr":"경기도 화성시 향남읍 하길리 1472-5번지 302호 303호","indutype":"보건위생 - 피부미용실","category":"beauty"},{"name":"제이에스테틱","tel":"031-354-9369","addr":"경기도 화성시 향남읍 하길리 1472-5번지 향남2택지지구중심상업용지골든프라자 502호","indutype":"보건위생 - 피부미용실","category":"beauty"},{"name":"쾌유","tel":"070-5031-0327","addr":"경기도 화성시 향남읍 하길리 1472-5번지 605호","indutype":"보건위생 - 피부미용실","category":"beauty"}]},{"lat":"37.117944665","long":"126.91524229","imageIndex":13,"items":[{"name":"나의작은뷰티샵","tel":"031-000-0000","addr":"경기도 화성시 향남읍 하길리 1459-7번지 102호","indutype":"보건위생 - 피부미용실","category":"beauty"},{"name":"네일#그리고...","tel":"031-8059-0881","addr":"경기도 화성시 향남읍 하길리 1459-7번지 101호","indutype":"보건위생 - 피부미용실","category":"beauty"}]},{"lat":"37.116500536","long":"126.91199227","imageIndex":13,"items":[{"name":"나현두피탈모","tel":"070-4240-9009","addr":"경기도 화성시 향남읍 하길리 1466번지 플러스타워 1층 126호","indutype":"보건위생 - 미용재료","category":"beauty"},{"name":"단비네일","tel":"","addr":"경기도 화성시 향남읍 하길리 1466번지 플러스타워 1동 1층 144호","indutype":"보건위생 - 피부미용실","category":"beauty"}]},{"lat":"37.117088891","long":"126.91554707","imageIndex":13,"items":[{"name":"네일미","tel":"031-353-5525","addr":"경기도 화성시 향남읍 하길리 1457-3번지 104호","indutype":"보건위생 - 피부미용실","category":"beauty"}]},{"lat":"37.116175281","long":"126.91085626","imageIndex":13,"items":[{"name":"다비치안경(향남2지구점)","tel":"031-354-7111","addr":"경기도 화성시 향남읍 하길리 1465-2번지 센트럴프라자 103호~104호","indutype":"보건위생 - 안경","category":"beauty"}]},{"lat":"37.116643871","long":"126.91091195","imageIndex":13,"items":[{"name":"다온아로마","tel":"","addr":"경기도 화성시 향남읍 하길리 1465-1번지 탑스프라자 304호","indutype":"보건위생 - 화장품","category":"beauty"},{"name":"디아르떼보스 향남점","tel":"031-352-6588","addr":"경기도 화성시 향남읍 하길리 1465-1번지 203호","indutype":"보건위생 - 미용원","category":"beauty"},{"name":"족욕이야기","tel":"031-691-8223","addr":"경기도 화성시 향남읍 하길리 1465-1번지 5층 501호","indutype":"보건위생 - 기타대인서비스","category":"beauty"}]},{"lat":"37.116674714","long":"126.91596385","imageIndex":13,"items":[{"name":"달네일","tel":"070-8285-0220","addr":"경기도 화성시 향남읍 하길리 1452-2번지 1층","indutype":"보건위생 - 피부미용실","category":"beauty"}]},{"lat":"37.117810784","long":"126.91698646","imageIndex":13,"items":[{"name":"더끌림","tel":"031-354-5006","addr":"경기도 화성시 향남읍 하길리 1454-2번지 1층 일부","indutype":"보건위생 - 피부미용실","category":"beauty"},{"name":"쉐반스","tel":"031-353-9515","addr":"경기도 화성시 향남읍 하길리 1454-2번지 103호","indutype":"보건위생 - 이용원","category":"beauty"}]},{"lat":"37.118251536","long":"126.91593955","imageIndex":13,"items":[{"name":"동안피부","tel":"","addr":"경기도 화성시 향남읍 하길리 1456번지 102호","indutype":"보건위생 - 화장품","category":"beauty"}]},{"lat":"37.116393632","long":"126.91360136","imageIndex":13,"items":[{"name":"라온한복 앤 메이크업","tel":"031-000-0000","addr":"경기도 화성시 향남읍 하길리 1467번지 키움프라자 8층 803호","indutype":"보건위생 - 미용원","category":"beauty"},{"name":"로데오헤어","tel":"070-5056-0019","addr":"경기도 화성시 향남읍 하길리 1467번지 302호","indutype":"보건위생 - 미용원","category":"beauty"},{"name":"봄날","tel":"031-354-2431","addr":"경기도 화성시 향남읍 하길리 1467번지 206-1호","indutype":"보건위생 - 미용원","category":"beauty"},{"name":"아이젠트리 향남점","tel":"031-353-3160","addr":"경기도 화성시 향남읍 하길리 1467번지 키움프라자 106호","indutype":"보건위생 - 안경","category":"beauty"},{"name":"이노티안경 향남점","tel":"031-353-8807","addr":"경기도 화성시 향남읍 하길리 1467번지 키움프라자 106호","indutype":"보건위생 - 안경","category":"beauty"}]},{"lat":"37.117034103","long":"126.91456825","imageIndex":13,"items":[{"name":"라움헤어아트","tel":"031-353-5044","addr":"경기도 화성시 향남읍 하길리 1462-4번지","indutype":"보건위생 - 미용원","category":"beauty"}]},{"lat":"37.115950679","long":"126.91171164","imageIndex":13,"items":[{"name":"로얄","tel":"070-4686-9412","addr":"경기도 화성시 향남읍 하길리 1465-5번지 1동 405호 404,405호","indutype":"보건위생 - 화장품","category":"beauty"},{"name":"리안헤어","tel":"031-352-8853","addr":"경기도 화성시 향남읍 하길리 1465-5번지","indutype":"보건위생 - 미용원","category":"beauty"},{"name":"마임","tel":"","addr":"경기도 화성시 향남읍 하길리 1465-5번지 602호","indutype":"보건위생 - 화장품","category":"beauty"}]},{"lat":"37.11456368","long":"126.91252339","imageIndex":13,"items":[{"name":"르-본 헤어","tel":"","addr":"경기도 화성시 향남읍 하길리 1470-5번지 시티프라자 201호","indutype":"보건위생 - 미용원","category":"beauty"},{"name":"민채헤어","tel":"031-353-2168","addr":"경기도 화성시 향남읍 하길리 1470-5번지 1층 110호","indutype":"보건위생 - 미용원","category":"beauty"},{"name":"헤어에스(HAIR.S)","tel":"031-352-4365","addr":"경기도 화성시 향남읍 하길리 1470-5번지 1층 101호","indutype":"보건위생 - 미용원","category":"beauty"}]},{"lat":"37.116944698","long":"126.91551348","imageIndex":13,"items":[{"name":"리치헤어","tel":"031-352-0998","addr":"경기도 화성시 향남읍 하길리 1457-4번지 1층","indutype":"보건위생 - 미용원","category":"beauty"}]},{"lat":"37.115618073","long":"126.91273592","imageIndex":13,"items":[{"name":"마더스원","tel":"031-353-2207","addr":"경기도 화성시 향남읍 하길리 1467-3번지 메인탑프라자 2층 207,208호","indutype":"보건위생 - 화장품","category":"beauty"},{"name":"아리따움 향남로데오점","tel":"031-353-1331","addr":"경기도 화성시 향남읍 하길리 1467-3번지 108호","indutype":"보건위생 - 화장품","category":"beauty"},{"name":"엠투엠맨즈헤어","tel":"","addr":"경기도 화성시 향남읍 하길리 1467-3번지 메인탑프라자 1층 111호","indutype":"보건위생 - 미용원","category":"beauty"}]},{"lat":"37.119923652","long":"126.91085173","imageIndex":13,"items":[{"name":"마일드","tel":"","addr":"경기도 화성시 향남읍 하길리 1440-9번지 203호","indutype":"보건위생 - 화장품","category":"beauty"}]},{"lat":"37.112645047","long":"126.91332449","imageIndex":13,"items":[{"name":"모아헤어","tel":"031-354-2514","addr":"경기도 화성시 향남읍 하길리 1473번지 서봉마을모아엘가 811(상가)동 102호","indutype":"보건위생 - 미용원","category":"beauty"}]},{"lat":"37.116197683","long":"126.91668449","imageIndex":13,"items":[{"name":"민헤어","tel":"031-354-6761","addr":"경기도 화성시 향남읍 하길리 1450-6번지 1층(103호)","indutype":"보건위생 - 미용원","category":"beauty"}]},{"lat":"37.115779945","long":"126.91231942","imageIndex":13,"items":[{"name":"북경아로마","tel":"031-353-8815","addr":"경기도 화성시 향남읍 하길리 1467-4번지 테라스뷰 3층 305호","indutype":"보건위생 - 피부미용실","category":"beauty"},{"name":"아이젠트리 향남점","tel":"031-353-3160","addr":"경기도 화성시 향남읍 하길리 1467-4번지 테라스뷰 1층 108호","indutype":"보건위생 - 안경","category":"beauty"},{"name":"휴 아로마","tel":"031-366-4820","addr":"경기도 화성시 향남읍 하길리 1467-4번지 테라스뷰 404호","indutype":"보건위생 - 피부미용실","category":"beauty"}]},{"lat":"37.11783762","long":"126.91671639","imageIndex":13,"items":[{"name":"사라헤어","tel":"031-353-6347","addr":"경기도 화성시 향남읍 하길리 1454-10번지 1층 102호","indutype":"보건위생 - 미용원","category":"beauty"},{"name":"에이치칼라","tel":"031-353-6347","addr":"경기도 화성시 향남읍 하길리 1454-10번지 102호","indutype":"보건위생 - 미용원","category":"beauty"}]},{"lat":"37.116421588","long":"126.90344123","imageIndex":13,"items":[{"name":"살롱드제이","tel":"031-366-3608","addr":"경기도 화성시 향남읍 하길리 1515번지 모아미래도에듀파크서봉마을4단지 단지내상가 1층 110호","indutype":"보건위생 - 미용원","category":"beauty"},{"name":"올가드림뷰티","tel":"","addr":"경기도 화성시 향남읍 하길리 1515번지 모아미래도에듀파크서봉마을4단지 1동 106호","indutype":"보건위생 - 피부미용실","category":"beauty"}]},{"lat":"37.114697662","long":"126.91099307","imageIndex":13,"items":[{"name":"샤보이(SHYBOY)","tel":"031-353-6991","addr":"경기도 화성시 향남읍 하길리 1471-4번지 104호","indutype":"보건위생 - 미용원","category":"beauty"},{"name":"에이비씨 (ABC)헤어","tel":"031-353-9566","addr":"경기도 화성시 향남읍 하길리 1471-4번지 308,309호","indutype":"보건위생 - 미용원","category":"beauty"},{"name":"조은맘 아동발달센터","tel":"031-366-1286","addr":"경기도 화성시 향남읍 하길리 1471-4번지 자비엔티타워 5층 507호","indutype":"보건위생 - 기타대인서비스","category":"beauty"}]},{"lat":"37.118638491","long":"126.915264","imageIndex":13,"items":[{"name":"손톱관리소","tel":"031-354-9449","addr":"경기도 화성시 향남읍 하길리 1460번지 102호","indutype":"보건위생 - 피부미용실","category":"beauty"}]},{"lat":"37.115369694","long":"126.90626669","imageIndex":13,"items":[{"name":"수대리운전","tel":"031-353-1214","addr":"경기도 화성시 향남읍 하길리 1477번지 서봉마을5단지 502동 1203호","indutype":"보건위생 - 기타대인서비스","category":"beauty"},{"name":"헤어닥터","tel":"031-352-6511","addr":"경기도 화성시 향남읍 하길리 1477번지 서봉마을5단지 상가동 104호","indutype":"보건위생 - 미용원","category":"beauty"}]},{"lat":"37.114868381","long":"126.91037404","imageIndex":13,"items":[{"name":"순수헤어","tel":"031-354-8488","addr":"경기도 화성시 향남읍 하길리 1472번지 1층 102호","indutype":"보건위생 - 미용원","category":"beauty"}]},{"lat":"37.117477501","long":"126.91713311","imageIndex":13,"items":[{"name":"쉬즈벨르","tel":"031-366-3137","addr":"경기도 화성시 향남읍 하길리 1449-4번지 1층 101호","indutype":"보건위생 - 미용원","category":"beauty"}]},{"lat":"37.118449842","long":"126.91604059","imageIndex":13,"items":[{"name":"스윗네일","tel":"031-8059-3344","addr":"경기도 화성시 향남읍 하길리 1460-5번지 1층 102호","indutype":"보건위생 - 피부미용실","category":"beauty"}]},{"lat":"37.114807041","long":"126.91262437","imageIndex":13,"items":[{"name":"아로마포유","tel":"031-366-5255","addr":"경기도 화성시 향남읍 하길리 1470-4번지 4층 409호","indutype":"보건위생 - 화장품","category":"beauty"},{"name":"지아&뷰티","tel":"031-352-1673","addr":"경기도 화성시 향남읍 하길리 1470-4번지 7층 701호","indutype":"보건위생 - 피부미용실","category":"beauty"}]},{"lat":"37.116583662","long":"126.91468129","imageIndex":13,"items":[{"name":"아우라헤어","tel":"031-352-3598","addr":"경기도 화성시 향남읍 하길리 1463-2번지 1층","indutype":"보건위생 - 미용원","category":"beauty"}]},{"lat":"37.117647543","long":"126.91554643","imageIndex":13,"items":[{"name":"에이치케이헤어","tel":"031-366-5471","addr":"경기도 화성시 향남읍 하길리 1456-6번지 101호","indutype":"보건위생 - 미용원","category":"beauty"},{"name":"에이치케이헤어(HK HAIR)","tel":"031-366-5417","addr":"경기도 화성시 향남읍 하길리 1456-6번지 101호","indutype":"보건위생 - 미용원","category":"beauty"}]},{"lat":"37.116755436","long":"126.91545744","imageIndex":13,"items":[{"name":"엑스맨(X맨)","tel":"031-8059-4467","addr":"경기도 화성시 향남읍 하길리 1457-5번지 104호","indutype":"보건위생 - 미용원","category":"beauty"}]},{"lat":"37.116891655","long":"126.91690874","imageIndex":13,"items":[{"name":"여우스킨","tel":"","addr":"경기도 화성시 향남읍 하길리 1450-1번지 102호","indutype":"보건위생 - 피부미용실","category":"beauty"},{"name":"헤어초코","tel":"031-352-8280","addr":"경기도 화성시 향남읍 하길리 1450-1번지 104호","indutype":"보건위생 - 미용원","category":"beauty"}]},{"lat":"37.117890992","long":"126.91577119","imageIndex":13,"items":[{"name":"제이뷰티","tel":"","addr":"경기도 화성시 향남읍 하길리 1456-8번지 101호","indutype":"보건위생 - 피부미용실","category":"beauty"}]},{"lat":"37.116809913","long":"126.91601996","imageIndex":13,"items":[{"name":"제이헤어 이호점","tel":"031-354-3457","addr":"경기도 화성시 향남읍 하길리 1452-1번지 101호","indutype":"보건위생 - 미용원","category":"beauty"}]},{"lat":"37.116251236","long":"126.91598684","imageIndex":13,"items":[{"name":"청담37","tel":"031-351-6854","addr":"경기도 화성시 향남읍 하길리 1451-2번지 1층 103호","indutype":"보건위생 - 미용원","category":"beauty"}]},{"lat":"37.113309799","long":"126.91067971","imageIndex":13,"items":[{"name":"케이뷰티","tel":"031-8059-1388","addr":"경기도 화성시 향남읍 하길리 1474번지 서봉마을사랑으로부영7단지아파트 708동 1302호","indutype":"보건위생 - 화장품","category":"beauty"}]},{"lat":"37.117115449","long":"126.9149057","imageIndex":13,"items":[{"name":"토모토모(TOMOTOMO)","tel":"031-652-6025","addr":"경기도 화성시 향남읍 하길리 1458-9번지 1층","indutype":"보건위생 - 미용원","category":"beauty"}]},{"lat":"37.118196835","long":"126.91507323","imageIndex":13,"items":[{"name":"필","tel":"031-352-8980","addr":"경기도 화성시 향남읍 하길리 1461-2번지 101호","indutype":"보건위생 - 미용원","category":"beauty"}]},{"lat":"37.115952058","long":"126.91352312","imageIndex":13,"items":[{"name":"한지선헤어","tel":"031-352-4030","addr":"경기도 화성시 향남읍 하길리 1467-1번지 3층 301호","indutype":"보건위생 - 미용원","category":"beauty"}]},{"lat":"37.118143121","long":"126.91554586","imageIndex":13,"items":[{"name":"헤어블리","tel":"031-354-7942","addr":"경기도 화성시 향남읍 하길리 1459-2번지 101호","indutype":"보건위생 - 미용원","category":"beauty"}]},{"lat":"37.116618393","long":"126.91293726","imageIndex":13,"items":[{"name":"황제바디샵","tel":"031-354-4166","addr":"경기도 화성시 향남읍 하길리 1466-3번지 304호","indutype":"보건위생 - 화장품","category":"beauty"}]},{"lat":"37.114868381","long":"126.91037404","imageIndex":8,"items":[{"name":"365드림소아청소년과의원","tel":"031-353-7496","addr":"경기도 화성시 향남읍 하길리 1472번지 305호","indutype":"의원 - 의원","category":"medical"},{"name":"이우진내과의원","tel":"031-8047-0022","addr":"경기도 화성시 향남읍 하길리 1472번지 제5층 505,506,507호","indutype":"의원 - 의원","category":"medical"},{"name":"조은맘약국","tel":"031-354-3248","addr":"경기도 화성시 향남읍 하길리 1472번지 303호","indutype":"약국 - 약국","category":"medical"},{"name":"향남정형외과","tel":"031-353-3177","addr":"경기도 화성시 향남읍 하길리 1472번지 센타프라자 705호~707호","indutype":"의원 - 의원","category":"medical"},{"name":"향남프라자약국","tel":"031-8059-3873","addr":"경기도 화성시 향남읍 하길리 1472번지 센터프라자 104호","indutype":"약국 - 약국","category":"medical"}]},{"lat":"37.114311317","long":"126.91243368","imageIndex":8,"items":[{"name":"닥터홍치과의원","tel":"031-8055-0792","addr":"경기도 화성시 향남읍 하길리 1470-6번지 305호","indutype":"의원 - 치과의원","category":"medical"},{"name":"사계절한의원","tel":"031-353-5117","addr":"경기도 화성시 향남읍 하길리 1470-6번지 대성프라자 3층 302호","indutype":"의원 - 한의원","category":"medical"}]},{"lat":"37.116393632","long":"126.91360136","imageIndex":8,"items":[{"name":"더휴치과의원","tel":"031-366-2854","addr":"경기도 화성시 향남읍 하길리 1467번지 키움프라자 404호","indutype":"의원 - 치과의원","category":"medical"},{"name":"바른몸한의원","tel":"031-366-0140","addr":"경기도 화성시 향남읍 하길리 1467번지 402호","indutype":"의원 - 한의원","category":"medical"},{"name":"스마일온누리약국","tel":"031-353-2284","addr":"경기도 화성시 향남읍 하길리 1467번지 키움프라자 108-1호","indutype":"약국 - 약국","category":"medical"},{"name":"연세안과의원","tel":"031-9047-0008","addr":"경기도 화성시 향남읍 하길리 1467번지 키움프라자 5층 503호 504호","indutype":"의원 - 의원","category":"medical"}]},{"lat":"37.115032012","long":"126.91224155","imageIndex":8,"items":[{"name":"리앤김 소아청소년과 의원","tel":"031-366-1003","addr":"경기도 화성시 향남읍 하길리 1470-2번지 1동 5층 511,512호","indutype":"의원 - 의원","category":"medical"},{"name":"서울명진내과의원","tel":"031-8043-5688","addr":"경기도 화성시 향남읍 하길리 1470-2번지 407동 410호","indutype":"의원 - 의원","category":"medical"},{"name":"위더스의원","tel":"031-366-6799","addr":"경기도 화성시 향남읍 하길리 1470-2번지 411호, 412호","indutype":"의원 - 의원","category":"medical"},{"name":"향남드림치과","tel":"031-366-2526","addr":"경기도 화성시 향남읍 하길리 1470-2번지 507~510호","indutype":"의원 - 치과의원","category":"medical"}]},{"lat":"37.11456368","long":"126.91252339","imageIndex":8,"items":[{"name":"시티약국","tel":"031-354-7637","addr":"경기도 화성시 향남읍 하길리 1470-5번지 씨티프라자 1층 104호","indutype":"약국 - 약국","category":"medical"}]},{"lat":"37.114697662","long":"126.91099307","imageIndex":8,"items":[{"name":"알파약국","tel":"031-353-9650","addr":"경기도 화성시 향남읍 하길리 1471-4번지 GBnt타워 1층 105호","indutype":"약국 - 약국","category":"medical"},{"name":"튼튼어린이치과","tel":"031-366-2923","addr":"경기도 화성시 향남읍 하길리 1471-4번지 1동 606호 605, 606호","indutype":"의원 - 치과의원","category":"medical"}]},{"lat":"37.116618393","long":"126.91293726","imageIndex":8,"items":[{"name":"향남두리이비인후과","tel":"031-353-2253","addr":"경기도 화성시 향남읍 하길리 1466-3번지 302,303호","indutype":"의원 - 의원","category":"medical"},{"name":"향남열린약국","tel":"031-354-7485","addr":"경기도 화성시 향남읍 하길리 1466-3번지 1층 104호, 105호","indutype":"약국 - 약국","category":"medical"}]},{"lat":"37.115528181","long":"126.91301731","imageIndex":8,"items":[{"name":"향남힘찬한의원","tel":"031-8059-3323","addr":"경기도 화성시 향남읍 하길리 1467-2번지 4층 403호","indutype":"의원 - 한의원","category":"medical"}]},{"lat":"37.116977599","long":"126.91135036","imageIndex":13,"items":[{"name":"Breton 당구장","tel":"","addr":"경기도 화성시 향남읍 하길리 1465번지 3층","indutype":"레저업소 - 당 구 장","category":"leisure"},{"name":"점핑하이향남점 점핑홀릭","tel":"031-1111-1111","addr":"경기도 화성시 향남읍 하길리 1465번지 탑스프라자 6층 609호 1","indutype":"레저업소 - 헬스클럽","category":"leisure"},{"name":"타이혼체육관","tel":"031-353-7772","addr":"경기도 화성시 향남읍 하길리 1465번지 탑스프라자 제1동 505호,506호","indutype":"레저업소 - 헬스클럽","category":"leisure"},{"name":"탑스바디","tel":"031-352-0854","addr":"경기도 화성시 향남읍 하길리 1465번지 502,503호","indutype":"레저업소 - 헬스클럽","category":"leisure"},{"name":"헬로방방 (향남점)","tel":"031-8059-7885","addr":"경기도 화성시 향남읍 하길리 1465번지 701,702호","indutype":"레저업소 - 기타레져업소","category":"leisure"}]},{"lat":"37.115528181","long":"126.91301731","imageIndex":13,"items":[{"name":"JS플라잉&요가","tel":"031-000-0000","addr":"경기도 화성시 향남읍 하길리 1467-2번지 505, 506호","indutype":"레저업소 - 헬스클럽","category":"leisure"}]},{"lat":"37.114868381","long":"126.91037404","imageIndex":13,"items":[{"name":"골프존파크센타스크린점","tel":"","addr":"경기도 화성시 향남읍 하길리 1472번지 901동 906호","indutype":"레저업소 - 스크린골프","category":"leisure"},{"name":"향남본주짓수","tel":"031-352-4881","addr":"경기도 화성시 향남읍 하길리 1472번지 센타프라자 7층 701,702호","indutype":"레저업소 - 헬스클럽","category":"leisure"}]},{"lat":"37.115616367","long":"126.9105194","imageIndex":13,"items":[{"name":"굿짐","tel":"031-354-4419","addr":"경기도 화성시 향남읍 하길리 1472-2번지 7층 701호","indutype":"레저업소 - 헬스클럽","category":"leisure"},{"name":"굿짐","tel":"031-354-4419","addr":"경기도 화성시 향남읍 하길리 1472-2번지 연세메디칼프라자 제1동 7층 705호,706호","indutype":"레저업소 - 헬스클럽","category":"leisure"},{"name":"굿짐 (Good Gym)","tel":"031-354-4419","addr":"경기도 화성시 향남읍 하길리 1472-2번지 1동 연세프라자 703호,704호","indutype":"레저업소 - 헬스클럽","category":"leisure"},{"name":"베가스향남점","tel":"","addr":"경기도 화성시 향남읍 하길리 1472-2번지 1동 4층 404호","indutype":"레저업소 - 기타레져업소","category":"leisure"}]},{"lat":"37.114807041","long":"126.91262437","imageIndex":13,"items":[{"name":"그려당구장","tel":"031-353-0882","addr":"경기도 화성시 향남읍 하길리 1470-4번지 6층 602호","indutype":"레저업소 - 당 구 장","category":"leisure"},{"name":"다부짐","tel":"031-354-2649","addr":"경기도 화성시 향남읍 하길리 1470-4번지 406호 ,407호, 408호","indutype":"레저업소 - 헬스클럽","category":"leisure"},{"name":"루시드VR 향남점","tel":"031-353-2511","addr":"경기도 화성시 향남읍 하길리 1470-4번지 케이티시네마 2동 309호","indutype":"레저업소 - 기타레져업소","category":"leisure"},{"name":"뮤직스타코인노래연습장","tel":"031-353-8815","addr":"경기도 화성시 향남읍 하길리 1470-4번지 204호","indutype":"레저업소 - 노 래 방","category":"leisure"},{"name":"바디앤소울2호점","tel":"031-353-7783","addr":"경기도 화성시 향남읍 하길리 1470-4번지 5층 509호","indutype":"레저업소 - 헬스클럽","category":"leisure"},{"name":"세인트복싱","tel":"031-366-1262","addr":"경기도 화성시 향남읍 하길리 1470-4번지 604호,605호","indutype":"레저업소 - 헬스클럽","category":"leisure"}]},{"lat":"37.116393632","long":"126.91360136","imageIndex":13,"items":[{"name":"누 필라테스","tel":"","addr":"경기도 화성시 향남읍 하길리 1467번지 키움프라자 1동 604호","indutype":"레저업소 - 헬스클럽","category":"leisure"},{"name":"몽노래연습장","tel":"031-353-9681","addr":"경기도 화성시 향남읍 하길리 1467번지 3층 304호","indutype":"레저업소 - 노 래 방","category":"leisure"},{"name":"에스짐","tel":"","addr":"경기도 화성시 향남읍 하길리 1467번지 10층 1001-1003호","indutype":"레저업소 - 헬스클럽","category":"leisure"},{"name":"키움골프존","tel":"031-353-8561","addr":"경기도 화성시 향남읍 하길리 1467번지 7층 2,3,4호","indutype":"레저업소 - 스크린골프","category":"leisure"},{"name":"키움볼링센터","tel":"031-8059-8860","addr":"경기도 화성시 향남읍 하길리 1467번지 키움빌딩 9층","indutype":"레저업소 - 볼 링 장","category":"leisure"},{"name":"퍼니팝pc방","tel":"031-123-4567","addr":"경기도 화성시 향남읍 하길리 1467번지 8층 804,805호","indutype":"레저업소 - 기타레져업소","category":"leisure"},{"name":"히트당구클럽","tel":"031-111-1111","addr":"경기도 화성시 향남읍 하길리 1467번지 키움프라자 1동 802호 801,802호","indutype":"레저업소 - 당 구 장","category":"leisure"}]},{"lat":"37.116643871","long":"126.91091195","imageIndex":13,"items":[{"name":"다온","tel":"","addr":"경기도 화성시 향남읍 하길리 1465-1번지 탑스프라자 6층 601,602,603,604호","indutype":"레저업소 - 스크린골프","category":"leisure"}]},{"lat":"37.115283667","long":"126.91140866","imageIndex":13,"items":[{"name":"당구타임","tel":"031-353-6441","addr":"경기도 화성시 향남읍 하길리 1472-5번지 6층 601,602호","indutype":"레저업소 - 당 구 장","category":"leisure"},{"name":"입술노래연습장","tel":"031-503-8018","addr":"경기도 화성시 향남읍 하길리 1472-5번지 205호","indutype":"레저업소 - 노 래 방","category":"leisure"},{"name":"향남 쇼타임PC","tel":"","addr":"경기도 화성시 향남읍 하길리 1472-5번지 1동 504호","indutype":"레저업소 - 기타레져업소","category":"leisure"}]},{"lat":"37.115618073","long":"126.91273592","imageIndex":13,"items":[{"name":"더캠프 PC","tel":"","addr":"경기도 화성시 향남읍 하길리 1467-3번지 603호 602호,603호","indutype":"레저업소 - 기타레져업소","category":"leisure"},{"name":"리안짐","tel":"031-359-9016","addr":"경기도 화성시 향남읍 하길리 1467-3번지 메인탑프라자 202호,203호","indutype":"레저업소 - 헬스클럽","category":"leisure"},{"name":"샤인짐 향남2지구점","tel":"031-8059-4277","addr":"경기도 화성시 향남읍 하길리 1467-3번지 메인탑프라자 203호","indutype":"레저업소 - 헬스클럽","category":"leisure"}]},{"lat":"37.115337557","long":"126.91118356","imageIndex":13,"items":[{"name":"디에스 당구장","tel":"031-000-0000","addr":"경기도 화성시 향남읍 하길리 1472-4번지 4층 401호 ,402,403호","indutype":"레저업소 - 당 구 장","category":"leisure"},{"name":"사이다노래연습장","tel":"031-354-7735","addr":"경기도 화성시 향남읍 하길리 1472-4번지 한울프라자 202,203호","indutype":"레저업소 - 노 래 방","category":"leisure"}]},{"lat":"37.087477443","long":"126.91180199","imageIndex":13,"items":[{"name":"라일당구클럽","tel":"031-353-2848","addr":"경기도 화성시 향남읍 하길리 1410-2번지 2층 203호","indutype":"레저업소 - 당 구 장","category":"leisure"}]},{"lat":"37.115032012","long":"126.91224155","imageIndex":13,"items":[{"name":"리버스이스케이프","tel":"031-357-0505","addr":"경기도 화성시 향남읍 하길리 1470-2번지 6층, 611,612호 (케이티시네마원)","indutype":"레저업소 - 기타레져업소","category":"leisure"},{"name":"월드","tel":"070-9101-0221","addr":"경기도 화성시 향남읍 하길리 1470-2번지 제1동 5층 501,502호","indutype":"레저업소 - 헬스클럽","category":"leisure"}]},{"lat":"37.115779945","long":"126.91231942","imageIndex":13,"items":[{"name":"리얼야구존 향남점","tel":"031-351-1915","addr":"경기도 화성시 향남읍 하길리 1467-4번지 6층 601호, 602호","indutype":"레저업소 - 기타레져업소","category":"leisure"},{"name":"스트라이크존 향남구장","tel":"031-352-8399","addr":"경기도 화성시 향남읍 하길리 1467-4번지 5층 501,502호","indutype":"레저업소 - 기타레져업소","category":"leisure"}]},{"lat":"37.115952058","long":"126.91352312","imageIndex":13,"items":[{"name":"벌툰 화성향남점","tel":"031-366-3354","addr":"경기도 화성시 향남읍 하길리 1467-1번지 4층 401호","indutype":"레저업소 - 기타레져업소","category":"leisure"},{"name":"쎄이 (Saay)빌리아드클럽","tel":"031-353-6950","addr":"경기도 화성시 향남읍 하길리 1467-1번지 로데오프라자 501동 504호","indutype":"레저업소 - 당 구 장","category":"leisure"},{"name":"아이비스PC 화성향남","tel":"","addr":"경기도 화성시 향남읍 하길리 1467-1번지 7층","indutype":"레저업소 - 기타레져업소","category":"leisure"},{"name":"팝스타코인노래연습장","tel":"031-0000-0000","addr":"경기도 화성시 향남읍 하길리 1467-1번지 로데오프라자 1동 202호","indutype":"레저업소 - 노 래 방","category":"leisure"},{"name":"후니트니(HUNI YNNY)","tel":"","addr":"경기도 화성시 향남읍 하길리 1467-1번지 8층","indutype":"레저업소 - 헬스클럽","category":"leisure"}]},{"lat":"37.112645047","long":"126.91332449","imageIndex":13,"items":[{"name":"보니타 필라테스","tel":"031-855-2521","addr":"경기도 화성시 향남읍 하길리 1473번지 서봉마을모아엘가 802동 1604호","indutype":"레저업소 - 헬스클럽","category":"leisure"}]},{"lat":"37.115950679","long":"126.91171164","imageIndex":13,"items":[{"name":"소울PC카페","tel":"070-7738-1701","addr":"경기도 화성시 향남읍 하길리 1465-5번지 601호","indutype":"레저업소 - 기타레져업소","category":"leisure"},{"name":"카니발 노래연습장","tel":"031-366-2984","addr":"경기도 화성시 향남읍 하길리 1465-5번지 3층 303호","indutype":"레저업소 - 노 래 방","category":"leisure"},{"name":"큐노래연습장","tel":"031-352-0212","addr":"경기도 화성시 향남읍 하길리 1465-5번지 402호","indutype":"레저업소 - 노 래 방","category":"leisure"},{"name":"탑(TOP)노래연습장","tel":"031-352-6985","addr":"경기도 화성시 향남읍 하길리 1465-5번지 3층 302호","indutype":"레저업소 - 노 래 방","category":"leisure"}]},{"lat":"37.114697662","long":"126.91099307","imageIndex":13,"items":[{"name":"심심푸리","tel":"031-8059-4993","addr":"경기도 화성시 향남읍 하길리 1471-4번지 7층 710호","indutype":"레저업소 - 기타레져업소","category":"leisure"},{"name":"이로운PC","tel":"","addr":"경기도 화성시 향남읍 하길리 1471-4번지 4층 410,411호","indutype":"레저업소 - 기타레져업소","category":"leisure"}]},{"lat":"37.116175281","long":"126.91085626","imageIndex":13,"items":[{"name":"윈썸필라앤핏(WINSOME PILA&FIT)","tel":"","addr":"경기도 화성시 향남읍 하길리 1465-2번지 8층 805호","indutype":"레저업소 - 헬스클럽","category":"leisure"},{"name":"향남락볼링장","tel":"031-111-1111","addr":"경기도 화성시 향남읍 하길리 1465-2번지 9층","indutype":"레저업소 - 볼 링 장","category":"leisure"},{"name":"현주 Billiards","tel":"031-353-8810","addr":"경기도 화성시 향남읍 하길리 1465-2번지 7층","indutype":"레저업소 - 당 구 장","category":"leisure"}]},{"lat":"37.11456368","long":"126.91252339","imageIndex":13,"items":[{"name":"유후점핑클럽","tel":"031-352-6428","addr":"경기도 화성시 향남읍 하길리 1470-5번지 시티프라자 7층 1,2,3호","indutype":"레저업소 - 기타레져업소","category":"leisure"}]},{"lat":"37.114311317","long":"126.91243368","imageIndex":13,"items":[{"name":"킹콩점프 향남2지구","tel":"031-354-7926","addr":"경기도 화성시 향남읍 하길리 1470-6번지 대성프라자 8층 801호","indutype":"레저업소 - 기타레져업소","category":"leisure"}]},{"lat":"37.11597752","long":"126.91146408","imageIndex":13,"items":[{"name":"폭스노래연습장","tel":"031-1111-1111","addr":"경기도 화성시 향남읍 하길리 1465-4번지 4층 401호","indutype":"레저업소 - 노 래 방","category":"leisure"}]},{"lat":"37.116500536","long":"126.91199227","imageIndex":13,"items":[{"name":"필굿ems","tel":"","addr":"경기도 화성시 향남읍 하길리 1466번지 플러스타워 1동 2층 205호","indutype":"레저업소 - 헬스클럽","category":"leisure"},{"name":"필라테스 쎄라비","tel":"","addr":"경기도 화성시 향남읍 하길리 1466번지 플러스타워 1층 140호","indutype":"레저업소 - 헬스클럽","category":"leisure"}]},{"lat":"37.115618073","long":"126.91273592","imageIndex":7,"items":[{"name":"김충열 과자점","tel":"031-8445-0059","addr":"경기도 화성시 향남읍 하길리 1467-3번지","indutype":"음료식품 - 제과점","category":"food"},{"name":"빵사부식빵공방","tel":"02-1577-0475","addr":"경기도 화성시 향남읍 하길리 1467-3번지 106호","indutype":"음료식품 - 제과점","category":"food"}]},{"lat":"37.118088875","long":"126.91529839","imageIndex":7,"items":[{"name":"더스윗타임","tel":"","addr":"경기도 화성시 향남읍 하길리 1459-8번지 1층 102호","indutype":"음료식품 - 기타음료식품","category":"food"}]},{"lat":"37.105114515","long":"126.91638206","imageIndex":7,"items":[{"name":"둘다섯농장","tel":"031-366-5164","addr":"경기도 화성시 향남읍 하길리 389-13번지","indutype":"음료식품 - 농·축·수산품","category":"food"}]},{"lat":"37.116393632","long":"126.91360136","imageIndex":7,"items":[{"name":"떡마을","tel":"031-353-1653","addr":"경기도 화성시 향남읍 하길리 1467번지 112호","indutype":"음료식품 - 제과점","category":"food"}]},{"lat":"37.115616367","long":"126.9105194","imageIndex":7,"items":[{"name":"뚜레쥬르 향남로데오점","tel":"031-359-8490","addr":"경기도 화성시 향남읍 하길리 1472-2번지 연세메디칼프라자 1동106호,107호","indutype":"음료식품 - 제과점","category":"food"}]},{"lat":"37.115032012","long":"126.91224155","imageIndex":7,"items":[{"name":"리앤김","tel":"031-366-1003","addr":"경기도 화성시 향남읍 하길리 1470-2번지 511호","indutype":"건강식품 - 기타건강식품","category":"food"},{"name":"마카블리","tel":"","addr":"경기도 화성시 향남읍 하길리 1470-2번지 1동 2층 203호(케이티시네마원)","indutype":"음료식품 - 기타음료식품","category":"food"},{"name":"종로떡집","tel":"031-353-7991","addr":"경기도 화성시 향남읍 하길리 1470-2번지 112호","indutype":"음료식품 - 제과점","category":"food"}]},{"lat":"37.118062374","long":"126.91601853","imageIndex":7,"items":[{"name":"막내딸집건어물 (화성향남점)","tel":"","addr":"경기도 화성시 향남읍 하길리 1456-2번지 103호","indutype":"음료식품 - 농·축·수산품","category":"food"}]},{"lat":"37.114807041","long":"126.91262437","imageIndex":7,"items":[{"name":"베스킨라빈스(향남2호점)","tel":"031-366-1339","addr":"경기도 화성시 향남읍 하길리 1470-4번지 108호","indutype":"음료식품 - 제과점","category":"food"}]},{"lat":"37.116728653","long":"126.91579502","imageIndex":7,"items":[{"name":"소중한반찬","tel":"031-354-2911","addr":"경기도 화성시 향남읍 하길리 1452-5번지 1층","indutype":"음료식품 - 기타음료식품","category":"food"}]},{"lat":"37.116643871","long":"126.91091195","imageIndex":7,"items":[{"name":"슈케익하우스","tel":"031-366-4817","addr":"경기도 화성시 향남읍 하길리 1465-1번지 107호","indutype":"음료식품 - 제과점","category":"food"},{"name":"싱싱회종합어시장","tel":"031-353-8862","addr":"경기도 화성시 향남읍 하길리 1465-1번지 110,111호","indutype":"음료식품 - 기타음료식품","category":"food"}]},{"lat":"37.115779945","long":"126.91231942","imageIndex":7,"items":[{"name":"아이스크림 할인점 (향남점)","tel":"070-997-9970","addr":"경기도 화성시 향남읍 하길리 1467-4번지 테라스뷰 101호","indutype":"음료식품 - 기타음료식품","category":"food"}]},{"lat":"37.117448938","long":"126.91504033","imageIndex":7,"items":[{"name":"오네시모베이커리카페","tel":"031-352-0808","addr":"경기도 화성시 향남읍 하길리 1458-11번지 1층 103,104호","indutype":"음료식품 - 제과점","category":"food"},{"name":"쪼미카롱","tel":"","addr":"경기도 화성시 향남읍 하길리 1458-11번지 102호","indutype":"음료식품 - 기타음료식품","category":"food"}]},{"lat":"37.087477443","long":"126.91180199","imageIndex":7,"items":[{"name":"와이엠지 인터내셔널","tel":"","addr":"경기도 화성시 향남읍 하길리 1410-2번지 화성라일플로리스3차 18층 1806호","indutype":"음료식품 - 기타음료식품","category":"food"}]},{"lat":"37.114697662","long":"126.91099307","imageIndex":7,"items":[{"name":"우리축산","tel":"031-366-6665","addr":"경기도 화성시 향남읍 하길리 1471-4번지 103-2호","indutype":"음료식품 - 정육점","category":"food"},{"name":"파리바게뜨 향남2지구점","tel":"031-353-7032","addr":"경기도 화성시 향남읍 하길리 1471-4번지","indutype":"음료식품 - 제과점","category":"food"}]},{"lat":"37.115283667","long":"126.91140866","imageIndex":7,"items":[{"name":"위드조이","tel":"031-352-5537","addr":"경기도 화성시 향남읍 하길리 1472-5번지 골든프라자 207호","indutype":"음료식품 - 기타음료식품","category":"food"}]},{"lat":"37.116500536","long":"126.91199227","imageIndex":7,"items":[{"name":"장바구니","tel":"031-366-0300","addr":"경기도 화성시 향남읍 하길리 1466번지 110호","indutype":"음료식품 - 농·축·수산품","category":"food"}]},{"lat":"37.108063576","long":"126.92004629","imageIndex":7,"items":[{"name":"정성유통","tel":"031-294-7050","addr":"경기도 화성시 향남읍 하길리 1297번지","indutype":"음료식품 - 기타음료식품","category":"food"}]},{"lat":"37.116890867","long":"126.91582859","imageIndex":7,"items":[{"name":"제이제이 (JJ)달콩","tel":"031-111-1111","addr":"경기도 화성시 향남읍 하길리 1452-6번지 1층 104호","indutype":"음료식품 - 기타음료식품","category":"food"}]},{"lat":"37.118171164","long":"126.9169298","imageIndex":7,"items":[{"name":"축산할인마트 정원축산","tel":"031-8059-3258","addr":"경기도 화성시 향남읍 하길리 1448-3번지 101호","indutype":"음료식품 - 정육점","category":"food"}]},{"lat":"37.117639707","long":"126.91715543","imageIndex":7,"items":[{"name":"카페리무커피랩","tel":"031-111-1111","addr":"경기도 화성시 향남읍 하길리 1449-3번지 101호","indutype":"음료식품 - 기타음료식품","category":"food"}]},{"lat":"37.118395902","long":"126.91620943","imageIndex":7,"items":[{"name":"파리바게트 향남부영 사랑점","tel":"070-4134-2357","addr":"경기도 화성시 향남읍 하길리 1460-6번지 1층","indutype":"음료식품 - 제과점","category":"food"}]},{"lat":"37.116977599","long":"126.91135036","imageIndex":7,"items":[{"name":"행운플러스","tel":"031-354-3321","addr":"경기도 화성시 향남읍 하길리 1465번지 115호","indutype":"음료식품 - 기타음료식품","category":"food"}]},{"lat":"37.118196835","long":"126.91507323","imageIndex":7,"items":[{"name":"다농마트","tel":"031-352-0763","addr":"경기도 화성시 향남읍 하길리 1461-2번지 102호","indutype":"유통업 영리 - 슈퍼마켓","category":"mart"}]},{"lat":"37.115418503","long":"126.91099219","imageIndex":7,"items":[{"name":"마마트","tel":"031-111-1111","addr":"경기도 화성시 향남읍 하길리 1472-3번지 104호","indutype":"유통업 영리 - 슈퍼마켓","category":"mart"}]},{"lat":"37.116500536","long":"126.91199227","imageIndex":7,"items":[{"name":"향남편의점","tel":"031-223-9159","addr":"경기도 화성시 향남읍 하길리 1466번지 105호","indutype":"유통업 영리 - 슈퍼마켓","category":"mart"}]},{"lat":"37.11597752","long":"126.91146408","imageIndex":5,"items":[{"name":"호텔앤유(향남점)","tel":"031-353-2413","addr":"경기도 화성시 향남읍 하길리 1465-4번지 5,6층 501,502,601호","indutype":"숙박업 - 여관/기타숙박업","category":"hotel"}]}]