[{"lat":"36.962216834","long":"127.07245548","imageIndex":4,"items":[{"name":"길촌식당","tel":"031-691-2245","addr":"경기도 평택시 팽성읍 추팔리 285-3번지","indutype":"일반휴게음식 - 일반한식","category":"restaurant"},{"name":"맛차이나","tel":"031-651-8849","addr":"경기도 평택시 팽성읍 추팔리 285-3번지 A동 1층","indutype":"일반휴게음식 - 중국식","category":"restaurant"}]},{"lat":"36.956888602","long":"127.07720007","imageIndex":4,"items":[{"name":"로스팅포인트","tel":"070-8831-8560","addr":"경기도 평택시 팽성읍 추팔리 396-1번지 1층","indutype":"일반휴게음식 - 서양음식","category":"restaurant"},{"name":"영이네","tel":"031-618-7725","addr":"경기도 평택시 팽성읍 추팔리 396-1번지","indutype":"일반휴게음식 - 일반한식","category":"restaurant"},{"name":"할매순대국추팔산단점","tel":"031-618-3942","addr":"경기도 평택시 팽성읍 추팔리 396-1번지 2동","indutype":"일반휴게음식 - 일반한식","category":"restaurant"}]},{"lat":"36.964137817","long":"127.06950398","imageIndex":4,"items":[{"name":"먹보순대","tel":"031-655-3517","addr":"경기도 평택시 팽성읍 추팔리 269-5번지 외1필지","indutype":"일반휴게음식 - 일반한식","category":"restaurant"}]},{"lat":"36.96169267","long":"127.0750376","imageIndex":4,"items":[{"name":"백년손님","tel":"031-653-5657","addr":"경기도 평택시 팽성읍 추팔리 338-96번지 1층","indutype":"일반휴게음식 - 일반한식","category":"restaurant"}]},{"lat":"36.96302877","long":"127.07078311","imageIndex":4,"items":[{"name":"소문난기사식당","tel":"031-658-3722","addr":"경기도 평택시 팽성읍 추팔리 272-1번지 1층","indutype":"일반휴게음식 - 일반한식","category":"restaurant"}]},{"lat":"36.962442411","long":"127.07192793","imageIndex":4,"items":[{"name":"원주골추어탕","tel":"031-618-3353","addr":"경기도 평택시 팽성읍 추팔리 273-2번지","indutype":"일반휴게음식 - 일반한식","category":"restaurant"}]},{"lat":"36.959719851","long":"127.0741487","imageIndex":4,"items":[{"name":"홍단치킨호프","tel":"031-691-9945","addr":"경기도 평택시 팽성읍 추팔리 346-14번지 2층","indutype":"일반휴게음식 - 일반한식","category":"restaurant"}]}]