[{"lat":"37.3589783589","long":"126.9619192347","imageIndex":17,"items":[{"name":"(주) 은진산업","tel":"031-477-9433","addr":"경기도 의왕시 오전동 124-3번지","indutype":"전기제품 - 기타전기제품","category":"other"}]},{"lat":"37.3527018906","long":"126.9741686805","imageIndex":17,"items":[{"name":"(주)금강전설","tel":"031-459-9847","addr":"경기도 의왕시 오전동 309-12","indutype":"용역 서비스 - 기타용역서비스","category":"other"},{"name":"케이엔테크","tel":"031-427-2635","addr":"경기도 의왕시 오전동 309-12번지 2층","indutype":"기타 - 기타 전문점","category":"other"}]},{"lat":"37.3592846294","long":"126.9617046028","imageIndex":17,"items":[{"name":"(주)금천종합공구","tel":"031-477-5596","addr":"경기도 의왕시 오전동 40-1번지 1층","indutype":"기타 - 기계공구","category":"other"},{"name":"이피전자 광학","tel":"031-477-0799","addr":"경기도 의왕시 오전동 40-1번지 3층","indutype":"광학제품 - 기타광학제품","category":"other"}]},{"lat":"37.3555020502","long":"126.9668648682","imageIndex":17,"items":[{"name":"(주)남경텔레콤","tel":"031-429-5701","addr":"경기도 의왕시 오전동 196-5번지 벽산선영테크노피아 1007호","indutype":"사무통신 - 통신기기","category":"other"},{"name":"(주)남경텔레콤/원격지","tel":"031-429-5701","addr":"경기도 의왕시 오전동 196-5번지 벽산선영테크노피아 1007호","indutype":"기타 - 기타 전문점","category":"other"},{"name":"(주)미래티엘시","tel":"031-459-6117","addr":"경기도 의왕시 오전동 196-5번지 벽산선영테크노피아 501호","indutype":"사무통신 - 통신기기","category":"other"},{"name":"세븐일레븐의왕벽산테크노점","tel":"031-1577-0711","addr":"경기도 의왕시 오전동 196-5번지 벽산선영테크노피아 102-1호","indutype":"유통업 영리 - 편 의 점","category":"other"},{"name":"세정반도체","tel":"031-427-5535","addr":"경기도 의왕시 오전동 196-5번지 벽산선영테크노피아 807호","indutype":"기타 - 기타 전문점","category":"other"},{"name":"에이앤씨","tel":"031-427-0351","addr":"경기도 의왕시 오전동 196-5번지 벽산선임테크노피아 405호","indutype":"신변잡화 - 기타잡화","category":"other"},{"name":"주식회사 크레코","tel":"031-000-0000","addr":"경기도 의왕시 오전동 196-5번지 벽산선영테크노피아 503호","indutype":"광학제품 - 기타광학제품","category":"other"},{"name":"지안네이처","tel":"031-000-0000","addr":"경기도 의왕시 오전동 196-5번지 벽산선영테크노피아 A동 405-2호","indutype":"신변잡화 - 기타잡화","category":"other"},{"name":"현찬프린팅","tel":"031-429-4704","addr":"경기도 의왕시 오전동 196-5번지 벽산선영테크노피아 A동 201-2호","indutype":"건축자재 - 인테리어전문","category":"other"}]},{"lat":"37.3552585118","long":"126.9660071688","imageIndex":17,"items":[{"name":"(주)모든전자/원격지","tel":"","addr":"경기도 의왕시 오전동 174번지 대현테크노월드 704호","indutype":"기타 - 기타 전문점","category":"other"},{"name":"(주)씽크라인","tel":"031-1566-0701","addr":"경기도 의왕시 오전동 174번지 대현테크노월드 906호","indutype":"주방용구 - 주방용구","category":"other"},{"name":"GS25의왕현대점","tel":"","addr":"경기도 의왕시 오전동 174번지 대현테크노월드","indutype":"유통업 영리 - 편 의 점","category":"other"},{"name":"랩어스","tel":"031-452-7171","addr":"경기도 의왕시 오전동 174번지 대현테크노월드 504호","indutype":"서적문구 - 과학기자재","category":"other"},{"name":"모스트레이져","tel":"070-4639-2059","addr":"경기도 의왕시 오전동 174번지 대현테크노월드","indutype":"사무통신 - 통신기기","category":"other"},{"name":"삼도폴리텍 주식회사","tel":"031-451-5642","addr":"경기도 의왕시 오전동 174번지 대현테크노월드 504호","indutype":"유통업 영리 - 기타유통업","category":"other"},{"name":"소비텍주식회사","tel":"031-466-4001","addr":"경기도 의왕시 오전동 174번지 대현테크노월드 706호","indutype":"기타 - 기타 전문점","category":"other"},{"name":"주식회사 마스(MAS Co.,Ltd)","tel":"031-427-7949","addr":"경기도 의왕시 오전동 174번지 대현테크노월드 711호","indutype":"전기제품 - 기타전기제품","category":"other"},{"name":"주식회사 매스컨","tel":"031-360-8441","addr":"경기도 의왕시 오전동 174번지 대현테크노월드 509호","indutype":"신변잡화 - 기타잡화","category":"other"}]},{"lat":"37.3554745459","long":"126.9653411252","imageIndex":17,"items":[{"name":"(주)바이옵틱","tel":"031-546-7623","addr":"경기도 의왕시 오전동 172번지 동영벤처텔 402호","indutype":"사무통신 - 통신기기","category":"other"},{"name":"(주)울텍","tel":"031-455-4603","addr":"경기도 의왕시 오전동 172번지 동양벤쳐스텔 602호","indutype":"전기제품 - 기타전기제품","category":"other"},{"name":"(주)울텍/원격지","tel":"031-455-4603","addr":"경기도 의왕시 오전동 172번지 동영벤쳐스텔 602호","indutype":"기타 - 기타 전문점","category":"other"},{"name":"신원정밀/원격지","tel":"031-452-5444","addr":"경기도 의왕시 오전동 172번지 동영벤처스텔 102호","indutype":"기타 - 기타 전문점","category":"other"},{"name":"씨유의왕동영벤처스텔점","tel":"031-454-3343","addr":"경기도 의왕시 오전동 172번지 101호,102호","indutype":"유통업 영리 - 편 의 점","category":"other"},{"name":"주식회사 넥스텐","tel":"070-4725-6553","addr":"경기도 의왕시 오전동 172번지 동영벤처스텔 7층 701호","indutype":"전기제품 - 가전제품","category":"other"},{"name":"포바이스","tel":"031-455-1081","addr":"경기도 의왕시 오전동 172번지 동영벤처스텔 702호","indutype":"전기제품 - 기타전기제품","category":"other"}]},{"lat":"37.3587531637","long":"126.9620886707","imageIndex":17,"items":[{"name":"(주)발해","tel":"031-456-6984","addr":"경기도 의왕시 오전동 124-4번지 제이콤빌딩 4층","indutype":"사무통신 - 통신기기","category":"other"}]},{"lat":"37.3575286031","long":"126.9645386973","imageIndex":17,"items":[{"name":"(주)신진디앤피","tel":"031-455-5615","addr":"경기도 의왕시 오전동 133-2번지","indutype":"신변잡화 - 기타잡화","category":"other"}]},{"lat":"37.3538914972","long":"126.9752856250","imageIndex":17,"items":[{"name":"(주)피엘프리모","tel":"031-624-3483","addr":"경기도 의왕시 오전동 358-19","indutype":"회원제형태 - 기타3","category":"other"}]},{"lat":"37.3597266926","long":"126.9633636560","imageIndex":17,"items":[{"name":"(주)현대리바트앤리빙","tel":"031-457-8489","addr":"경기도 의왕시 오전동 38-8번지 1층","indutype":"가구 - 일반가구","category":"other"},{"name":"(주)현대리바트앤리빙","tel":"031-457-8489","addr":"경기도 의왕시 오전동 38-8번지 현대리바트 1층","indutype":"가구 - 일반가구","category":"other"}]},{"lat":"37.3506122417","long":"126.9772506515","imageIndex":17,"items":[{"name":"APS-Biotech(에이피에스바이오텍)","tel":"031-422-7340","addr":"경기도 의왕시 오전동 373-2번지 상가천지빌딩 401호","indutype":"서적문구 - 과학기자재","category":"other"},{"name":"가람교역","tel":"031-429-0692","addr":"경기도 의왕시 오전동 373-2번지 천지빌딩 3층","indutype":"서적문구 - 과학기자재","category":"other"},{"name":"가람교역/원격지","tel":"031-429-0692","addr":"경기도 의왕시 오전동 373-2번지 천지빌딩 3층","indutype":"기타 - 기타 전문점","category":"other"},{"name":"대원OA","tel":"031-456-8272","addr":"경기도 의왕시 오전동 373-2번지 오전동상가 302호","indutype":"사무통신 - 사무용 OA기기","category":"other"},{"name":"의왕청년회의소","tel":"031-454-2017","addr":"경기도 의왕시 오전동 373-2번지 2층","indutype":"용역 서비스 - 사무서비스","category":"other"}]},{"lat":"37.3607542354","long":"126.9645370560","imageIndex":17,"items":[{"name":"GEESSI신발편의점","tel":"031-427-8283","addr":"경기도 의왕시 오전동 53-2번지","indutype":"신변잡화 - 신발","category":"other"}]},{"lat":"37.3572572001","long":"126.9612880786","imageIndex":17,"items":[{"name":"GS25오전공단점","tel":"","addr":"경기도 의왕시 오전동 150-44번지 1층 101호","indutype":"유통업 영리 - 편 의 점","category":"other"}]},{"lat":"37.3543060089","long":"126.9754773507","imageIndex":17,"items":[{"name":"GS25의왕오전점","tel":"","addr":"경기도 의왕시 오전동 851-4번지 1층 상가","indutype":"유통업 영리 - 편 의 점","category":"other"}]},{"lat":"37.3532237429","long":"126.9712790746","imageIndex":17,"items":[{"name":"GS25의왕행정점","tel":"02-2006-2485","addr":"경기도 의왕시 오전동 843-10번지 1층","indutype":"유통업 영리 - 편 의 점","category":"other"}]},{"lat":"37.3527308245","long":"126.9835366076","imageIndex":17,"items":[{"name":"K플라워","tel":"031-477-4045","addr":"경기도 의왕시 오전동 412-1번지","indutype":"문화.취미 - 화원","category":"other"},{"name":"갤러리숲","tel":"031-456-5800","addr":"경기도 의왕시 오전동 412-1","indutype":"문화.취미 - 화원","category":"other"},{"name":"꽃마루농원","tel":"031-456-9988","addr":"경기도 의왕시 오전동 412-1","indutype":"문화.취미 - 화원","category":"other"},{"name":"호연플라워","tel":"031-466-5782","addr":"경기도 의왕시 오전동 412-1번지 1층","indutype":"문화.취미 - 화원","category":"other"}]},{"lat":"37.3546189274","long":"126.9664476729","imageIndex":17,"items":[{"name":"RS TEC","tel":"031-429-3347","addr":"경기도 의왕시 오전동 885번지","indutype":"기타 - 기계공구","category":"other"}]},{"lat":"37.3589481116","long":"126.9853410279","imageIndex":17,"items":[{"name":"SUP컴퍼니","tel":"","addr":"경기도 의왕시 오전동 508번지","indutype":"신변잡화 - 액세서리","category":"other"}]},{"lat":"37.3569791980","long":"126.9652049280","imageIndex":17,"items":[{"name":"VIBA(비바산업)","tel":"031-479-3111","addr":"경기도 의왕시 오전동 188-1번지","indutype":"전기제품 - 기타전기제품","category":"other"},{"name":"옴니시스템","tel":"031-479-1289","addr":"경기도 의왕시 오전동 188-1번지","indutype":"전기제품 - 기타전기제품","category":"other"}]},{"lat":"37.3660614756","long":"126.9653697165","imageIndex":17,"items":[{"name":"ZIN 디자인(인테리어)","tel":"031-427-6623","addr":"경기도 의왕시 오전동 24-2번지","indutype":"건축자재 - 인테리어전문","category":"other"}]},{"lat":"37.3531968470","long":"126.9717869893","imageIndex":17,"items":[{"name":"with(위드)","tel":"031-477-4709","addr":"경기도 의왕시 오전동 277-32번지 103호","indutype":"의류 - 기타의류","category":"other"},{"name":"강아지이발소","tel":"031-344-3926","addr":"경기도 의왕시 오전동 277-32번지 101호","indutype":"문화.취미 - 애완동물","category":"other"}]},{"lat":"37.3675301883","long":"126.9655608963","imageIndex":17,"items":[{"name":"가구랜드","tel":"031-454-1882","addr":"경기도 의왕시 오전동 832번지","indutype":"가구 - 일반가구","category":"other"}]},{"lat":"37.3562500701","long":"126.9674514451","imageIndex":17,"items":[{"name":"가나안꽃화원","tel":"031-452-1010","addr":"경기도 의왕시 오전동 205-9번지","indutype":"문화.취미 - 화원","category":"other"}]},{"lat":"37.3541975435","long":"126.9740326680","imageIndex":17,"items":[{"name":"가림인테리어","tel":"031-477-0859","addr":"경기도 의왕시 오전동 296번지 명지빌라 401호","indutype":"건축자재 - 인테리어전문","category":"other"}]},{"lat":"37.3505031524","long":"126.9731198885","imageIndex":17,"items":[{"name":"건축사사무소녹색","tel":"031-451-2908","addr":"경기도 의왕시 오전동 324-3은용빌딩3층","indutype":"용역 서비스 - 사무서비스","category":"other"}]},{"lat":"37.3597813251","long":"126.9651132252","imageIndex":17,"items":[{"name":"경동종합공사(음식물처리기)","tel":"031-453-3751","addr":"경기도 의왕시 오전동 32-22번지 오전상가연립 301호","indutype":"용역 서비스 - 기타용역서비스","category":"other"},{"name":"비즐광고기획","tel":"031-429-3344","addr":"경기도 의왕시 오전동 32-22번지 오전상가 108호","indutype":"용역 서비스 - 종합용역","category":"other"},{"name":"형제천막사","tel":"031-456-9885","addr":"경기도 의왕시 오전동 32-22번지","indutype":"용역 서비스 - 종합용역","category":"other"}]},{"lat":"37.3624038364","long":"126.9669067219","imageIndex":17,"items":[{"name":"경원열기","tel":"001-0000-0000","addr":"경기도 의왕시 오전동 28대명구름채A202-1103","indutype":"수리서비스 - 가정용품수리","category":"other"},{"name":"미래교육","tel":"031-269-7012","addr":"경기도 의왕시 오전동 28번지 대명구름채아파트","indutype":"서적문구 - 일반서적","category":"other"}]},{"lat":"37.3588988041","long":"126.9666262053","imageIndex":17,"items":[{"name":"고백플레르","tel":"","addr":"경기도 의왕시 오전동 838-3번지 국화아파트","indutype":"문화.취미 - 화원","category":"other"},{"name":"골목옷집","tel":"031-251-1321","addr":"경기도 의왕시 오전동 838-3번지 국화아파트","indutype":"회원제형태 - 기타4","category":"other"}]},{"lat":"37.3501160702","long":"126.9745646853","imageIndex":17,"items":[{"name":"고천사진관","tel":"031-452-4521","addr":"경기도 의왕시 오전동 329-1번지 백운연립","indutype":"광학제품 - 사진관","category":"other"},{"name":"재현한복","tel":"031-452-8362","addr":"경기도 의왕시 오전동 329-1번지 백운연립","indutype":"의류 - 맞춤복점","category":"other"}]},{"lat":"37.3522779901","long":"126.9724758513","imageIndex":17,"items":[{"name":"골프랜드주식회사","tel":"031-454-3500","addr":"경기도 의왕시 오전동 314-26번지 세일카센타 302호","indutype":"용역 서비스 - 사무서비스","category":"other"}]},{"lat":"37.3587551454","long":"126.9683081230","imageIndex":17,"items":[{"name":"곰돌이DC아울렛","tel":"031-459-9947","addr":"경기도 의왕시 오전동 104-3번지 에몬스","indutype":"신변잡화 - 기타잡화","category":"other"}]},{"lat":"37.3601147113","long":"126.9651469214","imageIndex":17,"items":[{"name":"공간사랑","tel":"031-405-0487","addr":"경기도 의왕시 오전동 32-77번지","indutype":"건축자재 - 인테리어전문","category":"other"}]},{"lat":"37.3511427679","long":"126.9727020379","imageIndex":17,"items":[{"name":"국회의원 송호창 후원회","tel":"031-429-2628","addr":"경기도 의왕시 오전동 323-3번지 오전빌딩 301호","indutype":"기타 - 비영리/대상","category":"other"}]},{"lat":"37.3497836799","long":"126.9790341578","imageIndex":17,"items":[{"name":"그레이스","tel":"","addr":"경기도 의왕시 오전동 391-2번지 고천다세대 205호","indutype":"용역 서비스 - 가례서비스업","category":"other"},{"name":"한국바스디자인","tel":"031-427-6737","addr":"경기도 의왕시 오전동 391-2번지 고천다세대 101호","indutype":"용역 서비스 - 기타용역서비스","category":"other"}]},{"lat":"37.3552957682","long":"126.9701382131","imageIndex":17,"items":[{"name":"그린크리닝","tel":"070-8234-2644","addr":"경기도 의왕시 오전동 842번지 목련아파트","indutype":"용역 서비스 - 종합용역","category":"other"}]},{"lat":"37.3537823302","long":"126.9711208248","imageIndex":17,"items":[{"name":"근명냉열기","tel":"031-457-0472","addr":"경기도 의왕시 오전동 844-11번지 상가","indutype":"용역 서비스 - 기타용역서비스","category":"other"}]},{"lat":"37.3520887185","long":"126.9722501961","imageIndex":17,"items":[{"name":"금성상회","tel":"031-56-0459","addr":"경기도 의왕시 오전동 314-12번지","indutype":"레져용품 - 스포츠·레져용품","category":"other"},{"name":"제일용품","tel":"031-456-0306","addr":"경기도 의왕시 오전동 314-12번지","indutype":"회원제형태 - 기타3","category":"other"}]},{"lat":"37.3547020318","long":"126.9737051528","imageIndex":17,"items":[{"name":"김포건재","tel":"031-452-1503","addr":"경기도 의왕시 오전동 290-11번지","indutype":"건축자재 - 건축용 요업제품","category":"other"},{"name":"수림세라믹","tel":"031-452-1504","addr":"경기도 의왕시 오전동 290-11번지","indutype":"건축자재 - 건축용 요업제품","category":"other"}]},{"lat":"37.3543958680","long":"126.9744502081","imageIndex":17,"items":[{"name":"까망몽키","tel":"031-461-2703","addr":"경기도 의왕시 오전동 299-4번지 202호","indutype":"회원제형태 - 기타4","category":"other"}]},{"lat":"37.3589801283","long":"126.9673937235","imageIndex":17,"items":[{"name":"꽃사랑","tel":"031-456-0880","addr":"경기도 의왕시 오전동 110-1번지","indutype":"문화.취미 - 화원","category":"other"}]},{"lat":"37.3578083420","long":"126.9658704720","imageIndex":17,"items":[{"name":"꽃을담다","tel":"031-427-3338","addr":"경기도 의왕시 오전동 118-8번지 1층 5호","indutype":"문화.취미 - 화원","category":"other"},{"name":"신성종합상사","tel":"031-453-7368","addr":"경기도 의왕시 오전동 118-8번지","indutype":"건축자재 - 목재·석재·철물","category":"other"}]},{"lat":"37.3530080386","long":"126.9733672072","imageIndex":17,"items":[{"name":"남성냉열프랜트","tel":"031-429-8904","addr":"경기도 의왕시 오전동 283-9번지","indutype":"전기제품 - 냉열기기","category":"other"},{"name":"아이티시스템","tel":"070-4229-5110","addr":"경기도 의왕시 오전동 283-9번지 1층","indutype":"사무통신 - 사무용 OA기기","category":"other"},{"name":"중앙시스템","tel":"031-454-5110","addr":"경기도 의왕시 오전동 283-9번지 1층","indutype":"사무통신 - 사무용 OA기기","category":"other"}]},{"lat":"37.3491349845","long":"126.9792149412","imageIndex":17,"items":[{"name":"낭만욕실 제작소","tel":"","addr":"경기도 의왕시 오전동 388-1번지 민들레베스파트 102동 901호","indutype":"건축자재 - 인테리어전문","category":"other"}]},{"lat":"37.3513140383","long":"126.9730067038","imageIndex":17,"items":[{"name":"네오로하스주식회사","tel":"031-477-3237","addr":"경기도 의왕시 오전동 323-1번지 의왕빌딩 3층","indutype":"사무통신 - 컴퓨터","category":"other"}]},{"lat":"37.3607551843","long":"126.9675847814","imageIndex":17,"items":[{"name":"다예목","tel":"031-483-9955","addr":"경기도 의왕시 오전동 72-15번지 1층","indutype":"문화.취미 - 민예·공예품","category":"other"}]},{"lat":"37.3600869961","long":"126.9630586972","imageIndex":17,"items":[{"name":"다우닝가구","tel":"031-447-4121","addr":"경기도 의왕시 오전동 38-15번지 BK빌딩","indutype":"가구 - 일반가구","category":"other"},{"name":"시몬스침대 의왕평촌점","tel":"031-429-9016","addr":"경기도 의왕시 오전동 38-15번지 비케이빌딩","indutype":"가구 - 일반가구","category":"other"}]},{"lat":"37.3576191712","long":"126.9660060137","imageIndex":17,"items":[{"name":"다인쇄","tel":"031-452-5566","addr":"경기도 의왕시 오전동 112-12번지 창금빌딩 101호","indutype":"서적문구 - 출판 및 인쇄물","category":"other"},{"name":"신승현1:1개인트레이닝스트듀오","tel":"031-427-7250","addr":"경기도 의왕시 오전동 112-12번지 창금빌딩 B1층","indutype":"회원제형태 - 레져업소","category":"other"}]},{"lat":"37.3589715656","long":"126.9689175545","imageIndex":17,"items":[{"name":"다인퍼니처","tel":"031-429-2762","addr":"경기도 의왕시 오전동 104-37번지","indutype":"가구 - 일반가구","category":"other"},{"name":"행복나눔","tel":"031-459-7579","addr":"경기도 의왕시 오전동 104-37번지 204호","indutype":"의류 - 정장","category":"other"}]},{"lat":"37.3502870129","long":"126.9735375672","imageIndex":17,"items":[{"name":"다홍","tel":"031-344-4240","addr":"경기도 의왕시 오전동 892번지 서해그랑블 101동 2층 221호","indutype":"의류 - 정장","category":"other"},{"name":"이마트24 의왕서해그랑블점","tel":"","addr":"경기도 의왕시 오전동 892번지 서해그랑블 1층 112호","indutype":"유통업 영리 - 편 의 점","category":"other"},{"name":"크린에이드","tel":"031-000-0000","addr":"경기도 의왕시 오전동 892번지 서해그랑블 1층","indutype":"수리서비스 - 세탁소","category":"other"},{"name":"함박웃음","tel":"070-3545-3303","addr":"경기도 의왕시 오전동 892번지 더스타스퀘어 상가 229호","indutype":"의류 - 정장","category":"other"}]},{"lat":"37.3581160726","long":"126.9705997743","imageIndex":17,"items":[{"name":"대림피엔씨","tel":"031-454-2894","addr":"경기도 의왕시 오전동 230번지 성원1차이화아파트","indutype":"주방용구 - 정수기","category":"other"},{"name":"미래화훼종묘","tel":"031-429-1201","addr":"경기도 의왕시 오전동 230번지 성원1차이화아파트","indutype":"문화.취미 - 화원","category":"other"},{"name":"유어로(Your Lo)","tel":"","addr":"경기도 의왕시 오전동 230번지 성원1차이화아파트","indutype":"신변잡화 - 액세서리","category":"other"}]},{"lat":"37.3572228437","long":"126.9663899774","imageIndex":17,"items":[{"name":"대명E.N.G","tel":"031-429-6618","addr":"경기도 의왕시 오전동 214-2번지","indutype":"의류 - 아동의류","category":"other"}]},{"lat":"37.3515571571","long":"126.9723971366","imageIndex":17,"items":[{"name":"대명상재","tel":"031-435-5420","addr":"경기도 의왕시 오전동 315-48번지 102호","indutype":"직물 - 카페트,커튼,천막,지물","category":"other"},{"name":"백광마대","tel":"031-429-5322","addr":"경기도 의왕시 오전동 315-48번지","indutype":"기타 - 기타 전문점","category":"other"},{"name":"핑크리지","tel":"070-8711-7015","addr":"경기도 의왕시 오전동 315-48번지 1층 103호","indutype":"의류 - 정장","category":"other"}]},{"lat":"37.3593325740","long":"126.9710846226","imageIndex":17,"items":[{"name":"대명세탁","tel":"031-453-9551","addr":"경기도 의왕시 오전동 887 상가 103호","indutype":"수리서비스 - 세탁소","category":"other"}]},{"lat":"37.3562859917","long":"126.9670563761","imageIndex":17,"items":[{"name":"대명종합공구","tel":"031-455-4520","addr":"경기도 의왕시 오전동 205-5","indutype":"기타 - 기계공구","category":"other"}]},{"lat":"37.3575825980","long":"126.9643354966","imageIndex":17,"items":[{"name":"대성금속상사","tel":"031-453-5954","addr":"경기도 의왕시 오전동 133번지 대성금속상사","indutype":"기타 - 기타 전문점","category":"other"}]},{"lat":"37.3594201730","long":"126.9628445838","imageIndex":17,"items":[{"name":"대승글로벌 주식회사","tel":"031-346-0720","addr":"경기도 의왕시 오전동 38-16번지 4층","indutype":"신변잡화 - 기타잡화","category":"other"}]},{"lat":"37.3598359146","long":"126.9668063582","imageIndex":17,"items":[{"name":"대우사무용가구","tel":"031-455-9102","addr":"경기도 의왕시 오전동 105-17번지","indutype":"가구 - 일반가구","category":"other"}]},{"lat":"37.3515303446","long":"126.9732549209","imageIndex":17,"items":[{"name":"대정목재","tel":"031-452-6363","addr":"경기도 의왕시 오전동 348번지","indutype":"건축자재 - 기타건축자재","category":"other"},{"name":"새한방역공사","tel":"031-459-3388","addr":"경기도 의왕시 오전동 348번지","indutype":"용역 서비스 - 종합용역","category":"other"}]},{"lat":"37.3537019047","long":"126.9737055400","imageIndex":17,"items":[{"name":"대평산업","tel":"031-456-3445","addr":"경기도 의왕시 오전동 288번지","indutype":"주방용구 - 주방용구","category":"other"}]},{"lat":"37.3588096198","long":"126.9697529086","imageIndex":17,"items":[{"name":"데코라인가구","tel":"031-429-2323","addr":"경기도 의왕시 오전동 231-1번지 2층","indutype":"가구 - 일반가구","category":"other"},{"name":"이노센트","tel":"031-429-9963","addr":"경기도 의왕시 오전동 231-1번지","indutype":"가구 - 일반가구","category":"other"},{"name":"한빛쇼파","tel":"031-429-2721","addr":"경기도 의왕시 오전동 231-1번지","indutype":"수리서비스 - 가정용품수리","category":"other"}]},{"lat":"37.3593055314","long":"126.9710394834","imageIndex":17,"items":[{"name":"동경아트","tel":"031-459-6662","addr":"경기도 의왕시 오전동 887번지 대명솔채아파트","indutype":"회원제형태 - 기타4","category":"other"}]},{"lat":"37.3554584902","long":"126.9721472428","imageIndex":17,"items":[{"name":"동아공종","tel":"031-346-7677","addr":"경기도 의왕시 오전동 849","indutype":"용역 서비스 - 기타용역서비스","category":"other"}]},{"lat":"37.3536744503","long":"126.9720351022","imageIndex":17,"items":[{"name":"동양인쇄","tel":"031-427-4646","addr":"경기도 의왕시 오전동 846-8번지","indutype":"서적문구 - 출판 및 인쇄물","category":"other"}]},{"lat":"37.3611972417","long":"126.9695148121","imageIndex":17,"items":[{"name":"드림정보","tel":"02-557-0309","addr":"경기도 의왕시 오전동 100번지 모락산현대아파트","indutype":"회원제형태 - 기타1","category":"other"}]},{"lat":"37.3593952636","long":"126.9696962127","imageIndex":17,"items":[{"name":"디자인 아르떼","tel":"","addr":"경기도 의왕시 오전동 104-20번지 성원이화아파트","indutype":"건축자재 - 인테리어전문","category":"other"}]},{"lat":"37.3586469607","long":"126.9680937090","imageIndex":17,"items":[{"name":"로렌","tel":"031-343-5471","addr":"경기도 의왕시 오전동 104-47번지 2층","indutype":"의류 - 정장","category":"other"},{"name":"미더스통신","tel":"070-7565-4010","addr":"경기도 의왕시 오전동 104-47번지","indutype":"사무통신 - 통신기기","category":"other"},{"name":"한국인테리어설비","tel":"031-456-0485","addr":"경기도 의왕시 오전동 104-47번지","indutype":"건축자재 - 인테리어전문","category":"other"}]},{"lat":"37.3570031057","long":"126.9976672259","imageIndex":17,"items":[{"name":"만들기아저씨","tel":"070-4282-2467","addr":"경기도 의왕시 오전동 742-1번지","indutype":"신변잡화 - 기념품점","category":"other"}]},{"lat":"37.3516472790","long":"126.9724761057","imageIndex":17,"items":[{"name":"만물상회","tel":"031-452-4460","addr":"경기도 의왕시 오전동 314-3","indutype":"회원제형태 - 기타4","category":"other"}]},{"lat":"37.3617288115","long":"126.9694129845","imageIndex":17,"items":[{"name":"메모아(Memoire)","tel":"","addr":"경기도 의왕시 오전동 100번지 모락산현대아파트","indutype":"신변잡화 - 액세서리","category":"other"},{"name":"포유포유닷컴","tel":"070-4079-6749","addr":"경기도 의왕시 오전동 100번지 모락산현대아파트","indutype":"회원제형태 - 기타4","category":"other"}]},{"lat":"37.3586726927","long":"126.9639285868","imageIndex":17,"items":[{"name":"멘토링목회연구원","tel":"031-453-0091","addr":"경기도 의왕시 오전동 122-1번지 2층 예전교회","indutype":"서적문구 - 전문서적","category":"other"}]},{"lat":"37.3622234081","long":"126.9661730819","imageIndex":17,"items":[{"name":"목림가구","tel":"031-452-5116","addr":"경기도 의왕시 오전동 30-5번지","indutype":"가구 - 일반가구","category":"other"},{"name":"우드코","tel":"031-429-4773","addr":"경기도 의왕시 오전동 30-5번지 ,1~5층","indutype":"가구 - 일반가구","category":"other"}]},{"lat":"37.3500259578","long":"126.9745195741","imageIndex":17,"items":[{"name":"문갤러리","tel":"031-427-8839","addr":"경기도 의왕시 오전동 329-1번지 백운연립 B동 3호 (오전동)","indutype":"문화.취미 - 화랑","category":"other"}]},{"lat":"37.3533408538","long":"126.9712000182","imageIndex":17,"items":[{"name":"미가데코","tel":"031-455-5155","addr":"경기도 의왕시 오전동 843-9번지 102호","indutype":"직물 - 카페트,커튼,천막,지물","category":"other"}]},{"lat":"37.3526112224","long":"126.9719226708","imageIndex":17,"items":[{"name":"미담은에스텍","tel":"031-458-7992","addr":"경기도 의왕시 오전동 276-1번지 대덕하이베라스303,304","indutype":"회원제형태 - 기타4","category":"other"},{"name":"발리안츠코리아","tel":"031-429-0785","addr":"경기도 의왕시 오전동 276-1번지 대덕하이베라스 210,211호","indutype":"전기제품 - 기타전기제품","category":"other"},{"name":"송월타올","tel":"031-429-6785","addr":"경기도 의왕시 오전동 276-1번지 대덕하이베라스 111호","indutype":"직물 - 옷감·직물","category":"other"},{"name":"윤어패럴","tel":"301-454-0071","addr":"경기도 의왕시 오전동 276-1번지 대덕하이베라스 1층 109호","indutype":"의류 - 정장","category":"other"},{"name":"호랑이 담배 피던 시절","tel":"031-453-0908","addr":"경기도 의왕시 오전동 276-1번지 대덕하이베라스 1층 113호","indutype":"기타 - 기타 전문점","category":"other"}]},{"lat":"37.3597011512","long":"126.9681045101","imageIndex":17,"items":[{"name":"민 네트워크스 (MIN Networks)","tel":"","addr":"경기도 의왕시 오전동 104번지 매화아파트","indutype":"수리서비스 - 사무·통신기기수리","category":"other"},{"name":"에스앤피","tel":"031-456-1798","addr":"경기도 의왕시 오전동 104번지 매화아파트","indutype":"용역 서비스 - 기타용역서비스","category":"other"},{"name":"잡동사니","tel":"031-0000-0000","addr":"경기도 의왕시 오전동 104번지 매화아파트","indutype":"문화.취미 - 화원","category":"other"}]},{"lat":"37.3673500425","long":"126.9657416073","imageIndex":17,"items":[{"name":"민콜렉션","tel":"031-427-9289","addr":"경기도 의왕시 오전동 18번지","indutype":"의류 - 정장","category":"other"}]},{"lat":"37.3512973892","long":"126.9790449653","imageIndex":17,"items":[{"name":"바센아트(군포)","tel":"031-455-6775","addr":"경기도 의왕시 오전동 854번지 무궁화아파트","indutype":"회원제형태 - 기타4","category":"other"}]},{"lat":"37.3593951616","long":"126.9693350073","imageIndex":17,"items":[{"name":"바실","tel":"031-477-1581","addr":"경기도 의왕시 오전동 104-20번지 성원2차상가 1층","indutype":"주방용구 - 주방용식기","category":"other"}]},{"lat":"37.3599165849","long":"126.9654517898","imageIndex":17,"items":[{"name":"뱅크E&C","tel":"070-7168-5872","addr":"경기도 의왕시 오전동 32-103번지 101호","indutype":"건축자재 - 인테리어전문","category":"other"}]},{"lat":"37.3561425139","long":"126.9693928912","imageIndex":17,"items":[{"name":"벽산토탈","tel":"031-459-3179","addr":"경기도 의왕시 오전동 841번지 백합상가 113호","indutype":"직물 - 카페트,커튼,천막,지물","category":"other"}]},{"lat":"37.3504223614","long":"126.9743388437","imageIndex":17,"items":[{"name":"본인더블랙","tel":"","addr":"경기도 의왕시 오전동 324-6번지","indutype":"신변잡화 - 액세서리","category":"other"}]},{"lat":"37.3560056849","long":"126.9639186782","imageIndex":17,"items":[{"name":"부강공업사","tel":"031-459-5864","addr":"경기도 의왕시 오전동 182번지","indutype":"기타 - 기계공구","category":"other"}]},{"lat":"37.3624135503","long":"126.9692997991","imageIndex":17,"items":[{"name":"블럭아이 오전교육원","tel":"031-346-4620","addr":"경기도 의왕시 오전동 100번지 모락산현대아파트","indutype":"서적문구 - 완구점","category":"other"}]},{"lat":"37.3547269899","long":"126.9662557422","imageIndex":17,"items":[{"name":"블루윈테크","tel":"031-427-1113","addr":"경기도 의왕시 오전동 884번지","indutype":"기타 - 기계공구","category":"other"},{"name":"주식회사 블루윈테크","tel":"031-427-1113","addr":"경기도 의왕시 오전동 884번지","indutype":"기타 - 기계공구","category":"other"}]},{"lat":"37.3581689614","long":"126.9665588315","imageIndex":17,"items":[{"name":"뽀샤시(c)피부관리","tel":"031-429-4239","addr":"경기도 의왕시 오전동 838-7번지","indutype":"회원제형태 - 기타4","category":"other"}]},{"lat":"37.3667555739","long":"126.9663853604","imageIndex":17,"items":[{"name":"삼기냉동플랜트","tel":"032-677-4160","addr":"경기도 의왕시 오전동 21번지 진달래아파트","indutype":"전기제품 - 냉열기기","category":"other"}]},{"lat":"37.3537285816","long":"126.9723059637","imageIndex":17,"items":[{"name":"삼삼설비","tel":"031-458-3331","addr":"경기도 의왕시 오전동 847-2번지","indutype":"기타 - 기계공구","category":"other"}]},{"lat":"37.3620620743","long":"126.9690177540","imageIndex":17,"items":[{"name":"삼삼칠에프에프에프(337FFF)","tel":"","addr":"경기도 의왕시 오전동 100번지 모락산현대아파트","indutype":"문화.취미 - 민예·공예품","category":"other"}]},{"lat":"37.3538366830","long":"126.9722269120","imageIndex":17,"items":[{"name":"삼성출판사경기","tel":"031-456-3120","addr":"경기도 의왕시 오전동 847번지","indutype":"서적문구 - 출판 및 인쇄물","category":"other"},{"name":"태성서적","tel":"031-453-7685","addr":"경기도 의왕시 오전동 847번지 지층 1호","indutype":"회원제형태 - 서적","category":"other"}]},{"lat":"37.3525855514","long":"126.9776450132","imageIndex":17,"items":[{"name":"삼손종합건설","tel":"070-4108-2532","addr":"경기도 의왕시 오전동 853-18번지","indutype":"건축자재 - 인테리어전문","category":"other"}]},{"lat":"37.3566184049","long":"126.9640086594","imageIndex":17,"items":[{"name":"삼일공업사","tel":"031-451-2004","addr":"경기도 의왕시 오전동 136-4번지","indutype":"기타 - 기타 전문점","category":"other"}]},{"lat":"37.3535331295","long":"126.9861662244","imageIndex":17,"items":[{"name":"상록수농원","tel":"031-452-1420","addr":"경기도 의왕시 오전동 435-3","indutype":"문화.취미 - 화원","category":"other"}]},{"lat":"37.3596462984","long":"126.9655083626","imageIndex":17,"items":[{"name":"상흥테크","tel":"031-453-6743","addr":"경기도 의왕시 오전동 32-121번지","indutype":"기타 - 기타 전문점","category":"other"}]},{"lat":"37.3561687013","long":"126.9665372212","imageIndex":17,"items":[{"name":"새마을장갑공장","tel":"031-452-9030","addr":"경기도 의왕시 오전동 190-8번지","indutype":"신변잡화 - 기타잡화","category":"other"}]},{"lat":"37.3561068644","long":"126.9708038042","imageIndex":17,"items":[{"name":"샘물그린유통가맹점","tel":"02-2140-8723","addr":"경기도 의왕시 오전동 849번지 동백아파트","indutype":"유통업 영리 - 기타유통업","category":"other"}]},{"lat":"37.3517035114","long":"126.9826113768","imageIndex":17,"items":[{"name":"서정원예종묘","tel":"031-429-4075","addr":"경기도 의왕시 오전동 408-1번지","indutype":"농업 - 비료,사료,종자","category":"other"}]},{"lat":"37.3507015333","long":"126.9737518469","imageIndex":17,"items":[{"name":"서해그랑블 명품수선","tel":"031-429-9449","addr":"경기도 의왕시 오전동 324-4번지 의왕서해그랑블더스타케어상가 1층 223호","indutype":"수리서비스 - 세탁소","category":"other"}]},{"lat":"37.3533416853","long":"126.9744731794","imageIndex":17,"items":[{"name":"선경인테리어","tel":"031-453-9292","addr":"경기도 의왕시 오전동 309-9번지 대림다세대 B동 301호","indutype":"건축자재 - 인테리어전문","category":"other"}]},{"lat":"37.3503058913","long":"126.9772281831","imageIndex":17,"items":[{"name":"선메디칼","tel":"031-456-7125","addr":"경기도 의왕시 오전동 375-12번지","indutype":"기타의료기관 - 기타의료기관 및 기타","category":"other"}]},{"lat":"37.3539444735","long":"126.9709740274","imageIndex":17,"items":[{"name":"선일설비","tel":"031-381-0808","addr":"경기도 의왕시 오전동 844-13번지","indutype":"주방용구 - 기타주방용구","category":"other"}]},{"lat":"37.3619897576","long":"126.9682050463","imageIndex":17,"items":[{"name":"성심의전","tel":"031-1577-0207","addr":"경기도 의왕시 오전동 100번지 모락산현대아파트","indutype":"용역 서비스 - 가례서비스업","category":"other"}]},{"lat":"37.3608352717","long":"126.9643676965","imageIndex":17,"items":[{"name":"세븐","tel":"031-465-3747","addr":"경기도 의왕시 오전동 53번지 지층","indutype":"수리서비스 - 사무·통신기기수리","category":"other"}]},{"lat":"37.3600071348","long":"126.9668965784","imageIndex":17,"items":[{"name":"세븐일레븐.의왕가구거리점","tel":"02-2127-5850","addr":"경기도 의왕시 오전동 32-157번지","indutype":"유통업 영리 - 편 의 점","category":"other"}]},{"lat":"37.3602495682","long":"126.9642325423","imageIndex":17,"items":[{"name":"세탁나라","tel":"031-454-7982","addr":"경기도 의왕시 오전동 52-1번지 1층 3호","indutype":"수리서비스 - 세탁소","category":"other"}]},{"lat":"37.3666111403","long":"126.9655161965","imageIndex":17,"items":[{"name":"소망속기사무소","tel":"031-535-7791","addr":"경기도 의왕시 오전동 21번지 진달래아파트","indutype":"용역 서비스 - 사무서비스","category":"other"},{"name":"수나이더연구소","tel":"","addr":"경기도 의왕시 오전동 21번지 진달래아파트","indutype":"서적문구 - 출판 및 인쇄물","category":"other"}]},{"lat":"37.3507016024","long":"126.9740340060","imageIndex":17,"items":[{"name":"소호앤노호의왕점","tel":"031-429-7030","addr":"경기도 의왕시 오전동 324-27번지 지하1층 화원코너 (오전동)","indutype":"문화.취미 - 화원","category":"other"},{"name":"의왕종합인테리어","tel":"031-457-0114","addr":"경기도 의왕시 오전동 324-27번지","indutype":"직물 - 카페트,커튼,천막,지물","category":"other"}]},{"lat":"37.3580069746","long":"126.9672022950","imageIndex":17,"items":[{"name":"슐런코리아","tel":"031-455-4210","addr":"경기도 의왕시 오전동 839-4번지 의왕그린프라자 302,303호","indutype":"서적문구 - 완구점","category":"other"},{"name":"시그니처 스페이스","tel":"031-000-0000","addr":"경기도 의왕시 오전동 839-4번지 의왕그린프라자 302,303","indutype":"용역 서비스 - 사무서비스","category":"other"}]},{"lat":"37.3501884629","long":"126.9758964406","imageIndex":17,"items":[{"name":"스마일통신","tel":"031-477-7942","addr":"경기도 의왕시 오전동 333번지 목화케이티이자리에 102동 102호","indutype":"사무통신 - 통신기기","category":"other"},{"name":"씨유의왕점","tel":"02-1577-8007","addr":"경기도 의왕시 오전동 333번지 목화케이티이자리에 102동 112호","indutype":"유통업 영리 - 편 의 점","category":"other"}]},{"lat":"37.3653406109","long":"126.9652007470","imageIndex":17,"items":[{"name":"승천상사","tel":"031-458-7988","addr":"경기도 의왕시 오전동 24","indutype":"유통업 영리 - 기타유통업","category":"other"}]},{"lat":"37.3540898303","long":"126.9757596012","imageIndex":17,"items":[{"name":"시드트리","tel":"031-422-3572","addr":"경기도 의왕시 오전동 851-9번지 202호","indutype":"가구 - 기타가구","category":"other"}]},{"lat":"37.3586656267","long":"126.9703625001","imageIndex":17,"items":[{"name":"신도현진OA","tel":"031-443-5390","addr":"경기도 의왕시 오전동 230번지 성원1차이화아파트","indutype":"사무통신 - 사무용 OA기기","category":"other"}]},{"lat":"37.3557539321","long":"126.9655667285","imageIndex":17,"items":[{"name":"신성산업주식회사","tel":"031-457-3001","addr":"경기도 의왕시 오전동 178번지","indutype":"주방용구 - 기타주방용구","category":"other"}]},{"lat":"37.3587014378","long":"126.9695384924","imageIndex":17,"items":[{"name":"신세계가구","tel":"031-452-1399","addr":"경기도 의왕시 오전동 231-2번지","indutype":"가구 - 일반가구","category":"other"},{"name":"우아미가구","tel":"031-427-0051","addr":"경기도 의왕시 오전동 231-2번지 1층","indutype":"가구 - 일반가구","category":"other"}]},{"lat":"37.3547271116","long":"126.9666507861","imageIndex":17,"items":[{"name":"신우중기","tel":"031-451-2134","addr":"경기도 의왕시 오전동 789-2번지","indutype":"수리서비스 - 기타수리서비스","category":"other"}]},{"lat":"37.3588341495","long":"126.9617838621","imageIndex":17,"items":[{"name":"신진에스엠","tel":"031-459-7270","addr":"경기도 의왕시 오전동 124-2번지","indutype":"기타 - 기계공구","category":"other"}]},{"lat":"37.3606728254","long":"126.9635663414","imageIndex":17,"items":[{"name":"씨앤비에프(C&BF)","tel":"031-455-5554","addr":"경기도 의왕시 오전동 46-1번지 101~103,201호","indutype":"가구 - 일반가구","category":"other"},{"name":"채움","tel":"031-477-9330","addr":"경기도 의왕시 오전동 46-1번지","indutype":"가구 - 일반가구","category":"other"}]},{"lat":"37.3572846799","long":"126.9625861092","imageIndex":17,"items":[{"name":"씨유의왕오전공단점","tel":"031-898-6568","addr":"경기도 의왕시 오전동 139-11번지 1층","indutype":"유통업 영리 - 편 의 점","category":"other"}]},{"lat":"37.3581692252","long":"126.9674279679","imageIndex":17,"items":[{"name":"씨유의왕오전점","tel":"031-898-6568","addr":"경기도 의왕시 오전동 839-3번지 상가동 105, 106호","indutype":"유통업 영리 - 편 의 점","category":"other"},{"name":"호계보석","tel":"031-455-5320","addr":"경기도 의왕시 오전동 839-3번지 한마음프라자 104호","indutype":"신변잡화 - 귀금속","category":"other"}]},{"lat":"37.3618638640","long":"126.9690629953","imageIndex":17,"items":[{"name":"씨유의왕현대점","tel":"080-080-3663","addr":"경기도 의왕시 오전동 100번지 모락상가 A상가 106호","indutype":"유통업 영리 - 편 의 점","category":"other"}]},{"lat":"37.3643675160","long":"126.9652012337","imageIndex":17,"items":[{"name":"아르디앙","tel":"031-453-3877","addr":"경기도 의왕시 오전동 27번지","indutype":"가구 - 일반가구","category":"other"}]},{"lat":"37.3573773262","long":"126.9709161371","imageIndex":17,"items":[{"name":"아르코발레노","tel":"031-689-4721","addr":"경기도 의왕시 오전동 849번지 동백아파트","indutype":"의류 - 정장","category":"other"}]},{"lat":"37.3600881745","long":"126.9667272231","imageIndex":17,"items":[{"name":"아울렛가구","tel":"031-455-3996","addr":"경기도 의왕시 오전동 32-152번지 지하층","indutype":"가구 - 일반가구","category":"other"}]},{"lat":"37.3537275960","long":"126.9687054681","imageIndex":17,"items":[{"name":"아침문구센터","tel":"02-0000-0000","addr":"경기도 의왕시 오전동 260-5번지","indutype":"서적문구 - 문구용품","category":"other"},{"name":"아침피앤씨","tel":"031-456-3858","addr":"경기도 의왕시 오전동 260-5번지 3층","indutype":"사무통신 - 컴퓨터","category":"other"}]},{"lat":"37.3566114878","long":"126.9710067600","imageIndex":17,"items":[{"name":"알뜰생활용품코너","tel":"031-458-3162","addr":"경기도 의왕시 오전동 849번지 동백상가 111호","indutype":"신변잡화 - 기타잡화","category":"other"}]},{"lat":"37.3579801198","long":"126.9677892555","imageIndex":17,"items":[{"name":"앳 홈 (at home)","tel":"031-353-3912","addr":"경기도 의왕시 오전동 216-1번지 신안아파트1단지","indutype":"건축자재 - 인테리어전문","category":"other"}]},{"lat":"37.3573403489","long":"126.9676202430","imageIndex":17,"items":[{"name":"에덴농원","tel":"031-9130-4772","addr":"경기도 의왕시 오전동 216-1번지 신안아파트1단지","indutype":"문화.취미 - 화원","category":"other"}]},{"lat":"37.3552852609","long":"126.9651154784","imageIndex":17,"items":[{"name":"에버그린가구","tel":"031-454-3639","addr":"경기도 의왕시 오전동 172-1번지","indutype":"가구 - 일반가구","category":"other"}]},{"lat":"37.3587539466","long":"126.9644251981","imageIndex":17,"items":[{"name":"엘지전자(주) 의왕서비스센터","tel":"031-399-5900","addr":"경기도 의왕시 오전동 120번지 LGBESTSH오피스텔","indutype":"수리서비스 - 가정용품수리","category":"other"}]},{"lat":"37.3519004623","long":"126.9762005644","imageIndex":17,"items":[{"name":"엠케이핑크(mk pink)","tel":"070-8743-9496","addr":"경기도 의왕시 오전동 886번지 의왕모락산동문굿모닝힐아파트","indutype":"회원제형태 - 기타1","category":"other"}]},{"lat":"37.3528909263","long":"126.9734462599","imageIndex":17,"items":[{"name":"영구크린","tel":"031-466-9934","addr":"경기도 의왕시 오전동 283-12번지 삼성미도아파트(봉선화)","indutype":"용역 서비스 - 종합용역","category":"other"}]},{"lat":"37.3549805062","long":"126.9704769604","imageIndex":17,"items":[{"name":"영주스킨케어","tel":"031-429-5019","addr":"경기도 의왕시 오전동 842 풍림상가지층 7호","indutype":"회원제형태 - 기타4","category":"other"}]},{"lat":"37.3576693209","long":"126.9904770982","imageIndex":17,"items":[{"name":"오성다육","tel":"031-451-4700","addr":"경기도 의왕시 오전동 618-7번지","indutype":"문화.취미 - 화원","category":"other"},{"name":"오성화훼꽃도매직판장","tel":"031-451-4700","addr":"경기도 의왕시 오전동 618-7","indutype":"문화.취미 - 화원","category":"other"}]},{"lat":"37.3510635892","long":"126.9814716202","imageIndex":17,"items":[{"name":"오전꽃농원","tel":"031-453-9800","addr":"경기도 의왕시 오전동 402-2","indutype":"문화.취미 - 화원","category":"other"},{"name":"하늘꽃농장","tel":"031-453-4100","addr":"경기도 의왕시 오전동 402-2번지","indutype":"문화.취미 - 화원","category":"other"}]},{"lat":"37.3534760873","long":"126.9715047045","imageIndex":17,"items":[{"name":"오전동주민자치위원회","tel":"031-341-1140","addr":"경기도 의왕시 오전동 844-18번지","indutype":"문화.취미 - 문화취미기타","category":"other"}]},{"lat":"37.3583675226","long":"126.9676761999","imageIndex":17,"items":[{"name":"온더데스크 스터디","tel":"031-429-8209","addr":"경기도 의왕시 오전동 839-1번지 도원빌딩 4,5층","indutype":"용역 서비스 - 사무서비스","category":"other"},{"name":"와이에이치(YH)모바일(의왕점)","tel":"031-457-7010","addr":"경기도 의왕시 오전동 839-1번지 도원빌딩","indutype":"사무통신 - 통신기기","category":"other"}]},{"lat":"37.3565289431","long":"126.9660065472","imageIndex":17,"items":[{"name":"용수 양봉원","tel":"02-451-3550","addr":"경기도 의왕시 오전동 190-6번지","indutype":"농업 - 기타농업관련","category":"other"}]},{"lat":"37.3576423449","long":"126.9910076108","imageIndex":17,"items":[{"name":"우성꽃란화원","tel":"031-457-0790","addr":"경기도 의왕시 오전동 618-1","indutype":"문화.취미 - 화원","category":"other"}]},{"lat":"37.3575838591","long":"126.9684215344","imageIndex":17,"items":[{"name":"울트라","tel":"031-452-5947","addr":"경기도 의왕시 오전동 217-2번지","indutype":"의류 - 정장","category":"other"}]},{"lat":"37.3575884292","long":"126.9925539931","imageIndex":17,"items":[{"name":"월계수농원","tel":"031-429-0320","addr":"경기도 의왕시 오전동 651","indutype":"문화.취미 - 화원","category":"other"}]},{"lat":"37.3539173604","long":"126.9706692939","imageIndex":17,"items":[{"name":"웹오에이서비스","tel":"02-582-6690","addr":"경기도 의왕시 오전동 843-3번지 101호","indutype":"사무통신 - 사무용 OA기기","category":"other"}]},{"lat":"37.3603391695","long":"126.9627312174","imageIndex":17,"items":[{"name":"윈도우스토리 의왕점","tel":"031-452-5191","addr":"경기도 의왕시 오전동 35-29번지 중앙빌딩 203호","indutype":"직물 - 침구·수예점","category":"other"},{"name":"일룸의왕점","tel":"031-455-5589","addr":"경기도 의왕시 오전동 35-29번지 중앙와이어컷팅 (1층일부)","indutype":"가구 - 일반가구","category":"other"},{"name":"팔로모침대,밀란소파,데코라인가구","tel":"031-429-5523","addr":"경기도 의왕시 오전동 35-29번지 중앙빌딩 1층","indutype":"가구 - 일반가구","category":"other"}]},{"lat":"37.3643496743","long":"126.9657656632","imageIndex":17,"items":[{"name":"유한플러스","tel":"031-455-5616","addr":"경기도 의왕시 오전동 27-1번지 해모로아파트","indutype":"회원제형태 - 기타4","category":"other"}]},{"lat":"37.3590614009","long":"126.9680032167","imageIndex":17,"items":[{"name":"은하통신","tel":"031-459-7979","addr":"경기도 의왕시 오전동 104-10번지 107호","indutype":"사무통신 - 통신기기","category":"other"}]},{"lat":"37.3549186811","long":"126.9753981189","imageIndex":17,"items":[{"name":"의왕도시공사/여성회관","tel":"031-8086-7405","addr":"경기도 의왕시 오전동 852 의왕도시공사 시설운영팀","indutype":"문화.취미 - 문화취미기타","category":"other"},{"name":"의왕시청(여성회관)","tel":"031-345-2485","addr":"경기도 의왕시 오전동 852번지","indutype":"용역 서비스 - 조세서비스","category":"other"}]},{"lat":"37.3596972464","long":"127.0014145608","imageIndex":17,"items":[{"name":"의왕시청(의왕하늘쉼터)","tel":"031-345-2832","addr":"경기도 의왕시 오전동 710-6번지","indutype":"용역 서비스 - 가례서비스업","category":"other"}]},{"lat":"37.3513679786","long":"126.9725326507","imageIndex":17,"items":[{"name":"의왕우체국","tel":"031-452-4205","addr":"경기도 의왕시 오전동 323-7번지","indutype":"용역 서비스 - 공공요금대행서비스/소","category":"other"}]},{"lat":"37.3575548063","long":"126.9620667446","imageIndex":17,"items":[{"name":"이상기획","tel":"031-452-1077","addr":"경기도 의왕시 오전동 139-2번지 2층 201호","indutype":"건축자재 - 인테리어전문","category":"other"},{"name":"캘러웨이 의왕점","tel":"031-454-5519","addr":"경기도 의왕시 오전동 139-2번지,101호","indutype":"레져용품 - 스포츠·레져용품","category":"other"}]},{"lat":"37.3534227577","long":"126.9743941414","imageIndex":17,"items":[{"name":"이엠씨텍","tel":"031-422-9606","addr":"경기도 의왕시 오전동 309-1번지 대림다세대 101호","indutype":"회원제형태 - 기타4","category":"other"}]},{"lat":"37.3626931301","long":"126.9702478803","imageIndex":17,"items":[{"name":"인문과 사람","tel":"031-381-0629","addr":"경기도 의왕시 오전동 100번지 모락산현대아파트","indutype":"서적문구 - 출판 및 인쇄물","category":"other"}]},{"lat":"37.3591608978","long":"126.9693351116","imageIndex":17,"items":[{"name":"일신OA퍼니처","tel":"031-429-0507","addr":"경기도 의왕시 오전동 104-20번지 성원이화아파트","indutype":"수리서비스 - 기타수리서비스","category":"other"}]},{"lat":"37.3572548739","long":"126.9906690514","imageIndex":17,"items":[{"name":"자유화원","tel":"031-451-5595","addr":"경기도 의왕시 오전동 619","indutype":"문화.취미 - 화원","category":"other"}]},{"lat":"37.3492255367","long":"126.9815850038","imageIndex":17,"items":[{"name":"자작나무정원 (Birch&garden)","tel":"070-1111-1111","addr":"경기도 의왕시 오전동 393-15번지","indutype":"문화.취미 - 화원","category":"other"},{"name":"착한다육이","tel":"031-453-3462","addr":"경기도 의왕시 오전동 393-15","indutype":"문화.취미 - 화원","category":"other"},{"name":"창연플라워","tel":"031-1111-111","addr":"경기도 의왕시 오전동 393-15","indutype":"문화.취미 - 화원","category":"other"}]},{"lat":"37.3599793704","long":"126.9645600258","imageIndex":17,"items":[{"name":"장인가구 의왕점","tel":"031-429-8006","addr":"경기도 의왕시 오전동 32-168번지","indutype":"가구 - 일반가구","category":"other"}]},{"lat":"37.3535848336","long":"126.9739538949","imageIndex":17,"items":[{"name":"재현","tel":"031-381-3671","addr":"경기도 의왕시 오전동 284-1번지","indutype":"서적문구 - 일반서적","category":"other"}]},{"lat":"37.3518647628","long":"126.9777581200","imageIndex":17,"items":[{"name":"정성드림","tel":"031-459-7164","addr":"경기도 의왕시 오전동 산149-3번지 삼신9차아파트","indutype":"용역 서비스 - 기타용역서비스","category":"other"}]},{"lat":"37.3538365888","long":"126.9718657333","imageIndex":17,"items":[{"name":"조이컴퓨터","tel":"031-477-3677","addr":"경기도 의왕시 오전동 846-6번지 1층","indutype":"사무통신 - 컴퓨터","category":"other"}]},{"lat":"37.3529181753","long":"126.9743378986","imageIndex":17,"items":[{"name":"종일서적","tel":"070-8726-8836","addr":"경기도 의왕시 오전동 309-2번지 107호,108호","indutype":"서적문구 - 일반서적","category":"other"}]},{"lat":"37.3567002062","long":"126.9662322087","imageIndex":17,"items":[{"name":"주식회사 기분좋은날","tel":"031-477-1609","addr":"경기도 의왕시 오전동 209-1번지 지층 전체","indutype":"유통업 영리 - 기타유통업","category":"other"}]},{"lat":"37.3565074993","long":"126.9966739832","imageIndex":17,"items":[{"name":"주식회사 태왕금속앙카안전","tel":"031-429-5656","addr":"경기도 의왕시 오전동 737-1,717-7번지","indutype":"건축자재 - 기타건축자재","category":"other"}]},{"lat":"37.3591680560","long":"126.9633413737","imageIndex":17,"items":[{"name":"주식회사 퍼스트산업개발","tel":"031-429-0274","addr":"경기도 의왕시 오전동 38-25번지 동인빌딩 401호","indutype":"용역 서비스 - 기타용역서비스","category":"other"}]},{"lat":"37.3669543040","long":"126.9680672956","imageIndex":17,"items":[{"name":"주식회사 한국융합인재교육원","tel":"02-511-8825","addr":"경기도 의왕시 오전동 17-1번지 철쭉마을한광샤인빌리지 202동 203호","indutype":"서적문구 - 출판 및 인쇄물","category":"other"}]},{"lat":"37.3505845715","long":"126.9744516458","imageIndex":17,"items":[{"name":"주식회사 휴네트윅스","tel":"061-427-6611","addr":"경기도 의왕시 오전동 324-1번지","indutype":"건축자재 - 목재·석재·철물","category":"other"}]},{"lat":"37.3536110825","long":"126.9709177345","imageIndex":17,"items":[{"name":"주식회사슈즈브이","tel":"070-4104-9358","addr":"경기도 의왕시 오전동 843-6번지 지층","indutype":"레져용품 - 스포츠·레져용품","category":"other"}]},{"lat":"37.3571949912","long":"126.9638164772","imageIndex":17,"items":[{"name":"주식회사퓨전미디어","tel":"031-427-0202","addr":"경기도 의왕시 오전동 137-6번지","indutype":"레져용품 - 음반/영상물","category":"other"}]},{"lat":"37.3500531725","long":"126.9752983166","imageIndex":17,"items":[{"name":"주현FLOWER","tel":"031-424-1188","addr":"경기도 의왕시 오전동 333번지 목화케이티이자리에 101동 109호","indutype":"문화.취미 - 화원","category":"other"}]},{"lat":"37.3499010988","long":"126.9805013330","imageIndex":17,"items":[{"name":"준앤미","tel":"","addr":"경기도 의왕시 오전동 856번지 개나리아파트","indutype":"용역 서비스 - 사무서비스","category":"other"}]},{"lat":"37.3565022456","long":"126.9670901350","imageIndex":17,"items":[{"name":"중앙합판","tel":"031-399-8988","addr":"경기도 의왕시 오전동 207-1번지","indutype":"건축자재 - 기타건축자재","category":"other"}]},{"lat":"37.3613683288","long":"126.9691422335","imageIndex":17,"items":[{"name":"짐볼리쉬 (Gymballlish)","tel":"","addr":"경기도 의왕시 오전동 100번지 모락산현대아파트","indutype":"용역 서비스 - 사무서비스","category":"other"}]},{"lat":"37.3526474557","long":"126.9726675754","imageIndex":17,"items":[{"name":"차니인테리어","tel":"031-429-5614","addr":"경기도 의왕시 오전동 281-18번지 1층","indutype":"건축자재 - 인테리어전문","category":"other"}]},{"lat":"37.3536114729","long":"126.9723963057","imageIndex":17,"items":[{"name":"천사문구완구","tel":"031-452-8764","addr":"경기도 의왕시 오전동 847-3번지","indutype":"서적문구 - 문구용품","category":"other"}]},{"lat":"37.3671698822","long":"126.9658771621","imageIndex":17,"items":[{"name":"카네트웍","tel":"02-1577-4922","addr":"경기도 의왕시 오전동 21번지 진달래아파트","indutype":"사무통신 - 컴퓨터","category":"other"}]},{"lat":"37.3637643056","long":"126.9667028825","imageIndex":17,"items":[{"name":"카렌","tel":"02-1577-0000","addr":"경기도 의왕시 오전동 27-1번지 해모로아파트","indutype":"의류 - 정장","category":"other"},{"name":"하나이엔지","tel":"031-453-3396","addr":"경기도 의왕시 오전동 27-1번지 해모로아파트","indutype":"회원제형태 - 기타4","category":"other"}]},{"lat":"37.3603126834","long":"126.9643679636","imageIndex":17,"items":[{"name":"컴맹컴퓨터","tel":"031-453-3886","addr":"경기도 의왕시 오전동 52-1번지 유림 상가 105호","indutype":"사무통신 - 컴퓨터","category":"other"}]},{"lat":"37.3584492926","long":"126.9700352552","imageIndex":17,"items":[{"name":"컴박사","tel":"031-454-4787","addr":"경기도 의왕시 오전동 230 성원상가 202호","indutype":"수리서비스 - 사무·통신기기수리","category":"other"}]},{"lat":"37.3524222104","long":"126.9727015256","imageIndex":17,"items":[{"name":"컴퓨터생각","tel":"","addr":"경기도 의왕시 오전동 314-13번지 대성빌딩 1층 102호","indutype":"수리서비스 - 사무·통신기기수리","category":"other"}]},{"lat":"37.3529276356","long":"126.9762679210","imageIndex":17,"items":[{"name":"크린워터","tel":"031-457-4368","addr":"경기도 의왕시 오전동 358-1번지 삼호백조아파트","indutype":"수리서비스 - 가정용품수리","category":"other"},{"name":"플러스 디아이디","tel":"070-7719-3219","addr":"경기도 의왕시 오전동 358-1번지 삼호백조아파트","indutype":"회원제형태 - 기타4","category":"other"}]},{"lat":"37.3610327304","long":"126.9620874367","imageIndex":17,"items":[{"name":"클로버홈클리닝","tel":"","addr":"경기도 의왕시 오전동 35-6번지 신남빌딩 102호","indutype":"용역 서비스 - 종합용역","category":"other"},{"name":"클로버홈클리닝","tel":"031-453-5140","addr":"경기도 의왕시 오전동 35-6번지 102호","indutype":"용역 서비스 - 종합용역","category":"other"}]},{"lat":"37.3596469061","long":"126.9674837112","imageIndex":17,"items":[{"name":"태린슈즈","tel":"031-427-9651","addr":"경기도 의왕시 오전동 104-5번지 105호","indutype":"신변잡화 - 제화","category":"other"}]},{"lat":"37.3602501516","long":"126.9660611653","imageIndex":17,"items":[{"name":"태백시스템","tel":"031-455-2586","addr":"경기도 의왕시 오전동 32-62번지","indutype":"기타 - 기계공구","category":"other"}]},{"lat":"37.3576829642","long":"126.9683989142","imageIndex":17,"items":[{"name":"태성상사","tel":"031-202-3240","addr":"경기도 의왕시 오전동 217-2번지 신안아파트","indutype":"회원제형태 - 기타3","category":"other"},{"name":"하수구 변기막힘 뚫는곳","tel":"070-4642-5642","addr":"경기도 의왕시 오전동 217-2번지 신안아파트","indutype":"용역 서비스 - 기타용역서비스","category":"other"}]},{"lat":"37.3507836880","long":"126.9784469496","imageIndex":17,"items":[{"name":"평산크린세탁","tel":"","addr":"경기도 의왕시 오전동 산148-1번지 1층 제3동상가","indutype":"수리서비스 - 세탁소","category":"other"}]},{"lat":"37.3623322057","long":"126.9684193628","imageIndex":17,"items":[{"name":"포토-어필(photo_afeel)","tel":"","addr":"경기도 의왕시 오전동 100번지 모락산현대아파트","indutype":"광학제품 - 사진관","category":"other"}]},{"lat":"37.3584756913","long":"126.9678341748","imageIndex":17,"items":[{"name":"포토뱅크","tel":"031-429-3004","addr":"경기도 의왕시 오전동 839번지","indutype":"광학제품 - 사진관","category":"other"}]},{"lat":"37.3596380669","long":"126.9680593884","imageIndex":17,"items":[{"name":"폰나라이동통신","tel":"031-429-8011","addr":"경기도 의왕시 오전동 104,103","indutype":"사무통신 - 통신기기","category":"other"}]},{"lat":"37.3593674659","long":"126.9670661988","imageIndex":17,"items":[{"name":"플존PC방","tel":"031-000-0000","addr":"경기도 의왕시 오전동 108번지 현대프라자 B01호","indutype":"수리서비스 - 사무·통신기기수리","category":"other"}]},{"lat":"37.3600335586","long":"126.9649550701","imageIndex":17,"items":[{"name":"하영 종합공사","tel":"031-427-1844","addr":"경기도 의왕시 오전동 32-10번지 1층","indutype":"건축자재 - 인테리어전문","category":"other"},{"name":"호정시스템","tel":"","addr":"경기도 의왕시 오전동 32-10번지 1층","indutype":"전기제품 - 냉열기기","category":"other"}]},{"lat":"37.3616560323","long":"126.9670312470","imageIndex":17,"items":[{"name":"한남무역","tel":"02-3418-2587","addr":"경기도 의왕시 오전동 28","indutype":"회원제형태 - 기타4","category":"other"}]},{"lat":"37.3518909434","long":"126.9740335508","imageIndex":17,"items":[{"name":"한빛유리상사","tel":"031-388-3106","addr":"경기도 의왕시 오전동 349-1번지","indutype":"건축자재 - 유리","category":"other"}]},{"lat":"37.3529175233","long":"126.9717532445","imageIndex":17,"items":[{"name":"한성이엔지(ENG)","tel":"031-456-8723","addr":"경기도 의왕시 오전동 277-27번지 102호","indutype":"기타 - 기타 전문점","category":"other"}]},{"lat":"37.3640615361","long":"126.9663640887","imageIndex":17,"items":[{"name":"한진세탁","tel":"","addr":"경기도 의왕시 오전동 27-1번지 해모로 상가 105호","indutype":"수리서비스 - 세탁소","category":"other"}]},{"lat":"37.3573624142","long":"126.9859509149","imageIndex":17,"items":[{"name":"행복장작","tel":"070-4248-5429","addr":"경기도 의왕시 오전동 521-1번지","indutype":"건축자재 - 목재·석재·철물","category":"other"}]},{"lat":"37.3500620335","long":"126.9746662821","imageIndex":17,"items":[{"name":"현 SILVER","tel":"031-427-8366","addr":"경기도 의왕시 오전동 329-1번지 백운연립 A동 105호","indutype":"신변잡화 - 액세서리","category":"other"}]},{"lat":"37.3500080075","long":"126.9748130238","imageIndex":17,"items":[{"name":"홀인원골프존스크린","tel":"031-429-8866","addr":"경기도 의왕시 오전동 333-7번지 천용빌딩 4층","indutype":"회원제형태 - 레져업소","category":"other"}]},{"lat":"37.3593908697","long":"126.9997778547","imageIndex":17,"items":[{"name":"희상수농원","tel":"","addr":"경기도 의왕시 오전동 715번지","indutype":"문화.취미 - 화원","category":"other"}]}]