[{"lat":"37.652770355","long":"126.7761529","imageIndex":17,"items":[{"name":"도울속기사무소","tel":"031-903-0648","addr":"경기도 고양시 일산동구 장백로","indutype":"용역 서비스 - 사무서비스","category":"other"}]},{"lat":"37.65349034","long":"126.77574276","imageIndex":17,"items":[{"name":"법무법인 따뜻한 변호사들","tel":"031-904-7890","addr":"경기도 고양시 일산동구 장백로","indutype":"용역 서비스 - 법률회계서비스(법인)","category":"other"},{"name":"변호사 윤수연법률사무소","tel":"031-908-9700","addr":"경기도 고양시 일산동구 장백로","indutype":"용역 서비스 - 법률회계서비스(개인)","category":"other"}]},{"lat":"37.65313037","long":"126.77595917","imageIndex":17,"items":[{"name":"법무법인목성","tel":"031-904-3811","addr":"경기도 고양시 일산동구 장백로","indutype":"용역 서비스 - 법률회계서비스(법인)","category":"other"}]},{"lat":"37.652023513","long":"126.77665377","imageIndex":17,"items":[{"name":"변호사정찬삼법률사무소","tel":"031-813-7272","addr":"경기도 고양시 일산동구 장백로","indutype":"용역 서비스 - 법률회계서비스(개인)","category":"other"},{"name":"전진속기사무소","tel":"000-1661-0963","addr":"경기도 고양시 일산동구 장백로","indutype":"용역 서비스 - 사무서비스","category":"other"},{"name":"제이엔비(J&B)텔레콤2호점","tel":"031-903-7072","addr":"경기도 고양시 일산동구 장백로","indutype":"사무통신 - 통신기기","category":"other"}]},{"lat":"37.64021906","long":"126.79024025","imageIndex":17,"items":[{"name":"신우팜","tel":"031-907-6748","addr":"경기도 고양시 일산동구 장백로","indutype":"회원제형태 - 기타4","category":"other"}]},{"lat":"37.641163129","long":"126.7891612","imageIndex":17,"items":[{"name":"코시스OP","tel":"031-901-4006","addr":"경기도 고양시 일산동구 장백로","indutype":"가구 - 일반가구","category":"other"}]}]