[{"lat":"37.018298622","long":"127.28557137","imageIndex":4,"items":[{"name":"(주)썬푸드시스템","tel":"031-671-0063","addr":"경기도 안성시 가사동 15-65번지","indutype":"일반휴게음식 - 위탁급식업","category":"restaurant"},{"name":"(주)제이제이","tel":"031-676-5500","addr":"경기도 안성시 가사동 15-65번지","indutype":"일반휴게음식 - 서양음식","category":"restaurant"}]},{"lat":"37.009137118","long":"127.28459365","imageIndex":4,"items":[{"name":"JS그늘집","tel":"","addr":"경기도 안성시 가사동 79-2번지 1동 2층","indutype":"일반휴게음식 - 일반한식","category":"restaurant"}]},{"lat":"37.012413035","long":"127.28625745","imageIndex":4,"items":[{"name":"김가네칼국수","tel":"031-674-9799","addr":"경기도 안성시 가사동 75-31번지","indutype":"일반휴게음식 - 일반한식","category":"restaurant"}]},{"lat":"37.012079839","long":"127.29362707","imageIndex":4,"items":[{"name":"마음에그리다","tel":"031-111-1111","addr":"경기도 안성시 가사동 182번지 1층 101호.102호","indutype":"일반휴게음식 - 서양음식","category":"restaurant"},{"name":"안성사랑밥집","tel":"031-677-3237","addr":"경기도 안성시 가사동 182번지 108호","indutype":"일반휴게음식 - 일반한식","category":"restaurant"},{"name":"터미널식당","tel":"031-676-0043","addr":"경기도 안성시 가사동 182번지 1층 109호","indutype":"일반휴게음식 - 일반한식","category":"restaurant"}]},{"lat":"37.012547388","long":"127.28659503","imageIndex":4,"items":[{"name":"만년","tel":"031-676-7737","addr":"경기도 안성시 가사동 75-2","indutype":"일반휴게음식 - 일반한식","category":"restaurant"}]},{"lat":"37.018247331","long":"127.28817816","imageIndex":4,"items":[{"name":"먹보네식당","tel":"031-673-4820","addr":"경기도 안성시 가사동 14-6번지","indutype":"일반휴게음식 - 일반한식","category":"restaurant"}]},{"lat":"37.013466869","long":"127.2864299","imageIndex":4,"items":[{"name":"박기완의 함흥냉면과 갈비","tel":"031-677-6999","addr":"경기도 안성시 가사동 26-4번지","indutype":"일반휴게음식 - 일반한식","category":"restaurant"},{"name":"박기완의 함흥냉면과 갈비","tel":"031-677-6999","addr":"경기도 안성시 가사동 26-4번지","indutype":"일반휴게음식 - 일반한식","category":"restaurant"}]},{"lat":"37.013383838","long":"127.28723861","imageIndex":4,"items":[{"name":"보개수산","tel":"031-677-9252","addr":"경기도 안성시 가사동 74-3번지","indutype":"일반휴게음식 - 일반한식","category":"restaurant"}]},{"lat":"37.015356586","long":"127.28748192","imageIndex":4,"items":[{"name":"부잣집","tel":"031-673-8854","addr":"경기도 안성시 가사동 20-1번지","indutype":"일반휴게음식 - 일반한식","category":"restaurant"}]},{"lat":"37.013971863","long":"127.28626323","imageIndex":4,"items":[{"name":"비봉골","tel":"031-677-8041","addr":"경기도 안성시 가사동 27-1번지","indutype":"일반휴게음식 - 일반한식","category":"restaurant"}]},{"lat":"37.013799131","long":"127.28690306","imageIndex":4,"items":[{"name":"서울종로해장국분점","tel":"031-676-0688","addr":"경기도 안성시 가사동 24-28번지","indutype":"일반휴게음식 - 일반한식","category":"restaurant"}]},{"lat":"37.017247348","long":"127.28809576","imageIndex":4,"items":[{"name":"학성한우","tel":"","addr":"경기도 안성시 가사동 15-55번지 1층","indutype":"일반휴게음식 - 일반한식","category":"restaurant"}]},{"lat":"37.017741198","long":"127.28881677","imageIndex":4,"items":[{"name":"한식뷔페장금이","tel":"031-676-2488","addr":"경기도 안성시 가사동 11-3번지","indutype":"일반휴게음식 - 일반한식","category":"restaurant"}]}]