[{"lat":"37.279460264","long":"127.0188935","imageIndex":7,"items":[{"name":"경동약초","tel":"031-246-0009","addr":"경기도 수원시 팔달구 남수동 95-5번지","indutype":"회원제형태 - 건강식품","category":"food"}]},{"lat":"37.278847542","long":"127.01906251","imageIndex":7,"items":[{"name":"경북떡집","tel":"031-243-0424","addr":"경기도 수원시 팔달구 남수동 100-4번지","indutype":"음료식품 - 제과점","category":"food"},{"name":"남문건강원","tel":"031-253-5050","addr":"경기도 수원시 팔달구 남수동 100-4번지","indutype":"건강식품 - 기타건강식품","category":"food"}]},{"lat":"37.279928805","long":"127.01883722","imageIndex":7,"items":[{"name":"보리쌀아저씨","tel":"031-252-1853","addr":"경기도 수원시 팔달구 남수동 94번지","indutype":"음료식품 - 농·축·수산품","category":"food"}]},{"lat":"37.281181356","long":"127.0178903","imageIndex":7,"items":[{"name":"사계절건강원","tel":"031-255-4326","addr":"경기도 수원시 팔달구 남수동 130-5번지","indutype":"건강식품 - 기타건강식품","category":"food"}]},{"lat":"37.279099838","long":"127.01900618","imageIndex":7,"items":[{"name":"생선싸게파는곳","tel":"031-243-3427","addr":"경기도 수원시 팔달구 남수동 100-75번지","indutype":"음료식품 - 농·축·수산품","category":"food"}]},{"lat":"37.278712404","long":"127.01894972","imageIndex":7,"items":[{"name":"서문기름집","tel":"031-255-6047","addr":"경기도 수원시 팔달구 남수동 102-2번지","indutype":"음료식품 - 기타음료식품","category":"food"}]},{"lat":"37.279316058","long":"127.01919791","imageIndex":7,"items":[{"name":"소백산 농특산물 도소매","tel":"031-243-0185","addr":"경기도 수원시 팔달구 남수동 100-24번지","indutype":"음료식품 - 농·축·수산품","category":"food"}]},{"lat":"37.281622766","long":"127.01861206","imageIndex":7,"items":[{"name":"수원성화성빵","tel":"","addr":"경기도 수원시 팔달구 남수동 67-2번지 원제빌딩 1층","indutype":"음료식품 - 기타음료식품","category":"food"}]},{"lat":"37.27918095","long":"127.01885961","imageIndex":7,"items":[{"name":"수원약초","tel":"031-258-7809","addr":"경기도 수원시 팔달구 남수동 95-11번지","indutype":"건강식품 - 기타건강식품","category":"food"}]},{"lat":"37.279262038","long":"127.01889346","imageIndex":7,"items":[{"name":"안동청과","tel":"031-256-4317","addr":"경기도 수원시 팔달구 남수동 95-10번지","indutype":"음료식품 - 농·축·수산품","category":"food"},{"name":"인삼건강원","tel":"031-244-4753","addr":"경기도 수원시 팔달구 남수동 95-10번지 (남수동(1층상가5호))","indutype":"건강식품 - 기타건강식품","category":"food"},{"name":"인삼약초","tel":"031-244-4753","addr":"경기도 수원시 팔달구 남수동 95-10번지","indutype":"건강식품 - 기타건강식품","category":"food"}]},{"lat":"37.280676688","long":"127.01861186","imageIndex":7,"items":[{"name":"영선약초건강원","tel":"031-258-3111","addr":"경기도 수원시 팔달구 남수동 91-7번지","indutype":"건강식품 - 기타건강식품","category":"food"}]},{"lat":"37.28051459","long":"127.01794655","imageIndex":7,"items":[{"name":"영양건강원","tel":"031-256-6688","addr":"경기도 수원시 팔달구 남수동 131-5번지","indutype":"건강식품 - 기타건강식품","category":"food"}]},{"lat":"37.279514292","long":"127.01914158","imageIndex":7,"items":[{"name":"유명청과","tel":"031-246-2494","addr":"경기도 수원시 팔달구 남수동 100-82","indutype":"음료식품 - 농·축·수산품","category":"food"}]},{"lat":"37.278649321","long":"127.01902864","imageIndex":7,"items":[{"name":"잡곡","tel":"031-241-6166","addr":"경기도 수원시 팔달구 남수동 102-1번지","indutype":"음료식품 - 미곡상","category":"food"},{"name":"천수건강원","tel":"","addr":"경기도 수원시 팔달구 남수동 102-1번지 1층","indutype":"음료식품 - 기타음료식품","category":"food"}]},{"lat":"37.279955826","long":"127.01891616","imageIndex":7,"items":[{"name":"칠우청과","tel":"031-247-6764","addr":"경기도 수원시 팔달구 남수동 95-1번지","indutype":"음료식품 - 농·축·수산품","category":"food"}]},{"lat":"37.281595867","long":"127.01758593","imageIndex":7,"items":[{"name":"한중식품마트","tel":"031-258-6027","addr":"경기도 수원시 팔달구 남수동 130-14번지 1층","indutype":"음료식품 - 기타음료식품","category":"food"}]}]