[{"lat":"37.182309642","long":"127.30675563","imageIndex":7,"items":[{"name":"가람","tel":"031-332-2939","addr":"경기도 용인시 처인구 원삼면 사암리 163-3번지","indutype":"유통업 영리 - 슈퍼마켓","category":"mart"},{"name":"가람","tel":"031-322-2939","addr":"경기도 용인시 처인구 원삼면 사암리 163-3번지","indutype":"유통업 영리 - 슈퍼마켓","category":"mart"}]},{"lat":"37.155093417","long":"127.34175783","imageIndex":7,"items":[{"name":"두창슈퍼","tel":"031-334-2656","addr":"경기도 용인시 처인구 원삼면 두창리 1074-3번지","indutype":"유통업 영리 - 슈퍼마켓","category":"mart"}]},{"lat":"37.138119425","long":"127.32500271","imageIndex":7,"items":[{"name":"둥지매점","tel":"031-111-1111","addr":"경기도 용인시 처인구 원삼면 죽능리 19-13번지 1층","indutype":"유통업 영리 - 슈퍼마켓","category":"mart"}]},{"lat":"37.135929638","long":"127.32839224","imageIndex":7,"items":[{"name":"둥지무지개슈퍼","tel":"031-333-0374","addr":"경기도 용인시 처인구 원삼면 죽능리 26-2번지","indutype":"유통업 영리 - 슈퍼마켓","category":"mart"}]},{"lat":"37.159919518","long":"127.32023176","imageIndex":7,"items":[{"name":"미소편의점","tel":"070-4530-1347","addr":"경기도 용인시 처인구 원삼면 독성리 409-3번지 1층","indutype":"유통업 영리 - 슈퍼마켓","category":"mart"}]},{"lat":"37.151587717","long":"127.34511919","imageIndex":7,"items":[{"name":"밤디휴게소","tel":"031-321-1849","addr":"경기도 용인시 처인구 원삼면 두창리 2829번지 밤디휴게소","indutype":"유통업 영리 - 슈퍼마켓","category":"mart"}]},{"lat":"37.181526959","long":"127.30627953","imageIndex":7,"items":[{"name":"사암마트","tel":"031-332-8262","addr":"경기도 용인시 처인구 원삼면 사암리 164-2번지","indutype":"유통업 영리 - 슈퍼마켓","category":"mart"}]},{"lat":"37.166394297","long":"127.31139811","imageIndex":7,"items":[{"name":"샘물마트","tel":"031-334-9066","addr":"경기도 용인시 처인구 원삼면 고당리89-4","indutype":"유통업 영리 - 슈퍼마켓","category":"mart"}]},{"lat":"37.180086465","long":"127.29505792","imageIndex":7,"items":[{"name":"쌍방울","tel":"","addr":"경기도 용인시 처인구 원삼면 사암리 987-3번지","indutype":"유통업 영리 - 슈퍼마켓","category":"mart"}]},{"lat":"37.162532117","long":"127.32038904","imageIndex":7,"items":[{"name":"오돌마트","tel":"","addr":"경기도 용인시 처인구 원삼면 독성리 379번지 A동 101호","indutype":"유통업 영리 - 슈퍼마켓","category":"mart"}]},{"lat":"37.164448568","long":"127.31119881","imageIndex":7,"items":[{"name":"오돌슈퍼","tel":"031-332-8030","addr":"경기도 용인시 처인구 원삼면 고당리 66-8번지","indutype":"유통업 영리 - 슈퍼마켓","category":"mart"}]},{"lat":"37.203366039","long":"127.32080781","imageIndex":7,"items":[{"name":"우리마트","tel":"031-334-3583","addr":"경기도 용인시 처인구 원삼면 좌항리119-3","indutype":"유통업 영리 - 슈퍼마켓","category":"mart"}]},{"lat":"37.184361809","long":"127.33122388","imageIndex":7,"items":[{"name":"원삼휴게소","tel":"031-333-4450","addr":"경기도 용인시 처인구 원삼면 맹리 698-5번지 외2필지","indutype":"유통업 영리 - 슈퍼마켓","category":"mart"}]},{"lat":"37.152059465","long":"127.3440069","imageIndex":7,"items":[{"name":"장평집","tel":"","addr":"경기도 용인시 처인구 원삼면 두창리 2835번지","indutype":"유통업 영리 - 슈퍼마켓","category":"mart"}]},{"lat":"37.202976116","long":"127.32172985","imageIndex":7,"items":[{"name":"케이제이아시아마트","tel":"","addr":"경기도 용인시 처인구 원삼면 좌항리 106-44번지 1층","indutype":"유통업 영리 - 슈퍼마켓","category":"mart"}]},{"lat":"37.164197566","long":"127.31070241","imageIndex":7,"items":[{"name":"행복마트","tel":"031-332-8078","addr":"경기도 용인시 처인구 원삼면 고당리 34-1","indutype":"유통업 영리 - 슈퍼마켓","category":"mart"}]}]