[{"lat":"37.673078636","long":"127.32604273","imageIndex":4,"items":[{"name":"강원막국수","tel":"031-594-6753","addr":"경기도 남양주시 수동면 송천리 569-1번지","indutype":"일반휴게음식 - 일반한식","category":"restaurant"}]},{"lat":"37.688136247","long":"127.32179989","imageIndex":4,"items":[{"name":"글라스베이커리 (glass bakery)","tel":"031-511-0108","addr":"경기도 남양주시 수동면 송천리 464-9번지 주건축물제 1동 1층 일부","indutype":"일반휴게음식 - 서양음식","category":"restaurant"},{"name":"금붕어","tel":"031-593-1095","addr":"경기도 남양주시 수동면 송천리 464-9번지","indutype":"일반휴게음식 - 일반한식","category":"restaurant"}]},{"lat":"37.677082045","long":"127.32817984","imageIndex":4,"items":[{"name":"냉면공장","tel":"031-511-0379","addr":"경기도 남양주시 수동면 송천리 558-11번지 주 4동 1층","indutype":"일반휴게음식 - 일반한식","category":"restaurant"},{"name":"커피공방","tel":"031-595-0379","addr":"경기도 남양주시 수동면 송천리 558-11번지 4동 2층","indutype":"일반휴게음식 - 서양음식","category":"restaurant"}]},{"lat":"37.691084592","long":"127.37056463","imageIndex":4,"items":[{"name":"논두렁밭두렁","tel":"031-593-5048","addr":"경기도 남양주시 수동면 송천리 3-1번지","indutype":"일반휴게음식 - 일반한식","category":"restaurant"}]},{"lat":"37.693160385","long":"127.35762687","imageIndex":4,"items":[{"name":"단풍나무집","tel":"031-593-6372","addr":"경기도 남양주시 수동면 송천리 13-10번지","indutype":"일반휴게음식 - 일반한식","category":"restaurant"}]},{"lat":"37.667580866","long":"127.32343471","imageIndex":4,"items":[{"name":"민현골프연습장스넥","tel":"031-594-0701","addr":"경기도 남양주시 수동면 송천리 597-2번지 2동 스넥코너","indutype":"일반휴게음식 - 스넥","category":"restaurant"}]},{"lat":"37.686806859","long":"127.33662306","imageIndex":4,"items":[{"name":"보양맛집","tel":"031-511-4717","addr":"경기도 남양주시 수동면 송천리 133번지 1층","indutype":"일반휴게음식 - 일반한식","category":"restaurant"}]},{"lat":"37.691271703","long":"127.37123448","imageIndex":4,"items":[{"name":"블루스카이","tel":"031-592-3833","addr":"경기도 남양주시 수동면 송천리 2-23","indutype":"일반휴게음식 - 일반한식","category":"restaurant"}]},{"lat":"37.683577892","long":"127.3314618","imageIndex":4,"items":[{"name":"솔래식당","tel":"031-559-6413","addr":"경기도 남양주시 수동면 송천리 231-2번지 나동","indutype":"일반휴게음식 - 일반한식","category":"restaurant"}]},{"lat":"37.688439037","long":"127.32310498","imageIndex":4,"items":[{"name":"송천리가마솥해장국","tel":"031-591-1808","addr":"경기도 남양주시 수동면 송천리 397-41번지","indutype":"일반휴게음식 - 일반한식","category":"restaurant"}]},{"lat":"37.691606957","long":"127.32437709","imageIndex":4,"items":[{"name":"열매식당","tel":"031-594-6698","addr":"경기도 남양주시 수동면 송천리 403-3번지","indutype":"일반휴게음식 - 일반한식","category":"restaurant"}]},{"lat":"37.682356758","long":"127.32996001","imageIndex":4,"items":[{"name":"우리집","tel":"031-593-0993","addr":"경기도 남양주시 수동면 송천리 208번지","indutype":"일반휴게음식 - 일반한식","category":"restaurant"}]},{"lat":"37.686133561","long":"127.32931905","imageIndex":4,"items":[{"name":"자연샘가든","tel":"031-595-1622","addr":"경기도 남양주시 수동면 송천리 262-1번지 자연샘가든","indutype":"일반휴게음식 - 일반한식","category":"restaurant"}]},{"lat":"37.690609421","long":"127.369814","imageIndex":4,"items":[{"name":"초원의집","tel":"031-593-5557","addr":"경기도 남양주시 수동면 송천리 3-4번지","indutype":"일반휴게음식 - 일반한식","category":"restaurant"}]},{"lat":"37.693632608","long":"127.32493006","imageIndex":4,"items":[{"name":"캘리포니아(전주맛집)","tel":"031-595-2271","addr":"경기도 남양주시 수동면 송천리 376-2번지","indutype":"일반휴게음식 - 일반한식","category":"restaurant"}]},{"lat":"37.694028197","long":"127.32851463","imageIndex":4,"items":[{"name":"평창송어회","tel":"031-591-8858","addr":"경기도 남양주시 수동면 송천리 364-6번지","indutype":"일반휴게음식 - 일반한식","category":"restaurant"}]},{"lat":"37.692113647","long":"127.36993479","imageIndex":4,"items":[{"name":"하나로캠프가든","tel":"031-593-7705","addr":"경기도 남양주시 수동면 송천리 5-4번지","indutype":"일반휴게음식 - 일반한식","category":"restaurant"}]},{"lat":"37.688218023","long":"127.34096022","imageIndex":4,"items":[{"name":"해뜰날","tel":"","addr":"경기도 남양주시 수동면 송천리 46-5번지 1층 일부","indutype":"일반휴게음식 - 일반한식","category":"restaurant"}]},{"lat":"37.692721436","long":"127.36859991","imageIndex":4,"items":[{"name":"힐링캠프펜션","tel":"031-559-8908","addr":"경기도 남양주시 수동면 송천리 5-24번지","indutype":"일반휴게음식 - 일반한식","category":"restaurant"}]}]