[{"lat":"37.277737414","long":"126.97637335","imageIndex":8,"items":[{"name":"(주)에니멀클리닉컨설팅","tel":"031-292-2836","addr":"경기도 수원시 권선구 구운동 503-11번지","indutype":"기타의료기관 - 동물병원","category":"medical"}]},{"lat":"37.282620698","long":"126.97514253","imageIndex":8,"items":[{"name":"광혜원한약국","tel":"031-295-7535","addr":"경기도 수원시 권선구 구운동 912-4번지","indutype":"약국 - 한약방","category":"medical"}]},{"lat":"37.284675014","long":"126.97504029","imageIndex":8,"items":[{"name":"굿라이프연세의원","tel":"031-294-2100","addr":"경기도 수원시 권선구 구운동 890번지 엘비코오롱 상가 104호","indutype":"의원 - 의원","category":"medical"},{"name":"일월약국","tel":"031-227-9966","addr":"경기도 수원시 권선구 구운동 890번지 LD코오롱 상가 106호","indutype":"약국 - 약국","category":"medical"}]},{"lat":"37.280764283","long":"126.97389159","imageIndex":8,"items":[{"name":"다나한의원","tel":"031-294-0706","addr":"경기도 수원시 권선구 구운동 476-5번지 대승빌딩 2층","indutype":"의원 - 한의원","category":"medical"}]},{"lat":"37.275628728","long":"126.9751451","imageIndex":8,"items":[{"name":"라파이비인후과의원","tel":"031-296-4433","addr":"경기도 수원시 권선구 구운동 139-77번지 해주빌딩 3층 301호","indutype":"의원 - 의원","category":"medical"},{"name":"상록수약국","tel":"031-296-8246","addr":"경기도 수원시 권선구 구운동 139-77번지 해주빌딩 2층","indutype":"약국 - 약국","category":"medical"}]},{"lat":"37.275267881","long":"126.97334122","imageIndex":8,"items":[{"name":"링컨약국","tel":"031-291-1501","addr":"경기도 수원시 권선구 구운동 530-4번지","indutype":"약국 - 약국","category":"medical"}]},{"lat":"37.279925697","long":"126.97142251","imageIndex":8,"items":[{"name":"명인한약국","tel":"031-226-0040","addr":"경기도 수원시 권선구 구운동 944-2번지 101호","indutype":"약국 - 약국","category":"medical"}]},{"lat":"37.277124357","long":"126.97481756","imageIndex":8,"items":[{"name":"세란의원","tel":"031-294-7557","addr":"경기도 수원시 권선구 구운동 496-2번지","indutype":"의원 - 의원","category":"medical"}]},{"lat":"37.282845157","long":"126.97192873","imageIndex":8,"items":[{"name":"신풍제약(주)경기","tel":"031-252-7064","addr":"경기도 수원시 권선구 구운동 904-9번지 2층","indutype":"약국 - 제약회사","category":"medical"}]},{"lat":"37.27612504","long":"126.97853876","imageIndex":8,"items":[{"name":"이지훈동물병원","tel":"031-295-5975","addr":"경기도 수원시 권선구 구운동 507-5번지","indutype":"기타의료기관 - 동물병원","category":"medical"}]},{"lat":"37.282097816","long":"126.97394746","imageIndex":8,"items":[{"name":"일월한의원","tel":"031-291-1075","addr":"경기도 수원시 권선구 구운동 918-1번지 3층","indutype":"의원 - 한의원","category":"medical"}]},{"lat":"37.284045048","long":"126.978446","imageIndex":8,"items":[{"name":"조치과의원","tel":"031-293-7500","addr":"경기도 수원시 권선구 구운동 462번지 삼환 상가 3층","indutype":"의원 - 치과의원","category":"medical"}]},{"lat":"37.276953875","long":"126.97800855","imageIndex":8,"items":[{"name":"중경한의원","tel":"031-295-1075","addr":"경기도 수원시 권선구 구운동 507-14번지","indutype":"의원 - 한의원","category":"medical"}]},{"lat":"37.282349119","long":"126.97016985","imageIndex":8,"items":[{"name":"쿨펫동물병원서수원","tel":"031-292-1275","addr":"경기도 수원시 권선구 구운동 925번지 3층","indutype":"기타의료기관 - 동물병원","category":"medical"}]}]