[{"lat":"37.705345572","long":"126.90238752","imageIndex":8,"items":[{"name":"고양 우리아이 동물병원","tel":"0507-1440-0173","addr":"경기도 고양시 덕양구 고양동 163번지","indutype":"기타의료기관 - 동물병원","category":"medical"}]},{"lat":"37.701020418","long":"126.90175836","imageIndex":8,"items":[{"name":"고양동물병원","tel":"031-964-7599","addr":"경기도 고양시 덕양구 고양동 243번지","indutype":"기타의료기관 - 동물병원","category":"medical"}]},{"lat":"37.700380248","long":"126.90119227","imageIndex":8,"items":[{"name":"고양한의원","tel":"031-963-6611","addr":"경기도 고양시 덕양구 고양동 248-74번지","indutype":"의원 - 한의원","category":"medical"}]},{"lat":"37.71710206","long":"126.90116942","imageIndex":8,"items":[{"name":"고양힐약국","tel":"031-967-7744","addr":"경기도 고양시 덕양구 고양동 953번지","indutype":"약국 - 약국","category":"medical"},{"name":"서울연합내과의원","tel":"031-962-7754","addr":"경기도 고양시 덕양구 고양동","indutype":"의원 - 의원","category":"medical"},{"name":"임약국","tel":"031-962-3337","addr":"경기도 고양시 덕양구 고양동 953번지","indutype":"약국 - 약국","category":"medical"}]},{"lat":"37.703128637","long":"126.90172148","imageIndex":8,"items":[{"name":"곽성연치과의원","tel":"031-964-2875","addr":"경기도 고양시 덕양구 고양동 225-1번지","indutype":"의원 - 치과의원","category":"medical"},{"name":"은혜약국","tel":"031-962-6459","addr":"경기도 고양시 덕양구 고양동 225-1번지","indutype":"약국 - 약국","category":"medical"}]},{"lat":"37.70331779","long":"126.90166452","imageIndex":8,"items":[{"name":"늘푸른한의원","tel":"031-969-1075","addr":"경기도 고양시 덕양구 고양동 221번지","indutype":"의원 - 한의원","category":"medical"}]},{"lat":"37.7045973","long":"126.90183288","imageIndex":8,"items":[{"name":"맑은눈의원","tel":"031-962-2451","addr":"경기도 고양시 덕양구 고양동 46-1번지","indutype":"의원 - 의원","category":"medical"},{"name":"비타민치과의원","tel":"031-964-7579","addr":"경기도 고양시 덕양구 고양동 46-1번지","indutype":"의원 - 의원","category":"medical"},{"name":"해뜨는약국","tel":"031-964-8008","addr":"경기도 고양시 덕양구 고양동 46-1번지","indutype":"약국 - 약국","category":"medical"},{"name":"현대아산내과의원","tel":"031-969-1142","addr":"경기도 고양시 덕양구 고양동 46-1번지","indutype":"의원 - 의원","category":"medical"}]},{"lat":"37.700876904","long":"126.90250695","imageIndex":8,"items":[{"name":"밝은양지온누리약국","tel":"031-964-0396","addr":"경기도 고양시 덕양구 고양동 204-4번지","indutype":"약국 - 약국","category":"medical"}]},{"lat":"37.70065116","long":"126.90191761","imageIndex":8,"items":[{"name":"보명약국","tel":"031-962-9625","addr":"경기도 고양시 덕양구 고양동 244번지","indutype":"약국 - 약국","category":"medical"}]},{"lat":"37.702569905","long":"126.90156348","imageIndex":8,"items":[{"name":"사랑의치과","tel":"031-994-2842","addr":"경기도 고양시 덕양구 고양동 230-1번지","indutype":"의원 - 치과의원","category":"medical"}]},{"lat":"37.703435371","long":"126.90219733","imageIndex":8,"items":[{"name":"서울의원","tel":"031-823-1145","addr":"경기도 고양시 덕양구 고양동 218-2번지","indutype":"의원 - 의원","category":"medical"}]},{"lat":"37.70246179","long":"126.90156363","imageIndex":8,"items":[{"name":"연세참마취통증의학과의원","tel":"031-963-7581","addr":"경기도 고양시 덕양구 고양동 231-1번지","indutype":"의원 - 의원","category":"medical"}]},{"lat":"37.702957435","long":"126.90169903","imageIndex":8,"items":[{"name":"일등한의원","tel":"031-964-8575","addr":"경기도 고양시 덕양구 고양동 226번지","indutype":"의원 - 한의원","category":"medical"}]},{"lat":"37.701461675","long":"126.9015083","imageIndex":8,"items":[{"name":"큰곰약국","tel":"031-962-5685","addr":"경기도 고양시 덕양구 고양동 240-8번지","indutype":"약국 - 약국","category":"medical"}]},{"lat":"37.703543467","long":"126.9021745","imageIndex":8,"items":[{"name":"편안한내과의원","tel":"031-966-0333","addr":"경기도 고양시 덕양구 고양동 131번지","indutype":"의원 - 의원","category":"medical"},{"name":"평화한의원","tel":"031-963-7006","addr":"경기도 고양시 덕양구 고양동 131번지","indutype":"의원 - 한의원","category":"medical"},{"name":"한마음한종학내과","tel":"031-963-7919","addr":"경기도 고양시 덕양구 고양동 131번지","indutype":"의원 - 의원","category":"medical"}]},{"lat":"37.704291497","long":"126.90244564","imageIndex":8,"items":[{"name":"한솔치과의원","tel":"031-962-2891","addr":"경기도 고양시 덕양구 고양동 144번지","indutype":"의원 - 치과의원","category":"medical"}]}]