[{"lat":"37.490133124","long":"127.23491915","imageIndex":4,"items":[{"name":"강가","tel":"031-793-5905","addr":"경기도 하남시 상산곡동 279-11번지","indutype":"일반휴게음식 - 일반한식","category":"restaurant"}]},{"lat":"37.492604177","long":"127.23372818","imageIndex":4,"items":[{"name":"강계봉진막국수","tel":"031-793-8326","addr":"경기도 하남시 상산곡동 164-24번지","indutype":"일반휴게음식 - 일반한식","category":"restaurant"}]},{"lat":"37.496022504","long":"127.23189547","imageIndex":4,"items":[{"name":"강원가든","tel":"031-792-1580","addr":"경기도 하남시 상산곡동 135-7번지","indutype":"일반휴게음식 - 일반한식","category":"restaurant"}]},{"lat":"37.496074784","long":"127.23281159","imageIndex":4,"items":[{"name":"경순국수마을","tel":"031-791-9199","addr":"경기도 하남시 상산곡동 141-6번지 1층","indutype":"일반휴게음식 - 일반한식","category":"restaurant"}]},{"lat":"37.491719039","long":"127.2348336","imageIndex":4,"items":[{"name":"마포갈비","tel":"031-795-1202","addr":"경기도 하남시 상산곡동 262-1번지","indutype":"일반휴게음식 - 일반한식","category":"restaurant"}]},{"lat":"37.492352121","long":"127.23361433","imageIndex":4,"items":[{"name":"만경두부마을","tel":"02-1111-1111","addr":"경기도 하남시 상산곡동 164-27번지","indutype":"일반휴게음식 - 일반한식","category":"restaurant"}]},{"lat":"37.477050163","long":"127.23972868","imageIndex":4,"items":[{"name":"만두집","tel":"031-794-3122","addr":"경기도 하남시 상산곡동 391-2번지","indutype":"일반휴게음식 - 일반한식","category":"restaurant"}]},{"lat":"37.491935764","long":"127.2345855","imageIndex":4,"items":[{"name":"메밀생각봉평막국수","tel":"031-792-4196","addr":"경기도 하남시 상산곡동 262번지 1층","indutype":"일반휴게음식 - 일반한식","category":"restaurant"}]},{"lat":"37.490746395","long":"127.23461575","imageIndex":4,"items":[{"name":"벌봉돈까스","tel":"031-795-3863","addr":"경기도 하남시 상산곡동 273-1번지 1층","indutype":"일반휴게음식 - 일반한식","category":"restaurant"},{"name":"이팝커피","tel":"031-793-9667","addr":"경기도 하남시 상산곡동 273-1번지 청담빌딩 101호","indutype":"일반휴게음식 - 서양음식","category":"restaurant"}]},{"lat":"37.49188279","long":"127.23403127","imageIndex":4,"items":[{"name":"산곡민물매운탕어탕칼국수","tel":"031-793-9292","addr":"경기도 하남시 상산곡동 265-1번지 1층","indutype":"일반휴게음식 - 일반한식","category":"restaurant"}]},{"lat":"37.502848567","long":"127.23366924","imageIndex":4,"items":[{"name":"산골뜰안집","tel":"031-792-1507","addr":"경기도 하남시 상산곡동 13-20번지 1층","indutype":"일반휴게음식 - 일반한식","category":"restaurant"}]},{"lat":"37.496769533","long":"127.23230485","imageIndex":4,"items":[{"name":"삼시세끼밥상","tel":"031-793-4405","addr":"경기도 하남시 상산곡동 121-1번지 1층","indutype":"일반휴게음식 - 일반한식","category":"restaurant"}]},{"lat":"37.503659359","long":"127.23828594","imageIndex":4,"items":[{"name":"숲길FORESTWAY","tel":"070-4649-1101","addr":"경기도 하남시 상산곡동 2-5번지 1층","indutype":"일반휴게음식 - 일반한식","category":"restaurant"}]},{"lat":"37.485991962","long":"127.23775562","imageIndex":4,"items":[{"name":"오병이어","tel":"031-796-7009","addr":"경기도 하남시 상산곡동 319-2번지 1층","indutype":"일반휴게음식 - 일반한식","category":"restaurant"}]},{"lat":"37.493656427","long":"127.23470389","imageIndex":4,"items":[{"name":"주식회사송림","tel":"031-793-1815","addr":"경기도 하남시 상산곡동 175-4번지","indutype":"일반휴게음식 - 일반한식","category":"restaurant"}]},{"lat":"37.48043779","long":"127.23978459","imageIndex":4,"items":[{"name":"청솔","tel":"031-793-3326","addr":"경기도 하남시 상산곡동 409-1번지","indutype":"일반휴게음식 - 일반한식","category":"restaurant"}]},{"lat":"37.493161705","long":"127.23428398","imageIndex":4,"items":[{"name":"카페오마르","tel":"031-793-1755","addr":"경기도 하남시 상산곡동 172-1번지","indutype":"일반휴게음식 - 서양음식","category":"restaurant"}]}]