[{"lat":"37.263044608","long":"127.00344564","imageIndex":9,"items":[{"name":"SK글로벌상사","tel":"031-232-2811","addr":"경기도 수원시 권선구 세류동 184-9번지","indutype":"연료판매점 - 유류판매","category":"oil"}]},{"lat":"37.247681167","long":"127.01722994","imageIndex":9,"items":[{"name":"SK에너지 (주) 아이파크주유소","tel":"031-232-0202","addr":"경기도 수원시 권선구 세류동 1150-22번지","indutype":"연료판매점 - SK주유소","category":"oil"}]},{"lat":"37.256069898","long":"127.01611558","imageIndex":9,"items":[{"name":"삼미석유","tel":"031-221-7511","addr":"경기도 수원시 권선구 세류동 876-11번지","indutype":"연료판매점 - 유류판매","category":"oil"}]},{"lat":"37.259548594","long":"127.00505762","imageIndex":9,"items":[{"name":"수원역주유소","tel":"031-237-2010","addr":"경기도 수원시 권선구 세류동 213번지","indutype":"연료판매점 - 주유소","category":"oil"},{"name":"지에스칼텍스(주)수원역주유소","tel":"031-237-2010","addr":"경기도 수원시 권선구 세류동 213번지","indutype":"연료판매점 - GS주유소","category":"oil"}]},{"lat":"37.258764104","long":"127.0149437","imageIndex":9,"items":[{"name":"팔도에너지","tel":"031-413-5000","addr":"경기도 수원시 권선구 세류동 501-44번지","indutype":"연료판매점 - 유류판매","category":"oil"}]},{"lat":"37.262296254","long":"127.01378312","imageIndex":9,"items":[{"name":"하나주유소","tel":"031-225-1051","addr":"경기도 수원시 권선구 세류동 147-3번지","indutype":"연료판매점 - 주유소","category":"oil"}]},{"lat":"37.262322701","long":"127.01892369","imageIndex":9,"items":[{"name":"한국석유","tel":"031-248-0637","addr":"경기도 수원시 권선구 세류동 817-72번지","indutype":"연료판매점 - 유류판매","category":"oil"}]},{"lat":"37.253736289","long":"127.01556285","imageIndex":9,"items":[{"name":"한국석유","tel":"031-246-0637","addr":"경기도 수원시 권선구 세류동 1111-15번지","indutype":"연료판매점 - 유류판매","category":"oil"},{"name":"한국석유","tel":"031-248-0637","addr":"경기도 수원시 권선구 세류동 1111-15번지","indutype":"연료판매점 - 유류판매","category":"oil"}]},{"lat":"37.252799169","long":"127.01600229","imageIndex":9,"items":[{"name":"현대정유상사","tel":"031-236-4553","addr":"경기도 수원시 권선구 세류동 1114-15번지","indutype":"연료판매점 - 유류판매","category":"oil"}]}]