[{"lat":"37.114868381","long":"126.91037404","imageIndex":8,"items":[{"name":"365드림소아청소년과의원","tel":"031-353-7496","addr":"경기도 화성시 향남읍 하길리 1472번지 305호","indutype":"의원 - 의원","category":"medical"},{"name":"이우진내과의원","tel":"031-8047-0022","addr":"경기도 화성시 향남읍 하길리 1472번지 제5층 505,506,507호","indutype":"의원 - 의원","category":"medical"},{"name":"조은맘약국","tel":"031-354-3248","addr":"경기도 화성시 향남읍 하길리 1472번지 303호","indutype":"약국 - 약국","category":"medical"},{"name":"향남정형외과","tel":"031-353-3177","addr":"경기도 화성시 향남읍 하길리 1472번지 센타프라자 705호~707호","indutype":"의원 - 의원","category":"medical"},{"name":"향남프라자약국","tel":"031-8059-3873","addr":"경기도 화성시 향남읍 하길리 1472번지 센터프라자 104호","indutype":"약국 - 약국","category":"medical"}]},{"lat":"37.114311317","long":"126.91243368","imageIndex":8,"items":[{"name":"닥터홍치과의원","tel":"031-8055-0792","addr":"경기도 화성시 향남읍 하길리 1470-6번지 305호","indutype":"의원 - 치과의원","category":"medical"},{"name":"사계절한의원","tel":"031-353-5117","addr":"경기도 화성시 향남읍 하길리 1470-6번지 대성프라자 3층 302호","indutype":"의원 - 한의원","category":"medical"}]},{"lat":"37.116393632","long":"126.91360136","imageIndex":8,"items":[{"name":"더휴치과의원","tel":"031-366-2854","addr":"경기도 화성시 향남읍 하길리 1467번지 키움프라자 404호","indutype":"의원 - 치과의원","category":"medical"},{"name":"바른몸한의원","tel":"031-366-0140","addr":"경기도 화성시 향남읍 하길리 1467번지 402호","indutype":"의원 - 한의원","category":"medical"},{"name":"스마일온누리약국","tel":"031-353-2284","addr":"경기도 화성시 향남읍 하길리 1467번지 키움프라자 108-1호","indutype":"약국 - 약국","category":"medical"},{"name":"연세안과의원","tel":"031-9047-0008","addr":"경기도 화성시 향남읍 하길리 1467번지 키움프라자 5층 503호 504호","indutype":"의원 - 의원","category":"medical"}]},{"lat":"37.115032012","long":"126.91224155","imageIndex":8,"items":[{"name":"리앤김 소아청소년과 의원","tel":"031-366-1003","addr":"경기도 화성시 향남읍 하길리 1470-2번지 1동 5층 511,512호","indutype":"의원 - 의원","category":"medical"},{"name":"서울명진내과의원","tel":"031-8043-5688","addr":"경기도 화성시 향남읍 하길리 1470-2번지 407동 410호","indutype":"의원 - 의원","category":"medical"},{"name":"위더스의원","tel":"031-366-6799","addr":"경기도 화성시 향남읍 하길리 1470-2번지 411호, 412호","indutype":"의원 - 의원","category":"medical"},{"name":"향남드림치과","tel":"031-366-2526","addr":"경기도 화성시 향남읍 하길리 1470-2번지 507~510호","indutype":"의원 - 치과의원","category":"medical"}]},{"lat":"37.11456368","long":"126.91252339","imageIndex":8,"items":[{"name":"시티약국","tel":"031-354-7637","addr":"경기도 화성시 향남읍 하길리 1470-5번지 씨티프라자 1층 104호","indutype":"약국 - 약국","category":"medical"}]},{"lat":"37.114697662","long":"126.91099307","imageIndex":8,"items":[{"name":"알파약국","tel":"031-353-9650","addr":"경기도 화성시 향남읍 하길리 1471-4번지 GBnt타워 1층 105호","indutype":"약국 - 약국","category":"medical"},{"name":"튼튼어린이치과","tel":"031-366-2923","addr":"경기도 화성시 향남읍 하길리 1471-4번지 1동 606호 605, 606호","indutype":"의원 - 치과의원","category":"medical"}]},{"lat":"37.116618393","long":"126.91293726","imageIndex":8,"items":[{"name":"향남두리이비인후과","tel":"031-353-2253","addr":"경기도 화성시 향남읍 하길리 1466-3번지 302,303호","indutype":"의원 - 의원","category":"medical"},{"name":"향남열린약국","tel":"031-354-7485","addr":"경기도 화성시 향남읍 하길리 1466-3번지 1층 104호, 105호","indutype":"약국 - 약국","category":"medical"}]},{"lat":"37.115528181","long":"126.91301731","imageIndex":8,"items":[{"name":"향남힘찬한의원","tel":"031-8059-3323","addr":"경기도 화성시 향남읍 하길리 1467-2번지 4층 403호","indutype":"의원 - 한의원","category":"medical"}]}]