[{"lat":"37.378970856","long":"126.78685898","imageIndex":16,"items":[{"name":"IGSE아카데미장곡학원","tel":"031-318-0220","addr":"경기도 시흥시 장곡동 823-7번지 501,503호","indutype":"교육서비스업 - 어학원, 화상영어","category":"study"},{"name":"뉴스터디수학학원 ","tel":"031-404-7555","addr":"경기도 시흥시 장곡동 823-7번지 3층 303호 (에이스프라자제)","indutype":"교육서비스업 - 보습학원","category":"study"},{"name":"비상잉글리시아이장곡학원","tel":"031-317-9619","addr":"경기도 시흥시 장곡동 823-7번지 에이스프라자 201호","indutype":"교육서비스업 - 어학학원","category":"study"}]},{"lat":"37.377967468","long":"126.78507797","imageIndex":16,"items":[{"name":"공터우리학원","tel":"031-365-5509","addr":"경기도 시흥시 장곡동 819-2번지 중앙프라자 203~4호, 208호","indutype":"교육서비스업 - 보습학원","category":"study"},{"name":"놀작마이아트미술학원","tel":"031-509-5259","addr":"경기도 시흥시 장곡동 819-2번지 401,402호","indutype":"교육서비스업 - 예술학원","category":"study"},{"name":"예지원음악학원","tel":"031-318-0209","addr":"경기도 시흥시 장곡동 819-2번지 중앙프라자 2층","indutype":"교육서비스업 - 음악학원","category":"study"},{"name":"장곡스터디학원","tel":"031-404-8910","addr":"경기도 시흥시 장곡동 819-2번지 한샘학원 207호","indutype":"교육서비스업 - 보습학원","category":"study"}]},{"lat":"37.37968908","long":"126.78060188","imageIndex":16,"items":[{"name":"굿샘학원","tel":"031-404-3579","addr":"경기도 시흥시 장곡동 802-2번지 금강프라자 307호","indutype":"교육서비스업 - 보습학원","category":"study"},{"name":"비상잉글리시아이최강학원","tel":"","addr":"경기도 시흥시 장곡동 802-2번지 금강프라자 3층 304호","indutype":"교육서비스업 - 보습학원","category":"study"},{"name":"유타스학원","tel":"031-317-3405","addr":"경기도 시흥시 장곡동 802-2번지 금강프라자 202호","indutype":"교육서비스업 - 학원","category":"study"},{"name":"쥴리어드음악학원","tel":"031-317-0937","addr":"경기도 시흥시 장곡동 802-2번지 금강프라자 302호","indutype":"교육서비스업 - 음악학원","category":"study"},{"name":"해법명품엠수학전문학원","tel":"031-317-9997","addr":"경기도 시흥시 장곡동 802-2번지 금강프라자 407호","indutype":"교육서비스업 - 보습학원","category":"study"}]},{"lat":"37.378467977","long":"126.78288616","imageIndex":16,"items":[{"name":"모짜르트 음악교습소","tel":"031-318-5374","addr":"경기도 시흥시 장곡동 809-11번지 1층","indutype":"교육서비스업 - 음악학원","category":"study"},{"name":"예일영수학원","tel":"031-318-3002","addr":"경기도 시흥시 장곡동 809-11번지 2층","indutype":"교육서비스업 - 영수학원","category":"study"}]},{"lat":"37.379914819","long":"126.7808609","imageIndex":16,"items":[{"name":"삼성영어장곡학원","tel":"","addr":"경기도 시흥시 장곡동 801-5번지 1층","indutype":"교육서비스업 - 영어학원","category":"study"}]},{"lat":"37.378970134","long":"126.78646381","imageIndex":16,"items":[{"name":"수발레무용학원","tel":"","addr":"경기도 시흥시 장곡동 823-5번지 동서빌딩 4층","indutype":"교육서비스업 - 무용학원","category":"study"},{"name":"이루다영어수학학원","tel":"031-318-8117","addr":"경기도 시흥시 장곡동 823-5번지","indutype":"교육서비스업 - 영어,수학학원","category":"study"},{"name":"지앤비이루다학원","tel":"031-315-8117","addr":"경기도 시흥시 장곡동 823-5번지 2층","indutype":"교육서비스업 - 보습학원","category":"study"}]},{"lat":"37.377802575","long":"126.78361069","imageIndex":16,"items":[{"name":"시스템학원","tel":"031-404-0910","addr":"경기도 시흥시 장곡동 812-2번지 한림빌딩 501호","indutype":"교육서비스업 - 입시학원","category":"study"}]},{"lat":"37.379136774","long":"126.78399069","imageIndex":16,"items":[{"name":"시흥장곡 크리아트 미술학원","tel":"031-318-8253","addr":"경기도 시흥시 장곡동 814-5번지 2층","indutype":"교육서비스업 - 미술학원","category":"study"}]},{"lat":"37.380138711","long":"126.78013763","imageIndex":16,"items":[{"name":"엘 피아노 음악학원","tel":"031-318-0248","addr":"경기도 시흥시 장곡동 803-3번지 노마진프라자 201호","indutype":"교육서비스업 - 음악학원","category":"study"}]},{"lat":"37.378971248","long":"126.7870735","imageIndex":16,"items":[{"name":"예당음악학원","tel":"031-317-3938","addr":"경기도 시흥시 장곡동 823-8번지 아카데미빌딩 3층 303호","indutype":"교육서비스업 - 음악학원","category":"study"},{"name":"절대강자학원","tel":"031-318-1242","addr":"경기도 시흥시 장곡동 823-8번지 아카데미빌딩 201~203호","indutype":"교육서비스업 - 보습학원","category":"study"},{"name":"초등영어전문YBM잉글루학원","tel":"031-317-8296","addr":"경기도 시흥시 장곡동 823-8번지 401~402호","indutype":"교육서비스업 - 일반교과학원","category":"study"}]},{"lat":"37.379941573","long":"126.78071404","imageIndex":16,"items":[{"name":"이레음악학원","tel":"","addr":"경기도 시흥시 장곡동 801-6번지 1층","indutype":"교육서비스업 - 음악학원","category":"study"}]},{"lat":"37.378996502","long":"126.78610244","imageIndex":16,"items":[{"name":"중앙바둑보습학원","tel":"031-317-3147","addr":"경기도 시흥시 장곡동 823-3번지 티마나프라자 307호","indutype":"교육서비스업 - 바둑학원","category":"study"}]},{"lat":"37.378499165","long":"126.78513288","imageIndex":16,"items":[{"name":"해법장곡이지학원","tel":"070-8747-8797","addr":"경기도 시흥시 장곡동 820-3번지 부석프라자 406호","indutype":"교육서비스업 - 영어학원","category":"study"}]},{"lat":"37.379688145","long":"126.78010509","imageIndex":16,"items":[{"name":"황은주 수학학원","tel":"","addr":"경기도 시흥시 장곡동 803-6번지 연성프라자 305호","indutype":"교육서비스업 - 수학학원","category":"study"}]}]