[{"lat":"37.013855105","long":"127.24978967","imageIndex":4,"items":[{"name":"&BEIGE(앤베이지)","tel":"031-677-1118","addr":"경기도 안성시 신건지동 16-11번지 가동 1층","indutype":"일반휴게음식 - 일반한식","category":"restaurant"}]},{"lat":"37.013657304","long":"127.25387904","imageIndex":4,"items":[{"name":"감골가든","tel":"031-675-6750","addr":"경기도 안성시 신건지동 3-15번지","indutype":"일반휴게음식 - 일반한식","category":"restaurant"},{"name":"장군실내포장마차","tel":"031-671-9641","addr":"경기도 안성시 신건지동 3-15번지","indutype":"일반휴게음식 - 칵테일바","category":"restaurant"}]},{"lat":"37.013910147","long":"127.25362144","imageIndex":4,"items":[{"name":"거기가조아","tel":"031-673-2632","addr":"경기도 안성시 신건지동 3-9번지","indutype":"일반휴게음식 - 일반한식","category":"restaurant"}]},{"lat":"37.013409692","long":"127.25165345","imageIndex":4,"items":[{"name":"고향집칼국수","tel":"031-676-3274","addr":"경기도 안성시 신건지동 146-6번지","indutype":"일반휴게음식 - 일반한식","category":"restaurant"}]},{"lat":"37.013997378","long":"127.25070027","imageIndex":4,"items":[{"name":"구갑산식당","tel":"031-677-2219","addr":"경기도 안성시 신건지동 15-1번지 창명연립 상가 나동 101호","indutype":"일반휴게음식 - 일반한식","category":"restaurant"},{"name":"옹기촌뼈해장국","tel":"031-671-8800","addr":"경기도 안성시 신건지동 15-1번지 창명연립 나동 102호","indutype":"일반휴게음식 - 일반한식","category":"restaurant"}]},{"lat":"37.013777144","long":"127.2525985","imageIndex":4,"items":[{"name":"구이가딱조아","tel":"031-677-6377","addr":"경기도 안성시 신건지동 6-6번지 1층","indutype":"일반휴게음식 - 일반한식","category":"restaurant"}]},{"lat":"37.013158501","long":"127.25112453","imageIndex":4,"items":[{"name":"김경자한방오리","tel":"031-674-4252","addr":"경기도 안성시 신건지동 151번지","indutype":"일반휴게음식 - 일반한식","category":"restaurant"}]},{"lat":"37.014550184","long":"127.25348871","imageIndex":4,"items":[{"name":"김서방순대국밥","tel":"031-674-0789","addr":"경기도 안성시 신건지동 148-1번지 1층","indutype":"일반휴게음식 - 일반한식","category":"restaurant"}]},{"lat":"37.013719737","long":"127.25418263","imageIndex":4,"items":[{"name":"꿈의대화","tel":"031-673-9382","addr":"경기도 안성시 신건지동 2번지","indutype":"일반휴게음식 - 일반한식","category":"restaurant"},{"name":"유진육회","tel":"","addr":"경기도 안성시 신건지동 2번지 1층","indutype":"일반휴게음식 - 일반한식","category":"restaurant"},{"name":"종민네행복한집","tel":"031-671-8209","addr":"경기도 안성시 신건지동 2번지","indutype":"일반휴게음식 - 일반한식","category":"restaurant"},{"name":"착한치킨","tel":"031-673-1267","addr":"경기도 안성시 신건지동 2번지","indutype":"일반휴게음식 - 일반한식","category":"restaurant"}]},{"lat":"37.014134224","long":"127.254184","imageIndex":4,"items":[{"name":"낭만시대","tel":"031-673-0641","addr":"경기도 안성시 신건지동 149-2번지","indutype":"일반휴게음식 - 서양음식","category":"restaurant"}]},{"lat":"37.013719261","long":"127.25440736","imageIndex":4,"items":[{"name":"노다지","tel":"031-674-7413","addr":"경기도 안성시 신건지동 1-2","indutype":"일반휴게음식 - 일반한식","category":"restaurant"},{"name":"대박한방왕족발","tel":"031-675-3379","addr":"경기도 안성시 신건지동 1-2번지","indutype":"일반휴게음식 - 일반한식","category":"restaurant"},{"name":"민수네손칼국수","tel":"031-675-0609","addr":"경기도 안성시 신건지동 1-2번지","indutype":"일반휴게음식 - 일반한식","category":"restaurant"},{"name":"바숄","tel":"031-000-0000","addr":"경기도 안성시 신건지동 1-2번지","indutype":"일반휴게음식 - 주점","category":"restaurant"},{"name":"페리카나치킨","tel":"031-675-7680","addr":"경기도 안성시 신건지동 1-2","indutype":"일반휴게음식 - 주점","category":"restaurant"},{"name":"황소꼼장어","tel":"031-674-7413","addr":"경기도 안성시 신건지동 1-2","indutype":"일반휴게음식 - 일반한식","category":"restaurant"}]},{"lat":"37.013051641","long":"127.25051742","imageIndex":4,"items":[{"name":"다담한식뷔페","tel":"031-677-5411","addr":"경기도 안성시 신건지동 15-14번지 1층","indutype":"일반휴게음식 - 일반한식","category":"restaurant"}]},{"lat":"37.014550587","long":"127.25329769","imageIndex":4,"items":[{"name":"뜰원","tel":"031-673-0483","addr":"경기도 안성시 신건지동 148번지","indutype":"일반휴게음식 - 일반한식","category":"restaurant"}]},{"lat":"37.01433255","long":"127.2498474","imageIndex":4,"items":[{"name":"룰루랄라","tel":"031-672-0247","addr":"경기도 안성시 신건지동 16-1번지 3층","indutype":"일반휴게음식 - 일반한식","category":"restaurant"},{"name":"이화수전통육개장 안성점","tel":"031-677-6606","addr":"경기도 안성시 신건지동 16-1번지","indutype":"일반휴게음식 - 일반한식","category":"restaurant"}]},{"lat":"37.013220752","long":"127.251518","imageIndex":4,"items":[{"name":"매박골","tel":"031-677-3305","addr":"경기도 안성시 신건지동 151-2번지","indutype":"일반휴게음식 - 일반한식","category":"restaurant"}]},{"lat":"37.013964377","long":"127.25354296","imageIndex":4,"items":[{"name":"먹돌이식당","tel":"031-677-5537","addr":"경기도 안성시 신건지동 3-8번지","indutype":"일반휴게음식 - 일반한식","category":"restaurant"}]},{"lat":"37.014415855","long":"127.25309499","imageIndex":4,"items":[{"name":"멍텅구리 아구찜","tel":"031-671-1313","addr":"경기도 안성시 신건지동 5번지 1층 좌측 1호","indutype":"일반휴게음식 - 일반한식","category":"restaurant"},{"name":"자연샘정육점식당","tel":"031-676-5959","addr":"경기도 안성시 신건지동 5번지","indutype":"일반휴게음식 - 일반한식","category":"restaurant"}]},{"lat":"37.013273779","long":"127.25201257","imageIndex":4,"items":[{"name":"명륜진사갈비","tel":"031-676-3354","addr":"경기도 안성시 신건지동 147-3번지 1층 3,4,5호","indutype":"일반휴게음식 - 일반한식","category":"restaurant"}]},{"lat":"37.01363776","long":"127.2545981","imageIndex":4,"items":[{"name":"명품참숯화로구이","tel":"031-672-5692","addr":"경기도 안성시 신건지동 1번지 1층","indutype":"일반휴게음식 - 일반한식","category":"restaurant"},{"name":"신초쭈꾸미","tel":"031-675-2270","addr":"경기도 안성시 신건지동 1번지","indutype":"일반휴게음식 - 일반한식","category":"restaurant"}]},{"lat":"37.013689067","long":"127.25163189","imageIndex":4,"items":[{"name":"본가왕갈비탕","tel":"031-677-0369","addr":"경기도 안성시 신건지동 146-2번지","indutype":"일반휴게음식 - 일반한식","category":"restaurant"}]},{"lat":"37.013249241","long":"127.25082144","imageIndex":4,"items":[{"name":"안성닭장","tel":"031-675-8852","addr":"경기도 안성시 신건지동 144-7번지 1층","indutype":"일반휴게음식 - 일반한식","category":"restaurant"}]},{"lat":"37.014080446","long":"127.25404898","imageIndex":4,"items":[{"name":"이선생뒷고기막창","tel":"","addr":"경기도 안성시 신건지동 149-1번지 1층","indutype":"일반휴게음식 - 일반한식","category":"restaurant"}]},{"lat":"37.017381134","long":"127.2440141","imageIndex":4,"items":[{"name":"정담원 삼원인더스트리점","tel":"031-677-8022","addr":"경기도 안성시 신건지동 54-1번지","indutype":"일반휴게음식 - 위탁급식업","category":"restaurant"}]},{"lat":"37.01324743","long":"127.25168663","imageIndex":4,"items":[{"name":"정성회관","tel":"031-675-1445","addr":"경기도 안성시 신건지동 151-3번지","indutype":"일반휴게음식 - 일반한식","category":"restaurant"}]},{"lat":"37.0131868","long":"127.25051786","imageIndex":4,"items":[{"name":"제이하우스","tel":"031-675-9286","addr":"경기도 안성시 신건지동 15-13번지","indutype":"일반휴게음식 - 일반한식","category":"restaurant"}]},{"lat":"37.013909316","long":"127.25401471","imageIndex":4,"items":[{"name":"쭌비어","tel":"031-674-0789","addr":"경기도 안성시 신건지동 2-6번지","indutype":"일반휴게음식 - 주점","category":"restaurant"}]},{"lat":"37.013300338","long":"127.25223738","imageIndex":4,"items":[{"name":"청해해물찜","tel":"031-672-6783","addr":"경기도 안성시 신건지동 147-2번지","indutype":"일반휴게음식 - 일반한식","category":"restaurant"}]},{"lat":"37.013936062","long":"127.25414963","imageIndex":4,"items":[{"name":"최가네","tel":"031-676-8041","addr":"경기도 안성시 신건지동 2-5번지","indutype":"일반휴게음식 - 일반한식","category":"restaurant"}]},{"lat":"37.014215081","long":"127.25429663","imageIndex":4,"items":[{"name":"하늘바라기","tel":"031-673-7554","addr":"경기도 안성시 신건지동 149-3번지","indutype":"일반휴게음식 - 주점","category":"restaurant"},{"name":"허구헌날","tel":"031-674-5741","addr":"경기도 안성시 신건지동 149-3번지","indutype":"일반휴게음식 - 일반한식","category":"restaurant"}]},{"lat":"37.013963664","long":"127.25388005","imageIndex":4,"items":[{"name":"한돈마을","tel":"031-676-9258","addr":"경기도 안성시 신건지동 149번지","indutype":"일반휴게음식 - 일반한식","category":"restaurant"},{"name":"현호용한돈마을","tel":"031-676-9258","addr":"경기도 안성시 신건지동 149번지","indutype":"일반휴게음식 - 일반한식","category":"restaurant"}]},{"lat":"37.014046231","long":"127.25318367","imageIndex":4,"items":[{"name":"호식이 두마리 치킨 안성1호점","tel":"031-677-9922","addr":"경기도 안성시 신건지동 3-4번지 1층","indutype":"일반휴게음식 - 일반한식","category":"restaurant"}]},{"lat":"37.013185109","long":"127.25132687","imageIndex":4,"items":[{"name":"호식이두마리치킨 1호점","tel":"031-677-9922","addr":"경기도 안성시 신건지동 151-1번지","indutype":"일반휴게음식 - 스넥","category":"restaurant"}]}]