[{"lat":"38.07627725","long":"127.0799709","imageIndex":0,"items":[{"name":"1만원대김포시출장세차","tel":"031-000-0000","addr":"경기도 연천군 연천읍 통현리 250-22번지","indutype":"자동차정비 유지 - 세차장","category":"car"}]},{"lat":"38.07674709","long":"127.077863","imageIndex":17,"items":[{"name":"GS25연천통현점","tel":"","addr":"경기도 연천군 연천읍 통현리 245-4번지 1층 나동","indutype":"유통업 영리 - 편 의 점","category":"other"},{"name":"연천세기축산","tel":"031-834-9144","addr":"경기도 연천군 연천읍 통현리 245-4","indutype":"농업 - 농기계","category":"other"},{"name":"중앙정수","tel":"031-861-1510","addr":"경기도 연천군 연천읍 통현리 245-4번지 1층","indutype":"서적문구 - 과학기자재","category":"other"}]},{"lat":"38.07905487","long":"127.0755288","imageIndex":17,"items":[{"name":"노랑노랑 공작소","tel":"","addr":"경기도 연천군 연천읍 통현리 215-7번지 연천아이파크 106동 1105호","indutype":"서적문구 - 완구점","category":"other"}]},{"lat":"38.06008934","long":"127.0620874","imageIndex":17,"items":[{"name":"삼화전자","tel":"031-832-9012","addr":"경기도 연천군 연천읍 통현리 500-15번지","indutype":"건축자재 - 목재·석재·철물","category":"other"}]},{"lat":"38.07663736","long":"127.0803588","imageIndex":17,"items":[{"name":"연천상회","tel":"031-834-0585","addr":"경기도 연천군 연천읍 통현리 250-1","indutype":"신변잡화 - 기타잡화","category":"other"}]},{"lat":"38.07645003","long":"127.0774752","imageIndex":13,"items":[{"name":"SK빌리어즈","tel":"070-4102-8882","addr":"경기도 연천군 연천읍 통현리 256-4번지","indutype":"레저업소 - 당 구 장","category":"leisure"}]},{"lat":"38.07691834","long":"127.0777264","imageIndex":4,"items":[{"name":"새롬 손두부","tel":"031-834-3988","addr":"경기도 연천군 연천읍 통현리 244-27번지","indutype":"일반휴게음식 - 일반한식","category":"restaurant"},{"name":"새롬손두부","tel":"031-834-3988","addr":"경기도 연천군 연천읍 통현리 244-27번지","indutype":"일반휴게음식 - 일반한식","category":"restaurant"}]},{"lat":"38.07650258","long":"127.0798116","imageIndex":4,"items":[{"name":"서해바다","tel":"031-834-7688","addr":"경기도 연천군 연천읍 통현리 249-4번지","indutype":"일반휴게음식 - 일반한식","category":"restaurant"}]},{"lat":"38.07616912","long":"127.080005","imageIndex":4,"items":[{"name":"옛날통닭포차","tel":"031-834-9193","addr":"경기도 연천군 연천읍 통현리 250-23번지","indutype":"일반휴게음식 - 스넥","category":"restaurant"}]},{"lat":"38.07645003","long":"127.0774752","imageIndex":4,"items":[{"name":"이성환피자족발","tel":"031-834-8777","addr":"경기도 연천군 연천읍 통현리 256-4번지","indutype":"일반휴게음식 - 서양음식","category":"restaurant"},{"name":"투존치킨","tel":"031-832-9292","addr":"경기도 연천군 연천읍 통현리 256-4번지","indutype":"일반휴게음식 - 스넥","category":"restaurant"},{"name":"한가네왕족발 연천점","tel":"031-834-3777","addr":"경기도 연천군 연천읍 통현리 256-4번지","indutype":"일반휴게음식 - 일반한식","category":"restaurant"}]},{"lat":"38.07645003","long":"127.0774752","imageIndex":13,"items":[{"name":"샤방샤방헤어샵","tel":"031-834-6060","addr":"경기도 연천군 연천읍 통현리 256-4번지 문선자동차공업사 2층 1호","indutype":"보건위생 - 미용원","category":"beauty"}]},{"lat":"38.06216782","long":"127.081859","imageIndex":16,"items":[{"name":"연천자동차운전학원","tel":"031-834-9770","addr":"경기도 연천군 연천읍 통현리 80-2번지","indutype":"회원제형태 - 학원","category":"study"},{"name":"연천자동차원전전문학원","tel":"031-834-9770","addr":"경기도 연천군 연천읍 통현리 80-2번지","indutype":"학원 - 기능학원","category":"study"}]},{"lat":"38.07674709","long":"127.077863","imageIndex":8,"items":[{"name":"우리동물병원","tel":"031-834-7233","addr":"경기도 연천군 연천읍 통현리 245-4","indutype":"기타의료기관 - 동물병원","category":"medical"}]},{"lat":"38.06216668","long":"127.0835341","imageIndex":7,"items":[{"name":"은혜농산물","tel":"031-832-2231","addr":"경기도 연천군 연천읍 통현리 79-1 2/2","indutype":"음료식품 - 농·축·수산품","category":"food"}]},{"lat":"38.07689169","long":"127.0771451","imageIndex":7,"items":[{"name":"황해상회","tel":"031-834-0198","addr":"경기도 연천군 연천읍 통현리 237-3번지","indutype":"음료식품 - 기타음료식품","category":"food"}]}]