[{"lat":"37.99856133","long":"126.9207738","imageIndex":17,"items":[{"name":"(주)연천종합상사","tel":"031-832-1885","addr":"경기도 연천군 백학면 노곡리 725-4","indutype":"용역 서비스 - 기타용역서비스","category":"other"}]},{"lat":"37.99422703","long":"126.919515","imageIndex":17,"items":[{"name":"(주)이넷시스","tel":"031-941-4759","addr":"경기도 연천군 백학면 노곡리 659-12번지","indutype":"전기제품 - 기타전기제품","category":"other"}]},{"lat":"37.99050619","long":"126.9194395","imageIndex":17,"items":[{"name":"거북이상회","tel":"070-4206-4880","addr":"경기도 연천군 백학면 노곡리 622-3번지","indutype":"신변잡화 - 기타잡화","category":"other"}]},{"lat":"37.99909284","long":"126.9207391","imageIndex":17,"items":[{"name":"노곡홈마트","tel":"031-835-2564","addr":"경기도 연천군 백학면 노곡리 727-3번지","indutype":"유통업 영리 - 편 의 점","category":"other"}]},{"lat":"37.99058805","long":"126.9205437","imageIndex":17,"items":[{"name":"대교부동산컨설팅","tel":"031-835-2444","addr":"경기도 연천군 백학면 노곡리 563번지","indutype":"용역 서비스 - 사무서비스","category":"other"}]},{"lat":"37.99478553","long":"126.9194119","imageIndex":17,"items":[{"name":"백학대교중기","tel":"031-835-9011","addr":"경기도 연천군 백학면 노곡리 659-4번지","indutype":"기타 - 기계공구","category":"other"},{"name":"이마트24 연천노곡리","tel":"032-835-7200","addr":"경기도 연천군 백학면 노곡리 659-4번지","indutype":"유통업 영리 - 편 의 점","category":"other"},{"name":"이마트24 연천노곡리","tel":"","addr":"경기도 연천군 백학면 노곡리 659-4번지 1층","indutype":"유통업 영리 - 편 의 점","category":"other"}]},{"lat":"37.99820658","long":"126.9160495","imageIndex":17,"items":[{"name":"브엘","tel":"031-835-9080","addr":"경기도 연천군 백학면 노곡리 714-1번지","indutype":"가구 - 일반가구","category":"other"}]},{"lat":"37.99829132","long":"126.9211612","imageIndex":17,"items":[{"name":"브이(V)골프","tel":"031-833-0759","addr":"경기도 연천군 백학면 노곡리 490-4번지","indutype":"레져용품 - 골프용품 전문점","category":"other"}]},{"lat":"37.99234457","long":"126.9201547","imageIndex":17,"items":[{"name":"에스제이에스(주)","tel":"031-833-4701","addr":"경기도 연천군 백학면 노곡리 662-4번지","indutype":"건축자재 - 조명기구","category":"other"}]},{"lat":"37.98901259","long":"126.9221846","imageIndex":7,"items":[{"name":"감미건강원","tel":"031-385-3371","addr":"경기도 연천군 백학면 노곡리 569-4번지","indutype":"건강식품 - 기타건강식품","category":"food"}]},{"lat":"37.99589465","long":"126.9208223","imageIndex":7,"items":[{"name":"농업회사법인 주식회사 예진","tel":"031-835-5431","addr":"경기도 연천군 백학면 노곡리 697-24번지","indutype":"음료식품 - 주류 판매점","category":"food"}]},{"lat":"37.9948959","long":"126.9226563","imageIndex":7,"items":[{"name":"대명캐터링(주)","tel":"031-949-5709","addr":"경기도 연천군 백학면 노곡리 515-6번지","indutype":"음료식품 - 기타음료식품","category":"food"}]},{"lat":"37.99522807","long":"126.9209597","imageIndex":7,"items":[{"name":"블루베리로이","tel":"031-850-5612","addr":"경기도 연천군 백학면 노곡리 655번지","indutype":"음료식품 - 기타음료식품","category":"food"}]},{"lat":"37.99981493","long":"126.9372353","imageIndex":7,"items":[{"name":"신원당 사슴목장","tel":"","addr":"경기도 연천군 백학면 노곡리 235번지","indutype":"건강식품 - 기타건강식품","category":"food"}]},{"lat":"37.99450626","long":"126.919435","imageIndex":7,"items":[{"name":"영희네","tel":"031-835-3055","addr":"경기도 연천군 백학면 노곡리 659-11번지","indutype":"음료식품 - 기타음료식품","category":"food"}]},{"lat":"38.0080666","long":"126.9359641","imageIndex":7,"items":[{"name":"희망 슈퍼","tel":"","addr":"경기도 연천군 백학면 노곡리 161번지 백령리 162-72 1호","indutype":"음료식품 - 기타음료식품","category":"food"}]},{"lat":"37.99050619","long":"126.9194395","imageIndex":4,"items":[{"name":"거북이한식부페","tel":"031-833-4880","addr":"경기도 연천군 백학면 노곡리 622-3번지","indutype":"일반휴게음식 - 일반한식","category":"restaurant"}]},{"lat":"37.99450626","long":"126.919435","imageIndex":4,"items":[{"name":"계림각","tel":"031-835-8229","addr":"경기도 연천군 백학면 노곡리 659-11번지","indutype":"일반휴게음식 - 중국식","category":"restaurant"}]},{"lat":"37.99001114","long":"126.9200776","imageIndex":4,"items":[{"name":"노곡손두부마을","tel":"031-835-1052","addr":"경기도 연천군 백학면 노곡리 615-1번지 가동","indutype":"일반휴게음식 - 일반한식","category":"restaurant"},{"name":"양평해장국","tel":"031-833-8388","addr":"경기도 연천군 백학면 노곡리 615-1번지 나동","indutype":"일반휴게음식 - 일반한식","category":"restaurant"}]},{"lat":"37.98929054","long":"126.9202719","imageIndex":4,"items":[{"name":"대교설렁탕","tel":"031-835-2524","addr":"경기도 연천군 백학면 노곡리 608-3번지","indutype":"일반휴게음식 - 일반한식","category":"restaurant"}]},{"lat":"37.99267785","long":"126.9200746","imageIndex":4,"items":[{"name":"대복능이백숙","tel":"031-832-9212","addr":"경기도 연천군 백학면 노곡리 662-2번지","indutype":"일반휴게음식 - 일반한식","category":"restaurant"}]},{"lat":"37.99537108","long":"126.9193543","imageIndex":4,"items":[{"name":"들녘","tel":"","addr":"경기도 연천군 백학면 노곡리 659-1번지","indutype":"일반휴게음식 - 일반한식","category":"restaurant"}]},{"lat":"37.99909284","long":"126.9207391","imageIndex":4,"items":[{"name":"부어치킨","tel":"031-835-2565","addr":"경기도 연천군 백학면 노곡리 727-3번지","indutype":"일반휴게음식 - 스넥","category":"restaurant"},{"name":"식도락","tel":"031-833-3332","addr":"경기도 연천군 백학면 노곡리 727-3번지 1층","indutype":"일반휴게음식 - 일반한식","category":"restaurant"},{"name":"신망리 순대국","tel":"031-833-3352","addr":"경기도 연천군 백학면 노곡리 727-3번지","indutype":"일반휴게음식 - 일반한식","category":"restaurant"},{"name":"중원","tel":"031-832-3359","addr":"경기도 연천군 백학면 노곡리 727-3번지","indutype":"일반휴게음식 - 중국식","category":"restaurant"},{"name":"충성부대찌개","tel":"031-835-4002","addr":"경기도 연천군 백학면 노곡리 727-3번지 가-2호","indutype":"일반휴게음식 - 일반한식","category":"restaurant"}]},{"lat":"37.99422703","long":"126.919515","imageIndex":4,"items":[{"name":"수랏간 양평해장국","tel":"031-835-0204","addr":"경기도 연천군 백학면 노곡리 659-12번지","indutype":"일반휴게음식 - 일반한식","category":"restaurant"}]},{"lat":"37.99058805","long":"126.9205437","imageIndex":4,"items":[{"name":"약이 되는 밥상","tel":"031-835-2245","addr":"경기도 연천군 백학면 노곡리 563번지","indutype":"일반휴게음식 - 일반한식","category":"restaurant"}]},{"lat":"37.98965081","long":"126.9201349","imageIndex":4,"items":[{"name":"유니크","tel":"031-835-0579","addr":"경기도 연천군 백학면 노곡리 608번지 1층 102호","indutype":"일반휴게음식 - 서양음식","category":"restaurant"}]},{"lat":"37.99106035","long":"126.9134397","imageIndex":4,"items":[{"name":"임진강능이백숙","tel":"031-859-8023","addr":"경기도 연천군 백학면 노곡리 879번지 2층","indutype":"일반휴게음식 - 일반한식","category":"restaurant"}]},{"lat":"37.98947968","long":"126.920192","imageIndex":4,"items":[{"name":"자연밥상","tel":"031-835-6615","addr":"경기도 연천군 백학면 노곡리 608-2번지 1층","indutype":"일반휴게음식 - 일반한식","category":"restaurant"}]},{"lat":"37.98901259","long":"126.9221846","imageIndex":4,"items":[{"name":"제주흑돼지","tel":"031-835-8882","addr":"경기도 연천군 백학면 노곡리 569-4번지","indutype":"일반휴게음식 - 일반한식","category":"restaurant"}]},{"lat":"37.99031684","long":"126.9192121","imageIndex":4,"items":[{"name":"최진사댁부대찌개","tel":"031-835-2202","addr":"경기도 연천군 백학면 노곡리 622-8번지","indutype":"일반휴게음식 - 일반한식","category":"restaurant"}]},{"lat":"37.99845239","long":"126.9196013","imageIndex":0,"items":[{"name":"승영오토랜드","tel":"031-835-6942","addr":"경기도 연천군 백학면 노곡리 724-6번지","indutype":"자동차정비 유지 - 자동차정비","category":"car"}]},{"lat":"37.98901259","long":"126.9221846","imageIndex":5,"items":[{"name":"예심장","tel":"031-000-0000","addr":"경기도 연천군 백학면 노곡리 569-4번지","indutype":"숙박업 - 여관/기타숙박업","category":"hotel"}]}]