[{"lat":"37.203282728","long":"127.54486554","imageIndex":13,"items":[{"name":"J당구클럽","tel":"031-882-4156","addr":"경기도 여주시 가남읍 태평리 162-8번지 2층","indutype":"레저업소 - 당 구 장","category":"leisure"}]},{"lat":"37.204586136","long":"127.54356818","imageIndex":13,"items":[{"name":"닥터골프센터","tel":"031-884-6576","addr":"경기도 여주시 가남읍 태평리 171-6번지 닥터골프센터","indutype":"레저업소 - 스크린골프","category":"leisure"},{"name":"닥터휘트니스센터","tel":"031-884-`657","addr":"경기도 여주시 가남읍 태평리 171-6번지","indutype":"레저업소 - 헬스클럽","category":"leisure"}]},{"lat":"37.20333586","long":"127.54506867","imageIndex":13,"items":[{"name":"대형노래연습장","tel":"031-881-3590","addr":"경기도 여주시 가남읍 태평리 162-4번지 여주축협(가남지점) 지하 1101호","indutype":"레저업소 - 노 래 방","category":"leisure"},{"name":"한울당구장","tel":"031-884-3979","addr":"경기도 여주시 가남읍 태평리 162-4번지 여주축협(가남지점) 3층 1301호","indutype":"레저업소 - 당 구 장","category":"leisure"}]},{"lat":"37.203253378","long":"127.54537222","imageIndex":13,"items":[{"name":"별밤지기","tel":"031-885-8088","addr":"경기도 여주시 가남읍 태평리 141-17번지","indutype":"레저업소 - 노 래 방","category":"leisure"}]},{"lat":"37.202341461","long":"127.54578246","imageIndex":13,"items":[{"name":"아지트PC방","tel":"070-6291-3600","addr":"경기도 여주시 가남읍 태평리 141-36번지 2층","indutype":"레저업소 - 기타레져업소","category":"leisure"}]},{"lat":"37.202168309","long":"127.54620926","imageIndex":13,"items":[{"name":"유림노래연습장","tel":"031-882-3680","addr":"경기도 여주시 가남읍 태평리 141-31번지","indutype":"레저업소 - 노 래 방","category":"leisure"}]},{"lat":"37.20144942","long":"127.54578734","imageIndex":13,"items":[{"name":"유성 노래연습장","tel":"031-883-7970","addr":"경기도 여주시 가남읍 태평리 111-5번지 지층","indutype":"레저업소 - 노 래 방","category":"leisure"}]},{"lat":"37.203809374","long":"127.54397942","imageIndex":13,"items":[{"name":"팡팡노래연습장","tel":"031-881-5775","addr":"경기도 여주시 가남읍 태평리 164-3번지","indutype":"레저업소 - 노 래 방","category":"leisure"}]},{"lat":"37.202615913","long":"127.54684326","imageIndex":13,"items":[{"name":"플러스당구장","tel":"031-881-3733","addr":"경기도 여주시 가남읍 태평리 110-7번지 3층","indutype":"레저업소 - 당 구 장","category":"leisure"}]},{"lat":"37.202898014","long":"127.54623702","imageIndex":13,"items":[{"name":"현대스크린골프연습장","tel":"031-882-7703","addr":"경기도 여주시 가남읍 태평리 141-63번지","indutype":"레저업소 - 스크린골프","category":"leisure"}]},{"lat":"37.203448306","long":"127.54412328","imageIndex":13,"items":[{"name":"현주당구장","tel":"031-884-3151","addr":"경기도 여주시 가남읍 태평리 163-3번지","indutype":"레저업소 - 당 구 장","category":"leisure"}]}]