[{"lat":"37.115574503","long":"127.61200589","imageIndex":8,"items":[{"name":"가까운약국","tel":"031-641-8077","addr":"경기도 이천시 장호원읍 장호원리 341번지","indutype":"약국 - 약국","category":"medical"},{"name":"장호원성모병원","tel":"031-642-8871","addr":"경기도 이천시 장호원읍 장호원리 341번지","indutype":"병원 - 병원","category":"medical"}]},{"lat":"37.117376584","long":"127.63100154","imageIndex":8,"items":[{"name":"건강약국","tel":"031-642-3981","addr":"경기도 이천시 장호원읍 장호원리 115-15","indutype":"약국 - 약국","category":"medical"}]},{"lat":"37.116041063","long":"127.62967411","imageIndex":8,"items":[{"name":"김한의원","tel":"031-642-8275","addr":"경기도 이천시 장호원읍 장호원리 100-15번지 외2필지","indutype":"의원 - 한의원","category":"medical"}]},{"lat":"37.117625931","long":"127.6332539","imageIndex":8,"items":[{"name":"뉴선두연합내과의원","tel":"031-643-5300","addr":"경기도 이천시 장호원읍 장호원리 66-19번지","indutype":"의원 - 의원","category":"medical"}]},{"lat":"37.118129379","long":"127.62836364","imageIndex":8,"items":[{"name":"믿음심는치과의원","tel":"031-642-9333","addr":"경기도 이천시 장호원읍 장호원리 135-3번지 찬스빌딩 2층","indutype":"의원 - 의원","category":"medical"}]},{"lat":"37.117656191","long":"127.63094759","imageIndex":8,"items":[{"name":"박민호내과의원","tel":"031-641-5533","addr":"경기도 이천시 장호원읍 장호원리 115-17번지 1층","indutype":"의원 - 의원","category":"medical"},{"name":"손치과의원","tel":"031-642-2875","addr":"경기도 이천시 장호원읍 장호원리 115-17번지","indutype":"의원 - 치과의원","category":"medical"}]},{"lat":"37.117766818","long":"127.63217492","imageIndex":8,"items":[{"name":"박소아과의원","tel":"031-642-8644","addr":"경기도 이천시 장호원읍 장호원리 41-3번지","indutype":"의원 - 의원","category":"medical"},{"name":"으뜸약국","tel":"031-642-3344","addr":"경기도 이천시 장호원읍 장호원리 41-3번지","indutype":"약국 - 약국","category":"medical"}]},{"lat":"37.11766031","long":"127.63187025","imageIndex":8,"items":[{"name":"삼성명인내과(부설인공신장실)","tel":"031-642-1360","addr":"경기도 이천시 장호원읍 장호원리 40-1번지 3층(회1필지용천빌딩)","indutype":"의원 - 의원","category":"medical"},{"name":"서울감동치과","tel":"031-643-2875","addr":"경기도 이천시 장호원읍 장호원리 40-1번지 4층","indutype":"의원 - 치과의원","category":"medical"}]},{"lat":"37.116934597","long":"127.62938894","imageIndex":8,"items":[{"name":"새성모약국","tel":"031-641-2155","addr":"경기도 이천시 장호원읍 장호원리 112-8번지","indutype":"약국 - 약국","category":"medical"}]},{"lat":"37.116431762","long":"127.62905851","imageIndex":8,"items":[{"name":"생강한의원","tel":"031-642-1075","addr":"경기도 이천시 장호원읍 장호원리 101-3번지","indutype":"의원 - 한의원","category":"medical"}]},{"lat":"37.117521137","long":"127.629225","imageIndex":8,"items":[{"name":"생명약국","tel":"031-642-6628","addr":"경기도 이천시 장호원읍 장호원리 118-14","indutype":"약국 - 약국","category":"medical"}]},{"lat":"37.120263082","long":"127.62869625","imageIndex":8,"items":[{"name":"서광마취과의원","tel":"031-643-0255","addr":"경기도 이천시 장호원읍 장호원리 162-8번지","indutype":"의원 - 의원","category":"medical"}]},{"lat":"37.117708217","long":"127.63302955","imageIndex":8,"items":[{"name":"서울경희한의원","tel":"031-641-5737","addr":"경기도 이천시 장호원읍 장호원리 65-5번지","indutype":"의원 - 한의원","category":"medical"}]},{"lat":"37.116517878","long":"127.62981306","imageIndex":8,"items":[{"name":"수메디컬의원","tel":"031-642-5119","addr":"경기도 이천시 장호원읍 장호원리 99-3번지 3층","indutype":"의원 - 의원","category":"medical"}]},{"lat":"37.116574436","long":"127.62934097","imageIndex":8,"items":[{"name":"수온누리약국","tel":"031-642-2714","addr":"경기도 이천시 장호원읍 장호원리 101-2번지 1층","indutype":"약국 - 약국","category":"medical"},{"name":"수온누리약국","tel":"031-642-2714","addr":"경기도 이천시 장호원읍 장호원리 101-2번지","indutype":"약국 - 약국","category":"medical"}]},{"lat":"37.117103408","long":"127.62984039","imageIndex":8,"items":[{"name":"신세계 연세 치과의원","tel":"031-642-7528","addr":"경기도 이천시 장호원읍 장호원리 113-2번지 2층","indutype":"의원 - 치과의원","category":"medical"}]},{"lat":"37.11774324","long":"127.63322112","imageIndex":8,"items":[{"name":"엠비뇨기과의원","tel":"031-642-7512","addr":"경기도 이천시 장호원읍 장호원리 66-9번지 4층","indutype":"의원 - 의원","category":"medical"},{"name":"유진약국","tel":"031-642-3043","addr":"경기도 이천시 장호원읍 장호원리 66-9번지 1층 유진약국","indutype":"약국 - 약국","category":"medical"},{"name":"장호원산부인과의원","tel":"031-643-3582","addr":"경기도 이천시 장호원읍 장호원리 66-9번지 2층","indutype":"의원 - 의원","category":"medical"}]},{"lat":"37.119406065","long":"127.62889172","imageIndex":8,"items":[{"name":"의료법인 목민의료재단","tel":"031-641-3080","addr":"경기도 이천시 장호원읍 장호원리 162-16번지","indutype":"병원 - 병원","category":"medical"}]},{"lat":"37.11609696","long":"127.61553172","imageIndex":8,"items":[{"name":"주영동물병원","tel":"031-641-9208","addr":"경기도 이천시 장호원읍 장호원리 388번지","indutype":"기타의료기관 - 동물병원","category":"medical"}]},{"lat":"37.118989229","long":"127.62933836","imageIndex":8,"items":[{"name":"행복약국","tel":"031-642-5329","addr":"경기도 이천시 장호원읍 장호원리 148-8","indutype":"약국 - 약국","category":"medical"}]}]