[{"lat":"37.696707435","long":"126.70229574","imageIndex":0,"items":[{"name":"miracle shine(미라클샤인)","tel":"031-8071-5820","addr":"경기도 파주시 산남동 52-2번지","indutype":"자동차정비 유지 - 카인테리어","category":"car"},{"name":"백룡모터스","tel":"031-947-7279","addr":"경기도 파주시 산남동 52-2번지","indutype":"자동차정비 유지 - 자동차정비","category":"car"}]},{"lat":"37.700789364","long":"126.70968375","imageIndex":0,"items":[{"name":"레이지튠","tel":"070-4111-9785","addr":"경기도 파주시 산남동 27-34번지","indutype":"자동차정비 유지 - 자동차부품","category":"car"}]},{"lat":"37.699814537","long":"126.71260172","imageIndex":0,"items":[{"name":"리버스 게러지","tel":"","addr":"경기도 파주시 산남동 17-3번지","indutype":"자동차정비 유지 - 자동차정비","category":"car"}]},{"lat":"37.703872541","long":"126.68940763","imageIndex":0,"items":[{"name":"블루모터스","tel":"031-947-2389","addr":"경기도 파주시 산남동 360-1번지","indutype":"자동차정비 유지 - 자동차시트·타이어","category":"car"}]},{"lat":"37.695512898","long":"126.69674475","imageIndex":0,"items":[{"name":"성준특장 주식회사","tel":"02-304-8140","addr":"경기도 파주시 산남동 690-1번지","indutype":"자동차정비 유지 - 중장비수리","category":"car"}]},{"lat":"37.700013159","long":"126.69847246","imageIndex":0,"items":[{"name":"엠세븐 코리아(M7 KOREA)","tel":"031-946-6828","addr":"경기도 파주시 산남동 95-1번지","indutype":"자동차정비 유지 - 자동차부품","category":"car"}]},{"lat":"37.700653601","long":"126.69185911","imageIndex":0,"items":[{"name":"오토킹","tel":"070-7841-3977","addr":"경기도 파주시 산남동 280-1번지","indutype":"자동차정비 유지 - 자동차부품","category":"car"}]},{"lat":"37.702927359","long":"126.68971778","imageIndex":0,"items":[{"name":"윈카크리닉","tel":"031-942-3941","addr":"경기도 파주시 산남동 323-11번지","indutype":"자동차정비 유지 - 자동차시트·타이어","category":"car"}]},{"lat":"37.701427909","long":"126.6916631","imageIndex":0,"items":[{"name":"제이비랩","tel":"02-1800-5390","addr":"경기도 파주시 산남동 304-4번지","indutype":"자동차판매 - 수입자동차","category":"car"}]},{"lat":"37.699316998","long":"126.69407579","imageIndex":0,"items":[{"name":"지원 트레이딩(G1 trading)","tel":"070-4195-7650","addr":"경기도 파주시 산남동 246-2번지","indutype":"자동차정비 유지 - 자동차부품","category":"car"}]}]