[{"lat":"37.837089321","long":"127.06833858","imageIndex":13,"items":[{"name":"(미)애 스킨&바디","tel":"031-823-0647","addr":"경기도 양주시 덕정동 208-6번지 두리테크덕정타운 303호","indutype":"보건위생 - 피부미용실","category":"beauty"},{"name":"네이쳐컬렉션","tel":"031-861-6855","addr":"경기도 양주시 덕정동 208-6번지 두리테크 107호","indutype":"보건위생 - 화장품","category":"beauty"},{"name":"두리사우나","tel":"031-857-5300","addr":"경기도 양주시 덕정동 208-6번지 두리테크덕정타운 701호","indutype":"보건위생 - 사우나","category":"beauty"},{"name":"두리쉼터","tel":"031-857-5300","addr":"경기도 양주시 덕정동 208-6번지 두리테크덕정타운 701호","indutype":"보건위생 - 사우나","category":"beauty"},{"name":"보떼","tel":"031-859-4195","addr":"경기도 양주시 덕정동 208-6번지","indutype":"보건위생 - 화장품","category":"beauty"},{"name":"뷰티헤어","tel":"031-858-8797","addr":"경기도 양주시 덕정동 208-6번지 두리테크 206호","indutype":"보건위생 - 미용원","category":"beauty"},{"name":"블루클럽","tel":"031-858-5933","addr":"경기도 양주시 덕정동 208-6번지 두리테크 119호","indutype":"보건위생 - 미용원","category":"beauty"},{"name":"성모안경원","tel":"031-862-7583","addr":"경기도 양주시 덕정동 208-6번지 두리테크 4층 403호","indutype":"보건위생 - 안경","category":"beauty"},{"name":"아이마트","tel":"031-859-1009","addr":"경기도 양주시 덕정동 208-6,105.103","indutype":"보건위생 - 안경","category":"beauty"},{"name":"여우이야기","tel":"031-859-7886","addr":"경기도 양주시 덕정동 208-6번지 두리테크덕정타운 213호","indutype":"보건위생 - 피부미용실","category":"beauty"},{"name":"이니스프리양주덕정점","tel":"031-858-8778","addr":"경기도 양주시 덕정동 208-6번지 두리테크덕정타운 106호","indutype":"보건위생 - 화장품","category":"beauty"},{"name":"주식회사 두리쉼터","tel":"031-857-5300","addr":"경기도 양주시 덕정동 208-6번지 두리테크덕정타운 701호","indutype":"보건위생 - 사우나","category":"beauty"},{"name":"한글라스안경","tel":"031-859-8764","addr":"경기도 양주시 덕정동 208-6번지 두리테크덕정타운 110호","indutype":"보건위생 - 안경","category":"beauty"}]},{"lat":"37.836665797","long":"127.06848589","imageIndex":13,"items":[{"name":"120%쿨(COOL)덕정점","tel":"031-838-7800","addr":"경기도 양주시 덕정동 208-8번지 황금프라자 204호","indutype":"보건위생 - 미용원","category":"beauty"},{"name":"미다듬","tel":"031-864-0711","addr":"경기도 양주시 덕정동 208-8번지 황금프라자 118호","indutype":"보건위생 - 미용원","category":"beauty"},{"name":"슈","tel":"","addr":"경기도 양주시 덕정동 208-8번지 황금프라자 207호","indutype":"보건위생 - 피부미용실","category":"beauty"},{"name":"아리따움양주덕정점","tel":"031-859-5205","addr":"경기도 양주시 덕정동 208-8번지 황금프라자 105호","indutype":"보건위생 - 화장품","category":"beauty"},{"name":"웰빙토탈부티샵","tel":"031-864-8255","addr":"경기도 양주시 덕정동 208-8번지 황금프라자 402호","indutype":"보건위생 - 피부미용실","category":"beauty"},{"name":"클럽밸런스5 양주덕정점","tel":"031-858-2074","addr":"경기도 양주시 덕정동 208-8번지 황금프라자 4층 404호","indutype":"보건위생 - 의료용품","category":"beauty"}]},{"lat":"37.840750066","long":"127.06284328","imageIndex":13,"items":[{"name":"E&IG경기북부지사(새롬해독센터)","tel":"031-859-7525","addr":"경기도 양주시 덕정동 346-9번지 남양상가빌딩 111호","indutype":"보건위생 - 의료용품","category":"beauty"},{"name":"스타정헤어샵","tel":"031-823-1531","addr":"경기도 양주시 덕정동 346-9번지 남양상가 105호","indutype":"보건위생 - 미용원","category":"beauty"},{"name":"한빛","tel":"031-859-2249","addr":"경기도 양주시 덕정동 346-9번지 남양상가 105호","indutype":"보건위생 - 이용원","category":"beauty"}]},{"lat":"37.843498158","long":"127.06240242","imageIndex":13,"items":[{"name":"Hair(헤어)오늘","tel":"031-863-0668","addr":"경기도 양주시 덕정동 350-93번지 2층","indutype":"보건위생 - 미용원","category":"beauty"}]},{"lat":"37.840641727","long":"127.06328625","imageIndex":13,"items":[{"name":"L (엘)헤어","tel":"032-612-1414","addr":"경기도 양주시 덕정동 157번지 라벨메르 1층","indutype":"보건위생 - 미용원","category":"beauty"}]},{"lat":"37.84336235","long":"127.06370883","imageIndex":13,"items":[{"name":"군왕신당","tel":"070-8158-2113","addr":"경기도 양주시 덕정동 134-4번지","indutype":"보건위생 - 기타대인서비스","category":"beauty"}]},{"lat":"37.834450264","long":"127.06706397","imageIndex":13,"items":[{"name":"규림헤어","tel":"031-861-0533","addr":"경기도 양주시 덕정동 236-1번지 105호","indutype":"보건위생 - 미용원","category":"beauty"}]},{"lat":"37.83763892","long":"127.06829363","imageIndex":13,"items":[{"name":"김숙헤어컬렉션","tel":"031-858-2663","addr":"경기도 양주시 덕정동 206-2번지 우창프라자 105호","indutype":"보건위생 - 미용원","category":"beauty"},{"name":"네일리아","tel":"","addr":"경기도 양주시 덕정동 206-2번지 우창프라자 1층 104호","indutype":"보건위생 - 피부미용실","category":"beauty"}]},{"lat":"37.832638577","long":"127.06850504","imageIndex":13,"items":[{"name":"까까보까","tel":"031-857-5667","addr":"경기도 양주시 덕정동 210-3번지 청담마을제 상가동 105호","indutype":"보건위생 - 미용원","category":"beauty"},{"name":"코코뷰티","tel":"031-858-4129","addr":"경기도 양주시 덕정동 210-3번지 2층 201호 청담상가","indutype":"보건위생 - 피부미용실","category":"beauty"}]},{"lat":"37.838750203","long":"127.06239861","imageIndex":13,"items":[{"name":"깍새미장","tel":"","addr":"경기도 양주시 덕정동 223-34번지 1층","indutype":"보건위생 - 미용원","category":"beauty"}]},{"lat":"37.842613786","long":"127.06520785","imageIndex":13,"items":[{"name":"나무헤어","tel":"031-867-9609","addr":"경기도 양주시 덕정동 149-1번지","indutype":"보건위생 - 미용원","category":"beauty"}]},{"lat":"37.84633602","long":"127.06259785","imageIndex":13,"items":[{"name":"남다경 Hair","tel":"031-862-0156","addr":"경기도 양주시 덕정동 361번지","indutype":"보건위생 - 미용원","category":"beauty"}]},{"lat":"37.83714441","long":"127.06645286","imageIndex":13,"items":[{"name":"네일도 맑음","tel":"070-7189-1595","addr":"경기도 양주시 덕정동 208-1번지 해밀프라자 1층 115호","indutype":"보건위생 - 피부미용실","category":"beauty"},{"name":"마벨미용실","tel":"031-859-3321","addr":"경기도 양주시 덕정동 208-1번지 해밀프라자 111호","indutype":"보건위생 - 미용원","category":"beauty"},{"name":"바디케어","tel":"031-864-6676","addr":"경기도 양주시 덕정동 208-1번지 해밀프라자 5층 502호","indutype":"보건위생 - 피부미용실","category":"beauty"},{"name":"소풍아동청소년심리상담센터","tel":"031-867-2027","addr":"경기도 양주시 덕정동 208-1번지 해밀프라자 5층 504호","indutype":"보건위생 - 기타대인서비스","category":"beauty"},{"name":"아모레양주(특)외판","tel":"031-862-3337","addr":"경기도 양주시 덕정동 208-1번지 해밀프라자 501호","indutype":"보건위생 - 화장품","category":"beauty"},{"name":"아모레양주(특)외판","tel":"031-859-2828","addr":"경기도 양주시 덕정동 해밀프라자501","indutype":"보건위생 - 화장품","category":"beauty"},{"name":"아모레카운셀러","tel":"031-859-2827","addr":"경기도 양주시 덕정동 208-1번지 해밀프라자 501호","indutype":"보건위생 - 화장품","category":"beauty"},{"name":"아모레카운셀러","tel":"031-859-2828","addr":"경기도 양주시 덕정동 208-1번지 해밀프라자 501호","indutype":"보건위생 - 화장품","category":"beauty"},{"name":"아모레카운셀러","tel":"031-859-2828","addr":"경기도 양주시 덕정동 208-1번지 해밀프라자 501호","indutype":"보건위생 - 화장품","category":"beauty"},{"name":"아모레카운셀러","tel":"031-858-2827","addr":"경기도 양주시 덕정동 208-1번지 해밀프라자 501호","indutype":"보건위생 - 화장품","category":"beauty"},{"name":"프로방스헤어샵","tel":"031-858-0090","addr":"경기도 양주시 덕정동 208-1번지 해밀프라자 206호","indutype":"보건위생 - 미용원","category":"beauty"}]},{"lat":"37.847227967","long":"127.06256448","imageIndex":13,"items":[{"name":"다온헤어","tel":"031-836-3316","addr":"경기도 양주시 덕정동 365-8번지 1층 일부","indutype":"보건위생 - 미용원","category":"beauty"}]},{"lat":"37.84380348","long":"127.06434541","imageIndex":13,"items":[{"name":"달자헤어","tel":"031-123-4567","addr":"경기도 양주시 덕정동 131-29번지","indutype":"보건위생 - 미용원","category":"beauty"}]},{"lat":"37.843722644","long":"127.06386818","imageIndex":13,"items":[{"name":"대명미용실","tel":"031-858-4875","addr":"경기도 양주시 덕정동 132-18번지","indutype":"보건위생 - 미용원","category":"beauty"}]},{"lat":"37.838476706","long":"127.06845341","imageIndex":13,"items":[{"name":"대박미용실","tel":"070-8881-4645","addr":"경기도 양주시 덕정동 164-4번지 은동마을주공1단지아파트 상가동 102호","indutype":"보건위생 - 미용원","category":"beauty"}]},{"lat":"37.837144721","long":"127.0658735","imageIndex":13,"items":[{"name":"더끌림헤어","tel":"031-858-2076","addr":"경기도 양주시 덕정동 208번지 금강프라자 121호","indutype":"보건위생 - 미용원","category":"beauty"},{"name":"머리에반하다","tel":"070-7420-1733","addr":"경기도 양주시 덕정동 208번지 금강프라자 115호","indutype":"보건위생 - 미용원","category":"beauty"},{"name":"미애가미용실(miega hair salon)","tel":"031-862-9611","addr":"경기도 양주시 덕정동 208번지 금강종합쇼핑센터 204호","indutype":"보건위생 - 미용원","category":"beauty"},{"name":"스타화장품","tel":"031-858-9865","addr":"경기도 양주시 덕정동 208번지 금강프라자 1층 108호","indutype":"보건위생 - 화장품","category":"beauty"},{"name":"아로마샵","tel":"","addr":"경기도 양주시 덕정동 208번지 금강프라자 4층 405,406호","indutype":"보건위생 - 화장품","category":"beauty"},{"name":"안경박사","tel":"031-859-8835","addr":"경기도 양주시 덕정동 208번지 그강프라자 1층 105호","indutype":"보건위생 - 안경","category":"beauty"},{"name":"양주스포츠랜드(주)/금강대중사우나","tel":"031-859-0050","addr":"경기도 양주시 덕정동 208번지 금강종합쇼핑센터 B01호","indutype":"보건위생 - 사우나","category":"beauty"}]},{"lat":"37.848560416","long":"127.06439481","imageIndex":13,"items":[{"name":"딥블루헤어","tel":"02-4349-4379","addr":"경기도 양주시 덕정동 540번지 양주서희스타힐스2단지 상가 103호","indutype":"보건위생 - 미용원","category":"beauty"}]},{"lat":"37.853696226","long":"127.06351279","imageIndex":13,"items":[{"name":"로얄네이쳐 (주)","tel":"031-252-3474","addr":"경기도 양주시 덕정동 64-8번지","indutype":"보건위생 - 화장품","category":"beauty"}]},{"lat":"37.847002859","long":"127.06231434","imageIndex":13,"items":[{"name":"리안네일","tel":"031-1111-1111","addr":"경기도 양주시 덕정동 365-12번지","indutype":"보건위생 - 피부미용실","category":"beauty"},{"name":"리안스킨케어","tel":"","addr":"경기도 양주시 덕정동 365-12번지 2층","indutype":"보건위생 - 피부미용실","category":"beauty"},{"name":"리안헤어(덕정역점)","tel":"031-862-6020","addr":"경기도 양주시 덕정동 365-12번지 2층","indutype":"보건위생 - 미용원","category":"beauty"}]},{"lat":"37.838812684","long":"127.06354605","imageIndex":13,"items":[{"name":"명진미용실","tel":"031-866-1958","addr":"경기도 양주시 덕정동 220-1번지 명진빌라 A동 101호","indutype":"보건위생 - 미용원","category":"beauty"}]},{"lat":"37.840695308","long":"127.06420651","imageIndex":13,"items":[{"name":"미장","tel":"031-864-7565","addr":"경기도 양주시 덕정동 156-18번지","indutype":"보건위생 - 미용원","category":"beauty"}]},{"lat":"37.837838682","long":"127.06543104","imageIndex":13,"items":[{"name":"미즈미장","tel":"031-866-7858","addr":"경기도 양주시 덕정동 225-6번지 동방빌딩 1층","indutype":"보건위생 - 미용원","category":"beauty"}]},{"lat":"37.837173158","long":"127.06318118","imageIndex":13,"items":[{"name":"베이징","tel":"070-997-9970","addr":"경기도 양주시 덕정동 222-20번지 혜승빌딩 2층","indutype":"보건위생 - 화장품","category":"beauty"}]},{"lat":"37.843082274","long":"127.06520825","imageIndex":13,"items":[{"name":"별빛헤어","tel":"031-000-0000","addr":"경기도 양주시 덕정동 151-6번지 1층","indutype":"보건위생 - 미용원","category":"beauty"}]},{"lat":"37.84266686","long":"127.06703701","imageIndex":13,"items":[{"name":"사랑헤어샵","tel":"031-861-2777","addr":"경기도 양주시 덕정동 145-2번지 1층","indutype":"보건위생 - 미용원","category":"beauty"}]},{"lat":"37.838198955","long":"127.06562447","imageIndex":13,"items":[{"name":"살롱드수아","tel":"031-858-1160","addr":"경기도 양주시 덕정동 214-23번지 1층 105호","indutype":"보건위생 - 미용원","category":"beauty"}]},{"lat":"37.837669046","long":"127.06245454","imageIndex":13,"items":[{"name":"상미","tel":"070-9144-6866","addr":"경기도 양주시 덕정동 281-1번지 지하층","indutype":"보건위생 - 미용재료","category":"beauty"}]},{"lat":"37.843723128","long":"127.06292521","imageIndex":13,"items":[{"name":"상희미용실","tel":"031-859-1642","addr":"경기도 양주시 덕정동 133-25번지","indutype":"보건위생 - 미용원","category":"beauty"}]},{"lat":"37.834919838","long":"127.06504235","imageIndex":13,"items":[{"name":"샤르망헤어","tel":"031-863-1198","addr":"경기도 양주시 덕정동 240-35번지 C동 101호","indutype":"보건위생 - 미용원","category":"beauty"}]},{"lat":"37.844029517","long":"127.06278913","imageIndex":13,"items":[{"name":"서울종합화장품","tel":"031-858-1897","addr":"경기도 양주시 덕정동 351-12번지","indutype":"보건위생 - 화장품","category":"beauty"}]},{"lat":"37.847524953","long":"127.06320097","imageIndex":13,"items":[{"name":"선(Sun) 헤어","tel":"031-824-8041","addr":"경기도 양주시 덕정동 365-41번지","indutype":"보건위생 - 미용원","category":"beauty"}]},{"lat":"37.837839855","long":"127.06318173","imageIndex":13,"items":[{"name":"설피부","tel":"031-859-0419","addr":"경기도 양주시 덕정동 222-2번지 제일빌딩 402호","indutype":"보건위생 - 피부미용실","category":"beauty"}]},{"lat":"37.840478516","long":"127.06528558","imageIndex":13,"items":[{"name":"양주스파월드3층 피부관리","tel":"031-862-8445","addr":"경기도 양주시 덕정동 162-12번지 양주스파월드 3층","indutype":"보건위생 - 피부미용실","category":"beauty"}]},{"lat":"37.84394806","long":"127.06351617","imageIndex":13,"items":[{"name":"여기서 헤어","tel":"070-8124-5100","addr":"경기도 양주시 덕정동 132-32번지 1층","indutype":"보건위생 - 미용원","category":"beauty"}]},{"lat":"37.841837566","long":"127.06782018","imageIndex":13,"items":[{"name":"여우손톱쟁이","tel":"031-866-2677","addr":"경기도 양주시 덕정동 178-7번지 1층","indutype":"보건위생 - 미용원","category":"beauty"}]},{"lat":"37.843497549","long":"127.06359533","imageIndex":13,"items":[{"name":"예담헤어라인","tel":"031-846-7033","addr":"경기도 양주시 덕정동 133-37번지 1층 1호","indutype":"보건위생 - 미용원","category":"beauty"}]},{"lat":"37.838839601","long":"127.06376192","imageIndex":13,"items":[{"name":"오땡큐","tel":"","addr":"경기도 양주시 덕정동 220-1번지 명진빌라 B동 102호","indutype":"보건위생 - 미용원","category":"beauty"}]},{"lat":"37.845363132","long":"127.06234711","imageIndex":13,"items":[{"name":"오오안경","tel":"031-824-5630","addr":"경기도 양주시 덕정동 350-117번지","indutype":"보건위생 - 안경","category":"beauty"},{"name":"타로보따리","tel":"031-1111-1111","addr":"경기도 양주시 덕정동 350-117번지","indutype":"보건위생 - 기타대인서비스","category":"beauty"}]},{"lat":"37.844254624","long":"127.06303925","imageIndex":13,"items":[{"name":"오즈헤어","tel":"031-857-0121","addr":"경기도 양주시 덕정동 351-4번지 1층","indutype":"보건위생 - 미용원","category":"beauty"}]},{"lat":"37.84613839","long":"127.06145018","imageIndex":13,"items":[{"name":"유니베라 양주(신)대리점","tel":"031-859-3911","addr":"경기도 양주시 덕정동 350-24번지 3층","indutype":"보건위생 - 화장품","category":"beauty"}]},{"lat":"37.840254532","long":"127.06287696","imageIndex":13,"items":[{"name":"이미숙미용실","tel":"031-859-4769","addr":"경기도 양주시 덕정동 288번지 A동 1층","indutype":"보건위생 - 미용원","category":"beauty"}]},{"lat":"37.834586213","long":"127.06556461","imageIndex":13,"items":[{"name":"인아헤어팜","tel":"031-857-0097","addr":"경기도 양주시 덕정동 240-27번지 인아프라자 201호","indutype":"보건위생 - 미용원","category":"beauty"},{"name":"주식회사위바운스(webauz Inc.)","tel":"031-862-0606","addr":"경기도 양주시 덕정동 240-27번지 지하 B01호,02호","indutype":"보건위생 - 사우나","category":"beauty"},{"name":"하라주쿠헤어","tel":"031-861-5863","addr":"경기도 양주시 덕정동 240-27번지 인아프라자 118호","indutype":"보건위생 - 미용원","category":"beauty"},{"name":"헤어벨르","tel":"031-857-3532","addr":"경기도 양주시 덕정동 240-27번지 인아프라자 104호","indutype":"보건위생 - 미용원","category":"beauty"}]},{"lat":"37.844497304","long":"127.06415285","imageIndex":13,"items":[{"name":"조아헤어샵","tel":"031-859-0140","addr":"경기도 양주시 덕정동 128-12번지","indutype":"보건위생 - 미용원","category":"beauty"}]},{"lat":"37.843054597","long":"127.06642385","imageIndex":13,"items":[{"name":"케이샵헤어","tel":"031-862-3032","addr":"경기도 양주시 덕정동 146-49번지","indutype":"보건위생 - 미용원","category":"beauty"}]},{"lat":"37.844777567","long":"127.06225575","imageIndex":13,"items":[{"name":"쿨헤어","tel":"031-859-0078","addr":"경기도 양주시 덕정동 350-48번지","indutype":"보건위생 - 미용원","category":"beauty"}]},{"lat":"37.838668865","long":"127.06289839","imageIndex":13,"items":[{"name":"토마토","tel":"031-863-3588","addr":"경기도 양주시 덕정동 286-8번지","indutype":"보건위생 - 미용원","category":"beauty"}]},{"lat":"37.843335822","long":"127.06273176","imageIndex":13,"items":[{"name":"퓨어스킨","tel":"","addr":"경기도 양주시 덕정동 350-94번지 905호","indutype":"보건위생 - 화장품","category":"beauty"}]},{"lat":"37.844803754","long":"127.06390315","imageIndex":13,"items":[{"name":"한사랑산후도우미","tel":"02-3272-8661","addr":"경기도 양주시 덕정동 356-5번지","indutype":"보건위생 - 기타대인서비스","category":"beauty"}]},{"lat":"37.844227666","long":"127.0629029","imageIndex":13,"items":[{"name":"한생인","tel":"070-8501-0014","addr":"경기도 양주시 덕정동 351-5번지","indutype":"보건위생 - 피부미용실","category":"beauty"}]},{"lat":"37.846885971","long":"127.06184843","imageIndex":13,"items":[{"name":"함헤어","tel":"","addr":"경기도 양주시 덕정동 365-20번지","indutype":"보건위생 - 미용원","category":"beauty"}]},{"lat":"37.846976139","long":"127.0617008","imageIndex":13,"items":[{"name":"해와달피부샵","tel":"031-858-5008","addr":"경기도 양주시 덕정동 365-21번지 B동 2층","indutype":"보건위생 - 피부미용실","category":"beauty"}]},{"lat":"37.842666078","long":"127.06845712","imageIndex":13,"items":[{"name":"헤어 봄","tel":"031-866-5955","addr":"경기도 양주시 덕정동 536번지 일성트루엘 상가동 104호","indutype":"보건위생 - 미용원","category":"beauty"}]},{"lat":"37.847498134","long":"127.06279193","imageIndex":13,"items":[{"name":"헤어N","tel":"031-859-8220","addr":"경기도 양주시 덕정동 365-37번지 1층","indutype":"보건위생 - 미용원","category":"beauty"}]},{"lat":"37.836639064","long":"127.06795195","imageIndex":13,"items":[{"name":"헤어린","tel":"031-863-8638","addr":"경기도 양주시 덕정동 208-9번지 덕정파크프라자 1층 107호","indutype":"보건위생 - 미용원","category":"beauty"},{"name":"헤어벨팜므","tel":"031-859-0958","addr":"경기도 양주시 덕정동 208-9번지 덕정파크프라자 201호","indutype":"보건위생 - 미용원","category":"beauty"},{"name":"헤어벨팜므(체인본점)","tel":"031-859-0958","addr":"경기도 양주시 덕정동 208-9번지 파크프라자 201호","indutype":"보건위생 - 미용원","category":"beauty"}]},{"lat":"37.837840236","long":"127.06243196","imageIndex":13,"items":[{"name":"헤어살롱나루 양주점","tel":"031-858-3233","addr":"경기도 양주시 덕정동 223-32번지 2층","indutype":"보건위생 - 미용원","category":"beauty"}]},{"lat":"37.844362836","long":"127.0628462","imageIndex":13,"items":[{"name":"헤어짱","tel":"070-8124-2403","addr":"경기도 양주시 덕정동 352-7번지","indutype":"보건위생 - 미용원","category":"beauty"}]},{"lat":"37.843227308","long":"127.06351558","imageIndex":13,"items":[{"name":"헤어코코","tel":"","addr":"경기도 양주시 덕정동 134-8번지","indutype":"보건위생 - 미용원","category":"beauty"}]},{"lat":"37.8442003","long":"127.06356182","imageIndex":13,"items":[{"name":"현대미용실","tel":"031-859-2922","addr":"경기도 양주시 덕정동 131-10번지","indutype":"보건위생 - 미용원","category":"beauty"}]},{"lat":"37.84428205","long":"127.06225536","imageIndex":13,"items":[{"name":"힐스템건강덕정센타","tel":"070-8745-8457","addr":"경기도 양주시 덕정동 350-9번지 2층 203호","indutype":"보건위생 - 의료용품","category":"beauty"}]}]