[{"lat":"37.815509362","long":"127.07248746","imageIndex":0,"items":[{"name":"(주)인텍","tel":"031-866-9424","addr":"경기도 양주시 고암동 459번지","indutype":"자동차판매 - 기타운송","category":"car"},{"name":"(주)인텍","tel":"031-866-9424","addr":"경기도 양주시 고암동 459번지","indutype":"자동차판매 - 기타운송","category":"car"}]},{"lat":"37.813255087","long":"127.07565378","imageIndex":0,"items":[{"name":"금강자동차공업사","tel":"031-859-4553","addr":"경기도 양주시 고암동 391-10번지","indutype":"자동차정비 유지 - 자동차정비","category":"car"}]},{"lat":"37.822861261","long":"127.07215362","imageIndex":0,"items":[{"name":"동일공업사","tel":"031-859-4300","addr":"경기도 양주시 고암동 324-15번지","indutype":"자동차정비 유지 - 자동차정비","category":"car"}]},{"lat":"37.832364711","long":"127.0746502","imageIndex":0,"items":[{"name":"모터리 (MOTOR. LEE)","tel":"031-111-1111","addr":"경기도 양주시 고암동 586번지","indutype":"자동차정비 유지 - 자동차부품","category":"car"}]},{"lat":"37.831168925","long":"127.07048023","imageIndex":0,"items":[{"name":"오토크리닉","tel":"031-859-4544","addr":"경기도 양주시 고암동 150-2번지","indutype":"자동차정비 유지 - 자동차정비","category":"car"}]},{"lat":"37.816475716","long":"127.06839988","imageIndex":0,"items":[{"name":"주식회사 비엔씨모터스","tel":"031-859-5254","addr":"경기도 양주시 고암동 493-119번지","indutype":"자동차정비 유지 - 자동차정비","category":"car"}]},{"lat":"37.82683759","long":"127.06653489","imageIndex":0,"items":[{"name":"푸른카정비공업사","tel":"031-857-6996","addr":"경기도 양주시 고암동 545","indutype":"자동차정비 유지 - 자동차정비","category":"car"}]},{"lat":"37.825034696","long":"127.06837337","imageIndex":0,"items":[{"name":"휠판다","tel":"031-000-0000","addr":"경기도 양주시 고암동 524-9번지","indutype":"자동차정비 유지 - 자동차시트·타이어","category":"car"}]}]