[{"lat":"37.574898767","long":"127.11784902","imageIndex":4,"items":[{"name":"다화담","tel":"031-212-9080","addr":"경기도 구리시 아천동 353-28번지 1층","indutype":"일반휴게음식 - 서양음식","category":"restaurant"}]},{"lat":"37.569901156","long":"127.11489831","imageIndex":4,"items":[{"name":"동산식당","tel":"02-452-7463","addr":"경기도 구리시 아천동 252-3,가,나동","indutype":"일반휴게음식 - 일반한식","category":"restaurant"}]},{"lat":"37.559874809","long":"127.11320826","imageIndex":4,"items":[{"name":"드림카페","tel":"02-456-9876","addr":"경기도 구리시 아천동 310-1번지","indutype":"일반휴게음식 - 일반한식","category":"restaurant"}]},{"lat":"37.57320141","long":"127.12140085","imageIndex":4,"items":[{"name":"마니스(Mani's)","tel":"031-555-1513","addr":"경기도 구리시 아천동 149-24번지","indutype":"일반휴게음식 - 서양음식","category":"restaurant"}]},{"lat":"37.561595144","long":"127.11378802","imageIndex":4,"items":[{"name":"모던기와","tel":"02-2049-0118","addr":"경기도 구리시 아천동 315-2번지","indutype":"일반휴게음식 - 서양음식","category":"restaurant"}]},{"lat":"37.562288271","long":"127.11445682","imageIndex":4,"items":[{"name":"묵고을 다람쥐","tel":"02-456-4955","addr":"경기도 구리시 아천동 313번지 1층","indutype":"일반휴게음식 - 일반한식","category":"restaurant"}]},{"lat":"37.56359448","long":"127.11468514","imageIndex":4,"items":[{"name":"아차산로59","tel":"02-444-1957","addr":"경기도 구리시 아천동 300-11번지 1층","indutype":"일반휴게음식 - 서양음식","category":"restaurant"}]},{"lat":"37.562262644","long":"127.11296278","imageIndex":4,"items":[{"name":"아펜즈","tel":"02-455-8405","addr":"경기도 구리시 아천동 316-9번지 4층","indutype":"일반휴게음식 - 서양음식","category":"restaurant"},{"name":"화반","tel":"","addr":"경기도 구리시 아천동 316-9번지 2호","indutype":"일반휴게음식 - 일반한식","category":"restaurant"}]},{"lat":"37.573344643","long":"127.12231798","imageIndex":4,"items":[{"name":"양평해장국","tel":"031-562-9145","addr":"경기도 구리시 아천동 145-6번지","indutype":"일반휴게음식 - 일반한식","category":"restaurant"}]},{"lat":"37.573480828","long":"127.12128809","imageIndex":4,"items":[{"name":"오또상","tel":"031-565-2814","addr":"경기도 구리시 아천동 149-30번지 아치울멤버스프라자 101호","indutype":"일반휴게음식 - 주점","category":"restaurant"}]},{"lat":"37.563423294","long":"127.11468488","imageIndex":4,"items":[{"name":"우미관","tel":"02-447-2848","addr":"경기도 구리시 아천동 300-10번지","indutype":"일반휴게음식 - 일반한식","category":"restaurant"}]},{"lat":"37.561840347","long":"127.11170585","imageIndex":4,"items":[{"name":"카페마당","tel":"031-1111-1111","addr":"경기도 구리시 아천동 316-36번지 가동 1층","indutype":"일반휴게음식 - 서양음식","category":"restaurant"}]},{"lat":"37.573844918","long":"127.11754176","imageIndex":4,"items":[{"name":"퀸베리","tel":"031-304-7007","addr":"경기도 구리시 아천동 346-10번지 1층","indutype":"일반휴게음식 - 서양음식","category":"restaurant"}]}]