[{"lat":"37.260405391","long":"127.2141244","imageIndex":13,"items":[{"name":"Y헤어","tel":"031-322-5505","addr":"경기도 용인시 처인구 유방동 248-5번지 1층","indutype":"보건위생 - 미용원","category":"beauty"}]},{"lat":"37.264601799","long":"127.21545511","imageIndex":13,"items":[{"name":"가든","tel":"031-339-0235","addr":"경기도 용인시 처인구 유방동 1007-20번지 인정레포츠센타 213호","indutype":"보건위생 - 미용원","category":"beauty"},{"name":"쁘띠젤","tel":"070-5022-4846","addr":"경기도 용인시 처인구 유방동 1007-20번지 인정레포트센터 1층 126호","indutype":"보건위생 - 피부미용실","category":"beauty"},{"name":"수","tel":"070-8183-1120","addr":"경기도 용인시 처인구 유방동 1007-20번지 인정레포츠센타 201호","indutype":"보건위생 - 화장품","category":"beauty"},{"name":"인정문구.잡화","tel":"031-336-4233","addr":"경기도 용인시 처인구 유방동 1007-20번지 인정프린스 상가 103호","indutype":"보건위생 - 화장품","category":"beauty"},{"name":"인정미용실","tel":"031-321-5344","addr":"경기도 용인시 처인구 유방동 1007-20번지","indutype":"보건위생 - 미용원","category":"beauty"}]},{"lat":"37.258938347","long":"127.21320721","imageIndex":13,"items":[{"name":"그린헤어샵","tel":"031-321-0932","addr":"경기도 용인시 처인구 유방동 310-1번지 용마태권도 106호","indutype":"보건위생 - 미용원","category":"beauty"}]},{"lat":"37.260294482","long":"127.21567974","imageIndex":13,"items":[{"name":"나비헤어라인","tel":"031-336-9389","addr":"경기도 용인시 처인구 유방동 286-4번지 서인빌라트 101호","indutype":"보건위생 - 미용원","category":"beauty"}]},{"lat":"37.257857698","long":"127.21287731","imageIndex":13,"items":[{"name":"널만나기전45분","tel":"031-322-0730","addr":"경기도 용인시 처인구 유방동 328-2번지 B 110호","indutype":"보건위생 - 미용원","category":"beauty"},{"name":"다요트","tel":"031-336-6366","addr":"경기도 용인시 처인구 유방동 328-2번지 비앤비프라자 110호","indutype":"보건위생 - 화장품","category":"beauty"},{"name":"미르헤어(Mirhair)","tel":"031-335-5007","addr":"경기도 용인시 처인구 유방동 328-2번지 외5필지비앤비프라자 121호","indutype":"보건위생 - 미용원","category":"beauty"},{"name":"미스터헤어클럽","tel":"031-336-6237","addr":"경기도 용인시 처인구 유방동 328-2번지 외5필지비앤비프라자 115호","indutype":"보건위생 - 미용원","category":"beauty"},{"name":"에스인뷰티(sinbeauty)","tel":"070-7018-5392","addr":"경기도 용인시 처인구 유방동 328-2번지 1층","indutype":"보건위생 - 피부미용실","category":"beauty"},{"name":"유림불가마사우나","tel":"031-338-1314","addr":"경기도 용인시 처인구 유방동 328-2번지 외5필지 지하1층","indutype":"보건위생 - 사우나","category":"beauty"},{"name":"전선생안경","tel":"031-321-2757","addr":"경기도 용인시 처인구 유방동 328-2번지 비앤비프라자 102호","indutype":"보건위생 - 안경","category":"beauty"}]},{"lat":"37.258273407","long":"127.21217956","imageIndex":13,"items":[{"name":"노메이크업","tel":"031-338-0568","addr":"경기도 용인시 처인구 유방동 346번지 고려타워 2층","indutype":"보건위생 - 미용원","category":"beauty"}]},{"lat":"37.258739541","long":"127.21353357","imageIndex":13,"items":[{"name":"닥터큐","tel":"031-338-0568","addr":"경기도 용인시 처인구 유방동 311-12번지 미래센스빌 5동 102호","indutype":"보건위생 - 화장품","category":"beauty"},{"name":"퀸수연에스테틱","tel":"031-333-9691","addr":"경기도 용인시 처인구 유방동 311-12번지 미래센스빌 5동 102호","indutype":"보건위생 - 피부미용실","category":"beauty"}]},{"lat":"37.259217063","long":"127.21354617","imageIndex":13,"items":[{"name":"드림헤어살롱","tel":"031-335-2685","addr":"경기도 용인시 처인구 유방동 307-9번지 우미빌딩","indutype":"보건위생 - 미용원","category":"beauty"}]},{"lat":"37.258910133","long":"127.21387222","imageIndex":13,"items":[{"name":"럭키미용타운","tel":"031-338-4244","addr":"경기도 용인시 처인구 유방동 312-3번지","indutype":"보건위생 - 미용원","category":"beauty"}]},{"lat":"37.259162319","long":"127.21392929","imageIndex":13,"items":[{"name":"미미네일샵","tel":"070-4388-2801","addr":"경기도 용인시 처인구 유방동 306-11번지 1층","indutype":"보건위생 - 피부미용실","category":"beauty"}]},{"lat":"37.259938544","long":"127.21317618","imageIndex":13,"items":[{"name":"봄날헤어","tel":"031-332-5599","addr":"경기도 용인시 처인구 유방동 308-1번지 한일빌딩 1층","indutype":"보건위생 - 미용원","category":"beauty"}]},{"lat":"37.257822835","long":"127.21221214","imageIndex":13,"items":[{"name":"뷰타이","tel":"031-333-1221","addr":"경기도 용인시 처인구 유방동 346-4번지 3층","indutype":"보건위생 - 미용재료","category":"beauty"}]},{"lat":"37.259987478","long":"127.18934561","imageIndex":13,"items":[{"name":"비엘바이오 주식회사","tel":"031-321-5051","addr":"경기도 용인시 처인구 유방동 860-4번지 ,1.3층","indutype":"보건위생 - 의료용품","category":"beauty"}]},{"lat":"37.258908402","long":"127.21484166","imageIndex":13,"items":[{"name":"샵아이엔지헤어","tel":"031-338-5724","addr":"경기도 용인시 처인구 유방동 315-1번지 수정빌딩","indutype":"보건위생 - 미용원","category":"beauty"}]},{"lat":"37.261962949","long":"127.19912425","imageIndex":13,"items":[{"name":"수리사","tel":"031-334-8557","addr":"경기도 용인시 처인구 유방동 670번지","indutype":"보건위생 - 기타대인서비스","category":"beauty"}]},{"lat":"37.258516982","long":"127.21201115","imageIndex":13,"items":[{"name":"아모레 카운셀러","tel":"031-322-8140","addr":"경기도 용인시 처인구 유방동 345번지 3층","indutype":"보건위생 - 화장품","category":"beauty"},{"name":"아모레 카운셀러","tel":"031-322-8140","addr":"경기도 용인시 처인구 유방동 345번지 3층","indutype":"보건위생 - 화장품","category":"beauty"},{"name":"아모레카운셀러","tel":"031-281-8139","addr":"경기도 용인시 처인구 유방동 345번지 3층","indutype":"보건위생 - 화장품","category":"beauty"},{"name":"아모레카운셀러","tel":"031-322-8141","addr":"경기도 용인시 처인구 유방동 345번지 3층","indutype":"보건위생 - 화장품","category":"beauty"},{"name":"아모레카운셀러","tel":"031-322-8141","addr":"경기도 용인시 처인구 유방동 345번지 3층","indutype":"보건위생 - 화장품","category":"beauty"},{"name":"아모레카운셀러","tel":"031-322-8140","addr":"경기도 용인시 처인구 유방동 345번지 3층","indutype":"보건위생 - 화장품","category":"beauty"},{"name":"아모레카운셀러","tel":"031-322-8140","addr":"경기도 용인시 처인구 유방동 345번지 2층","indutype":"보건위생 - 화장품","category":"beauty"},{"name":"아모레카운셀러","tel":"031-322-8140","addr":"경기도 용인시 처인구 유방동 345번지 3층","indutype":"보건위생 - 화장품","category":"beauty"},{"name":"아모레카운셀러","tel":"031-322-8140","addr":"경기도 용인시 처인구 유방동 345번지 3층","indutype":"보건위생 - 화장품","category":"beauty"},{"name":"아모레카운셀러","tel":"031-322-8140","addr":"경기도 용인시 처인구 유방동 345번지 3층","indutype":"보건위생 - 화장품","category":"beauty"},{"name":"아모레카운셀러","tel":"031-322-8140","addr":"경기도 용인시 처인구 유방동 345번지 3층","indutype":"보건위생 - 화장품","category":"beauty"},{"name":"아모레카운셀러","tel":"031-322-8140","addr":"경기도 용인시 처인구 유방동 345번지 3층","indutype":"보건위생 - 화장품","category":"beauty"},{"name":"아모레카운셀러","tel":"031-322-8140","addr":"경기도 용인시 처인구 유방동 345번지 3층","indutype":"보건위생 - 화장품","category":"beauty"},{"name":"아모레카운셀러/이보영","tel":"031-322-8141","addr":"경기도 용인시 처인구 유방동 345번지","indutype":"보건위생 - 화장품","category":"beauty"}]},{"lat":"37.242939841","long":"127.21106649","imageIndex":13,"items":[{"name":"아모스 용인점","tel":"070-4211-8577","addr":"경기도 용인시 처인구 유방동 536-7번지 2층","indutype":"보건위생 - 화장품","category":"beauty"}]},{"lat":"37.261105748","long":"127.21549038","imageIndex":13,"items":[{"name":"에제르","tel":"","addr":"경기도 용인시 처인구 유방동 237번지 1층 106호","indutype":"보건위생 - 화장품","category":"beauty"}]},{"lat":"37.249442045","long":"127.21289904","imageIndex":13,"items":[{"name":"영삼이네대리운전","tel":"031-321-4972","addr":"경기도 용인시 처인구 유방동 449-1용호빌딩3층3","indutype":"보건위생 - 기타대인서비스","category":"beauty"}]},{"lat":"37.257990686","long":"127.21409511","imageIndex":13,"items":[{"name":"임현미헤어코디","tel":"031-338-7300","addr":"경기도 용인시 처인구 유방동 325-4번지","indutype":"보건위생 - 미용원","category":"beauty"}]},{"lat":"37.259938924","long":"127.21296199","imageIndex":13,"items":[{"name":"코코헤어","tel":"031-333-6767","addr":"경기도 용인시 처인구 유방동 309-1번지 대성빌딩 1층 102호","indutype":"보건위생 - 미용원","category":"beauty"}]},{"lat":"37.258740662","long":"127.2129023","imageIndex":13,"items":[{"name":"킹스맨","tel":"031-339-1800","addr":"경기도 용인시 처인구 유방동 310-10번지","indutype":"보건위생 - 미용원","category":"beauty"}]},{"lat":"37.260135485","long":"127.21389819","imageIndex":13,"items":[{"name":"파마미용실","tel":"031-339-5510","addr":"경기도 용인시 처인구 유방동 246-3번지 1층","indutype":"보건위생 - 미용원","category":"beauty"}]},{"lat":"37.257965341","long":"127.21314815","imageIndex":13,"items":[{"name":"함스맘헤어","tel":"031-332-7376","addr":"경기도 용인시 처인구 유방동 328-1번지 1층 일부","indutype":"보건위생 - 미용원","category":"beauty"}]},{"lat":"37.260036292","long":"127.213943","imageIndex":13,"items":[{"name":"헤어쭌","tel":"031-321-6573","addr":"경기도 용인시 처인구 유방동 306-1번지 장미빌라 A동 B01호","indutype":"보건위생 - 미용원","category":"beauty"}]},{"lat":"37.259354835","long":"127.21206983","imageIndex":13,"items":[{"name":"헤어클릭","tel":"031-323-2350","addr":"경기도 용인시 처인구 유방동 344-1번지 외3필지 C동 1층","indutype":"보건위생 - 미용원","category":"beauty"}]},{"lat":"37.267078699","long":"127.20571019","imageIndex":13,"items":[{"name":"휴먼콜센타","tel":"","addr":"경기도 용인시 처인구 유방동 25-15번지","indutype":"보건위생 - 기타대인서비스","category":"beauty"}]}]