[{"lat":"37.81847823","long":"127.09214957","imageIndex":8,"items":[{"name":"강남베스트내과 양주점","tel":"031-862-5700","addr":"경기도 양주시 옥정동 963-14번지 센타프라자 5층 502ㅡ2호 503호","indutype":"의원 - 의원","category":"medical"},{"name":"드림365소아청소년과의원","tel":"031-863-9090","addr":"경기도 양주시 옥정동 963-14번지 6층 606호","indutype":"의원 - 의원","category":"medical"},{"name":"연세센터원치과","tel":"031-861-2119","addr":"경기도 양주시 옥정동 963-14번지 쎈타프라자 501호,502호 일부","indutype":"의원 - 치과의원","category":"medical"},{"name":"오체안피부과의원","tel":"031-857-7558","addr":"경기도 양주시 옥정동 963-14번지 504호,505호","indutype":"의원 - 의원","category":"medical"},{"name":"옥정제일약국","tel":"031-861-8868","addr":"경기도 양주시 옥정동 963-14번지 센타프라자 1층 106호, 107호","indutype":"약국 - 약국","category":"medical"}]},{"lat":"37.81978464","long":"127.09209435","imageIndex":8,"items":[{"name":"경희 선 한의원","tel":"031-928-5637","addr":"경기도 양주시 옥정동 963-10번지 한길프라자 3층 305~307호","indutype":"의원 - 한의원","category":"medical"}]},{"lat":"37.818892707","long":"127.09209328","imageIndex":8,"items":[{"name":"고운맘소아청소년과의원","tel":"031-894-7582","addr":"경기도 양주시 옥정동 963-13번지 파스텔시티 401호,402호일부","indutype":"의원 - 의원","category":"medical"},{"name":"다모아약국","tel":"031-886-4450","addr":"경기도 양주시 옥정동 963-13번지 111호","indutype":"약국 - 약국","category":"medical"},{"name":"더감동의원","tel":"031-866-6002","addr":"경기도 양주시 옥정동 963-13번지 5층 504호","indutype":"의원 - 의원","category":"medical"},{"name":"양주두리이비인후과의원","tel":"031-868-8766","addr":"경기도 양주시 옥정동 963-13번지 파스텔시티 604호","indutype":"의원 - 의원","category":"medical"},{"name":"양주숲정신건강의학과의원","tel":"","addr":"경기도 양주시 옥정동 963-13번지 501호","indutype":"의원 - 의원","category":"medical"},{"name":"옥정아트치과의원","tel":"031-868-2879","addr":"경기도 양주시 옥정동 963-13번지 5층 502,503호","indutype":"의원 - 치과의원","category":"medical"},{"name":"주가람 내과의원","tel":"031-867-8670","addr":"경기도 양주시 옥정동 963-13번지 파스텔시티 4층 403호","indutype":"의원 - 의원","category":"medical"}]},{"lat":"37.818450761","long":"127.09272875","imageIndex":8,"items":[{"name":"늘편한신경내과","tel":"031-858-7321","addr":"경기도 양주시 옥정동 963-15번지 503호","indutype":"의원 - 의원","category":"medical"},{"name":"더맑은내과","tel":"031-862-1311","addr":"경기도 양주시 옥정동 963-15번지 6층 601-602호","indutype":"의원 - 의원","category":"medical"},{"name":"열린이비인후과","tel":"031-867-2227","addr":"경기도 양주시 옥정동 963-15번지 양주M타워 402호","indutype":"의원 - 의원","category":"medical"},{"name":"옥정태평양약국","tel":"031-865-5855","addr":"경기도 양주시 옥정동 963-15번지 엠타워 112호","indutype":"약국 - 약국","category":"medical"},{"name":"화이트라인치과","tel":"031-865-7700","addr":"경기도 양주시 옥정동 963-15번지 301,302호","indutype":"의원 - 치과의원","category":"medical"}]},{"lat":"37.820919828","long":"127.09209572","imageIndex":8,"items":[{"name":"다봄안과의원","tel":"031-868-7585","addr":"경기도 양주시 옥정동 963-6번지 4층 403호","indutype":"의원 - 의원","category":"medical"},{"name":"옥정공감치과","tel":"031-859-3100","addr":"경기도 양주시 옥정동 963-6번지 302호","indutype":"의원 - 치과의원","category":"medical"}]},{"lat":"37.81847683","long":"127.09397808","imageIndex":8,"items":[{"name":"더라이프치과의원","tel":"031-866-2275","addr":"경기도 양주시 옥정동 963-18번지 한덕타워 302호","indutype":"의원 - 치과의원","category":"medical"},{"name":"로뎀성모안과의원","tel":"031-858-8000","addr":"경기도 양주시 옥정동 963-18번지 4층 402호","indutype":"의원 - 의원","category":"medical"},{"name":"바른본정형외과","tel":"031-866-5544","addr":"경기도 양주시 옥정동 963-18번지 한덕타워 5층 502호","indutype":"의원 - 의원","category":"medical"},{"name":"서울바른의원","tel":"","addr":"경기도 양주시 옥정동 963-18번지 5층 501호","indutype":"의원 - 의원","category":"medical"},{"name":"서울바른의원","tel":"","addr":"경기도 양주시 옥정동 963-18번지 5층 501호","indutype":"의원 - 의원","category":"medical"},{"name":"참약국","tel":"031-857-8421","addr":"경기도 양주시 옥정동 963-18번지 1층 115호","indutype":"약국 - 약국","category":"medical"}]},{"lat":"37.815281278","long":"127.09028322","imageIndex":8,"items":[{"name":"반창꼬동물병원","tel":"031-858-2918","addr":"경기도 양주시 옥정동 1049-1번지","indutype":"기타의료기관 - 동물병원","category":"medical"}]},{"lat":"37.821307234","long":"127.09209619","imageIndex":8,"items":[{"name":"서울수려한치과","tel":"031-928-5098","addr":"경기도 양주시 옥정동 963-4번지 402호, 403호","indutype":"의원 - 치과의원","category":"medical"},{"name":"옥정온누리약국","tel":"031-868-7939","addr":"경기도 양주시 옥정동 963-4번지 108호","indutype":"약국 - 약국","category":"medical"}]},{"lat":"37.831338302","long":"127.09900328","imageIndex":8,"items":[{"name":"서울연합소아청소년과의원","tel":"031-857-8474","addr":"경기도 양주시 옥정동 1032-1번지 3층 302호","indutype":"의원 - 의원","category":"medical"},{"name":"옥정약국","tel":"031-866-5136","addr":"경기도 양주시 옥정동 1032-1번지 1동 1층 105호","indutype":"약국 - 약국","category":"medical"},{"name":"정담은한의원","tel":"031-862-5551","addr":"경기도 양주시 옥정동 1032-1번지 1동 3층 303호","indutype":"의원 - 한의원","category":"medical"},{"name":"화인치과의원","tel":"031-862-2879","addr":"경기도 양주시 옥정동 1032-1번지 3층 301호","indutype":"의원 - 치과의원","category":"medical"}]},{"lat":"37.814786061","long":"127.08987379","imageIndex":8,"items":[{"name":"양주평화의원","tel":"031-866-2084","addr":"경기도 양주시 옥정동 1049-3번지 3층 303호","indutype":"의원 - 의원","category":"medical"},{"name":"튼튼약국","tel":"031-871-2188","addr":"경기도 양주시 옥정동 1049-3번지 105호","indutype":"약국 - 약국","category":"medical"}]},{"lat":"37.820613508","long":"127.09209535","imageIndex":8,"items":[{"name":"연세쉼표치과","tel":"031-857-9069","addr":"경기도 양주시 옥정동 963-7번지 5층 501-1호","indutype":"의원 - 치과의원","category":"medical"}]},{"lat":"37.814533981","long":"127.08962365","imageIndex":8,"items":[{"name":"옥정든든치과의원","tel":"031-526-7528","addr":"경기도 양주시 옥정동 1049-4번지 다올스퀘어빌딩 제1동2층202,204호","indutype":"의원 - 치과의원","category":"medical"}]}]