[{"lat":"37.759992445","long":"127.54096911","imageIndex":5,"items":[{"name":"(주)남이섬카타마린리조트","tel":"031-582-3199","addr":"경기도 가평군 가평읍 금대리 49-14번지","indutype":"숙박업 - 콘도","category":"hotel"},{"name":"NJ레저","tel":"031-581-3245","addr":"경기도 가평군 가평읍 금대리 49-14번지","indutype":"숙박업 - 여관/기타숙박업","category":"hotel"},{"name":"레드존+","tel":"","addr":"경기도 가평군 가평읍 금대리 49-14번지 (주)남이섬카타마린리조트 C동 2층 203호","indutype":"숙박업 - 여관/기타숙박업","category":"hotel"}]},{"lat":"37.755440495","long":"127.53947232","imageIndex":5,"items":[{"name":"(주)스타라인(이뜨랜리조트)","tel":"031-581-0600","addr":"경기도 가평군 가평읍 금대리 128-3번지","indutype":"숙박업 - 여관/기타숙박업","category":"hotel"}]},{"lat":"37.747995476","long":"127.52818572","imageIndex":5,"items":[{"name":"가람슬기펜션","tel":"031-581-5862","addr":"경기도 가평군 가평읍 금대리 564-1번지 제3동 북한강변로 188,","indutype":"숙박업 - 여관/기타숙박업","category":"hotel"}]},{"lat":"37.769437458","long":"127.53830229","imageIndex":5,"items":[{"name":"가평애스파펜션","tel":"","addr":"경기도 가평군 가평읍 금대리 285번지 가,나,다,라 동","indutype":"숙박업 - 여관/기타숙박업","category":"hotel"}]},{"lat":"37.774435795","long":"127.53474027","imageIndex":5,"items":[{"name":"굿데이리조트","tel":"031-581-6446","addr":"경기도 가평군 가평읍 금대리 307-5","indutype":"숙박업 - 여관/기타숙박업","category":"hotel"}]},{"lat":"37.756325515","long":"127.53702764","imageIndex":5,"items":[{"name":"그라시아","tel":"031-582-7866","addr":"경기도 가평군 가평읍 금대리 139-13","indutype":"숙박업 - 여관/기타숙박업","category":"hotel"}]},{"lat":"37.750684822","long":"127.52105629","imageIndex":5,"items":[{"name":"그레이어스","tel":"031-111-1111","addr":"경기도 가평군 가평읍 금대리 842-2번지","indutype":"숙박업 - 여관/기타숙박업","category":"hotel"}]},{"lat":"37.760552461","long":"127.54065541","imageIndex":5,"items":[{"name":"남이섬북한강펜션","tel":"031-581-3199","addr":"경기도 가평군 가평읍 금대리 49-14번지 B동 103호 ((주)클럽카타마린)","indutype":"숙박업 - 여관/기타숙박업","category":"hotel"}]},{"lat":"37.770909655","long":"127.53749572","imageIndex":5,"items":[{"name":"도도","tel":"070-8808-9514","addr":"경기도 가평군 가평읍 금대리 294-3번지","indutype":"숙박업 - 여관/기타숙박업","category":"hotel"}]},{"lat":"37.768658132","long":"127.53929542","imageIndex":5,"items":[{"name":"라비타펜션","tel":"031-582-7337","addr":"경기도 가평군 가평읍 금대리 272-9","indutype":"숙박업 - 여관/기타숙박업","category":"hotel"}]},{"lat":"37.75713504","long":"127.539303","imageIndex":5,"items":[{"name":"물안개펜션","tel":"031-581-7461","addr":"경기도 가평군 가평읍 금대리 55-50번지","indutype":"숙박업 - 여관/기타숙박업","category":"hotel"}]},{"lat":"37.750490736","long":"127.52216692","imageIndex":5,"items":[{"name":"산들애","tel":"031-582-9111","addr":"경기도 가평군 가평읍 금대리 833-16번지","indutype":"숙박업 - 여관/기타숙박업","category":"hotel"}]},{"lat":"37.756046385","long":"127.53699159","imageIndex":5,"items":[{"name":"아쉬레펜션","tel":"031-582-6327","addr":"경기도 가평군 가평읍 금대리 139-14번지","indutype":"숙박업 - 여관/기타숙박업","category":"hotel"}]},{"lat":"37.768993122","long":"127.53893466","imageIndex":5,"items":[{"name":"엘린팬션","tel":"031-584-3227","addr":"경기도 가평군 가평읍 금대리 286-3","indutype":"숙박업 - 여관/기타숙박업","category":"hotel"}]},{"lat":"37.756517611","long":"127.54035386","imageIndex":5,"items":[{"name":"이시스리조트","tel":"031-000-0000","addr":"경기도 가평군 가평읍 금대리 56-18번지","indutype":"숙박업 - 여관/기타숙박업","category":"hotel"},{"name":"이시스리조트","tel":"031-000-0000","addr":"경기도 가평군 가평읍 금대리 56-18번지","indutype":"숙박업 - 여관/기타숙박업","category":"hotel"}]},{"lat":"37.756969361","long":"127.54007344","imageIndex":5,"items":[{"name":"플로리안","tel":"031-582-4755","addr":"경기도 가평군 가평읍 금대리 56-11번지","indutype":"숙박업 - 여관/기타숙박업","category":"hotel"}]},{"lat":"37.763800767","long":"127.54155278","imageIndex":5,"items":[{"name":"한길개발(클럽인너호텔앤리조트)","tel":"031-581-2270","addr":"경기도 가평군 가평읍 금대리 23-3번지","indutype":"숙박업 - 여관/기타숙박업","category":"hotel"}]},{"lat":"37.757019586","long":"127.54091353","imageIndex":5,"items":[{"name":"해밀펜션","tel":"031-582-4638","addr":"경기도 가평군 가평읍 금대리 56-22","indutype":"숙박업 - 여관/기타숙박업","category":"hotel"}]},{"lat":"37.75243875","long":"127.53585365","imageIndex":5,"items":[{"name":"향기로운추억펜션","tel":"031-581-0827","addr":"경기도 가평군 가평읍 금대리 84-1번지","indutype":"숙박업 - 여관/기타숙박업","category":"hotel"}]}]