[{"lat":"37.490111496","long":"127.49270173","imageIndex":5,"items":[{"name":"금강장여관","tel":"031-772-2079","addr":"경기도 양평군 양평읍 양근리 167-26번지 2,3층","indutype":"숙박업 - 여관/기타숙박업","category":"hotel"}]},{"lat":"37.490719308","long":"127.49169935","imageIndex":5,"items":[{"name":"대구여관","tel":"031-773-5767","addr":"경기도 양평군 양평읍 양근리 409-1번지","indutype":"숙박업 - 여관/기타숙박업","category":"hotel"},{"name":"대구여관","tel":"031-773-5767","addr":"경기도 양평군 양평읍 양근리 409-1번지","indutype":"숙박업 - 여관/기타숙박업","category":"hotel"}]},{"lat":"37.491193414","long":"127.49034556","imageIndex":5,"items":[{"name":"모텔리움","tel":"031-771-3837","addr":"경기도 양평군 양평읍 양근리 404-10번지","indutype":"숙박업 - 여관/기타숙박업","category":"hotel"}]},{"lat":"37.490221914","long":"127.49647906","imageIndex":5,"items":[{"name":"뮤즈모텔","tel":"031-771-3393","addr":"경기도 양평군 양평읍 양근리 183-4번지","indutype":"숙박업 - 여관/기타숙박업","category":"hotel"}]},{"lat":"37.489497767","long":"127.48859324","imageIndex":5,"items":[{"name":"삼우파크","tel":"031-771-7470","addr":"경기도 양평군 양평읍 양근리 333-2번지","indutype":"숙박업 - 여관/기타숙박업","category":"hotel"}]},{"lat":"37.490889138","long":"127.48984606","imageIndex":5,"items":[{"name":"새한장모텔","tel":"031-771-3248","addr":"경기도 양평군 양평읍 양근리 420-14번지","indutype":"숙박업 - 여관/기타숙박업","category":"hotel"}]},{"lat":"37.489331078","long":"127.49187122","imageIndex":5,"items":[{"name":"씨에프(CF)모텔","tel":"031-771-2667","addr":"경기도 양평군 양평읍 양근리 304-2번지","indutype":"숙박업 - 여관/기타숙박업","category":"hotel"}]},{"lat":"37.498273535","long":"127.4797051","imageIndex":5,"items":[{"name":"아일랜드","tel":"031-774-0226","addr":"경기도 양평군 양평읍 양근리 504-41번지","indutype":"숙박업 - 여관/기타숙박업","category":"hotel"}]},{"lat":"37.491638015","long":"127.48739721","imageIndex":5,"items":[{"name":"양평군청","tel":"031-770-2464","addr":"경기도 양평군 양평읍 양근리 448-8번지 양평군청","indutype":"숙박업 - 여관/기타숙박업","category":"hotel"}]},{"lat":"37.49027484","long":"127.49242012","imageIndex":5,"items":[{"name":"짱모텔","tel":"031-773-9393","addr":"경기도 양평군 양평읍 양근리 360-1번지","indutype":"숙박업 - 여관/기타숙박업","category":"hotel"},{"name":"짱모텔","tel":"031-773-9393","addr":"경기도 양평군 양평읍 양근리 360-1","indutype":"숙박업 - 여관/기타숙박업","category":"hotel"}]},{"lat":"37.49018933","long":"127.49131145","imageIndex":5,"items":[{"name":"청호여관","tel":"031-771-2803","addr":"경기도 양평군 양평읍 양근리 410-9","indutype":"숙박업 - 여관/기타숙박업","category":"hotel"}]},{"lat":"37.491165965","long":"127.49044715","imageIndex":5,"items":[{"name":"티파니모텔","tel":"031-771-9494","addr":"경기도 양평군 양평읍 양근리 404-9번지","indutype":"숙박업 - 여관/기타숙박업","category":"hotel"}]},{"lat":"37.490914256","long":"127.49030982","imageIndex":5,"items":[{"name":"파레스","tel":"031-772-3888","addr":"경기도 양평군 양평읍 양근리 421-3번지","indutype":"숙박업 - 여관/기타숙박업","category":"hotel"}]}]