[{"lat":"37.29165045","long":"126.98236812","imageIndex":16,"items":[{"name":"(관인)미라벨음악학원","tel":"031-297-2700","addr":"경기도 수원시 장안구 천천동 334-2번지 천천푸르지오 근린생활시설1상가 515,516,517호","indutype":"학원 - 예·체능계학원","category":"study"},{"name":"경희대천천한미태권도","tel":"031-292-5510","addr":"경기도 수원시 장안구 천천동 334-2번지","indutype":"학원 - 예·체능계학원","category":"study"},{"name":"공터영어 천천푸르지오학원","tel":"031-278-0802","addr":"경기도 수원시 장안구 천천동 334-2번지 천천푸르지오 그린생활시설-1 209,210호","indutype":"학원 - 외국어학원","category":"study"},{"name":"김채웅미술학원","tel":"031-256-3235","addr":"경기도 수원시 장안구 천천동 334-2번지 천천푸르지오근린생활시설 401동 402호","indutype":"학원 - 예·체능계학원","category":"study"},{"name":"뉴아마빌레음악학원","tel":"031-292-7275","addr":"경기도 수원시 장안구 천천동 334-2 천천푸르지오@단지내상가408호~410호","indutype":"학원 - 예·체능계학원","category":"study"},{"name":"다인수학교습소","tel":"031-293-1278","addr":"경기도 수원시 장안구 천천동 334-2번지 천천푸르지오 2층 219호","indutype":"학원 - 보습학원","category":"study"},{"name":"벨칸토성악교습소","tel":"070-7719-3323","addr":"경기도 수원시 장안구 천천동 334-2번지 천천푸르지오동문단지내상가 506","indutype":"학원 - 예·체능계학원","category":"study"},{"name":"이해법수학쎌파수학교습소","tel":"031-291-0943","addr":"경기도 수원시 장안구 천천동 334-2번지 천천푸르지오상가동문 414호","indutype":"회원제형태 - 학원","category":"study"},{"name":"이화음악학원","tel":"031-295-2890","addr":"경기도 수원시 장안구 천천동 334-2번지 천천푸르지오근린생활시설509~511호","indutype":"학원 - 예·체능계학원","category":"study"},{"name":"정천한솔수학학원","tel":"031-8004-5400","addr":"경기도 수원시 장안구 천천동 334-2번지 천천푸르지오상가501호~504호 501호","indutype":"회원제형태 - 학원","category":"study"},{"name":"천천디딤돌영재수학학원","tel":"031-292-8939","addr":"경기도 수원시 장안구 천천동 334-2번지 천천 푸르지오 406동 407호","indutype":"학원 - 보습학원","category":"study"},{"name":"천천클랑음악교습소","tel":"070-000-0000","addr":"경기도 수원시 장안구 천천동 334-2번지 천천푸르지오 3동 302층","indutype":"학원 - 예·체능계학원","category":"study"},{"name":"초중고수학전문한성환수학교습소","tel":"031-269-5596","addr":"경기도 수원시 장안구 천천동 334-2번지 천천푸르지오 308호","indutype":"회원제형태 - 학원","category":"study"},{"name":"토즈스터디센터 천천 독서실","tel":"031-227-2886","addr":"경기도 수원시 장안구 천천동 334-2번지 천천푸르지오 상가 3층 312호,313호,314호,318~320호","indutype":"학원 - 독서실","category":"study"},{"name":"프렌즈미술학원","tel":"031-296-5001","addr":"경기도 수원시 장안구 천천동 334-2대우푸르지오종합상가505.512.513","indutype":"학원 - 예·체능계학원","category":"study"}]},{"lat":"37.295398883","long":"126.98337085","imageIndex":16,"items":[{"name":"(주)제이프라임","tel":"031-271-5800","addr":"경기도 수원시 장안구 천천동 528-3번지 6층","indutype":"학원 - 보습학원","category":"study"},{"name":"강쌤학원","tel":"","addr":"경기도 수원시 장안구 천천동 528-3번지 대일프라자 8층 801호","indutype":"학원 - 보습학원","category":"study"},{"name":"고등제이프라임학원","tel":"031-271-5800","addr":"경기도 수원시 장안구 천천동 528-3번지 대일프라자 402호 일부, 403호, 404호","indutype":"학원 - 보습학원","category":"study"},{"name":"국가대표 점핑스쿨","tel":"031-268-0999","addr":"경기도 수원시 장안구 천천동 528-3번지 대일 405호","indutype":"학원 - 예·체능계학원","category":"study"},{"name":"남부타임즈,작은손피아노학원","tel":"031-256-0090","addr":"경기도 수원시 장안구 천천동 528-3번지 대일프라자 301호","indutype":"학원 - 예·체능계학원","category":"study"},{"name":"신나는해법중국어교습소","tel":"031-271-3338","addr":"경기도 수원시 장안구 천천동 528-3번지 703호 일부,703-1호","indutype":"학원 - 외국어학원","category":"study"},{"name":"아하천천베스트모네의정원미술학원","tel":"031-268-3033","addr":"경기도 수원시 장안구 천천동 528-3번지 대일프라자 504호","indutype":"학원 - 예·체능계학원","category":"study"},{"name":"올리고수학교습소","tel":"070-4829-2590","addr":"경기도 수원시 장안구 천천동 528-3번지 대일 702호","indutype":"학원 - 보습학원","category":"study"},{"name":"올어바웃스터디프리미엄독서실","tel":"070-4837-1761","addr":"경기도 수원시 장안구 천천동 528-3번지 501,502,503","indutype":"학원 - 독서실","category":"study"},{"name":"제이에스수학학원","tel":"031-269-4999","addr":"경기도 수원시 장안구 천천동 528-3번지 대일프라자 801호","indutype":"학원 - 보습학원","category":"study"},{"name":"조이에듀학원","tel":"031-269-8215","addr":"경기도 수원시 장안구 천천동 528-3번지 대일 304호","indutype":"학원 - 기타 교육기관","category":"study"},{"name":"지니실용음악학원","tel":"","addr":"경기도 수원시 장안구 천천동 528-3번지 7층 701호, 702호일부","indutype":"학원 - 예·체능계학원","category":"study"},{"name":"켈리세시간영수학원","tel":"031-271-7200","addr":"경기도 수원시 장안구 천천동 528-3 대일프라자 403호,402호 1/2","indutype":"회원제형태 - 학원","category":"study"},{"name":"피플미술학원","tel":"031-268-3610","addr":"경기도 수원시 장안구 천천동 528-3번지 대일 303호","indutype":"회원제형태 - 학원","category":"study"}]},{"lat":"37.301848128","long":"126.97330826","imageIndex":16,"items":[{"name":"(주)한길HRM","tel":"031-271-2033","addr":"경기도 수원시 장안구 천천동 558-5번지 부민프라자 4층","indutype":"학원 - 기타 교육기관","category":"study"}]},{"lat":"37.292767428","long":"126.98074383","imageIndex":16,"items":[{"name":"MotherEarth마더어스","tel":"000-000-0000","addr":"경기도 수원시 장안구 천천동 333번지 천천푸르지오 110동 25층 2호","indutype":"학원 - 기타 교육기관","category":"study"}]},{"lat":"37.304263917","long":"126.97784165","imageIndex":16,"items":[{"name":"경기체육고등학교","tel":"031-547-8600","addr":"경기도 수원시 장안구 천천동 30-1번지 경기체육고등학교","indutype":"학원 - 초중고교육기관","category":"study"},{"name":"경기체육중학교","tel":"031-547-8702","addr":"경기도 수원시 장안구 천천동 30-1번지 경기체육고등학교","indutype":"학원 - 초중고교육기관","category":"study"}]},{"lat":"37.297011497","long":"126.98208471","imageIndex":16,"items":[{"name":"경희대 백호태권도장","tel":"031-269-5115","addr":"경기도 수원시 장안구 천천동 524-2번지 천천동그린프라자 404호","indutype":"학원 - 예·체능계학원","category":"study"},{"name":"레볼리쉬어학원","tel":"031-269-0582","addr":"경기도 수원시 장안구 천천동 524-2번지 그린프라자 601호","indutype":"회원제형태 - 학원","category":"study"},{"name":"리나제이발레학원","tel":"031-254-4622","addr":"경기도 수원시 장안구 천천동 524-2번지 천천동그린프라자 5층 501호","indutype":"학원 - 예·체능계학원","category":"study"},{"name":"뮤직슐레학원","tel":"031-269-7004","addr":"경기도 수원시 장안구 천천동 524-2번지 천천동그린프라자 5층 503호","indutype":"학원 - 예·체능계학원","category":"study"},{"name":"잉글버거외국어학원","tel":"031-269-0509","addr":"경기도 수원시 장안구 천천동 524-2번지 천천동그린프라자 303호","indutype":"학원 - 외국어학원","category":"study"},{"name":"작은손피아노학원","tel":"031-256-0090","addr":"경기도 수원시 장안구 천천동 524-2번지 천천동그린프라자 603호","indutype":"학원 - 예·체능계학원","category":"study"},{"name":"창의사고수학학원","tel":"031-268-6284","addr":"경기도 수원시 장안구 천천동 524-2번지 천천동그린프라자 502호","indutype":"학원 - 보습학원","category":"study"},{"name":"평면공간미술학원","tel":"031-269-0072","addr":"경기도 수원시 장안구 천천동 524-2번지 천천동그린프라자 403호","indutype":"학원 - 예·체능계학원","category":"study"}]},{"lat":"37.295516057","long":"126.98361894","imageIndex":16,"items":[{"name":"경희대태권도체육관","tel":"031-269-4222","addr":"경기도 수원시 장안구 천천동 528-4번지 태영프자라 503호","indutype":"회원제형태 - 학원","category":"study"},{"name":"드림독서실","tel":"031-268-1223","addr":"경기도 수원시 장안구 천천동 528-4번지 701호 태영프자라701호~703호","indutype":"학원 - 독서실","category":"study"},{"name":"박학천큐브수학논술학원","tel":"031-269-6888","addr":"경기도 수원시 장안구 천천동 528-4번지 태영프자라 4층 403호","indutype":"학원 - 보습학원","category":"study"},{"name":"엠스토리셀파수학학원","tel":"031-271-1370","addr":"경기도 수원시 장안구 천천동 528-4번지 태영프라자 304호","indutype":"학원 - 보습학원","category":"study"},{"name":"오창영학원","tel":"031-867-7879","addr":"경기도 수원시 장안구 천천동 528-4번지 태영프라자 305호","indutype":"학원 - 보습학원","category":"study"},{"name":"유앤아이학원","tel":"031-253-0495","addr":"경기도 수원시 장안구 천천동 528-4번지 태영프라자 401호","indutype":"학원 - 보습학원","category":"study"},{"name":"이룸스터디코칭학원","tel":"031-269-4412","addr":"경기도 수원시 장안구 천천동 528-4번지 태영프라자 501호","indutype":"학원 - 보습학원","category":"study"},{"name":"이성식기타전문학원","tel":"031-269-9080","addr":"경기도 수원시 장안구 천천동 528-4번지 태영프자라 604호","indutype":"회원제형태 - 학원","category":"study"},{"name":"장안스즈키바이올린학원","tel":"031-269-1343","addr":"경기도 수원시 장안구 천천동 528-4번지 태영프라자 603호","indutype":"학원 - 예·체능계학원","category":"study"},{"name":"주식회사 에스바디워크필라테스 천천점","tel":"","addr":"경기도 수원시 장안구 천천동 528-4번지 태영프라자 501호","indutype":"학원 - 기타 교육기관","category":"study"},{"name":"줄리아음악학원","tel":"031-271-1059","addr":"경기도 수원시 장안구 천천동 528-4번지 태영프자라 504호","indutype":"학원 - 예·체능계학원","category":"study"},{"name":"지댄스","tel":"","addr":"경기도 수원시 장안구 천천동 528-4번지 태영프라자 501호","indutype":"학원 - 예·체능계학원","category":"study"},{"name":"천천창의수학학원","tel":"031-268-0641","addr":"경기도 수원시 장안구 천천동 528-4번지 대영프라자 305호","indutype":"학원 - 보습학원","category":"study"},{"name":"필즈수학학원","tel":"070-8842-8110","addr":"경기도 수원시 장안구 천천동 528-4번지 태영프라자 705호","indutype":"회원제형태 - 학원","category":"study"}]},{"lat":"37.297092635","long":"126.98234409","imageIndex":16,"items":[{"name":"공터영어천천학원","tel":"031-269-0705","addr":"경기도 수원시 장안구 천천동 524-3번지 로얄프라자 5층 504호","indutype":"학원 - 보습학원","category":"study"},{"name":"베스트해법영어학원","tel":"031-268-7905","addr":"경기도 수원시 장안구 천천동 524-3번지","indutype":"회원제형태 - 학원","category":"study"},{"name":"성균관스포츠클럽","tel":"031-269-3334","addr":"경기도 수원시 장안구 천천동 524-3번지 8층 804.805.806호","indutype":"학원 - 기타 교육기관","category":"study"},{"name":"위상수학학원","tel":"031-268-0929","addr":"경기도 수원시 장안구 천천동 524-3번지 로얄프라자 7층 703호","indutype":"학원 - 보습학원","category":"study"},{"name":"주식회사바퀴달린그림책(지점)","tel":"031-227-0826","addr":"경기도 수원시 장안구 천천동 524-3번지 로얄프라자 706호","indutype":"회원제형태 - 학원","category":"study"},{"name":"하바키델리어학원","tel":"031-256-6989","addr":"경기도 수원시 장안구 천천동 524-3번지 로얄프라자 6층","indutype":"학원 - 외국어학원","category":"study"}]},{"lat":"37.29948","long":"126.98042606","imageIndex":16,"items":[{"name":"기타스토리음악교습소","tel":"031-258-5679","addr":"경기도 수원시 장안구 천천동 508-10번지 1층 일부","indutype":"학원 - 예·체능계학원","category":"study"}]},{"lat":"37.297028492","long":"126.97689666","imageIndex":16,"items":[{"name":"꼬부리어린이집[아이행복]","tel":"031-297-9876","addr":"경기도 수원시 장안구 천천동 544번지 천천삼성래미안 102동 101호","indutype":"학원 - 유아원","category":"study"}]},{"lat":"37.299236775","long":"126.98069682","imageIndex":16,"items":[{"name":"꾸미들미술교습소","tel":"031-269-9317","addr":"경기도 수원시 장안구 천천동 508-7번지","indutype":"학원 - 예·체능계학원","category":"study"}]},{"lat":"37.288928575","long":"126.97828654","imageIndex":16,"items":[{"name":"네버랜드어린이집[아이행복]","tel":"031-292-1110","addr":"경기도 수원시 장안구 천천동 366-9번지","indutype":"학원 - 유아원","category":"study"}]},{"lat":"37.296119642","long":"126.98300977","imageIndex":16,"items":[{"name":"뉴프린스턴학원","tel":"031-269-4871","addr":"경기도 수원시 장안구 천천동 527-7번지 센타프라자 801호","indutype":"학원 - 보습학원","category":"study"},{"name":"박지훈바둑학원","tel":"031-251-1555","addr":"경기도 수원시 장안구 천천동 527-7번지 센타프라자 802호","indutype":"학원 - 기타 교육기관","category":"study"},{"name":"빅터영어교습소","tel":"031-000-0000","addr":"경기도 수원시 장안구 천천동 527-7번지 센타프라자 9층 902호","indutype":"학원 - 외국어학원","category":"study"},{"name":"아담리즈수학천천점","tel":"031-248-6775","addr":"경기도 수원시 장안구 천천동 527-7번지 센터프라자 501호","indutype":"회원제형태 - 학원","category":"study"},{"name":"예이나트음악학원","tel":"031-257-1924","addr":"경기도 수원시 장안구 천천동 527-7번지 센터프라자 702호","indutype":"회원제형태 - 학원","category":"study"},{"name":"와이비엠잉글루천천학원","tel":"031-268-3329","addr":"경기도 수원시 장안구 천천동 527-7번지 센터프라자 401호","indutype":"회원제형태 - 학원","category":"study"},{"name":"이루미독서논술천천교육학원","tel":"031-247-1935","addr":"경기도 수원시 장안구 천천동 527-7번지 센터프라자 601호 일부","indutype":"학원 - 보습학원","category":"study"},{"name":"최용훈국어천천학원","tel":"031-268-1915","addr":"경기도 수원시 장안구 천천동 527-7번지 센타프라자 601호","indutype":"학원 - 보습학원","category":"study"},{"name":"톡톡미술교습소","tel":"031-269-8475","addr":"경기도 수원시 장안구 천천동 527-7번지 센타프라자 502호","indutype":"학원 - 예·체능계학원","category":"study"},{"name":"한울학원","tel":"031-5196-9774","addr":"경기도 수원시 장안구 천천동 527-7번지 센타프라자 903호 센터프라자","indutype":"학원 - 보습학원","category":"study"}]},{"lat":"37.297974568","long":"126.97689634","imageIndex":16,"items":[{"name":"다니엘 영어","tel":"031-297-4015","addr":"경기도 수원시 장안구 천천동 544번지 천천삼성래미안 106동 1101호 천천삼성래미안","indutype":"회원제형태 - 학원","category":"study"}]},{"lat":"37.294010696","long":"126.97997657","imageIndex":16,"items":[{"name":"다빈치미술교습소","tel":"031-294-4641","addr":"경기도 수원시 장안구 천천동 334번지 천천푸르지오근린생활시설-2 3층 303호","indutype":"학원 - 예·체능계학원","category":"study"},{"name":"전이림영어학원","tel":"031-291-0513","addr":"경기도 수원시 장안구 천천동 334번지 4층 401호.402호","indutype":"학원 - 보습학원","category":"study"},{"name":"최선주영어전문교습소","tel":"031-291-1243","addr":"경기도 수원시 장안구 천천동 334번지 천천푸르지오근린생활시설 2106호","indutype":"회원제형태 - 학원","category":"study"}]},{"lat":"37.297705316","long":"126.98225369","imageIndex":16,"items":[{"name":"다사랑어린이집[아이행복]","tel":"031-242-7104","addr":"경기도 수원시 장안구 천천동 511번지 비단마을베스트타운 734동 103호","indutype":"학원 - 유아원","category":"study"}]},{"lat":"37.296452987","long":"126.98280667","imageIndex":16,"items":[{"name":"대치케이학원","tel":"031-269-0408","addr":"경기도 수원시 장안구 천천동 527-4번지 광장프라자 701호","indutype":"회원제형태 - 학원","category":"study"},{"name":"레고에듀케이션스마트러닝센터스타랩학원","tel":"031-268-2565","addr":"경기도 수원시 장안구 천천동 527-4번지 광장프라자 801호","indutype":"학원 - 기타 교육기관","category":"study"},{"name":"씨엔에스(C&S)영수학원","tel":"031-269-5212","addr":"경기도 수원시 장안구 천천동 527-4번지 광장프라자 902호","indutype":"학원 - 보습학원","category":"study"},{"name":"엘시아이정철어학원","tel":"031-271-0888","addr":"경기도 수원시 장안구 천천동 527-4번지 광장프라자 701호","indutype":"학원 - 외국어학원","category":"study"},{"name":"이엠영수학원","tel":"031-271-3577","addr":"경기도 수원시 장안구 천천동 527-4번지 광장프라자 802호","indutype":"학원 - 보습학원","category":"study"},{"name":"이엠영수학원","tel":"031-271-3577","addr":"경기도 수원시 장안구 천천동 527-4번지 광장프라자 802호","indutype":"학원 - 보습학원","category":"study"},{"name":"이헌과학학원","tel":"031-269-7901","addr":"경기도 수원시 장안구 천천동 527-4번지 광장프라자 601호","indutype":"회원제형태 - 학원","category":"study"},{"name":"이헌수학학원","tel":"031-269-7911","addr":"경기도 수원시 장안구 천천동 527-4번지 광장프라자 602호","indutype":"회원제형태 - 학원","category":"study"},{"name":"카르페디엠독서실","tel":"031-252-7818","addr":"경기도 수원시 장안구 천천동 527-4번지 광장프라자 1001,1002호","indutype":"학원 - 독서실","category":"study"}]},{"lat":"37.298011403","long":"126.98080996","imageIndex":16,"items":[{"name":"더그림아트미술교습소","tel":"","addr":"경기도 수원시 장안구 천천동 511번지 비단마을베스트타운 상가동 2층 207호","indutype":"학원 - 예·체능계학원","category":"study"},{"name":"베스트어린이집[아이행복]","tel":"031-304-0010","addr":"경기도 수원시 장안구 천천동 511 베스트타운 관리동 1층","indutype":"학원 - 유아원","category":"study"},{"name":"베스트음악학원","tel":"031-268-5001","addr":"경기도 수원시 장안구 천천동 511번지 비단마을베스트타운 2층","indutype":"학원 - 예·체능계학원","category":"study"},{"name":"이해법수학베스트타운점교습소","tel":"031-268-6414","addr":"경기도 수원시 장안구 천천동 511번지 비단마을베스트타운 202호","indutype":"학원 - 보습학원","category":"study"}]},{"lat":"37.300839915","long":"126.97731267","imageIndex":16,"items":[{"name":"더제니스영어학원","tel":"031-271-1982","addr":"경기도 수원시 장안구 천천동 571-5번지 골든프라자 301호","indutype":"학원 - 보습학원","category":"study"},{"name":"빨간펜 수학의달인 천일수학교습소","tel":"031-234-8001","addr":"경기도 수원시 장안구 천천동 571-5번지 골든프라자 5층 501호","indutype":"학원 - 보습학원","category":"study"},{"name":"위너스영어천천점교습소","tel":"031-271-3703","addr":"경기도 수원시 장안구 천천동 571-5번지 골든프라자 401호","indutype":"학원 - 외국어학원","category":"study"},{"name":"윤선생아이지에스이(IGSE)천천학원","tel":"070-8683-8025","addr":"경기도 수원시 장안구 천천동 571-5번지 골든프라자 403,405호","indutype":"학원 - 외국어학원","category":"study"},{"name":"천일학원","tel":"031-271-2215","addr":"경기도 수원시 장안구 천천동 571-5번지 외1필지골든프라자 4층 407호","indutype":"학원 - 보습학원","category":"study"},{"name":"천일해법영어교습소","tel":"031-271-0533","addr":"경기도 수원시 장안구 천천동 571-5번지 골든프라자 5층 505호","indutype":"학원 - 외국어학원","category":"study"},{"name":"피아노와 숲 음악학원","tel":"031-271-3134","addr":"경기도 수원시 장안구 천천동 571-5번지 골든프라자 4층 402호","indutype":"학원 - 예·체능계학원","category":"study"},{"name":"한국체대석사효태권도","tel":"031-271-2822","addr":"경기도 수원시 장안구 천천동 571-5번지 골든프라자 503동","indutype":"학원 - 예·체능계학원","category":"study"}]},{"lat":"37.295903415","long":"126.9831226","imageIndex":16,"items":[{"name":"로얄발레학원","tel":"031-269-0311","addr":"경기도 수원시 장안구 천천동 527-10번지","indutype":"학원 - 예·체능계학원","category":"study"},{"name":"와이엠뷰티컬피부미용학원","tel":"031-223-5214","addr":"경기도 수원시 장안구 천천동 527-10번지 5층 502호","indutype":"학원 - 기능학원","category":"study"},{"name":"펠스영어학원","tel":"031-269-0554","addr":"경기도 수원시 장안구 천천동 527-10번지 501호 제1종근린생활시설 엄경이","indutype":"학원 - 보습학원","category":"study"}]},{"lat":"37.296759351","long":"126.98289681","imageIndex":16,"items":[{"name":"메카학원","tel":"031-269-1318","addr":"경기도 수원시 장안구 천천동 527-2번지 수정프라자 701호","indutype":"회원제형태 - 학원","category":"study"},{"name":"주니어랩스쿨학원","tel":"031-269-7775","addr":"경기도 수원시 장안구 천천동 527-2번지 수정프라자 303호","indutype":"회원제형태 - 학원","category":"study"}]},{"lat":"37.295984549","long":"126.9833707","imageIndex":16,"items":[{"name":"멘토학원","tel":"031-269-3570","addr":"경기도 수원시 장안구 천천동 527-9번지 천경빌딩 6층","indutype":"학원 - 보습학원","category":"study"},{"name":"발해학원","tel":"031-268-7910","addr":"경기도 수원시 장안구 천천동 527-9번지 천경빌딩 7층","indutype":"학원 - 보습학원","category":"study"},{"name":"퍼스트클라학원","tel":"031-268-8483","addr":"경기도 수원시 장안구 천천동 527-9번지 천경빌딩 301호","indutype":"학원 - 보습학원","category":"study"},{"name":"하얀나무미술학원","tel":"031-251-7161","addr":"경기도 수원시 장안구 천천동 527-9번지 천경빌딩 6층","indutype":"학원 - 예·체능계학원","category":"study"}]},{"lat":"37.301840914","long":"126.98167733","imageIndex":16,"items":[{"name":"물감스푼미술교습소","tel":"031-8025-9999","addr":"경기도 수원시 장안구 천천동 482번지 상가동 204호, 205호 일부","indutype":"학원 - 예·체능계학원","category":"study"},{"name":"신명음악교습소","tel":"031-268-0370","addr":"경기도 수원시 장안구 천천동 482번지 비단마을신명아파트 211, 212호","indutype":"학원 - 예·체능계학원","category":"study"},{"name":"하늘음악학원","tel":"031-268-4990","addr":"경기도 수원시 장안구 천천동 482번지 비단마을신명아파트 상가동 310호~312호","indutype":"학원 - 예·체능계학원","category":"study"}]},{"lat":"37.295091661","long":"126.97864543","imageIndex":16,"items":[{"name":"베스트예능학원","tel":"031-295-5531","addr":"경기도 수원시 장안구 천천동 268-16번지","indutype":"학원 - 예·체능계학원","category":"study"}]},{"lat":"37.294181945","long":"126.98025846","imageIndex":16,"items":[{"name":"비전잉글리쉬영어교습소","tel":"031-293-1055","addr":"경기도 수원시 장안구 천천동 334-1번지 천천푸르지오 505호","indutype":"학원 - 외국어학원","category":"study"}]},{"lat":"37.289514277","long":"126.97845551","imageIndex":16,"items":[{"name":"빌드업영어학원","tel":"031-278-2840","addr":"경기도 수원시 장안구 천천동 365-5번지 TQ빌딩 4층","indutype":"학원 - 외국어학원","category":"study"}]},{"lat":"37.297424795","long":"126.9762311","imageIndex":16,"items":[{"name":"빨간펜수학의달인수학교습소","tel":"031-111-1111","addr":"경기도 수원시 장안구 천천동 544번지 천천삼성래미안 상가동 201호","indutype":"학원 - 보습학원","category":"study"}]},{"lat":"37.289370129","long":"126.97853449","imageIndex":16,"items":[{"name":"생각의숲학원","tel":"031-294-3031","addr":"경기도 수원시 장안구 천천동 365-6번지 2층","indutype":"학원 - 보습학원","category":"study"}]},{"lat":"37.296343982","long":"126.97814878","imageIndex":16,"items":[{"name":"세례자요한어린이집[아이행복]","tel":"031-294-4230","addr":"경기도 수원시 장안구 천천동 265번지","indutype":"학원 - 유아원","category":"study"}]},{"lat":"37.29667822","long":"126.98267127","imageIndex":16,"items":[{"name":"수원정자해법수학학원","tel":"031-269-8815","addr":"경기도 수원시 장안구 천천동 527-1번지 롯데프라자 502호","indutype":"학원 - 보습학원","category":"study"},{"name":"스터디존스카이독서실","tel":"031-271-5080","addr":"경기도 수원시 장안구 천천동 527-1번지 롯데프라자 801호","indutype":"학원 - 독서실","category":"study"},{"name":"씨제이엠수학학원","tel":"031-269-9932","addr":"경기도 수원시 장안구 천천동 527-1번지 롯데프라자 602호","indutype":"학원 - 보습학원","category":"study"},{"name":"주식회사 뉴스타교육문화원","tel":"031-271-0525","addr":"경기도 수원시 장안구 천천동 527-1번지 롯데프라자 702호","indutype":"학원 - 외국어학원","category":"study"},{"name":"헤럴드어학원","tel":"031-269-1536","addr":"경기도 수원시 장안구 천천동 527-1번지 롯데프라자 501호","indutype":"학원 - 외국어학원","category":"study"}]},{"lat":"37.296543128","long":"126.98303221","imageIndex":16,"items":[{"name":"수학의영광","tel":"070-4407-3275","addr":"경기도 수원시 장안구 천천동 527-3번지 부강프라자 501호","indutype":"학원 - 보습학원","category":"study"},{"name":"아이사랑 선후 합기도","tel":"031-268-1486","addr":"경기도 수원시 장안구 천천동 527-3번지 부강프라자 801호","indutype":"학원 - 예·체능계학원","category":"study"},{"name":"우리영어독서전문학원","tel":"031-271-0505","addr":"경기도 수원시 장안구 천천동 527-3번지 부강프라자 802호","indutype":"학원 - 보습학원","category":"study"}]},{"lat":"37.292343728","long":"126.97960491","imageIndex":16,"items":[{"name":"아이다솜어린이집[아이행복]","tel":"031-296-5354","addr":"경기도 수원시 장안구 천천동 333번지 천천푸르지오 126동 102호","indutype":"학원 - 유아원","category":"study"}]},{"lat":"37.298173797","long":"126.98196032","imageIndex":16,"items":[{"name":"아이티씨 통역스쿨 17브랜치","tel":"","addr":"경기도 수원시 장안구 천천동 511번지 비단마을베스트타운 733동 104호","indutype":"학원 - 기타 교육기관","category":"study"}]},{"lat":"37.295317744","long":"126.98308892","imageIndex":16,"items":[{"name":"알칸수학과학전문학원","tel":"031-269-4711","addr":"경기도 수원시 장안구 천천동 528-2번지 중앙프라자 701호","indutype":"회원제형태 - 학원","category":"study"}]},{"lat":"37.300785757","long":"126.97687281","imageIndex":16,"items":[{"name":"용인대창조태권도체육관","tel":"031-271-1251","addr":"경기도 수원시 장안구 천천동 571-3번지","indutype":"학원 - 예·체능계학원","category":"study"}]},{"lat":"37.299759242","long":"126.98003122","imageIndex":16,"items":[{"name":"이현영어교습소","tel":"031-269-8781","addr":"경기도 수원시 장안구 천천동 507-3번지","indutype":"학원 - 외국어학원","category":"study"}]},{"lat":"37.301092905","long":"126.98080906","imageIndex":16,"items":[{"name":"잉글리쉬무무천천제삼학원","tel":"031-269-9805","addr":"경기도 수원시 장안구 천천동 480-1번지 1층","indutype":"학원 - 보습학원","category":"study"}]},{"lat":"37.290902674","long":"126.98280814","imageIndex":16,"items":[{"name":"정천초등학교","tel":"031-294-4263","addr":"경기도 수원시 장안구 천천동 335번지 정천초등학교","indutype":"학원 - 초중고교육기관","category":"study"},{"name":"정천초등학교_수업료","tel":"031-294-4263","addr":"경기도 수원시 장안구 천천동 335번지 정천초등학교","indutype":"학원 - 초중고교육기관","category":"study"}]},{"lat":"37.300650893","long":"126.97822633","imageIndex":16,"items":[{"name":"천일초등학교","tel":"031-271-0638","addr":"경기도 수원시 장안구 천천동 570번지 천일초등학교","indutype":"학원 - 초중고교육기관","category":"study"}]},{"lat":"37.299264221","long":"126.9830315","imageIndex":16,"items":[{"name":"천천고등학교","tel":"031-249-6705","addr":"경기도 수원시 장안구 천천동 513번지 천천고등학교","indutype":"학원 - 초중고교육기관","category":"study"},{"name":"천천고등학교_수업료","tel":"031-249-6705","addr":"경기도 수원시 장안구 천천동 513번지 천천고등학교","indutype":"학원 - 초중고교육기관","category":"study"}]},{"lat":"37.289207967","long":"126.97864732","imageIndex":16,"items":[{"name":"천천별하음악학원","tel":"031-298-6177","addr":"경기도 수원시 장안구 천천동 366-5번지 2층","indutype":"학원 - 예·체능계학원","category":"study"}]},{"lat":"37.299903616","long":"126.98114777","imageIndex":16,"items":[{"name":"천천중학교","tel":"031-547-5000","addr":"경기도 수원시 장안구 천천동 510번지 천천중학교","indutype":"학원 - 초중고교육기관","category":"study"}]},{"lat":"37.300264277","long":"126.98255752","imageIndex":16,"items":[{"name":"천천초등학교","tel":"031-269-4084","addr":"경기도 수원시 장안구 천천동 512번지 천천초등학교","indutype":"학원 - 초중고교육기관","category":"study"},{"name":"천천초등학교_수업료","tel":"031-269-4084","addr":"경기도 수원시 장안구 천천동 512번지 천천초등학교","indutype":"학원 - 초중고교육기관","category":"study"}]},{"lat":"37.297209821","long":"126.98264857","imageIndex":16,"items":[{"name":"퀀텀점프수학학원","tel":"031-269-5332","addr":"경기도 수원시 장안구 천천동 524-4번지 해든타워 4층","indutype":"학원 - 보습학원","category":"study"}]}]