[{"lat":"37.413000757","long":"126.99463609","imageIndex":16,"items":[{"name":"나무와숲 킨더가르텐 어린이집[아이행복]","tel":"02-507-8528","addr":"경기도 과천시 문원동 924-4번지 1층","indutype":"학원 - 유아원","category":"study"}]},{"lat":"37.429606571","long":"127.00350336","imageIndex":16,"items":[{"name":"사단법인연극놀이터해마루","tel":"02-502-1137","addr":"경기도 과천시 문원동 15-78번지 B03호","indutype":"학원 - 기타 교육기관","category":"study"}]},{"lat":"37.425777268","long":"127.00583064","imageIndex":16,"items":[{"name":"숲속나라어린이집[아이행복]","tel":"02-3679-1119","addr":"경기도 과천시 문원동 180번지","indutype":"학원 - 유아원","category":"study"},{"name":"숲속나라어린이집[아이행복]","tel":"02-3679-1119","addr":"경기도 과천시 문원동 180번지 5/2","indutype":"학원 - 유아원","category":"study"}]},{"lat":"37.42527256","long":"127.00944583","imageIndex":16,"items":[{"name":"시립 문원어린이집[아이행복]","tel":"02-502-1354","addr":"경기도 과천시 문원동 115-21번지","indutype":"학원 - 유아원","category":"study"}]},{"lat":"37.42399318","long":"127.00853064","imageIndex":16,"items":[{"name":"신나는수학","tel":"02-502-8039","addr":"경기도 과천시 문원동 115-112번지 1호","indutype":"회원제형태 - 학원","category":"study"}]},{"lat":"37.421992853","long":"127.01028153","imageIndex":16,"items":[{"name":"아이원어린이집[아이행복]","tel":"02-503-1696","addr":"경기도 과천시 문원동 115-384번지","indutype":"학원 - 유아원","category":"study"}]},{"lat":"37.41974951","long":"126.99880384","imageIndex":16,"items":[{"name":"한결어린이집[아이행복]","tel":"02-504-4904","addr":"경기도 과천시 문원동 320-9번지","indutype":"학원 - 유아원","category":"study"},{"name":"한결어린이집[아이행복]","tel":"02-504-4904","addr":"경기도 과천시 문원동 320-9번지","indutype":"학원 - 유아원","category":"study"}]}]