[{"lat":"37.2679935","long":"127.21831697","imageIndex":16,"items":[{"name":"e해법수학&멘사영재학원","tel":"031-339-7179","addr":"경기도 용인시 처인구 포곡읍 둔전리 150-1번지","indutype":"학원 - 보습학원","category":"study"},{"name":"개선문수학학원","tel":"031-322-1446","addr":"경기도 용인시 처인구 포곡읍 둔전리 150-1번지","indutype":"학원 - 보습학원","category":"study"},{"name":"고려수학학원","tel":"","addr":"경기도 용인시 처인구 포곡읍 둔전리 150-1번지 301호일부,302호일부","indutype":"학원 - 보습학원","category":"study"},{"name":"늘푸른학원","tel":"031-322-9644","addr":"경기도 용인시 처인구 포곡읍 둔전리 150-1번지 (302호일부.303호)","indutype":"학원 - 보습학원","category":"study"},{"name":"드림에듀학원","tel":"031-334-8205","addr":"경기도 용인시 처인구 포곡읍 둔전리 150-1번지 402,403호","indutype":"학원 - 보습학원","category":"study"},{"name":"명지음악학원","tel":"031-334-3134","addr":"경기도 용인시 처인구 포곡읍 둔전리 150-1번지","indutype":"학원 - 예·체능계학원","category":"study"},{"name":"윤선생영어숲둔전학원","tel":"031-333-0003","addr":"경기도 용인시 처인구 포곡읍 둔전리 150-1번지 라데팡스2차 304호","indutype":"학원 - 보습학원","category":"study"},{"name":"하우스터디학원","tel":"031-339-2901","addr":"경기도 용인시 처인구 포곡읍 둔전리 150-1번지 라데팡스2차 308호","indutype":"학원 - 보습학원","category":"study"}]},{"lat":"37.272542778","long":"127.21881474","imageIndex":16,"items":[{"name":"경원대 최고 태권도 별관","tel":"","addr":"경기도 용인시 처인구 포곡읍 둔전리 178번지 최고어린이집 B동 1층","indutype":"학원 - 예·체능계학원","category":"study"},{"name":"더이룸학원","tel":"031-334-7370","addr":"경기도 용인시 처인구 포곡읍 둔전리 178번지","indutype":"학원 - 보습학원","category":"study"}]},{"lat":"37.267965093","long":"127.21907224","imageIndex":16,"items":[{"name":"경원대최고태권도장","tel":"031-339-4385","addr":"경기도 용인시 처인구 포곡읍 둔전리 139-10번지 라데팡스 204호","indutype":"학원 - 예·체능계학원","category":"study"},{"name":"독서실닷컴","tel":"031-526-7557","addr":"경기도 용인시 처인구 포곡읍 둔전리 139-10번지 라데팡스 3층 302호","indutype":"학원 - 독서실","category":"study"},{"name":"명지미술교습소","tel":"031-334-3134","addr":"경기도 용인시 처인구 포곡읍 둔전리 139-10번지 라데팡스 204호 일부","indutype":"학원 - 예·체능계학원","category":"study"},{"name":"소리나무음악학원","tel":"031-333-1315","addr":"경기도 용인시 처인구 포곡읍 둔전리 139-10번지 라데팡스 201호","indutype":"학원 - 예·체능계학원","category":"study"},{"name":"위스터디학원","tel":"031-323-0350","addr":"경기도 용인시 처인구 포곡읍 둔전리 139-10번지 라데팡스 202호","indutype":"학원 - 보습학원","category":"study"},{"name":"해동검도합기도태권도","tel":"031-333-0099","addr":"경기도 용인시 처인구 포곡읍 둔전리 139-10번지 라데팡스 203호","indutype":"학원 - 예·체능계학원","category":"study"}]},{"lat":"37.275822511","long":"127.21381793","imageIndex":16,"items":[{"name":"고은유치원","tel":"031-334-4534","addr":"경기도 용인시 처인구 포곡읍 영문리 31-5","indutype":"학원 - 유치원","category":"study"}]},{"lat":"37.28176489","long":"127.22120905","imageIndex":16,"items":[{"name":"고은음악미술학원","tel":"031-334-3367","addr":"경기도 용인시 처인구 포곡읍 전대리 152-2번지 2층","indutype":"학원 - 예·체능계학원","category":"study"},{"name":"포곡마루태권도장","tel":"031-332-5329","addr":"경기도 용인시 처인구 포곡읍 전대리 152-2번지","indutype":"학원 - 예·체능계학원","category":"study"}]},{"lat":"37.28321031","long":"127.21914967","imageIndex":16,"items":[{"name":"꿈나무미술교습소","tel":"031-339-8824","addr":"경기도 용인시 처인구 포곡읍 전대리 179-4번지 3층","indutype":"학원 - 예·체능계학원","category":"study"},{"name":"꿈나무영어교습소","tel":"031-339-8824","addr":"경기도 용인시 처인구 포곡읍 전대리 179-4번지 3층","indutype":"학원 - 보습학원","category":"study"},{"name":"꿈나무학원","tel":"031-636-1199","addr":"경기도 용인시 처인구 포곡읍 전대리 179-4번지 2층","indutype":"학원 - 예·체능계학원","category":"study"}]},{"lat":"37.283016713","long":"127.21660068","imageIndex":16,"items":[{"name":"꿈샘공부방","tel":"","addr":"경기도 용인시 처인구 포곡읍 전대리 409-3번지 다인빌 102호","indutype":"학원 - 기타 교육기관","category":"study"}]},{"lat":"37.267657278","long":"127.2149","imageIndex":16,"items":[{"name":"둔전GnB영어전문학원","tel":"031-322-1441","addr":"경기도 용인시 처인구 포곡읍 둔전리384-11외1필지,청석빌딩301호~302호","indutype":"회원제형태 - 학원","category":"study"},{"name":"청석고시텔","tel":"031-333-4921","addr":"경기도 용인시 처인구 포곡읍 둔전리 384-11번지 청석빌딩 107호","indutype":"학원 - 독서실","category":"study"},{"name":"칸토피아노학원","tel":"031-335-3008","addr":"경기도 용인시 처인구 포곡읍 둔전리 384-11번지 청석빌딩 3층 일부","indutype":"학원 - 예·체능계학원","category":"study"},{"name":"풍경미술학원","tel":"031-335-0854","addr":"경기도 용인시 처인구 포곡읍 둔전리 384-11번지 청석빌딩 305동 306호","indutype":"학원 - 예·체능계학원","category":"study"}]},{"lat":"37.265908182","long":"127.21551515","imageIndex":16,"items":[{"name":"둔전검도관","tel":"031-322-6997","addr":"경기도 용인시 처인구 포곡읍 둔전리 422-73번지 B102호","indutype":"학원 - 예·체능계학원","category":"study"},{"name":"멘토학원","tel":"031-338-0088","addr":"경기도 용인시 처인구 포곡읍 둔전리 422-73번지 가동 3층","indutype":"학원 - 보습학원","category":"study"},{"name":"박경화무용교습소","tel":"031-336-5242","addr":"경기도 용인시 처인구 포곡읍 둔전리 422-73번지 2층 204-205호","indutype":"학원 - 예·체능계학원","category":"study"}]},{"lat":"37.273300704","long":"127.21823061","imageIndex":16,"items":[{"name":"둔전제일공부방","tel":"031-335-5477","addr":"경기도 용인시 처인구 포곡읍 둔전리 223-3번지 삼성타운 102동 202호","indutype":"학원 - 보습학원","category":"study"}]},{"lat":"37.281076694","long":"127.23253938","imageIndex":16,"items":[{"name":"라온제나어린이집","tel":"031-334-1204","addr":"경기도 용인시 처인구 포곡읍 삼계리 488-5","indutype":"학원 - 유아원","category":"study"}]},{"lat":"37.281014687","long":"127.22248106","imageIndex":16,"items":[{"name":"루미영어수학전문학원","tel":"031-338-6687","addr":"경기도 용인시 처인구 포곡읍 전대리 125-2번지","indutype":"학원 - 보습학원","category":"study"}]},{"lat":"37.282658643","long":"127.22026443","imageIndex":16,"items":[{"name":"리드앤톡전쌤영어학원","tel":"031-337-0913","addr":"경기도 용인시 처인구 포곡읍 전대리 150-8번지","indutype":"학원 - 외국어학원","category":"study"}]},{"lat":"37.282270292","long":"127.22075946","imageIndex":16,"items":[{"name":"무지개 피아노 교습소","tel":"031-322-7949","addr":"경기도 용인시 처인구 포곡읍 전대리 151-2번지 (외1필지롯데A(1층)104호)","indutype":"학원 - 예·체능계학원","category":"study"}]},{"lat":"37.269463988","long":"127.21731775","imageIndex":16,"items":[{"name":"미래영어교습소","tel":"031-339-0533","addr":"경기도 용인시 처인구 포곡읍 둔전리 152-1번지 나동 3층 301호","indutype":"학원 - 외국어학원","category":"study"}]},{"lat":"37.270407644","long":"127.2186508","imageIndex":16,"items":[{"name":"미래영어학원","tel":"031-334-3521","addr":"경기도 용인시 처인구 포곡읍 둔전리 190-11번지 3층","indutype":"학원 - 보습학원","category":"study"},{"name":"이십일세기미래보습학원","tel":"031-334-3521","addr":"경기도 용인시 처인구 포곡읍 둔전리 190-11번지 3층","indutype":"학원 - 보습학원","category":"study"}]},{"lat":"37.281097156","long":"127.22173709","imageIndex":16,"items":[{"name":"바탕소창작소미술학원","tel":"031-337-3379","addr":"경기도 용인시 처인구 포곡읍 전대리 157-10번지 외3필지 2층 일부","indutype":"학원 - 예·체능계학원","category":"study"}]},{"lat":"37.267523656","long":"127.21404281","imageIndex":16,"items":[{"name":"박선생수시전문학원/주식회사박선생입시학","tel":"031-338-0504","addr":"경기도 용인시 처인구 포곡읍 둔전리 405-19번지 대두빌딩 3층 301호,302호","indutype":"학원 - 보습학원","category":"study"},{"name":"주니어랩영어한솔플러스수학학원","tel":"031-335-0582","addr":"경기도 용인시 처인구 포곡읍 둔전리 405-19번지 대두빌딩 201호","indutype":"학원 - 보습학원","category":"study"},{"name":"짠짠실용음악학원","tel":"070-8842-1344","addr":"경기도 용인시 처인구 포곡읍 둔전리 405-19번지 대두상가 502호","indutype":"학원 - 예·체능계학원","category":"study"}]},{"lat":"37.282902332","long":"127.22003961","imageIndex":16,"items":[{"name":"박쌤의바른수학학원","tel":"031-332-3661","addr":"경기도 용인시 처인구 포곡읍 전대리 150-4번지 2층","indutype":"학원 - 보습학원","category":"study"}]},{"lat":"37.270046269","long":"127.21917966","imageIndex":16,"items":[{"name":"보라보습학원","tel":"031-339-3818","addr":"경기도 용인시 처인구 포곡읍 둔전리 190-13번지 보라빌딩 3층","indutype":"학원 - 보습학원","category":"study"},{"name":"보라보습학원","tel":"031-339-3818","addr":"경기도 용인시 처인구 포곡읍 둔전리 190-13번지 보라빌딩 3층","indutype":"학원 - 보습학원","category":"study"},{"name":"보라음악학원","tel":"","addr":"경기도 용인시 처인구 포곡읍 둔전리 190-13번지 보라빌딩 3층","indutype":"학원 - 예·체능계학원","category":"study"}]},{"lat":"37.280158244","long":"127.23223214","imageIndex":16,"items":[{"name":"빨간펜수학의달인포곡삼계점수학교습소","tel":"031-332-2477","addr":"경기도 용인시 처인구 포곡읍 삼계리 465-8번지 2층","indutype":"학원 - 보습학원","category":"study"},{"name":"한양대태권도체육관","tel":"031-332-2477","addr":"경기도 용인시 처인구 포곡읍 삼계리 465-8번지 2층","indutype":"학원 - 예·체능계학원","category":"study"}]},{"lat":"37.283353957","long":"127.21943199","imageIndex":16,"items":[{"name":"샘과아이들학원","tel":"031-332-7631","addr":"경기도 용인시 처인구 포곡읍 전대리149,2층","indutype":"학원 - 보습학원","category":"study"}]},{"lat":"37.268493139","long":"127.22101289","imageIndex":16,"items":[{"name":"셀파우등생학원","tel":"","addr":"경기도 용인시 처인구 포곡읍 둔전리 126-1번지 J&B빌딩 2층","indutype":"학원 - 보습학원","category":"study"}]},{"lat":"37.284962326","long":"127.21693321","imageIndex":16,"items":[{"name":"솔로몬영재스쿨","tel":"031-322-1942","addr":"경기도 용인시 처인구 포곡읍 전대리362-1","indutype":"학원 - 보습학원","category":"study"},{"name":"하은음악학원","tel":"031-328-6362","addr":"경기도 용인시 처인구 포곡읍 전대리 362-1번지 3층","indutype":"학원 - 예·체능계학원","category":"study"}]},{"lat":"37.283019919","long":"127.21979187","imageIndex":16,"items":[{"name":"송선생영어수학학원","tel":"031-323-4752","addr":"경기도 용인시 처인구 포곡읍 전대리 150-1번지 3층","indutype":"학원 - 보습학원","category":"study"},{"name":"타닉음악학원","tel":"031-335-2149","addr":"경기도 용인시 처인구 포곡읍 전대리 150-1번지 2층","indutype":"학원 - 예·체능계학원","category":"study"}]},{"lat":"37.281493146","long":"127.22198631","imageIndex":16,"items":[{"name":"써니스잉글리쉬클래스영어학원","tel":"031-334-7402","addr":"경기도 용인시 처인구 포곡읍 전대리 130-1번지 2층","indutype":"학원 - 보습학원","category":"study"}]},{"lat":"37.26790916","long":"127.21512619","imageIndex":16,"items":[{"name":"아름드리학원","tel":"031-335-3511","addr":"경기도 용인시 처인구 포곡읍 둔전리 386-12번지 2층 일부","indutype":"학원 - 보습학원","category":"study"}]},{"lat":"37.270435988","long":"127.21792932","imageIndex":16,"items":[{"name":"에듀홀릭영수전문학원","tel":"031-334-1318","addr":"경기도 용인시 처인구 포곡읍 둔전리 160번지 4층","indutype":"회원제형태 - 학원","category":"study"}]},{"lat":"37.267742086","long":"127.21281456","imageIndex":16,"items":[{"name":"엠투엠학원","tel":"031-339-0979","addr":"경기도 용인시 처인구 포곡읍 둔전리406-51 인정멜로디상가202호~203호","indutype":"학원 - 보습학원","category":"study"},{"name":"와이티어학원","tel":"031-339-3933","addr":"경기도 용인시 처인구 포곡읍 둔전리 406-51번지 인정프린스 상가 3층","indutype":"학원 - 외국어학원","category":"study"},{"name":"한솔컴퓨터학원","tel":"031-334-2714","addr":"경기도 용인시 처인구 포곡읍 둔전리 406-51번지","indutype":"학원 - 컴퓨터학원","category":"study"}]},{"lat":"37.269937342","long":"127.21961905","imageIndex":16,"items":[{"name":"용인대아이캔태권도","tel":"031-339-5077","addr":"경기도 용인시 처인구 포곡읍 둔전리 191-9번지 3층","indutype":"학원 - 예·체능계학원","category":"study"},{"name":"카멜레온미술학원","tel":"031-321-6545","addr":"경기도 용인시 처인구 포곡읍 둔전리 191-9번지 유정빌딩 4층","indutype":"학원 - 예·체능계학원","category":"study"}]},{"lat":"37.270599337","long":"127.21728715","imageIndex":16,"items":[{"name":"위즈음악무용학원","tel":"070-7420-0737","addr":"경기도 용인시 처인구 포곡읍 둔전리 367번지 송암빌딩 바동 2층","indutype":"학원 - 예·체능계학원","category":"study"}]},{"lat":"37.269293487","long":"127.21693394","imageIndex":16,"items":[{"name":"자연미술학원","tel":"031-334-7792","addr":"경기도 용인시 처인구 포곡읍 둔전리 393-11번지","indutype":"학원 - 예·체능계학원","category":"study"},{"name":"파로스학원","tel":"031-332-3312","addr":"경기도 용인시 처인구 포곡읍 둔전리 393-11번지 미성빌딩 가동 3층일부","indutype":"학원 - 보습학원","category":"study"}]},{"lat":"37.273520924","long":"127.2209823","imageIndex":16,"items":[{"name":"지혜셈주산교습소","tel":"070-8843-1368","addr":"경기도 용인시 처인구 포곡읍 둔전리 449번지 101호","indutype":"회원제형태 - 학원","category":"study"}]},{"lat":"37.273128894","long":"127.21856837","imageIndex":16,"items":[{"name":"최강EM학원","tel":"031-322-1922","addr":"경기도 용인시 처인구 포곡읍 둔전리 220-3번지 혜현빌딩 2층 전체","indutype":"학원 - 보습학원","category":"study"}]},{"lat":"37.268518359","long":"127.22199381","imageIndex":16,"items":[{"name":"클라라음악학원","tel":"","addr":"경기도 용인시 처인구 포곡읍 둔전리 120-10번지 태영맨션 102동 101호","indutype":"학원 - 예·체능계학원","category":"study"},{"name":"표준중국어","tel":"070-8285-9993","addr":"경기도 용인시 처인구 포곡읍 둔전리 120-10번지 태영맨션 102동 203호","indutype":"회원제형태 - 학원","category":"study"}]},{"lat":"37.283742323","long":"127.21892566","imageIndex":16,"items":[{"name":"태권도에 반하다","tel":"031-328-8658","addr":"경기도 용인시 처인구 포곡읍 전대리 186-13번지 2층","indutype":"학원 - 예·체능계학원","category":"study"}]},{"lat":"37.284852794","long":"127.21771097","imageIndex":16,"items":[{"name":"특공무술정도관","tel":"031-334-5260","addr":"경기도 용인시 처인구 포곡읍 전대리187-1","indutype":"회원제형태 - 학원","category":"study"}]},{"lat":"37.282995278","long":"127.21848375","imageIndex":16,"items":[{"name":"포곡초교실","tel":"031-321-3444","addr":"경기도 용인시 처인구 포곡읍 전대리 179-10번지 세웅빌라 101동 403호","indutype":"학원 - 보습학원","category":"study"}]},{"lat":"37.30151637","long":"127.22548447","imageIndex":16,"items":[{"name":"한강드론교육원","tel":"031-333-2325","addr":"경기도 용인시 처인구 포곡읍 유운리 210-2, 187-1","indutype":"학원 - 기능학원","category":"study"}]},{"lat":"37.297321576","long":"127.23742717","imageIndex":16,"items":[{"name":"해피 스토리","tel":"","addr":"경기도 용인시 처인구 포곡읍 삼계리 122번지 석산전원주택 B동 301호","indutype":"학원 - 기타 교육기관","category":"study"}]},{"lat":"37.270122839","long":"127.21165991","imageIndex":16,"items":[{"name":"행복한공부방","tel":"031-000-0000","addr":"경기도 용인시 처인구 포곡읍 둔전리 319번지 인정멜로디아파트","indutype":"학원 - 기타 교육기관","category":"study"}]},{"lat":"37.268661143","long":"127.22273831","imageIndex":16,"items":[{"name":"홍익미술보습학원","tel":"031-334-3826","addr":"경기도 용인시 처인구 포곡읍 둔전리122-1","indutype":"학원 - 예·체능계학원","category":"study"}]},{"lat":"37.279824384","long":"127.21809134","imageIndex":16,"items":[{"name":"효원아트","tel":"031-446-4437","addr":"경기도 용인시 처인구 포곡읍 전대리 419-13번지 펠리체타운 110동 502호","indutype":"학원 - 기타 교육기관","category":"study"}]},{"lat":"37.276576512","long":"127.19429126","imageIndex":16,"items":[{"name":"히터스베이스볼센터","tel":"","addr":"경기도 용인시 처인구 포곡읍 마성리 286번지","indutype":"학원 - 예·체능계학원","category":"study"}]}]