[{"lat":"37.734570138","long":"127.21925317","imageIndex":17,"items":[{"name":"(주)그린나래","tel":"031-721-5311","addr":"경기도 남양주시 진접읍 진벌리 430-2번지","indutype":"서적문구 - 완구점","category":"other"}]},{"lat":"37.745740088","long":"127.21533725","imageIndex":17,"items":[{"name":"(주)대윤케미텍","tel":"031-529-9568","addr":"경기도 남양주시 진접읍 진벌리 537번지","indutype":"유통업 영리 - 기타유통업","category":"other"}]},{"lat":"37.73637924","long":"127.23443755","imageIndex":17,"items":[{"name":"(주)로이스트","tel":"031-573-7105","addr":"경기도 남양주시 진접읍 진벌리 6-1번지 가동","indutype":"가구 - 일반가구","category":"other"},{"name":"하성환경","tel":"031-827-6300","addr":"경기도 남양주시 진접읍 진벌리 6-1번지","indutype":"용역 서비스 - 종합용역","category":"other"}]},{"lat":"37.742880298","long":"127.21741667","imageIndex":17,"items":[{"name":"(주)옴므","tel":"031-529-5702","addr":"경기도 남양주시 진접읍 진벌리 506-14번지","indutype":"문화.취미 - 애완동물","category":"other"},{"name":"신동양가구","tel":"031-575-4852","addr":"경기도 남양주시 진접읍 진벌리 506-14","indutype":"가구 - 기타가구","category":"other"},{"name":"아시아공구철물","tel":"031-527-0995","addr":"경기도 남양주시 진접읍 진벌리 506-14번지","indutype":"기타 - 기계공구","category":"other"}]},{"lat":"37.737880315","long":"127.21724341","imageIndex":17,"items":[{"name":"(주)이앤피퍼니처","tel":"031-573-4989","addr":"경기도 남양주시 진접읍 진벌리 435-5번지","indutype":"가구 - 일반가구","category":"other"}]},{"lat":"37.743902499","long":"127.21513912","imageIndex":17,"items":[{"name":"GS25진접진벌점","tel":"","addr":"경기도 남양주시 진접읍 진벌리 546-5번지","indutype":"유통업 영리 - 편 의 점","category":"other"}]},{"lat":"37.744926957","long":"127.21659432","imageIndex":17,"items":[{"name":"JSC보일러","tel":"031-766-9041","addr":"경기도 남양주시 진접읍 진벌리 657번지 신창비바패밀리 103동 1305호","indutype":"수리서비스 - 기타수리서비스","category":"other"}]},{"lat":"37.740657463","long":"127.21602613","imageIndex":17,"items":[{"name":"공구사랑","tel":"031-527-3526","addr":"경기도 남양주시 진접읍 진벌리 629-1 도윤빌딩1층4호","indutype":"기타 - 기계공구","category":"other"}]},{"lat":"37.743269272","long":"127.21655552","imageIndex":17,"items":[{"name":"국민닥트","tel":"031-572-4336","addr":"경기도 남양주시 진접읍 진벌리 506-2번지 2층","indutype":"건축자재 - 보일러·펌프·샷시","category":"other"}]},{"lat":"37.738655222","long":"127.22688888","imageIndex":17,"items":[{"name":"궁전쇼파","tel":"","addr":"경기도 남양주시 진접읍 진벌리 274-5번지","indutype":"가구 - 일반가구","category":"other"}]},{"lat":"37.739624327","long":"127.22894527","imageIndex":17,"items":[{"name":"극동종합금속","tel":"031-574-5253","addr":"경기도 남양주시 진접읍 진벌리 193-1번지","indutype":"용역 서비스 - 기타용역서비스","category":"other"}]},{"lat":"37.74354493","long":"127.21855316","imageIndex":17,"items":[{"name":"꿈사랑그린요양원","tel":"031-528-0936","addr":"경기도 남양주시 진접읍 진벌리 523-4번지","indutype":"기타의료기관 - 기타의료기관 및 기타","category":"other"}]},{"lat":"37.737680706","long":"127.22766874","imageIndex":17,"items":[{"name":"다울상재","tel":"031-594-6427","addr":"경기도 남양주시 진접읍 진벌리 276번지","indutype":"직물 - 카페트,커튼,천막,지물","category":"other"}]},{"lat":"37.738298427","long":"127.22499321","imageIndex":17,"items":[{"name":"대성톱초경","tel":"031-527-3215","addr":"경기도 남양주시 진접읍 진벌리 283-1번지","indutype":"기타 - 기계공구","category":"other"}]},{"lat":"37.737488642","long":"127.22916568","imageIndex":17,"items":[{"name":"대한예수장로회삼일교회","tel":"031-528-5927","addr":"경기도 남양주시 진접읍 진벌리 150-4","indutype":"기타 - 비영리/대상","category":"other"}]},{"lat":"37.741603233","long":"127.22107756","imageIndex":17,"items":[{"name":"델타코리아","tel":"031-1661-7248","addr":"경기도 남양주시 진접읍 진벌리 491-7번지","indutype":"유통업 영리 - 기타유통업","category":"other"}]},{"lat":"37.740265146","long":"127.21374461","imageIndex":17,"items":[{"name":"동천기업사","tel":"031-571-8771","addr":"경기도 남양주시 진접읍 진벌리 627번지 외 2동 4호 3호","indutype":"전기제품 - 기타전기제품","category":"other"},{"name":"티제이04(TJ04)","tel":"031-572-1182","addr":"경기도 남양주시 진접읍 진벌리 627번지 공장 2동 1층","indutype":"건축자재 - 기타건축자재","category":"other"}]},{"lat":"37.740151965","long":"127.21655791","imageIndex":17,"items":[{"name":"레몬비 진접","tel":"","addr":"경기도 남양주시 진접읍 진벌리 466번지 107호","indutype":"유통업 영리 - 편 의 점","category":"other"}]},{"lat":"37.735542946","long":"127.21441189","imageIndex":17,"items":[{"name":"마리텍전자","tel":"031-575-0706","addr":"경기도 남양주시 진접읍 진벌리 655-5번지","indutype":"전기제품 - 가전제품","category":"other"}]},{"lat":"37.741268406","long":"127.22666985","imageIndex":17,"items":[{"name":"맥스컴이앤티","tel":"031-528-2461","addr":"경기도 남양주시 진접읍 진벌리 241-4번지","indutype":"전기제품 - 기타전기제품","category":"other"}]},{"lat":"37.740910077","long":"127.21583398","imageIndex":17,"items":[{"name":"미래이엔에프","tel":"031-575-1290","addr":"경기도 남양주시 진접읍 진벌리 629-6번지 바동 1층","indutype":"전기제품 - 기타전기제품","category":"other"},{"name":"준아크릴","tel":"031-573-5155","addr":"경기도 남양주시 진접읍 진벌리 629-6번지 마동","indutype":"건축자재 - 인테리어전문","category":"other"}]},{"lat":"37.739402673","long":"127.21738395","imageIndex":17,"items":[{"name":"베스트단조","tel":"031-528-1323","addr":"경기도 남양주시 진접읍 진벌리 438-2번지","indutype":"건축자재 - 기타건축자재","category":"other"}]},{"lat":"37.739770932","long":"127.22288741","imageIndex":17,"items":[{"name":"벧엘종합철물","tel":"031-574-8182","addr":"경기도 남양주시 진접읍 진벌리 257번지","indutype":"건축자재 - 목재·석재·철물","category":"other"}]},{"lat":"37.742933693","long":"127.21777989","imageIndex":17,"items":[{"name":"살리고 액자","tel":"031-527-2289","addr":"경기도 남양주시 진접읍 진벌리 506-4번지","indutype":"문화.취미 - 화방·표구점","category":"other"}]},{"lat":"37.738653043","long":"127.21839149","imageIndex":17,"items":[{"name":"샤인퍼니쳐","tel":"031-527-7966","addr":"경기도 남양주시 진접읍 진벌리 439-2번지 외1필지","indutype":"가구 - 일반가구","category":"other"}]},{"lat":"37.738570651","long":"127.22871517","imageIndex":17,"items":[{"name":"성광프라스틱","tel":"031-529-4984","addr":"경기도 남양주시 진접읍 진벌리 145번지","indutype":"기타 - 기타 전문점","category":"other"}]},{"lat":"37.744436564","long":"127.2137451","imageIndex":17,"items":[{"name":"세븐일레븐남양주진벌리점","tel":"031-1577-0711","addr":"경기도 남양주시 진접읍 진벌리 544-1번지","indutype":"유통업 영리 - 편 의 점","category":"other"}]},{"lat":"37.739049388","long":"127.22330504","imageIndex":17,"items":[{"name":"세븐일레븐남양주진접공단점","tel":"","addr":"경기도 남양주시 진접읍 진벌리 264번지","indutype":"유통업 영리 - 편 의 점","category":"other"}]},{"lat":"37.744237094","long":"127.21444798","imageIndex":17,"items":[{"name":"세영","tel":"031-573-1654","addr":"경기도 남양주시 진접읍 진벌리 545-5번지","indutype":"기타 - 기계공구","category":"other"}]},{"lat":"37.735235736","long":"127.21985636","imageIndex":17,"items":[{"name":"세종에스씨아이","tel":"031-575-0730","addr":"경기도 남양주시 진접읍 진벌리 430-1번지","indutype":"서적문구 - 과학기자재","category":"other"},{"name":"세종에스씨아이/원격지","tel":"031-575-0730","addr":"경기도 남양주시 진접읍 진벌리 430-1번지","indutype":"기타 - 기타 전문점","category":"other"}]},{"lat":"37.74490821","long":"127.21197647","imageIndex":17,"items":[{"name":"소명계전","tel":"031-573-4567","addr":"경기도 남양주시 진접읍 진벌리 542-12","indutype":"기타 - 기계공구","category":"other"}]},{"lat":"37.738237443","long":"127.2190256","imageIndex":17,"items":[{"name":"시완사","tel":"031-529-1636","addr":"경기도 남양주시 진접읍 진벌리 444-1번지 나동","indutype":"신변잡화 - 시계","category":"other"}]},{"lat":"37.745214582","long":"127.21696957","imageIndex":17,"items":[{"name":"신창세탁소","tel":"031-527-8817","addr":"경기도 남양주시 진접읍 진벌리 657번지 신창비바패밀리 상가동 201호","indutype":"수리서비스 - 세탁소","category":"other"}]},{"lat":"37.743548176","long":"127.21677189","imageIndex":17,"items":[{"name":"씨유남양주진벌로점","tel":"031-529-6455","addr":"경기도 남양주시 진접읍 진벌리 513-7번지 1층 B동","indutype":"유통업 영리 - 편 의 점","category":"other"}]},{"lat":"37.739436966","long":"127.22321543","imageIndex":17,"items":[{"name":"씨유진접우량점","tel":"031-527-2223","addr":"경기도 남양주시 진접읍 진벌리 265번지 1층","indutype":"유통업 영리 - 편 의 점","category":"other"}]},{"lat":"37.743236102","long":"127.21496703","imageIndex":17,"items":[{"name":"아름다운 공간","tel":"070-8670-3159","addr":"경기도 남양주시 진접읍 진벌리 552-5번지","indutype":"신변잡화 - 기타잡화","category":"other"},{"name":"투맨시스템","tel":"031-527-6114","addr":"경기도 남양주시 진접읍 진벌리 552-5번지","indutype":"전기제품 - 냉열기기","category":"other"}]},{"lat":"37.743985723","long":"127.21394805","imageIndex":17,"items":[{"name":"아이티매니저","tel":"031-575-8086","addr":"경기도 남양주시 진접읍 진벌리 556-7번지 트윈빌 상가 A동 104호","indutype":"사무통신 - 컴퓨터","category":"other"}]},{"lat":"37.739180887","long":"127.22524543","imageIndex":17,"items":[{"name":"알찬기업","tel":"","addr":"경기도 남양주시 진접읍 진벌리 267-2번지","indutype":"주방용구 - 주방용구","category":"other"}]},{"lat":"37.740458103","long":"127.21666089","imageIndex":17,"items":[{"name":"온누리유통","tel":"031-574-7888","addr":"경기도 남양주시 진접읍 진벌리 467-2","indutype":"신변잡화 - 기타잡화","category":"other"},{"name":"제일광고","tel":"031-572-2482","addr":"경기도 남양주시 진접읍 진벌리 467-2번지","indutype":"용역 서비스 - 종합용역","category":"other"},{"name":"제일광고기획","tel":"031-572-2482","addr":"경기도 남양주시 진접읍 진벌리 467-2","indutype":"용역 서비스 - 종합용역","category":"other"}]},{"lat":"37.734715932","long":"127.22800011","imageIndex":17,"items":[{"name":"유니온가구","tel":"031-528-8831","addr":"경기도 남양주시 진접읍 진벌리 105-2번지","indutype":"가구 - 일반가구","category":"other"}]},{"lat":"37.736435436","long":"127.21410813","imageIndex":17,"items":[{"name":"유인터내셔널","tel":"070-9979-3434","addr":"경기도 남양주시 진접읍 진벌리 652번지","indutype":"신변잡화 - 액세서리","category":"other"}]},{"lat":"37.739210478","long":"127.2286377","imageIndex":17,"items":[{"name":"이엘오힘(elo HIM)","tel":"","addr":"경기도 남양주시 진접읍 진벌리 187-4번지 1동 1층","indutype":"용역 서비스 - 기타용역서비스","category":"other"}]},{"lat":"37.738236464","long":"127.21955881","imageIndex":17,"items":[{"name":"이음기업","tel":"070-8829-5352","addr":"경기도 남양주시 진접읍 진벌리 444-12번지","indutype":"신변잡화 - 기타잡화","category":"other"}]},{"lat":"37.745206663","long":"127.21636821","imageIndex":17,"items":[{"name":"자라넷","tel":"","addr":"경기도 남양주시 진접읍 진벌리 657번지 신창비바패밀리 105동 903호","indutype":"레져용품 - 스포츠·레져용품","category":"other"}]},{"lat":"37.74079318","long":"127.22546582","imageIndex":17,"items":[{"name":"주식회사 돋움","tel":"031-571-6209","addr":"경기도 남양주시 진접읍 진벌리 234번지","indutype":"건축자재 - 유리","category":"other"}]},{"lat":"37.739797913","long":"127.21803176","imageIndex":17,"items":[{"name":"주식회사 부림테크","tel":"031-000-0000","addr":"경기도 남양주시 진접읍 진벌리 460번지","indutype":"건축자재 - 기타건축자재","category":"other"},{"name":"주식회사삼도직물","tel":"031-111-1111","addr":"경기도 남양주시 진접읍 진벌리 460번지","indutype":"직물 - 옷감·직물","category":"other"}]},{"lat":"37.746179955","long":"127.2162235","imageIndex":17,"items":[{"name":"주식회사 비품센타","tel":"031-533-9911","addr":"경기도 남양주시 진접읍 진벌리 536-3번지","indutype":"신변잡화 - 기타잡화","category":"other"}]},{"lat":"37.747076048","long":"127.21889245","imageIndex":17,"items":[{"name":"주식회사 아일에어텍","tel":"031-527-9550","addr":"경기도 남양주시 진접읍 진벌리 535-9번지","indutype":"기타 - 기계공구","category":"other"}]},{"lat":"37.737688217","long":"127.21883114","imageIndex":17,"items":[{"name":"주식회사 이에프씨","tel":"031-529-4853","addr":"경기도 남양주시 진접읍 진벌리 444-2번지","indutype":"신변잡화 - 기타잡화","category":"other"}]},{"lat":"37.736295539","long":"127.2311587","imageIndex":17,"items":[{"name":"주식회사 이엘티티","tel":"031-528-8370","addr":"경기도 남양주시 진접읍 진벌리 169-3번지","indutype":"레져용품 - 스포츠·레져용품","category":"other"}]},{"lat":"37.738604707","long":"127.22974767","imageIndex":17,"items":[{"name":"주식회사 해쉬드림","tel":"031-1544-2482","addr":"경기도 남양주시 진접읍 진벌리 185번지","indutype":"용역 서비스 - 사무서비스","category":"other"}]},{"lat":"37.741265936","long":"127.23263751","imageIndex":17,"items":[{"name":"주형통상","tel":"031-876-6938","addr":"경기도 남양주시 진접읍 진벌리 200-4번지","indutype":"주방용구 - 주방용구","category":"other"}]},{"lat":"37.736019995","long":"127.23385786","imageIndex":17,"items":[{"name":"창대가구","tel":"070-8129-8018","addr":"경기도 남양주시 진접읍 진벌리 5번지","indutype":"가구 - 일반가구","category":"other"}]},{"lat":"37.740268857","long":"127.23110283","imageIndex":17,"items":[{"name":"케이제이가구","tel":"031-527-8519","addr":"경기도 남양주시 진접읍 진벌리 196-4번지","indutype":"가구 - 일반가구","category":"other"}]},{"lat":"37.74479822","long":"127.21303133","imageIndex":17,"items":[{"name":"태진가구철물장식","tel":"031-574-1230","addr":"경기도 남양주시 진접읍 진벌리 543-12 외2필지101호~102호","indutype":"직물 - 카페트,커튼,천막,지물","category":"other"}]},{"lat":"37.735904292","long":"127.23313145","imageIndex":17,"items":[{"name":"태홍산업","tel":"031-527-6638","addr":"경기도 남양주시 진접읍 진벌리 126-6번지","indutype":"신변잡화 - 기타잡화","category":"other"}]},{"lat":"37.744709555","long":"127.21724042","imageIndex":17,"items":[{"name":"페스트몰(PEST MALL)","tel":"031-528-7426","addr":"경기도 남양주시 진접읍 진벌리 657번지 신창비바패밀리 110동 102호","indutype":"회원제형태 - 기타4","category":"other"}]},{"lat":"37.743766006","long":"127.21588755","imageIndex":17,"items":[{"name":"평원건설기계","tel":"031-527-9218","addr":"경기도 남양주시 진접읍 진벌리 549-1번지","indutype":"수리서비스 - 기타수리서비스","category":"other"}]},{"lat":"37.740124056","long":"127.2219468","imageIndex":17,"items":[{"name":"플로우","tel":"031-575-5367","addr":"경기도 남양주시 진접읍 진벌리 493-1번지 1층","indutype":"건축자재 - 기타건축자재","category":"other"}]},{"lat":"37.739902929","long":"127.21972249","imageIndex":17,"items":[{"name":"한성제피로스","tel":"02-925-3877","addr":"경기도 남양주시 진접읍 진벌리 454-2번지 1층","indutype":"건축자재 - 보일러·펌프·샷시","category":"other"}]},{"lat":"37.744291863","long":"127.21405103","imageIndex":17,"items":[{"name":"현승안전물산","tel":"031-574-2432","addr":"경기도 남양주시 진접읍 진벌리 539-2번지 1층","indutype":"건축자재 - 목재·석재·철물","category":"other"}]},{"lat":"37.744152367","long":"127.21646729","imageIndex":17,"items":[{"name":"효성E.N.G","tel":"02-912-8118","addr":"경기도 남양주시 진접읍 진벌리 516","indutype":"기타 - 기계공구","category":"other"}]}]