[{"lat":"37.363084117","long":"126.87981778","imageIndex":13,"items":[{"name":"다온헤어","tel":"031-475-8766","addr":"경기도 안산시 상록구 수암동 473-8번지 클라인하우제 102호","indutype":"보건위생 - 미용원","category":"beauty"}]},{"lat":"37.361921412","long":"126.87943589","imageIndex":13,"items":[{"name":"동경헤어","tel":"031-482-7030","addr":"경기도 안산시 상록구 수암동 492-7번지 1층","indutype":"보건위생 - 미용원","category":"beauty"}]},{"lat":"37.36327913","long":"126.87676964","imageIndex":13,"items":[{"name":"수암안경마트","tel":"031-483-1776","addr":"경기도 안산시 상록구 수암동 21블럭6롯트선경탑스빌102","indutype":"보건위생 - 안경","category":"beauty"}]},{"lat":"37.362421229","long":"126.87496497","imageIndex":13,"items":[{"name":"수암옥사우나","tel":"031-480-7288","addr":"경기도 안산시 상록구 수암동 504-3번지 엠제이프라자 4층 401,402,403호","indutype":"보건위생 - 사우나","category":"beauty"},{"name":"황실아로마","tel":"031-439-5888","addr":"경기도 안산시 상록구 수암동 504-3번지 엠제이프라자 201호","indutype":"보건위생 - 화장품","category":"beauty"}]},{"lat":"37.362558103","long":"126.87656766","imageIndex":13,"items":[{"name":"수암이용원","tel":"031-411-6168","addr":"경기도 안산시 상록구 수암동 500-7번지 정승하이맨션 101호","indutype":"보건위생 - 이용원","category":"beauty"}]},{"lat":"37.362947275","long":"126.87820379","imageIndex":13,"items":[{"name":"썬-코스메틱","tel":"031-482-7056","addr":"경기도 안산시 상록구 수암동 471-7번지","indutype":"보건위생 - 화장품","category":"beauty"}]},{"lat":"37.363476749","long":"126.87620489","imageIndex":13,"items":[{"name":"아이쿠안경","tel":"031-411-3730","addr":"경기도 안산시 상록구 수암동 502-8번지","indutype":"보건위생 - 안경","category":"beauty"}]},{"lat":"37.363749852","long":"126.8788459","imageIndex":13,"items":[{"name":"에이원네일랩(A1 NAIL LAB)","tel":"","addr":"경기도 안산시 상록구 수암동 475-10번지","indutype":"보건위생 - 피부미용실","category":"beauty"}]},{"lat":"37.363919784","long":"126.87764905","imageIndex":13,"items":[{"name":"오늘네일샵","tel":"031-411-9876","addr":"경기도 안산시 상록구 수암동 468-3번지","indutype":"보건위생 - 피부미용실","category":"beauty"},{"name":"줌헤어","tel":"031-410-0337","addr":"경기도 안산시 상록구 수암동 468-3번지 양말나라부분","indutype":"보건위생 - 미용원","category":"beauty"}]},{"lat":"37.362830619","long":"126.87865551","imageIndex":13,"items":[{"name":"우명화헤어라인","tel":"031-405-6652","addr":"경기도 안산시 상록구 수암동 472-15번지","indutype":"보건위생 - 미용원","category":"beauty"},{"name":"하임네일","tel":"070-8811-1123","addr":"경기도 안산시 상록구 수암동 472-15번지 1층","indutype":"보건위생 - 피부미용실","category":"beauty"}]},{"lat":"37.364279782","long":"126.87726465","imageIndex":13,"items":[{"name":"유미경더헤어샵","tel":"031-482-9276","addr":"경기도 안산시 상록구 수암동 467-4번지 1층 101호","indutype":"보건위생 - 미용원","category":"beauty"}]},{"lat":"37.362693291","long":"126.87660129","imageIndex":13,"items":[{"name":"윤헤어멘토","tel":"070-4219-5478","addr":"경기도 안산시 상록구 수암동 500-6번지 정승하이맨션 1층 101호","indutype":"보건위생 - 미용원","category":"beauty"}]},{"lat":"37.363000871","long":"126.87776346","imageIndex":13,"items":[{"name":"주식회사 미도코리아","tel":"031-413-0481","addr":"경기도 안산시 상록구 수암동 471-12번지 상가 1층","indutype":"보건위생 - 화장품","category":"beauty"}]},{"lat":"37.363028544","long":"126.87837298","imageIndex":13,"items":[{"name":"태후사랑(수암점)","tel":"","addr":"경기도 안산시 상록구 수암동 471-5번지 1층","indutype":"보건위생 - 이용원","category":"beauty"}]},{"lat":"37.362974103","long":"126.87801185","imageIndex":13,"items":[{"name":"헤어지지마","tel":"031-411-2788","addr":"경기도 안산시 상록구 수암동 471-10번지","indutype":"보건위생 - 미용원","category":"beauty"}]}]