[{"lat":"37.239578705","long":"127.05633454","imageIndex":13,"items":[{"name":"(주)힐스트리심리발달연구소","tel":"031-202-2200","addr":"경기도 수원시 영통구 망포동 386번지 센트럴타워 606호","indutype":"보건위생 - 기타대인서비스","category":"beauty"},{"name":"LaPalctteHair","tel":"031-273-0204","addr":"경기도 수원시 영통구 망포동 386번지 센트럴타워 101호","indutype":"보건위생 - 미용원","category":"beauty"},{"name":"권헤어살롱","tel":"031-204-2111","addr":"경기도 수원시 영통구 망포동 386번지 센트럴타워 103호","indutype":"보건위생 - 미용원","category":"beauty"},{"name":"샤인케어","tel":"02-202-5565","addr":"경기도 수원시 영통구 망포동 386번지 센트럴타워 203호","indutype":"보건위생 - 화장품","category":"beauty"},{"name":"소문난피부샵","tel":"031-202-6565","addr":"경기도 수원시 영통구 망포동 386번지 센트럴타워 402-1호","indutype":"보건위생 - 피부미용실","category":"beauty"},{"name":"양미용실","tel":"031-203-4533","addr":"경기도 수원시 영통구 망포동 386번지 센트럴타워 122호","indutype":"보건위생 - 미용원","category":"beauty"},{"name":"피부공주","tel":"031-202-5146","addr":"경기도 수원시 영통구 망포동 386번지 센트럴타워 504호","indutype":"보건위생 - 화장품","category":"beauty"},{"name":"힐스트리삼리발달연구소","tel":"031-202-2200","addr":"경기도 수원시 영통구 망포동 386번지 센트럴타워 606호","indutype":"보건위생 - 기타대인서비스","category":"beauty"}]},{"lat":"37.238821735","long":"127.0565594","imageIndex":13,"items":[{"name":"1001안경","tel":"031-273-1076","addr":"경기도 수원시 영통구 망포동 542-11번지 중앙프라자 1층 4호","indutype":"보건위생 - 안경","category":"beauty"},{"name":"네이쳐컬렉션 신영통점","tel":"031-205-2035","addr":"경기도 수원시 영통구 망포동 542-11번지 중앙프라자1-1호 1층","indutype":"보건위생 - 화장품","category":"beauty"},{"name":"바라봄안경원(망포점)","tel":"031-273-1076","addr":"경기도 수원시 영통구 망포동 542-11번지 중앙프라자","indutype":"보건위생 - 안경","category":"beauty"},{"name":"헤어망고 망포점","tel":"031-206-3388","addr":"경기도 수원시 영통구 망포동 542-11번지 중앙프라자 2층","indutype":"보건위생 - 미용원","category":"beauty"}]},{"lat":"37.237576473","long":"127.06046903","imageIndex":13,"items":[{"name":"결헤어","tel":"","addr":"경기도 수원시 영통구 망포동 483-1번지 월드빌딩","indutype":"보건위생 - 미용원","category":"beauty"}]},{"lat":"37.240822653","long":"127.05516335","imageIndex":13,"items":[{"name":"고저스 헤어 살롱","tel":"","addr":"경기도 수원시 영통구 망포동 399-4번지 LG빌딩 1층","indutype":"보건위생 - 미용원","category":"beauty"}]},{"lat":"37.238849888","long":"127.05402375","imageIndex":13,"items":[{"name":"글라스스토리(망포점)","tel":"031-203-3004","addr":"경기도 수원시 영통구 망포동 651-6번지","indutype":"보건위생 - 안경","category":"beauty"},{"name":"뷰티하우스(망포점)","tel":"","addr":"경기도 수원시 영통구 망포동 651-6번지","indutype":"보건위생 - 화장품","category":"beauty"}]},{"lat":"37.239326754","long":"127.05557929","imageIndex":13,"items":[{"name":"글라스안경","tel":"031-241-2416","addr":"경기도 수원시 영통구 망포동 383-1번지","indutype":"보건위생 - 안경","category":"beauty"}]},{"lat":"37.238850326","long":"127.05299821","imageIndex":13,"items":[{"name":"김정아헤어시티","tel":"031-206-0360","addr":"경기도 수원시 영통구 망포동 651-1번지 외1필지동원프라자 201호","indutype":"보건위생 - 미용원","category":"beauty"},{"name":"베데스다교정원","tel":"031-203-0071","addr":"경기도 수원시 영통구 망포동 651-1번지 신영통동원프라자 502호","indutype":"보건위생 - 기타대인서비스","category":"beauty"},{"name":"허주헤어갤러리","tel":"031-202-1232","addr":"경기도 수원시 영통구 망포동 651-1번지 신영통동원프라자 102호","indutype":"보건위생 - 미용원","category":"beauty"}]},{"lat":"37.240049541","long":"127.05097043","imageIndex":13,"items":[{"name":"꾸미지오미용실","tel":"031-223-5264","addr":"경기도 수원시 영통구 망포동 683번지 현대2차A상가 202호","indutype":"보건위생 - 미용원","category":"beauty"},{"name":"꾸미지오헤어샵","tel":"031-204-6756","addr":"경기도 수원시 영통구 망포동 683번지 망포마을현대2차아이파크 상가 202호","indutype":"보건위생 - 미용원","category":"beauty"},{"name":"헤어림","tel":"031-203-7514","addr":"경기도 수원시 영통구 망포동 683번지 망포마을현대2차아이파크 상가동 103호","indutype":"보건위생 - 미용원","category":"beauty"}]},{"lat":"37.240632533","long":"127.05716926","imageIndex":13,"items":[{"name":"끌림헤어","tel":"031-202-8803","addr":"경기도 수원시 영통구 망포동 723번지 한양수자인 121동 204호","indutype":"보건위생 - 미용원","category":"beauty"}]},{"lat":"37.240658499","long":"127.05944581","imageIndex":13,"items":[{"name":"나니살롱","tel":"","addr":"경기도 수원시 영통구 망포동 416-21번지 1충 103호","indutype":"보건위생 - 미용원","category":"beauty"}]},{"lat":"37.243267129","long":"127.04869587","imageIndex":13,"items":[{"name":"너는.꽃","tel":"031-273-9133","addr":"경기도 수원시 영통구 망포동 728번지 힐스테이트영통 601동 제1층 제107호","indutype":"보건위생 - 미용원","category":"beauty"}]},{"lat":"37.243155819","long":"127.05630326","imageIndex":13,"items":[{"name":"네일(Nail) 라라","tel":"070-4245-2981","addr":"경기도 수원시 영통구 망포동 332-5번지","indutype":"보건위생 - 피부미용실","category":"beauty"}]},{"lat":"37.245048158","long":"127.05592139","imageIndex":13,"items":[{"name":"네일화이트","tel":"","addr":"경기도 수원시 영통구 망포동 322-3번지 골든스퀘어 1층 127호","indutype":"보건위생 - 피부미용실","category":"beauty"},{"name":"루비왁싱","tel":"070-7750-4651","addr":"경기도 수원시 영통구 망포동 322-3번지 외 12필지 골든스퀘어 4층 405호","indutype":"보건위생 - 화장품","category":"beauty"},{"name":"리솔생활과학","tel":"070-7706-3033","addr":"경기도 수원시 영통구 망포동 322-3번지 골든스퀘어 504-2호","indutype":"보건위생 - 화장품","category":"beauty"},{"name":"리솔피부미용","tel":"070-7783-8800","addr":"경기도 수원시 영통구 망포동 322-3번지 골든스퀘어 504-2호","indutype":"보건위생 - 피부미용실","category":"beauty"},{"name":"바비화장품","tel":"031-203-6858","addr":"경기도 수원시 영통구 망포동 322-3번지 골든스퀘어 126호","indutype":"보건위생 - 화장품","category":"beauty"},{"name":"아이케어안경(이태리안경망포점)","tel":"031-222-4052","addr":"경기도 수원시 영통구 망포동 322-3번지 골든스퀘어 107호","indutype":"보건위생 - 안경","category":"beauty"},{"name":"이니스프리 망포역점","tel":"031-203-6471","addr":"경기도 수원시 영통구 망포동 322-3번지 골든스퀘어 102호","indutype":"보건위생 - 화장품","category":"beauty"},{"name":"큐니바니","tel":"031-204-3477","addr":"경기도 수원시 영통구 망포동 322-3번지 골든스퀘어 103호","indutype":"보건위생 - 피부미용실","category":"beauty"},{"name":"키즈아이","tel":"031-8001-7000","addr":"경기도 수원시 영통구 망포동 322-3번지 골든스퀘어 3층 305-1호","indutype":"보건위생 - 안경","category":"beauty"},{"name":"헤어살롱 마들렌","tel":"031-207-3887","addr":"경기도 수원시 영통구 망포동 322-3번지 골든스퀘어 101호","indutype":"보건위생 - 미용원","category":"beauty"}]},{"lat":"37.23968752","long":"127.05477939","imageIndex":13,"items":[{"name":"다고치네","tel":"031-203-8426","addr":"경기도 수원시 영통구 망포동 382-3번지 e-타운II,204-1,205호","indutype":"보건위생 - 화장품","category":"beauty"},{"name":"더수자타","tel":"031-206-0787","addr":"경기도 수원시 영통구 망포동 382-3번지 이타운 104호","indutype":"보건위생 - 미용원","category":"beauty"},{"name":"바라","tel":"","addr":"경기도 수원시 영통구 망포동 382-3번지 망포동 e-타운II 108동 1호","indutype":"보건위생 - 미용원","category":"beauty"},{"name":"빠마하우스","tel":"031-202-3822","addr":"경기도 수원시 영통구 망포동 382-3번지 외1필지망포동이-타운투제1층 제101호","indutype":"보건위생 - 미용원","category":"beauty"},{"name":"생그린","tel":"031-202-5578","addr":"경기도 수원시 영통구 망포동 382-3,2층3-1호","indutype":"보건위생 - 화장품","category":"beauty"},{"name":"수자타수원영통구대리점","tel":"031-204-9993","addr":"경기도 수원시 영통구 망포동 382-3번지 206-2호 망포동E-타운II","indutype":"보건위생 - 미용재료","category":"beauty"},{"name":"에스엔티(SNT)치과기공소","tel":"031-206-2879","addr":"경기도 수원시 영통구 망포동 382-3번지 망포동 e-타운II 302호","indutype":"보건위생 - 의료용품","category":"beauty"},{"name":"일센터","tel":"031-305-3155","addr":"경기도 수원시 영통구 망포동 382-3번지 1층 101-5호","indutype":"보건위생 - 미용원","category":"beauty"}]},{"lat":"37.241490021","long":"127.05377759","imageIndex":13,"items":[{"name":"다낭(멀티샵)","tel":"031-257-3257","addr":"경기도 수원시 영통구 망포동 295-3번지 해피홈타운 103호","indutype":"보건위생 - 화장품","category":"beauty"},{"name":"이노헤어센스","tel":"031-205-9087","addr":"경기도 수원시 영통구 망포동 295-3해피홈타운102호~103호","indutype":"보건위생 - 미용원","category":"beauty"},{"name":"헤어스토리","tel":"031-206-6437","addr":"경기도 수원시 영통구 망포동 295-3번지 해피홈타운 105호","indutype":"보건위생 - 미용원","category":"beauty"}]},{"lat":"37.240517436","long":"127.05252597","imageIndex":13,"items":[{"name":"단혜","tel":"031-206-3375","addr":"경기도 수원시 영통구 망포동 690 상가112","indutype":"보건위생 - 미용원","category":"beauty"},{"name":"리사헤어","tel":"031-206-8050","addr":"경기도 수원시 영통구 망포동 690번지 동수원엘지빌리지2차 203호","indutype":"보건위생 - 미용원","category":"beauty"},{"name":"여울헤어","tel":"031-282-6006","addr":"경기도 수원시 영통구 망포동 690번지 망포마을동수원엘지빌리지 상가동 112호","indutype":"보건위생 - 미용원","category":"beauty"}]},{"lat":"37.243242668","long":"127.06308806","imageIndex":13,"items":[{"name":"대행전문업체","tel":"02-1111-1111","addr":"경기도 수원시 영통구 망포동 432-2번지 104호","indutype":"보건위생 - 기타대인서비스","category":"beauty"}]},{"lat":"37.237857579","long":"127.05667142","imageIndex":13,"items":[{"name":"더환유피부관리실","tel":"031-202-1811","addr":"경기도 수원시 영통구 망포동 558번지 신영통알파빌딩 302호","indutype":"보건위생 - 피부미용실","category":"beauty"},{"name":"미솔인 아로마 테라피","tel":"031-916-2429","addr":"경기도 수원시 영통구 망포동 558번지 신영통알파빌딩 305호","indutype":"보건위생 - 피부미용실","category":"beauty"},{"name":"베토벤안경원","tel":"031-273-8588","addr":"경기도 수원시 영통구 망포동 558번지 신영통알파빌딩 111호, 112호","indutype":"보건위생 - 안경","category":"beauty"},{"name":"아리따움","tel":"031-204-7740","addr":"경기도 수원시 영통구 망포동 558번지 알파빌딩 110호","indutype":"보건위생 - 화장품","category":"beauty"},{"name":"태후사랑","tel":"","addr":"경기도 수원시 영통구 망포동 558번지 신영통알파빌딩 1층 114호","indutype":"보건위생 - 미용원","category":"beauty"},{"name":"파란헤어","tel":"031-203-4456","addr":"경기도 수원시 영통구 망포동 558번지 신영통알파빌딩 203호","indutype":"보건위생 - 미용원","category":"beauty"}]},{"lat":"37.241849939","long":"127.05491611","imageIndex":13,"items":[{"name":"도로시 스킨앤바디","tel":"031-111-1111","addr":"경기도 수원시 영통구 망포동 369-3번지 3층","indutype":"보건위생 - 화장품","category":"beauty"}]},{"lat":"37.241634655","long":"127.05267322","imageIndex":13,"items":[{"name":"디딤돌발달심리센터","tel":"031-205-7586","addr":"경기도 수원시 영통구 망포동 294-5번지 다동 2층 201호","indutype":"보건위생 - 기타대인서비스","category":"beauty"}]},{"lat":"37.243155905","long":"127.05611166","imageIndex":13,"items":[{"name":"딜라잇헤어","tel":"031-204-0733","addr":"경기도 수원시 영통구 망포동 332-1번지 1층 103호","indutype":"보건위생 - 미용원","category":"beauty"},{"name":"안경하우스","tel":"031-206-0254","addr":"경기도 수원시 영통구 망포동 332-1번지 102호","indutype":"보건위생 - 안경","category":"beauty"}]},{"lat":"37.241327375","long":"127.05483686","imageIndex":13,"items":[{"name":"라니헤어","tel":"031-202-7790","addr":"경기도 수원시 영통구 망포동 370-3번지 태장프라자 102호","indutype":"보건위생 - 미용원","category":"beauty"},{"name":"아모레(정명점)","tel":"031-975-6174","addr":"경기도 수원시 영통구 망포동 370-3번지 태장프라자 4층","indutype":"보건위생 - 화장품","category":"beauty"},{"name":"아모레카운셀러","tel":"031-202-9327","addr":"경기도 수원시 영통구 망포동 370-3번지 태장프라자 401호","indutype":"보건위생 - 화장품","category":"beauty"},{"name":"아모레카운셀러","tel":"031-202-9327","addr":"경기도 수원시 영통구 망포동 370-3번지 401호","indutype":"보건위생 - 화장품","category":"beauty"},{"name":"아모레카운셀러","tel":"031-202-9327","addr":"경기도 수원시 영통구 망포동 370-3번지 4층 401호","indutype":"보건위생 - 화장품","category":"beauty"},{"name":"아모레카운셀러","tel":"031-202-9327","addr":"경기도 수원시 영통구 망포동 370-3번지 태장프라자 401호","indutype":"보건위생 - 화장품","category":"beauty"},{"name":"아모레카운셀러","tel":"031-202-9327","addr":"경기도 수원시 영통구 망포동 370-3번지 태장프라자 4층","indutype":"보건위생 - 화장품","category":"beauty"},{"name":"아모레카운셀러","tel":"031-202-9327","addr":"경기도 수원시 영통구 망포동 370-3번지 태장프라자 401호","indutype":"보건위생 - 화장품","category":"beauty"},{"name":"아모레카운셀러","tel":"031-202-9327","addr":"경기도 수원시 영통구 망포동 370-3번지 태장프라자 4층","indutype":"보건위생 - 화장품","category":"beauty"},{"name":"아모레카운셀러","tel":"031-202-9327","addr":"경기도 수원시 영통구 망포동 370-3번지 태장프라자 4층","indutype":"보건위생 - 화장품","category":"beauty"},{"name":"아모레카운셀러","tel":"031-202-9327","addr":"경기도 수원시 영통구 망포동 370-3번지 태장프라자 4층","indutype":"보건위생 - 화장품","category":"beauty"},{"name":"아모레카운셀러","tel":"031-202-9327","addr":"경기도 수원시 영통구 망포동 370-3번지 태장프라자 4층","indutype":"보건위생 - 화장품","category":"beauty"},{"name":"아모레카운셀러","tel":"031-202-9327","addr":"경기도 수원시 영통구 망포동 370-3번지 태장프라자 4층","indutype":"보건위생 - 화장품","category":"beauty"},{"name":"아모레카운셀러","tel":"031-223-3252","addr":"경기도 수원시 영통구 망포동 370-3번지 태장프라자 4층","indutype":"보건위생 - 화장품","category":"beauty"},{"name":"아모레카운셀러(방문판매원)","tel":"031-202-9327","addr":"경기도 수원시 영통구 망포동 370-3번지 401호","indutype":"보건위생 - 화장품","category":"beauty"},{"name":"아모레퍼시픽(신영통특약점)","tel":"031-202-9327","addr":"경기도 수원시 영통구 망포동 370-3번지 태장프라자 4층","indutype":"보건위생 - 화장품","category":"beauty"}]},{"lat":"37.240160524","long":"127.06428021","imageIndex":13,"items":[{"name":"라브리지헤어살롱","tel":"031-0206-3786","addr":"경기도 수원시 영통구 망포동 726번지 이편한세상영통2차 제106동 상가동제지 1층 109호","indutype":"보건위생 - 미용원","category":"beauty"}]},{"lat":"37.238885293","long":"127.05547756","imageIndex":13,"items":[{"name":"리안헤어","tel":"031-273-8858","addr":"경기도 수원시 영통구 망포동 544-11번지 망포프라자 2층 205호","indutype":"보건위생 - 미용원","category":"beauty"},{"name":"토니모리","tel":"031-206-3408","addr":"경기도 수원시 영통구 망포동 544-11번지 망포프라자 106호","indutype":"보건위생 - 화장품","category":"beauty"}]},{"lat":"37.241154266","long":"127.05902919","imageIndex":13,"items":[{"name":"마음공간 심리상담센터","tel":"031-202-5055","addr":"경기도 수원시 영통구 망포동 417-2번지 망포센트럴프라자 305호","indutype":"보건위생 - 기타대인서비스","category":"beauty"},{"name":"아가페헤어샵","tel":"031-203-8009","addr":"경기도 수원시 영통구 망포동 417-2번지 G동 1층 105호","indutype":"보건위생 - 미용원","category":"beauty"},{"name":"연예인 만들기","tel":"031-203-3309","addr":"경기도 수원시 영통구 망포동 417-2번지 302-2호","indutype":"보건위생 - 피부미용실","category":"beauty"},{"name":"톡톡네일","tel":"031-204-4142","addr":"경기도 수원시 영통구 망포동 417-2번지 101-2호","indutype":"보건위생 - 피부미용실","category":"beauty"}]},{"lat":"37.235688218","long":"127.0517565","imageIndex":13,"items":[{"name":"머리 못하는 집","tel":"031-204-9284","addr":"경기도 수원시 영통구 망포동 649-71번지 외1필지 102호","indutype":"보건위생 - 미용원","category":"beauty"},{"name":"머리사랑","tel":"031-204-2843","addr":"경기도 수원시 영통구 망포동 649-71번지 센터프라자 108호","indutype":"보건위생 - 미용원","category":"beauty"},{"name":"바비네일","tel":"031-202-1716","addr":"경기도 수원시 영통구 망포동 649-71번지 106호","indutype":"보건위생 - 피부미용실","category":"beauty"}]},{"lat":"37.236606514","long":"127.05356019","imageIndex":13,"items":[{"name":"미로체 코퍼레이션","tel":"031-203-8686","addr":"경기도 수원시 영통구 망포동 686번지 엘지자이1차 상가동 B01,B02,B03,B04,B10,B11,B12호","indutype":"보건위생 - 화장품","category":"beauty"},{"name":"쎄시헤어","tel":"031-206-8202","addr":"경기도 수원시 영통구 망포동 686번지 동수원엘지빌리지 상가동 1층 109호","indutype":"보건위생 - 미용원","category":"beauty"},{"name":"엔유헤어","tel":"031-273-3114","addr":"경기도 수원시 영통구 망포동 686번지 동수원자이1차 상가동 1층 114호","indutype":"보건위생 - 미용원","category":"beauty"},{"name":"컬러하우스","tel":"031-204-6689","addr":"경기도 수원시 영통구 망포동 686번지 망포마을동수원엘지빌리 211호 제상가","indutype":"보건위생 - 미용원","category":"beauty"},{"name":"허은정미엔미헤어","tel":"00-0000-0000","addr":"경기도 수원시 영통구 망포동 686번지 엘지자이단지내상가 114호","indutype":"보건위생 - 미용원","category":"beauty"}]},{"lat":"37.238243358","long":"127.06022161","imageIndex":13,"items":[{"name":"미스터빅","tel":"031-273-5162","addr":"경기도 수원시 영통구 망포동 485-5번지","indutype":"보건위생 - 미용원","category":"beauty"}]},{"lat":"37.237244176","long":"127.05819235","imageIndex":13,"items":[{"name":"밀란헤어샵","tel":"031-205-2046","addr":"경기도 수원시 영통구 망포동 570-5번지 뉴LG프라자 103호","indutype":"보건위생 - 미용원","category":"beauty"},{"name":"스파렉스","tel":"031-204-1010","addr":"경기도 수원시 영통구 망포동 570-5번지 뉴LG프라자 7층 스파렉스사우나내","indutype":"보건위생 - 기타대인서비스","category":"beauty"},{"name":"스파렉스대중탕","tel":"031-204-1010","addr":"경기도 수원시 영통구 망포동 570-5 601.701호","indutype":"보건위생 - 사우나","category":"beauty"},{"name":"엘지화장품","tel":"031-548-0052","addr":"경기도 수원시 영통구 망포동 570-5번지 뉴LG프라자 112호","indutype":"보건위생 - 화장품","category":"beauty"},{"name":"엘지화장품","tel":"031-548-0052","addr":"경기도 수원시 영통구 망포동 570-5번지 뉴LG프라자112","indutype":"보건위생 - 화장품","category":"beauty"}]},{"lat":"37.239155056","long":"127.05669488","imageIndex":13,"items":[{"name":"박준헤어(망포점)","tel":"031-205-3636","addr":"경기도 수원시 영통구 망포동 540-5번지","indutype":"보건위생 - 미용원","category":"beauty"},{"name":"지오아로마","tel":"031-202-3555","addr":"경기도 수원시 영통구 망포동 540-5번지 나눔빌딩 3층 13호","indutype":"보건위생 - 화장품","category":"beauty"}]},{"lat":"37.2404622","long":"127.05525326","imageIndex":13,"items":[{"name":"벨르아율베다","tel":"031-205-0040","addr":"경기도 수원시 영통구 망포동 397-1번지 코스모프라자 6층 일부","indutype":"보건위생 - 화장품","category":"beauty"},{"name":"수원다비치(망포태장초교앞점)","tel":"031-203-1355","addr":"경기도 수원시 영통구 망포동 397-1번지 코스모프라자 104호","indutype":"보건위생 - 안경","category":"beauty"}]},{"lat":"37.237829572","long":"127.0587788","imageIndex":13,"items":[{"name":"보노헤어","tel":"031-205-6437","addr":"경기도 수원시 영통구 망포동 532-1번지 세호프라자 102호","indutype":"보건위생 - 미용원","category":"beauty"},{"name":"중국전통바디관리","tel":"031-203-8823","addr":"경기도 수원시 영통구 망포동 532-1번지 세호프라자","indutype":"보건위생 - 피부미용실","category":"beauty"},{"name":"펄스온 수원 망포지점","tel":"031-203-0916","addr":"경기도 수원시 영통구 망포동 532-1번지 세호프라자 6층 604호","indutype":"보건위생 - 의료용품","category":"beauty"}]},{"lat":"37.238939184","long":"127.05586077","imageIndex":13,"items":[{"name":"보라보라미용실","tel":"031-202-6554","addr":"경기도 수원시 영통구 망포동 544-1번지 2층","indutype":"보건위생 - 미용원","category":"beauty"}]},{"lat":"37.243849338","long":"127.05691235","imageIndex":13,"items":[{"name":"뷰티콤마","tel":"","addr":"경기도 수원시 영통구 망포동 693번지 망포마을현대1차아이파크 상가동 1층 101호","indutype":"보건위생 - 피부미용실","category":"beauty"},{"name":"차이나","tel":"","addr":"경기도 수원시 영통구 망포동 693번지 망포마을현대1차아이파크 201,202호","indutype":"보건위생 - 화장품","category":"beauty"},{"name":"헤어투데이","tel":"031-205-6942","addr":"경기도 수원시 영통구 망포동 693번지 아이파크 상가 105호","indutype":"보건위생 - 미용원","category":"beauty"}]},{"lat":"37.243127489","long":"127.05910955","imageIndex":13,"items":[{"name":"살롱드손(salon de son)","tel":"","addr":"경기도 수원시 영통구 망포동 355-12번지 1층","indutype":"보건위생 - 미용원","category":"beauty"}]},{"lat":"37.242936065","long":"127.04224907","imageIndex":13,"items":[{"name":"살롱드제이엠(JM)","tel":"031-205-3995","addr":"경기도 수원시 영통구 망포동 760번지 아이파크캐슬2단지 상가A동 1층 101호","indutype":"보건위생 - 미용원","category":"beauty"}]},{"lat":"37.236210817","long":"127.05175684","imageIndex":13,"items":[{"name":"샤론 에스테틱","tel":"031-204-8062","addr":"경기도 수원시 영통구 망포동 649-25번지","indutype":"보건위생 - 피부미용실","category":"beauty"}]},{"lat":"37.239272837","long":"127.05525243","imageIndex":13,"items":[{"name":"샤블랑헤어","tel":"031-273-9711","addr":"경기도 수원시 영통구 망포동 380-1번지 엘지프라자 1층 102호","indutype":"보건위생 - 미용원","category":"beauty"},{"name":"킹스맨","tel":"031-273-7484","addr":"경기도 수원시 영통구 망포동 380-1번지 엘지프라자 105호","indutype":"보건위생 - 미용원","category":"beauty"},{"name":"휴양림","tel":"031-237-2027","addr":"경기도 수원시 영통구 망포동 380-1번지 엘지프라자 303호","indutype":"보건위생 - 화장품","category":"beauty"}]},{"lat":"37.243071374","long":"127.06327952","imageIndex":13,"items":[{"name":"손톱이야기","tel":"031-305-5431","addr":"경기도 수원시 영통구 망포동 432-6 중앙프라자1~2호","indutype":"보건위생 - 피부미용실","category":"beauty"}]},{"lat":"37.238713936","long":"127.05583807","imageIndex":13,"items":[{"name":"신기한토르마린","tel":"031-273-7189","addr":"경기도 수원시 영통구 망포동 543-2번지 센타프라자 1층 105호","indutype":"보건위생 - 사우나","category":"beauty"},{"name":"히든네일","tel":"031-273-9854","addr":"경기도 수원시 영통구 망포동 543-2번지 센타프라자 B02호","indutype":"보건위생 - 피부미용실","category":"beauty"}]},{"lat":"37.242547664","long":"127.06542044","imageIndex":13,"items":[{"name":"아르더헤어","tel":"031-202-0166","addr":"경기도 수원시 영통구 망포동 707번지 방죽마을영통뜨란채 나동 102호","indutype":"보건위생 - 미용원","category":"beauty"},{"name":"헤어플랜","tel":"","addr":"경기도 수원시 영통구 망포동 707번지 방죽마을영통뜨란채 가상가동 101호","indutype":"보건위생 - 미용원","category":"beauty"}]},{"lat":"37.239272077","long":"127.05694289","imageIndex":13,"items":[{"name":"아일리아헤어","tel":"031-202-7730","addr":"경기도 수원시 영통구 망포동 539번지 즐거운속셈학원 A동 1층","indutype":"보건위생 - 미용원","category":"beauty"},{"name":"지인철학작명원","tel":"031-202-2353","addr":"경기도 수원시 영통구 망포동 539번지 B동 201호","indutype":"보건위생 - 기타대인서비스","category":"beauty"}]},{"lat":"37.237738872","long":"127.06002964","imageIndex":13,"items":[{"name":"안경매니져","tel":"031-273-5600","addr":"경기도 수원시 영통구 망포동 485-3번지 102호, 103호","indutype":"보건위생 - 안경","category":"beauty"}]},{"lat":"37.237432428","long":"127.06022099","imageIndex":13,"items":[{"name":"안은경헤어샵","tel":"031-203-0778","addr":"경기도 수원시 영통구 망포동 483번지 2층","indutype":"보건위생 - 미용원","category":"beauty"}]},{"lat":"37.236021637","long":"127.05166656","imageIndex":13,"items":[{"name":"엘헤어","tel":"031-204-2268","addr":"경기도 수원시 영통구 망포동 650-146번지 108호","indutype":"보건위생 - 미용원","category":"beauty"}]},{"lat":"37.243434333","long":"127.05806163","imageIndex":13,"items":[{"name":"엠제이헤어","tel":"031-8013-6155","addr":"경기도 수원시 영통구 망포동 334-4번지 100년빌딩","indutype":"보건위생 - 미용원","category":"beauty"}]},{"lat":"37.241243473","long":"127.06088881","imageIndex":13,"items":[{"name":"연헤어","tel":"031-000-0000","addr":"경기도 수원시 영통구 망포동 510-2번지","indutype":"보건위생 - 미용원","category":"beauty"}]},{"lat":"37.237550001","long":"127.05930825","imageIndex":13,"items":[{"name":"영은이의솜씨","tel":"031-202-5431","addr":"경기도 수원시 영통구 망포동 530-15번지 망포동근생빌딩 1층 일부","indutype":"보건위생 - 화장품","category":"beauty"}]},{"lat":"37.243272137","long":"127.05808405","imageIndex":13,"items":[{"name":"올가스킨","tel":"031-203-0433","addr":"경기도 수원시 영통구 망포동 334-5번지 올가스킨","indutype":"보건위생 - 화장품","category":"beauty"},{"name":"헤어투데이","tel":"031-203-6942","addr":"경기도 수원시 영통구 망포동 334-5번지 1층","indutype":"보건위생 - 미용원","category":"beauty"}]},{"lat":"37.234877381","long":"127.0515306","imageIndex":13,"items":[{"name":"외계인손톱","tel":"031-204-0540","addr":"경기도 수원시 영통구 망포동 649-38번지 진성프라자 103호","indutype":"보건위생 - 피부미용실","category":"beauty"},{"name":"하나애","tel":"031-204-7701","addr":"경기도 수원시 영통구 망포동 649-38번지 진성프라자 406호","indutype":"보건위생 - 기타대인서비스","category":"beauty"}]},{"lat":"37.237990904","long":"127.0605595","imageIndex":13,"items":[{"name":"은하헤어크리닉","tel":"031-203-5191","addr":"경기도 수원시 영통구 망포동 485-14번지","indutype":"보건위생 - 미용원","category":"beauty"}]},{"lat":"37.238325952","long":"127.05703238","imageIndex":13,"items":[{"name":"이니스프리 수원망포점","tel":"031-205-6471","addr":"경기도 수원시 영통구 망포동 559-5번지 델타빌딩 1층","indutype":"보건위생 - 화장품","category":"beauty"}]},{"lat":"37.241329428","long":"127.04992313","imageIndex":13,"items":[{"name":"이디엘헤어","tel":"031-206-7858","addr":"경기도 수원시 영통구 망포동 255-2번지 국제프라자 2층 204호","indutype":"보건위생 - 미용원","category":"beauty"}]},{"lat":"37.236381995","long":"127.05180203","imageIndex":13,"items":[{"name":"이오헤어","tel":"031-205-7848","addr":"경기도 수원시 영통구 망포동 649-24번지 1층 일부","indutype":"보건위생 - 미용원","category":"beauty"}]},{"lat":"37.237487737","long":"127.05758398","imageIndex":13,"items":[{"name":"잠언의료기 영통지점","tel":"031-203-7589","addr":"경기도 수원시 영통구 망포동 569-3번지 유림프라자 203호","indutype":"보건위생 - 의료용품","category":"beauty"}]},{"lat":"37.239579068","long":"127.05552312","imageIndex":13,"items":[{"name":"토리헤어(망포점)","tel":"031-204-6866","addr":"경기도 수원시 영통구 망포동 383-12번지","indutype":"보건위생 - 미용원","category":"beauty"}]},{"lat":"37.239300086","long":"127.05475658","imageIndex":13,"items":[{"name":"토모헤어","tel":"031-205-3361","addr":"경기도 수원시 영통구 망포동 381-2번지 2층","indutype":"보건위생 - 미용원","category":"beauty"}]},{"lat":"37.241217048","long":"127.05963782","imageIndex":13,"items":[{"name":"트릭트루","tel":"031-204-8996","addr":"경기도 수원시 영통구 망포동 417-26번지 사국빌딩 B02호","indutype":"보건위생 - 미용원","category":"beauty"}]},{"lat":"37.242254822","long":"127.05622373","imageIndex":13,"items":[{"name":"프로젝트440","tel":"","addr":"경기도 수원시 영통구 망포동 722번지 상가동 101호 102호 103호","indutype":"보건위생 - 미용원","category":"beauty"}]},{"lat":"37.235877528","long":"127.05153124","imageIndex":13,"items":[{"name":"한국화장품 쥬단학 신영통지사","tel":"031-203-4441","addr":"경기도 수원시 영통구 망포동 649-45번지 102호","indutype":"보건위생 - 화장품","category":"beauty"}]},{"lat":"37.244409082","long":"127.05443324","imageIndex":13,"items":[{"name":"헤어터치","tel":"031-212-4467","addr":"경기도 수원시 영통구 망포동 720번지 그대가프리미어 상가 105호","indutype":"보건위생 - 미용원","category":"beauty"}]}]