[{"lat":"37.311226694","long":"126.90459528","imageIndex":13,"items":[{"name":"e편한노래연습장","tel":"031-438-6304","addr":"경기도 안산시 상록구 건건동 536-5번지 한종빌딩 G동 지하층","indutype":"레저업소 - 노 래 방","category":"leisure"}]},{"lat":"37.310786431","long":"126.90609615","imageIndex":13,"items":[{"name":"건건e편한세상 입주자대표회의","tel":"031-599-5900","addr":"경기도 안산시 상록구 건건동 987번지 건건e-편한세상 1층","indutype":"레저업소 - 헬스클럽","category":"leisure"},{"name":"키즈방방","tel":"031-599-0979","addr":"경기도 안산시 상록구 건건동 987번지 건건e-편한세상주상가동 401호","indutype":"레저업소 - 기타레져업소","category":"leisure"}]},{"lat":"37.306116267","long":"126.90265055","imageIndex":13,"items":[{"name":"공치네","tel":"031-438-6468","addr":"경기도 안산시 상록구 건건동 643-10번지 2층 202호","indutype":"레저업소 - 당 구 장","category":"leisure"},{"name":"공치네","tel":"031-438-6468","addr":"경기도 안산시 상록구 건건동 643-10번지 201호","indutype":"레저업소 - 당 구 장","category":"leisure"}]},{"lat":"37.303818048","long":"126.90193172","imageIndex":13,"items":[{"name":"네모피시","tel":"070-7786-9224","addr":"경기도 안산시 상록구 건건동 922-4, 5번지 3층","indutype":"레저업소 - 기타레져업소","category":"leisure"},{"name":"사오정노래연습장","tel":"031-502-9393","addr":"경기도 안산시 상록구 건건동 922-4번지","indutype":"레저업소 - 노 래 방","category":"leisure"},{"name":"사오정노래연습장","tel":"070-7539-9547","addr":"경기도 안산시 상록구 건건동 922-4번지 지하","indutype":"레저업소 - 노 래 방","category":"leisure"}]},{"lat":"37.310677053","long":"126.90457344","imageIndex":13,"items":[{"name":"다이나복싱체육관","tel":"031-498-2050","addr":"경기도 안산시 상록구 건건동 536-19번지 2층","indutype":"레저업소 - 헬스클럽","category":"leisure"}]},{"lat":"37.306207007","long":"126.90340617","imageIndex":13,"items":[{"name":"대한민국노래연습장(반월점)","tel":"031-487-5988","addr":"경기도 안산시 상록구 건건동 644-13번지 2층","indutype":"레저업소 - 노 래 방","category":"leisure"}]},{"lat":"37.312227201","long":"126.90504521","imageIndex":13,"items":[{"name":"럭셔리노래연습장","tel":"031-437-2933","addr":"경기도 안산시 상록구 건건동 534-5번지 현대월드프라자 114,115호","indutype":"레저업소 - 노 래 방","category":"leisure"}]},{"lat":"37.305341245","long":"126.90248238","imageIndex":13,"items":[{"name":"반월노래연습장","tel":"031-437-2228","addr":"경기도 안산시 상록구 건건동 645-7번지","indutype":"레저업소 - 노 래 방","category":"leisure"}]},{"lat":"37.311199175","long":"126.90400874","imageIndex":13,"items":[{"name":"벙커PC방","tel":"","addr":"경기도 안산시 상록구 건건동 536-40번지 지하1층 B101호","indutype":"레저업소 - 기타레져업소","category":"leisure"}]},{"lat":"37.307062788","long":"126.90317944","imageIndex":13,"items":[{"name":"와와키즈랜드","tel":"070-4007-1258","addr":"경기도 안산시 상록구 건건동 625-8번지 홍익리빙프라자 2층","indutype":"레저업소 - 기타레져업소","category":"leisure"}]},{"lat":"37.311785449","long":"126.9047412","imageIndex":13,"items":[{"name":"왓치당구클럽","tel":"031-487-2800","addr":"경기도 안산시 상록구 건건동 535-1번지 한맥빌딩 3층","indutype":"레저업소 - 당 구 장","category":"leisure"}]},{"lat":"37.303096922","long":"126.90157175","imageIndex":13,"items":[{"name":"짱구노래연습장","tel":"","addr":"경기도 안산시 상록구 건건동 927-12번지 2층","indutype":"레저업소 - 노 래 방","category":"leisure"}]},{"lat":"37.304394914","long":"126.9021791","imageIndex":13,"items":[{"name":"탑당구클럽","tel":"070-8187-7558","addr":"경기도 안산시 상록구 건건동 650-1번지 센타프라자 3층 303호","indutype":"레저업소 - 당 구 장","category":"leisure"},{"name":"힐링월드","tel":"031-111-1111","addr":"경기도 안산시 상록구 건건동 650-1번지 센타프라자","indutype":"레저업소 - 헬스클럽","category":"leisure"}]},{"lat":"37.302871734","long":"126.901651","imageIndex":13,"items":[{"name":"홀인원노래연습장","tel":"031-438-6884","addr":"경기도 안산시 상록구 건건동 902-1번지 한일프라자 202호","indutype":"레저업소 - 노 래 방","category":"leisure"}]}]