[{"lat":"36.955192284","long":"126.85061143","imageIndex":0,"items":[{"name":"(주)씨엔에스티 지점","tel":"031-682-5802","addr":"경기도 평택시 포승읍 만호리 669번지","indutype":"자동차정비 유지 - 자동차부품","category":"car"},{"name":"(주)평택항 현대서비스","tel":"031-686-9752","addr":"경기도 평택시 포승읍 만호리 669번지","indutype":"자동차정비 유지 - 자동차정비","category":"car"}]},{"lat":"36.963997414","long":"126.85188523","imageIndex":0,"items":[{"name":"강원상사","tel":"","addr":"경기도 평택시 포승읍 만호리 297-4번지","indutype":"서비스업 - 자동차정비","category":"car"},{"name":"강원상사","tel":"031-681-0607","addr":"경기도 평택시 포승읍 만호리 297-4번지","indutype":"자동차정비 유지 - 자동차정비","category":"car"}]},{"lat":"36.960191642","long":"126.85649642","imageIndex":0,"items":[{"name":"경동타이어","tel":"031-681-7224","addr":"경기도 평택시 포승읍 만호리 314-4","indutype":"자동차정비 유지 - 자동차정비","category":"car"}]},{"lat":"36.953692693","long":"126.84767281","imageIndex":0,"items":[{"name":"공성윤활유","tel":"031-684-4371","addr":"경기도 평택시 포승읍 만호리 668번지","indutype":"자동차정비 유지 - 윤활유 전문 판매","category":"car"}]},{"lat":"36.958992215","long":"126.85569028","imageIndex":0,"items":[{"name":"나인에코카","tel":"031-681-8110","addr":"경기도 평택시 포승읍 만호리 400-11번지","indutype":"자동차정비 유지 - 자동차정비","category":"car"}]},{"lat":"36.962467665","long":"126.85352766","imageIndex":0,"items":[{"name":"대교자동차공업사","tel":"031-683-0304","addr":"경기도 평택시 포승읍 만호리 311-17번지","indutype":"자동차정비 유지 - 자동차정비","category":"car"}]},{"lat":"36.958047503","long":"126.85683737","imageIndex":0,"items":[{"name":"서해밧데리","tel":"031-686-8251","addr":"경기도 평택시 포승읍 만호리 394-15","indutype":"자동차정비 유지 - 자동차정비","category":"car"}]},{"lat":"36.962080175","long":"126.85350596","imageIndex":0,"items":[{"name":"스피드메이트포승점","tel":"031-686-5020","addr":"경기도 평택시 포승읍 만호리 311-25","indutype":"자동차정비 유지 - 자동차정비","category":"car"},{"name":"프로 SHOP","tel":"031-683-7122","addr":"경기도 평택시 포승읍 만호리 311-25번지","indutype":"자동차정비 유지 - 세차장","category":"car"}]},{"lat":"36.97504438","long":"126.84481057","imageIndex":0,"items":[{"name":"신화에너지","tel":"031-684-5187","addr":"경기도 평택시 포승읍 만호리 576-7","indutype":"자동차정비 유지 - 윤활유 전문 판매","category":"car"}]},{"lat":"36.961658959","long":"126.85533706","imageIndex":0,"items":[{"name":"신흥상사","tel":"031-683-6752","addr":"경기도 평택시 포승읍 만호리 313-11번지","indutype":"자동차정비 유지 - 자동차부품","category":"car"}]},{"lat":"36.956688545","long":"126.85819854","imageIndex":0,"items":[{"name":"안중특수산업","tel":"031-682-6011","addr":"경기도 평택시 포승읍 만호리 486-2번지","indutype":"자동차정비 유지 - 자동차시트·타이어","category":"car"}]},{"lat":"36.97713185","long":"126.84256006","imageIndex":0,"items":[{"name":"제이엔씨워시조아","tel":"031-8094-0969","addr":"경기도 평택시 포승읍 만호리 573-4번지","indutype":"자동차정비 유지 - 세차장","category":"car"}]},{"lat":"36.973856323","long":"126.845835","imageIndex":0,"items":[{"name":"주식회사 공성","tel":"031-683-4371","addr":"경기도 평택시 포승읍 만호리 578-6","indutype":"자동차정비 유지 - 윤활유 전문 판매","category":"car"}]},{"lat":"36.958218707","long":"126.85683704","imageIndex":0,"items":[{"name":"포승특장차타이어","tel":"031-681-9502","addr":"경기도 평택시 포승읍 만호리 394-2번지","indutype":"자동차정비 유지 - 자동차시트·타이어","category":"car"}]},{"lat":"36.977655061","long":"126.84299697","imageIndex":0,"items":[{"name":"포승행복주유소","tel":"031-681-5022","addr":"경기도 평택시 포승읍 만호리 573-1번지","indutype":"자동차정비 유지 - 자동차부품","category":"car"}]},{"lat":"36.975160514","long":"126.84405787","imageIndex":0,"items":[{"name":"한국타이어포승공단서비스","tel":"031-681-6070","addr":"경기도 평택시 포승읍 만호리 577-2번지","indutype":"자동차정비 유지 - 자동차시트·타이어","category":"car"}]},{"lat":"36.961268531","long":"126.85296857","imageIndex":0,"items":[{"name":"한라카클리닉","tel":"031-683-8813","addr":"경기도 평택시 포승읍 만호리 311-40번지","indutype":"서비스업 - 자동차정비","category":"car"}]},{"lat":"36.964744603","long":"126.85133353","imageIndex":0,"items":[{"name":"항만대형자동차공업사","tel":"031-684-0852","addr":"경기도 평택시 포승읍 만호리 297-7번지","indutype":"자동차정비 유지 - 자동차정비","category":"car"},{"name":"항만세차장","tel":"031-681-6197","addr":"경기도 평택시 포승읍 만호리 297-7,297-11","indutype":"자동차정비 유지 - 세차장","category":"car"}]},{"lat":"36.960498145","long":"126.85660812","imageIndex":0,"items":[{"name":"해오름","tel":"02-1111-1111","addr":"경기도 평택시 포승읍 만호리 314-3번지 1층","indutype":"자동차정비 유지 - 주차장","category":"car"}]},{"lat":"36.967047409","long":"126.84827455","imageIndex":17,"items":[{"name":"(주)알지엠테크(ALGAE M TECH)","tel":"070-4263-7197","addr":"경기도 평택시 포승읍 만호리 639번지","indutype":"신변잡화 - 기타잡화","category":"other"},{"name":"IGA포승천일점","tel":"031-000-0000","addr":"경기도 평택시 포승읍 만호리 639번지","indutype":"유통업 영리 - 편 의 점","category":"other"}]},{"lat":"36.975521977","long":"126.84483204","imageIndex":17,"items":[{"name":"(주)주연종합공구","tel":"031-681-0958","addr":"경기도 평택시 포승읍 만호리 576-1번지 나동 101호","indutype":"기타 - 기계공구","category":"other"},{"name":"고려상사","tel":"031-683-7188","addr":"경기도 평택시 포승읍 만호리 576-1번지 가동 107호","indutype":"기타 - 기계공구","category":"other"},{"name":"세화상사","tel":"","addr":"경기도 평택시 포승읍 만호리 576-1번지 가동 108호 세화상사","indutype":"도소매업 - 전기자재","category":"other"},{"name":"세화상사","tel":"031-686-9446","addr":"경기도 평택시 포승읍 만호리 576-1번지 가동 108호","indutype":"전기제품 - 기타전기제품","category":"other"},{"name":"영창기업 (주)","tel":"031-681-7829","addr":"경기도 평택시 포승읍 만호리 576-1 가-104","indutype":"건축자재 - 페인트","category":"other"},{"name":"주식회사 드림디포서평택","tel":"031-683-9801","addr":"경기도 평택시 포승읍 만호리 576-1번지 가동 110호","indutype":"서적문구 - 문구용품","category":"other"}]},{"lat":"36.973240873","long":"126.85066532","imageIndex":17,"items":[{"name":"(주)준우에스피","tel":"","addr":"경기도 평택시 포승읍 만호리 584번지","indutype":"건축자재 - 기타건축자재","category":"other"}]},{"lat":"36.976683248","long":"126.84399855","imageIndex":17,"items":[{"name":"GS25메트로하임점","tel":"","addr":"경기도 평택시 포승읍 만호리 575-10번지 메트로하임 1층 101호","indutype":"유통업 영리 - 편 의 점","category":"other"},{"name":"케이엔케이","tel":"031-1670-7443","addr":"경기도 평택시 포승읍 만호리 575-10번지 평택메트로하임 1층 117호","indutype":"신변잡화 - 액세서리","category":"other"}]},{"lat":"36.975547041","long":"126.84336076","imageIndex":17,"items":[{"name":"GS25평택스마트점","tel":"080-555-2525","addr":"경기도 평택시 포승읍 만호리 574-5번지 평택스마트듀오1차 상가104호(만호리574-5,0번지","indutype":"유통업 영리 - 편 의 점","category":"other"},{"name":"비즈니스마켓","tel":"","addr":"경기도 평택시 포승읍 만호리 574-5번지 스마트빌듀오1차 101동 11층 1107호","indutype":"전기제품 - 가전제품","category":"other"},{"name":"원스프로모션","tel":"031-681-4690","addr":"경기도 평택시 포승읍 만호리 574-5번지 스마트빌듀오1차 1405호","indutype":"전기제품 - 가전제품","category":"other"}]},{"lat":"36.96507752","long":"126.85817144","imageIndex":17,"items":[{"name":"GS25포승만호점","tel":"","addr":"경기도 평택시 포승읍 만호리 691-5번지 1층","indutype":"유통업 영리 - 편 의 점","category":"other"}]},{"lat":"36.960939408","long":"126.85639393","imageIndex":17,"items":[{"name":"GS25포승친오애점","tel":"","addr":"경기도 평택시 포승읍 만호리 314-2번지 2동","indutype":"유통업 영리 - 편 의 점","category":"other"}]},{"lat":"36.960966121","long":"126.85613562","imageIndex":17,"items":[{"name":"S.R세탁소","tel":"031-686-5518","addr":"경기도 평택시 포승읍 만호리 313-4외 1필지 3","indutype":"수리서비스 - 세탁소","category":"other"}]},{"lat":"36.961551876","long":"126.84906044","imageIndex":17,"items":[{"name":"금강유리","tel":"031-682-9138","addr":"경기도 평택시 포승읍 만호리 292번지","indutype":"건축자재 - 유리","category":"other"}]},{"lat":"36.960217271","long":"126.85536229","imageIndex":17,"items":[{"name":"대교","tel":"031-681-1804","addr":"경기도 평택시 포승읍 만호리 314-21번지","indutype":"레져용품 - 스포츠·레져용품","category":"other"}]},{"lat":"36.974099389","long":"126.84566604","imageIndex":17,"items":[{"name":"대성유공압","tel":"031-682-2061","addr":"경기도 평택시 포승읍 만호리 578-5번지 104호","indutype":"기타 - 기타 전문점","category":"other"}]},{"lat":"36.9741337","long":"126.84436323","imageIndex":17,"items":[{"name":"대현종합상사","tel":"031-682-8026","addr":"경기도 평택시 포승읍 만호리 577-5","indutype":"기타 - 기계공구","category":"other"}]},{"lat":"36.975826116","long":"126.84316926","imageIndex":17,"items":[{"name":"미니스톱 포승만호점","tel":"031-1577-9621","addr":"경기도 평택시 포승읍 만호리 574-4번지 1층 101,102호","indutype":"유통업 영리 - 편 의 점","category":"other"}]},{"lat":"36.977185201","long":"126.84203209","imageIndex":17,"items":[{"name":"부일종합상사","tel":"031-681-1748","addr":"경기도 평택시 포승읍 만호리 573-6번지 18 1층 104호","indutype":"의류 - 기타의류","category":"other"}]},{"lat":"36.954213104","long":"126.86028033","imageIndex":17,"items":[{"name":"비전플러스골프존","tel":"031-681-1472","addr":"경기도 평택시 포승읍 만호리 473번지 층","indutype":"레져용품 - 골프용품 전문점","category":"other"}]},{"lat":"36.962740607","long":"126.84853029","imageIndex":17,"items":[{"name":"선명세탁소","tel":"031-681-5202","addr":"경기도 평택시 포승읍 만호리 280-3번지","indutype":"서비스업 - 세탁","category":"other"}]},{"lat":"36.976627327","long":"126.84261727","imageIndex":17,"items":[{"name":"세븐일레븐 평택라마다점","tel":"031-1577-0711","addr":"경기도 평택시 포승읍 만호리 574-1번지 1층","indutype":"유통업 영리 - 편 의 점","category":"other"}]},{"lat":"36.957021559","long":"126.85788353","imageIndex":17,"items":[{"name":"세븐일레븐평택포승대로점","tel":"","addr":"경기도 평택시 포승읍 만호리 485-3번지 2동 1층","indutype":"유통업 영리 - 편 의 점","category":"other"}]},{"lat":"36.962189135","long":"126.84713904","imageIndex":17,"items":[{"name":"세븐일레븐평택포승만호점","tel":"031-1577-0711","addr":"경기도 평택시 포승읍 만호리 264-16번지","indutype":"유통업 영리 - 편 의 점","category":"other"}]},{"lat":"36.955549374","long":"126.84802833","imageIndex":17,"items":[{"name":"시립평택항어린이집","tel":"031-682-7774","addr":"경기도 평택시 포승읍 만호리 340-30번지","indutype":"서비스업 - 교육","category":"other"}]},{"lat":"36.974519927","long":"126.84344152","imageIndex":17,"items":[{"name":"씨유평택포승만호점","tel":"031-658-5811","addr":"경기도 평택시 포승읍 만호리 578-7번지","indutype":"유통업 영리 - 편 의 점","category":"other"}]},{"lat":"36.97596173","long":"126.8435059","imageIndex":17,"items":[{"name":"씨유포승스위트하버점","tel":"080-080-3663","addr":"경기도 평택시 포승읍 만호리 574-7번지 1층 107호, 108호(더스위트하버)","indutype":"유통업 영리 - 편 의 점","category":"other"}]},{"lat":"36.975519193","long":"126.84275436","imageIndex":17,"items":[{"name":"아이지에이마트 코업스테일호텔점","tel":"031-768-0708","addr":"경기도 평택시 포승읍 만호리 573-14번지 101호","indutype":"유통업 영리 - 편 의 점","category":"other"}]},{"lat":"36.976467216","long":"126.84416747","imageIndex":17,"items":[{"name":"오피스플랜","tel":"031-682-2992","addr":"경기도 평택시 포승읍 만호리 575-9번지","indutype":"사무통신 - 기타 사무용품","category":"other"}]},{"lat":"36.973520747","long":"126.84419604","imageIndex":17,"items":[{"name":"은성기계","tel":"031-684-4603","addr":"경기도 평택시 포승읍 만호리 578-1번지 가동 109호","indutype":"기타 - 기계공구","category":"other"}]},{"lat":"36.966408378","long":"126.84883731","imageIndex":17,"items":[{"name":"이안종합상사","tel":"031-684-7004","addr":"경기도 평택시 포승읍 만호리 640번지","indutype":"건축자재 - 기타건축자재","category":"other"}]},{"lat":"36.952437083","long":"126.85953141","imageIndex":17,"items":[{"name":"제이스타글로벌 주식회사","tel":"031-681-2028","addr":"경기도 평택시 포승읍 만호리 370-2번지 1층","indutype":"전기제품 - 냉열기기","category":"other"}]},{"lat":"36.958407822","long":"126.85674685","imageIndex":17,"items":[{"name":"제일종합상사","tel":"031-684-0945","addr":"경기도 평택시 포승읍 만호리 394-1번지 1층","indutype":"기타 - 기계공구","category":"other"}]},{"lat":"36.959743278","long":"126.8510515","imageIndex":17,"items":[{"name":"주식회사 서우인터내셔널","tel":"070-8839-1472","addr":"경기도 평택시 포승읍 만호리 302번지 장미빌딩 102호","indutype":"레져용품 - 스포츠·레져용품","category":"other"}]},{"lat":"36.974853036","long":"126.84322745","imageIndex":17,"items":[{"name":"준프린팅","tel":"031-683-1274","addr":"경기도 평택시 포승읍 만호리 578-4번지 103호104호","indutype":"서적문구 - 문구용품","category":"other"}]},{"lat":"36.974827419","long":"126.84428318","imageIndex":17,"items":[{"name":"지벤 (포승점)","tel":"031-684-2665","addr":"경기도 평택시 포승읍 만호리 577-8번지 1-1호,1-2호","indutype":"기타 - 기계공구","category":"other"}]},{"lat":"36.961719485","long":"126.84630907","imageIndex":17,"items":[{"name":"청풍에어컨","tel":"031-681-2302","addr":"경기도 평택시 포승읍 만호리 265-28번지","indutype":"전기제품 - 냉열기기","category":"other"}]},{"lat":"36.977015861","long":"126.84341385","imageIndex":17,"items":[{"name":"크린토피아&코인워시 (평택포승공단점)","tel":"031-8094-0033","addr":"경기도 평택시 포승읍 만호리 575-1번지 스마트빌듀오3차 1층 103호","indutype":"수리서비스 - 세탁소","category":"other"}]},{"lat":"36.951800475","long":"126.862171","imageIndex":17,"items":[{"name":"평택항건재","tel":"031-681-9457","addr":"경기도 평택시 포승읍 만호리 518-71번지","indutype":"건축자재 - 기타건축자재","category":"other"}]},{"lat":"36.96488043","long":"126.85911506","imageIndex":17,"items":[{"name":"포승철물공구상사","tel":"031-682-7911","addr":"경기도 평택시 포승읍 만호리 689-2번지","indutype":"건축자재 - 기타건축자재","category":"other"}]},{"lat":"36.964382431","long":"126.85713968","imageIndex":17,"items":[{"name":"홈크린원 천안점","tel":"","addr":"경기도 평택시 포승읍 만호리 694-3번지 404호","indutype":"용역 서비스 - 종합용역","category":"other"}]},{"lat":"36.96091002","long":"126.85449636","imageIndex":17,"items":[{"name":"홍성상사","tel":"031-682-7104","addr":"경기도 평택시 포승읍 만호리 315-4번지 남측4번째상가","indutype":"건축자재 - 페인트","category":"other"}]},{"lat":"36.962712815","long":"126.84794645","imageIndex":17,"items":[{"name":"효성슈퍼","tel":"031-682-5397","addr":"경기도 평택시 포승읍 만호리 268-9번지","indutype":"소매업 - 식자재","category":"other"}]},{"lat":"36.973520747","long":"126.84419604","imageIndex":9,"items":[{"name":"GS포승공단주유소","tel":"031-684-5671","addr":"경기도 평택시 포승읍 만호리 578-1번지","indutype":"도소매업 - 주유소","category":"oil"}]},{"lat":"36.959496956","long":"126.85580159","imageIndex":9,"items":[{"name":"만호L.P.G충전소","tel":"031-683-7053","addr":"경기도 평택시 포승읍 만호리 400-9번지","indutype":"연료판매점 - E1가스충전소","category":"oil"}]},{"lat":"36.962467665","long":"126.85352766","imageIndex":13,"items":[{"name":"OK-잡","tel":"041-363-6113","addr":"경기도 평택시 포승읍 만호리 311-17번지","indutype":"보건위생 - 기타대인서비스","category":"beauty"}]},{"lat":"36.977015861","long":"126.84341385","imageIndex":13,"items":[{"name":"네일도네일(naildonail)","tel":"","addr":"경기도 평택시 포승읍 만호리 575-1번지 스마트빌듀오3차 1층 116호","indutype":"보건위생 - 피부미용실","category":"beauty"}]},{"lat":"36.957324897","long":"126.84833912","imageIndex":13,"items":[{"name":"도움지기","tel":"070-5103-0660","addr":"경기도 평택시 포승읍 만호리 570-1번지 평택항마린센터 1102호","indutype":"보건위생 - 화장품","category":"beauty"},{"name":"주식회사 더블유비씨코스메틱","tel":"070-5103-0660","addr":"경기도 평택시 포승읍 만호리 570-1번지 평택하안마린센터 1102호","indutype":"보건위생 - 화장품","category":"beauty"}]},{"lat":"36.961241115","long":"126.85266545","imageIndex":13,"items":[{"name":"성마무역","tel":"","addr":"경기도 평택시 포승읍 만호리 311-32번지 지층","indutype":"보건위생 - 화장품","category":"beauty"}]},{"lat":"36.960939408","long":"126.85639393","imageIndex":13,"items":[{"name":"전지현헤어샵","tel":"031-684-6552","addr":"경기도 평택시 포승읍 만호리 314-2번지 1층 102호","indutype":"보건위생 - 미용원","category":"beauty"}]},{"lat":"36.966469815","long":"126.8475795","imageIndex":13,"items":[{"name":"주식회사 에이스글로벌","tel":"02-861-8094","addr":"경기도 평택시 포승읍 만호리 641번지 103호","indutype":"보건위생 - 화장품","category":"beauty"}]},{"lat":"36.960245379","long":"126.84910798","imageIndex":13,"items":[{"name":"청품화장품","tel":"031-681-8686","addr":"경기도 평택시 포승읍 만호리 300-8번지","indutype":"보건위생 - 화장품","category":"beauty"}]},{"lat":"36.961136713","long":"126.85564124","imageIndex":13,"items":[{"name":"SBS당구장","tel":"031-684-8811","addr":"경기도 평택시 포승읍 만호리 313-7번지 2층 항만빌딩","indutype":"레저업소 - 당 구 장","category":"leisure"},{"name":"김재희평택항 댄스스포츠, 요가","tel":"031-684-7140","addr":"경기도 평택시 포승읍 만호리 313-7번지 항만빌딩","indutype":"레저업소 - 헬스클럽","category":"leisure"},{"name":"투투노래연습장","tel":"031-681-1520","addr":"경기도 평택시 포승읍 만호리 313-7번지 항만빌딩","indutype":"레저업소 - 노 래 방","category":"leisure"}]},{"lat":"36.975547041","long":"126.84336076","imageIndex":13,"items":[{"name":"뉴팡팡2노래연습장","tel":"031-684-1330","addr":"경기도 평택시 포승읍 만호리 574-5번지 스마트빌듀오1차 1동 114층 112,113,114층","indutype":"레저업소 - 노 래 방","category":"leisure"}]},{"lat":"36.960191642","long":"126.85649642","imageIndex":13,"items":[{"name":"어울림노래연습장","tel":"031-686-6436","addr":"경기도 평택시 포승읍 만호리 314-4번지 2층","indutype":"레저업소 - 노 래 방","category":"leisure"}]},{"lat":"36.965159422","long":"126.85883381","imageIndex":13,"items":[{"name":"큐 빌리어드","tel":"031-686-5876","addr":"경기도 평택시 포승읍 만호리 689-4번지","indutype":"레저업소 - 당 구 장","category":"leisure"}]},{"lat":"36.962080175","long":"126.85350596","imageIndex":13,"items":[{"name":"큐당구클럽","tel":"031-681-4939","addr":"경기도 평택시 포승읍 만호리 311-25번지 2층","indutype":"레저업소 - 당 구 장","category":"leisure"}]},{"lat":"36.96091002","long":"126.85449636","imageIndex":4,"items":[{"name":"가마솥 진곰탕 선지해장국","tel":"031-684-1288","addr":"경기도 평택시 포승읍 만호리 315-4번지","indutype":"일반휴게음식 - 일반한식","category":"restaurant"},{"name":"호호상사.커피뷰","tel":"031-681-7300","addr":"경기도 평택시 포승읍 만호리 315-4번지","indutype":"일반휴게음식 - 서양음식","category":"restaurant"}]},{"lat":"36.960191642","long":"126.85649642","imageIndex":4,"items":[{"name":"계림마을치킨천국(포승2호점)","tel":"031-682-4646","addr":"경기도 평택시 포승읍 만호리 314-4번지","indutype":"일반휴게음식 - 스넥","category":"restaurant"},{"name":"자매홍어찜","tel":"031-686-8885","addr":"경기도 평택시 포승읍 만호리 314-4번지","indutype":"일반휴게음식 - 일반한식","category":"restaurant"}]},{"lat":"36.960498145","long":"126.85660812","imageIndex":4,"items":[{"name":"계림마을치킨천국(포승2호점)","tel":"","addr":"경기도 평택시 포승읍 만호리 314-3번지 4동","indutype":"음식점 - 치킨","category":"restaurant"},{"name":"만땡포차","tel":"031-684-5722","addr":"경기도 평택시 포승읍 만호리 314-3번지 해오름 1동 102호","indutype":"일반휴게음식 - 일반한식","category":"restaurant"},{"name":"서해한식당","tel":"031-683-4818","addr":"경기도 평택시 포승읍 만호리 314-3번지 A동 101호","indutype":"일반휴게음식 - 일반한식","category":"restaurant"},{"name":"아리랑한식부페1호점","tel":"031-682-8878","addr":"경기도 평택시 포승읍 만호리 314-3번지 B동 101호","indutype":"일반휴게음식 - 일반한식","category":"restaurant"},{"name":"카페더브릿지(cafe the bridge)","tel":"","addr":"경기도 평택시 포승읍 만호리 314-3번지 해오름 B동 2층 201호","indutype":"일반휴게음식 - 서양음식","category":"restaurant"},{"name":"호가든","tel":"031-000-0000","addr":"경기도 평택시 포승읍 만호리 314-3번지 201호","indutype":"일반휴게음식 - 주점","category":"restaurant"}]},{"lat":"36.974466765","long":"126.84411547","imageIndex":4,"items":[{"name":"고잔골한방보쌈","tel":"031-684-5240","addr":"경기도 평택시 포승읍 만호리 577-4번지 B동 111호","indutype":"일반휴게음식 - 일반한식","category":"restaurant"},{"name":"하버스토리커피","tel":"031-684-4577","addr":"경기도 평택시 포승읍 만호리 577-4번지 A동 101호","indutype":"일반휴게음식 - 서양음식","category":"restaurant"}]},{"lat":"36.961467573","long":"126.85360821","imageIndex":4,"items":[{"name":"국수집","tel":"031-682-0855","addr":"경기도 평택시 포승읍 만호리 311-11번지","indutype":"음식점 - 한식","category":"restaurant"},{"name":"국수집","tel":"031-684-1102","addr":"경기도 평택시 포승읍 만호리 311-11번지","indutype":"일반휴게음식 - 일반한식","category":"restaurant"}]},{"lat":"36.961136713","long":"126.85564124","imageIndex":4,"items":[{"name":"끼리끼리","tel":"031-681-7289","addr":"경기도 평택시 포승읍 만호리 313-7번지 항만빌딩","indutype":"일반휴게음식 - 일반한식","category":"restaurant"}]},{"lat":"36.975547041","long":"126.84336076","imageIndex":4,"items":[{"name":"나드리 김밥","tel":"031-8094-1254","addr":"경기도 평택시 포승읍 만호리 574-5번지 스마트빌듀오1차 108호","indutype":"일반휴게음식 - 스넥","category":"restaurant"},{"name":"별난뒷고기","tel":"031-647-4140","addr":"경기도 평택시 포승읍 만호리 574-5번지 스마트빌듀오1차 111호","indutype":"일반휴게음식 - 일반한식","category":"restaurant"},{"name":"브라보커피","tel":"","addr":"경기도 평택시 포승읍 만호리 574-5번지 스마트빌듀오1차 106호","indutype":"일반휴게음식 - 서양음식","category":"restaurant"},{"name":"솔마루한식뷔페","tel":"031-683-9405","addr":"경기도 평택시 포승읍 만호리 574-5번지 스마트빌듀오1차 1층 120,121,122호","indutype":"일반휴게음식 - 일반한식","category":"restaurant"},{"name":"신포밀가(평택항로점)","tel":"031-8094-9438","addr":"경기도 평택시 포승읍 만호리 574-5번지 스마트빌듀오1차 109,110호","indutype":"일반휴게음식 - 일반한식","category":"restaurant"},{"name":"안군비어(만호점)","tel":"02-1111-1111","addr":"경기도 평택시 포승읍 만호리 574-5번지 스마트빌듀오1차 1층 115호","indutype":"일반휴게음식 - 주점","category":"restaurant"},{"name":"이모포차","tel":"031-681-6509","addr":"경기도 평택시 포승읍 만호리 574-5번지 스마트빌듀오1차 1층 103호","indutype":"일반휴게음식 - 주점","category":"restaurant"},{"name":"치킨퐁(포승점)","tel":"031-8029-7170","addr":"경기도 평택시 포승읍 만호리 574-5번지 스마트빌듀오1차 116,117,118호","indutype":"일반휴게음식 - 스넥","category":"restaurant"}]},{"lat":"36.960378975","long":"126.85496899","imageIndex":4,"items":[{"name":"대교한식부페","tel":"031-681-0474","addr":"경기도 평택시 포승읍 만호리 314-22번지 2층205,206,207,208","indutype":"일반휴게음식 - 일반한식","category":"restaurant"}]},{"lat":"36.961413169","long":"126.85333883","imageIndex":4,"items":[{"name":"대원정","tel":"031-681-4688","addr":"경기도 평택시 포승읍 만호리 311-10","indutype":"일반휴게음식 - 일반한식","category":"restaurant"}]},{"lat":"36.957415782","long":"126.85605261","imageIndex":4,"items":[{"name":"대풍식당","tel":"031-681-9710","addr":"경기도 평택시 포승읍 만호리 390-13번지","indutype":"일반휴게음식 - 일반한식","category":"restaurant"}]},{"lat":"36.977015861","long":"126.84341385","imageIndex":4,"items":[{"name":"대한선산곱창","tel":"","addr":"경기도 평택시 포승읍 만호리 575-1번지 스마트빌듀오3차 106호","indutype":"일반휴게음식 - 일반한식","category":"restaurant"},{"name":"딜리버리킹 조선닭볶음탕 포승점","tel":"","addr":"경기도 평택시 포승읍 만호리 575-1번지 스마트빌듀오3차 114호","indutype":"일반휴게음식 - 일반한식","category":"restaurant"},{"name":"떡킹","tel":"031-681-3356","addr":"경기도 평택시 포승읍 만호리 575-1번지 스마트빌듀오3차 1층 115호","indutype":"일반휴게음식 - 스넥","category":"restaurant"},{"name":"바지락칼국수","tel":"031-681-2588","addr":"경기도 평택시 포승읍 만호리 575-1번지 스마트빌듀오3차 1층 101,102호","indutype":"일반휴게음식 - 일반한식","category":"restaurant"},{"name":"위치커피 포승점","tel":"031-616-5050","addr":"경기도 평택시 포승읍 만호리 575-1번지 스마트빌듀오3차 1층 112호","indutype":"일반휴게음식 - 서양음식","category":"restaurant"},{"name":"이플비어","tel":"031-647-4050","addr":"경기도 평택시 포승읍 만호리 575-1번지 스마트빌듀오3차 1층 117호","indutype":"일반휴게음식 - 일반한식","category":"restaurant"}]},{"lat":"36.950108826","long":"126.84953253","imageIndex":4,"items":[{"name":"더밀","tel":"031-682-9001","addr":"경기도 평택시 포승읍 만호리 671번지","indutype":"일반휴게음식 - 위탁급식업","category":"restaurant"},{"name":"유가네푸드","tel":"031-8053-5160","addr":"경기도 평택시 포승읍 만호리 671번지 1층","indutype":"일반휴게음식 - 위탁급식업","category":"restaurant"}]},{"lat":"36.974519927","long":"126.84344152","imageIndex":4,"items":[{"name":"도담한식부페","tel":"031-686-5453","addr":"경기도 평택시 포승읍 만호리 578-7번지 만호빌딩","indutype":"일반휴게음식 - 일반한식","category":"restaurant"},{"name":"도담한식뷔페","tel":"031-683-0794","addr":"경기도 평택시 포승읍 만호리 578-7번지 1층","indutype":"음식점 - 한식","category":"restaurant"}]},{"lat":"36.967047409","long":"126.84827455","imageIndex":4,"items":[{"name":"도담한식부페2호점","tel":"031-684-7925","addr":"경기도 평택시 포승읍 만호리 639번지 가동 1층","indutype":"일반휴게음식 - 일반한식","category":"restaurant"}]},{"lat":"36.962080175","long":"126.85350596","imageIndex":4,"items":[{"name":"도현식당","tel":"031-684-9254","addr":"경기도 평택시 포승읍 만호리 311-25번지","indutype":"일반휴게음식 - 일반한식","category":"restaurant"},{"name":"마장동토종순대국","tel":"031-681-5564","addr":"경기도 평택시 포승읍 만호리 311-25번지 1층,2층","indutype":"일반휴게음식 - 일반한식","category":"restaurant"},{"name":"아대구해장국","tel":"031-682-6460","addr":"경기도 평택시 포승읍 만호리 311-25번지","indutype":"일반휴게음식 - 일반한식","category":"restaurant"},{"name":"일품양평해장국 포승점","tel":"031-000-0000","addr":"경기도 평택시 포승읍 만호리 311-25번지","indutype":"일반휴게음식 - 일반한식","category":"restaurant"},{"name":"한식웰빙부페","tel":"031-682-3324","addr":"경기도 평택시 포승읍 만호리 311-25번지","indutype":"일반휴게음식 - 일반한식","category":"restaurant"}]},{"lat":"36.974602361","long":"126.84444087","imageIndex":4,"items":[{"name":"돌판구이 평택옥","tel":"031-0000-0000","addr":"경기도 평택시 포승읍 만호리 577-7번지","indutype":"일반휴게음식 - 일반한식","category":"restaurant"}]},{"lat":"36.976627327","long":"126.84261727","imageIndex":4,"items":[{"name":"레스토랑 보르도/(주)알호텔이삼칠평택지점","tel":"031-220-7816","addr":"경기도 평택시 포승읍 만호리 574-1번지 2층","indutype":"일반휴게음식 - 일반한식","category":"restaurant"}]},{"lat":"36.976683248","long":"126.84399855","imageIndex":4,"items":[{"name":"롱커피","tel":"031-681-3004","addr":"경기도 평택시 포승읍 만호리 575-10번지 메트로하임 107호","indutype":"음식점 - 커피","category":"restaurant"},{"name":"티버즈카페(포승2호점)","tel":"","addr":"경기도 평택시 포승읍 만호리 575-10번지 평택메트로하임 112호","indutype":"일반휴게음식 - 서양음식","category":"restaurant"},{"name":"해운대회천국","tel":"031-616-0133","addr":"경기도 평택시 포승읍 만호리 575-10번지 평택메트로하임 104 105 106","indutype":"일반휴게음식 - 일반한식","category":"restaurant"},{"name":"해피빈(행복한카페)","tel":"031-616-2003","addr":"경기도 평택시 포승읍 만호리 575-10번지 평택메트로하임 107호","indutype":"일반휴게음식 - 서양음식","category":"restaurant"},{"name":"홍짜장","tel":"031-8094-2255","addr":"경기도 평택시 포승읍 만호리 575-10번지 평택메트로하임 1층 103호","indutype":"일반휴게음식 - 중국식","category":"restaurant"}]},{"lat":"36.957051839","long":"126.84625126","imageIndex":4,"items":[{"name":"만나한식뷔페","tel":"031-681-5139","addr":"경기도 평택시 포승읍 만호리 570-2번지","indutype":"음식점 - 한식","category":"restaurant"},{"name":"만나한식뷔페","tel":"031-683-8230","addr":"경기도 평택시 포승읍 만호리 570-2번지 평택항 국제여객터미널 타동 2층","indutype":"일반휴게음식 - 일반한식","category":"restaurant"}]},{"lat":"36.962712815","long":"126.84794645","imageIndex":4,"items":[{"name":"만호중국관","tel":"031-681-9253","addr":"경기도 평택시 포승읍 만호리 268-9번지","indutype":"일반휴게음식 - 중국식","category":"restaurant"},{"name":"순창식당","tel":"031-682-3661","addr":"경기도 평택시 포승읍 만호리 268-9번지","indutype":"일반휴게음식 - 일반한식","category":"restaurant"}]},{"lat":"36.959964859","long":"126.85527295","imageIndex":4,"items":[{"name":"모박사부대찌개","tel":"031-681-0283","addr":"경기도 평택시 포승읍 만호리 314-34번지 1층","indutype":"일반휴게음식 - 일반한식","category":"restaurant"},{"name":"씩씩이네한식부페","tel":"031-682-2229","addr":"경기도 평택시 포승읍 만호리 314-34번지 1층","indutype":"일반휴게음식 - 일반한식","category":"restaurant"}]},{"lat":"36.957324897","long":"126.84833912","imageIndex":4,"items":[{"name":"몬테비안코","tel":"031-8053-7777","addr":"경기도 평택시 포승읍 만호리 570-1번지 14,15층","indutype":"일반휴게음식 - 일반한식","category":"restaurant"},{"name":"몬테비안코","tel":"","addr":"경기도 평택시 포승읍 만호리 570-1번지 마린센터 15층","indutype":"음식점 - 양식","category":"restaurant"},{"name":"커피베이평택항점","tel":"031-681-7756","addr":"경기도 평택시 포승읍 만호리 570-1번지 1층","indutype":"일반휴게음식 - 서양음식","category":"restaurant"}]},{"lat":"36.963688702","long":"126.85721961","imageIndex":4,"items":[{"name":"미채원","tel":"031-681-8733","addr":"경기도 평택시 포승읍 만호리 696-2번지 101호,102호","indutype":"일반휴게음식 - 일반한식","category":"restaurant"}]},{"lat":"36.961658959","long":"126.85533706","imageIndex":4,"items":[{"name":"봉평막국수랑코다리","tel":"031-682-6866","addr":"경기도 평택시 포승읍 만호리 313-11번지","indutype":"일반휴게음식 - 일반한식","category":"restaurant"},{"name":"시골밥상","tel":"031-686-6292","addr":"경기도 평택시 포승읍 만호리 313-11번지","indutype":"일반휴게음식 - 일반한식","category":"restaurant"},{"name":"장모님닭개장","tel":"031-681-4796","addr":"경기도 평택시 포승읍 만호리 313-11번지","indutype":"일반휴게음식 - 일반한식","category":"restaurant"},{"name":"진맛집낙지해장국","tel":"031-683-7941","addr":"경기도 평택시 포승읍 만호리 313-11번지","indutype":"일반휴게음식 - 일반한식","category":"restaurant"}]},{"lat":"36.976467216","long":"126.84416747","imageIndex":4,"items":[{"name":"비버스치킨닭개장","tel":"031-681-8858","addr":"경기도 평택시 포승읍 만호리 575-9번지","indutype":"일반휴게음식 - 스넥","category":"restaurant"}]},{"lat":"36.962271976","long":"126.8484751","imageIndex":4,"items":[{"name":"새로이통닭","tel":"031-682-2808","addr":"경기도 평택시 포승읍 만호리 281-2번지","indutype":"일반휴게음식 - 주점","category":"restaurant"}]},{"lat":"36.962276156","long":"126.84480328","imageIndex":4,"items":[{"name":"서해꽃게","tel":"031-681-2222","addr":"경기도 평택시 포승읍 만호리 260-3번지 1층","indutype":"일반휴게음식 - 일반한식","category":"restaurant"},{"name":"항구식당","tel":"031-681-9971","addr":"경기도 평택시 포승읍 만호리 260-3번지","indutype":"일반휴게음식 - 일반한식","category":"restaurant"}]},{"lat":"36.975826116","long":"126.84316926","imageIndex":4,"items":[{"name":"시골손순대","tel":"031-683-0664","addr":"경기도 평택시 포승읍 만호리 574-4번지 제1동5,6호","indutype":"일반휴게음식 - 일반한식","category":"restaurant"}]},{"lat":"36.962629235","long":"126.85303328","imageIndex":4,"items":[{"name":"양자강포승점","tel":"031-684-3090","addr":"경기도 평택시 포승읍 만호리 311-22번지","indutype":"일반휴게음식 - 중국식","category":"restaurant"}]},{"lat":"36.96193552","long":"126.8461402","imageIndex":4,"items":[{"name":"연암포차","tel":"031-681-8250","addr":"경기도 평택시 포승읍 만호리 265-25","indutype":"일반휴게음식 - 주점","category":"restaurant"},{"name":"청정해","tel":"031-681-0717","addr":"경기도 평택시 포승읍 만호리 265-25번지 1층 101호","indutype":"일반휴게음식 - 일반한식","category":"restaurant"}]},{"lat":"36.96149717","long":"126.855663","imageIndex":4,"items":[{"name":"요모쪼모호프","tel":"031-682-5155","addr":"경기도 평택시 포승읍 만호리 313-6번지 2층","indutype":"일반휴게음식 - 주점","category":"restaurant"},{"name":"전라도맛집","tel":"031-682-5155","addr":"경기도 평택시 포승읍 만호리 313-6번지 2층 전체","indutype":"일반휴게음식 - 일반한식","category":"restaurant"},{"name":"정인시골멋집","tel":"031-682-5049","addr":"경기도 평택시 포승읍 만호리 313-6번지","indutype":"일반휴게음식 - 일반한식","category":"restaurant"}]},{"lat":"36.970435101","long":"126.84124897","imageIndex":4,"items":[{"name":"우리식당","tel":"031-682-3725","addr":"경기도 평택시 포승읍 만호리 620번지 B동102,103호","indutype":"일반휴게음식 - 일반한식","category":"restaurant"}]},{"lat":"36.96163279","long":"126.85603328","imageIndex":4,"items":[{"name":"유전","tel":"031-686-6779","addr":"경기도 평택시 포승읍 만호리 314-11번지","indutype":"일반휴게음식 - 일반한식","category":"restaurant"},{"name":"유전식당","tel":"031-681-8851","addr":"경기도 평택시 포승읍 만호리 314-11번지","indutype":"음식점 - 한식","category":"restaurant"}]},{"lat":"36.962467665","long":"126.85352766","imageIndex":4,"items":[{"name":"일월","tel":"031-683-4165","addr":"경기도 평택시 포승읍 만호리 311-17번지 1층","indutype":"일반휴게음식 - 중국식","category":"restaurant"}]},{"lat":"36.960686414","long":"126.85583299","imageIndex":4,"items":[{"name":"장안칼국수","tel":"031-684-8790","addr":"경기도 평택시 포승읍 만호리 313-9번지","indutype":"일반휴게음식 - 일반한식","category":"restaurant"}]},{"lat":"36.961997823","long":"126.84555618","imageIndex":4,"items":[{"name":"전망대","tel":"031-681-8333","addr":"경기도 평택시 포승읍 만호리 260-7번지","indutype":"일반휴게음식 - 일식·회집","category":"restaurant"}]},{"lat":"36.974853036","long":"126.84322745","imageIndex":4,"items":[{"name":"조이분식","tel":"031-684-6867","addr":"경기도 평택시 포승읍 만호리 578-4번지","indutype":"일반휴게음식 - 스넥","category":"restaurant"}]},{"lat":"36.961719485","long":"126.84630907","imageIndex":4,"items":[{"name":"진흥식당","tel":"031-682-3995","addr":"경기도 평택시 포승읍 만호리 265-28번지","indutype":"일반휴게음식 - 일반한식","category":"restaurant"}]},{"lat":"36.96176784","long":"126.8559432","imageIndex":4,"items":[{"name":"창희네연탄구이","tel":"031-684-6100","addr":"경기도 평택시 포승읍 만호리 314-10번지","indutype":"일반휴게음식 - 일반한식","category":"restaurant"}]},{"lat":"36.957164547","long":"126.85691765","imageIndex":4,"items":[{"name":"카페이앙","tel":"031-681-6581","addr":"경기도 평택시 포승읍 만호리 389-3번지","indutype":"일반휴게음식 - 서양음식","category":"restaurant"}]},{"lat":"36.960884511","long":"126.85572032","imageIndex":4,"items":[{"name":"커피킹","tel":"031-682-5073","addr":"경기도 평택시 포승읍 만호리 313-8번지 1층","indutype":"일반휴게음식 - 서양음식","category":"restaurant"}]},{"lat":"36.975519193","long":"126.84275436","imageIndex":4,"items":[{"name":"코업호텔","tel":"031-323-7666","addr":"경기도 평택시 포승읍 만호리 573-14번지 201호","indutype":"일반휴게음식 - 일반한식","category":"restaurant"}]},{"lat":"36.962802599","long":"126.8409507","imageIndex":4,"items":[{"name":"평택항레스토랑","tel":"031-612-0921","addr":"경기도 평택시 포승읍 만호리 564번지","indutype":"일반휴게음식 - 위탁급식업","category":"restaurant"}]},{"lat":"36.977185201","long":"126.84203209","imageIndex":4,"items":[{"name":"포승공단한식부페","tel":"031-681-1870","addr":"경기도 평택시 포승읍 만호리 573-6번지 101호","indutype":"일반휴게음식 - 일반한식","category":"restaurant"}]},{"lat":"36.962468511","long":"126.84717216","imageIndex":4,"items":[{"name":"포승민물장어수산","tel":"031-681-9285","addr":"경기도 평택시 포승읍 만호리 264-15번지 82호","indutype":"일반휴게음식 - 일반한식","category":"restaurant"}]},{"lat":"36.961884882","long":"126.85586437","imageIndex":4,"items":[{"name":"한우푸줏간","tel":"031-682-9229","addr":"경기도 평택시 포승읍 만호리 314-9번지","indutype":"일반휴게음식 - 일반한식","category":"restaurant"}]},{"lat":"36.962351225","long":"126.84706011","imageIndex":4,"items":[{"name":"해송식당","tel":"031-681-9838","addr":"경기도 평택시 포승읍 만호리 264-19번지","indutype":"음식점 - 한식","category":"restaurant"},{"name":"해송식당","tel":"031-681-5202","addr":"경기도 평택시 포승읍 만호리 264-19번지","indutype":"일반휴게음식 - 일반한식","category":"restaurant"}]},{"lat":"36.962189576","long":"126.8474759","imageIndex":4,"items":[{"name":"행랑채","tel":"031-683-5392","addr":"경기도 평택시 포승읍 만호리 264-22번지","indutype":"일반휴게음식 - 일반한식","category":"restaurant"}]},{"lat":"36.960966121","long":"126.85613562","imageIndex":4,"items":[{"name":"호오양꼬치","tel":"031-684-7991","addr":"경기도 평택시 포승읍 만호리 313-4번지","indutype":"일반휴게음식 - 일반한식","category":"restaurant"}]},{"lat":"36.962188072","long":"126.84633057","imageIndex":4,"items":[{"name":"홍두깨식당","tel":"031-686-6577","addr":"경기도 평택시 포승읍 만호리 262-8번지","indutype":"음식점 - 한식","category":"restaurant"},{"name":"홍두께식당","tel":"031-682-5397","addr":"경기도 평택시 포승읍 만호리 262-8번지","indutype":"일반휴게음식 - 일반한식","category":"restaurant"}]},{"lat":"36.960990596","long":"126.85408074","imageIndex":7,"items":[{"name":"경덕유통","tel":"031-686-7916","addr":"경기도 평택시 포승읍 만호리 312-3번지","indutype":"음료식품 - 기타음료식품","category":"food"}]},{"lat":"36.962740607","long":"126.84853029","imageIndex":7,"items":[{"name":"남애고추방아간","tel":"031-681-1235","addr":"경기도 평택시 포승읍 만호리 280-3번지","indutype":"음료식품 - 제과점","category":"food"}]},{"lat":"36.952157912","long":"126.85966666","imageIndex":7,"items":[{"name":"대가해수","tel":"031-686-8888","addr":"경기도 평택시 포승읍 만호리 370-13번지 1층","indutype":"음료식품 - 농·축·수산품","category":"food"},{"name":"참(마늘)유통","tel":"","addr":"경기도 평택시 포승읍 만호리 370-13번지","indutype":"음료식품 - 농·축·수산품","category":"food"}]},{"lat":"36.962912248","long":"126.84886681","imageIndex":7,"items":[{"name":"대신해","tel":"070-4320-7980","addr":"경기도 평택시 포승읍 만호리 279-4번지 104호","indutype":"음료식품 - 농·축·수산품","category":"food"}]},{"lat":"36.961467573","long":"126.85360821","imageIndex":7,"items":[{"name":"두리농산","tel":"031-682-1109","addr":"경기도 평택시 포승읍 만호리 311-11","indutype":"음료식품 - 기타음료식품","category":"food"}]},{"lat":"36.952574773","long":"126.86164189","imageIndex":7,"items":[{"name":"만수산","tel":"031-000-0000","addr":"경기도 평택시 포승읍 만호리 492-3번지","indutype":"음료식품 - 농·축·수산품","category":"food"}]},{"lat":"36.96091002","long":"126.85449636","imageIndex":7,"items":[{"name":"만호상사","tel":"031-681-7300","addr":"경기도 평택시 포승읍 만호리 315-4번지","indutype":"음료식품 - 기타음료식품","category":"food"},{"name":"호호상사.커피인","tel":"031-681-7300","addr":"경기도 평택시 포승읍 만호리 315-4번지","indutype":"음료식품 - 기타음료식품","category":"food"}]},{"lat":"36.959687179","long":"126.84946841","imageIndex":7,"items":[{"name":"서해상사","tel":"031-681-5647","addr":"경기도 평택시 포승읍 만호리 300-6번지 A(101,102,103호)","indutype":"음료식품 - 미곡상","category":"food"},{"name":"청도상사","tel":"031-683-6896","addr":"경기도 평택시 포승읍 만호리 300-6번지 106.107호","indutype":"음료식품 - 농·축·수산품","category":"food"}]},{"lat":"36.960551132","long":"126.84863577","imageIndex":7,"items":[{"name":"성권상사","tel":"031-686-7717","addr":"경기도 평택시 포승읍 만호리 295-3번지 (1호)","indutype":"음료식품 - 농·축·수산품","category":"food"}]},{"lat":"36.959786471","long":"126.84960295","imageIndex":7,"items":[{"name":"영광상사","tel":"031-683-6896","addr":"경기도 평택시 포승읍 만호리 300-6번지 세훈빌딩 A동 108호","indutype":"음료식품 - 기타음료식품","category":"food"}]},{"lat":"36.957858581","long":"126.85708475","imageIndex":7,"items":[{"name":"평택항농수산","tel":"","addr":"경기도 평택시 포승읍 만호리 394-16번지","indutype":"음료식품 - 기타음료식품","category":"food"}]},{"lat":"36.961884882","long":"126.85586437","imageIndex":7,"items":[{"name":"한우푸줏간정육점","tel":"031-682-9229","addr":"경기도 평택시 포승읍 만호리 314-9번지","indutype":"음료식품 - 정육점","category":"food"}]},{"lat":"36.960650411","long":"126.84875908","imageIndex":7,"items":[{"name":"한중식당","tel":"031-686-7717","addr":"경기도 평택시 포승읍 만호리 295-3번지 나동 1층","indutype":"음료식품 - 농·축·수산품","category":"food"}]},{"lat":"36.959270278","long":"126.84761657","imageIndex":7,"items":[{"name":"항만항업(주)","tel":"031-684-0894","addr":"경기도 평택시 포승읍 만호리 570번지 마린타워 12층","indutype":"음료식품 - 기타음료식품","category":"food"}]},{"lat":"36.961855665","long":"126.84708358","imageIndex":7,"items":[{"name":"호성게장","tel":"031-681-7787","addr":"경기도 평택시 포승읍 만호리 266-3번지","indutype":"음료식품 - 농·축·수산품","category":"food"}]},{"lat":"36.957324897","long":"126.84833912","imageIndex":7,"items":[{"name":"대양무역","tel":"031-691-1316","addr":"경기도 평택시 포승읍 만호리 570-1번지 평택항마린센터 102호","indutype":"유통업 영리 - 슈퍼마켓","category":"mart"}]},{"lat":"36.961136713","long":"126.85564124","imageIndex":7,"items":[{"name":"레인보우마트","tel":"031-681-6290","addr":"경기도 평택시 포승읍 만호리 313-7번지 항만빌딩 1,층","indutype":"유통업 영리 - 슈퍼마켓","category":"mart"}]},{"lat":"36.962189135","long":"126.84713904","imageIndex":7,"items":[{"name":"만호","tel":"031-681-0391","addr":"경기도 평택시 포승읍 만호리 264-16번지","indutype":"유통업 영리 - 슈퍼마켓","category":"mart"}]},{"lat":"36.970435101","long":"126.84124897","imageIndex":7,"items":[{"name":"만호마트","tel":"031-683-0059","addr":"경기도 평택시 포승읍 만호리 620번지 B동 101호","indutype":"유통업 영리 - 슈퍼마켓","category":"mart"}]},{"lat":"36.96091002","long":"126.85449636","imageIndex":7,"items":[{"name":"올스타낚시타운","tel":"031-682-8845","addr":"경기도 평택시 포승읍 만호리 315-4, 용인이씨취응유공파상가(5호점)","indutype":"유통업 영리 - 슈퍼마켓","category":"mart"}]},{"lat":"36.957051839","long":"126.84625126","imageIndex":7,"items":[{"name":"우리상사","tel":"031-681-1189","addr":"경기도 평택시 포승읍 만호리 570-2번지 평택항 국제여객터미널 타동 1층","indutype":"유통업 영리 - 슈퍼마켓","category":"mart"}]},{"lat":"36.974853036","long":"126.84322745","imageIndex":7,"items":[{"name":"조이할인마트","tel":"031-681-9912","addr":"경기도 평택시 포승읍 만호리 578-4번지 한샘빌딩 102호","indutype":"유통업 영리 - 슈퍼마켓","category":"mart"}]},{"lat":"36.977015861","long":"126.84341385","imageIndex":7,"items":[{"name":"초시마트","tel":"031-8029-9960","addr":"경기도 평택시 포승읍 만호리 575-1번지 스마트빌듀오3차 118호","indutype":"유통업 영리 - 슈퍼마켓","category":"mart"},{"name":"하모니마트","tel":"031-8029-9960","addr":"경기도 평택시 포승읍 만호리 575-1번지 스마트빌듀오3차 119호","indutype":"유통업 영리 - 슈퍼마켓","category":"mart"}]},{"lat":"36.962712815","long":"126.84794645","imageIndex":7,"items":[{"name":"호성슈퍼","tel":"031-681-9838","addr":"경기도 평택시 포승읍 만호리 268-9번지","indutype":"유통업 영리 - 슈퍼마켓","category":"mart"}]},{"lat":"36.976357218","long":"126.84277507","imageIndex":5,"items":[{"name":"샤롯캐슬호텔","tel":"031-682-9911","addr":"경기도 평택시 포승읍 만호리 574-2번지","indutype":"숙박업 - 여관/기타숙박업","category":"hotel"}]},{"lat":"36.976996265","long":"126.84224588","imageIndex":5,"items":[{"name":"웨스턴베이마리나호텔","tel":"031-1800-0288","addr":"경기도 평택시 포승읍 만호리 573-5번지","indutype":"숙박업 - 여관/기타숙박업","category":"hotel"}]},{"lat":"36.975519193","long":"126.84275436","imageIndex":5,"items":[{"name":"코업스테이호텔/밥잡(주)","tel":"031-647-3221","addr":"경기도 평택시 포승읍 만호리 573-14번지","indutype":"숙박업 - 여관/기타숙박업","category":"hotel"}]},{"lat":"36.976266368","long":"126.84222495","imageIndex":5,"items":[{"name":"탑관광호텔","tel":"031-682-3207","addr":"경기도 평택시 포승읍 만호리 573-10번지","indutype":"숙박업 - 여관/기타숙박업","category":"hotel"}]},{"lat":"36.976105191","long":"126.84297775","imageIndex":5,"items":[{"name":"평택라마다앙코르호텔","tel":"02-6255-3017","addr":"경기도 평택시 포승읍 만호리 574-3번지 평택라마다앙코르호텔 1206호","indutype":"숙박업 - 여관/기타숙박업","category":"hotel"}]},{"lat":"36.957324897","long":"126.84833912","imageIndex":16,"items":[{"name":"시립평택항어린이집[아이행복]","tel":"031-686-5100","addr":"경기도 평택시 포승읍 만호리 570-1번지","indutype":"학원 - 유아원","category":"study"}]},{"lat":"36.960686414","long":"126.85583299","imageIndex":8,"items":[{"name":"중앙메디컬약국","tel":"031-681-0640","addr":"경기도 평택시 포승읍 만호리 313-9번지","indutype":"약국 - 약국","category":"medical"}]},{"lat":"36.974853036","long":"126.84322745","imageIndex":8,"items":[{"name":"중앙치과의원","tel":"031-682-8841","addr":"경기도 평택시 포승읍 만호리 578-4번지 한샘빌딩 302호","indutype":"의원 - 치과의원","category":"medical"}]},{"lat":"36.962080175","long":"126.85350596","imageIndex":8,"items":[{"name":"항만약국","tel":"031-686-6466","addr":"경기도 평택시 포승읍 만호리 311-25번지","indutype":"약국 - 약국","category":"medical"}]}]