[{"lat":"37.319283682","long":"126.8474883","imageIndex":16,"items":[{"name":"건강사랑방","tel":"","addr":"경기도 안산시 상록구 성포동 747번지 안산파크푸르지오단지 상가 2층 207호","indutype":"학원 - 기타 교육기관","category":"study"}]},{"lat":"37.326812526","long":"126.8516023","imageIndex":16,"items":[{"name":"경수중학교","tel":"031-412-4102","addr":"경기도 안산시 상록구 성포동 594번지 경수중학교","indutype":"학원 - 초중고교육기관","category":"study"},{"name":"경수중학교_수업료","tel":"031-412-4102","addr":"경기도 안산시 상록구 성포동 594번지 경수중학교","indutype":"학원 - 초중고교육기관","category":"study"},{"name":"경수초등학교","tel":"070-7090-9907","addr":"경기도 안산시 상록구 성포동 594번지 경수중학교","indutype":"학원 - 초중고교육기관","category":"study"}]},{"lat":"37.326919331","long":"126.85057535","imageIndex":16,"items":[{"name":"경수초등학교병설유치원[아이행복]","tel":"070-7090-9915","addr":"경기도 안산시 상록구 성포동 594-3번지 경수초등학교","indutype":"학원 - 유치원","category":"study"}]},{"lat":"37.323752891","long":"126.8476032","imageIndex":16,"items":[{"name":"경일초등학교","tel":"031-487-4333","addr":"경기도 안산시 상록구 성포동 591-1번지","indutype":"학원 - 초중고교육기관","category":"study"}]},{"lat":"37.323091248","long":"126.8446599","imageIndex":16,"items":[{"name":"경희태권도","tel":"031-485-2002","addr":"경기도 안산시 상록구 성포동 583-4 사이버스튜디오201,202,203호","indutype":"학원 - 예·체능계학원","category":"study"},{"name":"권민경수학학원","tel":"031-410-9419","addr":"경기도 안산시 상록구 성포동 583-4번지 2층 205호 사이버스튜디오","indutype":"학원 - 보습학원","category":"study"},{"name":"리스트 바이올린교습소","tel":"031-000-0000","addr":"경기도 안산시 상록구 성포동 583-4번지 사이버스튜디오 2층 204호","indutype":"학원 - 예·체능계학원","category":"study"},{"name":"아이비티주니어학원","tel":"031-484-1005","addr":"경기도 안산시 상록구 성포동 583-4번지 사이버스튜디오 420호","indutype":"학원 - 보습학원","category":"study"},{"name":"애드온아트학원","tel":"031-484-4242","addr":"경기도 안산시 상록구 성포동 583-4번지 사이버스튜디오 207호","indutype":"학원 - 예·체능계학원","category":"study"},{"name":"위너스어학원","tel":"031-401-3097","addr":"경기도 안산시 상록구 성포동 583-4번지 사이버스튜디오 320,321호","indutype":"학원 - 외국어학원","category":"study"},{"name":"최강쎈수학교습서","tel":"031-486-0988","addr":"경기도 안산시 상록구 성포동 583-4번지 사이버스튜디오 209호","indutype":"학원 - 보습학원","category":"study"},{"name":"토마토음악학원","tel":"031-483-9087","addr":"경기도 안산시 상록구 성포동 583-4번지 사이버스튜디오 206호","indutype":"학원 - 예·체능계학원","category":"study"}]},{"lat":"37.326615126","long":"126.84532948","imageIndex":16,"items":[{"name":"교원독서실","tel":"031-401-7638","addr":"경기도 안산시 상록구 성포동 593-6번지 404,405호","indutype":"학원 - 독서실","category":"study"},{"name":"비엘스터디어학원","tel":"031-413-6205","addr":"경기도 안산시 상록구 성포동 593-6번지 성포프라자 201호","indutype":"학원 - 보습학원","category":"study"},{"name":"이룸공감아카데미학원","tel":"031-414-2609","addr":"경기도 안산시 상록구 성포동 593-6번지 성포프라자 304호","indutype":"학원 - 보습학원","category":"study"},{"name":"청운학원","tel":"031-414-9214","addr":"경기도 안산시 상록구 성포동 593-6번지 성포프라자 3층 303호","indutype":"학원 - 보습학원","category":"study"}]},{"lat":"37.3230912478","long":"126.8446599044","imageIndex":16,"items":[{"name":"권민경수학학원","tel":"031-410-9419","addr":"경기도 안산시 상록구 성포동 583-4번지","indutype":"교육서비스업 - 수학학원","category":"study"},{"name":"아이비티주니어학원","tel":"031-484-1005","addr":"경기도 안산시 상록구 성포동 583-4번지","indutype":"교육서비스업 - 보습학원","category":"study"},{"name":"애드온아트학원","tel":"031-484-4242","addr":"경기도 안산시 상록구 성포동 583-4번지","indutype":"교육서비스업 - 미술학원","category":"study"},{"name":"위너스어학원","tel":"031-401-3097","addr":"경기도 안산시 상록구 성포동 583-4번지","indutype":"교육서비스업 - 어학원","category":"study"},{"name":"토마토음악학원","tel":"031-483-9087","addr":"경기도 안산시 상록구 성포동 583-4번지","indutype":"교육서비스업 - 예체능계 학원","category":"study"}]},{"lat":"37.326806655","long":"126.84707791","imageIndex":16,"items":[{"name":"김말미 탁구교실","tel":"02-1111-1111","addr":"경기도 안산시 상록구 성포동 593-17번지 211,212호","indutype":"학원 - 예·체능계학원","category":"study"},{"name":"필앤필학원","tel":"031-410-5828","addr":"경기도 안산시 상록구 성포동 593-17번지 성포타운 311호","indutype":"학원 - 보습학원","category":"study"}]},{"lat":"37.320171348","long":"126.84421475","imageIndex":16,"items":[{"name":"김앤박영수학원","tel":"031-401-0711","addr":"경기도 안산시 상록구 성포동 588-1번지 예일빌딩 301호","indutype":"학원 - 예·체능계학원","category":"study"},{"name":"예리피아노학원","tel":"031-484-2267","addr":"경기도 안산시 상록구 성포동 588-1번지 연번지 302호","indutype":"학원 - 예·체능계학원","category":"study"}]},{"lat":"37.325971791","long":"126.84943771","imageIndex":16,"items":[{"name":"꼬마라기어린이집[아이행복]","tel":"031-482-6487","addr":"경기도 안산시 상록구 성포동 591번지 주공파트11단지 1101동105호","indutype":"학원 - 유아원","category":"study"}]},{"lat":"37.3245296518","long":"126.8490457589","imageIndex":16,"items":[{"name":"뉴청람학원","tel":"031-405-7470","addr":"경기도 안산시 상록구 성포동 591-3번지","indutype":"교육서비스업 - 학교교과교습학원","category":"study"},{"name":"다수인안산학원","tel":"031-482-0988","addr":"경기도 안산시 상록구 성포동 591-3번지","indutype":"교육서비스업 - 보습학원","category":"study"},{"name":"진성음악학원","tel":"031-410-6667","addr":"경기도 안산시 상록구 성포동 591-3번지","indutype":"교육서비스업 - 음악학원","category":"study"}]},{"lat":"37.324529652","long":"126.84904576","imageIndex":16,"items":[{"name":"뉴청람학원","tel":"031-405-7470","addr":"경기도 안산시 상록구 성포동 591-3번지 정수빌딩 201,203,204호","indutype":"학원 - 보습학원","category":"study"},{"name":"뉴청람학원","tel":"","addr":"경기도 안산시 상록구 성포동 591-3번지 정수빌딩 203호","indutype":"학원 - 보습학원","category":"study"},{"name":"다수인안산학원","tel":"031-482-0988","addr":"경기도 안산시 상록구 성포동 591-3번지 정수빌딩 404호","indutype":"학원 - 보습학원","category":"study"},{"name":"시사주니어학원","tel":"031-402-2324","addr":"경기도 안산시 상록구 성포동 591-3번지 정수빌딩 308동 309호","indutype":"학원 - 보습학원","category":"study"},{"name":"시온독서실","tel":"031-402-7779","addr":"경기도 안산시 상록구 성포동 591-3 정수빌딩306~309호","indutype":"학원 - 독서실","category":"study"},{"name":"정수태권도장","tel":"031-486-5938","addr":"경기도 안산시 상록구 성포동 591-3번지 정수빌딩 401동 403호","indutype":"학원 - 예·체능계학원","category":"study"},{"name":"진성음악학원","tel":"031-410-6667","addr":"경기도 안산시 상록구 성포동 591-3번지 정수빌딩 302동 303호","indutype":"학원 - 예·체능계학원","category":"study"},{"name":"하이피카소미술교습소","tel":"031-480-0087","addr":"경기도 안산시 상록구 성포동 591-3번지 정수빌딩 301호 일부","indutype":"학원 - 예·체능계학원","category":"study"}]},{"lat":"37.3207836613","long":"126.8439314197","imageIndex":16,"items":[{"name":"루틴학원","tel":"031-410-4619","addr":"경기도 안산시 상록구 성포동 583-5번지","indutype":"교육서비스업 - 보습학원,서적","category":"study"},{"name":"이보영의토킹클럽성포어학원","tel":"","addr":"경기도 안산시 상록구 성포동 583-5번지","indutype":"교육서비스업 - 외국어학원,서적","category":"study"},{"name":"혜주미술학원","tel":"031-410-3492","addr":"경기도 안산시 상록구 성포동 583-5번지","indutype":"교육서비스업 - 미술학원","category":"study"}]},{"lat":"37.320783661","long":"126.84393142","imageIndex":16,"items":[{"name":"루틴학원","tel":"031-410-4619","addr":"경기도 안산시 상록구 성포동 583-5번지 예술프라자 5층 503호","indutype":"학원 - 보습학원","category":"study"},{"name":"비상영수학원","tel":"031-411-3927","addr":"경기도 안산시 상록구 성포동 583-5번지 예술프라자 303,303-1호","indutype":"학원 - 보습학원","category":"study"},{"name":"비타러닝에듀메카학원","tel":"031-410-9393","addr":"경기도 안산시 상록구 성포동 583-5번지 예술프라자 505호","indutype":"학원 - 보습학원","category":"study"},{"name":"상상실용음악학원","tel":"031-481-9077","addr":"경기도 안산시 상록구 성포동 583-5번지 예술프라자 403호","indutype":"회원제형태 - 학원","category":"study"},{"name":"성포독서실","tel":"031-414-0882","addr":"경기도 안산시 상록구 성포동 583-5 예술프라자 501호~502호","indutype":"학원 - 독서실","category":"study"},{"name":"성포엘리트학원","tel":"031-414-2515","addr":"경기도 안산시 상록구 성포동 583-5번지 예술프라자 3층 301호","indutype":"학원 - 외국어학원","category":"study"},{"name":"성포음악학원","tel":"031-403-9070","addr":"경기도 안산시 상록구 성포동 583-5번지 예술프라자 401호","indutype":"학원 - 예·체능계학원","category":"study"},{"name":"안산컴퓨터학원","tel":"03-148-5555","addr":"경기도 안산시 상록구 성포동 583-5번지 예술프라자 2층 201호","indutype":"학원 - 컴퓨터학원","category":"study"},{"name":"엠베스트에스이공부학원","tel":"070-4414-9577","addr":"경기도 안산시 상록구 성포동 583-5번지 예술프라자 506호","indutype":"학원 - 보습학원","category":"study"},{"name":"예술체육관","tel":"031-482-9862","addr":"경기도 안산시 상록구 성포동 583-5 예술프라자 405.406호","indutype":"학원 - 예·체능계학원","category":"study"},{"name":"용성합기도체육관","tel":"031-410-7700","addr":"경기도 안산시 상록구 성포동 583-5번지 예술프라자 307호","indutype":"학원 - 예·체능계학원","category":"study"},{"name":"윤선생영어숲학원","tel":"031-486-0575","addr":"경기도 안산시 상록구 성포동 583-5번지 예술프라자 4층 402호","indutype":"학원 - 외국어학원","category":"study"},{"name":"이보영의토킹클럽성포어학원","tel":"031-486-1184","addr":"경기도 안산시 상록구 성포동 583-5번지 예술프라자 404호","indutype":"회원제형태 - 학원","category":"study"},{"name":"현음스즈키바이올린음악학원","tel":"031-411-4652","addr":"경기도 안산시 상록구 성포동 583-5번지 예술프라자 409호","indutype":"학원 - 예·체능계학원","category":"study"},{"name":"혜주미술학원","tel":"031-410-3492","addr":"경기도 안산시 상록구 성포동 583-5번지 예술프라자 408호","indutype":"학원 - 예·체능계학원","category":"study"},{"name":"호원요양보호사교육원","tel":"031-410-5051","addr":"경기도 안산시 상록구 성포동 583-5번지 예술프라자 507호","indutype":"회원제형태 - 학원","category":"study"}]},{"lat":"37.326645273","long":"126.84768751","imageIndex":16,"items":[{"name":"블루라군","tel":"031-483-1300","addr":"경기도 안산시 상록구 성포동 593-23번지 삼희프라자 지하2층 201호","indutype":"학원 - 기타 교육기관","category":"study"}]},{"lat":"37.326228774","long":"126.85310407","imageIndex":16,"items":[{"name":"상록청소년수련관","tel":"031-475-1981","addr":"경기도 안산시 상록구 성포동 214-1번지","indutype":"학원 - 기타 교육기관","category":"study"}]},{"lat":"37.325612124","long":"126.84318788","imageIndex":16,"items":[{"name":"선경유치원[아이행복]","tel":"031-403-6531","addr":"경기도 안산시 상록구 성포동 592번지 선경아파트","indutype":"학원 - 유치원","category":"study"},{"name":"하늘꿈어린이집[아이행복]","tel":"031-409-6219","addr":"경기도 안산시 상록구 성포동 592번지 선경상가 비동 3동 103호","indutype":"학원 - 유아원","category":"study"},{"name":"해냄수학교습소","tel":"031-402-2314","addr":"경기도 안산시 상록구 성포동 592번지 선경 상가 B동 201호","indutype":"학원 - 보습학원","category":"study"}]},{"lat":"37.325973684","long":"126.85090445","imageIndex":16,"items":[{"name":"성포고등학교","tel":"031-599-9283","addr":"경기도 안산시 상록구 성포동 594-1번지 성포고등학교","indutype":"학원 - 초중고교육기관","category":"study"},{"name":"성포고등학교_수업료","tel":"031-599-9283","addr":"경기도 안산시 상록구 성포동 594-1번지 성포고등학교","indutype":"학원 - 초중고교육기관","category":"study"}]},{"lat":"37.323953308","long":"126.84249188","imageIndex":16,"items":[{"name":"성포초등학교","tel":"031-487-4312","addr":"경기도 안산시 상록구 성포동 592-1번지 성포초등학교","indutype":"학원 - 초중고교육기관","category":"study"}]},{"lat":"37.3256121242","long":"126.8431878805","imageIndex":16,"items":[{"name":"성포해법학원","tel":"031-475-0599","addr":"경기도 안산시 상록구 성포동 592번지","indutype":"교육서비스업 - 학원","category":"study"},{"name":"예원음악학원","tel":"031-405-5353","addr":"경기도 안산시 상록구 성포동 592번지 선경아파트","indutype":"교육서비스업 - 음악학원","category":"study"}]},{"lat":"37.3201713480","long":"126.8442147539","imageIndex":16,"items":[{"name":"어린음악대성포예리원음악학원","tel":"031-484-2267","addr":"경기도 안산시 상록구 성포동 588-1번지","indutype":"교육서비스업 - 피아노학원,서점","category":"study"}]},{"lat":"37.326838736","long":"126.84409919","imageIndex":16,"items":[{"name":"우리언어심리센터","tel":"","addr":"경기도 안산시 상록구 성포동 593-11번지 경동프라자 306,307호","indutype":"학원 - 기타 교육기관","category":"study"},{"name":"지혜의숲 사고력논술학원","tel":"031-414-7555","addr":"경기도 안산시 상록구 성포동 593-11번지 경동프라자 401호 상가","indutype":"학원 - 보습학원","category":"study"}]},{"lat":"37.320064041","long":"126.8448242","imageIndex":16,"items":[{"name":"플레이팩토&다비수성포수학교습소","tel":"031-000-0000","addr":"경기도 안산시 상록구 성포동 588-2번지 주공4단지아파트 209호","indutype":"학원 - 보습학원","category":"study"}]},{"lat":"37.326392069","long":"126.84698851","imageIndex":16,"items":[{"name":"한뜻학원","tel":"031-401-8930","addr":"경기도 안산시 상록구 성포동 593-25번지","indutype":"학원 - 기타 교육기관","category":"study"}]}]