[{"lat":"37.041040722","long":"127.10041467","imageIndex":13,"items":[{"name":"(주) 비에이치파트너스","tel":"031-666-0707","addr":"경기도 평택시 도일동 995-8번지","indutype":"레저업소 - 골프연습장","category":"leisure"}]},{"lat":"37.043631934","long":"127.11497475","imageIndex":17,"items":[{"name":"(주)셈크로","tel":"031-618-7937","addr":"경기도 평택시 도일동 187-1번지","indutype":"전기제품 - 기타전기제품","category":"other"}]},{"lat":"37.05418529","long":"127.11292169","imageIndex":17,"items":[{"name":"(주)우신렌탈","tel":"031-663-3651","addr":"경기도 평택시 도일동 280-10번지","indutype":"기타 - 기계공구","category":"other"}]},{"lat":"37.055625516","long":"127.11449772","imageIndex":17,"items":[{"name":"(주)코리아오토시스템","tel":"031-668-9731","addr":"경기도 평택시 도일동 276-14번지 1층","indutype":"사무통신 - 컴퓨터","category":"other"},{"name":"이마트24 평택브레인시티점","tel":"","addr":"경기도 평택시 도일동 276-14번지","indutype":"소매업 - 편의점","category":"other"},{"name":"이마트24 평택브레인시티점","tel":"031-000-0000","addr":"경기도 평택시 도일동 276-14번지","indutype":"유통업 영리 - 편 의 점","category":"other"}]},{"lat":"37.038852849","long":"127.09830999","imageIndex":17,"items":[{"name":"(주)호연지기","tel":"031-618-4741","addr":"경기도 평택시 도일동 1165-6번지","indutype":"건축자재 - 인테리어전문","category":"other"}]},{"lat":"37.056929987","long":"127.09600538","imageIndex":17,"items":[{"name":"21세기 하우징","tel":"031-611-0404","addr":"경기도 평택시 도일동 910-10번지","indutype":"건축자재 - 인테리어전문","category":"other"}]},{"lat":"37.037264322","long":"127.1015563","imageIndex":17,"items":[{"name":"SH스포츠","tel":"031-668-8932","addr":"경기도 평택시 도일동 1173-4번지","indutype":"용역 서비스 - 보관및 창고업","category":"other"},{"name":"에스제이 (SJ)스포츠","tel":"031-681-8483","addr":"경기도 평택시 도일동 1173-4번지","indutype":"의류 - 스포츠의류","category":"other"}]},{"lat":"37.043794759","long":"127.1042513","imageIndex":17,"items":[{"name":"거성종합상사","tel":"031-656-9393","addr":"경기도 평택시 도일동 708-3번지 외4필지","indutype":"건축자재 - 기타건축자재","category":"other"}]},{"lat":"37.040437801","long":"127.09944724","imageIndex":17,"items":[{"name":"골프닥터 (평택)","tel":"031-665-0725","addr":"경기도 평택시 도일동 1166-2번지 나동","indutype":"레져용품 - 골프용품 전문점","category":"other"}]},{"lat":"37.041040722","long":"127.10041467","imageIndex":17,"items":[{"name":"골프존파크","tel":"031-664-0708","addr":"경기도 평택시 도일동 995-8번지 지하1층","indutype":"레져용품 - 골프용품 전문점","category":"other"},{"name":"프로골프샵","tel":"031-668-8871","addr":"경기도 평택시 도일동 995-8번지 빅토리골프클럽","indutype":"레져용품 - 골프용품 전문점","category":"other"}]},{"lat":"37.039906265","long":"127.09933416","imageIndex":17,"items":[{"name":"골프채 연구소","tel":"031-668-1872","addr":"경기도 평택시 도일동 1166-5번지","indutype":"레져용품 - 골프용품 전문점","category":"other"},{"name":"골프채연구소","tel":"","addr":"경기도 평택시 도일동 1166-5번지","indutype":"제조업 - 골프채","category":"other"}]},{"lat":"37.055880498","long":"127.12103002","imageIndex":17,"items":[{"name":"나사휠터","tel":"031-666-8881","addr":"경기도 평택시 도일동 26-1,101-12","indutype":"기타 - 기계공구","category":"other"}]},{"lat":"37.045769427","long":"127.11286458","imageIndex":17,"items":[{"name":"대우렌탈","tel":"031-668-0902","addr":"경기도 평택시 도일동 207-7번지","indutype":"기타 - 기계공구","category":"other"}]},{"lat":"37.061960474","long":"127.09267222","imageIndex":17,"items":[{"name":"돌사랑석재","tel":"031-658-6133","addr":"경기도 평택시 도일동 890-13번지","indutype":"건축자재 - 목재·석재·철물","category":"other"}]},{"lat":"37.058181008","long":"127.0978395","imageIndex":17,"items":[{"name":"루마건물(Window Film)","tel":"031-668-2536","addr":"경기도 평택시 도일동 932-5번지","indutype":"건축자재 - 기타건축자재","category":"other"}]},{"lat":"37.055706325","long":"127.11480139","imageIndex":17,"items":[{"name":"멋진친구이벤트","tel":"070-7722-5094","addr":"경기도 평택시 도일동 276-15번지","indutype":"용역 서비스 - 사무서비스","category":"other"}]},{"lat":"37.050017662","long":"127.09750332","imageIndex":17,"items":[{"name":"명인조경 주식회사","tel":"02-549-7301","addr":"경기도 평택시 도일동 784-26번지 2층","indutype":"건축자재 - 인테리어전문","category":"other"}]},{"lat":"37.038572235","long":"127.09989448","imageIndex":17,"items":[{"name":"미니스톱평택물류단지점","tel":"031-1577-9621","addr":"경기도 평택시 도일동 1167-5번지 1층","indutype":"유통업 영리 - 편 의 점","category":"other"},{"name":"포트 오브 모카","tel":"031-664-6656","addr":"경기도 평택시 도일동 1167-5번지 103호","indutype":"소매업 - 카페","category":"other"}]},{"lat":"37.060204897","long":"127.12172255","imageIndex":17,"items":[{"name":"봉황사","tel":"031-665-7790","addr":"경기도 평택시 도일동 53-1번지","indutype":"기타 - 비영리/대상","category":"other"}]},{"lat":"37.064400324","long":"127.09530614","imageIndex":17,"items":[{"name":"빨간굴뚝","tel":"031-666-4955","addr":"경기도 평택시 도일동 883-47번지","indutype":"의류 - 정장","category":"other"}]},{"lat":"37.051428411","long":"127.11252424","imageIndex":17,"items":[{"name":"송탄발전기","tel":"031-665-3484","addr":"경기도 평택시 도일동 245번지","indutype":"건축자재 - 보일러·펌프·샷시","category":"other"}]},{"lat":"37.041876423","long":"127.11330858","imageIndex":17,"items":[{"name":"씨유송탄도일점","tel":"080-080-3663","addr":"경기도 평택시 도일동 183-8번지 1층","indutype":"유통업 영리 - 편 의 점","category":"other"}]},{"lat":"37.04652058","long":"127.11889093","imageIndex":17,"items":[{"name":"아름다운창 주식회사","tel":"031-665-9691","addr":"경기도 평택시 도일동 177-4번지","indutype":"직물 - 카페트,커튼,천막,지물","category":"other"}]},{"lat":"37.043596285","long":"127.10453205","imageIndex":17,"items":[{"name":"아재주방","tel":"031-611-9919","addr":"경기도 평택시 도일동 705-1번지 외 2필지","indutype":"주방용구 - 주방용구","category":"other"},{"name":"제일상사","tel":"031-651-0136","addr":"경기도 평택시 도일동 705-1번지 1층","indutype":"건축자재 - 기타건축자재","category":"other"}]},{"lat":"37.042960106","long":"127.11069108","imageIndex":17,"items":[{"name":"아크릴 가공","tel":"031-692-3660","addr":"경기도 평택시 도일동 643-8번지 가동 3호","indutype":"유통업 영리 - 기타유통업","category":"other"}]},{"lat":"37.051711891","long":"127.11766221","imageIndex":17,"items":[{"name":"약천추모공원","tel":"02-1599-4946","addr":"경기도 평택시 도일동 173-1번지","indutype":"용역 서비스 - 가례서비스업","category":"other"}]},{"lat":"37.05043224","long":"127.09739141","imageIndex":17,"items":[{"name":"에어컨프라자","tel":"031-611-3911","addr":"경기도 평택시 도일동 784-5번지","indutype":"전기제품 - 냉열기기","category":"other"},{"name":"유한회사포포에어컨","tel":"031-657-4912","addr":"경기도 평택시 도일동 784-5번지","indutype":"전기제품 - 냉열기기","category":"other"}]},{"lat":"37.043824708","long":"127.10077794","imageIndex":17,"items":[{"name":"오렌지유압","tel":"031-663-9866","addr":"경기도 평택시 도일동 989-6번지 202호","indutype":"기타 - 기계공구","category":"other"}]},{"lat":"37.044353254","long":"127.10444313","imageIndex":17,"items":[{"name":"온누리유통","tel":"031-663-4484","addr":"경기도 평택시 도일동 624-2번지 1층","indutype":"유통업 영리 - 기타유통업","category":"other"}]},{"lat":"37.064482729","long":"127.09360843","imageIndex":17,"items":[{"name":"우진CS","tel":"031-1599-7461","addr":"경기도 평택시 도일동 883-12번지","indutype":"용역 서비스 - 종합용역","category":"other"}]},{"lat":"37.044936143","long":"127.11741595","imageIndex":17,"items":[{"name":"이룸에어컨","tel":"031-657-3158","addr":"경기도 평택시 도일동 179-34번지 B동 101호","indutype":"회원제형태 - 기타4","category":"other"}]},{"lat":"37.048879504","long":"127.10097553","imageIndex":17,"items":[{"name":"이얀주택공사","tel":"031-664-5318","addr":"경기도 평택시 도일동 727-1번지","indutype":"제조업 - 건설","category":"other"}]},{"lat":"37.052601161","long":"127.11103073","imageIndex":17,"items":[{"name":"제이인테리어디자인","tel":"031-665-6111","addr":"경기도 평택시 도일동 240-4번지 1층","indutype":"건축자재 - 인테리어전문","category":"other"},{"name":"카페몽상","tel":"","addr":"경기도 평택시 도일동 240-4번지 101호","indutype":"소매업 - 카페","category":"other"}]},{"lat":"37.049986677","long":"127.1023372","imageIndex":17,"items":[{"name":"제일칠판","tel":"031-665-7804","addr":"경기도 평택시 도일동 730번지","indutype":"사무통신 - 기타 사무용품","category":"other"}]},{"lat":"37.054456429","long":"127.11203393","imageIndex":17,"items":[{"name":"주식회사 글로컬","tel":"031-669-9977","addr":"경기도 평택시 도일동 281-3번지","indutype":"서비스업 - 골프연습장","category":"other"},{"name":"케이피스포츠","tel":"031-611-3259","addr":"경기도 평택시 도일동 281-3번지","indutype":"소매업 - 골프장비용품","category":"other"},{"name":"케이피스포츠(KP SPORTS)","tel":"031-664-6336","addr":"경기도 평택시 도일동 281-3번지","indutype":"레져용품 - 스포츠·레져용품","category":"other"}]},{"lat":"37.052238593","long":"127.11335732","imageIndex":17,"items":[{"name":"주식회사 연우이엔지","tel":"031-664-0613","addr":"경기도 평택시 도일동 254-2번지 2층","indutype":"건축자재 - 기타건축자재","category":"other"}]},{"lat":"37.055850802","long":"127.11447556","imageIndex":17,"items":[{"name":"주식회사에이스솔루션","tel":"031-691-1316","addr":"경기도 평택시 도일동 276-41번지 1층","indutype":"서적문구 - 과학기자재","category":"other"}]},{"lat":"37.059765321","long":"127.12858017","imageIndex":17,"items":[{"name":"지명에프엘","tel":"","addr":"경기도 평택시 도일동 9-2번지","indutype":"기타 - 기계공구","category":"other"},{"name":"팔달건설기계","tel":"070-4789-1436","addr":"경기도 평택시 도일동 9-2번지","indutype":"기타 - 기계공구","category":"other"}]},{"lat":"37.037959632","long":"127.09974758","imageIndex":17,"items":[{"name":"차앤림커피","tel":"031-663-9259","addr":"경기도 평택시 도일동 1172-2번지","indutype":"소매업 - 카페","category":"other"}]},{"lat":"37.035905538","long":"127.09934034","imageIndex":17,"items":[{"name":"청계철물","tel":"031-611-3150","addr":"경기도 평택시 도일동 1002-41번지","indutype":"건축자재 - 목재·석재·철물","category":"other"}]},{"lat":"37.063959727","long":"127.09411377","imageIndex":17,"items":[{"name":"킹타일도기","tel":"031-664-6601","addr":"경기도 평택시 도일동 883-3번지","indutype":"건축자재 - 건축용 요업제품","category":"other"}]},{"lat":"37.053071247","long":"127.10933384","imageIndex":17,"items":[{"name":"평택 히아브","tel":"031-667-2050","addr":"경기도 평택시 도일동 472번지 1층","indutype":"기타 - 기계공구","category":"other"}]},{"lat":"37.051485331","long":"127.10938783","imageIndex":17,"items":[{"name":"평화목재","tel":"031-651-1192","addr":"경기도 평택시 도일동 548-1번지","indutype":"건축자재 - 기타건축자재","category":"other"}]},{"lat":"37.044207932","long":"127.1057806","imageIndex":17,"items":[{"name":"포스원코리아","tel":"031-665-6112","addr":"경기도 평택시 도일동 710-12번지","indutype":"건축자재 - 조명기구","category":"other"}]},{"lat":"37.054876674","long":"127.12463727","imageIndex":17,"items":[{"name":"해피데이","tel":"070-5672-8346","addr":"경기도 평택시 도일동 15-8번지","indutype":"주방용구 - 주방용구","category":"other"}]},{"lat":"37.044017522","long":"127.10714048","imageIndex":17,"items":[{"name":"현오에이시스템","tel":"031-664-0089","addr":"경기도 평택시 도일동 710-15","indutype":"사무통신 - 사무용 OA기기","category":"other"}]},{"lat":"37.052817326","long":"127.10075576","imageIndex":0,"items":[{"name":"SY모터텍","tel":"031-665-0940","addr":"경기도 평택시 도일동 761-1번지","indutype":"자동차정비 유지 - 자동차부품","category":"car"}]},{"lat":"37.039906265","long":"127.09933416","imageIndex":0,"items":[{"name":"VK모터스","tel":"031-654-7723","addr":"경기도 평택시 도일동 1166-5번지 1층 101호","indutype":"자동차정비 유지 - 카인테리어","category":"car"}]},{"lat":"37.037823028","long":"127.10150083","imageIndex":0,"items":[{"name":"금마정비&타이어","tel":"070-8666-1081","addr":"경기도 평택시 도일동 1173-2번지","indutype":"자동차정비 유지 - 자동차시트·타이어","category":"car"}]},{"lat":"37.043572193","long":"127.11138887","imageIndex":0,"items":[{"name":"남부특장","tel":"031-668-9226","addr":"경기도 평택시 도일동 196-3번지","indutype":"자동차판매 - 기타운송","category":"car"}]},{"lat":"37.039708705","long":"127.09850214","imageIndex":0,"items":[{"name":"넥스피아","tel":"","addr":"경기도 평택시 도일동 1165-3번지","indutype":"자동차정비 유지 - 자동차정비","category":"car"},{"name":"카톡 (자동차를말하다)","tel":"070-4115-6669","addr":"경기도 평택시 도일동 1165-3번지 나동","indutype":"자동차정비 유지 - 자동차부품","category":"car"}]},{"lat":"37.048377353","long":"127.09797342","imageIndex":0,"items":[{"name":"뉴서울자동차용품","tel":"031-665-6132","addr":"경기도 평택시 도일동 983-5번지","indutype":"자동차정비 유지 - 자동차부품","category":"car"}]},{"lat":"37.042960106","long":"127.11069108","imageIndex":0,"items":[{"name":"대박상사","tel":"070-7420-8288","addr":"경기도 평택시 도일동 643-8번지 나동 1층 4,5호","indutype":"자동차정비 유지 - 자동차부품","category":"car"},{"name":"송탄전자","tel":"031-663-3605","addr":"경기도 평택시 도일동 643-8번지","indutype":"자동차정비 유지 - 자동차부품","category":"car"},{"name":"오일리브","tel":"031-1212-1212","addr":"경기도 평택시 도일동 643-8번지 1층","indutype":"자동차정비 유지 - 윤활유 전문 판매","category":"car"},{"name":"오일쉐프","tel":"031-668-1998","addr":"경기도 평택시 도일동 643-8번지 가동5,6호","indutype":"자동차정비 유지 - 자동차부품","category":"car"}]},{"lat":"37.052350671","long":"127.1090293","imageIndex":0,"items":[{"name":"대성미션","tel":"031-664-0667","addr":"경기도 평택시 도일동 559번지","indutype":"자동차정비 유지 - 자동차부품","category":"car"}]},{"lat":"37.055880498","long":"127.12103002","imageIndex":0,"items":[{"name":"대성타이어","tel":"031-618-1040","addr":"경기도 평택시 도일동 26-1번지 외2필지 1동","indutype":"자동차정비 유지 - 자동차시트·타이어","category":"car"}]},{"lat":"37.0481516","long":"127.09858018","imageIndex":0,"items":[{"name":"도일자동차","tel":"031-667-7924","addr":"경기도 평택시 도일동 983-6번지","indutype":"자동차정비 유지 - 자동차정비","category":"car"}]},{"lat":"37.043824708","long":"127.10077794","imageIndex":0,"items":[{"name":"동명산기","tel":"031-667-2631","addr":"경기도 평택시 도일동 989-6번지 1층","indutype":"자동차판매 - 기타운송","category":"car"}]},{"lat":"37.053206255","long":"127.10950266","imageIndex":0,"items":[{"name":"리프트특장","tel":"00-1566-7599","addr":"경기도 평택시 도일동 472-1","indutype":"자동차판매 - 기타운송","category":"car"}]},{"lat":"37.038212623","long":"127.09889366","imageIndex":0,"items":[{"name":"만복JW자동차용품점","tel":"031-611-3080","addr":"경기도 평택시 도일동 1171-2번지","indutype":"자동차정비 유지 - 카인테리어","category":"car"}]},{"lat":"37.053071247","long":"127.10933384","imageIndex":0,"items":[{"name":"선진부란자","tel":"031-655-2295","addr":"경기도 평택시 도일동 472번지","indutype":"자동차정비 유지 - 자동차정비","category":"car"},{"name":"주식회사 태영자동차","tel":"031-611-2171","addr":"경기도 평택시 도일동 472번지","indutype":"자동차정비 유지 - 자동차부품","category":"car"}]},{"lat":"37.049485973","long":"127.09758135","imageIndex":0,"items":[{"name":"송탄판매서비스","tel":"031-663-2070","addr":"경기도 평택시 도일동 784-24번지","indutype":"자동차정비 유지 - 자동차시트·타이어","category":"car"}]},{"lat":"37.043270881","long":"127.11563742","imageIndex":0,"items":[{"name":"영진사","tel":"031-668-6553","addr":"경기도 평택시 도일동 188-12번지 2동","indutype":"자동차정비 유지 - 자동차시트·타이어","category":"car"}]},{"lat":"37.035518372","long":"127.09898019","imageIndex":0,"items":[{"name":"운진자동차정비","tel":"031-667-9300","addr":"경기도 평택시 도일동 1004-6번지","indutype":"자동차정비 유지 - 자동차부품","category":"car"}]},{"lat":"37.039347962","long":"127.09889509","imageIndex":0,"items":[{"name":"원스탑서비스","tel":"","addr":"경기도 평택시 도일동 1166-11번지","indutype":"서비스업 - 자동차정비","category":"car"},{"name":"원스탑서비스","tel":"","addr":"경기도 평택시 도일동 1166-11번지 1층 101호","indutype":"자동차정비 유지 - 카인테리어","category":"car"},{"name":"원스탑서비스(ONESTOP SERVICE)","tel":"031-665-1110","addr":"경기도 평택시 도일동 1166-11번지","indutype":"자동차정비 유지 - 자동차정비","category":"car"}]},{"lat":"37.062872971","long":"127.11133764","imageIndex":0,"items":[{"name":"원천타이어","tel":"031-216-6849","addr":"경기도 평택시 도일동 351","indutype":"자동차정비 유지 - 자동차시트·타이어","category":"car"}]},{"lat":"37.035960166","long":"127.09864356","imageIndex":0,"items":[{"name":"지티(GT)카써비스","tel":"031-647-0985","addr":"경기도 평택시 도일동 1004-3번지","indutype":"자동차정비 유지 - 자동차정비","category":"car"},{"name":"평택쑈카","tel":"031-647-0988","addr":"경기도 평택시 도일동 1004-3번지","indutype":"자동차정비 유지 - 자동차부품","category":"car"}]},{"lat":"37.035716159","long":"127.09953118","imageIndex":0,"items":[{"name":"평택 카스페이스","tel":"","addr":"경기도 평택시 도일동 1002-39번지","indutype":"자동차정비 유지 - 카인테리어","category":"car"}]},{"lat":"37.039186179","long":"127.09838908","imageIndex":0,"items":[{"name":"평택번호판제작(주)","tel":"031-665-7775","addr":"경기도 평택시 도일동 1165-5번지","indutype":"자동차정비 유지 - 자동차부품","category":"car"}]},{"lat":"37.055929448","long":"127.11705023","imageIndex":0,"items":[{"name":"평택지게차정비공업사","tel":"031-656-8228","addr":"경기도 평택시 도일동 136-4번지","indutype":"자동차정비 유지 - 중장비수리","category":"car"}]},{"lat":"37.053486242","long":"127.09813719","imageIndex":8,"items":[{"name":"경기도 노인전문 평택병원","tel":"","addr":"경기도 평택시 도일동 965-25번지","indutype":"서비스업 - 병원","category":"medical"}]},{"lat":"37.058095413","long":"127.12271988","imageIndex":7,"items":[{"name":"고려유통시스템","tel":"","addr":"경기도 평택시 도일동 50-1번지","indutype":"음료식품 - 기타음료식품","category":"food"},{"name":"평송식품","tel":"031-666-7354","addr":"경기도 평택시 도일동 50-1번지","indutype":"음료식품 - 기타음료식품","category":"food"}]},{"lat":"37.043824708","long":"127.10077794","imageIndex":7,"items":[{"name":"도토리푸드","tel":"031-668-0668","addr":"경기도 평택시 도일동 989-6번지","indutype":"음료식품 - 기타음료식품","category":"food"}]},{"lat":"37.062733557","long":"127.09505676","imageIndex":7,"items":[{"name":"평송한우영농조합법인","tel":"031-658-3552","addr":"경기도 평택시 도일동 890-1번지","indutype":"음료식품 - 정육점","category":"food"}]},{"lat":"37.066934599","long":"127.09230702","imageIndex":4,"items":[{"name":"길섶","tel":"031-664-4248","addr":"경기도 평택시 도일동 879번지","indutype":"일반휴게음식 - 서양음식","category":"restaurant"}]},{"lat":"37.062954477","long":"127.11088802","imageIndex":4,"items":[{"name":"다앤인하우스","tel":"031-666-2345","addr":"경기도 평택시 도일동 378번지 외1필지","indutype":"일반휴게음식 - 일반한식","category":"restaurant"}]},{"lat":"37.042960106","long":"127.11069108","imageIndex":4,"items":[{"name":"무명밥상","tel":"031-663-7179","addr":"경기도 평택시 도일동 643-8번지","indutype":"일반휴게음식 - 일반한식","category":"restaurant"},{"name":"무명밥상","tel":"031-612-9371","addr":"경기도 평택시 도일동 643-8번지","indutype":"음식점 - 한식","category":"restaurant"}]},{"lat":"37.037626275","long":"127.09970219","imageIndex":4,"items":[{"name":"박군자진주냉면","tel":"031-662-4001","addr":"경기도 평택시 도일동 1172-3번지","indutype":"음식점 - 한식","category":"restaurant"},{"name":"박군자진주냉면 (평택점)","tel":"031-663-5877","addr":"경기도 평택시 도일동 1172-3번지 1층","indutype":"일반휴게음식 - 일반한식","category":"restaurant"}]},{"lat":"37.052907798","long":"127.11072763","imageIndex":4,"items":[{"name":"부녀회한식뷔페(본점)","tel":"031-662-6551","addr":"경기도 평택시 도일동 468-24번지 가릉","indutype":"음식점 - 한식","category":"restaurant"},{"name":"부녀회한식뷔페(분점)","tel":"031-664-5244","addr":"경기도 평택시 도일동 468-24번지 1층","indutype":"일반휴게음식 - 일반한식","category":"restaurant"}]},{"lat":"37.041040722","long":"127.10041467","imageIndex":4,"items":[{"name":"빅토리나주곰탕/주식회사 비에이치푸드","tel":"031-666-2888","addr":"경기도 평택시 도일동 995-8번지 2층","indutype":"일반휴게음식 - 일반한식","category":"restaurant"}]},{"lat":"37.042875628","long":"127.10430628","imageIndex":4,"items":[{"name":"빨간기와집","tel":"031-667-1584","addr":"경기도 평택시 도일동 702-1번지","indutype":"일반휴게음식 - 일반한식","category":"restaurant"},{"name":"장어박사","tel":"031-662-5297","addr":"경기도 평택시 도일동 702-1번지","indutype":"음식점 - 한식","category":"restaurant"},{"name":"장어박사","tel":"031-667-1584","addr":"경기도 평택시 도일동 702-1번지","indutype":"일반휴게음식 - 일반한식","category":"restaurant"}]},{"lat":"37.062098869","long":"127.11044831","imageIndex":4,"items":[{"name":"사랑채","tel":"031-663-8578","addr":"경기도 평택시 도일동 346번지","indutype":"일반휴게음식 - 일반한식","category":"restaurant"}]},{"lat":"37.043401181","long":"127.10081112","imageIndex":4,"items":[{"name":"송탄부대찌개","tel":"031-611-1288","addr":"경기도 평택시 도일동 989-1번지","indutype":"일반휴게음식 - 일반한식","category":"restaurant"}]},{"lat":"37.065041446","long":"127.09353039","imageIndex":4,"items":[{"name":"수박재","tel":"031-665-7312","addr":"경기도 평택시 도일동 883-15번지 1층","indutype":"일반휴게음식 - 일반한식","category":"restaurant"}]},{"lat":"37.04398738","long":"127.10019363","imageIndex":4,"items":[{"name":"수타짜장 중국성","tel":"031-662-1219","addr":"경기도 평택시 도일동 985-1번지","indutype":"음식점 - 중식","category":"restaurant"},{"name":"수타짜장중국성","tel":"031-664-2823","addr":"경기도 평택시 도일동 985-1번지","indutype":"일반휴게음식 - 중국식","category":"restaurant"}]},{"lat":"37.043984804","long":"127.10328484","imageIndex":4,"items":[{"name":"시은","tel":"031-611-6051","addr":"경기도 평택시 도일동 707-5번지","indutype":"일반휴게음식 - 스넥","category":"restaurant"}]},{"lat":"37.038572235","long":"127.09989448","imageIndex":4,"items":[{"name":"신명가한식부페","tel":"031-667-1624","addr":"경기도 평택시 도일동 1167-5번지 101호","indutype":"일반휴게음식 - 일반한식","category":"restaurant"},{"name":"포트오브모카(송탄점)","tel":"031-662-4001","addr":"경기도 평택시 도일동 1167-5번지 103호","indutype":"일반휴게음식 - 서양음식","category":"restaurant"}]},{"lat":"37.062574318","long":"127.11275391","imageIndex":4,"items":[{"name":"안골옻닭","tel":"031-665-9258","addr":"경기도 평택시 도일동 370번지","indutype":"일반휴게음식 - 일반한식","category":"restaurant"}]},{"lat":"37.044377994","long":"127.1168868","imageIndex":4,"items":[{"name":"연한식뷔페","tel":"031-667-1494","addr":"경기도 평택시 도일동 179-3번지 1층","indutype":"일반휴게음식 - 일반한식","category":"restaurant"}]},{"lat":"37.043379364","long":"127.10530737","imageIndex":4,"items":[{"name":"장춘닭개장","tel":"","addr":"경기도 평택시 도일동 644-7번지","indutype":"음식점 - 한식","category":"restaurant"},{"name":"장춘닭개장","tel":"031-611-8885","addr":"경기도 평택시 도일동 644-7번지 외 1필지","indutype":"일반휴게음식 - 일반한식","category":"restaurant"}]},{"lat":"37.041958061","long":"127.11272419","imageIndex":4,"items":[{"name":"조서방부대찌개","tel":"031-611-0966","addr":"경기도 평택시 도일동 183-7번지","indutype":"일반휴게음식 - 일반한식","category":"restaurant"}]},{"lat":"37.037959632","long":"127.09974758","imageIndex":4,"items":[{"name":"차앤림커피","tel":"","addr":"경기도 평택시 도일동 1172-2번지 제1동 1층","indutype":"일반휴게음식 - 서양음식","category":"restaurant"},{"name":"창민돼지불백","tel":"031-663-5877","addr":"경기도 평택시 도일동 1172-2번지","indutype":"음식점 - 한식","category":"restaurant"},{"name":"창민돼지불백김치찌개동태탕","tel":"031-663-9259","addr":"경기도 평택시 도일동 1172-2번지 1층","indutype":"일반휴게음식 - 일반한식","category":"restaurant"}]},{"lat":"37.052601161","long":"127.11103073","imageIndex":4,"items":[{"name":"카페몽상","tel":"031-666-6551","addr":"경기도 평택시 도일동 240-4번지 1층","indutype":"일반휴게음식 - 서양음식","category":"restaurant"}]},{"lat":"37.043596285","long":"127.10453205","imageIndex":4,"items":[{"name":"토향","tel":"031-654-8019","addr":"경기도 평택시 도일동 705-1번지 1층","indutype":"일반휴게음식 - 일반한식","category":"restaurant"}]},{"lat":"37.056344571","long":"127.11638753","imageIndex":4,"items":[{"name":"한성식당","tel":"","addr":"경기도 평택시 도일동 134-1번지","indutype":"음식점 - 한식","category":"restaurant"},{"name":"한성참숯석갈비","tel":"031-662-6520","addr":"경기도 평택시 도일동 134-1번지","indutype":"일반휴게음식 - 일반한식","category":"restaurant"}]},{"lat":"37.053958249","long":"127.12399499","imageIndex":4,"items":[{"name":"한옥마을","tel":"031-663-9102","addr":"경기도 평택시 도일동 16-2번지","indutype":"일반휴게음식 - 일반한식","category":"restaurant"},{"name":"한옥마을","tel":"070-4207-1773","addr":"경기도 평택시 도일동 16-2번지","indutype":"음식점 - 한식","category":"restaurant"}]},{"lat":"37.054516389","long":"127.12450179","imageIndex":4,"items":[{"name":"호박꽃초롱","tel":"031-663-7730","addr":"경기도 평택시 도일동 15-11번지","indutype":"일반휴게음식 - 일반한식","category":"restaurant"}]},{"lat":"37.052402445","long":"127.11155883","imageIndex":4,"items":[{"name":"황소마을","tel":"","addr":"경기도 평택시 도일동 242-1번지","indutype":"음식점 - 한식","category":"restaurant"},{"name":"황소마을","tel":"031-663-8115","addr":"경기도 평택시 도일동 242-1번지","indutype":"일반휴게음식 - 일반한식","category":"restaurant"}]},{"lat":"37.035049774","long":"127.09903579","imageIndex":9,"items":[{"name":"송일주유소","tel":"031-664-3303","addr":"경기도 평택시 도일동 1005-3번지","indutype":"소매업 - 주유소","category":"oil"}]},{"lat":"37.062954477","long":"127.11088802","imageIndex":13,"items":[{"name":"주식회사 아라파파","tel":"070-7752-7565","addr":"경기도 평택시 도일동 378번지","indutype":"보건위생 - 화장품","category":"beauty"}]},{"lat":"37.040293923","long":"127.09908737","imageIndex":5,"items":[{"name":"호텔엑스와이엠","tel":"031-667-1660","addr":"경기도 평택시 도일동 1166-1번지","indutype":"숙박업 - 여관/기타숙박업","category":"hotel"}]}]