[{"lat":"37.47615296","long":"126.8575423","imageIndex":7,"items":[{"name":"(주)부건푸드","tel":"02-2617-9090","addr":"경기도 광명시 광명동 41-174번지 102호","indutype":"음료식품 - 기타음료식품","category":"food"}]},{"lat":"37.4769915","long":"126.8580381","imageIndex":7,"items":[{"name":"(주)영진푸드","tel":"02-2617-9090","addr":"경기도 광명시 광명동 158-350번지 청산빌라 1층","indutype":"음료식품 - 기타음료식품","category":"food"}]},{"lat":"37.47996197","long":"126.8557599","imageIndex":7,"items":[{"name":"100세가족건강","tel":"02-2686-9949","addr":"경기도 광명시 광명동 158-55번지","indutype":"건강식품 - 기타건강식품","category":"food"}]},{"lat":"37.47509729","long":"126.8563234","imageIndex":7,"items":[{"name":"153커피","tel":"02-2611-8007","addr":"경기도 광명시 광명동 42-110번지","indutype":"음료식품 - 기타음료식품","category":"food"}]},{"lat":"37.4803777","long":"126.8567879","imageIndex":7,"items":[{"name":"1번청과","tel":"02-2681-1182","addr":"경기도 광명시 광명동 136-14번지 1층","indutype":"음료식품 - 농·축·수산품","category":"food"}]},{"lat":"37.47948368","long":"126.8551503","imageIndex":7,"items":[{"name":"4050과일","tel":"031-000-0000","addr":"경기도 광명시 광명동 150-17번지 1층 128호","indutype":"음료식품 - 농·축·수산품","category":"food"},{"name":"동광축산","tel":"02-2613-3638","addr":"경기도 광명시 광명동 150-17번지 1층 115호","indutype":"음료식품 - 정육점","category":"food"},{"name":"바다를 사랑하는 형제들","tel":"02-2682-3790","addr":"경기도 광명시 광명동 150-17번지 1층 29호","indutype":"음료식품 - 농·축·수산품","category":"food"},{"name":"뷰티마트","tel":"02-2612-1945","addr":"경기도 광명시 광명동 150-17번지","indutype":"음료식품 - 기타음료식품","category":"food"},{"name":"신도매축산","tel":"02-2613-3638","addr":"경기도 광명시 광명동 150-17번지 1층","indutype":"음료식품 - 정육점","category":"food"},{"name":"홍가네반찬","tel":"031-346-4527","addr":"경기도 광명시 광명동 150-17번지 1층 133호","indutype":"음료식품 - 기타음료식품","category":"food"}]},{"lat":"37.47448332","long":"126.8482415","imageIndex":7,"items":[{"name":"ACE마트","tel":"02-1577-0000","addr":"경기도 광명시 광명동 262-8번지 1층","indutype":"음료식품 - 기타음료식품","category":"food"},{"name":"뚱뚱이네건어물","tel":"02-2689-0121","addr":"경기도 광명시 광명동 262-8번지","indutype":"음료식품 - 농·축·수산품","category":"food"}]},{"lat":"37.48128846","long":"126.8573966","imageIndex":7,"items":[{"name":"A원유통","tel":"031-985-0195","addr":"경기도 광명시 광명동 109-6번지 선문하이츠 201호","indutype":"음료식품 - 기타음료식품","category":"food"}]},{"lat":"37.48051127","long":"126.8484552","imageIndex":7,"items":[{"name":"BS유통","tel":"","addr":"경기도 광명시 광명동 164-17번지 광명빌라 201호","indutype":"음료식품 - 기타음료식품","category":"food"}]},{"lat":"37.47840021","long":"126.8533436","imageIndex":7,"items":[{"name":"CNN","tel":"02-2686-5157","addr":"경기도 광명시 광명동 158-799번지 두성노빌리아오피스텔 605호","indutype":"음료식품 - 농·축·수산품","category":"food"}]},{"lat":"37.47507356","long":"126.8517901","imageIndex":7,"items":[{"name":"가나안건강원","tel":"02-2684-9560","addr":"경기도 광명시 광명동 288-133번지 1층","indutype":"건강식품 - 기타건강식품","category":"food"}]},{"lat":"37.48020618","long":"126.8565169","imageIndex":7,"items":[{"name":"거북이인삼직매장","tel":"02-689-5242","addr":"경기도 광명시 광명동 158-25번지","indutype":"건강식품 - 인삼제품","category":"food"},{"name":"어사또","tel":"","addr":"경기도 광명시 광명동 158-25번지 1층","indutype":"음료식품 - 농·축·수산품","category":"food"}]},{"lat":"37.47937608","long":"126.8555688","imageIndex":7,"items":[{"name":"건강나라","tel":"02-2067-8967","addr":"경기도 광명시 광명동 150-19번지 크로앙스 지하 1층 1119호","indutype":"건강식품 - 기타건강식품","category":"food"}]},{"lat":"37.47412452","long":"126.8494632","imageIndex":7,"items":[{"name":"건강마트","tel":"02-2682-1938","addr":"경기도 광명시 광명동 263-34번지 우성빌딩 1층 5호","indutype":"건강식품 - 기타건강식품","category":"food"},{"name":"지리산한약재","tel":"02-2616-6130","addr":"경기도 광명시 광명동 263-34번지","indutype":"건강식품 - 기타건강식품","category":"food"}]},{"lat":"37.48346031","long":"126.8577655","imageIndex":7,"items":[{"name":"건어물총각네","tel":"02-2683-1560","addr":"경기도 광명시 광명동 60-20번지","indutype":"음료식품 - 농·축·수산품","category":"food"}]},{"lat":"37.48001655","long":"126.8561781","imageIndex":7,"items":[{"name":"경남정육점","tel":"02-2682-7446","addr":"경기도 광명시 광명동 158-46번지","indutype":"음료식품 - 정육점","category":"food"},{"name":"오복상회","tel":"02-2685-2615","addr":"경기도 광명시 광명동 158-46번지","indutype":"음료식품 - 농·축·수산품","category":"food"}]},{"lat":"37.48126814","long":"126.8484876","imageIndex":7,"items":[{"name":"경덕상사","tel":"02-2060-8779","addr":"경기도 광명시 광명동 159-50번지 3층 301호","indutype":"건강식품 - 기타건강식품","category":"food"}]},{"lat":"37.46132428","long":"126.8517386","imageIndex":7,"items":[{"name":"경도유통","tel":"02-2685-2525","addr":"경기도 광명시 광명동 596번지","indutype":"음료식품 - 기타음료식품","category":"food"},{"name":"성원식품","tel":"02-2685-2525","addr":"경기도 광명시 광명동 596번지","indutype":"음료식품 - 기타음료식품","category":"food"}]},{"lat":"37.48012446","long":"126.8560083","imageIndex":7,"items":[{"name":"경북상회","tel":"02-2684-9667","addr":"경기도 광명시 광명동 158-48번지","indutype":"음료식품 - 농·축·수산품","category":"food"}]},{"lat":"37.47504284","long":"126.84893","imageIndex":7,"items":[{"name":"경원건강원","tel":"02-2616-9842","addr":"경기도 광명시 광명동 268-32 102호,103호","indutype":"건강식품 - 기타건강식품","category":"food"}]},{"lat":"37.47387316","long":"126.8501759","imageIndex":7,"items":[{"name":"고려인삼","tel":"02-2681-3671","addr":"경기도 광명시 광명동 347-1번지","indutype":"건강식품 - 인삼제품","category":"food"}]},{"lat":"37.47934965","long":"126.8560437","imageIndex":7,"items":[{"name":"고려인삼직매점","tel":"02-2686-3159","addr":"경기도 광명시 광명동 150-50번지","indutype":"건강식품 - 인삼제품","category":"food"},{"name":"광명축산물직거래장터","tel":"02-2625-3666","addr":"경기도 광명시 광명동 150-50번지","indutype":"음료식품 - 정육점","category":"food"},{"name":"못난이만두떡","tel":"02-2066-4469","addr":"경기도 광명시 광명동 150-50번지","indutype":"음료식품 - 기타음료식품","category":"food"},{"name":"반찬가게","tel":"02-2615-3004","addr":"경기도 광명시 광명동 150-50번지","indutype":"음료식품 - 기타음료식품","category":"food"},{"name":"부산상회","tel":"","addr":"경기도 광명시 광명동 150-50번지","indutype":"음료식품 - 농·축·수산품","category":"food"},{"name":"옹기종기맛깔촌","tel":"02-2625-5036","addr":"경기도 광명시 광명동 150-50번지 1층","indutype":"음료식품 - 기타음료식품","category":"food"}]},{"lat":"37.47642977","long":"126.8484636","imageIndex":7,"items":[{"name":"고려홍삼액","tel":"02-2616-2271","addr":"경기도 광명시 광명동 270-14번지 1층 101호","indutype":"건강식품 - 홍삼제품","category":"food"},{"name":"서울우유 광명리 고객센터","tel":"02-2612-0550","addr":"경기도 광명시 광명동 270-14번지","indutype":"음료식품 - 기타음료식품","category":"food"}]},{"lat":"37.46893284","long":"126.8550128","imageIndex":7,"items":[{"name":"고향건어물","tel":"02-2681-1688","addr":"경기도 광명시 광명동 732번지 중앙하이츠APT지하07호","indutype":"음료식품 - 농·축·수산품","category":"food"}]},{"lat":"37.46846279","long":"126.8537929","imageIndex":7,"items":[{"name":"고향정육점","tel":"02-2687-0261","addr":"경기도 광명시 광명동 728-3번지","indutype":"음료식품 - 정육점","category":"food"}]},{"lat":"37.48990209","long":"126.8650123","imageIndex":7,"items":[{"name":"고향청과","tel":"02-2613-5302","addr":"경기도 광명시 광명동 5-41번지","indutype":"음료식품 - 농·축·수산품","category":"food"},{"name":"광복고추기름집","tel":"02-2614-0463","addr":"경기도 광명시 광명동 5-41번지","indutype":"음료식품 - 기타음료식품","category":"food"},{"name":"소래포구","tel":"02-2066-7476","addr":"경기도 광명시 광명동 5-41번지 1층","indutype":"음료식품 - 농·축·수산품","category":"food"},{"name":"자연청과","tel":"02-2682-1038","addr":"경기도 광명시 광명동 5-41번지","indutype":"음료식품 - 농·축·수산품","category":"food"},{"name":"토우축산","tel":"02-2688-2666","addr":"경기도 광명시 광명동 5-41번지","indutype":"음료식품 - 정육점","category":"food"},{"name":"한우이야기","tel":"02-2696-7779","addr":"경기도 광명시 광명동 5-41번지","indutype":"음료식품 - 정육점","category":"food"}]},{"lat":"37.47343272","long":"126.8509907","imageIndex":7,"items":[{"name":"골드축산","tel":"02-2613-9399","addr":"경기도 광명시 광명동 346-9번지 1층","indutype":"음료식품 - 정육점","category":"food"},{"name":"과일짱","tel":"070-5030-1788","addr":"경기도 광명시 광명동 346-9번지","indutype":"음료식품 - 농·축·수산품","category":"food"},{"name":"동해수산","tel":"02-2060-5257","addr":"경기도 광명시 광명동 346-9번지 1층","indutype":"음료식품 - 농·축·수산품","category":"food"},{"name":"풍년떡집","tel":"02-2689-9018","addr":"경기도 광명시 광명동 346-9번지","indutype":"음료식품 - 제과점","category":"food"}]},{"lat":"37.49043458","long":"126.8657916","imageIndex":7,"items":[{"name":"과일 CLEAN","tel":"","addr":"경기도 광명시 광명동 5-31번지 우성주택 2층","indutype":"음료식품 - 농·축·수산품","category":"food"}]},{"lat":"37.47985201","long":"126.8542903","imageIndex":7,"items":[{"name":"과일가게","tel":"","addr":"경기도 광명시 광명동 158-86번지 광명빌딩","indutype":"음료식품 - 농·축·수산품","category":"food"},{"name":"드림비타","tel":"02-2618-7583","addr":"경기도 광명시 광명동 158-86번지 광명빌딩 4층","indutype":"건강식품 - 기타건강식품","category":"food"}]},{"lat":"37.47474186","long":"126.8531021","imageIndex":7,"items":[{"name":"과일나라","tel":"02-2682-2285","addr":"경기도 광명시 광명동 297-39번지","indutype":"음료식품 - 농·축·수산품","category":"food"}]},{"lat":"37.48431714","long":"126.8584875","imageIndex":7,"items":[{"name":"과일나라","tel":"02-2685-7738","addr":"경기도 광명시 광명동 61-6번지 101호","indutype":"음료식품 - 농·축·수산품","category":"food"},{"name":"부용농장","tel":"02-2619-1231","addr":"경기도 광명시 광명동 61-6번지","indutype":"음료식품 - 농·축·수산품","category":"food"}]},{"lat":"37.47721157","long":"126.8538773","imageIndex":7,"items":[{"name":"과일나무","tel":"02-6268-2535","addr":"경기도 광명시 광명동 158-775번지 1층","indutype":"음료식품 - 농·축·수산품","category":"food"}]},{"lat":"37.47767784","long":"126.8521014","imageIndex":7,"items":[{"name":"과일천국","tel":"02-2688-4385","addr":"경기도 광명시 광명동 200-6번지 한진타운 상가동 2109호","indutype":"음료식품 - 농·축·수산품","category":"food"},{"name":"미소래","tel":"02-2060-9119","addr":"경기도 광명시 광명동 200-6번지 광명한진타운제2-1층2106호","indutype":"음료식품 - 제과점","category":"food"},{"name":"헷세드케이크","tel":"031-000-0000","addr":"경기도 광명시 광명동 200-6번지 한진아파트 2111호","indutype":"음료식품 - 기타음료식품","category":"food"}]},{"lat":"37.48068422","long":"126.8569343","imageIndex":7,"items":[{"name":"광명 건강 센터","tel":"031-405-4404","addr":"경기도 광명시 광명동 136-17번지 1층","indutype":"건강식품 - 기타건강식품","category":"food"},{"name":"원앙청과","tel":"02-2614-5951","addr":"경기도 광명시 광명동 136-17번지","indutype":"음료식품 - 농·축·수산품","category":"food"},{"name":"행복떡사랑","tel":"02-2685-7512","addr":"경기도 광명시 광명동 136-17번지","indutype":"음료식품 - 제과점","category":"food"}]},{"lat":"37.47379241","long":"126.8504361","imageIndex":7,"items":[{"name":"광명건어물","tel":"02-2613-0909","addr":"경기도 광명시 광명동 347-4번지","indutype":"음료식품 - 기타음료식품","category":"food"},{"name":"태양청과","tel":"02-0000-0000","addr":"경기도 광명시 광명동 347-4번지 1층","indutype":"음료식품 - 농·축·수산품","category":"food"},{"name":"푸른미나리상회(오병이어)","tel":"02-2614-2311","addr":"경기도 광명시 광명동 347-4번지 1층","indutype":"음료식품 - 농·축·수산품","category":"food"}]},{"lat":"37.48053813","long":"126.8553743","imageIndex":7,"items":[{"name":"광명기름집","tel":"02-2685-0437","addr":"경기도 광명시 광명동 158-1375번지","indutype":"음료식품 - 기타음료식품","category":"food"},{"name":"해피니스","tel":"","addr":"경기도 광명시 광명동 158-1375번지 1층","indutype":"음료식품 - 기타음료식품","category":"food"}]},{"lat":"37.48037612","long":"126.8555103","imageIndex":7,"items":[{"name":"광명농수산","tel":"02-2689-1183","addr":"경기도 광명시 광명동 158-1306번지","indutype":"음료식품 - 농·축·수산품","category":"food"},{"name":"불로건강원","tel":"02-2689-8069","addr":"경기도 광명시 광명동 158-1306번지","indutype":"건강식품 - 기타건강식품","category":"food"}]},{"lat":"37.48093532","long":"126.8559841","imageIndex":7,"items":[{"name":"광명농수산물직판장","tel":"02-2688-9929","addr":"경기도 광명시 광명동 140-4번지 현대빌라","indutype":"음료식품 - 농·축·수산품","category":"food"}]},{"lat":"37.47520886","long":"126.8591268","imageIndex":7,"items":[{"name":"광명담배","tel":"02-2681-7604","addr":"경기도 광명시 광명동 41-268번지 대동연립 104호","indutype":"음료식품 - 기타음료식품","category":"food"}]},{"lat":"37.4619018","long":"126.852427","imageIndex":7,"items":[{"name":"광명미트","tel":"02-899-7441","addr":"경기도 광명시 광명동 581-4번지","indutype":"음료식품 - 정육점","category":"food"}]},{"lat":"37.48015184","long":"126.8562909","imageIndex":7,"items":[{"name":"광명민물수산","tel":"02-2682-4436","addr":"경기도 광명시 광명동 158-35번지","indutype":"음료식품 - 농·축·수산품","category":"food"},{"name":"돈벼락수산물백화점","tel":"02-2617-4871","addr":"경기도 광명시 광명동 158-35번지","indutype":"음료식품 - 농·축·수산품","category":"food"},{"name":"한성상회","tel":"","addr":"경기도 광명시 광명동 158-35번지 1층 일부호","indutype":"음료식품 - 기타음료식품","category":"food"}]},{"lat":"37.48151207","long":"126.8560734","imageIndex":7,"items":[{"name":"광명알뜰장터","tel":"","addr":"경기도 광명시 광명동 104-8번지","indutype":"음료식품 - 미곡상","category":"food"},{"name":"마시쩡","tel":"","addr":"경기도 광명시 광명동 104-8번지 1층","indutype":"음료식품 - 기타음료식품","category":"food"}]},{"lat":"37.48354143","long":"126.857788","imageIndex":7,"items":[{"name":"광명야채","tel":"02-2683-5146","addr":"경기도 광명시 광명동 60-13번지 LG베스트빌라 303호","indutype":"음료식품 - 농·축·수산품","category":"food"}]},{"lat":"37.47645789","long":"126.8563998","imageIndex":7,"items":[{"name":"광명유통","tel":"02-2617-8881","addr":"경기도 광명시 광명동 158-457번지 1층","indutype":"음료식품 - 기타음료식품","category":"food"}]},{"lat":"37.47434868","long":"126.8486262","imageIndex":7,"items":[{"name":"광명장수건강원","tel":"025-2617-6708","addr":"경기도 광명시 광명동 262-32번지 1층","indutype":"건강식품 - 홍삼제품","category":"food"}]},{"lat":"37.47873416","long":"126.8468196","imageIndex":7,"items":[{"name":"광명장애인보호작업장","tel":"02-2616-3813","addr":"경기도 광명시 광명동 164-2번지","indutype":"음료식품 - 제과점","category":"food"}]},{"lat":"37.47929641","long":"126.8567109","imageIndex":7,"items":[{"name":"광명전통시장협동조합","tel":"02-2689-7666","addr":"경기도 광명시 광명동 158-974번지","indutype":"음료식품 - 농·축·수산품","category":"food"}]},{"lat":"37.48112394","long":"126.8555089","imageIndex":7,"items":[{"name":"광명전통한과","tel":"","addr":"경기도 광명시 광명동 141-5번지 1층 일부호","indutype":"음료식품 - 기타음료식품","category":"food"}]},{"lat":"37.47984605","long":"126.8567324","imageIndex":7,"items":[{"name":"광명정통국수","tel":"02-2682-7745","addr":"경기도 광명시 광명동 158-13번지","indutype":"음료식품 - 기타음료식품","category":"food"},{"name":"새서울정육점","tel":"02-2682-4643","addr":"경기도 광명시 광명동 158-13번지 1층 한칸","indutype":"음료식품 - 정육점","category":"food"}]},{"lat":"37.48048431","long":"126.8555667","imageIndex":7,"items":[{"name":"광명제일유통","tel":"02-2685-1285","addr":"경기도 광명시 광명동 158-30번지","indutype":"음료식품 - 농·축·수산품","category":"food"},{"name":"광명축산물도매센타","tel":"02-2611-4393","addr":"경기도 광명시 광명동 158-30번지","indutype":"음료식품 - 정육점","category":"food"}]},{"lat":"37.4799627","long":"126.8563478","imageIndex":7,"items":[{"name":"광명중국식품","tel":"02-2625-3537","addr":"경기도 광명시 광명동 158-37번지 1층 점포","indutype":"음료식품 - 기타음료식품","category":"food"},{"name":"국산멸치","tel":"","addr":"경기도 광명시 광명동 158-37번지","indutype":"음료식품 - 농·축·수산품","category":"food"},{"name":"군산상회","tel":"02-2614-2170","addr":"경기도 광명시 광명동 158-37번지 1층","indutype":"음료식품 - 농·축·수산품","category":"food"},{"name":"번영상회","tel":"02-2612-6082","addr":"경기도 광명시 광명동 158-37번지","indutype":"음료식품 - 농·축·수산품","category":"food"},{"name":"풍련기름집","tel":"02-2612-9464","addr":"경기도 광명시 광명동 158-37번지","indutype":"음료식품 - 기타음료식품","category":"food"}]},{"lat":"37.48137808","long":"126.8570121","imageIndex":7,"items":[{"name":"광명중국식품","tel":"02-2686-5528","addr":"경기도 광명시 광명동 106-6번지","indutype":"음료식품 - 기타음료식품","category":"food"}]},{"lat":"37.48143046","long":"126.8556552","imageIndex":7,"items":[{"name":"광명푸줏간","tel":"02-2612-6740","addr":"경기도 광명시 광명동 141-1번지 1층","indutype":"음료식품 - 정육점","category":"food"}]},{"lat":"37.48434461","long":"126.8588492","imageIndex":7,"items":[{"name":"국민수산","tel":"02-2689-8938","addr":"경기도 광명시 광명동 61-4번지","indutype":"음료식품 - 농·축·수산품","category":"food"},{"name":"옛날참기름","tel":"02-2685-8653","addr":"경기도 광명시 광명동 61-4번지","indutype":"음료식품 - 기타음료식품","category":"food"}]},{"lat":"37.47629641","long":"126.8498431","imageIndex":7,"items":[{"name":"군산상회","tel":"","addr":"경기도 광명시 광명동 276-35번지 102호","indutype":"음료식품 - 농·축·수산품","category":"food"}]},{"lat":"37.47290421","long":"126.8533997","imageIndex":7,"items":[{"name":"굿모닝시가","tel":"","addr":"경기도 광명시 광명동 334-30번지 1층","indutype":"음료식품 - 농·축·수산품","category":"food"}]},{"lat":"37.48051266","long":"126.8566293","imageIndex":7,"items":[{"name":"궁중떡집","tel":"02-2617-2490","addr":"경기도 광명시 광명동 138-6번지","indutype":"음료식품 - 제과점","category":"food"}]},{"lat":"37.48298928","long":"126.8557313","imageIndex":7,"items":[{"name":"그린웰빙하우스","tel":"02-2611-7574","addr":"경기도 광명시 광명동 93-6번지 힐탑오피스텔 204호","indutype":"건강식품 - 기타건강식품","category":"food"}]},{"lat":"37.47448389","long":"126.8557367","imageIndex":7,"items":[{"name":"금농","tel":"02-2619-1515","addr":"경기도 광명시 광명동 777번지 101동 제지하1층 제비03-2호","indutype":"음료식품 - 정육점","category":"food"}]},{"lat":"37.47401786","long":"126.8505939","imageIndex":7,"items":[{"name":"금산홍삼나라","tel":"02-2060-7593","addr":"경기도 광명시 광명동 290-84번지 1층","indutype":"건강식품 - 홍삼제품","category":"food"}]},{"lat":"37.47989959","long":"126.856314","imageIndex":7,"items":[{"name":"금성상회","tel":"02-2613-7357","addr":"경기도 광명시 광명동 158-38번지","indutype":"음료식품 - 기타음료식품","category":"food"}]},{"lat":"37.47684696","long":"126.8577331","imageIndex":7,"items":[{"name":"길목","tel":"02-2611-5251","addr":"경기도 광명시 광명동 158-439번지 신라연립 102호","indutype":"음료식품 - 농·축·수산품","category":"food"}]},{"lat":"37.47981723","long":"126.8552966","imageIndex":7,"items":[{"name":"꼬꼬닭","tel":"02-2619-4995","addr":"경기도 광명시 광명동 158-63번지 1층","indutype":"음료식품 - 정육점","category":"food"},{"name":"천기초 조은웰빙","tel":"031-111-1111","addr":"경기도 광명시 광명동 158-63번지 1층","indutype":"음료식품 - 미곡상","category":"food"}]},{"lat":"37.48134854","long":"126.8549884","imageIndex":7,"items":[{"name":"꽃.너라서 티.이.에이.(Tasteful Encouragi","tel":"02-783-2981","addr":"경기도 광명시 광명동 142-3번지 광명오피스텔 1203호","indutype":"음료식품 - 기타음료식품","category":"food"}]},{"lat":"37.47953899","long":"126.8561564","imageIndex":7,"items":[{"name":"꿀맛나는세상","tel":"02-2612-0823","addr":"경기도 광명시 광명동 158-41번지","indutype":"음료식품 - 정육점","category":"food"},{"name":"대우정육점","tel":"02-2612-0823","addr":"경기도 광명시 광명동 158-41번지","indutype":"음료식품 - 정육점","category":"food"},{"name":"뿌리세상","tel":"070-8650-5500","addr":"경기도 광명시 광명동 158-41번지 1층","indutype":"음료식품 - 농·축·수산품","category":"food"},{"name":"세명수산","tel":"02-2612-7094","addr":"경기도 광명시 광명동 158-41번지 1층 4호","indutype":"음료식품 - 농·축·수산품","category":"food"},{"name":"유천상회","tel":"02-2682-0131","addr":"경기도 광명시 광명동 158-41","indutype":"음료식품 - 정육점","category":"food"}]},{"lat":"37.48004417","long":"126.8566529","imageIndex":7,"items":[{"name":"낙원","tel":"031-2685-2311","addr":"경기도 광명시 광명동 136-11번지 1층","indutype":"음료식품 - 농·축·수산품","category":"food"},{"name":"시민닭집","tel":"02-2684-5128","addr":"경기도 광명시 광명동 136-11번지","indutype":"음료식품 - 정육점","category":"food"}]},{"lat":"37.47417836","long":"126.8492935","imageIndex":7,"items":[{"name":"낙원참숯김","tel":"02-2688-5681","addr":"경기도 광명시 광명동 263-33번지","indutype":"음료식품 - 기타음료식품","category":"food"},{"name":"빵집아저씨","tel":"02-2686-8138","addr":"경기도 광명시 광명동 263-33번지 1층","indutype":"음료식품 - 제과점","category":"food"}]},{"lat":"37.47318254","long":"126.8526304","imageIndex":7,"items":[{"name":"남도반찬집","tel":"02-2617-3312","addr":"경기도 광명시 광명동 337-33번지","indutype":"음료식품 - 기타음료식품","category":"food"}]},{"lat":"37.47423546","long":"126.8516561","imageIndex":7,"items":[{"name":"남성지소아과(건강식품)","tel":"02-2685-1204","addr":"경기도 광명시 광명동 290-14번지 동진프라자 304호","indutype":"회원제형태 - 건강식품","category":"food"},{"name":"들꽃효소마을","tel":"02-2685-1388","addr":"경기도 광명시 광명동 290-14번지 동진프라자 5층 3호","indutype":"건강식품 - 기타건강식품","category":"food"}]},{"lat":"37.48779006","long":"126.8618729","imageIndex":7,"items":[{"name":"남양우유광명동부가정대리점","tel":"02-2619-6096","addr":"경기도 광명시 광명동 10-54번지 1층","indutype":"음료식품 - 기타음료식품","category":"food"}]},{"lat":"37.47592823","long":"126.8507935","imageIndex":7,"items":[{"name":"남양유업광명중앙가정대리점","tel":"02-2638-3222","addr":"경기도 광명시 광명동 276-8번지 101호","indutype":"음료식품 - 기타음료식품","category":"food"}]},{"lat":"37.47953933","long":"126.8564277","imageIndex":7,"items":[{"name":"남해김집","tel":"02-2612-4850","addr":"경기도 광명시 광명동 158-21번지 102호","indutype":"음료식품 - 농·축·수산품","category":"food"},{"name":"예당떡마을","tel":"02-2066-5100","addr":"경기도 광명시 광명동 158-21번지 1층","indutype":"음료식품 - 제과점","category":"food"}]},{"lat":"37.47518219","long":"126.8521855","imageIndex":7,"items":[{"name":"녹십초광명지사","tel":"02-2625-3005","addr":"경기도 광명시 광명동 293-32번지 2층","indutype":"회원제형태 - 건강식품","category":"food"}]},{"lat":"37.47965449","long":"126.8548447","imageIndex":7,"items":[{"name":"농심축산","tel":"02-2060-7784","addr":"경기도 광명시 광명동 158-81번지 현대아이타워 1층 102호","indutype":"음료식품 - 정육점","category":"food"},{"name":"총각네","tel":"031-111-1111","addr":"경기도 광명시 광명동 158-81번지 현대아이타워 1층 104호","indutype":"음료식품 - 농·축·수산품","category":"food"},{"name":"현아건어물","tel":"02-2616-9463","addr":"경기도 광명시 광명동 158-81번지 현대아이타워 101-1호","indutype":"음료식품 - 농·축·수산품","category":"food"}]},{"lat":"37.47328891","long":"126.8512624","imageIndex":7,"items":[{"name":"농축산물도매센타","tel":"02-2689-0673","addr":"경기도 광명시 광명동 340-5번지 지층","indutype":"음료식품 - 농·축·수산품","category":"food"},{"name":"한우리정육도매센타","tel":"02-2689-0675","addr":"경기도 광명시 광명동 340-5번지 지하층","indutype":"음료식품 - 정육점","category":"food"}]},{"lat":"37.48076503","long":"126.856708","imageIndex":7,"items":[{"name":"누렁이한우종가","tel":"02-2616-1903","addr":"경기도 광명시 광명동 138-4번지","indutype":"음료식품 - 정육점","category":"food"}]},{"lat":"37.46879577","long":"126.853487","imageIndex":7,"items":[{"name":"뉴광명방앗간","tel":"02-2613-3697","addr":"경기도 광명시 광명동 725-8번지","indutype":"음료식품 - 제과점","category":"food"},{"name":"파리바게트","tel":"02-2618-8280","addr":"경기도 광명시 광명동 725-8번지","indutype":"음료식품 - 제과점","category":"food"}]},{"lat":"37.48457007","long":"126.8590184","imageIndex":7,"items":[{"name":"다미축산","tel":"02-2685-5336","addr":"경기도 광명시 광명동 40-8번지","indutype":"음료식품 - 정육점","category":"food"}]},{"lat":"37.46163122","long":"126.8522127","imageIndex":7,"items":[{"name":"다복농산","tel":"02-2688-8876","addr":"경기도 광명시 광명동 582-2번지","indutype":"음료식품 - 미곡상","category":"food"}]},{"lat":"37.46168429","long":"126.8514327","imageIndex":7,"items":[{"name":"다솜푸드","tel":"02-2060-2744","addr":"경기도 광명시 광명동 572-14번지 2층","indutype":"음료식품 - 기타음료식품","category":"food"}]},{"lat":"37.47915167","long":"126.8562363","imageIndex":7,"items":[{"name":"달봉이네두부","tel":"02-2612-0743","addr":"경기도 광명시 광명동 150-16번지","indutype":"음료식품 - 기타음료식품","category":"food"},{"name":"바다수산","tel":"02-2614-2427","addr":"경기도 광명시 광명동 150-16번지","indutype":"음료식품 - 농·축·수산품","category":"food"},{"name":"새서울기름집","tel":"02-2613-6910","addr":"경기도 광명시 광명동 150-16번지","indutype":"음료식품 - 기타음료식품","category":"food"},{"name":"장군축산도매센터","tel":"02-2612-5678","addr":"경기도 광명시 광명동 150-16번지","indutype":"음료식품 - 정육점","category":"food"},{"name":"정희네축산물&건어물","tel":"02-2682-7122","addr":"경기도 광명시 광명동 150-16번지 1층 2호","indutype":"음료식품 - 농·축·수산품","category":"food"}]},{"lat":"37.47371171","long":"126.8507415","imageIndex":7,"items":[{"name":"당나귀 야채과일 도소매","tel":"02-2611-0294","addr":"경기도 광명시 광명동 346번지","indutype":"음료식품 - 농·축·수산품","category":"food"}]},{"lat":"37.47729558","long":"126.856206","imageIndex":7,"items":[{"name":"당진","tel":"02-2060-7374","addr":"경기도 광명시 광명동 158-621번지","indutype":"음료식품 - 농·축·수산품","category":"food"}]},{"lat":"37.47429491","long":"126.8488524","imageIndex":7,"items":[{"name":"대광식품","tel":"02-2688-4140","addr":"경기도 광명시 광명동 263-11번지 1층","indutype":"음료식품 - 기타음료식품","category":"food"},{"name":"아침마당","tel":"","addr":"경기도 광명시 광명동 263-11번지","indutype":"음료식품 - 농·축·수산품","category":"food"}]},{"lat":"37.47943114","long":"126.8563714","imageIndex":7,"items":[{"name":"대도상회","tel":"02-2612-7918","addr":"경기도 광명시 광명동 158-20번지 1층","indutype":"음료식품 - 기타음료식품","category":"food"}]},{"lat":"37.48096211","long":"126.8557918","imageIndex":7,"items":[{"name":"대박수산","tel":"02-2060-0111","addr":"경기도 광명시 광명동 140-18번지","indutype":"음료식품 - 농·축·수산품","category":"food"}]},{"lat":"37.47408827","long":"126.849305","imageIndex":7,"items":[{"name":"대박야채","tel":"02-2685-1886","addr":"경기도 광명시 광명동 263-39번지 형제연립 나동 104호","indutype":"음료식품 - 농·축·수산품","category":"food"},{"name":"메인수산","tel":"031-472-4069","addr":"경기도 광명시 광명동 263-39번지 형제연립 나동 104호","indutype":"음료식품 - 농·축·수산품","category":"food"}]},{"lat":"37.47476201","long":"126.8477661","imageIndex":7,"items":[{"name":"대복축산물도매센타","tel":"031-111-1111","addr":"경기도 광명시 광명동 679-174번지 1층","indutype":"음료식품 - 정육점","category":"food"},{"name":"대복축산물도매센타","tel":"070-8615-8242","addr":"경기도 광명시 광명동 679-174번지 1층","indutype":"음료식품 - 정육점","category":"food"},{"name":"서광네츄럴","tel":"02-2688-4269","addr":"경기도 광명시 광명동 679-174번지 2층","indutype":"건강식품 - 기타건강식품","category":"food"}]},{"lat":"37.47779218","long":"126.8499305","imageIndex":7,"items":[{"name":"대성참기름","tel":"","addr":"경기도 광명시 광명동 208-19번지","indutype":"음료식품 - 기타음료식품","category":"food"}]},{"lat":"37.49000988","long":"126.8647295","imageIndex":7,"items":[{"name":"대흥흑염소","tel":"02-2625-3396","addr":"경기도 광명시 광명동 5-79번지","indutype":"건강식품 - 기타건강식품","category":"food"}]},{"lat":"37.47887295","long":"126.8567117","imageIndex":7,"items":[{"name":"더 이스트 제과점","tel":"02-2060-5336","addr":"경기도 광명시 광명동 150-10번지","indutype":"음료식품 - 제과점","category":"food"}]},{"lat":"37.47562679","long":"126.8546492","imageIndex":7,"items":[{"name":"더잘빠짐2","tel":"","addr":"경기도 광명시 광명동 49-75번지 102호","indutype":"건강식품 - 기타건강식품","category":"food"}]},{"lat":"37.47404022","long":"126.8470102","imageIndex":7,"items":[{"name":"더헤븐 (The heaven)","tel":"02-2618-5401","addr":"경기도 광명시 광명동 243-1번지 101호","indutype":"음료식품 - 제과점","category":"food"}]},{"lat":"37.48496021","long":"126.8612677","imageIndex":7,"items":[{"name":"덕성건강기능식품","tel":"02-2685-7470","addr":"경기도 광명시 광명동 71-1번지","indutype":"건강식품 - 기타건강식품","category":"food"}]},{"lat":"37.47898737","long":"126.8545408","imageIndex":7,"items":[{"name":"던킨도너츠광명사거리점","tel":"02-2684-7806","addr":"경기도 광명시 광명동 158-513번지","indutype":"음료식품 - 제과점","category":"food"}]},{"lat":"37.48026055","long":"126.8567655","imageIndex":7,"items":[{"name":"도래울부대찌개","tel":"","addr":"경기도 광명시 광명동 136-13번지 전통시장 1층 내","indutype":"음료식품 - 기타음료식품","category":"food"},{"name":"체질건강원","tel":"02-985-0202","addr":"경기도 광명시 광명동 136-13번지","indutype":"건강식품 - 기타건강식품","category":"food"},{"name":"행복떡집","tel":"02-2686-7342","addr":"경기도 광명시 광명동 136-13번지 1층","indutype":"음료식품 - 제과점","category":"food"}]},{"lat":"37.48107158","long":"126.856877","imageIndex":7,"items":[{"name":"도시어부","tel":"032-6635-9210","addr":"경기도 광명시 광명동 138-1번지","indutype":"음료식품 - 농·축·수산품","category":"food"},{"name":"산골쌀마을","tel":"02-2614-2228","addr":"경기도 광명시 광명동 138-1.1층점포1칸","indutype":"음료식품 - 미곡상","category":"food"},{"name":"신광명수산","tel":"02-2683-8605","addr":"경기도 광명시 광명동 138-1번지 1층","indutype":"음료식품 - 농·축·수산품","category":"food"}]},{"lat":"37.46773816","long":"126.8507875","imageIndex":7,"items":[{"name":"동신정육점","tel":"02-2619-8445","addr":"경기도 광명시 광명동 743-4번지 동신빌라","indutype":"음료식품 - 정육점","category":"food"}]},{"lat":"37.47976472","long":"126.8565404","imageIndex":7,"items":[{"name":"돼지상회","tel":"02-2682-3458","addr":"경기도 광명시 광명동 158-23번지","indutype":"음료식품 - 기타음료식품","category":"food"},{"name":"뚝배기반찬","tel":"02-2066-6028","addr":"경기도 광명시 광명동 158-23번지","indutype":"음료식품 - 기타음료식품","category":"food"},{"name":"종로복떡집","tel":"02-2619-7134","addr":"경기도 광명시 광명동 158-23번지","indutype":"음료식품 - 제과점","category":"food"}]},{"lat":"37.4742411","long":"126.8490447","imageIndex":7,"items":[{"name":"두부","tel":"02-2689-7249","addr":"경기도 광명시 광명동 263-28번지 광명새마을시장 내","indutype":"음료식품 - 기타음료식품","category":"food"},{"name":"민속떡방앗간","tel":"02-2685-5954","addr":"경기도 광명시 광명동 263-28번지","indutype":"음료식품 - 제과점","category":"food"},{"name":"별별수입과자점","tel":"","addr":"경기도 광명시 광명동 263-28번지 1층","indutype":"음료식품 - 기타음료식품","category":"food"}]},{"lat":"37.46887592","long":"126.8527408","imageIndex":7,"items":[{"name":"떠버리축산","tel":"02-2612-8634","addr":"경기도 광명시 광명동 724-7번지 1층","indutype":"음료식품 - 정육점","category":"food"}]},{"lat":"37.47960188","long":"126.8560093","imageIndex":7,"items":[{"name":"똘이수산","tel":"02-2681-5511","addr":"경기도 광명시 광명동 158-42번지","indutype":"음료식품 - 농·축·수산품","category":"food"},{"name":"소래포구","tel":"02-2687-0145","addr":"경기도 광명시 광명동 158-42번지","indutype":"음료식품 - 농·축·수산품","category":"food"},{"name":"쌍둥이건어물","tel":"02-2688-0427","addr":"경기도 광명시 광명동 158-42번지","indutype":"음료식품 - 농·축·수산품","category":"food"}]},{"lat":"37.49023656","long":"126.8659615","imageIndex":7,"items":[{"name":"뚜레쥬르 광명본점","tel":"02-2616-8282","addr":"경기도 광명시 광명동 5-32번지","indutype":"음료식품 - 제과점","category":"food"}]},{"lat":"37.4798193","long":"126.8569586","imageIndex":7,"items":[{"name":"뜯구씹구","tel":"02-2611-9133","addr":"경기도 광명시 광명동 158-11번지 1층","indutype":"음료식품 - 농·축·수산품","category":"food"}]},{"lat":"37.47324023","long":"126.8484589","imageIndex":7,"items":[{"name":"레브유기농베이커리","tel":"02-2615-4741","addr":"경기도 광명시 광명동 352-38번지 동서빌딩 101호","indutype":"음료식품 - 제과점","category":"food"}]},{"lat":"37.47895844","long":"126.860318","imageIndex":7,"items":[{"name":"마니","tel":"02-2611-7649","addr":"경기도 광명시 광명동 32-150번지","indutype":"음료식품 - 기타음료식품","category":"food"}]},{"lat":"37.48032227","long":"126.85568","imageIndex":7,"items":[{"name":"마장동 축산","tel":"02-2689-3659","addr":"경기도 광명시 광명동 158-1278번지 1층","indutype":"음료식품 - 정육점","category":"food"}]},{"lat":"37.48087333","long":"126.849732","imageIndex":7,"items":[{"name":"명진냉동","tel":"02-2681-4172","addr":"경기도 광명시 광명동 158-971번지 1층","indutype":"음료식품 - 기타음료식품","category":"food"}]},{"lat":"37.4747382","long":"126.850242","imageIndex":7,"items":[{"name":"모두애몰","tel":"070-4063-2240","addr":"경기도 광명시 광명동 281-38번지 202호","indutype":"음료식품 - 농·축·수산품","category":"food"}]},{"lat":"37.47970955","long":"126.8556473","imageIndex":7,"items":[{"name":"몸메존","tel":"02-2060-8992","addr":"경기도 광명시 광명동 158-53번지 1층","indutype":"음료식품 - 농·축·수산품","category":"food"},{"name":"착한축산","tel":"02-2611-4341","addr":"경기도 광명시 광명동 158-53번지 1층","indutype":"음료식품 - 정육점","category":"food"}]},{"lat":"37.47856912","long":"126.8587586","imageIndex":7,"items":[{"name":"미건의료기","tel":"02-2615-8875","addr":"경기도 광명시 광명동 126-22번지 3층","indutype":"건강식품 - 기타건강식품","category":"food"}]},{"lat":"37.47901645","long":"126.85618","imageIndex":7,"items":[{"name":"미래건어물","tel":"02-2687-3033","addr":"경기도 광명시 광명동 150-15번지 21동 1호","indutype":"음료식품 - 농·축·수산품","category":"food"},{"name":"서광청과","tel":"02-2686-7219","addr":"경기도 광명시 광명동 150-15번지","indutype":"음료식품 - 농·축·수산품","category":"food"}]},{"lat":"37.48084619","long":"126.8567644","imageIndex":7,"items":[{"name":"미래건어물","tel":"02-2687-3033","addr":"경기도 광명시 광명동 138-3번지 3호","indutype":"음료식품 - 농·축·수산품","category":"food"}]},{"lat":"37.48639962","long":"126.8594559","imageIndex":7,"items":[{"name":"미소기정","tel":"02-2687-7800","addr":"경기도 광명시 광명동 12-1번지 1층","indutype":"음료식품 - 제과점","category":"food"},{"name":"윤지상회","tel":"02-2684-1308","addr":"경기도 광명시 광명동 12-1번지","indutype":"음료식품 - 기타음료식품","category":"food"}]},{"lat":"37.48095492","long":"126.8572616","imageIndex":7,"items":[{"name":"미우축산","tel":"02-2681-7071","addr":"경기도 광명시 광명동 136-1번지","indutype":"음료식품 - 정육점","category":"food"}]},{"lat":"37.47929592","long":"126.8563152","imageIndex":7,"items":[{"name":"미전반찬","tel":"02-2686-3326","addr":"경기도 광명시 광명동 158-19번지 1층","indutype":"음료식품 - 기타음료식품","category":"food"},{"name":"진미식품","tel":"02-2612-4269","addr":"경기도 광명시 광명동 158-19번지","indutype":"음료식품 - 기타음료식품","category":"food"},{"name":"클로렐라베이커리","tel":"02-2612-5812","addr":"경기도 광명시 광명동 158-19번지 1층","indutype":"음료식품 - 제과점","category":"food"}]},{"lat":"37.4765407","long":"126.8577902","imageIndex":7,"items":[{"name":"민경축산","tel":"02-2683-0246","addr":"경기도 광명시 광명동 158-371번지 1층","indutype":"음료식품 - 정육점","category":"food"}]},{"lat":"37.46868518","long":"126.851543","imageIndex":7,"items":[{"name":"민수산","tel":"032-204-6387","addr":"경기도 광명시 광명동 739-6번지 3층 2호","indutype":"음료식품 - 농·축·수산품","category":"food"}]},{"lat":"37.47398893","long":"126.8491243","imageIndex":7,"items":[{"name":"믿음수산","tel":"02-2613-7619","addr":"경기도 광명시 광명동 263-39번지 형제연립","indutype":"음료식품 - 농·축·수산품","category":"food"}]},{"lat":"37.48045739","long":"126.8556572","imageIndex":7,"items":[{"name":"믿음약초","tel":"02-2685-4663","addr":"경기도 광명시 광명동 158-1320번지","indutype":"건강식품 - 기타건강식품","category":"food"},{"name":"온정상회","tel":"02-2625-7227","addr":"경기도 광명시 광명동 158-1320번지","indutype":"음료식품 - 농·축·수산품","category":"food"}]},{"lat":"37.48059377","long":"126.8566518","imageIndex":7,"items":[{"name":"바다나라","tel":"","addr":"경기도 광명시 광명동 138-5번지","indutype":"음료식품 - 농·축·수산품","category":"food"},{"name":"어사또 (광수산)","tel":"","addr":"경기도 광명시 광명동 138-5번지","indutype":"음료식품 - 농·축·수산품","category":"food"}]},{"lat":"37.47803853","long":"126.8595736","imageIndex":7,"items":[{"name":"바로구운빵","tel":"02-2617-3352","addr":"경기도 광명시 광명동 38-1번지 1층 7호","indutype":"음료식품 - 제과점","category":"food"},{"name":"청정한우","tel":"02-2685-5336","addr":"경기도 광명시 광명동 38-1번지 1층 1호","indutype":"음료식품 - 정육점","category":"food"}]},{"lat":"37.47829692","long":"126.8572102","imageIndex":7,"items":[{"name":"바불리옛날왕만두","tel":"02-111-1111","addr":"경기도 광명시 광명동 158-486번지 1층","indutype":"음료식품 - 기타음료식품","category":"food"}]},{"lat":"37.47379158","long":"126.8497917","imageIndex":7,"items":[{"name":"바우건어물","tel":"02-2681-3957","addr":"경기도 광명시 광명동 348-38번지 1층","indutype":"음료식품 - 농·축·수산품","category":"food"},{"name":"바우닭집","tel":"02-2684-1943","addr":"경기도 광명시 광명동 348-38번지","indutype":"음료식품 - 정육점","category":"food"}]},{"lat":"37.48045697","long":"126.855318","imageIndex":7,"items":[{"name":"박가두부(광명전통시장점)","tel":"02-2684-0045","addr":"경기도 광명시 광명동 158-1374번지 1층 일부","indutype":"음료식품 - 기타음료식품","category":"food"}]},{"lat":"37.47365494","long":"126.8486502","imageIndex":7,"items":[{"name":"반찬","tel":"02-2625-7189","addr":"경기도 광명시 광명동 352-11번지 현대빌라 201호","indutype":"음료식품 - 기타음료식품","category":"food"}]},{"lat":"37.47276886","long":"126.8532417","imageIndex":7,"items":[{"name":"반찬나라","tel":"02-2688-7880","addr":"경기도 광명시 광명동 334-32번지 1층","indutype":"음료식품 - 기타음료식품","category":"food"}]},{"lat":"37.47923895","long":"126.8539863","imageIndex":7,"items":[{"name":"배스킨라빈스","tel":"02-2686-9995","addr":"경기도 광명시 광명동 158-789번지","indutype":"음료식품 - 제과점","category":"food"}]},{"lat":"37.47940127","long":"126.854099","imageIndex":7,"items":[{"name":"베이크스토리","tel":"070-4681-6473","addr":"경기도 광명시 광명동 158-211번지 지층 1001호 (7호선 광명사거리역)","indutype":"음료식품 - 제과점","category":"food"}]},{"lat":"37.47062759","long":"126.8557103","imageIndex":7,"items":[{"name":"보령축산","tel":"02-2617-7555","addr":"경기도 광명시 광명동 717-1번지","indutype":"음료식품 - 정육점","category":"food"}]},{"lat":"37.47434788","long":"126.8480157","imageIndex":7,"items":[{"name":"보리마을","tel":"02-2616-3360","addr":"경기도 광명시 광명동 259-25번지 수동빌딩 1층","indutype":"음료식품 - 제과점","category":"food"}]},{"lat":"37.47826521","long":"126.8607602","imageIndex":7,"items":[{"name":"봉화","tel":"","addr":"경기도 광명시 광명동 32-104번지 1층","indutype":"음료식품 - 기타음료식품","category":"food"}]},{"lat":"37.47090745","long":"126.8490741","imageIndex":7,"items":[{"name":"부흥종묘","tel":"02-2687-2212","addr":"경기도 광명시 광명동 380-11번지","indutype":"음료식품 - 농·축·수산품","category":"food"}]},{"lat":"37.47217993","long":"126.8506768","imageIndex":7,"items":[{"name":"브래드하우스","tel":"02-2684-6834","addr":"경기도 광명시 광명동 374-40번지","indutype":"음료식품 - 제과점","category":"food"}]},{"lat":"37.47851777","long":"126.8536825","imageIndex":7,"items":[{"name":"브레드팝","tel":"02-2619-0245","addr":"경기도 광명시 광명동 158-796번지 대교빌딩 1층","indutype":"음료식품 - 제과점","category":"food"}]},{"lat":"37.48068391","long":"126.8566855","imageIndex":7,"items":[{"name":"빵굽는동네","tel":"02-2611-0933","addr":"경기도 광명시 광명동 138-23번지","indutype":"음료식품 - 제과점","category":"food"}]},{"lat":"37.48434485","long":"126.8590415","imageIndex":7,"items":[{"name":"빵굽터우리동네","tel":"02-2685-8546","addr":"경기도 광명시 광명동 61-1번지","indutype":"음료식품 - 제과점","category":"food"},{"name":"우리농수산물","tel":"02-6085-1199","addr":"경기도 광명시 광명동 61-1번지","indutype":"음료식품 - 농·축·수산품","category":"food"},{"name":"우리농수산물","tel":"02-2688-0177","addr":"경기도 광명시 광명동 61-1번지","indutype":"음료식품 - 기타음료식품","category":"food"},{"name":"우리농수산물","tel":"02-2688-0177","addr":"경기도 광명시 광명동 61-1번지 1층","indutype":"음료식품 - 농·축·수산품","category":"food"}]},{"lat":"37.48079241","long":"126.8569906","imageIndex":7,"items":[{"name":"산골밥상","tel":"02-111-1111","addr":"경기도 광명시 광명동 136-18번지","indutype":"음료식품 - 기타음료식품","category":"food"}]},{"lat":"37.48898178","long":"126.8639059","imageIndex":7,"items":[{"name":"삼앤초","tel":"031-2682-3389","addr":"경기도 광명시 광명동 6-86번지","indutype":"건강식품 - 인삼제품","category":"food"}]},{"lat":"37.47209946","long":"126.8511517","imageIndex":7,"items":[{"name":"삼영식품","tel":"02-684-1193","addr":"경기도 광명시 광명동 374-10번지","indutype":"음료식품 - 기타음료식품","category":"food"}]},{"lat":"37.48032237","long":"126.8557592","imageIndex":7,"items":[{"name":"삼천리상회","tel":"02-2682-9201","addr":"경기도 광명시 광명동 158-32번지","indutype":"음료식품 - 농·축·수산품","category":"food"}]},{"lat":"37.47523284","long":"126.8495401","imageIndex":7,"items":[{"name":"상원유통","tel":"02-2686-0097","addr":"경기도 광명시 광명동 277-53번지 1층","indutype":"음료식품 - 기타음료식품","category":"food"}]},{"lat":"37.47356697","long":"126.8502896","imageIndex":7,"items":[{"name":"새마을빵공장","tel":"02-2625-8985","addr":"경기도 광명시 광명동 347-7번지 1층","indutype":"음료식품 - 제과점","category":"food"},{"name":"하나축산","tel":"02-2617-4335","addr":"경기도 광명시 광명동 347-7번지","indutype":"음료식품 - 정육점","category":"food"}]},{"lat":"37.47362937","long":"126.8497694","imageIndex":7,"items":[{"name":"새흥부방앗간","tel":"02-2684-3840","addr":"경기도 광명시 광명동 348-28번지 103호","indutype":"음료식품 - 제과점","category":"food"}]},{"lat":"37.46726358","long":"126.8530944","imageIndex":7,"items":[{"name":"서울우유광명동부대리점","tel":"02-2688-1483","addr":"경기도 광명시 광명동 727-5번지 궁전맨션 상가 103호","indutype":"음료식품 - 기타음료식품","category":"food"},{"name":"해뜨는 대풍농수산유통","tel":"02-3666-9998","addr":"경기도 광명시 광명동 727-5번지 궁전맨션 102호","indutype":"음료식품 - 농·축·수산품","category":"food"}]},{"lat":"37.48365719","long":"126.8566797","imageIndex":7,"items":[{"name":"성권방앗간","tel":"031-2613-8898","addr":"경기도 광명시 광명동 57-8번지","indutype":"음료식품 - 기타음료식품","category":"food"}]},{"lat":"37.47445871","long":"126.8500956","imageIndex":7,"items":[{"name":"성심방앗간","tel":"02-2689-7778","addr":"경기도 광명시 광명동 281-41번지","indutype":"음료식품 - 기타음료식품","category":"food"}]},{"lat":"37.48301083","long":"126.8585918","imageIndex":7,"items":[{"name":"성은유통","tel":"02-2618-8989","addr":"경기도 광명시 광명동 62-10번지 102호","indutype":"음료식품 - 정육점","category":"food"}]},{"lat":"37.48162876","long":"126.8486564","imageIndex":7,"items":[{"name":"세계과자 할인점","tel":"","addr":"경기도 광명시 광명동 159-46번지 동서빌라 104호","indutype":"음료식품 - 기타음료식품","category":"food"}]},{"lat":"37.48023262","long":"126.856042","imageIndex":7,"items":[{"name":"소문난왕족발","tel":"02-2625-8295","addr":"경기도 광명시 광명동 158-992번지","indutype":"음료식품 - 기타음료식품","category":"food"}]},{"lat":"37.47415103","long":"126.8490675","imageIndex":7,"items":[{"name":"소신상회","tel":"02-2625-9945","addr":"경기도 광명시 광명동 263-39번지 형제연립 가동 103호","indutype":"음료식품 - 정육점","category":"food"},{"name":"정우상사","tel":"070-8990-5893","addr":"경기도 광명시 광명동 263-39번지 형제연립 가동 101호","indutype":"음료식품 - 농·축·수산품","category":"food"}]},{"lat":"37.47718","long":"126.8503162","imageIndex":7,"items":[{"name":"소작롱","tel":"070-8887-5741","addr":"경기도 광명시 광명동 207-8번지 1층 1호","indutype":"음료식품 - 기타음료식품","category":"food"}]},{"lat":"37.4728235","long":"126.8537051","imageIndex":7,"items":[{"name":"소중한사람 소중한한우 정육점","tel":"02-2688-0950","addr":"경기도 광명시 광명동 334-18번지 1층","indutype":"음료식품 - 정육점","category":"food"}]},{"lat":"37.47271328","long":"126.8520435","imageIndex":7,"items":[{"name":"송도떡방아간","tel":"02-2683-6859","addr":"경기도 광명시 광명동 337-42","indutype":"음료식품 - 제과점","category":"food"}]},{"lat":"37.47629689","long":"126.8573498","imageIndex":7,"items":[{"name":"수제담배잎","tel":"","addr":"경기도 광명시 광명동 43-38번지 1층 103호","indutype":"음료식품 - 농·축·수산품","category":"food"}]},{"lat":"37.46840541","long":"126.8511818","imageIndex":7,"items":[{"name":"순우리인삼","tel":"02-3666-7080","addr":"경기도 광명시 광명동 739-10번지 2층","indutype":"회원제형태 - 건강식품","category":"food"}]},{"lat":"37.47348408","long":"126.8488993","imageIndex":7,"items":[{"name":"스마일꽈배기 광명점","tel":"","addr":"경기도 광명시 광명동 352-14번지 로얄프라자 1층 101호","indutype":"음료식품 - 제과점","category":"food"}]},{"lat":"37.47815783","long":"126.854045","imageIndex":7,"items":[{"name":"시루담","tel":"02-2681-6727","addr":"경기도 광명시 광명동 158-521번지 1층 2호","indutype":"음료식품 - 제과점","category":"food"}]},{"lat":"37.47407066","long":"126.8496216","imageIndex":7,"items":[{"name":"시장건강원","tel":"02-2612-1373","addr":"경기도 광명시 광명동 263-24번지 1층","indutype":"건강식품 - 기타건강식품","category":"food"}]},{"lat":"37.47965619","long":"126.8562127","imageIndex":7,"items":[{"name":"신광명건어물","tel":"02-2684-4450","addr":"경기도 광명시 광명동 158-40번지","indutype":"음료식품 - 농·축·수산품","category":"food"}]},{"lat":"37.48112625","long":"126.8573743","imageIndex":7,"items":[{"name":"신금산건강원","tel":"02-2686-6422","addr":"경기도 광명시 광명동 109-7번지","indutype":"건강식품 - 기타건강식품","category":"food"}]},{"lat":"37.48215369","long":"126.8576211","imageIndex":7,"items":[{"name":"신봉미곡상회","tel":"02-2060-4145","addr":"경기도 광명시 광명동 108-4번지 1층","indutype":"음료식품 - 미곡상","category":"food"}]},{"lat":"37.47557507","long":"126.8494263","imageIndex":7,"items":[{"name":"신앙촌상회","tel":"02-2685-8531","addr":"경기도 광명시 광명동 275-10번지 태광하이츠빌라 1층 2호","indutype":"음료식품 - 기타음료식품","category":"food"}]},{"lat":"37.4836265","long":"126.8610667","imageIndex":7,"items":[{"name":"신앙촌상회","tel":"032-341-1424","addr":"경기도 광명시 광명동 70-20번지 미성빌라 A동 B01호","indutype":"음료식품 - 기타음료식품","category":"food"}]},{"lat":"37.4797654","long":"126.8570943","imageIndex":7,"items":[{"name":"신앙촌상회","tel":"02-2687-8654","addr":"경기도 광명시 광명동 158-1번지","indutype":"음료식품 - 기타음료식품","category":"food"}]},{"lat":"37.47221104","long":"126.8538759","imageIndex":7,"items":[{"name":"신영푸드","tel":"","addr":"경기도 광명시 광명동 305-3번지 1층","indutype":"음료식품 - 기타음료식품","category":"food"}]},{"lat":"37.47934468","long":"126.852098","imageIndex":7,"items":[{"name":"신우고추방앗간","tel":"02-2616-0101","addr":"경기도 광명시 광명동 158-888번지 1층","indutype":"음료식품 - 기타음료식품","category":"food"}]},{"lat":"37.4810162","long":"126.8558143","imageIndex":7,"items":[{"name":"신토불이 잡곡","tel":"02-2060-8992","addr":"경기도 광명시 광명동 140-11번지","indutype":"음료식품 - 미곡상","category":"food"}]},{"lat":"37.47965567","long":"126.8557944","imageIndex":7,"items":[{"name":"신토불이농산물","tel":"02-684-5811","addr":"경기도 광명시 광명동 158-52번지","indutype":"건강식품 - 홍삼제품","category":"food"},{"name":"조이마켓","tel":"","addr":"경기도 광명시 광명동 158-52번지","indutype":"음료식품 - 농·축·수산품","category":"food"}]},{"lat":"37.47996111","long":"126.8550702","imageIndex":7,"items":[{"name":"싱싱텃밭","tel":"02-861-2911","addr":"경기도 광명시 광명동 158-77번지","indutype":"음료식품 - 농·축·수산품","category":"food"}]},{"lat":"37.47987985","long":"126.8549347","imageIndex":7,"items":[{"name":"싼타클로빵스","tel":"02-2060-1388","addr":"경기도 광명시 광명동 158-79번지","indutype":"음료식품 - 제과점","category":"food"},{"name":"창수네건어물","tel":"070-4922-1261","addr":"경기도 광명시 광명동 158-79번지 1층","indutype":"음료식품 - 농·축·수산품","category":"food"}]},{"lat":"37.48215312","long":"126.8571575","imageIndex":7,"items":[{"name":"쌀백화점","tel":"02-2684-9687","addr":"경기도 광명시 광명동 103-11번지 1층","indutype":"음료식품 - 미곡상","category":"food"}]},{"lat":"37.47989994","long":"126.8565966","imageIndex":7,"items":[{"name":"쌍둥이즉석두부제조","tel":"02-2612-8095","addr":"경기도 광명시 광명동 158-24번지 1층","indutype":"음료식품 - 기타음료식품","category":"food"},{"name":"정진상회","tel":"02-2612-6038","addr":"경기도 광명시 광명동 158-24번지","indutype":"음료식품 - 농·축·수산품","category":"food"},{"name":"한우밭","tel":"02-2611-5307","addr":"경기도 광명시 광명동 158-24번지 1층","indutype":"음료식품 - 정육점","category":"food"}]},{"lat":"37.48076739","long":"126.85863","imageIndex":7,"items":[{"name":"아이스월드","tel":"02-2611-9765","addr":"경기도 광명시 광명동 116-10번지","indutype":"음료식품 - 기타음료식품","category":"food"}]},{"lat":"37.46812734","long":"126.8521545","imageIndex":7,"items":[{"name":"아이스크림할인점","tel":"02-1111-1111","addr":"경기도 광명시 광명동 725-17번지 1층 3호","indutype":"음료식품 - 기타음료식품","category":"food"}]},{"lat":"37.48031804","long":"126.8595692","imageIndex":7,"items":[{"name":"안성정육점","tel":"02-2612-1187","addr":"경기도 광명시 광명동 126-1번지","indutype":"음료식품 - 정육점","category":"food"}]},{"lat":"37.48001735","long":"126.8568225","imageIndex":7,"items":[{"name":"안심한우","tel":"02-2685-9742","addr":"경기도 광명시 광명동 136-10번지","indutype":"음료식품 - 정육점","category":"food"}]},{"lat":"37.47295725","long":"126.852597","imageIndex":7,"items":[{"name":"안심한우와 한돈","tel":"02-2611-5926","addr":"경기도 광명시 광명동 337-38번지 문영시티빌라 1층","indutype":"음료식품 - 정육점","category":"food"}]},{"lat":"37.47501621","long":"126.8492353","imageIndex":7,"items":[{"name":"약초와건강","tel":"02-2614-1467","addr":"경기도 광명시 광명동 268-36번지","indutype":"건강식품 - 기타건강식품","category":"food"}]},{"lat":"37.48065557","long":"126.8556228","imageIndex":7,"items":[{"name":"양심정육도매센터","tel":"02-2613-6500","addr":"경기도 광명시 광명동 140-20번지 1층","indutype":"음료식품 - 정육점","category":"food"},{"name":"양심정육도매센터","tel":"02-2613-6500","addr":"경기도 광명시 광명동 140-20번지","indutype":"음료식품 - 정육점","category":"food"}]},{"lat":"37.48195503","long":"126.8572597","imageIndex":7,"items":[{"name":"엄마랑","tel":"02-2625-0559","addr":"경기도 광명시 광명동 106-1번지","indutype":"회원제형태 - 건강식품","category":"food"}]},{"lat":"37.4669076","long":"126.8495118","imageIndex":7,"items":[{"name":"엠비지코리아196호","tel":"070-5022-5962","addr":"경기도 광명시 광명동 746-13번지 젤라빌라 302호","indutype":"건강식품 - 기타건강식품","category":"food"}]},{"lat":"37.47390002","long":"126.8500402","imageIndex":7,"items":[{"name":"여주반찬","tel":"02-2615-8201","addr":"경기도 광명시 광명동 348-3번지","indutype":"음료식품 - 기타음료식품","category":"food"}]},{"lat":"37.47367982","long":"126.847011","imageIndex":7,"items":[{"name":"여주상회","tel":"02-2684-5985","addr":"경기도 광명시 광명동 243-5번지 103호","indutype":"음료식품 - 기타음료식품","category":"food"}]},{"lat":"37.46729811","long":"126.8519075","imageIndex":7,"items":[{"name":"연세우유 광명대리점","tel":"02-2060-9693","addr":"경기도 광명시 광명동 736-4번지 형제빌딩 1층","indutype":"음료식품 - 기타음료식품","category":"food"}]},{"lat":"37.47384542","long":"126.849622","imageIndex":7,"items":[{"name":"영광","tel":"","addr":"경기도 광명시 광명동 351-12번지 1층","indutype":"음료식품 - 농·축·수산품","category":"food"},{"name":"창녕기름집","tel":"02-2682-0992","addr":"경기도 광명시 광명동 351-12번지","indutype":"음료식품 - 기타음료식품","category":"food"}]},{"lat":"37.48012498","long":"126.8564266","imageIndex":7,"items":[{"name":"영동건어물","tel":"02-2689-6215","addr":"경기도 광명시 광명동 158-36번지","indutype":"음료식품 - 농·축·수산품","category":"food"},{"name":"의정부부대찌개","tel":"02-2686-5234","addr":"경기도 광명시 광명동 158-36번지","indutype":"음료식품 - 기타음료식품","category":"food"},{"name":"황금반찬","tel":"02-2611-6924","addr":"경기도 광명시 광명동 158-36번지 1층","indutype":"음료식품 - 기타음료식품","category":"food"}]},{"lat":"37.4805422","long":"126.8586756","imageIndex":7,"items":[{"name":"영동청과","tel":"02-2625-5791","addr":"경기도 광명시 광명동 129-1번지","indutype":"음료식품 - 농·축·수산품","category":"food"}]},{"lat":"37.47743296","long":"126.8580146","imageIndex":7,"items":[{"name":"영례폐백한과연구소","tel":"02-830-5945","addr":"경기도 광명시 광명동 158-402번지 101호","indutype":"음료식품 - 기타음료식품","category":"food"}]},{"lat":"37.47099037","long":"126.850487","imageIndex":7,"items":[{"name":"영일상회","tel":"02-2681-0807","addr":"경기도 광명시 광명동 374-67번지 1층","indutype":"음료식품 - 미곡상","category":"food"}]},{"lat":"37.47353944","long":"126.8499053","imageIndex":7,"items":[{"name":"옛날떡집","tel":"02-2683-8173","addr":"경기도 광명시 광명동 348-9번지","indutype":"음료식품 - 제과점","category":"food"}]},{"lat":"37.4773494","long":"126.8560137","imageIndex":7,"items":[{"name":"옛날수제누룽지","tel":"","addr":"경기도 광명시 광명동 158-622번지 1층","indutype":"음료식품 - 기타음료식품","category":"food"}]},{"lat":"37.47310184","long":"126.8529358","imageIndex":7,"items":[{"name":"옛날즉석생과자","tel":"02-2616-3604","addr":"경기도 광명시 광명동 337-72번지 동남마을빌라 1층 101호","indutype":"음료식품 - 제과점","category":"food"}]},{"lat":"37.47371071","long":"126.8499614","imageIndex":7,"items":[{"name":"오곡백과","tel":"02-2686-6181","addr":"경기도 광명시 광명동 348-8번지","indutype":"음료식품 - 농·축·수산품","category":"food"},{"name":"진성축산물 도매센타","tel":"02-2688-5940","addr":"경기도 광명시 광명동 348-8번지 1층","indutype":"음료식품 - 정육점","category":"food"}]},{"lat":"37.46779354","long":"126.851816","imageIndex":7,"items":[{"name":"오늘반찬","tel":"02-2066-7550","addr":"경기도 광명시 광명동 736번지 1층","indutype":"음료식품 - 기타음료식품","category":"food"}]},{"lat":"37.48048487","long":"126.8560189","imageIndex":7,"items":[{"name":"오뚜기 떡집","tel":"02-2060-7790","addr":"경기도 광명시 광명동 139-22번지","indutype":"음료식품 - 제과점","category":"food"}]},{"lat":"37.47373795","long":"126.850131","imageIndex":7,"items":[{"name":"오빠야수산","tel":"02-2684-6980","addr":"경기도 광명시 광명동 348-29번지","indutype":"음료식품 - 농·축·수산품","category":"food"},{"name":"자연식품","tel":"02-2681-4458","addr":"경기도 광명시 광명동 348-29번지","indutype":"음료식품 - 기타음료식품","category":"food"}]},{"lat":"37.4740169","long":"126.8498478","imageIndex":7,"items":[{"name":"옥현상회","tel":"02-2688-5428","addr":"경기도 광명시 광명동 263-38번지","indutype":"음료식품 - 농·축·수산품","category":"food"},{"name":"한우축산물 공판장","tel":"02-2066-6699","addr":"경기도 광명시 광명동 263-38번지 1층","indutype":"음료식품 - 정육점","category":"food"}]},{"lat":"37.47379286","long":"126.8507865","imageIndex":7,"items":[{"name":"완도건어물","tel":"","addr":"경기도 광명시 광명동 679-71번지 1층 일부","indutype":"음료식품 - 농·축·수산품","category":"food"}]},{"lat":"37.48723835","long":"126.8601214","imageIndex":7,"items":[{"name":"왕해물","tel":"02-6080-1952","addr":"경기도 광명시 광명동 11-21번지","indutype":"음료식품 - 농·축·수산품","category":"food"}]},{"lat":"37.48012426","long":"126.85585","imageIndex":7,"items":[{"name":"우리농산물","tel":"02-2066-7948","addr":"경기도 광명시 광명동 158-57번지","indutype":"음료식품 - 농·축·수산품","category":"food"}]},{"lat":"37.47656904","long":"126.8516514","imageIndex":7,"items":[{"name":"우리집반찬","tel":"02-2613-2170","addr":"경기도 광명시 광명동 288-21번지 1층","indutype":"음료식품 - 기타음료식품","category":"food"}]},{"lat":"37.47771072","long":"126.8496481","imageIndex":7,"items":[{"name":"우정푸드","tel":"02-2689-1254","addr":"경기도 광명시 광명동 211-1번지","indutype":"음료식품 - 기타음료식품","category":"food"}]},{"lat":"37.47893005","long":"126.8519632","imageIndex":7,"items":[{"name":"월성닭집","tel":"02-2683-5908","addr":"경기도 광명시 광명동 158-1056번지","indutype":"음료식품 - 정육점","category":"food"},{"name":"월성치킨","tel":"02-2683-5908","addr":"경기도 광명시 광명동 158-1056번지","indutype":"음료식품 - 기타음료식품","category":"food"}]},{"lat":"37.48126089","long":"126.8569558","imageIndex":7,"items":[{"name":"웰빙건강원","tel":"02-2696-3700","addr":"경기도 광명시 광명동 106-7번지 1층","indutype":"건강식품 - 기타건강식품","category":"food"}]},{"lat":"37.47356733","long":"126.8505722","imageIndex":7,"items":[{"name":"유리네반찬","tel":"02-2685-4343","addr":"경기도 광명시 광명동 346-51번지 1층","indutype":"음료식품 - 기타음료식품","category":"food"}]},{"lat":"37.47965653","long":"126.856484","imageIndex":7,"items":[{"name":"은영야채","tel":"02-2689-8573","addr":"경기도 광명시 광명동 158-22번지","indutype":"음료식품 - 농·축·수산품","category":"food"},{"name":"이동청과","tel":"02-2684-7707","addr":"경기도 광명시 광명동 158-22번지 1층","indutype":"음료식품 - 농·축·수산품","category":"food"},{"name":"진구수산","tel":"02-2625-4560","addr":"경기도 광명시 광명동 158-22번지 1층","indutype":"음료식품 - 농·축·수산품","category":"food"}]},{"lat":"37.47728938","long":"126.8584897","imageIndex":7,"items":[{"name":"은지어묵","tel":"070-4618-2091","addr":"경기도 광명시 광명동 158-333번지 금강빌라 B02호","indutype":"음료식품 - 기타음료식품","category":"food"}]},{"lat":"37.48123258","long":"126.855927","imageIndex":7,"items":[{"name":"인사동떡집","tel":"02-2688-2778","addr":"경기도 광명시 광명동 140-13번지 1층","indutype":"음료식품 - 제과점","category":"food"}]},{"lat":"37.47412353","long":"126.8487058","imageIndex":7,"items":[{"name":"인삼상회","tel":"02-2066-8831","addr":"경기도 광명시 광명동 262-21번지 1층","indutype":"건강식품 - 홍삼제품","category":"food"}]},{"lat":"37.49131765","long":"126.8658691","imageIndex":7,"items":[{"name":"인정이네 농수산","tel":"","addr":"경기도 광명시 광명동 4-28번지 2층","indutype":"음료식품 - 농·축·수산품","category":"food"}]},{"lat":"37.46890785","long":"126.8495417","imageIndex":7,"items":[{"name":"일신유통","tel":"031-853-5654","addr":"경기도 광명시 광명동 750-9번지 LG빌라 401호","indutype":"음료식품 - 기타음료식품","category":"food"}]},{"lat":"37.4799588","long":"126.8532387","imageIndex":7,"items":[{"name":"자담주식회사","tel":"02-2060-3199","addr":"경기도 광명시 광명동 158-195번지 광명리더스빌딩 603호","indutype":"건강식품 - 기타건강식품","category":"food"}]},{"lat":"37.48976656","long":"126.8646847","imageIndex":7,"items":[{"name":"자연담","tel":"02-6369-2929","addr":"경기도 광명시 광명동 6-19번지","indutype":"음료식품 - 기타음료식품","category":"food"}]},{"lat":"37.48015236","long":"126.8567092","imageIndex":7,"items":[{"name":"장릉왕떡갈비","tel":"02-2688-2199","addr":"경기도 광명시 광명동 136-12","indutype":"음료식품 - 정육점","category":"food"}]},{"lat":"37.47926908","long":"126.8564622","imageIndex":7,"items":[{"name":"장보옥수제돈까스","tel":"02-2611-3334","addr":"경기도 광명시 광명동 158-18번지 1층","indutype":"음료식품 - 기타음료식품","category":"food"}]},{"lat":"37.47343233","long":"126.8506855","imageIndex":7,"items":[{"name":"재단법인광남새마을금고장학회","tel":"02-2687-6400","addr":"경기도 광명시 광명동 346-2번지 광남새마을금고본점","indutype":"음료식품 - 기타음료식품","category":"food"}]},{"lat":"37.47765722","long":"126.8572115","imageIndex":7,"items":[{"name":"점핑앤쉐이킹","tel":"","addr":"경기도 광명시 광명동 158-408번지 LG빌라 2층","indutype":"건강식품 - 기타건강식품","category":"food"}]},{"lat":"37.47710234","long":"126.8529957","imageIndex":7,"items":[{"name":"정관장광명사거리점","tel":"02-2683-2304","addr":"경기도 광명시 광명동 200-6번지 한진상가 B-2103호","indutype":"건강식품 - 홍삼제품","category":"food"},{"name":"정관장홍삼전시장광명사거리점/일반","tel":"02-2683-2304","addr":"경기도 광명시 광명동 200-6번지 한진상가 B-2103호","indutype":"건강식품 - 홍삼제품","category":"food"}]},{"lat":"37.47912858","long":"126.8522115","imageIndex":7,"items":[{"name":"제일건강원","tel":"02-844-4302","addr":"경기도 광명시 광명동 158-890번지 1층","indutype":"건강식품 - 기타건강식품","category":"food"}]},{"lat":"37.4741864","long":"126.8485474","imageIndex":7,"items":[{"name":"제일건어물 (새마을시장내)","tel":"02-2689-0112","addr":"경기도 광명시 광명동 262-17번지 개봉연립","indutype":"음료식품 - 농·축·수산품","category":"food"}]},{"lat":"37.47307377","long":"126.8521219","imageIndex":7,"items":[{"name":"제일떡집","tel":"","addr":"경기도 광명시 광명동 342-18번지 1층","indutype":"음료식품 - 제과점","category":"food"}]},{"lat":"37.4723809","long":"126.8528242","imageIndex":7,"items":[{"name":"조은농산","tel":"02-1111-1111","addr":"경기도 광명시 광명동 338번지","indutype":"음료식품 - 농·축·수산품","category":"food"}]},{"lat":"37.48021265","long":"126.8544818","imageIndex":7,"items":[{"name":"조이유통","tel":"02-2688-4994","addr":"경기도 광명시 광명동 158-87번지 1층","indutype":"음료식품 - 기타음료식품","category":"food"}]},{"lat":"37.47454533","long":"126.8474274","imageIndex":7,"items":[{"name":"주식회사 에스에이치코리아","tel":"02-2615-5556","addr":"경기도 광명시 광명동 247-14번지 1층","indutype":"음료식품 - 기타음료식품","category":"food"}]},{"lat":"37.48053896","long":"126.8560414","imageIndex":7,"items":[{"name":"주영상사","tel":"02-2685-9712","addr":"경기도 광명시 광명동 139-9번지","indutype":"음료식품 - 기타음료식품","category":"food"}]},{"lat":"37.48109384","long":"126.8530668","imageIndex":7,"items":[{"name":"주홍과실","tel":"","addr":"경기도 광명시 광명동 158-146번지","indutype":"음료식품 - 농·축·수산품","category":"food"}]},{"lat":"37.47945841","long":"126.8565636","imageIndex":7,"items":[{"name":"중앙기름집","tel":"02-2613-5745","addr":"경기도 광명시 광명동 158-1434번지","indutype":"음료식품 - 기타음료식품","category":"food"}]},{"lat":"37.46996102","long":"126.8558473","imageIndex":7,"items":[{"name":"중앙하이츠청과","tel":"02-2618-5452","addr":"경기도 광명시 광명동 732-1번지 중앙하이츠 상가 지하층","indutype":"음료식품 - 농·축·수산품","category":"food"}]},{"lat":"37.48118174","long":"126.8585387","imageIndex":7,"items":[{"name":"즐겨찾기푸드","tel":"02-2616-8624","addr":"경기도 광명시 광명동 113-5번지 1층","indutype":"음료식품 - 기타음료식품","category":"food"},{"name":"호마루푸드","tel":"02-2613-6046","addr":"경기도 광명시 광명동 113-5번지","indutype":"음료식품 - 기타음료식품","category":"food"}]},{"lat":"37.46076816","long":"126.8467326","imageIndex":7,"items":[{"name":"착한 한우축산","tel":"02-2619-7878","addr":"경기도 광명시 광명동 550-3번지","indutype":"음료식품 - 정육점","category":"food"}]},{"lat":"37.47865584","long":"126.8560112","imageIndex":7,"items":[{"name":"찰찰보리식빵","tel":"","addr":"경기도 광명시 광명동 158-499번지 1층 2호","indutype":"음료식품 - 제과점","category":"food"}]},{"lat":"37.47318263","long":"126.8457685","imageIndex":7,"items":[{"name":"창일축산","tel":"02-2682-9755","addr":"경기도 광명시 광명동 358-1외2필지1층","indutype":"음료식품 - 정육점","category":"food"}]},{"lat":"37.47681881","long":"126.8568174","imageIndex":7,"items":[{"name":"청솔건강원","tel":"02-2615-6157","addr":"경기도 광명시 광명동 158-449번지","indutype":"건강식품 - 기타건강식품","category":"food"}]},{"lat":"37.48979306","long":"126.8642323","imageIndex":7,"items":[{"name":"청양그린농원","tel":"","addr":"경기도 광명시 광명동 6-22번지 청암아트빌 201호","indutype":"음료식품 - 농·축·수산품","category":"food"}]},{"lat":"37.47442959","long":"126.8484903","imageIndex":7,"items":[{"name":"청정우축산물센터","tel":"02-6083-9078","addr":"경기도 광명시 광명동 262-14번지 대우연립 상가 102호","indutype":"음료식품 - 정육점","category":"food"},{"name":"초원농산","tel":"02-2683-7012","addr":"경기도 광명시 광명동 262-14번지 대우연립","indutype":"음료식품 - 농·축·수산품","category":"food"},{"name":"초원상회","tel":"02-2684-9808","addr":"경기도 광명시 광명동 262-14번지 대우연립 1층 101호","indutype":"음료식품 - 농·축·수산품","category":"food"}]},{"lat":"37.4795658","long":"126.8488981","imageIndex":7,"items":[{"name":"초록원효소","tel":"02-2638-0161","addr":"경기도 광명시 광명동 183-98번지","indutype":"건강식품 - 기타건강식품","category":"food"}]},{"lat":"37.48437222","long":"126.8593241","imageIndex":7,"items":[{"name":"초원건강원","tel":"02-2617-8998","addr":"경기도 광명시 광명동 65-11번지","indutype":"건강식품 - 기타건강식품","category":"food"}]},{"lat":"37.4698785","long":"126.8547057","imageIndex":7,"items":[{"name":"축산물도매센타","tel":"02-2617-7322","addr":"경기도 광명시 광명동 719-15번지 대흥빌라트 101호","indutype":"음료식품 - 정육점","category":"food"}]},{"lat":"37.46768607","long":"126.8523249","imageIndex":7,"items":[{"name":"충남방아간","tel":"02-2682-0077","addr":"경기도 광명시 광명동 726-7번지 목화하이츠빌라","indutype":"음료식품 - 제과점","category":"food"}]},{"lat":"37.48020569","long":"126.8561212","imageIndex":7,"items":[{"name":"충남상회","tel":"02-2682-4572","addr":"경기도 광명시 광명동 158-34번지 1층","indutype":"음료식품 - 미곡상","category":"food"},{"name":"충남상회","tel":"02-2682-4572","addr":"경기도 광명시 광명동 158-34번지","indutype":"음료식품 - 미곡상","category":"food"}]},{"lat":"37.4759896","long":"126.849482","imageIndex":7,"items":[{"name":"충남쌀집","tel":"02-2682-7142","addr":"경기도 광명시 광명동 273-2번지 소망연립 107호","indutype":"음료식품 - 미곡상","category":"food"}]},{"lat":"37.48132275","long":"126.8559833","imageIndex":7,"items":[{"name":"친환경와우촌","tel":"02-2649-5365","addr":"경기도 광명시 광명동 140-14번지 1층","indutype":"음료식품 - 정육점","category":"food"}]},{"lat":"37.46832563","long":"126.8522106","imageIndex":7,"items":[{"name":"커피725","tel":"02-2682-5671","addr":"경기도 광명시 광명동 725번지 상보빌딩 1층","indutype":"음료식품 - 기타음료식품","category":"food"}]},{"lat":"37.46237944","long":"126.8525164","imageIndex":7,"items":[{"name":"커피플러스","tel":"02-2686-2028","addr":"경기도 광명시 광명동 575-6번지","indutype":"음료식품 - 기타음료식품","category":"food"}]},{"lat":"37.48992961","long":"126.8654307","imageIndex":7,"items":[{"name":"태율이네야채김치","tel":"02-2682-9441","addr":"경기도 광명시 광명동 5-40번지 1층","indutype":"음료식품 - 농·축·수산품","category":"food"}]},{"lat":"37.49010109","long":"126.8656791","imageIndex":7,"items":[{"name":"티에스엠부산(주)","tel":"02-2201-0010","addr":"경기도 광명시 광명동 5-36번지","indutype":"회원제형태 - 건강식품","category":"food"}]},{"lat":"37.4842071","long":"126.8569274","imageIndex":7,"items":[{"name":"파라바게트 광명2동점","tel":"02-2685-4008","addr":"경기도 광명시 광명동 57-2번지","indutype":"음료식품 - 제과점","category":"food"}]},{"lat":"37.47826285","long":"126.8588157","imageIndex":7,"items":[{"name":"파리바게뜨광명3동점","tel":"02-2684-0082","addr":"경기도 광명시 광명동 126-18번지","indutype":"음료식품 - 제과점","category":"food"}]},{"lat":"37.4786555","long":"126.8557398","imageIndex":7,"items":[{"name":"파리바게뜨광명역점","tel":"02-689-2560","addr":"경기도 광명시 광명동 158-501번지","indutype":"음료식품 - 제과점","category":"food"}]},{"lat":"37.47320846","long":"126.8517599","imageIndex":7,"items":[{"name":"파리바게트","tel":"02-2687-0004","addr":"경기도 광명시 광명동 342-7번지 1층","indutype":"음료식품 - 제과점","category":"food"}]},{"lat":"37.48160175","long":"126.855734","imageIndex":7,"items":[{"name":"파리바게트 광명시장점","tel":"02-2688-4008","addr":"경기도 광명시 광명동 102-13번지","indutype":"음료식품 - 제과점","category":"food"}]},{"lat":"37.4761567","long":"126.8533141","imageIndex":7,"items":[{"name":"파파앤쿡","tel":"070-8272-1333","addr":"경기도 광명시 광명동 196-13번지 1층","indutype":"음료식품 - 기타음료식품","category":"food"}]},{"lat":"37.47674115","long":"126.8596213","imageIndex":7,"items":[{"name":"푸른농산","tel":"031-1234-5678","addr":"경기도 광명시 광명동 158-265번지 오복빌라 102호","indutype":"음료식품 - 농·축·수산품","category":"food"}]},{"lat":"37.48503882","long":"126.8592097","imageIndex":7,"items":[{"name":"푸름라이프","tel":"02-2060-0101","addr":"경기도 광명시 광명동 23-21번지 영남빌라 302호","indutype":"음료식품 - 기타음료식품","category":"food"}]},{"lat":"37.48099042","long":"126.8568206","imageIndex":7,"items":[{"name":"하나로축산","tel":"02-2686-7784","addr":"경기도 광명시 광명동 138-2번지 1층","indutype":"음료식품 - 정육점","category":"food"}]},{"lat":"37.48029545","long":"126.8558497","imageIndex":7,"items":[{"name":"하나상회","tel":"02-2613-2758","addr":"경기도 광명시 광명동 158-1318번지","indutype":"음료식품 - 농·축·수산품","category":"food"},{"name":"현미와누룽지(중앙상회)","tel":"","addr":"경기도 광명시 광명동 158-1318번지 1층","indutype":"음료식품 - 기타음료식품","category":"food"},{"name":"홍어집딸래미","tel":"","addr":"경기도 광명시 광명동 158-1318번지","indutype":"음료식품 - 기타음료식품","category":"food"}]},{"lat":"37.47365679","long":"126.8500746","imageIndex":7,"items":[{"name":"하나유통","tel":"02-2613-1087","addr":"경기도 광명시 광명동 348-30","indutype":"음료식품 - 정육점","category":"food"}]},{"lat":"37.47707125","long":"126.8569526","imageIndex":7,"items":[{"name":"하늘보리축산","tel":"02-2625-2744","addr":"경기도 광명시 광명동 158-433번지 1층","indutype":"음료식품 - 정육점","category":"food"}]},{"lat":"37.47420524","long":"126.8491804","imageIndex":7,"items":[{"name":"한길참기름","tel":"02-2615-5247","addr":"경기도 광명시 광명동 263-29번지","indutype":"음료식품 - 기타음료식품","category":"food"}]},{"lat":"37.47601761","long":"126.8573729","imageIndex":7,"items":[{"name":"한성건강원","tel":"02-2611-1791","addr":"경기도 광명시 광명동 41-175번지","indutype":"건강식품 - 기타건강식품","category":"food"}]},{"lat":"37.46904426","long":"126.8505136","imageIndex":7,"items":[{"name":"한우물축산","tel":"02-867-8528","addr":"경기도 광명시 광명동 740-4번지 명산빌딩 1호","indutype":"음료식품 - 정육점","category":"food"}]},{"lat":"37.47357357","long":"126.8484356","imageIndex":7,"items":[{"name":"해모로축산","tel":"031-503-8018","addr":"경기도 광명시 광명동 352-20번지 1층","indutype":"음료식품 - 정육점","category":"food"}]},{"lat":"37.46820618","long":"126.8504022","imageIndex":7,"items":[{"name":"해민유통","tel":"02-2617-8125","addr":"경기도 광명시 광명동 742-8번지 그린빌리지","indutype":"음료식품 - 기타음료식품","category":"food"}]},{"lat":"37.4722323","long":"126.8493653","imageIndex":7,"items":[{"name":"해피차","tel":"02-6228-2040","addr":"경기도 광명시 광명동 372-47번지 한국하이츠 1동 1층 102호 점포","indutype":"음료식품 - 기타음료식품","category":"food"}]},{"lat":"37.47402779","long":"126.8513061","imageIndex":7,"items":[{"name":"행복드림한우2호","tel":"02-2612-1121","addr":"경기도 광명시 광명동 290-52번지 A동 114호","indutype":"음료식품 - 정육점","category":"food"}]},{"lat":"37.47340422","long":"126.849849","imageIndex":7,"items":[{"name":"헝아야손두부","tel":"070-6697-0214","addr":"경기도 광명시 광명동 348-10번지 1","indutype":"음료식품 - 기타음료식품","category":"food"}]},{"lat":"37.48037747","long":"126.8565957","imageIndex":7,"items":[{"name":"협진축산물도매센터","tel":"02-2618-0260","addr":"경기도 광명시 광명동 138-7번지","indutype":"음료식품 - 정육점","category":"food"}]},{"lat":"37.47392855","long":"126.8512045","imageIndex":7,"items":[{"name":"형제정육점","tel":"02-2613-3400","addr":"경기도 광명시 광명동 290-52번지","indutype":"음료식품 - 정육점","category":"food"},{"name":"후레쉬축산","tel":"02-2611-2184","addr":"경기도 광명시 광명동 290-52번지 B동 103호","indutype":"음료식품 - 정육점","category":"food"}]},{"lat":"37.4798455","long":"126.8562915","imageIndex":7,"items":[{"name":"형제흑염소","tel":"02-2613-9710","addr":"경기도 광명시 광명동 158-1156번지","indutype":"건강식품 - 기타건강식품","category":"food"},{"name":"호수상회","tel":"02-2619-1147","addr":"경기도 광명시 광명동 158-1156번지 1층","indutype":"음료식품 - 농·축·수산품","category":"food"}]},{"lat":"37.4809564","long":"126.85846","imageIndex":7,"items":[{"name":"호부니","tel":"","addr":"경기도 광명시 광명동 113-8번지 1층","indutype":"음료식품 - 기타음료식품","category":"food"}]},{"lat":"37.47429635","long":"126.8499603","imageIndex":7,"items":[{"name":"홍성한우 정육점","tel":"070-4799-2829","addr":"경기도 광명시 광명동 267-7번지","indutype":"음료식품 - 정육점","category":"food"}]},{"lat":"37.47365786","long":"126.8508999","imageIndex":7,"items":[{"name":"홍식품","tel":"02-2611-2066","addr":"경기도 광명시 광명동 346-1번지 1층","indutype":"음료식품 - 기타음료식품","category":"food"}]},{"lat":"37.48001555","long":"126.8553754","imageIndex":7,"items":[{"name":"화영식품","tel":"02-2611-8015","addr":"경기도 광명시 광명동 158-65번지 1층","indutype":"건강식품 - 기타건강식품","category":"food"}]},{"lat":"37.47367843","long":"126.8529008","imageIndex":7,"items":[{"name":"황토가물치","tel":"02-2688-3795","addr":"경기도 광명시 광명동 337-21번지 청운빌라 103호","indutype":"건강식품 - 기타건강식품","category":"food"}]},{"lat":"37.48959553","long":"126.8648207","imageIndex":7,"items":[{"name":"효성닭집","tel":"02-2618-0770","addr":"경기도 광명시 광명동 6-1번지 보은연립 1층","indutype":"음료식품 - 정육점","category":"food"}]}]