[{"lat":"37.163190148","long":"126.98392279","imageIndex":4,"items":[{"name":"고기굽는날","tel":"031-354-0190","addr":"경기도 화성시 정남면 발산리 486-1번지","indutype":"일반휴게음식 - 일반한식","category":"restaurant"},{"name":"싱싱회포차","tel":"031-354-7240","addr":"경기도 화성시 정남면 발산리 486-1 영선빌딩","indutype":"일반휴게음식 - 일반한식","category":"restaurant"},{"name":"피그족","tel":"031-354-5858","addr":"경기도 화성시 정남면 발산리 486-1번지","indutype":"일반휴게음식 - 일반한식","category":"restaurant"}]},{"lat":"37.160973305","long":"126.98229092","imageIndex":4,"items":[{"name":"고기마을","tel":"031-3540-1091","addr":"경기도 화성시 정남면 발산리 540","indutype":"일반휴게음식 - 일반한식","category":"restaurant"},{"name":"희야","tel":"031-000-0000","addr":"경기도 화성시 정남면 발산리 540번지","indutype":"일반휴게음식 - 일반한식","category":"restaurant"}]},{"lat":"37.161162544","long":"126.98240345","imageIndex":4,"items":[{"name":"골프까페","tel":"031-354-8890","addr":"경기도 화성시 정남면 발산리 723","indutype":"일반휴게음식 - 서양음식","category":"restaurant"},{"name":"초가마을","tel":"031-353-2987","addr":"경기도 화성시 정남면 발산리 723","indutype":"일반휴게음식 - 일반한식","category":"restaurant"}]},{"lat":"37.168109798","long":"126.98359504","imageIndex":4,"items":[{"name":"김밥마을만두나라","tel":"031-352-3434","addr":"경기도 화성시 정남면 발산리 409-3번지","indutype":"일반휴게음식 - 스넥","category":"restaurant"}]},{"lat":"37.1602795","long":"126.98229111","imageIndex":4,"items":[{"name":"꼬꼬가마솥통닭","tel":"031-352-3654","addr":"경기도 화성시 정남면 발산리 539-3번지 1층","indutype":"일반휴게음식 - 일반한식","category":"restaurant"}]},{"lat":"37.168749502","long":"126.9833697","imageIndex":4,"items":[{"name":"나눔분식","tel":"031-354-1093","addr":"경기도 화성시 정남면 발산리 402-3번지","indutype":"일반휴게음식 - 스넥","category":"restaurant"}]},{"lat":"37.155747735","long":"126.98536559","imageIndex":4,"items":[{"name":"다정한식부페","tel":"031-234-0150","addr":"경기도 화성시 정남면 발산리 577번지","indutype":"일반휴게음식 - 일반한식","category":"restaurant"}]},{"lat":"37.16808272","long":"126.98331357","imageIndex":4,"items":[{"name":"도도한 커피","tel":"031-000-0000","addr":"경기도 화성시 정남면 발산리 408-6번지 1층","indutype":"일반휴게음식 - 서양음식","category":"restaurant"}]},{"lat":"37.163496503","long":"126.98392271","imageIndex":4,"items":[{"name":"돈치킨정남점","tel":"031-359-8277","addr":"경기도 화성시 정남면 발산리 486-1번지 C동 8호","indutype":"일반휴게음식 - 주점","category":"restaurant"},{"name":"진미가마솥통닭","tel":"031-359-9265","addr":"경기도 화성시 정남면 발산리 486-1번지 C동 1층","indutype":"일반휴게음식 - 스넥","category":"restaurant"}]},{"lat":"37.161306725","long":"126.98248222","imageIndex":4,"items":[{"name":"두루애(화성정남점)","tel":"031-359-9287","addr":"경기도 화성시 정남면 발산리 723-1번지 1층","indutype":"일반휴게음식 - 일반한식","category":"restaurant"},{"name":"청마루감자탕해장국","tel":"031-354-4388","addr":"경기도 화성시 정남면 발산리 723-1번지 1층 1,2호","indutype":"일반휴게음식 - 일반한식","category":"restaurant"},{"name":"파랑돼지","tel":"031-354-4448","addr":"경기도 화성시 정남면 발산리 723-1번지","indutype":"일반휴게음식 - 일반한식","category":"restaurant"},{"name":"폰카페","tel":"031-354-8226","addr":"경기도 화성시 정남면 발산리 723-1번지 1층 일부","indutype":"일반휴게음식 - 서양음식","category":"restaurant"}]},{"lat":"37.159774919","long":"126.98231376","imageIndex":4,"items":[{"name":"떡시루공방","tel":"031-352-1852","addr":"경기도 화성시 정남면 발산리 719번지","indutype":"일반휴게음식 - 일반한식","category":"restaurant"}]},{"lat":"37.160973338","long":"126.98248231","imageIndex":4,"items":[{"name":"맛나분식","tel":"031-354-1019","addr":"경기도 화성시 정남면 발산리 540-2번지","indutype":"일반휴게음식 - 스넥","category":"restaurant"},{"name":"주식회사(술이랑밥이랑)","tel":"031-352-3002","addr":"경기도 화성시 정남면 발산리 540-2번지 1층","indutype":"일반휴게음식 - 일반한식","category":"restaurant"}]},{"lat":"37.157720554","long":"126.98242689","imageIndex":4,"items":[{"name":"발산리 순대국","tel":"031-366-0389","addr":"경기도 화성시 정남면 발산리 712번지","indutype":"일반휴게음식 - 일반한식","category":"restaurant"},{"name":"풍년한식부페","tel":"","addr":"경기도 화성시 정남면 발산리 712번지","indutype":"일반휴게음식 - 일반한식","category":"restaurant"}]},{"lat":"37.160198449","long":"126.9825388","imageIndex":4,"items":[{"name":"삼오가든","tel":"031-353-3308","addr":"경기도 화성시 정남면 발산리 720-1번지 1층","indutype":"일반휴게음식 - 일반한식","category":"restaurant"}]},{"lat":"37.15286378","long":"126.98165147","imageIndex":4,"items":[{"name":"소문난순대국","tel":"031-366-2696","addr":"경기도 화성시 정남면 발산리 689-1번지 1층","indutype":"일반휴게음식 - 일반한식","category":"restaurant"}]},{"lat":"37.16833499","long":"126.9831784","imageIndex":4,"items":[{"name":"이모밥상","tel":"031-352-7298","addr":"경기도 화성시 정남면 발산리 408-10번지","indutype":"일반휴게음식 - 일반한식","category":"restaurant"}]},{"lat":"37.154945265","long":"126.98203364","imageIndex":4,"items":[{"name":"이싼인디타이레스토랑","tel":"031-000-0000","addr":"경기도 화성시 정남면 발산리 697번지 108호","indutype":"일반휴게음식 - 서양음식","category":"restaurant"},{"name":"흥부네","tel":"031-354-9770","addr":"경기도 화성시 정남면 발산리 697번지 1층","indutype":"일반휴게음식 - 중국식","category":"restaurant"}]},{"lat":"37.162802628","long":"126.98348381","imageIndex":4,"items":[{"name":"참새와방앗간소주방","tel":"031-8059-6889","addr":"경기도 화성시 정남면 발산리 486-3번지","indutype":"일반휴게음식 - 일반한식","category":"restaurant"},{"name":"해피홈","tel":"031-353-9852","addr":"경기도 화성시 정남면 발산리 486-3번지 101호","indutype":"일반휴게음식 - 스넥","category":"restaurant"}]},{"lat":"37.155440865","long":"126.98217985","imageIndex":4,"items":[{"name":"청미한식뷔페2호점","tel":"031-8059-5354","addr":"경기도 화성시 정남면 발산리 703번지","indutype":"일반휴게음식 - 일반한식","category":"restaurant"}]},{"lat":"37.165055329","long":"126.98403491","imageIndex":4,"items":[{"name":"큰맘할매순대국(화성정남점)","tel":"031-352-6167","addr":"경기도 화성시 정남면 발산리 250번지 1층,104,105호","indutype":"일반휴게음식 - 일반한식","category":"restaurant"}]},{"lat":"37.167884555","long":"126.98370769","imageIndex":4,"items":[{"name":"토마토분식","tel":"","addr":"경기도 화성시 정남면 발산리 409-7번지 1층 일부","indutype":"일반휴게음식 - 스넥","category":"restaurant"}]},{"lat":"37.156945651","long":"126.98240459","imageIndex":4,"items":[{"name":"호남한식뷔페","tel":"031-352-9233","addr":"경기도 화성시 정남면 발산리 709-2번지","indutype":"일반휴게음식 - 일반한식","category":"restaurant"}]}]