[{"lat":"37.28820918","long":"127.01925622","imageIndex":7,"items":[{"name":"K3마트","tel":"031-241-7776","addr":"경기도 수원시 장안구 연무동 192-5번지","indutype":"유통업 영리 - 슈퍼마켓","category":"mart"}]},{"lat":"37.292875311","long":"127.02628325","imageIndex":7,"items":[{"name":"OK마트","tel":"031-243-0894","addr":"경기도 수원시 장안구 연무동 258-45번지 상가 1층","indutype":"유통업 영리 - 슈퍼마켓","category":"mart"}]},{"lat":"37.289515348","long":"127.02142173","imageIndex":7,"items":[{"name":"갑성마트","tel":"031-255-0002","addr":"경기도 수원시 장안구 연무동 178-27번지 1층","indutype":"유통업 영리 - 슈퍼마켓","category":"mart"}]},{"lat":"37.294982827","long":"127.03038911","imageIndex":7,"items":[{"name":"남창슈퍼","tel":"031-241-3634","addr":"경기도 수원시 장안구 연무동 227-3번지","indutype":"유통업 영리 - 슈퍼마켓","category":"mart"}]},{"lat":"37.296289516","long":"127.02949861","imageIndex":7,"items":[{"name":"동네마트","tel":"031-246-7078","addr":"경기도 수원시 장안구 연무동 215-24번지 1층","indutype":"유통업 영리 - 슈퍼마켓","category":"mart"}]},{"lat":"37.291317211","long":"127.02258375","imageIndex":7,"items":[{"name":"미리내마트","tel":"","addr":"경기도 수원시 장안구 연무동 253-35번지 1층","indutype":"유통업 영리 - 슈퍼마켓","category":"mart"}]},{"lat":"37.294928913","long":"127.02974624","imageIndex":7,"items":[{"name":"사거리슈퍼","tel":"031-251-5130","addr":"경기도 수원시 장안구 연무동 228-29번지","indutype":"유통업 영리 - 슈퍼마켓","category":"mart"}]},{"lat":"37.288515374","long":"127.02033888","imageIndex":7,"items":[{"name":"세일마트","tel":"031-242-3702","addr":"경기도 수원시 장안구 연무동 193-67번지","indutype":"유통업 영리 - 슈퍼마켓","category":"mart"}]},{"lat":"37.294091728","long":"127.02611446","imageIndex":7,"items":[{"name":"아울렛D.C백화점","tel":"031-257-0900","addr":"경기도 수원시 장안구 연무동 236-37번지","indutype":"유통업 영리 - 슈퍼마켓","category":"mart"}]},{"lat":"37.298983413","long":"127.03022139","imageIndex":7,"items":[{"name":"우주공판장","tel":"031-253-5583","addr":"경기도 수원시 장안구 연무동 7-4번지","indutype":"유통업 영리 - 슈퍼마켓","category":"mart"}]},{"lat":"37.29303781","long":"127.02463675","imageIndex":7,"items":[{"name":"월드할인마트연무점","tel":"031-254-6688","addr":"경기도 수원시 장안구 연무동 257-1번지","indutype":"유통업 영리 - 슈퍼마켓","category":"mart"}]},{"lat":"37.297208092","long":"127.03150648","imageIndex":7,"items":[{"name":"장미슈퍼","tel":"031-242-9943","addr":"경기도 수원시 장안구 연무동 56-24번지","indutype":"유통업 영리 - 슈퍼마켓","category":"mart"}]},{"lat":"37.294289633","long":"127.02769343","imageIndex":7,"items":[{"name":"코사마트평화점","tel":"031-242-3171","addr":"경기도 수원시 장안구 연무동 238번지","indutype":"유통업 영리 - 슈퍼마켓","category":"mart"}]},{"lat":"37.292236095","long":"127.02353131","imageIndex":7,"items":[{"name":"크로바마트","tel":"031-255-9835","addr":"경기도 수원시 장안구 연무동 256번지 크로바마트","indutype":"유통업 영리 - 슈퍼마켓","category":"mart"}]},{"lat":"37.297569088","long":"127.02896897","imageIndex":7,"items":[{"name":"해나온식자재마트","tel":"031-252-1335","addr":"경기도 수원시 장안구 연무동 27-1번지","indutype":"유통업 영리 - 슈퍼마켓","category":"mart"}]},{"lat":"37.294425145","long":"127.02592284","imageIndex":7,"items":[{"name":"현대마트","tel":"031-242-9600","addr":"경기도 수원시 장안구 연무동 235-14번지 연무시장 내","indutype":"유통업 영리 - 슈퍼마켓","category":"mart"}]}]