[{"lat":"37.272631294","long":"127.21968314","imageIndex":7,"items":[{"name":"1004식자재마트","tel":"031-322-3456","addr":"경기도 용인시 처인구 포곡읍 둔전리 179-2번지","indutype":"유통업 영리 - 슈퍼마켓","category":"mart"},{"name":"킹콩마트","tel":"031-322-3456","addr":"경기도 용인시 처인구 포곡읍 둔전리 179-2번지","indutype":"유통업 영리 - 슈퍼마켓","category":"mart"}]},{"lat":"37.297124528","long":"127.22273089","imageIndex":7,"items":[{"name":"개그스토리마트","tel":"031-332-5698","addr":"경기도 용인시 처인구 포곡읍 유운리 361-1번지","indutype":"유통업 영리 - 슈퍼마켓","category":"mart"}]},{"lat":"37.266767098","long":"127.21387159","imageIndex":7,"items":[{"name":"나눔로또,미니마트","tel":"031-328-7061","addr":"경기도 용인시 처인구 포곡읍 둔전리 406-19번지","indutype":"유통업 영리 - 슈퍼마켓","category":"mart"}]},{"lat":"37.285637494","long":"127.23631963","imageIndex":7,"items":[{"name":"대명마트","tel":"031-334-8693","addr":"경기도 용인시 처인구 포곡읍 삼계리 369-8번지 대명맨션 6동 105호","indutype":"유통업 영리 - 슈퍼마켓","category":"mart"}]},{"lat":"37.300324736","long":"127.21695417","imageIndex":7,"items":[{"name":"마마트 (삼성화재교통박물관점)","tel":"","addr":"경기도 용인시 처인구 포곡읍 유운리 432번지 삼성교통박물관 삼성교통박물관부지내마마트","indutype":"유통업 영리 - 슈퍼마켓","category":"mart"}]},{"lat":"37.266605925","long":"127.21831301","imageIndex":7,"items":[{"name":"명성하이마트","tel":"031-339-8095","addr":"경기도 용인시 처인구 포곡읍 둔전리 144-12 제1층 111-104","indutype":"유통업 영리 - 슈퍼마켓","category":"mart"}]},{"lat":"37.268431809","long":"127.22006569","imageIndex":7,"items":[{"name":"번영마트","tel":"031-333-8831","addr":"경기도 용인시 처인구 포곡읍 둔전리 131-7번지","indutype":"유통업 영리 - 슈퍼마켓","category":"mart"}]},{"lat":"37.286349855","long":"127.21695969","imageIndex":7,"items":[{"name":"삼광 로그인 전대","tel":"031-332-5732","addr":"경기도 용인시 처인구 포곡읍 전대리 191-9번지","indutype":"유통업 영리 - 슈퍼마켓","category":"mart"}]},{"lat":"37.280409086","long":"127.23297711","imageIndex":7,"items":[{"name":"선이식품","tel":"031-332-5266","addr":"경기도 용인시 처인구 포곡읍 삼계리 491-8번지","indutype":"유통업 영리 - 슈퍼마켓","category":"mart"}]},{"lat":"37.272044928","long":"127.21000786","imageIndex":7,"items":[{"name":"성원마트","tel":"031-332-1028","addr":"경기도 용인시 처인구 포곡읍 영문리 555번지 베머루마을인정베네치아빌리지 상가동 101호","indutype":"유통업 영리 - 슈퍼마켓","category":"mart"}]},{"lat":"37.296790376","long":"127.22314722","imageIndex":7,"items":[{"name":"송골슈퍼","tel":"031-332-3796","addr":"경기도 용인시 처인구 포곡읍 유운리 140-1","indutype":"유통업 영리 - 슈퍼마켓","category":"mart"}]},{"lat":"37.279715673","long":"127.23278331","imageIndex":7,"items":[{"name":"에스알에이치(SRH)","tel":"031-233-7203","addr":"경기도 용인시 처인구 포곡읍 삼계리 557-8번지 느티나무슈퍼 101호","indutype":"유통업 영리 - 슈퍼마켓","category":"mart"}]},{"lat":"37.286514904","long":"127.21537013","imageIndex":7,"items":[{"name":"전북슈퍼","tel":"031-333-3931","addr":"경기도 용인시 처인구 포곡읍 전대리354-4","indutype":"유통업 영리 - 슈퍼마켓","category":"mart"}]},{"lat":"37.268908506","long":"127.21556868","imageIndex":7,"items":[{"name":"주식회사 농민식자재마트","tel":"031-332-7770","addr":"경기도 용인시 처인구 포곡읍 둔전리 387-8번지 포곡로 91","indutype":"유통업 영리 - 슈퍼마켓","category":"mart"}]},{"lat":"37.268683007","long":"127.21570334","imageIndex":7,"items":[{"name":"주식회사 신농민유통","tel":"032-332-7770","addr":"경기도 용인시 처인구 포곡읍 둔전리 379-5번지 97-3","indutype":"유통업 영리 - 슈퍼마켓","category":"mart"}]},{"lat":"37.296436225","long":"127.23404096","imageIndex":7,"items":[{"name":"태경슈퍼마켓","tel":"031-339-2631","addr":"경기도 용인시 처인구 포곡읍 삼계리 85-1번지","indutype":"유통업 영리 - 슈퍼마켓","category":"mart"}]},{"lat":"37.268935926","long":"127.22031517","imageIndex":7,"items":[{"name":"한국유통(둔전점)","tel":"031-339-6832","addr":"경기도 용인시 처인구 포곡읍 둔전리 130-1번지","indutype":"유통업 영리 - 슈퍼마켓","category":"mart"}]},{"lat":"37.271543999","long":"127.21806777","imageIndex":7,"items":[{"name":"한아름슈퍼","tel":"031-338-5304","addr":"경기도 용인시 처인구 포곡읍 둔전리 171-9번지 한아름슈퍼 103호","indutype":"유통업 영리 - 슈퍼마켓","category":"mart"}]}]