[{"lat":"37.381857405","long":"126.86037783","imageIndex":4,"items":[{"name":"24시 전주명가콩나물국밥","tel":"031-401-7775","addr":"경기도 시흥시 목감동 403-1번지 시티프라자 112~3호","indutype":"음식점업 - 한식","category":"restaurant"},{"name":"24시전주명가콩나물국밥","tel":"031-401-7775","addr":"경기도 시흥시 목감동 403-1번지 112~113호","indutype":"음식점업 - 한식","category":"restaurant"},{"name":"경석이네 치킨분식 (쌀통닭)","tel":"031-405-5008","addr":"경기도 시흥시 목감동 403-1번지 목감시티프라자 117호","indutype":"음식점업 - 치킨","category":"restaurant"},{"name":"국수나무 목감점","tel":"031-481-9766","addr":"경기도 시흥시 목감동 403-1번지 목감시티프라자 103호","indutype":"음식점업 - 분식, 한식","category":"restaurant"},{"name":"굽네치킨 목감점","tel":"031-411-3607","addr":"경기도 시흥시 목감동 403-1번지 목감시티프라자 118호","indutype":"음식점업 - 기타음식, 치킨","category":"restaurant"},{"name":"맥스플레이트","tel":"031-414-6984","addr":"경기도 시흥시 목감동 403-1번지 목감시티프라자 108호","indutype":"음식점업 - 음식점","category":"restaurant"},{"name":"물왕함흥냉면","tel":"031-483-2777","addr":"경기도 시흥시 목감동 403-1번지 티프라자 101호","indutype":"음식점업 - 한식","category":"restaurant"},{"name":"베트남식당","tel":"","addr":"경기도 시흥시 목감동 403-1번지 605,606호","indutype":"음식점업 - 음식점","category":"restaurant"},{"name":"본죽엔비빔밥카페시흥목감역점","tel":"031-414-6288","addr":"경기도 시흥시 목감동 403-1번지 티프라자 105호","indutype":"음식점업 - 음식점","category":"restaurant"},{"name":"스시웨이","tel":"031-414-3774","addr":"경기도 시흥시 목감동 403-1번지 목감시티프라자 2층 204호","indutype":"음식점업 - 한식","category":"restaurant"},{"name":"영훈찜닭목감점","tel":"031-410-8215","addr":"경기도 시흥시 목감동 403-1번지 티프라자 117호","indutype":"음식점업 - 음식점","category":"restaurant"},{"name":"청년다방","tel":"","addr":"경기도 시흥시 목감동 403-1번지 시티프라자 110호","indutype":"음식점업 - 분식","category":"restaurant"},{"name":"큰손감자탕","tel":"031-405-4088","addr":"경기도 시흥시 목감동 403-1번지 목감시티프라자 209호","indutype":"음식점업 - 한식","category":"restaurant"},{"name":"태영생막창 목감점","tel":"031-401-0752","addr":"경기도 시흥시 목감동 403-1번지 목감 시티프라자 1층 115~6호","indutype":"음식점업 - 한식","category":"restaurant"},{"name":"태영생막창목감점","tel":"031-401-0752","addr":"경기도 시흥시 목감동 403-1번지 시티프라자 115동 116호","indutype":"음식점업 - 음식점","category":"restaurant"},{"name":"홍짜장 시흥목감점","tel":"031-414-0223","addr":"경기도 시흥시 목감동 403-1번지 목감시티프라자 114호","indutype":"음식점업 - 중화요리","category":"restaurant"}]},{"lat":"37.38228111","long":"126.86056898","imageIndex":4,"items":[{"name":"가장맛있는족발 목감지구점","tel":"031-402-5849","addr":"경기도 시흥시 목감동 402-3번지 다인로얄팰리스3차 101~2호","indutype":"음식점업 - 한식","category":"restaurant"},{"name":"노랑통닭목감점","tel":"031-403-9295","addr":"경기도 시흥시 목감동 402-3번지 다인로얄팰리스3차 112,113호","indutype":"음식점업 - 치킨전문점","category":"restaurant"},{"name":"목감전집","tel":"031-504-2377","addr":"경기도 시흥시 목감동 402-3번지 다인로얄팰리스3차 1층 116호","indutype":"음식점업 - 한식","category":"restaurant"},{"name":"신포가빈 목감점","tel":"031-401-0915","addr":"경기도 시흥시 목감동 402-3번지 다인로얄팰리스3차 2층 201-206호","indutype":"음식점업 - 한식","category":"restaurant"},{"name":"정오의식빵","tel":"031-411-6662","addr":"경기도 시흥시 목감동 402-3번지 다인로얄3차 107호","indutype":"음식점업 - 빵,음료","category":"restaurant"}]},{"lat":"37.386554358","long":"126.86262729","imageIndex":4,"items":[{"name":"개성손만두","tel":"","addr":"경기도 시흥시 목감동 235-2번지 1층 101호","indutype":"음식점업 - 한식","category":"restaurant"}]},{"lat":"37.383940804","long":"126.86210146","imageIndex":4,"items":[{"name":"고바우숯불갈비","tel":"031-405-2621","addr":"경기도 시흥시 목감동 406번지 호반베르디움더프라임 106호","indutype":"음식점업 - 한식","category":"restaurant"},{"name":"곱순네순대국","tel":"031-413-9898","addr":"경기도 시흥시 목감동 406번지 호반베르디움1차 109호","indutype":"음식점업 - 음식점","category":"restaurant"},{"name":"황소숯불꼼장어","tel":"","addr":"경기도 시흥시 목감동 406번지 호반베르디움더프라임 104호","indutype":"음식점업 - 한식","category":"restaurant"}]},{"lat":"37.382446215","long":"126.86301884","imageIndex":4,"items":[{"name":"곱창부대","tel":"","addr":"경기도 시흥시 목감동 413-3번지 102호","indutype":"음식점업 - 한식","category":"restaurant"},{"name":"컬투치킨 목감사랑점","tel":"031-439-9997","addr":"경기도 시흥시 목감동 413-3번지 1층","indutype":"음식점업 - 치킨,호프","category":"restaurant"}]},{"lat":"37.382886919","long":"126.86235184","imageIndex":4,"items":[{"name":"과수원길","tel":"031-403-9182","addr":"경기도 시흥시 목감동 410-1번지 101호","indutype":"음식점업 - 카페","category":"restaurant"},{"name":"샌드리아","tel":"031-480-1230","addr":"경기도 시흥시 목감동 410-1번지","indutype":"음식점업 - 음식점","category":"restaurant"}]},{"lat":"37.382941181","long":"126.86252111","imageIndex":4,"items":[{"name":"교촌치킨","tel":"031-486-1991","addr":"경기도 시흥시 목감동 410-2번지 101호","indutype":"음식점업 - 음식점","category":"restaurant"}]},{"lat":"37.38191186","long":"126.86070517","imageIndex":4,"items":[{"name":"깐부치킨?시흥목감지구점","tel":"031-485-9282","addr":"경기도 시흥시 목감동 403-2번지 한울플러스 101호","indutype":"음식점업 - 치킨","category":"restaurant"},{"name":"시오","tel":"","addr":"경기도 시흥시 목감동 403-2번지 한울플러스 2층 207호","indutype":"음식점업 - 일식","category":"restaurant"},{"name":"요미체 KIDS CAF?","tel":"","addr":"경기도 시흥시 목감동 403-2번지 한울플러스 7층 704~5호","indutype":"음식점업 - 휴게음식점","category":"restaurant"},{"name":"토프레소","tel":"031-402-7569","addr":"경기도 시흥시 목감동 403-2번지 한울플러스 103호","indutype":"음식점업 - 커피","category":"restaurant"},{"name":"펀비어킹","tel":"031-485-1880","addr":"경기도 시흥시 목감동 403-2번지 2층 203,204호","indutype":"음식점업 - 호프","category":"restaurant"}]},{"lat":"37.382138316","long":"126.86170965","imageIndex":4,"items":[{"name":"대장간","tel":"031-401-0031","addr":"경기도 시흥시 목감동 408번지 동한메디컬 203호","indutype":"음식점업 - 음식","category":"restaurant"},{"name":"마음산책","tel":"031-439-3583","addr":"경기도 시흥시 목감동 408번지 동한메티컬프라자 607호","indutype":"음식점업 - 도서대여, 휴게음식","category":"restaurant"},{"name":"명륜진사갈비 시흥목감점","tel":"031-405-7807","addr":"경기도 시흥시 목감동 408번지 201,202호","indutype":"음식점업 - 한식","category":"restaurant"},{"name":"장호덕손만두(목감점)","tel":"031-411-7755","addr":"경기도 시흥시 목감동 408번지 동한메디컬프라자 1층 108호","indutype":"음식점업 - 만두","category":"restaurant"}]},{"lat":"37.385163847","long":"126.86015703","imageIndex":4,"items":[{"name":"돈갈비연탄구이","tel":"031-401-5102","addr":"경기도 시흥시 목감동 242-1번지 105호","indutype":"음식점업 - 한식","category":"restaurant"},{"name":"명품꽈배기","tel":"031-481-8878","addr":"경기도 시흥시 목감동 242-1번지 1층 103호","indutype":"음식점업 - 음식점","category":"restaurant"}]},{"lat":"37.38299563","long":"126.86284845","imageIndex":4,"items":[{"name":"돈통마늘보쌈","tel":"031-402-0709","addr":"경기도 시흥시 목감동 411번지 1층","indutype":"음식점업 - 음식점","category":"restaurant"}]},{"lat":"37.385695469","long":"126.86017861","imageIndex":4,"items":[{"name":"돼지엄마","tel":"","addr":"경기도 시흥시 목감동 240-5번지","indutype":"음식점업 - 한식","category":"restaurant"},{"name":"이디야","tel":"031-411-3701","addr":"경기도 시흥시 목감동 240-5번지 106,107호","indutype":"음식점업 - 커피전문점","category":"restaurant"}]},{"lat":"37.382308548","long":"126.86090766","imageIndex":4,"items":[{"name":"램타운양꼬치","tel":"031-403-3888","addr":"경기도 시흥시 목감동 402-2번지 제니스빌딩 2층 201호","indutype":"음식점업 - 중식","category":"restaurant"},{"name":"오가촌갈비","tel":"031-405-0752","addr":"경기도 시흥시 목감동 402-2번지 제니스빌딩 103동 104호","indutype":"음식점업 - 음식점","category":"restaurant"},{"name":"청년횟집","tel":"031-482-1818","addr":"경기도 시흥시 목감동 402-2번지 107호","indutype":"음식점업 - 횟집","category":"restaurant"}]},{"lat":"37.382835058","long":"126.86421498","imageIndex":4,"items":[{"name":"리네","tel":"031-405-3583","addr":"경기도 시흥시 목감동 420-2번지 401호","indutype":"음식점업 - 카페","category":"restaurant"}]},{"lat":"37.382633547","long":"126.86143773","imageIndex":4,"items":[{"name":"만든족족","tel":"031-411-0901","addr":"경기도 시흥시 목감동 407번지 M 테라스 1층 103호","indutype":"음식점업 - 족발,보쌈","category":"restaurant"},{"name":"얼큰냉면수제돈까스","tel":"031-410-5651","addr":"경기도 시흥시 목감동 407번지 M Terrace 2층 205호","indutype":"음식점업 - 한식","category":"restaurant"},{"name":"옹기들깨칼국수","tel":"031-480-9998","addr":"경기도 시흥시 목감동 407번지 M Terrace 2층 203호","indutype":"음식점업 - 한식","category":"restaurant"},{"name":"자갈치식당 목감점","tel":"031-401-0224","addr":"경기도 시흥시 목감동 407번지 M테라스 111,112호","indutype":"음식점업 - 한식","category":"restaurant"},{"name":"차돌이야기","tel":"031-405-3468","addr":"경기도 시흥시 목감동 407번지 M Terrace 3층 301호","indutype":"음식점업 - 한식","category":"restaurant"}]},{"lat":"37.382418984","long":"126.86284952","imageIndex":4,"items":[{"name":"목감동네곱창","tel":"031-414-7009","addr":"경기도 시흥시 목감동 413-2번지 1층 일부호","indutype":"음식점업 - 한식","category":"restaurant"}]},{"lat":"37.382355686","long":"126.86265769","imageIndex":4,"items":[{"name":"소하리어탕국수목감점","tel":"031-410-9297","addr":"경기도 시흥시 목감동 413-1번지 1층","indutype":"음식점업 - 한식","category":"restaurant"}]},{"lat":"37.387300539","long":"126.861237","imageIndex":4,"items":[{"name":"안면도바지락칼국수","tel":"031-507-2345","addr":"경기도 시흥시 목감동 202-23번지","indutype":"음식점업 - 한식","category":"restaurant"},{"name":"화로육가 목감점","tel":"031-411-6808","addr":"경기도 시흥시 목감동 202-23번지 101동 103호","indutype":"음식점업 - 한식","category":"restaurant"}]},{"lat":"37.393442781","long":"126.86665726","imageIndex":4,"items":[{"name":"원조설악추어탕","tel":"031-403-7727","addr":"경기도 시흥시 목감동 177-4번지","indutype":"음식점업 - 음식점","category":"restaurant"}]},{"lat":"37.394550667","long":"126.86635035","imageIndex":4,"items":[{"name":"자연농장정육식당","tel":"031-410-7759","addr":"경기도 시흥시 목감동 180-1","indutype":"음식점업 - 음식점","category":"restaurant"}]},{"lat":"37.395498951","long":"126.86829104","imageIndex":4,"items":[{"name":"전주화심 순두부","tel":"031-405-7711","addr":"경기도 시흥시 목감동 82-4번지","indutype":"음식점업 - 음식점","category":"restaurant"}]},{"lat":"37.382551752","long":"126.86085074","imageIndex":4,"items":[{"name":"제주돈갈비","tel":"031-403-4188","addr":"경기도 시흥시 목감동 402-1번지 2층 일부호","indutype":"음식점업 - 한식","category":"restaurant"},{"name":"조아회(회조아)","tel":"031-410-8988","addr":"경기도 시흥시 목감동 402-1번지","indutype":"음식점업 - 회","category":"restaurant"}]},{"lat":"37.400916802","long":"126.87076601","imageIndex":4,"items":[{"name":"진지방","tel":"031-484-9889","addr":"경기도 시흥시 목감동 28-8번지","indutype":"음식점업 - 일반음식점","category":"restaurant"}]},{"lat":"37.383028689","long":"126.86035303","imageIndex":4,"items":[{"name":"초록민물장어","tel":"031-411-6066","addr":"경기도 시흥시 목감동 243번지","indutype":"음식점업 - 한식","category":"restaurant"},{"name":"카페15st","tel":"031-411-0302","addr":"경기도 시흥시 목감동 243번지 리치빌딩 202호","indutype":"음식점업 - 카페","category":"restaurant"}]},{"lat":"37.384356913","long":"126.86348953","imageIndex":4,"items":[{"name":"카페글렌 목감점","tel":"031-410-6833","addr":"경기도 시흥시 목감동 414-2번지 1층 101-1~101-2호","indutype":"음식점업 - 카페","category":"restaurant"}]},{"lat":"37.383049917","long":"126.8630403","imageIndex":4,"items":[{"name":"카페하늘","tel":"031-401-0437","addr":"경기도 시흥시 목감동 411-1번지 101호","indutype":"음식점업 - 커피","category":"restaurant"}]},{"lat":"37.384717741","long":"126.86385019","imageIndex":4,"items":[{"name":"커피공오삼(COFFEE053)","tel":"","addr":"경기도 시흥시 목감동 414-1번지 1층","indutype":"음식점업 - 커피","category":"restaurant"}]},{"lat":"37.382751204","long":"126.86187786","imageIndex":4,"items":[{"name":"커피홀","tel":"031-403-5570","addr":"경기도 시흥시 목감동 407-2번지 푸르벨라프라자 1층 104호","indutype":"음식점업 - 카페","category":"restaurant"}]},{"lat":"37.382688925","long":"126.86254416","imageIndex":4,"items":[{"name":"헤이미쉬","tel":"031-364-8885","addr":"경기도 시흥시 목감동 412번지 1층 101호","indutype":"음식점업 - 카페","category":"restaurant"}]},{"lat":"37.382418984","long":"126.86284952","imageIndex":0,"items":[{"name":"712빌드","tel":"","addr":"경기도 시흥시 목감동 413-2번지 1층 101호, 102호","indutype":"소매업 - 자동차 편의옵션 장착/오토","category":"car"}]},{"lat":"37.382138316","long":"126.86170965","imageIndex":17,"items":[{"name":"건강한정형외과","tel":"031-411-7333","addr":"경기도 시흥시 목감동 408번지 302~304호","indutype":"보건업 - 정형외과","category":"other"},{"name":"글라스토리 목감점","tel":"031-411-9008","addr":"경기도 시흥시 목감동 408번지 동한메티컬프라자 114호","indutype":"소매업 - 안경","category":"other"},{"name":"용인대 비전 태권도장","tel":"","addr":"경기도 시흥시 목감동 408번지 동한메티컬프라자 6층 601호","indutype":"교육서비스업 - 태권도","category":"other"},{"name":"주식회사 이루어짐 목감1호점","tel":"","addr":"경기도 시흥시 목감동 408번지 5층","indutype":"스포츠및여가관련서비스업 - 체력단련장","category":"other"}]},{"lat":"37.385695469","long":"126.86017861","imageIndex":17,"items":[{"name":"골든헬스클럽","tel":"031-484-1022","addr":"경기도 시흥시 목감동 240-5번지 미덕상가 지층 B01,02호","indutype":"스포츠및여가관련서비스업 - 헬스클럽","category":"other"},{"name":"꿀돼지참한우","tel":"","addr":"경기도 시흥시 목감동 240-5번지 1층 103,104호","indutype":"소매업 - 정육점","category":"other"},{"name":"목감열린치과","tel":"031-480-7528","addr":"경기도 시흥시 목감동 240-5번지 2층","indutype":"보건업 - 치과","category":"other"},{"name":"청주이발관","tel":"","addr":"경기도 시흥시 목감동 240-5번지","indutype":"개인서비스업 - 이발소","category":"other"}]},{"lat":"37.381857405","long":"126.86037783","imageIndex":17,"items":[{"name":"금강태권도 효 교육관","tel":"031-403-6066","addr":"경기도 시흥시 목감동 403-1번지 목감시티프라자 5층 505호,506호","indutype":"교육서비스업 - 태권도장","category":"other"},{"name":"떡두꺼비","tel":"031-439-7079","addr":"경기도 시흥시 목감동 403-1번지 목감시티프라자 119호","indutype":"제조업 - 떡,제조","category":"other"},{"name":"목감 검도 교실","tel":"","addr":"경기도 시흥시 목감동 403-1번지 목감시티프라자 601호","indutype":"교육서비스업 - 검도","category":"other"},{"name":"서울감동치과의원","tel":"031-504-2750","addr":"경기도 시흥시 목감동 403-1번지 목감시티프라자 301호","indutype":"보건업 - 치과","category":"other"},{"name":"탑클래스 유도","tel":"","addr":"경기도 시흥시 목감동 403-1번지 목감시티프라자 5층 505호","indutype":"교육서비스업 - 유도","category":"other"}]},{"lat":"37.38228111","long":"126.86056898","imageIndex":17,"items":[{"name":"꼼꼼네일","tel":"031-401-1238","addr":"경기도 시흥시 목감동 402-3번지 다인로얄팰리스3차 118호","indutype":"개인서비스업 - 네일","category":"other"},{"name":"꽃므","tel":"031-520-4088","addr":"경기도 시흥시 목감동 402-3번지 다인로얄팰리스3차 106호","indutype":"소매업 - 꽃집","category":"other"},{"name":"월드크리닝 코인월드 시흥목감","tel":"031-411-1219","addr":"경기도 시흥시 목감동 402-3번지 다인로얄팰리스3차 1층 117호","indutype":"개인서비스업 - 세탁","category":"other"}]},{"lat":"37.38191186","long":"126.86070517","imageIndex":17,"items":[{"name":"다함 한약국","tel":"031-411-5475","addr":"경기도 시흥시 목감동 403-2번지 한울플러스 405호","indutype":"보건업 - 한약","category":"other"},{"name":"에스핏(S-FIT) 점핑다이어트클럽","tel":"031-403-4450","addr":"경기도 시흥시 목감동 403-2번지 한울플러스 5층 503호","indutype":"스포츠및여가관련서비스업 - 건강기능식","category":"other"}]},{"lat":"37.386249614","long":"126.86398286","imageIndex":17,"items":[{"name":"도도펫","tel":"","addr":"경기도 시흥시 목감동 206-3번지","indutype":"소매업 - 애완용품","category":"other"}]},{"lat":"37.387112325","long":"126.86207295","imageIndex":17,"items":[{"name":"동보사우나","tel":"031-486-8285","addr":"경기도 시흥시 목감동 238-6번지","indutype":"개인서비스업 - 일반사우나탕","category":"other"}]},{"lat":"37.386554358","long":"126.86262729","imageIndex":17,"items":[{"name":"루이까스텔 시흥목감점","tel":"031-411-3386","addr":"경기도 시흥시 목감동 235-2번지","indutype":"소매업 - 스포츠용품","category":"other"},{"name":"목감낚시할인마트","tel":"031-403-7715","addr":"경기도 시흥시 목감동 235-2번지","indutype":"소매업 - 낚시용품","category":"other"},{"name":"인디안 목감점","tel":"031-405-7701","addr":"경기도 시흥시 목감동 235-2번지","indutype":"소매업 - 의류","category":"other"},{"name":"장난감광장","tel":"031-411-3501","addr":"경기도 시흥시 목감동 235-2번지 뉴홍익빌딩 1층 103호","indutype":"소매업 - 장난감","category":"other"}]},{"lat":"37.386912645","long":"126.86085381","imageIndex":17,"items":[{"name":"미래로안경원","tel":"031-403-8808","addr":"경기도 시흥시 목감동 202-14번지 쇼팽음악학원 상가동 1층 2호","indutype":"소매업 - 안경","category":"other"}]},{"lat":"37.383028689","long":"126.86035303","imageIndex":17,"items":[{"name":"부자마을공인중개사사무소","tel":"031-413-0070","addr":"경기도 시흥시 목감동 243번지","indutype":"개인서비스업 - 부동산","category":"other"},{"name":"옷시짱","tel":"","addr":"경기도 시흥시 목감동 243번지 102호","indutype":"소매업 - 의류","category":"other"}]},{"lat":"37.385416088","long":"126.86012268","imageIndex":17,"items":[{"name":"순스킨케어","tel":"031-486-7160","addr":"경기도 시흥시 목감동 241번지 3층","indutype":"개인서비스업 - 피부관리실","category":"other"}]},{"lat":"37.382308548","long":"126.86090766","imageIndex":17,"items":[{"name":"아이편안(EYE편안)안경&콘택트","tel":"031-411-5617","addr":"경기도 시흥시 목감동 402-2번지 1,2층","indutype":"소매업 - 안경","category":"other"}]},{"lat":"37.383983717","long":"126.86031735","imageIndex":17,"items":[{"name":"월드하우징","tel":"031-405-8802","addr":"경기도 시흥시 목감동 242-10번지 현대빌라 2동 101호","indutype":"소매업 - 인테리어","category":"other"}]},{"lat":"37.382830331","long":"126.8602405","imageIndex":17,"items":[{"name":"진로마트 목감점","tel":"031-411-0988","addr":"경기도 시흥시 목감동 244-1번지","indutype":"소매업 - 생활잡화","category":"other"}]},{"lat":"37.383940804","long":"126.86210146","imageIndex":17,"items":[{"name":"착한한우","tel":"031-404-7676","addr":"경기도 시흥시 목감동 406번지 호반베르디움더프라임 401동 101호","indutype":"소매업 - 정육점","category":"other"}]},{"lat":"37.385974958","long":"126.86032487","imageIndex":17,"items":[{"name":"테라컴퍼니","tel":"031-405-1128","addr":"경기도 시흥시 목감동 240-2번지 목감상가 1동 101호","indutype":"소매업 - 의류","category":"other"}]},{"lat":"37.383308029","long":"126.86037509","imageIndex":17,"items":[{"name":"한마음이랑사회적협동조합","tel":"031-411-0999","addr":"경기도 시흥시 목감동 242-10번지 현대빌라 7동 지하","indutype":"기타 - 환경개선 및 공익사업","category":"other"}]},{"lat":"37.386612274","long":"126.87393021","imageIndex":17,"items":[{"name":"행운 주식회사","tel":"031-484-8500","addr":"경기도 시흥시 목감동 348-1번지","indutype":"소매업 - 보자기,가방","category":"other"}]},{"lat":"37.385974958","long":"126.86032487","imageIndex":8,"items":[{"name":"경희목감한의원","tel":"031-486-7505","addr":"경기도 시흥시 목감동 240-2 목감한의원 201호 (목감동)","indutype":"보건업 - 한의원","category":"medical"}]},{"lat":"37.38191186","long":"126.86070517","imageIndex":8,"items":[{"name":"목감 수 한의원","tel":"031-484-1075","addr":"경기도 시흥시 목감동 403-2번지 한울플러스 304,305호","indutype":"보건업 - 한의원","category":"medical"}]},{"lat":"37.382138316","long":"126.86170965","imageIndex":8,"items":[{"name":"베스트약국","tel":"031-482-2588","addr":"경기도 시흥시 목감동 408번지 동한메티컬프라자 1층 109호","indutype":"보건업 - 약국","category":"medical"},{"name":"오늘의한의원","tel":"031-475-5231","addr":"경기도 시흥시 목감동 408번지 동한메티컬프라자 301호","indutype":"보건업 - 한의원","category":"medical"}]},{"lat":"37.381857405","long":"126.86037783","imageIndex":8,"items":[{"name":"샘온누리약국","tel":"031-439-5337","addr":"경기도 시흥시 목감동 403-1번지 목감시티프라자 109호","indutype":"보건업 - 약국","category":"medical"}]},{"lat":"37.38191186","long":"126.86070517","imageIndex":13,"items":[{"name":"나이스가이 시흥목감2호점","tel":"","addr":"경기도 시흥시 목감동 403-2번지 한울플러스 1층 109호","indutype":"개인서비스업 - 미용실","category":"beauty"}]},{"lat":"37.381857405","long":"126.86037783","imageIndex":13,"items":[{"name":"인헤어","tel":"031-413-2710","addr":"경기도 시흥시 목감동 403-1번지 시티프라자 205호","indutype":"개인서비스업 - 미용업","category":"beauty"}]},{"lat":"37.382633547","long":"126.86143773","imageIndex":13,"items":[{"name":"제니스 헤어","tel":"031-401-0350","addr":"경기도 시흥시 목감동 407번지 제니스M테라스 1층 105호","indutype":"개인서비스업 - 미용실","category":"beauty"}]},{"lat":"37.386912645","long":"126.86085381","imageIndex":13,"items":[{"name":"주앤지 헤어클럽","tel":"031-480-2047","addr":"경기도 시흥시 목감동 202-14번지","indutype":"개인서비스업 - 미용","category":"beauty"}]},{"lat":"37.383028689","long":"126.86035303","imageIndex":13,"items":[{"name":"필라이트헤어","tel":"031-411-3227","addr":"경기도 시흥시 목감동 243번지 리치프라자 3층","indutype":"개인서비스업 - 미용업","category":"beauty"}]},{"lat":"37.38228111","long":"126.86056898","imageIndex":13,"items":[{"name":"헤어담","tel":"031-484-1590","addr":"경기도 시흥시 목감동 402-3번지 1층","indutype":"개인서비스업 - 미용","category":"beauty"}]},{"lat":"37.386137167","long":"126.86034715","imageIndex":7,"items":[{"name":"목감슈퍼마켓","tel":"031-480-2316","addr":"경기도 시흥시 목감동 239-20번지","indutype":"소매업 - 슈퍼","category":"mart"}]},{"lat":"37.381857405","long":"126.86037783","imageIndex":16,"items":[{"name":"뮤엠영어목감조남학원","tel":"","addr":"경기도 시흥시 목감동 403-1번지 시티프라자 502호","indutype":"교육서비스업 - 학원","category":"study"}]}]