[{"lat":"37.334372397","long":"127.04147299","imageIndex":7,"items":[{"name":"(주)코나헤이븐코리아","tel":"031-264-4765","addr":"경기도 용인시 수지구 신봉동 739번지 1층","indutype":"음료식품 - 기타음료식품","category":"food"}]},{"lat":"37.322595424","long":"127.07974735","imageIndex":7,"items":[{"name":"Am","tel":"031-896-9205","addr":"경기도 용인시 수지구 신봉동 19-2번지 1층","indutype":"음료식품 - 정육점","category":"food"}]},{"lat":"37.324146707","long":"127.07735706","imageIndex":7,"items":[{"name":"LG떡방","tel":"031-263-4386","addr":"경기도 용인시 수지구 신봉동 82-4번지 홍천말프라자2차 102호","indutype":"음료식품 - 제과점","category":"food"},{"name":"블럭제빵소(용인신봉점)","tel":"031-262-0736","addr":"경기도 용인시 수지구 신봉동 82-4번지 홍천말프라자2호 104호","indutype":"음료식품 - 제과점","category":"food"}]},{"lat":"37.323893821","long":"127.07830453","imageIndex":7,"items":[{"name":"다판다","tel":"031-266-3577","addr":"경기도 용인시 수지구 신봉동 43-2번지 백산빌딩 2동 103호","indutype":"건강식품 - 기타건강식품","category":"food"},{"name":"콩&두부즉석손두부","tel":"031-896-5980","addr":"경기도 용인시 수지구 신봉동 43-2번지 백산빌딩 2동 106호","indutype":"음료식품 - 기타음료식품","category":"food"}]},{"lat":"37.333705431","long":"127.04211583","imageIndex":7,"items":[{"name":"더헬스","tel":"031-896-2737","addr":"경기도 용인시 수지구 신봉동 765-25번지","indutype":"음료식품 - 기타음료식품","category":"food"}]},{"lat":"37.323173271","long":"127.07788637","imageIndex":7,"items":[{"name":"도담도담 식빵 신봉점","tel":"","addr":"경기도 용인시 수지구 신봉동 33번지 센트럴500 119호","indutype":"음료식품 - 제과점","category":"food"},{"name":"드라이마트(DryMart)","tel":"031-265-0207","addr":"경기도 용인시 수지구 신봉동 33번지 센트럴500 121호","indutype":"음료식품 - 농·축·수산품","category":"food"},{"name":"멜로우롱","tel":"","addr":"경기도 용인시 수지구 신봉동 33번지 센트럴500 101호","indutype":"음료식품 - 기타음료식품","category":"food"},{"name":"반찬나라","tel":"031-262-0720","addr":"경기도 용인시 수지구 신봉동 33번지 센트럴500 상가동 1층 127호","indutype":"음료식품 - 기타음료식품","category":"food"},{"name":"스마일 쿠킹","tel":"031-261-5563","addr":"경기도 용인시 수지구 신봉동 33번지 센트럴500 308호","indutype":"음료식품 - 기타음료식품","category":"food"},{"name":"아씨오(Accio)","tel":"","addr":"경기도 용인시 수지구 신봉동 33번지 센트럴500 205호","indutype":"음료식품 - 기타음료식품","category":"food"}]},{"lat":"37.324507412","long":"127.07688356","imageIndex":7,"items":[{"name":"돌쇠네푸줏간","tel":"070-4234-7339","addr":"경기도 용인시 수지구 신봉동 83-5번지 태천빌딩 103호","indutype":"음료식품 - 정육점","category":"food"}]},{"lat":"37.324480275","long":"127.07705277","imageIndex":7,"items":[{"name":"두부장수(신봉점)","tel":"031-261-0122","addr":"경기도 용인시 수지구 신봉동 83번지 신엘지프라자 104호","indutype":"음료식품 - 기타음료식품","category":"food"},{"name":"조이점핑다이어트","tel":"031-263-5577","addr":"경기도 용인시 수지구 신봉동 83번지 신LG프라자 302호","indutype":"건강식품 - 기타건강식품","category":"food"}]},{"lat":"37.323290788","long":"127.07727724","imageIndex":7,"items":[{"name":"디종(Dijon)","tel":"031-264-0826","addr":"경기도 용인시 수지구 신봉동 31번지 홍천말프라자 106호","indutype":"음료식품 - 제과점","category":"food"}]},{"lat":"37.327924577","long":"127.07310711","imageIndex":7,"items":[{"name":"르뽀미에용인신봉점","tel":"031-261-6600","addr":"경기도 용인시 수지구 신봉동 145-1번지 태천빌딩 2층 104호","indutype":"음료식품 - 제과점","category":"food"},{"name":"하늘푸줏간","tel":"031-264-6004","addr":"경기도 용인시 수지구 신봉동 145-1번지 태천빌딩2 104호","indutype":"음료식품 - 정육점","category":"food"}]},{"lat":"37.32659123","long":"127.07283509","imageIndex":7,"items":[{"name":"리생용인신봉지점","tel":"","addr":"경기도 용인시 수지구 신봉동 870번지 신봉마을엘지빌리지5차","indutype":"건강식품 - 기타건강식품","category":"food"}]},{"lat":"37.322785797","long":"127.07794239","imageIndex":7,"items":[{"name":"명","tel":"031-266-6227","addr":"경기도 용인시 수지구 신봉동 23-1번지 인용빌딩 1층 102호","indutype":"회원제형태 - 건강식품","category":"food"},{"name":"정관장신봉점","tel":"031-265-2304","addr":"경기도 용인시 수지구 신봉동 23-1번지 인용빌딩 108호","indutype":"건강식품 - 홍삼제품","category":"food"},{"name":"정관장신봉점/상품권사용","tel":"031-265-2304","addr":"경기도 용인시 수지구 신봉동 23-1번지 인용빌딩 108호","indutype":"건강식품 - 홍삼제품","category":"food"}]},{"lat":"37.323234223","long":"127.08115828","imageIndex":7,"items":[{"name":"미가","tel":"031-262-8982","addr":"경기도 용인시 수지구 신봉동 880번지 서홍마을한화꿈에그린 104호","indutype":"음료식품 - 기타음료식품","category":"food"}]},{"lat":"37.327927344","long":"127.06827801","imageIndex":7,"items":[{"name":"미소향","tel":"031-272-7130","addr":"경기도 용인시 수지구 신봉동 967번지 진성프라자2 105호","indutype":"음료식품 - 제과점","category":"food"},{"name":"아이스크림 할인점 (수지)","tel":"02-1111-1111","addr":"경기도 용인시 수지구 신봉동 967번지 진성프라자2 1층 101호","indutype":"음료식품 - 기타음료식품","category":"food"}]},{"lat":"37.324644734","long":"127.07332971","imageIndex":7,"items":[{"name":"반찬쟁이","tel":"031-276-8929","addr":"경기도 용인시 수지구 신봉동 105-8번지 302호","indutype":"음료식품 - 기타음료식품","category":"food"}]},{"lat":"37.323803474","long":"127.07868804","imageIndex":7,"items":[{"name":"사랑가득 찬","tel":"031-265-8799","addr":"경기도 용인시 수지구 신봉동 43번지 백산빌딩 3동 106호","indutype":"음료식품 - 기타음료식품","category":"food"}]},{"lat":"37.323596044","long":"127.07899245","imageIndex":7,"items":[{"name":"산약초건강마을","tel":"031-266-7794","addr":"경기도 용인시 수지구 신봉동 46-3번지 신봉프라자 가동 111호","indutype":"음료식품 - 농·축·수산품","category":"food"},{"name":"커피커뮤니티","tel":"031-276-7827","addr":"경기도 용인시 수지구 신봉동 46-3번지 신봉프라자 116호","indutype":"음료식품 - 기타음료식품","category":"food"},{"name":"켈리네 공방","tel":"","addr":"경기도 용인시 수지구 신봉동 46-3번지 신봉프라자 117호 일부","indutype":"음료식품 - 기타음료식품","category":"food"}]},{"lat":"37.320511191","long":"127.08405489","imageIndex":7,"items":[{"name":"속초포장전문점","tel":"031-261-7205","addr":"경기도 용인시 수지구 신봉동 899번지 부광타워 112호","indutype":"음료식품 - 기타음료식품","category":"food"}]},{"lat":"37.332060713","long":"127.05475258","imageIndex":7,"items":[{"name":"시즌마켓","tel":"02-579-1533","addr":"경기도 용인시 수지구 신봉동 586-7번지","indutype":"음료식품 - 기타음료식품","category":"food"}]},{"lat":"37.323678769","long":"127.07640889","imageIndex":7,"items":[{"name":"신봉녹주사우나","tel":"031-000-0000","addr":"경기도 용인시 수지구 신봉동 40-2번지 지하1층","indutype":"음료식품 - 기타음료식품","category":"food"},{"name":"신봉행운스토아","tel":"031-334-6800","addr":"경기도 용인시 수지구 신봉동 40번지외9필지 신봉종합상가 226","indutype":"음료식품 - 기타음료식품","category":"food"},{"name":"제이제이브로스","tel":"070-4410-3132","addr":"경기도 용인시 수지구 신봉동 40-2번지 신봉종합상가 1층 115-116호","indutype":"음료식품 - 기타음료식품","category":"food"},{"name":"주식회사리치앤파트너스코리아(지점)","tel":"070-4046-9499","addr":"경기도 용인시 수지구 신봉동 40-2번지 106호 제1층","indutype":"음료식품 - 기타음료식품","category":"food"}]},{"lat":"37.328396185","long":"127.06771427","imageIndex":7,"items":[{"name":"신봉민속떡집","tel":"031-8005-8949","addr":"경기도 용인시 수지구 신봉동 964-1번지 진성프라자 104호","indutype":"음료식품 - 제과점","category":"food"}]},{"lat":"37.327645429","long":"127.07282478","imageIndex":7,"items":[{"name":"신봉큰떡방앗간","tel":"031-265-8688","addr":"경기도 용인시 수지구 신봉동 141-5번지 아트프라자 106호","indutype":"음료식품 - 제과점","category":"food"}]},{"lat":"37.323930077","long":"127.0779661","imageIndex":7,"items":[{"name":"아삭아삭청과","tel":"031-264-7044","addr":"경기도 용인시 수지구 신봉동 43-3번지 백산상가 1동 1층 106호","indutype":"음료식품 - 농·축·수산품","category":"food"}]},{"lat":"37.32809472","long":"127.07485614","imageIndex":7,"items":[{"name":"아시아에프앤비 (주)(한우투쁠)","tel":"031-0000-0000","addr":"경기도 용인시 수지구 신봉동 925번지 웰스톤시티 B113호","indutype":"음료식품 - 정육점","category":"food"}]},{"lat":"37.326200524","long":"127.07816016","imageIndex":7,"items":[{"name":"아이스박스 신봉점","tel":"031-1668-3365","addr":"경기도 용인시 수지구 신봉동 873번지 신봉마을엘지자이1차아파트 상가동 106호","indutype":"음료식품 - 기타음료식품","category":"food"},{"name":"파리바게트신봉점","tel":"031-272-8382","addr":"경기도 용인시 수지구 신봉동 873번지 신봉마을엘지자이1차아파트","indutype":"음료식품 - 제과점","category":"food"}]},{"lat":"37.325174405","long":"127.0765006","imageIndex":7,"items":[{"name":"알로하스위츠","tel":"","addr":"경기도 용인시 수지구 신봉동 87-5번지 미래상가 1층 116호","indutype":"음료식품 - 기타음료식품","category":"food"}]},{"lat":"37.324427655","long":"127.07471725","imageIndex":7,"items":[{"name":"어삿갓수산마켓","tel":"031-261-4448","addr":"경기도 용인시 수지구 신봉동 105-9번지 1층","indutype":"음료식품 - 농·축·수산품","category":"food"}]},{"lat":"37.323514302","long":"127.0799965","imageIndex":7,"items":[{"name":"은시루","tel":"031-266-9948","addr":"경기도 용인시 수지구 신봉동 52-1번지 뉴골드프라자 2동 106호","indutype":"음료식품 - 제과점","category":"food"}]},{"lat":"37.335449477","long":"127.05257708","imageIndex":7,"items":[{"name":"이레허브","tel":"02-574-9140","addr":"경기도 용인시 수지구 신봉동 706-7번지","indutype":"회원제형태 - 건강식품","category":"food"}]},{"lat":"37.32862288","long":"127.06502909","imageIndex":7,"items":[{"name":"정성원","tel":"02-488-4434","addr":"경기도 용인시 수지구 신봉동 976번지 신봉마을동일하이빌4단지","indutype":"음료식품 - 기타음료식품","category":"food"}]},{"lat":"37.336261669","long":"127.04944061","imageIndex":7,"items":[{"name":"주식회사 샤인위드컴페니언","tel":"031-450-6645","addr":"경기도 용인시 수지구 신봉동 681-1번지 지하1층,1층","indutype":"음료식품 - 기타음료식품","category":"food"}]},{"lat":"37.327756032","long":"127.06849224","imageIndex":7,"items":[{"name":"지아(GIA)점핑다이어트","tel":"031-000-0000","addr":"경기도 용인시 수지구 신봉동 969번지 동광프라자 4층 405호","indutype":"건강식품 - 기타건강식품","category":"food"}]},{"lat":"37.333067225","long":"127.06044027","imageIndex":7,"items":[{"name":"지우푸드","tel":"02-1111-1111","addr":"경기도 용인시 수지구 신봉동 395-2번지","indutype":"음료식품 - 기타음료식품","category":"food"}]},{"lat":"37.321927039","long":"127.08221744","imageIndex":7,"items":[{"name":"홍천고등학교","tel":"031-725-4232","addr":"경기도 용인시 수지구 신봉동 885번지 홍천고등학교","indutype":"음료식품 - 기타음료식품","category":"food"}]},{"lat":"37.327061387","long":"127.0700261","imageIndex":7,"items":[{"name":"황우","tel":"031-897-0003","addr":"경기도 용인시 수지구 신봉동 297-1","indutype":"음료식품 - 정육점","category":"food"}]}]