[{"lat":"37.913492918","long":"127.06011617","imageIndex":4,"items":[{"name":"(진)닭곰탕","tel":"031-868-2225","addr":"경기도 동두천시 보산동 407-47번지","indutype":"일반휴게음식 - 일반한식","category":"restaurant"}]},{"lat":"37.915908713","long":"127.05736598","imageIndex":4,"items":[{"name":"Jul서시오1950","tel":"031-425-9110","addr":"경기도 동두천시 보산동 417-18번지","indutype":"일반휴게음식 - 일반한식","category":"restaurant"}]},{"lat":"37.916017013","long":"127.05695666","imageIndex":4,"items":[{"name":"고자매식당","tel":"031-866-0058","addr":"경기도 동두천시 보산동 418-19번지","indutype":"일반휴게음식 - 스넥","category":"restaurant"},{"name":"케밥&그릴","tel":"031-000-0000","addr":"경기도 동두천시 보산동 418-19번지 104호","indutype":"일반휴게음식 - 서양음식","category":"restaurant"},{"name":"해피웍","tel":"031-866-0403","addr":"경기도 동두천시 보산동 418-19번지","indutype":"일반휴게음식 - 스넥","category":"restaurant"}]},{"lat":"37.916855219","long":"127.0562067","imageIndex":4,"items":[{"name":"골든호프","tel":"031-867-1515","addr":"경기도 동두천시 보산동 429-33번지","indutype":"일반휴게음식 - 주점","category":"restaurant"},{"name":"골든호프","tel":"031-867-1515","addr":"경기도 동두천시 보산동 429-33번지","indutype":"일반휴게음식 - 주점","category":"restaurant"},{"name":"핫피자&버거","tel":"031-865-6888","addr":"경기도 동두천시 보산동 429-33번지","indutype":"일반휴게음식 - 서양음식","category":"restaurant"}]},{"lat":"37.916493477","long":"127.05915185","imageIndex":4,"items":[{"name":"깜밥집","tel":"031-862-2226","addr":"경기도 동두천시 보산동 354-4번지","indutype":"일반휴게음식 - 일반한식","category":"restaurant"}]},{"lat":"37.920044459","long":"127.05631136","imageIndex":4,"items":[{"name":"꼬리별cafe","tel":"031-855-3006","addr":"경기도 동두천시 보산동 447-5번지 102,103호","indutype":"일반휴게음식 - 서양음식","category":"restaurant"}]},{"lat":"37.916322592","long":"127.05853762","imageIndex":4,"items":[{"name":"너마스데다지마할","tel":"031-866-4695","addr":"경기도 동두천시 보산동 358-10번지","indutype":"일반휴게음식 - 서양음식","category":"restaurant"}]},{"lat":"37.915215364","long":"127.05656942","imageIndex":4,"items":[{"name":"뉴뽀빠이튀김","tel":"031-868-2248","addr":"경기도 동두천시 보산동 429-50","indutype":"일반휴게음식 - 스넥","category":"restaurant"}]},{"lat":"37.916385957","long":"127.05790082","imageIndex":4,"items":[{"name":"다다원","tel":"031-862-4100","addr":"경기도 동두천시 보산동 361번지","indutype":"일반휴게음식 - 중국식","category":"restaurant"}]},{"lat":"37.913745028","long":"127.06042341","imageIndex":4,"items":[{"name":"돈돈아","tel":"031-857-8075","addr":"경기도 동두천시 보산동 407-48번지","indutype":"일반휴게음식 - 일반한식","category":"restaurant"}]},{"lat":"37.913746325","long":"127.05770554","imageIndex":4,"items":[{"name":"동두천원조 태능갈비","tel":"031-865-4578","addr":"경기도 동두천시 보산동 412-21번지","indutype":"일반휴게음식 - 일반한식","category":"restaurant"}]},{"lat":"37.915546724","long":"127.0607546","imageIndex":4,"items":[{"name":"라이라이","tel":"031-865-1202","addr":"경기도 동두천시 보산동 390-9번지","indutype":"일반휴게음식 - 중국식","category":"restaurant"}]},{"lat":"37.91718863","long":"127.0560591","imageIndex":4,"items":[{"name":"라티노","tel":"031-859-3730","addr":"경기도 동두천시 보산동 436-56번지","indutype":"일반휴게음식 - 스넥","category":"restaurant"}]},{"lat":"37.914683191","long":"127.0579223","imageIndex":4,"items":[{"name":"럭키스","tel":"070-1111-1111","addr":"경기도 동두천시 보산동 365-9번지","indutype":"일반휴게음식 - 일반한식","category":"restaurant"}]},{"lat":"37.916747098","long":"127.05622936","imageIndex":4,"items":[{"name":"로씨레스토랑","tel":"","addr":"경기도 동두천시 보산동 429-14번지","indutype":"일반휴게음식 - 서양음식","category":"restaurant"}]},{"lat":"37.915746708","long":"127.05701332","imageIndex":4,"items":[{"name":"리와플하우스","tel":"070-7571-1064","addr":"경기도 동두천시 보산동 414-26번지","indutype":"일반휴게음식 - 서양음식","category":"restaurant"},{"name":"하스푸드","tel":"031-862-3869","addr":"경기도 동두천시 보산동 414-26","indutype":"일반휴게음식 - 일반한식","category":"restaurant"}]},{"lat":"37.916602959","long":"127.05620652","imageIndex":4,"items":[{"name":"마츄피츄","tel":"031-866-2503","addr":"경기도 동두천시 보산동 429-64번지","indutype":"일반휴게음식 - 일반한식","category":"restaurant"}]},{"lat":"37.915016635","long":"127.05770648","imageIndex":4,"items":[{"name":"마티스","tel":"031-862-0255","addr":"경기도 동두천시 보산동 365-4번지 2층","indutype":"일반휴게음식 - 서양음식","category":"restaurant"},{"name":"에버델리","tel":"031-863-2581","addr":"경기도 동두천시 보산동 365-4번지","indutype":"일반휴게음식 - 일반한식","category":"restaurant"}]},{"lat":"37.915548478","long":"127.05707004","imageIndex":4,"items":[{"name":"맘스터치/씨유 동두천타운","tel":"031-858-4727","addr":"경기도 동두천시 보산동 419-2번지","indutype":"일반휴게음식 - 서양음식","category":"restaurant"}]},{"lat":"37.915548273","long":"127.05751355","imageIndex":4,"items":[{"name":"베러댄와플 동두천보산점","tel":"070-4001-0122","addr":"경기도 동두천시 보산동 416-9번지","indutype":"일반휴게음식 - 서양음식","category":"restaurant"}]},{"lat":"37.916080359","long":"127.05634261","imageIndex":4,"items":[{"name":"보름달","tel":"031-859-4311","addr":"경기도 동두천시 보산동 429-23번지 1층","indutype":"일반휴게음식 - 일반한식","category":"restaurant"}]},{"lat":"37.916855348","long":"127.05592239","imageIndex":4,"items":[{"name":"보산세아","tel":"031-824-4518","addr":"경기도 동두천시 보산동 429-60번지","indutype":"일반휴게음식 - 스넥","category":"restaurant"}]},{"lat":"37.913962142","long":"127.05856996","imageIndex":4,"items":[{"name":"브이에프더블유","tel":"031-863-9710","addr":"경기도 동두천시 보산동 411-4번지","indutype":"일반휴게음식 - 서양음식","category":"restaurant"}]},{"lat":"37.914691949","long":"127.05845679","imageIndex":4,"items":[{"name":"비버스바베큐","tel":"031-866-0058","addr":"경기도 동두천시 보산동 368-2번지","indutype":"일반휴게음식 - 주점","category":"restaurant"}]},{"lat":"37.91369115","long":"127.06005946","imageIndex":4,"items":[{"name":"뽀빠이치킨","tel":"031-864-0084","addr":"경기도 동두천시 보산동 407-2번지","indutype":"일반휴게음식 - 스넥","category":"restaurant"}]},{"lat":"37.915719386","long":"127.05765014","imageIndex":4,"items":[{"name":"서브웨이","tel":"031-863-2270","addr":"경기도 동두천시 보산동 362-14","indutype":"일반휴게음식 - 서양음식","category":"restaurant"}]},{"lat":"37.916936039","long":"127.05678675","imageIndex":4,"items":[{"name":"세크레투스","tel":"031-866-0731","addr":"경기도 동두천시 보산동 437-13번지 2층","indutype":"일반휴게음식 - 서양음식","category":"restaurant"}]},{"lat":"37.914024299","long":"127.06045774","imageIndex":4,"items":[{"name":"스마일","tel":"031-865-6664","addr":"경기도 동두천시 보산동 381-7번지","indutype":"일반휴게음식 - 일반한식","category":"restaurant"}]},{"lat":"37.917215337","long":"127.0567642","imageIndex":4,"items":[{"name":"스타레스토랑(STAR RESTAURANT)인도카레음","tel":"031-861-8832","addr":"경기도 동두천시 보산동 437-10번지","indutype":"일반휴게음식 - 서양음식","category":"restaurant"},{"name":"칠리 (chillis)","tel":"031-861-8832","addr":"경기도 동두천시 보산동 437-10번지 1층","indutype":"일반휴게음식 - 서양음식","category":"restaurant"}]},{"lat":"37.915629075","long":"127.05811633","imageIndex":4,"items":[{"name":"아나벨레스토랑","tel":"031-864-0683","addr":"경기도 동두천시 보산동 363-18번지","indutype":"일반휴게음식 - 서양음식","category":"restaurant"}]},{"lat":"37.916080078","long":"127.0569567","imageIndex":4,"items":[{"name":"아임이스탄블(IM ISTANBUL)","tel":"031-866-0058","addr":"경기도 동두천시 보산동 418-14번지","indutype":"일반휴게음식 - 일반한식","category":"restaurant"},{"name":"이디아커피 캠프케이시점","tel":"","addr":"경기도 동두천시 보산동 418-14번지 캠프케이시 버스터미널 내","indutype":"일반휴게음식 - 서양음식","category":"restaurant"},{"name":"힐스바","tel":"031-858-9797","addr":"경기도 동두천시 보산동 418-14번지 2층 201호","indutype":"일반휴게음식 - 칵테일바","category":"restaurant"}]},{"lat":"37.914683779","long":"127.05664864","imageIndex":4,"items":[{"name":"알파걸즈","tel":"031-865-8257","addr":"경기도 동두천시 보산동 426-11번지","indutype":"일반휴게음식 - 주점","category":"restaurant"}]},{"lat":"37.914413563","long":"127.05651198","imageIndex":4,"items":[{"name":"엔젤레스토랑","tel":"031-865-3219","addr":"경기도 동두천시 보산동 426-25번지","indutype":"일반휴게음식 - 서양음식","category":"restaurant"}]},{"lat":"37.914602722","long":"127.05659172","imageIndex":4,"items":[{"name":"엘링컨","tel":"031-865-2656","addr":"경기도 동두천시 보산동 426-19번지","indutype":"일반휴게음식 - 서양음식","category":"restaurant"}]},{"lat":"37.91613415","long":"127.05692263","imageIndex":4,"items":[{"name":"엘제이(LJ)","tel":"031-866-0058","addr":"경기도 동두천시 보산동 414-6번지 1층","indutype":"일반휴게음식 - 일반한식","category":"restaurant"}]},{"lat":"37.913295643","long":"127.05817145","imageIndex":4,"items":[{"name":"예막걸리촌","tel":"031-867-1864","addr":"경기도 동두천시 보산동 412-46번지","indutype":"일반휴게음식 - 일반한식","category":"restaurant"},{"name":"정아네","tel":"031-865-8825","addr":"경기도 동두천시 보산동 412-46번지","indutype":"일반휴게음식 - 일반한식","category":"restaurant"}]},{"lat":"37.913691971","long":"127.05834232","imageIndex":4,"items":[{"name":"오미숯불갈비","tel":"031-862-9593","addr":"경기도 동두천시 보산동 412-49번지","indutype":"일반휴게음식 - 일반한식","category":"restaurant"}]},{"lat":"37.916187085","long":"127.05931083","imageIndex":4,"items":[{"name":"우리동네","tel":"031-866-9991","addr":"경기도 동두천시 보산동 358-2번지 1층","indutype":"일반휴게음식 - 일반한식","category":"restaurant"}]},{"lat":"37.913133342","long":"127.05845562","imageIndex":4,"items":[{"name":"제베나커피","tel":"031-867-2233","addr":"경기도 동두천시 보산동 410-28번지","indutype":"일반휴게음식 - 일반한식","category":"restaurant"}]},{"lat":"37.915989521","long":"127.05795739","imageIndex":4,"items":[{"name":"제이에이이젠마인터내셔날","tel":"070-4962-6432","addr":"경기도 동두천시 보산동 362-7번지 1층","indutype":"일반휴게음식 - 서양음식","category":"restaurant"}]},{"lat":"37.913160605","long":"127.05795528","imageIndex":4,"items":[{"name":"중국관","tel":"031-862-5739","addr":"경기도 동두천시 보산동 412-27번지","indutype":"일반휴게음식 - 중국식","category":"restaurant"}]},{"lat":"37.91749513","long":"127.05564991","imageIndex":4,"items":[{"name":"카페엣","tel":"031-861-5330","addr":"경기도 동두천시 보산동 435-6번지","indutype":"일반휴게음식 - 일반한식","category":"restaurant"}]},{"lat":"37.917521679","long":"127.05670757","imageIndex":4,"items":[{"name":"코리안바베큐(보산점)","tel":"031-866-9202","addr":"경기도 동두천시 보산동 437-6번지","indutype":"일반휴게음식 - 일반한식","category":"restaurant"}]},{"lat":"37.916323024","long":"127.05761647","imageIndex":4,"items":[{"name":"크랙치킨(crack chicken)","tel":"031-111-1111","addr":"경기도 동두천시 보산동 417-1번지 1층","indutype":"일반휴게음식 - 스넥","category":"restaurant"}]},{"lat":"37.916052846","long":"127.0574002","imageIndex":4,"items":[{"name":"타코하우스멕시칸그릴 보산동점","tel":"","addr":"경기도 동두천시 보산동 417-12번지","indutype":"일반휴게음식 - 서양음식","category":"restaurant"}]},{"lat":"37.917080198","long":"127.05676411","imageIndex":4,"items":[{"name":"필라델피아","tel":"031-858-6168","addr":"경기도 동두천시 보산동 437-12번지 1층","indutype":"일반휴게음식 - 서양음식","category":"restaurant"}]},{"lat":"37.921711135","long":"127.05640355","imageIndex":4,"items":[{"name":"해방촌국수부흥국수","tel":"031-862-1945","addr":"경기도 동두천시 보산동 449-7번지","indutype":"일반휴게음식 - 일반한식","category":"restaurant"}]},{"lat":"37.913494001","long":"127.05784181","imageIndex":4,"items":[{"name":"화부와술이있는곳","tel":"031-861-1090","addr":"경기도 동두천시 보산동 412-13번지","indutype":"일반휴게음식 - 일반한식","category":"restaurant"}]},{"lat":"37.914683073","long":"127.05817248","imageIndex":4,"items":[{"name":"히든","tel":"031-866-3044","addr":"경기도 동두천시 보산동 365-12번지","indutype":"일반휴게음식 - 주점","category":"restaurant"}]},{"lat":"37.913880356","long":"127.06003687","imageIndex":4,"items":[{"name":"힐링캠프","tel":"031-859-3636","addr":"경기도 동두천시 보산동 381-9번지","indutype":"일반휴게음식 - 일반한식","category":"restaurant"}]}]