[{"lat":"37.301121708","long":"127.01113817","imageIndex":16,"items":[{"name":"(주)재광씨앤엠","tel":"031-251-8111","addr":"경기도 수원시 장안구 조원동 754-10번지 재광빌딩 301호","indutype":"회원제형태 - 학원","category":"study"}]},{"lat":"37.304455485","long":"127.01128516","imageIndex":16,"items":[{"name":"(주)한국전통예술연구원","tel":"031-269-2333","addr":"경기도 수원시 장안구 조원동 878번지 수원한일타운분산상가1제지하층제13.14호","indutype":"학원 - 기타 교육기관","category":"study"},{"name":"마음을그리다미술교습소","tel":"","addr":"경기도 수원시 장안구 조원동 878번지 수원 한일타운 분산상가1 204호","indutype":"학원 - 예·체능계학원","category":"study"},{"name":"생각을말하다 국어교습소","tel":"031-307-7270","addr":"경기도 수원시 장안구 조원동 878번지 분산상가 1동 305호","indutype":"학원 - 보습학원","category":"study"},{"name":"소리울음악교습소","tel":"031-245-8882","addr":"경기도 수원시 장안구 조원동 878번지","indutype":"학원 - 예·체능계학원","category":"study"},{"name":"해법한일타운영어교습소","tel":"031-241-4587","addr":"경기도 수원시 장안구 조원동 878번지 수원 한일타운 분산상가1 307호","indutype":"학원 - 외국어학원","category":"study"}]},{"lat":"37.298146931","long":"127.02286749","imageIndex":16,"items":[{"name":"경기꿈나래어린이집[아이행복]","tel":"031-548-1211","addr":"경기도 수원시 장안구 조원동 495번지 경기도교육청","indutype":"학원 - 유아원","category":"study"}]},{"lat":"37.30868128","long":"127.01130819","imageIndex":16,"items":[{"name":"경기도교통연수원","tel":"031-251-6191","addr":"경기도 수원시 장안구 조원동 산1-24번지","indutype":"학원 - 기타 교육기관","category":"study"}]},{"lat":"37.303094505","long":"127.01605614","imageIndex":16,"items":[{"name":"경희대라이언태권도","tel":"031-254-3313","addr":"경기도 수원시 장안구 조원동 859-3번지 뉴타운프라자 303호","indutype":"학원 - 예·체능계학원","category":"study"},{"name":"우리들유치원[아이행복]","tel":"031-258-0087","addr":"경기도 수원시 장안구 조원동 859-3번지 뉴타운프라자","indutype":"학원 - 유치원","category":"study"},{"name":"파인슐레외국어학원","tel":"031-253-0387","addr":"경기도 수원시 장안구 조원동 859-3번지 뉴타운프라자 2층 201호","indutype":"학원 - 외국어학원","category":"study"},{"name":"피아노치는피카소음악미술학원","tel":"031-246-3213","addr":"경기도 수원시 장안구 조원동 859-3번지 뉴타운프라자 203호","indutype":"학원 - 예·체능계학원","category":"study"}]},{"lat":"37.305428761","long":"127.00836386","imageIndex":16,"items":[{"name":"경희대석사한일태권도장","tel":"031-253-7688","addr":"경기도 수원시 장안구 조원동 881번지 수원한일타운 상가동 303~305호","indutype":"학원 - 예·체능계학원","category":"study"},{"name":"네모미술교습소","tel":"031-247-7962","addr":"경기도 수원시 장안구 조원동 881번지 수원한일타운 주상가 207호","indutype":"학원 - 예·체능계학원","category":"study"},{"name":"늘푸른어린이집[아이행복]","tel":"031-241-4177","addr":"경기도 수원시 장안구 조원동 881번지 수원한일타운 관리동 1층","indutype":"학원 - 유아원","category":"study"},{"name":"잉글리시아이한일타운학원","tel":"031-255-0584","addr":"경기도 수원시 장안구 조원동 881번지 수원한일타운 상가동 301호","indutype":"학원 - 보습학원","category":"study"},{"name":"조은유치원[아이행복]","tel":"031-251-4070","addr":"경기도 수원시 장안구 조원동 881번지 수원한일타운","indutype":"학원 - 유치원","category":"study"},{"name":"클라비어피아노교습소","tel":"031-8081-8040","addr":"경기도 수원시 장안구 조원동 881번지 수원한일타운 306호","indutype":"학원 - 예·체능계학원","category":"study"},{"name":"테드영어교습소","tel":"070-8627-7240","addr":"경기도 수원시 장안구 조원동 881번지 수원한일타운 204호","indutype":"회원제형태 - 학원","category":"study"},{"name":"한일에이플러스수학교습소","tel":"031-304-4255","addr":"경기도 수원시 장안구 조원동 881번지 수원한일타운 상가동 206호","indutype":"학원 - 보습학원","category":"study"}]},{"lat":"37.302761178","long":"127.01558235","imageIndex":16,"items":[{"name":"고등바른공부학원","tel":"031-241-2210","addr":"경기도 수원시 장안구 조원동 731-1번지 그린프라자 602호","indutype":"학원 - 보습학원","category":"study"},{"name":"공부의품격학원","tel":"031-256-5596","addr":"경기도 수원시 장안구 조원동 731-1번지 그린프라자 5층 502호","indutype":"학원 - 외국어학원","category":"study"},{"name":"신연세명문학원","tel":"031-241-5566","addr":"경기도 수원시 장안구 조원동 731-1번지 그린프라자 2층 202호","indutype":"학원 - 보습학원","category":"study"},{"name":"잇츠에듀케이션학원","tel":"031-252-7900","addr":"경기도 수원시 장안구 조원동 731-1번지 그린프라자 1층 301호","indutype":"학원 - 보습학원","category":"study"},{"name":"잇츠에듀케이션학원","tel":"031-252-7900","addr":"경기도 수원시 장안구 조원동 731-1번지 그린프라자 301호","indutype":"학원 - 보습학원","category":"study"},{"name":"하우스터디수원조원센터독서실","tel":"031-241-5100","addr":"경기도 수원시 장안구 조원동 731-1번지 401호전부.403호일부","indutype":"학원 - 독서실","category":"study"}]},{"lat":"37.302472819","long":"127.01587556","imageIndex":16,"items":[{"name":"고탑이미지연구소","tel":"02-518-1618","addr":"경기도 수원시 장안구 조원동 731-22번지 세원빌라 1동 302호","indutype":"학원 - 기능학원","category":"study"}]},{"lat":"37.302067904","long":"127.00917571","imageIndex":16,"items":[{"name":"공부의신영수전문학원","tel":"031-254-0984","addr":"경기도 수원시 장안구 조원동 898-1번지 메가플러스 4층 401호","indutype":"학원 - 보습학원","category":"study"},{"name":"북수원해법중국어학원","tel":"031-255-8866","addr":"경기도 수원시 장안구 조원동 898-1번지 메가플러스2차503-1호","indutype":"회원제형태 - 학원","category":"study"},{"name":"아름다운수학학원","tel":"031-248-5525","addr":"경기도 수원시 장안구 조원동 898-1번지 메가플러스 502호","indutype":"학원 - 기타 교육기관","category":"study"},{"name":"알레프학원","tel":"031-245-8685","addr":"경기도 수원시 장안구 조원동 898-1번지 메가플러스 5층 503호","indutype":"학원 - 보습학원","category":"study"},{"name":"오성식영어클럽링구아어학원","tel":"031-245-0579","addr":"경기도 수원시 장안구 조원동 898-1번지 메가플러스 402호","indutype":"학원 - 외국어학원","category":"study"},{"name":"이보영의토킹클럽조원어학원","tel":"031-246-0579","addr":"경기도 수원시 장안구 조원동 898-1번지 매가플러스3차 304호,304-1호","indutype":"회원제형태 - 학원","category":"study"},{"name":"조원한샘학원","tel":"031-207-5566","addr":"경기도 수원시 장안구 조원동 898-1번지 메가플러스 502호","indutype":"회원제형태 - 학원","category":"study"},{"name":"플레이팩토앤멘사학원","tel":"031-207-8020","addr":"경기도 수원시 장안구 조원동 898-1번지 메가플러스2차 601호","indutype":"학원 - 보습학원","category":"study"},{"name":"휴엔아이간호학원","tel":"031-548-1575","addr":"경기도 수원시 장안구 조원동 898-1번지 메가플러스2차 502호","indutype":"회원제형태 - 학원","category":"study"},{"name":"희원미술학원","tel":"031-241-0332","addr":"경기도 수원시 장안구 조원동 898-1번지 메가플러스3차 401호","indutype":"학원 - 예·체능계학원","category":"study"}]},{"lat":"37.303427964","long":"127.01531176","imageIndex":16,"items":[{"name":"금빛소리음악학원","tel":"031-253-5779","addr":"경기도 수원시 장안구 조원동 730-2번지 3층","indutype":"학원 - 예·체능계학원","category":"study"},{"name":"수민아트미술학원","tel":"070-8615-9290","addr":"경기도 수원시 장안구 조원동 730-2번지 2층","indutype":"학원 - 예·체능계학원","category":"study"}]},{"lat":"37.29739948","long":"127.02034093","imageIndex":16,"items":[{"name":"김도현논술전문학원","tel":"031-207-1778","addr":"경기도 수원시 장안구 조원동 519-13번지 3층","indutype":"학원 - 보습학원","category":"study"},{"name":"마크실용음악학원","tel":"070-4410-2290","addr":"경기도 수원시 장안구 조원동 519-13번지 2층","indutype":"회원제형태 - 학원","category":"study"}]},{"lat":"37.295066908","long":"127.00986309","imageIndex":16,"items":[{"name":"꼬마대통령어린이집[아이행복]","tel":"031-304-3327","addr":"경기도 수원시 장안구 조원동 675-4번지 조원샤르망 107호","indutype":"학원 - 유아원","category":"study"},{"name":"에스엘에스어린이집[아이행복]","tel":"031-251-5757","addr":"경기도 수원시 장안구 조원동 675-4번지 조원샤르망 107호","indutype":"학원 - 유아원","category":"study"}]},{"lat":"37.302130009","long":"127.01927051","imageIndex":16,"items":[{"name":"꼬마요정어린이집[아이행복]","tel":"031-268-9280","addr":"경기도 수원시 장안구 조원동 861번지 주공뉴타운 211동 101호","indutype":"학원 - 유아원","category":"study"}]},{"lat":"37.307005224","long":"127.01324814","imageIndex":16,"items":[{"name":"꿈초롱어린이집[아이행복]","tel":"031-255-1009","addr":"경기도 수원시 장안구 조원동 912번지 광교산임광그대가 107동 104호","indutype":"학원 - 유아원","category":"study"}]},{"lat":"37.306320333","long":"127.01447754","imageIndex":16,"items":[{"name":"노블나인투나인틴잉글리쉬영어교습소","tel":"031-257-5505","addr":"경기도 수원시 장안구 조원동 52-3번지 2층","indutype":"학원 - 외국어학원","category":"study"}]},{"lat":"37.297319118","long":"127.01436337","imageIndex":16,"items":[{"name":"노엘뮤직음악학원","tel":"031-8001-1739","addr":"경기도 수원시 장안구 조원동 774-31번지 조원빌딩 3층","indutype":"학원 - 예·체능계학원","category":"study"},{"name":"소현어린이집[아이행복]","tel":"031-245-3363","addr":"경기도 수원시 장안구 조원동 774-31번지 1층","indutype":"학원 - 유아원","category":"study"}]},{"lat":"37.299039645","long":"127.01816454","imageIndex":16,"items":[{"name":"다능","tel":"031-256-7966","addr":"경기도 수원시 장안구 조원동 739-14번지","indutype":"학원 - 기타 교육기관","category":"study"}]},{"lat":"37.304428422","long":"127.01172506","imageIndex":16,"items":[{"name":"대상학원","tel":"031-248-3818","addr":"경기도 수원시 장안구 조원동 288-7번지 조원빌딩 3층","indutype":"학원 - 기타 교육기관","category":"study"},{"name":"아산학원","tel":"031-241-0194","addr":"경기도 수원시 장안구 조원동 288-7번지 조원빌딩 2층","indutype":"학원 - 보습학원","category":"study"},{"name":"어썸팩토리수원조원독서실","tel":"031-302-5020","addr":"경기도 수원시 장안구 조원동 288-7번지 조원빌딩 3층 4~11호","indutype":"학원 - 독서실","category":"study"},{"name":"예다움태권도장","tel":"031-241-8688","addr":"경기도 수원시 장안구 조원동 288-7번지 조원빌딩","indutype":"학원 - 예·체능계학원","category":"study"}]},{"lat":"37.302680053","long":"127.01588688","imageIndex":16,"items":[{"name":"대한검도회 조원검도관","tel":"031-246-1987","addr":"경기도 수원시 장안구 조원동 731-6번지 201호 제2종근린생활시설","indutype":"학원 - 예·체능계학원","category":"study"},{"name":"비오투어학원","tel":"031-247-0585","addr":"경기도 수원시 장안구 조원동 731-6번지 신원프라자 301호","indutype":"회원제형태 - 학원","category":"study"},{"name":"어린음악대조원원음악학원","tel":"031-257-9821","addr":"경기도 수원시 장안구 조원동 731-6번지 601호","indutype":"학원 - 예·체능계학원","category":"study"},{"name":"어린화가들조원원미미술교습소","tel":"031-257-9821","addr":"경기도 수원시 장안구 조원동 731-6번지 601호","indutype":"학원 - 예·체능계학원","category":"study"},{"name":"에스앤피음악학원","tel":"031-243-3517","addr":"경기도 수원시 장안구 조원동 731-6번지 신원프라자 501호","indutype":"학원 - 예·체능계학원","category":"study"},{"name":"은광컴퓨터학원","tel":"031-255-8845","addr":"경기도 수원시 장안구 조원동 731-6번지 신원프라자 502호","indutype":"회원제형태 - 학원","category":"study"},{"name":"코리아독서실","tel":"031-253-8100","addr":"경기도 수원시 장안구 조원동 731-6번지 신원프라자 302(31-6,0번지","indutype":"학원 - 독서실","category":"study"}]},{"lat":"37.303068095","long":"127.00803659","imageIndex":16,"items":[{"name":"더좋은영어","tel":"","addr":"경기도 수원시 장안구 조원동 894번지 일호골든타워 315호","indutype":"학원 - 외국어학원","category":"study"},{"name":"리버스앤리버스독서실","tel":"070-4618-4714","addr":"경기도 수원시 장안구 조원동 894번지 일호골든타워 607호","indutype":"학원 - 독서실","category":"study"},{"name":"리얼모션미술학원","tel":"031-247-5487","addr":"경기도 수원시 장안구 조원동 894번지 일호골든타워 2층 207호","indutype":"학원 - 예·체능계학원","category":"study"},{"name":"매쓰피제이에이치수학학원","tel":"031-252-9255","addr":"경기도 수원시 장안구 조원동 894번지 일호골든타워 306호","indutype":"학원 - 보습학원","category":"study"},{"name":"멘토엔멘티영수학원","tel":"031-253-8844","addr":"경기도 수원시 장안구 조원동 894번지 일호골든타워 405호, 407-3호","indutype":"학원 - 보습학원","category":"study"},{"name":"본수학학원","tel":"031-8009-0745","addr":"경기도 수원시 장안구 조원동 894번지 일호골든타워 407-3호","indutype":"학원 - 보습학원","category":"study"},{"name":"올림피아드수학전문학원","tel":"031-245-1140","addr":"경기도 수원시 장안구 조원동 894번지 일호골든타워 406호","indutype":"학원 - 보습학원","category":"study"},{"name":"조원대한논리속독학원","tel":"031-258-8219","addr":"경기도 수원시 장안구 조원동 894번지 일호골든타워 308호","indutype":"학원 - 기타 교육기관","category":"study"},{"name":"채움독서논술학원","tel":"031-248-0230","addr":"경기도 수원시 장안구 조원동 894번지 골든타워 308호","indutype":"학원 - 보습학원","category":"study"},{"name":"클라스영어수학학원","tel":"031-548-0887","addr":"경기도 수원시 장안구 조원동 894번지 일호골든타워 4층 407호","indutype":"학원 - 보습학원","category":"study"},{"name":"토즈스터디센터 조원독서실","tel":"031-252-4550","addr":"경기도 수원시 장안구 조원동 894번지 일호골든타워 407-1호,407-2호","indutype":"학원 - 독서실","category":"study"},{"name":"한국강사평생교육원","tel":"070-4401-2153","addr":"경기도 수원시 장안구 조원동 894번지 일호골든타워 211호","indutype":"회원제형태 - 학원","category":"study"}]},{"lat":"37.301814933","long":"127.01708231","imageIndex":16,"items":[{"name":"라온뮤직피아노음악교습소","tel":"031-265-4756","addr":"경기도 수원시 장안구 조원동 866-7번지 1층중2층","indutype":"학원 - 예·체능계학원","category":"study"}]},{"lat":"37.301346588","long":"127.01542421","imageIndex":16,"items":[{"name":"리더스독서실","tel":"070-8763-6115","addr":"경기도 수원시 장안구 조원동 733-14번지 201호,401호","indutype":"학원 - 독서실","category":"study"}]},{"lat":"37.305401588","long":"127.01086792","imageIndex":16,"items":[{"name":"리베어린이집[아이행복]","tel":"031-306-3046","addr":"경기도 수원시 장안구 조원동 881번지 수원한일타운 151동 103호","indutype":"학원 - 유아원","category":"study"}]},{"lat":"37.299598651","long":"127.01495021","imageIndex":16,"items":[{"name":"리틀창의나라어린이집[아이행복]","tel":"031-243-2564","addr":"경기도 수원시 장안구 조원동 767-22번지","indutype":"학원 - 유아원","category":"study"}]},{"lat":"37.302094356","long":"127.01616875","imageIndex":16,"items":[{"name":"뮤엠영어조원학원","tel":"031-252-2255","addr":"경기도 수원시 장안구 조원동 731-15번지 메가타워","indutype":"회원제형태 - 학원","category":"study"},{"name":"키즈석사태권도장","tel":"031-255-5244","addr":"경기도 수원시 장안구 조원동 731-15번지 메가타워 202호,202-3호","indutype":"학원 - 예·체능계학원","category":"study"}]},{"lat":"37.303788416","long":"127.01489448","imageIndex":16,"items":[{"name":"박채봉음악학원","tel":"031-254-3558","addr":"경기도 수원시 장안구 조원동 725-7번지","indutype":"학원 - 예·체능계학원","category":"study"},{"name":"윤선생우리집앞영어조원학원","tel":"031-257-7905","addr":"경기도 수원시 장안구 조원동 725-7번지 5층","indutype":"학원 - 외국어학원","category":"study"},{"name":"파스칼영재수학학원","tel":"031-254-2240","addr":"경기도 수원시 장안구 조원동 725-7번지 5층","indutype":"학원 - 보습학원","category":"study"},{"name":"푸른독서실","tel":"031-268-1700","addr":"경기도 수원시 장안구 조원동 725-7번지 4층","indutype":"학원 - 독서실","category":"study"}]},{"lat":"37.299814859","long":"127.01531117","imageIndex":16,"items":[{"name":"북부교연학원","tel":"031-243-5593","addr":"경기도 수원시 장안구 조원동 767번지","indutype":"학원 - 기타 교육기관","category":"study"}]},{"lat":"37.30342853","long":"127.00739369","imageIndex":16,"items":[{"name":"북수원 생각의창학원","tel":"031-241-1206","addr":"경기도 수원시 장안구 조원동 893 아일렛쇼핑타운 421호~422호","indutype":"회원제형태 - 학원","category":"study"}]},{"lat":"37.300346817","long":"127.01128471","imageIndex":16,"items":[{"name":"북수원알고리즘학원","tel":"031-256-3044","addr":"경기도 수원시 장안구 조원동 753-14번지","indutype":"학원 - 보습학원","category":"study"}]},{"lat":"37.297814638","long":"127.01480331","imageIndex":16,"items":[{"name":"브루클린아트미술교습소","tel":"031-248-5681","addr":"경기도 수원시 장안구 조원동 774번지 조원빌딩 1층","indutype":"학원 - 예·체능계학원","category":"study"},{"name":"영화보습영어학원","tel":"031-255-5777","addr":"경기도 수원시 장안구 조원동 774번지 조원빌딩 2층","indutype":"학원 - 보습학원","category":"study"},{"name":"코스모스음악학원","tel":"031-243-1230","addr":"경기도 수원시 장안구 조원동 774번지 2층 조원빌딩 일부","indutype":"학원 - 예·체능계학원","category":"study"}]},{"lat":"37.304257407","long":"127.00884879","imageIndex":16,"items":[{"name":"빡쌤수학","tel":"031-000-0000","addr":"경기도 수원시 장안구 조원동 881번지 수원한일타운 133동 301호","indutype":"학원 - 기타 교육기관","category":"study"}]},{"lat":"37.297427252","long":"127.0142506","imageIndex":16,"items":[{"name":"삼성영어수학학원","tel":"031-253-7905","addr":"경기도 수원시 장안구 조원동 774-7번지 영진빌딩 2층","indutype":"학원 - 보습학원","category":"study"},{"name":"삼성영어수학학원","tel":"031-253-7905","addr":"경기도 수원시 장안구 조원동 774-7번지 영진빌딩 2층","indutype":"학원 - 보습학원","category":"study"}]},{"lat":"37.30137359","long":"127.01569491","imageIndex":16,"items":[{"name":"송원유치원","tel":"031-255-1572","addr":"경기도 수원시 장안구 조원동 733-2번지","indutype":"학원 - 유치원","category":"study"},{"name":"큰별유치원[아이행복]","tel":"031-255-1572","addr":"경기도 수원시 장안구 조원동 733-2","indutype":"학원 - 유치원","category":"study"}]},{"lat":"37.308122727","long":"127.01008989","imageIndex":16,"items":[{"name":"송원초등학교","tel":"031-258-8454","addr":"경기도 수원시 장안구 조원동 872번지 송원초등학교","indutype":"학원 - 초중고교육기관","category":"study"}]},{"lat":"37.298624906","long":"127.02011565","imageIndex":16,"items":[{"name":"수공달영수학원","tel":"031-256-0236","addr":"경기도 수원시 장안구 조원동 519-24번지 2층","indutype":"학원 - 보습학원","category":"study"}]},{"lat":"37.294147755","long":"127.0114983","imageIndex":16,"items":[{"name":"수성중학교","tel":"031-245-1147","addr":"경기도 수원시 장안구 조원동 677-1번지 수성중학교","indutype":"학원 - 초중고교육기관","category":"study"}]},{"lat":"37.30545538","long":"127.01417285","imageIndex":16,"items":[{"name":"수성초등학교","tel":"031-268-6312","addr":"경기도 수원시 장안구 조원동 843번지 수성초등학교","indutype":"학원 - 초중고교육기관","category":"study"}]},{"lat":"37.299625943","long":"127.01202902","imageIndex":16,"items":[{"name":"수원도배기술학원","tel":"031-257-2151","addr":"경기도 수원시 장안구 조원동 762-16번지 2층","indutype":"회원제형태 - 학원","category":"study"}]},{"lat":"37.307455221","long":"127.01803088","imageIndex":16,"items":[{"name":"수일고등학교","tel":"031-8012-8350","addr":"경기도 수원시 장안구 조원동 21번지 수일고등학교","indutype":"학원 - 초중고교육기관","category":"study"},{"name":"수일고등학교_수업료","tel":"031-8012-8350","addr":"경기도 수원시 장안구 조원동 21번지 수일고등학교","indutype":"학원 - 초중고교육기관","category":"study"}]},{"lat":"37.307618289","long":"127.00733754","imageIndex":16,"items":[{"name":"수일여자중학교","tel":"031-248-2611","addr":"경기도 수원시 장안구 조원동 198-1번지 수일여자중학교","indutype":"학원 - 초중고교육기관","category":"study"},{"name":"수일여중솔밭어린이집[아이행복]","tel":"031-248-2601","addr":"경기도 수원시 장안구 조원동 198-1번지","indutype":"학원 - 유아원","category":"study"}]},{"lat":"37.303067126","long":"127.01888722","imageIndex":16,"items":[{"name":"숲속반디어린이집[아이행복]","tel":"031-268-7733","addr":"경기도 수원시 장안구 조원동 861번지 조원주공뉴타운2단지관리동1층","indutype":"학원 - 유아원","category":"study"},{"name":"최강해법수학교습소","tel":"031-304-1025","addr":"경기도 수원시 장안구 조원동 861번지 주공뉴타운 상가동 2층 202호","indutype":"학원 - 보습학원","category":"study"}]},{"lat":"37.301427909","long":"127.01303307","imageIndex":16,"items":[{"name":"시립보훈어린이집[아이행복]","tel":"031-244-5516","addr":"경기도 수원시 장안구 조원동 756번지","indutype":"학원 - 유아원","category":"study"}]},{"lat":"37.302319806","long":"127.01430773","imageIndex":16,"items":[{"name":"신창화영어원격학원","tel":"031-269-9150","addr":"경기도 수원시 장안구 조원동 729-16번지 영재빌딩 3층 큐브 4호","indutype":"학원 - 외국어학원","category":"study"}]},{"lat":"37.304067129","long":"127.0198349","imageIndex":16,"items":[{"name":"아이림 유치원[아이행복]","tel":"031-252-5202","addr":"경기도 수원시 장안구 조원동 351-10번지","indutype":"학원 - 유치원","category":"study"}]},{"lat":"37.306014477","long":"127.00711185","imageIndex":16,"items":[{"name":"아이맘어린이집[아이행복]","tel":"031-256-1010","addr":"경기도 수원시 장안구 조원동 881번지 수원한일타운 109동 105호","indutype":"학원 - 유아원","category":"study"}]},{"lat":"37.299787598","long":"127.01734134","imageIndex":16,"items":[{"name":"에스디(SD)체육관 (킥복싱,합기도)","tel":"031-0000-0000","addr":"경기도 수원시 장안구 조원동 739-24번지 지층","indutype":"학원 - 예·체능계학원","category":"study"}]},{"lat":"37.301932075","long":"127.01700338","imageIndex":16,"items":[{"name":"연수학","tel":"","addr":"경기도 수원시 장안구 조원동 866-8번지 정현빌 304호","indutype":"학원 - 기타 교육기관","category":"study"}]},{"lat":"37.296598116","long":"127.01611139","imageIndex":16,"items":[{"name":"영화초등학교","tel":"031-258-2232","addr":"경기도 수원시 장안구 조원동 556번지 영화초등학교","indutype":"학원 - 초중고교육기관","category":"study"}]},{"lat":"37.303400889","long":"127.01572909","imageIndex":16,"items":[{"name":"용인대박사국가대표태권도장","tel":"031-244-8081","addr":"경기도 수원시 장안구 조원동 857번지 202호","indutype":"학원 - 예·체능계학원","category":"study"},{"name":"조수민의팡팡학원","tel":"031-891-0889","addr":"경기도 수원시 장안구 조원동 857번지 뉴타운프라자 402호","indutype":"학원 - 보습학원","category":"study"}]},{"lat":"37.300481498","long":"127.01639405","imageIndex":16,"items":[{"name":"용인대월드태권도교육관","tel":"031-245-0102","addr":"경기도 수원시 장안구 조원동 734-38번지 2층","indutype":"학원 - 예·체능계학원","category":"study"}]},{"lat":"37.302815274","long":"127.01525526","imageIndex":16,"items":[{"name":"이지어린이집[아이행복]","tel":"031-254-8886","addr":"경기도 수원시 장안구 조원동 731-27번지","indutype":"학원 - 유아원","category":"study"}]},{"lat":"37.297210885","long":"127.01544608","imageIndex":16,"items":[{"name":"이해법수학영화초수학교습소","tel":"031-242-2090","addr":"경기도 수원시 장안구 조원동 773-2번지 유림센스빌 101호","indutype":"학원 - 보습학원","category":"study"}]},{"lat":"37.305176209","long":"127.012526","imageIndex":16,"items":[{"name":"일이삼독서실","tel":"070-8031-4038","addr":"경기도 수원시 장안구 조원동 101-4번지 2층","indutype":"학원 - 독서실","category":"study"},{"name":"일이삼학원","tel":"070-8031-4038","addr":"경기도 수원시 장안구 조원동 101-4번지 2층 201호","indutype":"학원 - 보습학원","category":"study"},{"name":"참수학학원","tel":"031-252-4073","addr":"경기도 수원시 장안구 조원동 101-4번지 402호","indutype":"학원 - 보습학원","category":"study"}]},{"lat":"37.294174638","long":"127.0133366","imageIndex":16,"items":[{"name":"장안대호태권도체육관","tel":"031-252-0216","addr":"경기도 수원시 장안구 조원동 642-6번지","indutype":"학원 - 예·체능계학원","category":"study"}]},{"lat":"37.301706792","long":"127.01722891","imageIndex":16,"items":[{"name":"전광일수학교습소","tel":"031-245-1455","addr":"경기도 수원시 장안구 조원동 866-6번지 1층","indutype":"학원 - 보습학원","category":"study"}]},{"lat":"37.306869852","long":"127.01550408","imageIndex":16,"items":[{"name":"조원고등학교","tel":"031-8012-1700","addr":"경기도 수원시 장안구 조원동 44번지 조원고등학교","indutype":"학원 - 초중고교육기관","category":"study"},{"name":"조원고등학교_수업료","tel":"031-8012-1700","addr":"경기도 수원시 장안구 조원동 44번지 조원고등학교","indutype":"학원 - 초중고교육기관","category":"study"}]},{"lat":"37.302374235","long":"127.00948027","imageIndex":16,"items":[{"name":"조원스카이독서실","tel":"031-255-7752","addr":"경기도 수원시 장안구 조원동 898-2번지 5층 일부 503호","indutype":"학원 - 독서실","category":"study"}]},{"lat":"37.300400384","long":"127.01658577","imageIndex":16,"items":[{"name":"조원어린이집[아이행복]","tel":"031-269-0671","addr":"경기도 수원시 장안구 조원동 734-20번지","indutype":"학원 - 유아원","category":"study"}]},{"lat":"37.307699061","long":"127.01267296","imageIndex":16,"items":[{"name":"조원임광사임당어린이집[아이행복]","tel":"031-247-2468","addr":"경기도 수원시 장안구 조원동 912번지 광교산임광그대가","indutype":"학원 - 유아원","category":"study"},{"name":"조원임광사임당어린이집[아이행복]","tel":"031-247-2468","addr":"경기도 수원시 장안구 조원동 912번지 관리광교산임광그대가","indutype":"학원 - 유아원","category":"study"}]},{"lat":"37.30728418","long":"127.01677878","imageIndex":16,"items":[{"name":"조원중학교","tel":"031-242-0436","addr":"경기도 수원시 장안구 조원동 40번지 조원중학교","indutype":"학원 - 초중고교육기관","category":"study"}]},{"lat":"37.302959258","long":"127.01686822","imageIndex":16,"items":[{"name":"조원초등학교","tel":"031-253-6427","addr":"경기도 수원시 장안구 조원동 390번지 조원초등학교","indutype":"학원 - 초중고교육기관","category":"study"}]},{"lat":"37.301869633","long":"127.0099765","imageIndex":16,"items":[{"name":"진성영재학원","tel":"031-242-8505","addr":"경기도 수원시 장안구 조원동 752-22번지 3층","indutype":"학원 - 기타 교육기관","category":"study"}]},{"lat":"37.298318574","long":"127.02000279","imageIndex":16,"items":[{"name":"최강학원","tel":"031-246-6978","addr":"경기도 수원시 장안구 조원동 519-39번지","indutype":"학원 - 보습학원","category":"study"}]},{"lat":"37.303373279","long":"127.02026336","imageIndex":16,"items":[{"name":"키즈킹어린이체육교실","tel":"070-7760-7563","addr":"경기도 수원시 장안구 조원동 861번지 주공뉴타운 207동 1704호","indutype":"학원 - 기타 교육기관","category":"study"}]},{"lat":"37.304707954","long":"127.00810437","imageIndex":16,"items":[{"name":"탑클라스","tel":"02-927-2272","addr":"경기도 수원시 장안구 조원동 881번지 수원한일타운 129동 1101호","indutype":"학원 - 기타 교육기관","category":"study"}]},{"lat":"37.30801467","long":"127.00891676","imageIndex":16,"items":[{"name":"파란꿈아트팜어린이집","tel":"031-251-5666","addr":"경기도 수원시 장안구 조원동 136-6번지","indutype":"학원 - 유치원","category":"study"}]},{"lat":"37.307509172","long":"127.0188656","imageIndex":16,"items":[{"name":"파란꿈아트팜어린이집[아이행복]","tel":"031-251-5666","addr":"경기도 수원시 장안구 조원동 24번지 1층","indutype":"학원 - 유아원","category":"study"},{"name":"파란꿈아트팜어린이집[아이행복]","tel":"031-251-5666","addr":"경기도 수원시 장안구 조원동 24번지 1층","indutype":"학원 - 유아원","category":"study"}]},{"lat":"37.300788044","long":"127.01453308","imageIndex":16,"items":[{"name":"파랑새어린이집[아이행복]","tel":"031-252-9101","addr":"경기도 수원시 장안구 조원동 744-18번지 파랑새어린이집","indutype":"학원 - 유아원","category":"study"}]},{"lat":"37.30642849","long":"127.0141166","imageIndex":16,"items":[{"name":"프라임영어교습소","tel":"031-245-0503","addr":"경기도 수원시 장안구 조원동 53-2번지 전체 3층","indutype":"회원제형태 - 학원","category":"study"}]},{"lat":"37.305888354","long":"127.00650274","imageIndex":16,"items":[{"name":"하나 에듀케이션","tel":"","addr":"경기도 수원시 장안구 조원동 881번지 수원한일타운 106동 102호","indutype":"학원 - 기타 교육기관","category":"study"}]},{"lat":"37.304590231","long":"127.01580825","imageIndex":16,"items":[{"name":"하늘어린이집[아이행복]","tel":"031-268-7979","addr":"경기도 수원시 장안구 조원동 855번지 관리동1층","indutype":"학원 - 유아원","category":"study"}]},{"lat":"37.30201379","long":"127.01008931","imageIndex":16,"items":[{"name":"한국문화센터","tel":"031-246-0551","addr":"경기도 수원시 장안구 조원동 752번지 종영빌딩 5층","indutype":"회원제형태 - 학원","category":"study"}]},{"lat":"37.296652262","long":"127.0153332","imageIndex":16,"items":[{"name":"한솔영어영화영어교습소","tel":"031-257-0579","addr":"경기도 수원시 장안구 조원동 774-22번지 1층 101호","indutype":"학원 - 외국어학원","category":"study"}]},{"lat":"37.30673534","long":"127.00558912","imageIndex":16,"items":[{"name":"한일초등학교","tel":"031-258-6197","addr":"경기도 수원시 장안구 조원동 882번지 한일초등학교","indutype":"학원 - 초중고교육기관","category":"study"}]},{"lat":"37.305599979","long":"127.00782245","imageIndex":16,"items":[{"name":"한일타운사임당어린이집[아이행복]","tel":"031-271-2468","addr":"경기도 수원시 장안구 조원동 881번지 수원한일타운 126동 103호","indutype":"학원 - 유아원","category":"study"}]},{"lat":"37.297454156","long":"127.01550251","imageIndex":16,"items":[{"name":"해나래어린이집[아이행복]","tel":"031-245-4461","addr":"경기도 수원시 장안구 조원동 771-9번지","indutype":"학원 - 유아원","category":"study"}]},{"lat":"37.300039923","long":"127.01702558","imageIndex":16,"items":[{"name":"해솔학원","tel":"031-252-7080","addr":"경기도 수원시 장안구 조원동 734-16번지 2층","indutype":"학원 - 보습학원","category":"study"}]},{"lat":"37.300707054","long":"127.01345029","imageIndex":16,"items":[{"name":"행복한초록나무어린이집","tel":"031-246-8733","addr":"경기도 수원시 장안구 조원동 757-7번지","indutype":"학원 - 유아원","category":"study"},{"name":"행복한초록나무어린이집[아이행복]","tel":"031-246-8733","addr":"경기도 수원시 장안구 조원동 757-7번지","indutype":"학원 - 유아원","category":"study"}]}]