[{"lat":"37.839556656","long":"127.17621944","imageIndex":17,"items":[{"name":"(주)동서기전","tel":"031-541-6462","addr":"경기도 포천시 가산면 방축리 136-5번지 태양빌딩 가동 8호","indutype":"기타 - 기계공구","category":"other"},{"name":"대동스프링","tel":"031-544-2227","addr":"경기도 포천시 가산면 방축리 136-5번지 태양빌딩 가동 1층","indutype":"기타 - 기계공구","category":"other"},{"name":"신영철물","tel":"031-541-0065","addr":"경기도 포천시 가산면 방축리 136-5번지 태양빌딩 1층","indutype":"건축자재 - 목재·석재·철물","category":"other"},{"name":"신진정밀","tel":"031-544-6206","addr":"경기도 포천시 가산면 방축리 136-5번지","indutype":"기타 - 기계공구","category":"other"}]},{"lat":"37.837806144","long":"127.16546863","imageIndex":17,"items":[{"name":"KS마트","tel":"031-543-4154","addr":"경기도 포천시 가산면 방축리 403-4번지 1층","indutype":"유통업 영리 - 편 의 점","category":"other"}]},{"lat":"37.837057817","long":"127.16586459","imageIndex":17,"items":[{"name":"M-TECKKorea","tel":"031-542-6667","addr":"경기도 포천시 가산면 방축리 411-1번지","indutype":"전기제품 - 가전제품","category":"other"}]},{"lat":"37.839757507","long":"127.1744136","imageIndex":17,"items":[{"name":"가산건업","tel":"031-541-5491","addr":"경기도 포천시 가산면 방축리 133-1번지","indutype":"가구 - 일반가구","category":"other"}]},{"lat":"37.841255145","long":"127.17910903","imageIndex":17,"items":[{"name":"강원정밀기계","tel":"031-542-1995","addr":"경기도 포천시 가산면 방축리 16-5번지","indutype":"기타 - 기계공구","category":"other"},{"name":"기환수출포장","tel":"031-543-9323","addr":"경기도 포천시 가산면 방축리 16-5번지","indutype":"회원제형태 - 기타4","category":"other"}]},{"lat":"37.838584244","long":"127.16956004","imageIndex":17,"items":[{"name":"강한풍력닥트","tel":"031-542-8896","addr":"경기도 포천시 가산면 방축리 362-6번지","indutype":"건축자재 - 기타건축자재","category":"other"},{"name":"한신콤프레샤","tel":"031-542-0644","addr":"경기도 포천시 가산면 방축리 362-6번지","indutype":"기타 - 기계공구","category":"other"}]},{"lat":"37.838141769","long":"127.17027474","imageIndex":17,"items":[{"name":"경기기계","tel":"031-541-1403","addr":"경기도 포천시 가산면 방축리 360","indutype":"기타 - 기계공구","category":"other"}]},{"lat":"37.83858796","long":"127.16691311","imageIndex":17,"items":[{"name":"경기포장기계","tel":"031-542-6552","addr":"경기도 포천시 가산면 방축리 379-3번지","indutype":"기타 - 기계공구","category":"other"},{"name":"일신포장","tel":"031-541-5150","addr":"경기도 포천시 가산면 방축리 379-3","indutype":"신변잡화 - 기타잡화","category":"other"}]},{"lat":"37.839089058","long":"127.16935669","imageIndex":17,"items":[{"name":"경원한신기계","tel":"031-544-7001","addr":"경기도 포천시 가산면 방축리 362-1번지","indutype":"기타 - 기계공구","category":"other"}]},{"lat":"37.842055819","long":"127.17988347","imageIndex":17,"items":[{"name":"국제종합모타","tel":"031-543-4712","addr":"경기도 포천시 가산면 방축리 13-5번지 1층","indutype":"건축자재 - 보일러·펌프·샷시","category":"other"},{"name":"대성체인뿌리","tel":"031-534-8865","addr":"경기도 포천시 가산면 방축리 13-5번지","indutype":"기타 - 기계공구","category":"other"},{"name":"인성모터펌프","tel":"031-543-8865","addr":"경기도 포천시 가산면 방축리 13-5번지 1층","indutype":"건축자재 - 보일러·펌프·샷시","category":"other"}]},{"lat":"37.845835624","long":"127.17039438","imageIndex":17,"items":[{"name":"그린종합사무기","tel":"031-544-0001","addr":"경기도 포천시 가산면 방축리 264-1","indutype":"사무통신 - 컴퓨터","category":"other"}]},{"lat":"37.844223061","long":"127.17031121","imageIndex":17,"items":[{"name":"글로벌그린","tel":"031-847-9160","addr":"경기도 포천시 가산면 방축리 270번지 다동","indutype":"기타 - 기계공구","category":"other"},{"name":"주식회사 유경사","tel":"031-8089-7749","addr":"경기도 포천시 가산면 방축리 270번지 가동","indutype":"가구 - 일반가구","category":"other"}]},{"lat":"37.838697574","long":"127.17221861","imageIndex":17,"items":[{"name":"금강목재합판","tel":"031-543-8520","addr":"경기도 포천시 가산면 방축리 117번지","indutype":"가구 - 일반가구","category":"other"}]},{"lat":"37.839807846","long":"127.1769471","imageIndex":17,"items":[{"name":"대성전기모타","tel":"031-544-5989","addr":"경기도 포천시 가산면 방축리 44-20번지","indutype":"수리서비스 - 기타수리서비스","category":"other"}]},{"lat":"37.838086608","long":"127.16461723","imageIndex":17,"items":[{"name":"대신호이스트","tel":"","addr":"경기도 포천시 가산면 방축리 489-7번지 1호","indutype":"수리서비스 - 기타수리서비스","category":"other"},{"name":"디오컴","tel":"031-544-9939","addr":"경기도 포천시 가산면 방축리 489-7번지","indutype":"사무통신 - 컴퓨터","category":"other"}]},{"lat":"37.838613548","long":"127.17425191","imageIndex":17,"items":[{"name":"대원실크","tel":"031-544-0522","addr":"경기도 포천시 가산면 방축리 113-4번지","indutype":"서적문구 - 출판 및 인쇄물","category":"other"}]},{"lat":"37.838644593","long":"127.17146871","imageIndex":17,"items":[{"name":"도하정밀","tel":"031-544-0229","addr":"경기도 포천시 가산면 방축리 121-4번지","indutype":"기타 - 기계공구","category":"other"}]},{"lat":"37.838894847","long":"127.1728666","imageIndex":17,"items":[{"name":"도향공방","tel":"031-542-4383","addr":"경기도 포천시 가산면 방축리 117-2번지","indutype":"가구 - 일반가구","category":"other"},{"name":"씽크쟁이부엌가구","tel":"031-542-3353","addr":"경기도 포천시 가산면 방축리 117-2","indutype":"주방용구 - 주방용구","category":"other"}]},{"lat":"37.845668723","long":"127.1736888","imageIndex":17,"items":[{"name":"동백산업","tel":"031-543-6445","addr":"경기도 포천시 가산면 방축리 181-1번지","indutype":"가구 - 일반가구","category":"other"}]},{"lat":"37.839279646","long":"127.17466242","imageIndex":17,"items":[{"name":"동성기계","tel":"031-542-7960","addr":"경기도 포천시 가산면 방축리 138-11","indutype":"기타 - 기계공구","category":"other"},{"name":"영일사","tel":"031-541-3014","addr":"경기도 포천시 가산면 방축리 138-11번지","indutype":"건축자재 - 목재·석재·철물","category":"other"}]},{"lat":"37.837752386","long":"127.16525267","imageIndex":17,"items":[{"name":"동성정밀","tel":"031-542-9390","addr":"경기도 포천시 가산면 방축리 486-3","indutype":"기타 - 기계공구","category":"other"}]},{"lat":"37.839306343","long":"127.17488969","imageIndex":17,"items":[{"name":"동원볼트","tel":"031-543-2930","addr":"경기도 포천시 가산면 방축리 138-10번지","indutype":"기타 - 기계공구","category":"other"},{"name":"우리 원통 연마","tel":"031-543-7791","addr":"경기도 포천시 가산면 방축리 138-10번지","indutype":"건축자재 - 목재·석재·철물","category":"other"}]},{"lat":"37.838867146","long":"127.17333231","imageIndex":17,"items":[{"name":"두남공업","tel":"031-543-9876","addr":"경기도 포천시 가산면 방축리 115-1","indutype":"기타 - 기계공구","category":"other"}]},{"lat":"37.836144295","long":"127.16188662","imageIndex":17,"items":[{"name":"명가하우징","tel":"031-543-2382","addr":"경기도 포천시 가산면 방축리 939-1번지","indutype":"건축자재 - 기타건축자재","category":"other"}]},{"lat":"37.836139446","long":"127.15877399","imageIndex":17,"items":[{"name":"민들레농원","tel":"","addr":"경기도 포천시 가산면 방축리 891번지","indutype":"농업 - 비료,사료,종자","category":"other"}]},{"lat":"37.840614931","long":"127.17335905","imageIndex":17,"items":[{"name":"삼성포장","tel":"031-544-4072","addr":"경기도 포천시 가산면 방축리 134-8번지","indutype":"유통업 영리 - 기타유통업","category":"other"}]},{"lat":"37.838286384","long":"127.16347029","imageIndex":17,"items":[{"name":"삼일산업","tel":"031-6745-3131","addr":"경기도 포천시 가산면 방축리 489-1번지","indutype":"전기제품 - 기타전기제품","category":"other"},{"name":"새얀가구장식","tel":"031-541-2185","addr":"경기도 포천시 가산면 방축리 489-1","indutype":"건축자재 - 목재·석재·철물","category":"other"},{"name":"신한가구장식","tel":"031-542-5442","addr":"경기도 포천시 가산면 방축리 489-1번지","indutype":"가구 - 일반가구","category":"other"},{"name":"제일발효산업","tel":"031-542-8776","addr":"경기도 포천시 가산면 방축리 489-1","indutype":"농업 - 기타농업관련","category":"other"}]},{"lat":"37.837118823","long":"127.17978079","imageIndex":17,"items":[{"name":"서호산업","tel":"031-543-3077","addr":"경기도 포천시 가산면 방축리 73번지","indutype":"가구 - 일반가구","category":"other"}]},{"lat":"37.843199376","long":"127.18030656","imageIndex":17,"items":[{"name":"선진천막사","tel":"031-544-4120","addr":"경기도 포천시 가산면 방축리 12-3","indutype":"직물 - 카페트,커튼,천막,지물","category":"other"}]},{"lat":"37.838480786","long":"127.17875026","imageIndex":17,"items":[{"name":"성도상사","tel":"031-542-0830","addr":"경기도 포천시 가산면 방축리 56","indutype":"유통업 영리 - 기타유통업","category":"other"}]},{"lat":"37.832617377","long":"127.15831221","imageIndex":17,"items":[{"name":"성은아트","tel":"","addr":"경기도 포천시 가산면 방축리 672-1번지","indutype":"용역 서비스 - 기타용역서비스","category":"other"}]},{"lat":"37.835917625","long":"127.15617212","imageIndex":17,"items":[{"name":"성화에스티","tel":"031-544-8365","addr":"경기도 포천시 가산면 방축리 650-4번지","indutype":"기타 - 기계공구","category":"other"},{"name":"최고금속","tel":"031-542-4882","addr":"경기도 포천시 가산면 방축리 650-4 648-2","indutype":"건축자재 - 기타건축자재","category":"other"}]},{"lat":"37.837728514","long":"127.16294651","imageIndex":17,"items":[{"name":"송우어닝천막","tel":"031-543-6510","addr":"경기도 포천시 가산면 방축리 492-4","indutype":"직물 - 카페트,커튼,천막,지물","category":"other"},{"name":"한국K히타","tel":"031-543-2335","addr":"경기도 포천시 가산면 방축리 492-4","indutype":"전기제품 - 냉열기기","category":"other"}]},{"lat":"37.840284199","long":"127.17772073","imageIndex":17,"items":[{"name":"신라공인중개사사무소","tel":"","addr":"경기도 포천시 가산면 방축리 43-3","indutype":"용역 서비스 - 부동산 중개·임대","category":"other"},{"name":"신화테크","tel":"031-543-0998","addr":"경기도 포천시 가산면 방축리 43-3번지","indutype":"기타 - 기계공구","category":"other"},{"name":"제일안전산업","tel":"031-543-7957","addr":"경기도 포천시 가산면 방축리 43-3번지","indutype":"기타 - 기계공구","category":"other"}]},{"lat":"37.83769883","long":"127.16488903","imageIndex":17,"items":[{"name":"신안 와이어컷팅","tel":"031-556-5503","addr":"경기도 포천시 가산면 방축리 484-4번지","indutype":"기타 - 기계공구","category":"other"}]},{"lat":"37.838141071","long":"127.1576081","imageIndex":17,"items":[{"name":"신영안전","tel":"070-7718-2287","addr":"경기도 포천시 가산면 방축리 870번지","indutype":"용역 서비스 - 기타용역서비스","category":"other"}]},{"lat":"37.8389759","long":"127.16652771","imageIndex":17,"items":[{"name":"씨유가산본점","tel":"031-542-3303","addr":"경기도 포천시 가산면 방축리 400-1번지 1층","indutype":"유통업 영리 - 편 의 점","category":"other"}]},{"lat":"37.839063653","long":"127.17450287","imageIndex":17,"items":[{"name":"씨유포천화산점","tel":"031-543-1641","addr":"경기도 포천시 가산면 방축리 140-7번지","indutype":"유통업 영리 - 편 의 점","category":"other"}]},{"lat":"37.838282701","long":"127.17252438","imageIndex":17,"items":[{"name":"에디션우드","tel":"","addr":"경기도 포천시 가산면 방축리 109-11번지","indutype":"가구 - 일반가구","category":"other"}]},{"lat":"37.841503408","long":"127.16947573","imageIndex":17,"items":[{"name":"영상정보시스템","tel":"031-544-9247","addr":"경기도 포천시 가산면 방축리 309-4","indutype":"전기제품 - 기타전기제품","category":"other"},{"name":"주식회사거성","tel":"031-542-8220","addr":"경기도 포천시 가산면 방축리 309-4","indutype":"용역 서비스 - 기타용역서비스","category":"other"}]},{"lat":"37.83780818","long":"127.17044439","imageIndex":17,"items":[{"name":"오성전기","tel":"031-571-5608","addr":"경기도 포천시 가산면 방축리 360-1번지","indutype":"전기제품 - 기타전기제품","category":"other"},{"name":"진원벤딩","tel":"031-541-0462","addr":"경기도 포천시 가산면 방축리 360-1번지","indutype":"기타 - 기계공구","category":"other"}]},{"lat":"37.838224303","long":"127.16925251","imageIndex":17,"items":[{"name":"요첸쑤","tel":"031-544-4150","addr":"경기도 포천시 가산면 방축리 362-14번지","indutype":"가구 - 일반가구","category":"other"}]},{"lat":"37.841534061","long":"127.17935963","imageIndex":17,"items":[{"name":"우원기계","tel":"031-543-9738","addr":"경기도 포천시 가산면 방축리 14-9번지 A동","indutype":"수리서비스 - 기타수리서비스","category":"other"}]},{"lat":"37.839144373","long":"127.17475299","imageIndex":17,"items":[{"name":"유니스 피오피 (유니's POP)","tel":"","addr":"경기도 포천시 가산면 방축리 139-7번지","indutype":"건축자재 - 인테리어전문","category":"other"}]},{"lat":"37.839450058","long":"127.16891445","imageIndex":17,"items":[{"name":"이앤아이 국제특허법률사무소","tel":"031-544-8530","addr":"경기도 포천시 가산면 방축리 383-4번지","indutype":"용역 서비스 - 법률회계서비스(개인)","category":"other"}]},{"lat":"37.836557711","long":"127.16263726","imageIndex":17,"items":[{"name":"장인건설 공인중개사무소","tel":"543-2350","addr":"경기도 포천시 가산면 방축리 441-1번지","indutype":"부동산 - 부동산중개업","category":"other"}]},{"lat":"37.841116246","long":"127.16930444","imageIndex":17,"items":[{"name":"재영정밀","tel":"031-541-8885","addr":"경기도 포천시 가산면 방축리 336-3번지","indutype":"기타 - 기계공구","category":"other"}]},{"lat":"37.839146108","long":"127.17356016","imageIndex":17,"items":[{"name":"정원기계","tel":"031-542-5254","addr":"경기도 포천시 가산면 방축리 131번지","indutype":"수리서비스 - 기타수리서비스","category":"other"}]},{"lat":"37.840254969","long":"127.17919754","imageIndex":17,"items":[{"name":"주식회사 유진씨엔씨","tel":"02-584-1041","addr":"경기도 포천시 가산면 방축리 35번지","indutype":"건축자재 - 기타건축자재","category":"other"}]},{"lat":"37.841311135","long":"127.16522639","imageIndex":17,"items":[{"name":"주식회사 이동중기산업","tel":"031-534-6283","addr":"경기도 포천시 가산면 방축리 533-4번지","indutype":"기타 - 기계공구","category":"other"}]},{"lat":"37.846112265","long":"127.17224692","imageIndex":17,"items":[{"name":"주식회사 효정글러브","tel":"070-4216-4980","addr":"경기도 포천시 가산면 방축리 173번지","indutype":"신변잡화 - 기타잡화","category":"other"}]},{"lat":"37.838555376","long":"127.16441377","imageIndex":17,"items":[{"name":"준씨엔씨","tel":"031-544-8434","addr":"경기도 포천시 가산면 방축리 528번지 가동 1층","indutype":"기타 - 기계공구","category":"other"}]},{"lat":"37.838227572","long":"127.17938583","imageIndex":17,"items":[{"name":"지승산업","tel":"031-543-9990","addr":"경기도 포천시 가산면 방축리 70번지","indutype":"의류 - 기타의류","category":"other"}]},{"lat":"37.844839202","long":"127.17414134","imageIndex":17,"items":[{"name":"포천생활가구협동조합","tel":"031-535-6945","addr":"경기도 포천시 가산면 방축리 181-10번지","indutype":"가구 - 일반가구","category":"other"}]},{"lat":"37.844338565","long":"127.16502853","imageIndex":17,"items":[{"name":"풍농원","tel":"031-543-3657","addr":"경기도 포천시 가산면 방축리 583-5번지","indutype":"농업 - 비료,사료,종자","category":"other"}]},{"lat":"37.837503804","long":"127.16255978","imageIndex":17,"items":[{"name":"프로세차장","tel":"532-6878","addr":"경기도 포천시 가산면 방축리 493-1번지","indutype":"서비스 - 세차장","category":"other"}]},{"lat":"37.839397009","long":"127.16819862","imageIndex":17,"items":[{"name":"한빛레이저","tel":"031-543-0887","addr":"경기도 포천시 가산면 방축리 383-8번지 106호","indutype":"용역 서비스 - 기타용역서비스","category":"other"}]},{"lat":"37.838285758","long":"127.17038867","imageIndex":17,"items":[{"name":"현대정밀","tel":"031-543-7410","addr":"경기도 포천시 가산면 방축리 356-3번지","indutype":"기타 - 기계공구","category":"other"}]},{"lat":"37.842528556","long":"127.17082998","imageIndex":17,"items":[{"name":"화영섬유","tel":"","addr":"경기도 포천시 가산면 방축리 329-2번지","indutype":"직물 - 옷감·직물","category":"other"}]},{"lat":"37.836557711","long":"127.16263726","imageIndex":7,"items":[{"name":"rainbow마트","tel":"","addr":"경기도 포천시 가산면 방축리 441-1번지","indutype":"유통업 영리 - 슈퍼마켓","category":"mart"},{"name":"rainbow마트","tel":"544-8845","addr":"경기도 포천시 가산면 방축리 441-1번지","indutype":"소매업 - 마트","category":"mart"}]},{"lat":"37.841034728","long":"127.169611","imageIndex":7,"items":[{"name":"동방축슈퍼","tel":"542-0897","addr":"경기도 포천시 가산면 방축리 335번지","indutype":"소매업 - 슈퍼","category":"mart"},{"name":"동방축슈퍼","tel":"031-542-0897","addr":"경기도 포천시 가산면 방축리 335번지","indutype":"유통업 영리 - 슈퍼마켓","category":"mart"}]},{"lat":"37.839450058","long":"127.16891445","imageIndex":7,"items":[{"name":"방축리편의점","tel":"070-8955-3096","addr":"경기도 포천시 가산면 방축리 383-4번지","indutype":"유통업 영리 - 슈퍼마켓","category":"mart"}]},{"lat":"37.838034153","long":"127.16344702","imageIndex":0,"items":[{"name":"㈜오토프로","tel":"541-1487","addr":"경기도 포천시 가산면 방축리 490-7번지","indutype":"서비스 - 자동차수리","category":"car"},{"name":"주식회사 오토프로","tel":"031-541-1487","addr":"경기도 포천시 가산면 방축리 490-7번지","indutype":"자동차정비 유지 - 자동차정비","category":"car"}]},{"lat":"37.837728514","long":"127.16294651","imageIndex":0,"items":[{"name":"가산윤활유","tel":"031-542-5798","addr":"경기도 포천시 가산면 방축리 492-4번지","indutype":"자동차정비 유지 - 윤활유 전문 판매","category":"car"}]},{"lat":"37.836918717","long":"127.16217228","imageIndex":0,"items":[{"name":"경기카센타","tel":"031-542-1871","addr":"경기도 포천시 가산면 방축리 501번지","indutype":"자동차정비 유지 - 자동차정비","category":"car"}]},{"lat":"37.839089058","long":"127.16935669","imageIndex":0,"items":[{"name":"극동밧데리","tel":"031-542-1702","addr":"경기도 포천시 가산면 방축리 362-1","indutype":"자동차정비 유지 - 자동차정비","category":"car"}]},{"lat":"37.83961617","long":"127.17247064","imageIndex":0,"items":[{"name":"디에스정공(주)","tel":"031-534-4923","addr":"경기도 포천시 가산면 방축리 130번지","indutype":"자동차판매 - 기타운송","category":"car"}]},{"lat":"37.839560782","long":"127.16705159","imageIndex":0,"items":[{"name":"메인텍","tel":"031-542-5720","addr":"경기도 포천시 가산면 방축리 398","indutype":"자동차정비 유지 - 자동차부품","category":"car"}]},{"lat":"37.837753573","long":"127.1643893","imageIndex":0,"items":[{"name":"이우자동차공업사","tel":"542-5879","addr":"경기도 포천시 가산면 방축리 484-2번지","indutype":"서비스 - 자동차 수리","category":"car"}]},{"lat":"37.837500702","long":"127.1648318","imageIndex":0,"items":[{"name":"이우카써비스","tel":"031-542-5879","addr":"경기도 포천시 가산면 방축리 484번지","indutype":"자동차정비 유지 - 자동차정비","category":"car"}]},{"lat":"37.843199376","long":"127.18030656","imageIndex":0,"items":[{"name":"자동차꾸미기","tel":"031-543-3903","addr":"경기도 포천시 가산면 방축리 12-3번지","indutype":"자동차정비 유지 - 자동차부품","category":"car"}]},{"lat":"37.842532683","long":"127.18030496","imageIndex":0,"items":[{"name":"제일카센타","tel":"031-544-9553","addr":"경기도 포천시 가산면 방축리 13-2번지","indutype":"자동차정비 유지 - 자동차정비","category":"car"}]},{"lat":"37.838535558","long":"127.16572016","imageIndex":0,"items":[{"name":"차차2급정비공업사","tel":"031-544-8929","addr":"경기도 포천시 가산면 방축리 401-12번지","indutype":"자동차정비 유지 - 자동차시트·타이어","category":"car"},{"name":"차차2급정비공업사","tel":"031-544-8929","addr":"경기도 포천시 가산면 방축리 401-12번지","indutype":"자동차정비 유지 - 자동차시트·타이어","category":"car"}]},{"lat":"37.838285758","long":"127.17038867","imageIndex":0,"items":[{"name":"포천상사","tel":"031-542-5488","addr":"경기도 포천시 가산면 방축리 356-3번지","indutype":"자동차정비 유지 - 자동차부품","category":"car"}]},{"lat":"37.839836931","long":"127.17554983","imageIndex":0,"items":[{"name":"풍양카센타","tel":"031-544-9535","addr":"경기도 포천시 가산면 방축리 144-11","indutype":"자동차정비 유지 - 자동차정비","category":"car"}]},{"lat":"37.837503804","long":"127.16255978","imageIndex":0,"items":[{"name":"프로세차장","tel":"031-532-6878","addr":"경기도 포천시 가산면 방축리 493-1번지","indutype":"자동차정비 유지 - 세차장","category":"car"}]},{"lat":"37.839807846","long":"127.1769471","imageIndex":0,"items":[{"name":"한신공압콤푸레샤","tel":"031-541-3306","addr":"경기도 포천시 가산면 방축리 44-20번지","indutype":"자동차정비 유지 - 자동차부품","category":"car"}]},{"lat":"37.837561627","long":"127.1788844","imageIndex":4,"items":[{"name":"개성","tel":"031-543-2933","addr":"경기도 포천시 가산면 방축리 77번지","indutype":"일반휴게음식 - 일반한식","category":"restaurant"}]},{"lat":"37.838505849","long":"127.17396765","imageIndex":4,"items":[{"name":"고향집","tel":"031-542-9114","addr":"경기도 포천시 가산면 방축리 113-2번지","indutype":"일반휴게음식 - 일반한식","category":"restaurant"}]},{"lat":"37.836918717","long":"127.16217228","imageIndex":4,"items":[{"name":"구이랑찌게랑","tel":"031-542-8628","addr":"경기도 포천시 가산면 방축리 501","indutype":"일반휴게음식 - 일반한식","category":"restaurant"},{"name":"돌솥생선구이","tel":"031-543-2180","addr":"경기도 포천시 가산면 방축리 501","indutype":"일반휴게음식 - 일반한식","category":"restaurant"}]},{"lat":"37.839341766","long":"127.17531011","imageIndex":4,"items":[{"name":"까망깨돈","tel":"541-9273","addr":"경기도 포천시 가산면 방축리 138-5번지","indutype":"음식 - 한식","category":"restaurant"},{"name":"까망깨돈(식당)","tel":"031-541-9274","addr":"경기도 포천시 가산면 방축리 138-5번지","indutype":"일반휴게음식 - 일반한식","category":"restaurant"}]},{"lat":"37.840284199","long":"127.17772073","imageIndex":4,"items":[{"name":"두껍바위소머리국밥","tel":"031-543-8884","addr":"경기도 포천시 가산면 방축리 43-3번지","indutype":"일반휴게음식 - 일반한식","category":"restaurant"}]},{"lat":"37.836557711","long":"127.16263726","imageIndex":4,"items":[{"name":"리코커피","tel":"031-543-2350","addr":"경기도 포천시 가산면 방축리 441-1번지 가동 1층","indutype":"일반휴게음식 - 서양음식","category":"restaurant"},{"name":"리코커피","tel":"542-5754","addr":"경기도 포천시 가산면 방축리 441-1번지 가동 1층","indutype":"음식 - 커피 등","category":"restaurant"},{"name":"이화정능이백숙","tel":"031-544-4843","addr":"경기도 포천시 가산면 방축리 441-1번지","indutype":"일반휴게음식 - 일반한식","category":"restaurant"},{"name":"이화정능이백숙","tel":"544-4843","addr":"경기도 포천시 가산면 방축리 441-1번지","indutype":"음식 - 한식","category":"restaurant"}]},{"lat":"37.839450058","long":"127.16891445","imageIndex":4,"items":[{"name":"목포인삼생선구이","tel":"031-544-0671","addr":"경기도 포천시 가산면 방축리 383-4번지","indutype":"일반휴게음식 - 일반한식","category":"restaurant"},{"name":"웰빙보리밥","tel":"001-0000-0000","addr":"경기도 포천시 가산면 방축리 383-4번지","indutype":"일반휴게음식 - 일반한식","category":"restaurant"},{"name":"웰빙부페","tel":"031-543-9235","addr":"경기도 포천시 가산면 방축리 383-4번지","indutype":"일반휴게음식 - 일반한식","category":"restaurant"},{"name":"웰빙부페","tel":"542-9235","addr":"경기도 포천시 가산면 방축리 383-4번지 1층","indutype":"음식 - 한식","category":"restaurant"},{"name":"호식이두마리치킨포천가산점","tel":"031-543-9924","addr":"경기도 포천시 가산면 방축리 383-4번지 1층","indutype":"일반휴게음식 - 스넥","category":"restaurant"},{"name":"호식이두마리치킨포천가산점","tel":"543-9924","addr":"경기도 포천시 가산면 방축리 383-4번지 1층","indutype":"음식 - 치킨","category":"restaurant"}]},{"lat":"37.838033097","long":"127.16421951","imageIndex":4,"items":[{"name":"미소담은 밥상","tel":"070-7543-8760","addr":"경기도 포천시 가산면 방축리 490-1번지","indutype":"음식 - 한식","category":"restaurant"},{"name":"미소담은밥상","tel":"070-7543-8760","addr":"경기도 포천시 가산면 방축리 490-1번지","indutype":"일반휴게음식 - 일반한식","category":"restaurant"},{"name":"항아리동치미국수","tel":"542-4506","addr":"경기도 포천시 가산면 방축리 490-1번지","indutype":"음식 - 한식","category":"restaurant"},{"name":"항아리동치미국수","tel":"542-4506","addr":"경기도 포천시 가산면 방축리 490-1번지","indutype":"음식 - 한식","category":"restaurant"}]},{"lat":"37.837950063","long":"127.17819235","imageIndex":4,"items":[{"name":"방축리식당","tel":"543-4822","addr":"경기도 포천시 가산면 방축리 82-4번지","indutype":"음식 - 한식","category":"restaurant"},{"name":"방축리식당","tel":"031-543-4822","addr":"경기도 포천시 가산면 방축리 82-4번지","indutype":"일반휴게음식 - 일반한식","category":"restaurant"}]},{"lat":"37.837753573","long":"127.1643893","imageIndex":4,"items":[{"name":"버들집","tel":"031-543-0177","addr":"경기도 포천시 가산면 방축리 484-2번지 1층","indutype":"일반휴게음식 - 일반한식","category":"restaurant"}]},{"lat":"37.839945975","long":"127.1749139","imageIndex":4,"items":[{"name":"보궁중화","tel":"031-542-2847","addr":"경기도 포천시 가산면 방축리 144-14번지 2층","indutype":"일반휴게음식 - 중국식","category":"restaurant"},{"name":"보궁중화","tel":"542-2847","addr":"경기도 포천시 가산면 방축리 144-14번지 2층","indutype":"음식 - 중식","category":"restaurant"}]},{"lat":"37.842532683","long":"127.18030496","imageIndex":4,"items":[{"name":"수원왕돼지갈비","tel":"031-543-3376","addr":"경기도 포천시 가산면 방축리 13-2번지","indutype":"일반휴게음식 - 일반한식","category":"restaurant"},{"name":"수원왕돼지갈비","tel":"543-3376","addr":"경기도 포천시 가산면 방축리 13-2번지","indutype":"음식 - 한식","category":"restaurant"}]},{"lat":"37.839917282","long":"127.17604988","imageIndex":4,"items":[{"name":"순두부우렁쌈밥 산들애","tel":"031-543-2893","addr":"경기도 포천시 가산면 방축리 144-5번지","indutype":"일반휴게음식 - 일반한식","category":"restaurant"},{"name":"순두부우렁쌈밥 산들애","tel":"543-2893","addr":"경기도 포천시 가산면 방축리 144-5번지","indutype":"음식 - 한식","category":"restaurant"}]},{"lat":"37.839807846","long":"127.1769471","imageIndex":4,"items":[{"name":"아리랑순대국감자탕(포천점)","tel":"542-1102","addr":"경기도 포천시 가산면 방축리 44-20번지","indutype":"음식 - 한식","category":"restaurant"}]},{"lat":"37.838946664","long":"127.17441172","imageIndex":4,"items":[{"name":"엄마밥상","tel":"031-543-8584","addr":"경기도 포천시 가산면 방축리 140-8","indutype":"일반휴게음식 - 일반한식","category":"restaurant"},{"name":"엄마밥상","tel":"543-8584","addr":"경기도 포천시 가산면 방축리 140-8번지","indutype":"음식 - 한식","category":"restaurant"}]},{"lat":"37.838781064","long":"127.17675156","imageIndex":4,"items":[{"name":"오케이(OK) 능이마을","tel":"031-543-8080","addr":"경기도 포천시 가산면 방축리 141번지","indutype":"일반휴게음식 - 일반한식","category":"restaurant"}]},{"lat":"37.83769883","long":"127.16488903","imageIndex":4,"items":[{"name":"올갱이해장국","tel":"542-6323","addr":"경기도 포천시 가산면 방축리 484-4번지 1층","indutype":"음식 - 한식","category":"restaurant"}]},{"lat":"37.839306343","long":"127.17488969","imageIndex":4,"items":[{"name":"은미랑은하랑","tel":"070-4156-8699","addr":"경기도 포천시 가산면 방축리 138-10","indutype":"일반휴게음식 - 일반한식","category":"restaurant"}]},{"lat":"37.838670228","long":"127.16606127","imageIndex":4,"items":[{"name":"이필승김치두루찌개","tel":"031-541-1789","addr":"경기도 포천시 가산면 방축리 401-11번지","indutype":"일반휴게음식 - 일반한식","category":"restaurant"},{"name":"이필승김치두루찌개","tel":"541-1789","addr":"경기도 포천시 가산면 방축리 401-11번지","indutype":"음식 - 한식","category":"restaurant"}]},{"lat":"37.837728514","long":"127.16294651","imageIndex":4,"items":[{"name":"장가네식당","tel":"031-544-7678","addr":"경기도 포천시 가산면 방축리 492-4번지 1층 107호","indutype":"일반휴게음식 - 일반한식","category":"restaurant"}]},{"lat":"37.841534061","long":"127.17935963","imageIndex":4,"items":[{"name":"최고의닭발야식","tel":"031-542-3066","addr":"경기도 포천시 가산면 방축리 14-9번지 A동","indutype":"일반휴게음식 - 일반한식","category":"restaurant"},{"name":"화봉식당","tel":"542-5155","addr":"경기도 포천시 가산면 방축리 14-9번지 A동1층","indutype":"음식 - 한식","category":"restaurant"}]},{"lat":"37.840725776","long":"127.17764225","imageIndex":4,"items":[{"name":"황제식당","tel":"031-544-0683","addr":"경기도 포천시 가산면 방축리 26-1번지","indutype":"일반휴게음식 - 서양음식","category":"restaurant"},{"name":"황제식당","tel":"544-0683","addr":"경기도 포천시 가산면 방축리 26-1번지","indutype":"음식 - 한식","category":"restaurant"}]},{"lat":"37.839341766","long":"127.17531011","imageIndex":7,"items":[{"name":"까망깨돈(정육)","tel":"031-541-9273","addr":"경기도 포천시 가산면 방축리 138-5번지","indutype":"음료식품 - 정육점","category":"food"}]},{"lat":"37.838889829","long":"127.17630876","imageIndex":7,"items":[{"name":"농가식품","tel":"031-543-7234","addr":"경기도 포천시 가산면 방축리 141-8번지","indutype":"음료식품 - 기타음료식품","category":"food"}]},{"lat":"37.841749945","long":"127.17958736","imageIndex":7,"items":[{"name":"돈카츠정","tel":"","addr":"경기도 포천시 가산면 방축리 14-8번지","indutype":"음료식품 - 기타음료식품","category":"food"}]},{"lat":"37.840284199","long":"127.17772073","imageIndex":7,"items":[{"name":"솔밭상회","tel":"031-543-6711","addr":"경기도 포천시 가산면 방축리 43-3번지","indutype":"음료식품 - 기타음료식품","category":"food"}]},{"lat":"37.842112728","long":"127.17180606","imageIndex":7,"items":[{"name":"은바이오","tel":"031-532-4577","addr":"경기도 포천시 가산면 방축리 157-4번지","indutype":"음료식품 - 기타음료식품","category":"food"}]},{"lat":"37.836084032","long":"127.16641909","imageIndex":7,"items":[{"name":"태왕","tel":"031-543-1950","addr":"경기도 포천시 가산면 방축리 436-3번지","indutype":"음료식품 - 제과점","category":"food"}]},{"lat":"37.837670316","long":"127.17849842","imageIndex":7,"items":[{"name":"홍천상회","tel":"031-544-2181","addr":"경기도 포천시 가산면 방축리 81-1번지","indutype":"음료식품 - 기타음료식품","category":"food"}]},{"lat":"37.84000679","long":"127.1764477","imageIndex":5,"items":[{"name":"더블유모텔","tel":"031-542-3242","addr":"경기도 포천시 가산면 방축리 144-3번지","indutype":"숙박업 - 여관/기타숙박업","category":"hotel"}]},{"lat":"37.841534061","long":"127.17935963","imageIndex":13,"items":[{"name":"신나라노래연습장","tel":"031-859-6667","addr":"경기도 포천시 가산면 방축리 14-9번지","indutype":"레저업소 - 노 래 방","category":"leisure"}]},{"lat":"37.840780488","long":"127.17719932","imageIndex":16,"items":[{"name":"천사어린이집[아이행복]","tel":"031-544-1794","addr":"경기도 포천시 가산면 방축리 24-1","indutype":"학원 - 유아원","category":"study"}]},{"lat":"37.836335995","long":"127.16663548","imageIndex":16,"items":[{"name":"한국치매예방놀이연구소","tel":"","addr":"경기도 포천시 가산면 방축리 434-1번지","indutype":"학원 - 기타 교육기관","category":"study"}]},{"lat":"37.837862866","long":"127.16352617","imageIndex":9,"items":[{"name":"청호에너지","tel":"542-4540","addr":"경기도 포천시 가산면 방축리 491-1번지","indutype":"도소매 - 주유소","category":"oil"},{"name":"청호에너지주식회사","tel":"031-542-4540","addr":"경기도 포천시 가산면 방축리 491-1번지","indutype":"연료판매점 - SK주유소","category":"oil"}]}]