[{"lat":"37.004689742","long":"126.96515482","imageIndex":4,"items":[{"name":"가보푸드","tel":"","addr":"경기도 평택시 오성면 죽리 156-7번지","indutype":"일반휴게음식 - 일반한식","category":"restaurant"}]},{"lat":"37.007215967","long":"126.97726532","imageIndex":4,"items":[{"name":"가봉루","tel":"031-682-8830","addr":"경기도 평택시 오성면 죽리 67-11","indutype":"일반휴게음식 - 중국식","category":"restaurant"}]},{"lat":"37.007736536","long":"126.96907449","imageIndex":4,"items":[{"name":"고덕복집오성점","tel":"031-681-3053","addr":"경기도 평택시 오성면 죽리 1-2번지 평택시죽리평택휴게소 A동 1층","indutype":"일반휴게음식 - 일반한식","category":"restaurant"},{"name":"양평해장국(오성점)","tel":"031-111-1111","addr":"경기도 평택시 오성면 죽리 1-2번지","indutype":"일반휴게음식 - 일반한식","category":"restaurant"},{"name":"오성동태탕","tel":"031-684-7166","addr":"경기도 평택시 오성면 죽리 1-2번지","indutype":"일반휴게음식 - 일반한식","category":"restaurant"},{"name":"착한곰탕","tel":"","addr":"경기도 평택시 오성면 죽리 1-2번지 평택시죽리평택휴게소 D동 1층","indutype":"일반휴게음식 - 일반한식","category":"restaurant"},{"name":"큰집한식뷔페","tel":"031-683-8252","addr":"경기도 평택시 오성면 죽리 1-2번지 A동 1층(평택시죽리평택휴게소)","indutype":"일반휴게음식 - 일반한식","category":"restaurant"},{"name":"해운대신동태탕","tel":"031-681-8929","addr":"경기도 평택시 오성면 죽리 1-2번지 평택시죽리평택휴게소 A동 1층","indutype":"음식점 - 한식","category":"restaurant"}]},{"lat":"37.007430981","long":"126.97204078","imageIndex":4,"items":[{"name":"김재철순대국","tel":"031-684-6250","addr":"경기도 평택시 오성면 죽리 7-6번지 103동 105호","indutype":"일반휴게음식 - 일반한식","category":"restaurant"},{"name":"김재철순대국","tel":"031-681-4777","addr":"경기도 평택시 오성면 죽리 7-6번지","indutype":"음식점 - 한식","category":"restaurant"},{"name":"장어촌","tel":"031-663-0592","addr":"경기도 평택시 오성면 죽리 7-6번지","indutype":"일반휴게음식 - 일반한식","category":"restaurant"},{"name":"장어촌","tel":"031-683-7500","addr":"경기도 평택시 오성면 죽리 7-6번지","indutype":"음식점 - 한식","category":"restaurant"},{"name":"코바코돈가스평택오성점","tel":"031-682-8882","addr":"경기도 평택시 오성면 죽리 7-6번지","indutype":"일반휴게음식 - 서양음식","category":"restaurant"}]},{"lat":"37.004878663","long":"126.96421098","imageIndex":4,"items":[{"name":"돼지꿈","tel":"031-683-2231","addr":"경기도 평택시 오성면 죽리 157-19번지","indutype":"일반휴게음식 - 일반한식","category":"restaurant"}]},{"lat":"37.008214983","long":"126.97232135","imageIndex":4,"items":[{"name":"서남기사식당(안중점)","tel":"031-683-0266","addr":"경기도 평택시 오성면 죽리 10-12","indutype":"일반휴게음식 - 일반한식","category":"restaurant"}]},{"lat":"37.006799558","long":"126.96954679","imageIndex":4,"items":[{"name":"숯불구이밥상","tel":"031-681-9493","addr":"경기도 평택시 오성면 죽리 7-15번지","indutype":"일반휴게음식 - 일반한식","category":"restaurant"}]},{"lat":"37.007709844","long":"126.97028793","imageIndex":4,"items":[{"name":"아방궁정통중화요리","tel":"031-655-8980","addr":"경기도 평택시 오성면 죽리 1-6번지 아카리오스빌딩 1층 103호 104호","indutype":"일반휴게음식 - 중국식","category":"restaurant"},{"name":"커피상점(오성점)","tel":"070-8848-4591","addr":"경기도 평택시 오성면 죽리 1-6번지 상가 1층 108호","indutype":"일반휴게음식 - 서양음식","category":"restaurant"}]},{"lat":"37.006438188","long":"126.9663449","imageIndex":4,"items":[{"name":"오성곱창","tel":"031-684-7166","addr":"경기도 평택시 오성면 죽리 148-15번지","indutype":"음식점 - 한식","category":"restaurant"},{"name":"오성곱창","tel":"031-618-8850","addr":"경기도 평택시 오성면 죽리 148-15번지","indutype":"일반휴게음식 - 일반한식","category":"restaurant"}]},{"lat":"37.005410472","long":"126.96476123","imageIndex":4,"items":[{"name":"일품생고기두루치기","tel":"031-681-2616","addr":"경기도 평택시 오성면 죽리 155-10번지","indutype":"일반휴게음식 - 일반한식","category":"restaurant"}]},{"lat":"37.00734974","long":"126.97149027","imageIndex":4,"items":[{"name":"죽리정육식당","tel":"031-686-6840","addr":"경기도 평택시 오성면 죽리 7-7번지","indutype":"일반휴게음식 - 일반한식","category":"restaurant"},{"name":"죽리정육식당","tel":"031-686-6840","addr":"경기도 평택시 오성면 죽리 7-7번지","indutype":"음식점 - 한식","category":"restaurant"}]}]