[{"lat":"37.945293126","long":"126.83799945","imageIndex":17,"items":[{"name":"가람싱크","tel":"031-958-6684","addr":"경기도 파주시 파평면 장파리 377-12번지","indutype":"주방용구 - 주방용구","category":"other"}]},{"lat":"37.950898688","long":"126.84591708","imageIndex":17,"items":[{"name":"나무꾼","tel":"031-958-5331","addr":"경기도 파주시 파평면 장파리 230-2번지","indutype":"용역 서비스 - 기타용역서비스","category":"other"}]},{"lat":"37.937957029","long":"126.836173","imageIndex":17,"items":[{"name":"명성건재","tel":"031-958-3117","addr":"경기도 파주시 파평면 장파리 337-2번지","indutype":"건축자재 - 건축용 요업제품","category":"other"}]},{"lat":"37.944481434","long":"126.83738693","imageIndex":17,"items":[{"name":"씨스페이스 파평점","tel":"","addr":"경기도 파주시 파평면 장파리 370-52번지","indutype":"유통업 영리 - 편 의 점","category":"other"}]},{"lat":"37.94448089","long":"126.83700013","imageIndex":17,"items":[{"name":"에스엠금속","tel":"031-945-9498","addr":"경기도 파주시 파평면 장파리 370-192번지","indutype":"건축자재 - 기타건축자재","category":"other"}]},{"lat":"37.945620745","long":"126.86127553","imageIndex":17,"items":[{"name":"유성종묘사","tel":"031-958-3249","addr":"경기도 파주시 파평면 장파리 46번지","indutype":"농업 - 비료,사료,종자","category":"other"}]},{"lat":"37.945183961","long":"126.83724884","imageIndex":17,"items":[{"name":"장마루","tel":"031-959-3379","addr":"경기도 파주시 파평면 장파리 371-8번지","indutype":"유통업 영리 - 편 의 점","category":"other"}]},{"lat":"37.946510006","long":"126.83845181","imageIndex":17,"items":[{"name":"중앙공업사","tel":"031-985-4168","addr":"경기도 파주시 파평면 장파리 1리 397-34","indutype":"용역 서비스 - 기타용역서비스","category":"other"}]},{"lat":"37.946598966","long":"126.83764385","imageIndex":17,"items":[{"name":"파주양봉연구소","tel":"031-954-1153","addr":"경기도 파주시 파평면 장파리 399-26번지","indutype":"농업 - 기타농업관련","category":"other"}]}]