[{"lat":"37.969154954","long":"126.95193194","imageIndex":13,"items":[{"name":"감악산 영농조합법인","tel":"031-958-6572","addr":"경기도 파주시 적성면 객현리 207-7번지","indutype":"레저업소 - 기타레져업소","category":"leisure"}]},{"lat":"37.97656466","long":"126.94171759","imageIndex":17,"items":[{"name":"객현휴게소","tel":"031-944-4020","addr":"경기도 파주시 적성면 객현리 497-5번지","indutype":"신변잡화 - 기타잡화","category":"other"},{"name":"세븐일레븐파주객현점","tel":"031-1577-0711","addr":"경기도 파주시 적성면 객현리 497-5번지","indutype":"유통업 영리 - 편 의 점","category":"other"}]},{"lat":"37.959183638","long":"126.95649036","imageIndex":17,"items":[{"name":"라스루시다(RATHLUCIDA)","tel":"","addr":"경기도 파주시 적성면 객현리 62번지","indutype":"문화.취미 - 애완동물","category":"other"}]},{"lat":"37.959346225","long":"126.95757125","imageIndex":17,"items":[{"name":"이엠볼 (Emball)","tel":"031-734-6135","addr":"경기도 파주시 적성면 객현리 67-9번지","indutype":"신변잡화 - 기타잡화","category":"other"}]},{"lat":"37.976511595","long":"126.94365249","imageIndex":17,"items":[{"name":"허해숙 꽃누름연구소","tel":"031-958-4585","addr":"경기도 파주시 적성면 객현리 416-1","indutype":"문화.취미 - 화원","category":"other"}]},{"lat":"37.961600104","long":"126.94121794","imageIndex":7,"items":[{"name":"구본일 발효","tel":"031-959-0879","addr":"경기도 파주시 적성면 객현리 623-2번지","indutype":"음료식품 - 기타음료식품","category":"food"}]},{"lat":"37.960012951","long":"126.95768463","imageIndex":7,"items":[{"name":"산머루농원영농조합법인","tel":"031-958-4558","addr":"경기도 파주시 적성면 객현리 67-1번지","indutype":"음료식품 - 농·축·수산품","category":"food"}]},{"lat":"37.959625255","long":"126.9569111","imageIndex":7,"items":[{"name":"산촌마을","tel":"031-958-7799","addr":"경기도 파주시 적성면 객현리 66","indutype":"음료식품 - 기타음료식품","category":"food"}]},{"lat":"37.973675892","long":"126.94818444","imageIndex":16,"items":[{"name":"농업회사법인파주치즈스쿨주식회사","tel":"031-959-0773","addr":"경기도 파주시 적성면 객현리 385-2번지","indutype":"학원 - 기타 교육기관","category":"study"}]},{"lat":"37.958291067","long":"126.95485239","imageIndex":4,"items":[{"name":"머루향기","tel":"031-959-6628","addr":"경기도 파주시 적성면 객현리 255번지","indutype":"일반휴게음식 - 일반한식","category":"restaurant"}]},{"lat":"37.959346225","long":"126.95757125","imageIndex":4,"items":[{"name":"산머루들밥","tel":"070-4906-2266","addr":"경기도 파주시 적성면 객현리 67-9번지","indutype":"일반휴게음식 - 일반한식","category":"restaurant"}]}]