[{"lat":"37.776512072","long":"127.11344991","imageIndex":17,"items":[{"name":"GS25축석옹달샘점","tel":"","addr":"경기도 의정부시 자일동 94-5번지","indutype":"유통업 영리 - 편 의 점","category":"other"}]},{"lat":"37.76681394","long":"127.09720597","imageIndex":17,"items":[{"name":"가야농원","tel":"031-847-5006","addr":"경기도 의정부시 자일동 174-3번지","indutype":"문화.취미 - 화원","category":"other"}]},{"lat":"37.75893101","long":"127.08459958","imageIndex":17,"items":[{"name":"금오화원","tel":"031-846-1907","addr":"경기도 의정부시 자일동 310-3","indutype":"문화.취미 - 화원","category":"other"},{"name":"꽃사랑화원","tel":"031-821-0813","addr":"경기도 의정부시 자일동 310-3번지","indutype":"문화.취미 - 화원","category":"other"},{"name":"신일옹기판매점","tel":"031-846-8687","addr":"경기도 의정부시 자일동 310-3","indutype":"문화.취미 - 민예·공예품","category":"other"},{"name":"이초난원","tel":"031-837-3311","addr":"경기도 의정부시 자일동 310-3번지","indutype":"문화.취미 - 화원","category":"other"}]},{"lat":"37.766039854","long":"127.09628571","imageIndex":17,"items":[{"name":"꽃피는 산골","tel":"","addr":"경기도 의정부시 자일동 368-8번지 1층","indutype":"문화.취미 - 화원","category":"other"},{"name":"늘푸른원예","tel":"070-8867-9279","addr":"경기도 의정부시 자일동 368-8번지 2동 하우스","indutype":"문화.취미 - 화원","category":"other"},{"name":"이인용갤러리","tel":"031-841-3378","addr":"경기도 의정부시 자일동 368-8번지 1층","indutype":"가구 - 일반가구","category":"other"}]},{"lat":"37.762625069","long":"127.09650839","imageIndex":17,"items":[{"name":"쉼터동구박","tel":"031-848-9313","addr":"경기도 의정부시 자일동 206-4.363-3주민복지시설내","indutype":"신변잡화 - 기타잡화","category":"other"}]},{"lat":"37.765095228","long":"127.09453677","imageIndex":17,"items":[{"name":"예일쇼파","tel":"031-841-5056","addr":"경기도 의정부시 자일동 363-6번지","indutype":"가구 - 일반가구","category":"other"}]},{"lat":"37.763349946","long":"127.09117538","imageIndex":17,"items":[{"name":"원봉갤러리","tel":"031-844-1144","addr":"경기도 의정부시 자일동 229-4","indutype":"가구 - 일반가구","category":"other"}]},{"lat":"37.764096518","long":"127.09278781","imageIndex":17,"items":[{"name":"중앙","tel":"031-846-8234","addr":"경기도 의정부시 자일동 233번지","indutype":"직물 - 카페트,커튼,천막,지물","category":"other"}]},{"lat":"37.763763631","long":"127.09217457","imageIndex":17,"items":[{"name":"현대종합철물건재","tel":"031-844-9700","addr":"경기도 의정부시 자일동 230-4번지","indutype":"건축자재 - 기타건축자재","category":"other"}]},{"lat":"37.770095031","long":"127.11584651","imageIndex":9,"items":[{"name":"가득건설기술단주식회사","tel":"031-853-3004","addr":"경기도 의정부시 자일동 60-3번지 1층","indutype":"연료판매점 - 현대정유 가스충전소","category":"oil"}]},{"lat":"37.760181658","long":"127.0869841","imageIndex":9,"items":[{"name":"대주주유소","tel":"031-846-6598","addr":"경기도 의정부시 자일동 313번지","indutype":"연료판매점 - SK주유소","category":"oil"},{"name":"은하주유소/주식회사 조은에너지","tel":"031-821-8788","addr":"경기도 의정부시 자일동 313번지","indutype":"연료판매점 - 현대정유(오일뱅크)","category":"oil"}]},{"lat":"37.770291849","long":"127.11728824","imageIndex":4,"items":[{"name":"귀락가든","tel":"031-851-1263","addr":"경기도 의정부시 자일동 62-3번지 1층","indutype":"일반휴게음식 - 일반한식","category":"restaurant"}]},{"lat":"37.769426186","long":"127.11805869","imageIndex":4,"items":[{"name":"귀락원","tel":"031-853-3050","addr":"경기도 의정부시 자일동 65-1번지","indutype":"일반휴게음식 - 일반한식","category":"restaurant"}]},{"lat":"37.770286838","long":"127.12233891","imageIndex":4,"items":[{"name":"등너머농원","tel":"031-851-2855","addr":"경기도 의정부시 자일동 72-5지하1층","indutype":"일반휴게음식 - 일반한식","category":"restaurant"}]},{"lat":"37.766121361","long":"127.11633984","imageIndex":4,"items":[{"name":"마운틴덕","tel":"031-853-5670","addr":"경기도 의정부시 자일동 50-14번지","indutype":"일반휴게음식 - 일반한식","category":"restaurant"}]},{"lat":"37.764096518","long":"127.09278781","imageIndex":4,"items":[{"name":"서락원","tel":"031-821-3332","addr":"경기도 의정부시 자일동 233번지 1층","indutype":"일반휴게음식 - 일반한식","category":"restaurant"}]},{"lat":"37.76509679","long":"127.09250529","imageIndex":4,"items":[{"name":"솔가원","tel":"031-821-7556","addr":"경기도 의정부시 자일동 358-4번지","indutype":"일반휴게음식 - 일반한식","category":"restaurant"}]},{"lat":"37.765652735","long":"127.11647531","imageIndex":4,"items":[{"name":"애마","tel":"031-851-5252","addr":"경기도 의정부시 자일동 45번지","indutype":"일반휴게음식 - 일반한식","category":"restaurant"},{"name":"오리나라","tel":"031-853-5287","addr":"경기도 의정부시 자일동 45번지 1층","indutype":"일반휴게음식 - 일반한식","category":"restaurant"}]},{"lat":"37.767342793","long":"127.10053202","imageIndex":4,"items":[{"name":"옛길우거지밥상","tel":"031-847-3151","addr":"경기도 의정부시 자일동 182-1번지","indutype":"일반휴게음식 - 일반한식","category":"restaurant"}]},{"lat":"37.770487304","long":"127.12009196","imageIndex":4,"items":[{"name":"오리사냥아흔아홉칸식당","tel":"031-851-7935","addr":"경기도 의정부시 자일동 71번지","indutype":"일반휴게음식 - 일반한식","category":"restaurant"}]},{"lat":"37.758595543","long":"127.08759509","imageIndex":4,"items":[{"name":"참먹꺼리","tel":"070-8875-2233","addr":"경기도 의정부시 자일동 318-4번지 1층","indutype":"일반휴게음식 - 일반한식","category":"restaurant"}]},{"lat":"37.767814313","long":"127.09681001","imageIndex":4,"items":[{"name":"축석탕집","tel":"031-847-3430","addr":"경기도 의정부시 자일동 산21번지","indutype":"일반휴게음식 - 일반한식","category":"restaurant"}]},{"lat":"37.764514642","long":"127.08781747","imageIndex":4,"items":[{"name":"탁가네","tel":"031-846-4229","addr":"경기도 의정부시 자일동 349번지","indutype":"일반휴게음식 - 일반한식","category":"restaurant"}]},{"lat":"37.764403393","long":"127.09206185","imageIndex":4,"items":[{"name":"통큰","tel":"031-841-6787","addr":"경기도 의정부시 자일동 228-7번지 1층","indutype":"일반휴게음식 - 중국식","category":"restaurant"}]},{"lat":"37.775764932","long":"127.11275641","imageIndex":4,"items":[{"name":"투엔디","tel":"031-841-4138","addr":"경기도 의정부시 자일동 98-15번지 1,2층","indutype":"일반휴게음식 - 서양음식","category":"restaurant"},{"name":"투엔디","tel":"031-841-4138","addr":"경기도 의정부시 자일동 98-15번지 ,1-2층","indutype":"일반휴게음식 - 서양음식","category":"restaurant"}]},{"lat":"37.769124338","long":"127.10331502","imageIndex":7,"items":[{"name":"달성축산","tel":"031-873-7159","addr":"경기도 의정부시 자일동 155-3번지","indutype":"음료식품 - 농·축·수산품","category":"food"}]},{"lat":"37.763289671","long":"127.09911944","imageIndex":7,"items":[{"name":"자일농원","tel":"031-844-6916","addr":"경기도 의정부시 자일동 199,193","indutype":"음료식품 - 농·축·수산품","category":"food"}]},{"lat":"37.763515407","long":"127.0985069","imageIndex":7,"items":[{"name":"자일농원 매점","tel":"031-844-6916","addr":"경기도 의정부시 자일동 197번지","indutype":"음료식품 - 기타음료식품","category":"food"},{"name":"자일농원체험장","tel":"031-846-7993","addr":"경기도 의정부시 자일동 197번지","indutype":"음료식품 - 기타음료식품","category":"food"},{"name":"자일농원체험장","tel":"031-846-7993","addr":"경기도 의정부시 자일동 197번지","indutype":"음료식품 - 기타음료식품","category":"food"}]},{"lat":"37.767814313","long":"127.09681001","imageIndex":7,"items":[{"name":"창운 무역","tel":"070-4133-9595","addr":"경기도 의정부시 자일동 산21번지","indutype":"음료식품 - 농·축·수산품","category":"food"}]},{"lat":"37.75915544","long":"127.08575734","imageIndex":7,"items":[{"name":"푸드365","tel":"031-874-9600","addr":"경기도 의정부시 자일동 310-10","indutype":"음료식품 - 기타음료식품","category":"food"}]},{"lat":"37.760181658","long":"127.0869841","imageIndex":0,"items":[{"name":"버블탱크","tel":"031-000-0000","addr":"경기도 의정부시 자일동 313번지","indutype":"자동차정비 유지 - 세차장","category":"car"}]},{"lat":"37.765652733","long":"127.09592205","imageIndex":0,"items":[{"name":"북부두산부품센터","tel":"031-845-0742","addr":"경기도 의정부시 자일동 365-1번지","indutype":"자동차정비 유지 - 자동차부품","category":"car"}]},{"lat":"37.763515407","long":"127.0985069","imageIndex":16,"items":[{"name":"자일 물고기체험학습장","tel":"031-844-6916","addr":"경기도 의정부시 자일동 197번지","indutype":"학원 - 기타 교육기관","category":"study"}]},{"lat":"37.775566097","long":"127.1134258","imageIndex":13,"items":[{"name":"투앤디","tel":"031-841-4138","addr":"경기도 의정부시 자일동 98-18번지","indutype":"레저업소 - 수 영 장","category":"leisure"},{"name":"투엔디","tel":"","addr":"경기도 의정부시 자일동 98-18번지","indutype":"레저업소 - 수 영 장","category":"leisure"}]}]