[{"lat":"37.147172665","long":"127.13215776","imageIndex":0,"items":[{"name":"(주)신동탄모터스","tel":"031-322-6967","addr":"경기도 용인시 처인구 남사면 통삼리 630-6번지","indutype":"자동차정비 유지 - 자동차정비","category":"car"}]},{"lat":"37.157365172","long":"127.13061031","imageIndex":0,"items":[{"name":"EK기획","tel":"070-4065-0057","addr":"경기도 용인시 처인구 남사면 북리 859-1번지 한원C.C내 세차장","indutype":"자동차정비 유지 - 세차장","category":"car"}]},{"lat":"37.114566917","long":"127.15241076","imageIndex":0,"items":[{"name":"경기자동차공업사","tel":"031-332-6667","addr":"경기도 용인시 처인구 남사면 봉무리 449-1번지","indutype":"자동차정비 유지 - 자동차정비","category":"car"}]},{"lat":"37.140030693","long":"127.16598935","imageIndex":0,"items":[{"name":"고속모터스","tel":"031-336-4888","addr":"경기도 용인시 처인구 남사면 아곡리 441-21번지","indutype":"자동차정비 유지 - 자동차정비","category":"car"}]},{"lat":"37.145562764","long":"127.13758032","imageIndex":0,"items":[{"name":"구룡자동차공업사","tel":"031-339-5430","addr":"경기도 용인시 처인구 남사면 북리696-17","indutype":"자동차정비 유지 - 자동차정비","category":"car"}]},{"lat":"37.11226197","long":"127.17127395","imageIndex":0,"items":[{"name":"금호타이어 용인점","tel":"031-321-8988","addr":"경기도 용인시 처인구 남사면 방아리 694-8번지","indutype":"자동차정비 유지 - 자동차시트·타이어","category":"car"}]},{"lat":"37.109953316","long":"127.1525817","imageIndex":0,"items":[{"name":"남사카","tel":"031-411-5770","addr":"경기도 용인시 처인구 남사면 전궁리 427-4번지","indutype":"자동차정비 유지 - 자동차정비","category":"car"}]},{"lat":"37.117701802","long":"127.11177585","imageIndex":0,"items":[{"name":"대지남사서비스 (주)","tel":"070-4918-2851","addr":"경기도 용인시 처인구 남사면 봉명리 653-13번지","indutype":"자동차정비 유지 - 자동차정비","category":"car"},{"name":"디에스브이하이테크 주식회사","tel":"070-4918-2851","addr":"경기도 용인시 처인구 남사면 봉명리 653-13번지","indutype":"자동차판매 - 기타운송","category":"car"}]},{"lat":"37.118532133","long":"127.11028054","imageIndex":0,"items":[{"name":"동남카서비스","tel":"031-334-5698","addr":"경기도 용인시 처인구 남사면 봉명리764-8","indutype":"자동차정비 유지 - 자동차정비","category":"car"}]},{"lat":"37.177003473","long":"127.18265546","imageIndex":0,"items":[{"name":"동서물류기계","tel":"031-337-3880","addr":"경기도 용인시 처인구 남사면 완장리 57-11번지","indutype":"자동차정비 유지 - 자동차부품","category":"car"}]},{"lat":"37.144702789","long":"127.18738517","imageIndex":0,"items":[{"name":"르노삼성특장","tel":"070-4135-4584","addr":"경기도 용인시 처인구 남사면 창리 293","indutype":"자동차정비 유지 - 자동차부품","category":"car"},{"name":"유니온모터스(Union Motors)","tel":"031-322-8488","addr":"경기도 용인시 처인구 남사면 창리 293번지 외5필지","indutype":"자동차판매 - 기타운송","category":"car"}]},{"lat":"37.112033959","long":"127.12140971","imageIndex":0,"items":[{"name":"만(MAN)","tel":"031-336-6795","addr":"경기도 용인시 처인구 남사면 봉명리 576-1번지","indutype":"자동차정비 유지 - 자동차부품","category":"car"}]},{"lat":"37.139392837","long":"127.17732166","imageIndex":0,"items":[{"name":"모터스피드","tel":"031-339-1101","addr":"경기도 용인시 처인구 남사면 창리 506-2 나동","indutype":"자동차정비 유지 - 자동차부품","category":"car"},{"name":"조훈타이어","tel":"031-337-0951","addr":"경기도 용인시 처인구 남사면 창리 506-2번지","indutype":"자동차정비 유지 - 자동차시트·타이어","category":"car"}]},{"lat":"37.169917774","long":"127.17899063","imageIndex":0,"items":[{"name":"샘","tel":"031-336-0933","addr":"경기도 용인시 처인구 남사면 완장리 321-6번지","indutype":"자동차정비 유지 - 자동차시트·타이어","category":"car"}]},{"lat":"37.140114216","long":"127.15037885","imageIndex":0,"items":[{"name":"신안빵구및타이어","tel":"031-323-4089","addr":"경기도 용인시 처인구 남사면 북리 648번지","indutype":"자동차정비 유지 - 자동차정비","category":"car"}]},{"lat":"37.166973092","long":"127.17782412","imageIndex":0,"items":[{"name":"쌔카스팀세차 용인한숲시티점","tel":"031-855-3762","addr":"경기도 용인시 처인구 남사면 완장리 472번지 다동","indutype":"자동차정비 유지 - 세차장","category":"car"}]},{"lat":"37.109283281","long":"127.13238585","imageIndex":0,"items":[{"name":"우진카공업사","tel":"031-333-1098","addr":"경기도 용인시 처인구 남사면 봉명리 364-5번지","indutype":"자동차정비 유지 - 자동차정비","category":"car"}]},{"lat":"37.114366964","long":"127.13077433","imageIndex":0,"items":[{"name":"유진특장","tel":"031-323-5587","addr":"경기도 용인시 처인구 남사면 봉명리 276","indutype":"자동차정비 유지 - 중장비수리","category":"car"}]},{"lat":"37.146863959","long":"127.14218633","imageIndex":0,"items":[{"name":"정훈상사","tel":"031-337-0663","addr":"경기도 용인시 처인구 남사면 북리 714번지","indutype":"자동차정비 유지 - 자동차부품","category":"car"}]},{"lat":"37.132759511","long":"127.17221967","imageIndex":0,"items":[{"name":"주식회사 테라모터스","tel":"031-217-3222","addr":"경기도 용인시 처인구 남사면 창리 593-2번지","indutype":"자동차판매 - 이륜차판매","category":"car"}]},{"lat":"37.102311661","long":"127.13818992","imageIndex":0,"items":[{"name":"진목카센타","tel":"031-655-9436","addr":"경기도 용인시 처인구 남사면 진목리 92-2번지","indutype":"자동차정비 유지 - 자동차정비","category":"car"}]},{"lat":"37.169887663","long":"127.18105103","imageIndex":0,"items":[{"name":"천일3급카프라자","tel":"031-332-6833","addr":"경기도 용인시 처인구 남사면 완장리 267-2번지 (천일3급카프라자)","indutype":"자동차정비 유지 - 자동차정비","category":"car"}]},{"lat":"37.156198348","long":"127.17038068","imageIndex":0,"items":[{"name":"카앤피플 성남분당구2호점","tel":"","addr":"경기도 용인시 처인구 남사면 아곡리 681번지 e편한세상용인한숲시티","indutype":"자동차정비 유지 - 세차장","category":"car"}]},{"lat":"37.140175463","long":"127.16555072","imageIndex":0,"items":[{"name":"카엔제이","tel":"031-336-3177","addr":"경기도 용인시 처인구 남사면 아곡리 441-17번지 1층","indutype":"자동차정비 유지 - 자동차정비","category":"car"}]},{"lat":"37.165082448","long":"127.1767727","imageIndex":0,"items":[{"name":"탑 워시","tel":"031-1522-8218","addr":"경기도 용인시 처인구 남사면 완장리 481-4번지 1층 1호 2호","indutype":"자동차정비 유지 - 세차장","category":"car"}]},{"lat":"37.091460117","long":"127.14821492","imageIndex":0,"items":[{"name":"표준세차장","tel":"031-332-1953","addr":"경기도 용인시 처인구 남사면 원암리 194-9","indutype":"자동차정비 유지 - 세차장","category":"car"}]},{"lat":"37.091261637","long":"127.148417","imageIndex":0,"items":[{"name":"표준카센타","tel":"031-333-4009","addr":"경기도 용인시 처인구 남사면 원암리 194-23번지 외2필지","indutype":"자동차정비 유지 - 자동차정비","category":"car"}]},{"lat":"37.147254445","long":"127.13152756","imageIndex":0,"items":[{"name":"한타기흥판매","tel":"031-339-6935","addr":"경기도 용인시 처인구 남사면 통삼리 641-1번지","indutype":"자동차정비 유지 - 자동차시트·타이어","category":"car"}]}]