[{"lat":"37.287744512","long":"127.38008426","imageIndex":4,"items":[{"name":"김작가야","tel":"","addr":"경기도 이천시 신둔면 고척리 311-4번지","indutype":"일반휴게음식 - 주점","category":"restaurant"}]},{"lat":"37.293159982","long":"127.38279539","imageIndex":4,"items":[{"name":"도예촌 막국수","tel":"031-637-9797","addr":"경기도 이천시 신둔면 고척리 554-2번지","indutype":"일반휴게음식 - 일반한식","category":"restaurant"}]},{"lat":"37.295186516","long":"127.38860247","imageIndex":4,"items":[{"name":"동우푸드","tel":"031-634-3722","addr":"경기도 이천시 신둔면 고척리 606번지","indutype":"일반휴게음식 - 스넥","category":"restaurant"}]},{"lat":"37.293042634","long":"127.38565933","imageIndex":4,"items":[{"name":"마을회관","tel":"","addr":"경기도 이천시 신둔면 고척리 599-6번지 내","indutype":"일반휴게음식 - 일반한식","category":"restaurant"},{"name":"마이츄(피터팬)","tel":"","addr":"경기도 이천시 신둔면 고척리 599-6번지 예스파크 카페거리","indutype":"일반휴게음식 - 서양음식","category":"restaurant"}]},{"lat":"37.2932943","long":"127.38305545","imageIndex":4,"items":[{"name":"밥맛나는세상","tel":"031-635-7999","addr":"경기도 이천시 신둔면 고척리 554-4번지 1층","indutype":"일반휴게음식 - 일반한식","category":"restaurant"}]},{"lat":"37.293213572","long":"127.38294227","imageIndex":4,"items":[{"name":"별헤는밤","tel":"031-632-5888","addr":"경기도 이천시 신둔면 고척리 554-3번지 1층","indutype":"일반휴게음식 - 일반한식","category":"restaurant"}]},{"lat":"37.293238827","long":"127.383495","imageIndex":4,"items":[{"name":"비다비움다이닝","tel":"","addr":"경기도 이천시 신둔면 고척리 554-10번지 1층","indutype":"일반휴게음식 - 서양음식","category":"restaurant"}]},{"lat":"37.293215355","long":"127.38518654","imageIndex":4,"items":[{"name":"비엔나커피하우스 이천도자기예술촌점","tel":"031-637-1683","addr":"경기도 이천시 신둔면 고척리 597-7번지 1층","indutype":"일반휴게음식 - 서양음식","category":"restaurant"}]},{"lat":"37.284883605","long":"127.3815472","imageIndex":4,"items":[{"name":"빈스(bins)","tel":"031-634-4445","addr":"경기도 이천시 신둔면 고척리 337번지 가동 1층","indutype":"일반휴게음식 - 스넥","category":"restaurant"}]},{"lat":"37.288659699","long":"127.37561185","imageIndex":4,"items":[{"name":"산약초능이백숙","tel":"031-635-4902","addr":"경기도 이천시 신둔면 고척리 431-4번지","indutype":"일반휴게음식 - 일반한식","category":"restaurant"}]},{"lat":"37.287684205","long":"127.37921564","imageIndex":4,"items":[{"name":"샘터가든","tel":"031-638-9955","addr":"경기도 이천시 신둔면 고척리 304-5번지 외1필지","indutype":"일반휴게음식 - 일반한식","category":"restaurant"}]},{"lat":"37.294851784","long":"127.38901805","imageIndex":4,"items":[{"name":"시현이네2","tel":"031-521-2673","addr":"경기도 이천시 신둔면 고척리 607-2번지 푸드트럭존","indutype":"일반휴게음식 - 일반한식","category":"restaurant"}]},{"lat":"37.294382486","long":"127.38369249","imageIndex":4,"items":[{"name":"아로마코 커피하우스","tel":"070-4366-3702","addr":"경기도 이천시 신둔면 고척리 219-9번지 지하1층","indutype":"일반휴게음식 - 서양음식","category":"restaurant"}]},{"lat":"37.293520276","long":"127.38283103","imageIndex":4,"items":[{"name":"알리바바버거 이천도자예술점","tel":"031-000-0000","addr":"경기도 이천시 신둔면 고척리 553-4번지","indutype":"일반휴게음식 - 일반한식","category":"restaurant"}]},{"lat":"37.286988564","long":"127.37979857","imageIndex":4,"items":[{"name":"옐로우 펍","tel":"","addr":"경기도 이천시 신둔면 고척리 313-1번지 1층","indutype":"일반휴게음식 - 스넥","category":"restaurant"},{"name":"커피스페이스246 (coffee space246)","tel":"031-111-1111","addr":"경기도 이천시 신둔면 고척리 313-1번지 1층","indutype":"일반휴게음식 - 서양음식","category":"restaurant"}]},{"lat":"37.29112866","long":"127.38404824","imageIndex":4,"items":[{"name":"이천푸드카","tel":"031-634-3722","addr":"경기도 이천시 신둔면 고척리 588-1번지","indutype":"일반휴게음식 - 스넥","category":"restaurant"}]},{"lat":"37.287074778","long":"127.37818642","imageIndex":4,"items":[{"name":"일미손짜장","tel":"031-000-0000","addr":"경기도 이천시 신둔면 고척리 379-2번지 1층","indutype":"일반휴게음식 - 중국식","category":"restaurant"},{"name":"일미손짜장","tel":"031-637-7199","addr":"경기도 이천시 신둔면 고척리 379-2번지 일미손짜장","indutype":"일반휴게음식 - 중국식","category":"restaurant"}]},{"lat":"37.287404785","long":"127.37924808","imageIndex":4,"items":[{"name":"진우네집도시락","tel":"031-638-0507","addr":"경기도 이천시 신둔면 고척리 304-9번지 1동 1층","indutype":"일반휴게음식 - 일반한식","category":"restaurant"},{"name":"토브파스타","tel":"031-796-3339","addr":"경기도 이천시 신둔면 고척리 304-9번지","indutype":"일반휴게음식 - 서양음식","category":"restaurant"}]},{"lat":"37.293403869","long":"127.38260489","imageIndex":4,"items":[{"name":"카페12인치 (cafex12inch)","tel":"","addr":"경기도 이천시 신둔면 고척리 553-2번지 1,2층","indutype":"일반휴게음식 - 서양음식","category":"restaurant"}]},{"lat":"37.286990394","long":"127.37922346","imageIndex":4,"items":[{"name":"호프타임","tel":"031-637-3394","addr":"경기도 이천시 신둔면 고척리 309-2번지","indutype":"일반휴게음식 - 주점","category":"restaurant"}]}]