[{"lat":"37.794370036","long":"127.07759941","imageIndex":7,"items":[{"name":"(주)피트니스코리아","tel":"070-7510-2222","addr":"경기도 양주시 광사동 652-3번지 7층","indutype":"건강식품 - 기타건강식품","category":"food"},{"name":"주식회사 엘이오무역","tel":"02-1111-1111","addr":"경기도 양주시 광사동 652-3번지 5층 124호","indutype":"음료식품 - 기타음료식품","category":"food"}]},{"lat":"37.795774148","long":"127.07972397","imageIndex":7,"items":[{"name":"88정육점","tel":"031-857-7258","addr":"경기도 양주시 광사동 654번지 드림월드빌딩","indutype":"음료식품 - 정육점","category":"food"}]},{"lat":"37.791728307","long":"127.08061668","imageIndex":7,"items":[{"name":"Flower J(플라워제이)","tel":"070-4641-1629","addr":"경기도 양주시 광사동 670-18번지 1층 일부","indutype":"음료식품 - 제과점","category":"food"}]},{"lat":"37.790954199","long":"127.07953733","imageIndex":7,"items":[{"name":"고기아자씨","tel":"031-848-5966","addr":"경기도 양주시 광사동 675-1번지","indutype":"음료식품 - 정육점","category":"food"}]},{"lat":"37.794811204","long":"127.07806535","imageIndex":7,"items":[{"name":"고읍점핑다이어트","tel":"","addr":"경기도 양주시 광사동 652-1번지 3층 305호","indutype":"건강식품 - 기타건강식품","category":"food"},{"name":"오션스파","tel":"031-111-1111","addr":"경기도 양주시 광사동 652-1번지 5층","indutype":"음료식품 - 기타음료식품","category":"food"}]},{"lat":"37.79414562","long":"127.07629354","imageIndex":7,"items":[{"name":"나블리베이커리카페","tel":"031-848-2045","addr":"경기도 양주시 광사동 209번지 1층","indutype":"음료식품 - 제과점","category":"food"}]},{"lat":"37.790809795","long":"127.07992319","imageIndex":7,"items":[{"name":"다빼드림(양주광사점)","tel":"031-843-3636","addr":"경기도 양주시 광사동 677번지 1층","indutype":"건강식품 - 기타건강식품","category":"food"}]},{"lat":"37.786894184","long":"127.07434511","imageIndex":7,"items":[{"name":"당신덕","tel":"031-847-8535","addr":"경기도 양주시 광사동 363-2번지 외2필지","indutype":"음료식품 - 정육점","category":"food"}]},{"lat":"37.799039468","long":"127.07350524","imageIndex":7,"items":[{"name":"대우유통(경기북부지점)","tel":"","addr":"경기도 양주시 광사동 260번지 마동 2층 1","indutype":"음료식품 - 기타음료식품","category":"food"}]},{"lat":"37.778700523","long":"127.06559686","imageIndex":7,"items":[{"name":"두래농원","tel":"031-840-0703","addr":"경기도 양주시 광사동 560-3번지","indutype":"음료식품 - 기타음료식품","category":"food"}]},{"lat":"37.788618955","long":"127.08223685","imageIndex":7,"items":[{"name":"디어레오","tel":"031-000-0000","addr":"경기도 양주시 광사동 688-6번지","indutype":"음료식품 - 기타음료식품","category":"food"}]},{"lat":"37.795340661","long":"127.08129033","imageIndex":7,"items":[{"name":"땅스부대찌개(고읍점)","tel":"","addr":"경기도 양주시 광사동 655-1번지 그린프라자 105호","indutype":"음료식품 - 기타음료식품","category":"food"},{"name":"태왕유통(내고향장터)","tel":"031-821-4419","addr":"경기도 양주시 광사동 655-1번지","indutype":"음료식품 - 농·축·수산품","category":"food"}]},{"lat":"37.795539096","long":"127.08094993","imageIndex":7,"items":[{"name":"뚜레쥬르 양주고읍중앙(3)","tel":"031-848-9114","addr":"경기도 양주시 광사동 655번지 힘찬프라자 1층 106호","indutype":"음료식품 - 제과점","category":"food"},{"name":"뚜레쥬르양주고읍중앙점","tel":"031-848-0445","addr":"경기도 양주시 광사동 655번지 힘찬프라자 106호","indutype":"음료식품 - 제과점","category":"food"}]},{"lat":"37.792116598","long":"127.07926606","imageIndex":7,"items":[{"name":"뚱보축산","tel":"","addr":"경기도 양주시 광사동 674-2번지 101호","indutype":"음료식품 - 정육점","category":"food"}]},{"lat":"37.791143412","long":"127.07951482","imageIndex":7,"items":[{"name":"라 바게트","tel":"031-846-7973","addr":"경기도 양주시 광사동 675번지 유진빌딩 106호","indutype":"음료식품 - 제과점","category":"food"}]},{"lat":"37.791783196","long":"127.07934519","imageIndex":7,"items":[{"name":"마미케이크","tel":"","addr":"경기도 양주시 광사동 674-5번지 1층 102호","indutype":"음료식품 - 제과점","category":"food"}]},{"lat":"37.79495351","long":"127.0809039","imageIndex":7,"items":[{"name":"마임 양주고읍지사","tel":"031-872-5332","addr":"경기도 양주시 광사동 656번지 우신빌딩 4층 402호","indutype":"회원제형태 - 건강식품","category":"food"}]},{"lat":"37.792540212","long":"127.07900537","imageIndex":7,"items":[{"name":"맘마찬 양주점","tel":"031-846-2610","addr":"경기도 양주시 광사동 670번지","indutype":"음료식품 - 기타음료식품","category":"food"}]},{"lat":"37.796116285","long":"127.08006494","imageIndex":7,"items":[{"name":"미소떡방","tel":"031-844-7100","addr":"경기도 양주시 광사동 651-1번지 1층 101호","indutype":"음료식품 - 제과점","category":"food"}]},{"lat":"37.79144148","long":"127.07834577","imageIndex":7,"items":[{"name":"반찬하우스","tel":"031-842-5292","addr":"경기도 양주시 광사동 713번지 해동마을신도브래뉴 상가동 1층 108호","indutype":"음료식품 - 기타음료식품","category":"food"}]},{"lat":"37.790314162","long":"127.08009297","imageIndex":7,"items":[{"name":"방울방울","tel":"031-000-0000","addr":"경기도 양주시 광사동 677-11번지 1층","indutype":"음료식품 - 기타음료식품","category":"food"}]},{"lat":"37.794900473","long":"127.0793484","imageIndex":7,"items":[{"name":"베스킨라빈스31(양주고읍점)","tel":"031-848-0069","addr":"경기도 양주시 광사동 654-4번지 가보프라자 104호","indutype":"음료식품 - 제과점","category":"food"},{"name":"빵이가","tel":"031-841-8466","addr":"경기도 양주시 광사동 654-4번지 가보프라자 106호","indutype":"음료식품 - 제과점","category":"food"},{"name":"파리바게뜨고읍중앙점","tel":"031-841-8204","addr":"경기도 양주시 광사동 654-4번지 가보프라자 105동 106호","indutype":"음료식품 - 제과점","category":"food"}]},{"lat":"37.792088738","long":"127.08053758","imageIndex":7,"items":[{"name":"비젼21(팡코)","tel":"031-840-9607","addr":"경기도 양주시 광사동 670-15번지 1층","indutype":"음료식품 - 제과점","category":"food"}]},{"lat":"37.796204108","long":"127.06898373","imageIndex":7,"items":[{"name":"씨알농장","tel":"031-847-3030","addr":"경기도 양주시 광사동 294","indutype":"음료식품 - 기타음료식품","category":"food"}]},{"lat":"37.791539903","long":"127.0794017","imageIndex":7,"items":[{"name":"얌얌","tel":"","addr":"경기도 양주시 광사동 674-7번지 프리빌 102호","indutype":"음료식품 - 기타음료식품","category":"food"}]},{"lat":"37.787536212","long":"127.07034966","imageIndex":7,"items":[{"name":"양주정육","tel":"031-847-0567","addr":"경기도 양주시 광사동 374-2번지","indutype":"음료식품 - 정육점","category":"food"}]},{"lat":"37.788699834","long":"127.08254346","imageIndex":7,"items":[{"name":"에스엔제이푸드","tel":"031-842-4772","addr":"경기도 양주시 광사동 686-7번지 해밀하우스 101호","indutype":"음료식품 - 기타음료식품","category":"food"}]},{"lat":"37.773319146","long":"127.07048429","imageIndex":7,"items":[{"name":"우리농장","tel":"031-847-1041","addr":"경기도 양주시 광사동 477번지","indutype":"음료식품 - 농·축·수산품","category":"food"},{"name":"평생농장","tel":"031-856-8940","addr":"경기도 양주시 광사동 477번지","indutype":"음료식품 - 기타음료식품","category":"food"}]},{"lat":"37.78864619","long":"127.08193036","imageIndex":7,"items":[{"name":"우리동네 담뱃잎가게","tel":"070-5121-6771","addr":"경기도 양주시 광사동 688-8번지 1층 103호","indutype":"음료식품 - 기타음료식품","category":"food"}]},{"lat":"37.7858935","long":"127.0753772","imageIndex":7,"items":[{"name":"유양영농조합법인","tel":"031-840-6170","addr":"경기도 양주시 광사동 105번지","indutype":"음료식품 - 기타음료식품","category":"food"}]},{"lat":"37.788763183","long":"127.08212348","imageIndex":7,"items":[{"name":"자연식품","tel":"031-543-7872","addr":"경기도 양주시 광사동 688-4번지 1층","indutype":"음료식품 - 농·축·수산품","category":"food"}]},{"lat":"37.79508951","long":"127.07959837","imageIndex":7,"items":[{"name":"장독대 고읍점","tel":"","addr":"경기도 양주시 광사동 654-3번지 더테라스 106호","indutype":"음료식품 - 기타음료식품","category":"food"}]},{"lat":"37.79431425","long":"127.08027878","imageIndex":7,"items":[{"name":"정관장(고읍점)","tel":"031-847-2304","addr":"경기도 양주시 광사동 656-7번지 105호","indutype":"건강식품 - 홍삼제품","category":"food"}]},{"lat":"37.793901066","long":"127.07834827","imageIndex":7,"items":[{"name":"정관장동부고읍점/상품권사용","tel":"031-847-2304","addr":"경기도 양주시 광사동 653-4번지 프라임타워 102호","indutype":"건강식품 - 홍삼제품","category":"food"}]},{"lat":"37.795233897","long":"127.07923521","imageIndex":7,"items":[{"name":"진이찬방","tel":"031-000-0000","addr":"경기도 양주시 광사동 654-6번지 1층","indutype":"음료식품 - 기타음료식품","category":"food"}]},{"lat":"37.791233278","long":"127.07986686","imageIndex":7,"items":[{"name":"카롱스","tel":"","addr":"경기도 양주시 광사동 679번지 1층 104호","indutype":"음료식품 - 제과점","category":"food"}]},{"lat":"37.793999423","long":"127.07950642","imageIndex":7,"items":[{"name":"쿵떡쿵떡","tel":"031-846-9593","addr":"경기도 양주시 광사동 657번지 메가시티프라자 154호","indutype":"음료식품 - 제과점","category":"food"}]},{"lat":"37.795341612","long":"127.07984842","imageIndex":7,"items":[{"name":"한우리축산","tel":"031-843-6633","addr":"경기도 양주시 광사동 654-2번지 더테라스 107호","indutype":"음료식품 - 정육점","category":"food"}]},{"lat":"37.792341893","long":"127.07917547","imageIndex":7,"items":[{"name":"현미와누룽지양주고읍점","tel":"031-846-8549","addr":"경기도 양주시 광사동 674번지 101-2호","indutype":"음료식품 - 기타음료식품","category":"food"}]}]