[{"lat":"37.540346853","long":"127.21488893","imageIndex":9,"items":[{"name":"(주)오씨에너지","tel":"031-796-4959","addr":"경기도 하남시 신장동 524번지 하남리빙텔 908호 신장동","indutype":"연료판매점 - 유류판매","category":"oil"}]},{"lat":"37.539598504","long":"127.21011198","imageIndex":9,"items":[{"name":"(주)한경에너지 베스트원주유소","tel":"031-792-5100","addr":"경기도 하남시 신장동 408-1번지","indutype":"연료판매점 - GS주유소","category":"oil"},{"name":"베스트원주유소","tel":"031-792-5100","addr":"경기도 하남시 신장동 408-1번지","indutype":"연료판매점 - 주유소","category":"oil"},{"name":"주식회사 한경에너지 베스트원주유소","tel":"031-792-5133","addr":"경기도 하남시 신장동 408-1번지","indutype":"연료판매점 - 주유소","category":"oil"}]},{"lat":"37.537207012","long":"127.21231167","imageIndex":9,"items":[{"name":"대성안전가스","tel":"031-792-0777","addr":"경기도 하남시 신장동 467-7번지","indutype":"연료판매점 - LPG 취급점","category":"oil"},{"name":"대성안전가스","tel":"031-792-0777","addr":"경기도 하남시 신장동 467-7번지","indutype":"연료판매점 - LPG 취급점","category":"oil"}]},{"lat":"37.537872529","long":"127.20786694","imageIndex":9,"items":[{"name":"명성석유","tel":"031-792-0049","addr":"경기도 하남시 신장동 430-89번지","indutype":"연료판매점 - 유류판매","category":"oil"}]},{"lat":"37.53826342","long":"127.21103608","imageIndex":9,"items":[{"name":"선광에너지","tel":"031-793-1771","addr":"경기도 하남시 신장동 455-9번지","indutype":"연료판매점 - 유류판매","category":"oil"}]},{"lat":"37.541154311","long":"127.21175696","imageIndex":9,"items":[{"name":"연합에너지","tel":"031-796-4671","addr":"경기도 하남시 신장동 387-44번지","indutype":"연료판매점 - LPG 취급점","category":"oil"}]},{"lat":"37.539926531","long":"127.20800834","imageIndex":9,"items":[{"name":"한도가스설비","tel":"031-792-2065","addr":"경기도 하남시 신장동 427-387번지","indutype":"연료판매점 - LPG 취급점","category":"oil"}]},{"lat":"37.540678809","long":"127.22061522","imageIndex":9,"items":[{"name":"현대오일뱅크(주)직영경기주유소","tel":"031-791-5070","addr":"경기도 하남시 신장동 99-30번지","indutype":"연료판매점 - 현대정유(오일뱅크)","category":"oil"},{"name":"현대정유(주)경기주유소","tel":"031-791-2070","addr":"경기도 하남시 신장동 99-30번지","indutype":"연료판매점 - 주유소","category":"oil"}]},{"lat":"37.536349438","long":"127.20811168","imageIndex":9,"items":[{"name":"현대오일뱅크(주)직영동부셀프주유소","tel":"031-792-2456","addr":"경기도 하남시 신장동 434-2번지","indutype":"연료판매점 - 현대정유(오일뱅크)","category":"oil"}]}]