[{"lat":"37.695487504","long":"126.79712366","imageIndex":0,"items":[{"name":"(주) 모터원 고양사고수리 전문센터","tel":"031-979-4134","addr":"경기도 고양시 일산동구 성석동 733-4번지","indutype":"자동차정비 유지 - 자동차부품","category":"car"}]},{"lat":"37.711763487","long":"126.78959368","imageIndex":0,"items":[{"name":"(주)1급양지모터스","tel":"02-1833-9755","addr":"경기도 고양시 일산동구 성석동 1227-18번지","indutype":"자동차정비 유지 - 자동차정비","category":"car"},{"name":"(주)1급양지모터스","tel":"02-1833-9755","addr":"경기도 고양시 일산동구 성석동 1227-18번지","indutype":"자동차정비 유지 - 자동차정비","category":"car"}]},{"lat":"37.711038468","long":"126.80795647","imageIndex":0,"items":[{"name":"(주)윤기모터스","tel":"031-976-7517","addr":"경기도 고양시 일산동구 성석동 494-7번지","indutype":"자동차정비 유지 - 자동차정비","category":"car"},{"name":"(주)자동차마을","tel":"031-906-5050","addr":"경기도 고양시 일산동구 성석동 494-7번지","indutype":"자동차판매 - 중고자동차판매","category":"car"}]},{"lat":"37.70903879","long":"126.80284716","imageIndex":0,"items":[{"name":"(주)픽플러스","tel":"031-904-6005","addr":"경기도 고양시 일산동구 성석동 536-7번지","indutype":"자동차판매 - 중고자동차판매","category":"car"}]},{"lat":"37.700768109","long":"126.80292608","imageIndex":0,"items":[{"name":"2012오토랜드","tel":"031-976-2092","addr":"경기도 고양시 일산동구 성석동 346-2번지","indutype":"자동차정비 유지 - 자동차정비","category":"car"}]},{"lat":"37.691039158","long":"126.79850782","imageIndex":0,"items":[{"name":"93워시(wash)","tel":"031-969-2412","addr":"경기도 고양시 일산동구 성석동 781-3번지","indutype":"자동차정비 유지 - 세차장","category":"car"}]},{"lat":"37.700378788","long":"126.78167756","imageIndex":0,"items":[{"name":"K모터스","tel":"031-976-5182","addr":"경기도 고양시 일산동구 성석동 1305-5번지","indutype":"자동차정비 유지 - 자동차정비","category":"car"}]},{"lat":"37.695766899","long":"126.79717958","imageIndex":0,"items":[{"name":"MBJ모터스","tel":"031-976-6011","addr":"경기도 고양시 일산동구 성석동 733-1번지","indutype":"자동차판매 - 중고자동차판매","category":"car"}]},{"lat":"37.70846108","long":"126.78690414","imageIndex":0,"items":[{"name":"MBT","tel":"031-976-6448","addr":"경기도 고양시 일산동구 성석동 1275번지","indutype":"자동차정비 유지 - 자동차정비","category":"car"}]},{"lat":"37.713508695","long":"126.79826466","imageIndex":0,"items":[{"name":"MK Motors (엠케이모터스)","tel":"070-4497-6735","addr":"경기도 고양시 일산동구 성석동 1043-21번지","indutype":"자동차정비 유지 - 자동차부품","category":"car"}]},{"lat":"37.709428555","long":"126.7887952","imageIndex":0,"items":[{"name":"NEXGARD일산","tel":"031-976-4560","addr":"경기도 고양시 일산동구 성석동 1254번지","indutype":"자동차정비 유지 - 카인테리어","category":"car"}]},{"lat":"37.714266947","long":"126.78892871","imageIndex":0,"items":[{"name":"e-모터스","tel":"031-975-5118","addr":"경기도 고양시 일산동구 성석동 1221-10번지","indutype":"자동차정비 유지 - 자동차정비","category":"car"}]},{"lat":"37.710845439","long":"126.80565481","imageIndex":0,"items":[{"name":"광진자동차공업사","tel":"031-977-7488","addr":"경기도 고양시 일산동구 성석동 520-1번지","indutype":"자동차정비 유지 - 자동차정비","category":"car"}]},{"lat":"37.70471232","long":"126.78163066","imageIndex":0,"items":[{"name":"국제타이어","tel":"031-975-5775","addr":"경기도 고양시 일산동구 성석동 2171번지","indutype":"자동차정비 유지 - 자동차시트·타이어","category":"car"}]},{"lat":"37.70809416","long":"126.79326712","imageIndex":0,"items":[{"name":"금강매직카","tel":"031-977-0309","addr":"경기도 고양시 일산동구 성석동 984-103번지","indutype":"자동차정비 유지 - 자동차정비","category":"car"}]},{"lat":"37.707849468","long":"126.79246265","imageIndex":0,"items":[{"name":"금강자동차유리","tel":"031-915-2411","addr":"경기도 고양시 일산동구 성석동","indutype":"자동차정비 유지 - 자동차부품","category":"car"},{"name":"성일자동차공업사","tel":"031-977-4992","addr":"경기도 고양시 일산동구 성석동 990-1번지","indutype":"자동차정비 유지 - 자동차정비","category":"car"}]},{"lat":"37.711148781","long":"126.78846137","imageIndex":0,"items":[{"name":"네비원성석점","tel":"031-975-9855","addr":"경기도 고양시 일산동구 성석동 1238-14번지","indutype":"자동차정비 유지 - 자동차부품","category":"car"},{"name":"청계공구마트","tel":"031-975-9855","addr":"경기도 고양시 일산동구 성석동 1238-14번지","indutype":"자동차정비 유지 - 자동차부품","category":"car"}]},{"lat":"37.708482418","long":"126.78381949","imageIndex":0,"items":[{"name":"달인손세차","tel":"031-977-6863","addr":"경기도 고양시 일산동구 성석동 2191번지","indutype":"자동차정비 유지 - 세차장","category":"car"}]},{"lat":"37.70823934","long":"126.79384507","imageIndex":0,"items":[{"name":"대림자동차매매상사","tel":"031-977-1230","addr":"경기도 고양시 일산동구 성석동 984-19번지","indutype":"자동차판매 - 중고자동차판매","category":"car"},{"name":"동성자동차","tel":"031-977-0891","addr":"경기도 고양시 일산동구 성석동 984-19번지","indutype":"자동차판매 - 중고자동차판매","category":"car"},{"name":"성현모터스주식회사","tel":"031-123-4567","addr":"경기도 고양시 일산동구 성석동 984-19번지","indutype":"자동차판매 - 중고자동차판매","category":"car"},{"name":"주식회사 고양현대모터스","tel":"031-123-4567","addr":"경기도 고양시 일산동구 성석동 984-19번지","indutype":"자동차판매 - 중고자동차판매","category":"car"},{"name":"주식회사 바른손","tel":"031-977-6141","addr":"경기도 고양시 일산동구 성석동 984-19번지","indutype":"자동차판매 - 중고자동차판매","category":"car"},{"name":"화정중고자동차매매","tel":"031-977-9360","addr":"경기도 고양시 일산동구 성석동 984-19번지","indutype":"자동차판매 - 중고자동차판매","category":"car"}]},{"lat":"37.695904074","long":"126.79834706","imageIndex":0,"items":[{"name":"대성오토 주식회사","tel":"031-921-8801","addr":"경기도 고양시 일산동구 성석동 729-3번지","indutype":"자동차정비 유지 - 자동차부품","category":"car"}]},{"lat":"37.705432509","long":"126.78132235","imageIndex":0,"items":[{"name":"동양공업사","tel":"031-976-0951","addr":"경기도 고양시 일산동구 성석동 2142번지","indutype":"자동차정비 유지 - 자동차정비","category":"car"}]},{"lat":"37.713097312","long":"126.800035","imageIndex":0,"items":[{"name":"동주모터스","tel":"031-977-5109","addr":"경기도 고양시 일산동구 성석동 1043-5번지","indutype":"자동차정비 유지 - 자동차정비","category":"car"}]},{"lat":"37.710042016","long":"126.78432523","imageIndex":0,"items":[{"name":"디스커버리 모터스","tel":"031-111-1111","addr":"경기도 고양시 일산동구 성석동 1364번지","indutype":"자동차정비 유지 - 자동차정비","category":"car"}]},{"lat":"37.710041448","long":"126.78401903","imageIndex":0,"items":[{"name":"디스커버리모터스","tel":"031-977-4116","addr":"경기도 고양시 일산동구 성석동 1365번지","indutype":"자동차정비 유지 - 카인테리어","category":"car"}]},{"lat":"37.709093309","long":"126.80311918","imageIndex":0,"items":[{"name":"리플렉션(러스터LUSTER)","tel":"031-906-0588","addr":"경기도 고양시 일산동구 성석동 536-9번지","indutype":"자동차정비 유지 - 자동차정비","category":"car"}]},{"lat":"37.708067452","long":"126.7835372","imageIndex":0,"items":[{"name":"몬스터카매니아","tel":"031-977-4104","addr":"경기도 고양시 일산동구 성석동 2189번지","indutype":"자동차정비 유지 - 자동차부품","category":"car"}]},{"lat":"37.708265936","long":"126.78368404","imageIndex":0,"items":[{"name":"무광감","tel":"031-822-7852","addr":"경기도 고양시 일산동구 성석동","indutype":"자동차정비 유지 - 카인테리어","category":"car"},{"name":"일산 밧데리","tel":"031-971-4724","addr":"경기도 고양시 일산동구 성석동 2190번지","indutype":"자동차정비 유지 - 자동차부품","category":"car"}]},{"lat":"37.687546427","long":"126.79507089","imageIndex":0,"items":[{"name":"백마상사","tel":"031-977-8006","addr":"경기도 고양시 일산동구 성석동 879-6번지","indutype":"자동차정비 유지 - 자동차정비","category":"car"}]},{"lat":"37.700038895","long":"126.80865429","imageIndex":0,"items":[{"name":"사운드뷰카오디오","tel":"031-976-9253","addr":"경기도 고양시 일산동구 성석동 88번지","indutype":"자동차정비 유지 - 카인테리어","category":"car"}]},{"lat":"37.69309967","long":"126.79696019","imageIndex":0,"items":[{"name":"사인 오토모티브","tel":"","addr":"경기도 고양시 일산동구 성석동 766-4번지","indutype":"자동차정비 유지 - 자동차정비","category":"car"},{"name":"온 detailing","tel":"","addr":"경기도 고양시 일산동구 성석동 766-4번지","indutype":"자동차정비 유지 - 카인테리어","category":"car"}]},{"lat":"37.711293191","long":"126.79875841","imageIndex":0,"items":[{"name":"삼마모터스","tel":"031-977-9133","addr":"경기도 고양시 일산동구 성석동 1035-2번지","indutype":"자동차정비 유지 - 자동차정비","category":"car"}]},{"lat":"37.699540793","long":"126.78162336","imageIndex":0,"items":[{"name":"상진휠얼라이먼트","tel":"031-977-8145","addr":"경기도 고양시 일산동구 성석동 1305-9번지","indutype":"자동차정비 유지 - 자동차시트·타이어","category":"car"}]},{"lat":"37.704735346","long":"126.79426315","imageIndex":0,"items":[{"name":"성석동부점현대자동차","tel":"031-977-0809","addr":"경기도 고양시 일산동구 성석동 973-12번지","indutype":"자동차정비 유지 - 자동차정비","category":"car"}]},{"lat":"37.710069479","long":"126.79968035","imageIndex":0,"items":[{"name":"성석자동차서비스","tel":"031-976-3238","addr":"경기도 고양시 일산동구 성석동 1035-9번지","indutype":"자동차정비 유지 - 자동차정비","category":"car"}]},{"lat":"37.687401193","long":"126.79445909","imageIndex":0,"items":[{"name":"성원카","tel":"031-975-7654","addr":"경기도 고양시 일산동구 성석동 877-10번지","indutype":"자동차정비 유지 - 자동차시트·타이어","category":"car"}]},{"lat":"37.712317302","long":"126.79704311","imageIndex":0,"items":[{"name":"성지모터스","tel":"031-976-4982","addr":"경기도 고양시 일산동구 성석동 1024번지","indutype":"자동차정비 유지 - 자동차정비","category":"car"}]},{"lat":"37.700566434","long":"126.78084924","imageIndex":0,"items":[{"name":"스피디메이트 일산제일점","tel":"031-975-0605","addr":"경기도 고양시 일산동구 성석동 1305-24번지","indutype":"자동차정비 유지 - 자동차부품","category":"car"}]},{"lat":"37.709016927","long":"126.79035002","imageIndex":0,"items":[{"name":"싸다중고타이어","tel":"070-7745-9764","addr":"경기도 고양시 일산동구 성석동 1245번지","indutype":"자동차정비 유지 - 자동차시트·타이어","category":"car"}]},{"lat":"37.690434651","long":"126.79801062","imageIndex":0,"items":[{"name":"썬베이(SUNBAY)","tel":"031-917-6913","addr":"경기도 고양시 일산동구 성석동 774-2번지","indutype":"자동차정비 유지 - 자동차시트·타이어","category":"car"},{"name":"주식회사 썬베이","tel":"031-917-6913","addr":"경기도 고양시 일산동구 성석동 774-2번지","indutype":"자동차정비 유지 - 자동차시트·타이어","category":"car"}]},{"lat":"37.708792525","long":"126.79081562","imageIndex":0,"items":[{"name":"아이카","tel":"","addr":"경기도 고양시 일산동구 성석동 981-2번지","indutype":"자동차정비 유지 - 자동차부품","category":"car"},{"name":"오일뱅크정비센타","tel":"031-977-7736","addr":"경기도 고양시 일산동구 성석동 981-2번지","indutype":"자동차정비 유지 - 자동차정비","category":"car"}]},{"lat":"37.715676713","long":"126.79129503","imageIndex":0,"items":[{"name":"아트텍연구소","tel":"031-976-3573","addr":"경기도 고양시 일산동구 성석동 1075번지","indutype":"자동차정비 유지 - 자동차부품","category":"car"}]},{"lat":"37.707120267","long":"126.78290495","imageIndex":0,"items":[{"name":"에스제이네비앤카(SJ-NAVI&CAR)","tel":"070-4242-7745","addr":"경기도 고양시 일산동구 성석동 2185번지","indutype":"자동차정비 유지 - 자동차부품","category":"car"}]},{"lat":"37.709678489","long":"126.78751299","imageIndex":0,"items":[{"name":"예손카스토리","tel":"031-1599-9591","addr":"경기도 고양시 일산동구 성석동 1256-3번지","indutype":"자동차정비 유지 - 세차장","category":"car"}]},{"lat":"37.711538529","long":"126.80526738","imageIndex":0,"items":[{"name":"오성MOTORS","tel":"031-911-4972","addr":"경기도 고양시 일산동구 성석동 521-83번지","indutype":"자동차정비 유지 - 자동차정비","category":"car"}]},{"lat":"37.711430908","long":"126.80556253","imageIndex":0,"items":[{"name":"오성자동차","tel":"031-977-0610","addr":"경기도 고양시 일산동구 성석동 521-84번지","indutype":"자동차정비 유지 - 자동차정비","category":"car"}]},{"lat":"37.706461391","long":"126.79722941","imageIndex":0,"items":[{"name":"와일드 코리아","tel":"031-977-0648","addr":"경기도 고양시 일산동구 성석동 965-26번지","indutype":"자동차정비 유지 - 자동차부품","category":"car"}]},{"lat":"37.709955584","long":"126.80156321","imageIndex":0,"items":[{"name":"우성특장","tel":"031-976-9548","addr":"경기도 고양시 일산동구 성석동 537-39번지","indutype":"자동차판매 - 기타운송","category":"car"}]},{"lat":"37.708759777","long":"126.79265287","imageIndex":0,"items":[{"name":"제니스오토","tel":"031-977-5505","addr":"경기도 고양시 일산동구 성석동 984-6번지","indutype":"자동차정비 유지 - 자동차정비","category":"car"}]},{"lat":"37.687824844","long":"126.79457128","imageIndex":0,"items":[{"name":"제일엔진보링","tel":"031-918-0670","addr":"경기도 고양시 일산동구 성석동 877-11번지","indutype":"자동차정비 유지 - 자동차정비","category":"car"}]},{"lat":"37.704540712","long":"126.78140438","imageIndex":0,"items":[{"name":"주식회사 경인타이어","tel":"031-924-6633","addr":"경기도 고양시 일산동구 성석동 2170-2번지","indutype":"자동차정비 유지 - 자동차부품","category":"car"}]},{"lat":"37.69351571","long":"126.79787742","imageIndex":0,"items":[{"name":"주식회사 마일레오토모빌","tel":"031-977-2300","addr":"경기도 고양시 일산동구 성석동 756-5번지","indutype":"자동차정비 유지 - 자동차부품","category":"car"}]},{"lat":"37.701344841","long":"126.81392365","imageIndex":0,"items":[{"name":"주식회사 맵포비","tel":"050-6050-6161","addr":"경기도 고양시 일산동구 성석동 53-57번지","indutype":"자동차정비 유지 - 자동차부품","category":"car"}]},{"lat":"37.690345754","long":"126.79870246","imageIndex":0,"items":[{"name":"주식회사 서부현대공업사","tel":"031-913-0789","addr":"경기도 고양시 일산동구 성석동 779-2번지","indutype":"자동차정비 유지 - 자동차정비","category":"car"}]},{"lat":"37.709011377","long":"126.80262042","imageIndex":0,"items":[{"name":"주식회사 원진자동차","tel":"031-000-0000","addr":"경기도 고양시 일산동구 성석동 536-6번지","indutype":"자동차정비 유지 - 자동차정비","category":"car"}]},{"lat":"37.688151485","long":"126.79587415","imageIndex":0,"items":[{"name":"카 핏 일산점","tel":"031-975-8088","addr":"경기도 고양시 일산동구 성석동 873-6번지","indutype":"자동차정비 유지 - 카인테리어","category":"car"}]},{"lat":"37.709655991","long":"126.79000798","imageIndex":0,"items":[{"name":"코레일모터스","tel":"031-976-7400","addr":"경기도 고양시 일산동구 성석동 1246-42번지","indutype":"자동차정비 유지 - 자동차정비","category":"car"}]},{"lat":"37.686796484","long":"126.80970916","imageIndex":0,"items":[{"name":"킴스커스텀 일산본점","tel":"","addr":"경기도 고양시 일산동구 성석동 176-8번지","indutype":"자동차정비 유지 - 자동차정비","category":"car"}]},{"lat":"37.711404487","long":"126.80592551","imageIndex":0,"items":[{"name":"태성자동차공업사","tel":"031-912-9488","addr":"경기도 고양시 일산동구 성석동 518-1번지","indutype":"자동차정비 유지 - 자동차정비","category":"car"}]},{"lat":"37.710932387","long":"126.78837126","imageIndex":0,"items":[{"name":"태영상사","tel":"031-977-8981","addr":"경기도 고양시 일산동구 성석동 1246-80번지","indutype":"자동차정비 유지 - 자동차정비","category":"car"}]},{"lat":"37.712980972","long":"126.78531461","imageIndex":0,"items":[{"name":"튜니드(Tuneed)","tel":"031-0000-0000","addr":"경기도 고양시 일산동구 성석동 1200-3번지","indutype":"자동차정비 유지 - 자동차부품","category":"car"}]},{"lat":"37.688242415","long":"126.79635007","imageIndex":0,"items":[{"name":"홍박사자동차공업사","tel":"031-977-1487","addr":"경기도 고양시 일산동구 성석동 871-2번지","indutype":"자동차정비 유지 - 자동차정비","category":"car"}]},{"lat":"37.708849876","long":"126.80840448","imageIndex":0,"items":[{"name":"화니카크리닉","tel":"031-977-0425","addr":"경기도 고양시 일산동구 성석동 491-2번지","indutype":"자동차정비 유지 - 자동차정비","category":"car"}]}]