[{"lat":"36.996602033","long":"127.08605724","imageIndex":5,"items":[{"name":"동호장여관","tel":"031-652-3438","addr":"경기도 평택시 통복동 93-3번지","indutype":"숙박업 - 여관/기타숙박업","category":"hotel"}]},{"lat":"36.994775206","long":"127.08264025","imageIndex":5,"items":[{"name":"샵모텔","tel":"031-652-2630","addr":"경기도 평택시 통복동 110-5번지","indutype":"숙박업 - 여관/기타숙박업","category":"hotel"},{"name":"샵모텔","tel":"031-652-2630","addr":"경기도 평택시 통복동 110-5번지","indutype":"숙박업 - 여관/기타숙박업","category":"hotel"}]},{"lat":"36.994991402","long":"127.08273035","imageIndex":5,"items":[{"name":"쌍용장","tel":"031-652-2631","addr":"경기도 평택시 통복동 110-2번지","indutype":"숙박업 - 여관/기타숙박업","category":"hotel"},{"name":"쌍용장여관","tel":"031-652-2631","addr":"경기도 평택시 통복동 110-2번지","indutype":"숙박업 - 여관/기타숙박업","category":"hotel"}]},{"lat":"36.995109284","long":"127.08161834","imageIndex":5,"items":[{"name":"씨에프모텔","tel":"031-658-3693","addr":"경기도 평택시 통복동 107-3번지 외2필지","indutype":"숙박업 - 여관/기타숙박업","category":"hotel"}]},{"lat":"36.995109097","long":"127.08189918","imageIndex":5,"items":[{"name":"원샷","tel":"031-654-0700","addr":"경기도 평택시 통복동 107-11번지","indutype":"숙박업 - 여관/기타숙박업","category":"hotel"}]},{"lat":"36.994990388","long":"127.08422441","imageIndex":5,"items":[{"name":"일광장","tel":"031-655-0330","addr":"경기도 평택시 통복동 111-8번지 외1필지","indutype":"숙박업 - 여관/기타숙박업","category":"hotel"}]},{"lat":"36.995189991","long":"127.08220258","imageIndex":5,"items":[{"name":"짬모텔","tel":"031-692-1733","addr":"경기도 평택시 통복동 109-8번지","indutype":"숙박업 - 여관/기타숙박업","category":"hotel"},{"name":"짬모텔","tel":"031-692-1733","addr":"경기도 평택시 통복동 109-8번지","indutype":"숙박업 - 여관/기타숙박업","category":"hotel"}]},{"lat":"36.99410802","long":"127.0832237","imageIndex":5,"items":[{"name":"프라하","tel":"031-658-0505","addr":"경기도 평택시 통복동 114-10번지","indutype":"숙박업 - 여관/기타숙박업","category":"hotel"}]},{"lat":"36.994189017","long":"127.08336982","imageIndex":5,"items":[{"name":"허브모텔","tel":"031-654-8125","addr":"경기도 평택시 통복동 114-18번지","indutype":"숙박업 - 여관/기타숙박업","category":"hotel"}]}]