[{"lat":"37.47454828","long":"127.2382851","imageIndex":4,"items":[{"name":"두메산골","tel":"031-763-5207","addr":"경기도 광주시 남한산성면 엄미리 252-1번지","indutype":"일반휴게음식 - 일반한식","category":"restaurant"}]},{"lat":"37.4725486","long":"127.2287829","imageIndex":4,"items":[{"name":"령산계곡","tel":"031-761-1292","addr":"경기도 광주시 남한산성면 엄미리 325번지","indutype":"일반휴게음식 - 일반한식","category":"restaurant"}]},{"lat":"37.47474451","long":"127.2392805","imageIndex":4,"items":[{"name":"메밀꽃","tel":"031-761-5468","addr":"경기도 광주시 남한산성면 엄미리 252-3번지","indutype":"일반휴게음식 - 일반한식","category":"restaurant"}]},{"lat":"37.47321595","long":"127.2466125","imageIndex":4,"items":[{"name":"범바위덕","tel":"031-791-5244","addr":"경기도 광주시 남한산성면 엄미리 195-3번지","indutype":"일반휴게음식 - 일반한식","category":"restaurant"}]},{"lat":"37.47477075","long":"127.2305079","imageIndex":4,"items":[{"name":"벽수장","tel":"031-761-5208","addr":"경기도 광주시 남한산성면 엄미리 274번지","indutype":"일반휴게음식 - 일반한식","category":"restaurant"}]},{"lat":"37.47399733","long":"127.2297595","imageIndex":4,"items":[{"name":"산수계곡","tel":"031-791-7979","addr":"경기도 광주시 남한산성면 엄미리 315-1번지","indutype":"일반휴게음식 - 일반한식","category":"restaurant"},{"name":"산수계곡","tel":"031-764-1236","addr":"경기도 광주시 남한산성면 엄미리 315-1번지","indutype":"일반휴게음식 - 일반한식","category":"restaurant"}]},{"lat":"37.47752167","long":"127.2471126","imageIndex":4,"items":[{"name":"산우리","tel":"031-762-0369","addr":"경기도 광주시 남한산성면 엄미리 49-1번지","indutype":"일반휴게음식 - 일반한식","category":"restaurant"}]},{"lat":"37.47363474","long":"127.2444998","imageIndex":4,"items":[{"name":"삼오우렁가마솥영양밥정식","tel":"031-762-3630","addr":"경기도 광주시 남한산성면 엄미리 201-3번지","indutype":"일반휴게음식 - 일반한식","category":"restaurant"}]},{"lat":"37.47416224","long":"127.2420823","imageIndex":4,"items":[{"name":"설맥바베큐","tel":"070-8867-7879","addr":"경기도 광주시 남한산성면 엄미리 230-2번지","indutype":"일반휴게음식 - 일반한식","category":"restaurant"}]},{"lat":"37.47202475","long":"127.2294483","imageIndex":4,"items":[{"name":"솟대정원","tel":"031-762-0677","addr":"경기도 광주시 남한산성면 엄미리 327-1번지","indutype":"일반휴게음식 - 일반한식","category":"restaurant"}]},{"lat":"37.4725771","long":"127.2505331","imageIndex":4,"items":[{"name":"송화장수촌","tel":"031-797-6069","addr":"경기도 광주시 남한산성면 엄미리 121번지","indutype":"일반휴게음식 - 일반한식","category":"restaurant"}]},{"lat":"37.47474859","long":"127.2326445","imageIndex":4,"items":[{"name":"옥이네","tel":"031-798-5254","addr":"경기도 광주시 남한산성면 엄미리 265번지 1-2층","indutype":"일반휴게음식 - 일반한식","category":"restaurant"}]},{"lat":"37.47299908","long":"127.246917","imageIndex":4,"items":[{"name":"운산흑염소","tel":"031-766-7800","addr":"경기도 광주시 남한산성면 엄미리 193-1번지 1동 1층","indutype":"일반휴게음식 - 일반한식","category":"restaurant"}]},{"lat":"37.47438402","long":"127.23478","imageIndex":4,"items":[{"name":"은고개손칼국수","tel":"031-7761-5223","addr":"경기도 광주시 남한산성면 엄미리 253-1번지","indutype":"일반휴게음식 - 일반한식","category":"restaurant"}]},{"lat":"37.47371416","long":"127.245314","imageIndex":4,"items":[{"name":"은고개옻닭","tel":"031-761-7477","addr":"경기도 광주시 남한산성면 엄미리 199-15번지","indutype":"일반휴게음식 - 일반한식","category":"restaurant"}]},{"lat":"37.47596739","long":"127.2218631","imageIndex":4,"items":[{"name":"은고개집","tel":"031-721-1603","addr":"경기도 광주시 남한산성면 엄미리 650-3번지","indutype":"일반휴게음식 - 일반한식","category":"restaurant"}]},{"lat":"37.47488341","long":"127.2328145","imageIndex":4,"items":[{"name":"이로재","tel":"031-797-5262","addr":"경기도 광주시 남한산성면 엄미리 264번지","indutype":"일반휴게음식 - 일반한식","category":"restaurant"}]},{"lat":"37.47488504","long":"127.2319779","imageIndex":4,"items":[{"name":"장군멍군","tel":"031-761-8362","addr":"경기도 광주시 남한산성면 엄미리 268번지","indutype":"일반휴게음식 - 일반한식","category":"restaurant"}]},{"lat":"37.47557399","long":"127.2250613","imageIndex":4,"items":[{"name":"차방","tel":"031-797-3254","addr":"경기도 광주시 남한산성면 엄미리 624-2번지","indutype":"일반휴게음식 - 일반한식","category":"restaurant"}]},{"lat":"37.47632406","long":"127.2238652","imageIndex":4,"items":[{"name":"초가집농원 주식회사","tel":"031-762-9954","addr":"경기도 광주시 남한산성면 엄미리 632번지 1층","indutype":"일반휴게음식 - 일반한식","category":"restaurant"}]},{"lat":"37.47283147","long":"127.2451755","imageIndex":4,"items":[{"name":"행복한식탁","tel":"031-797-5299","addr":"경기도 광주시 남한산성면 엄미리 206-1번지","indutype":"일반휴게음식 - 일반한식","category":"restaurant"}]},{"lat":"37.47443577","long":"127.2404779","imageIndex":4,"items":[{"name":"호남가든","tel":"031-763-8888","addr":"경기도 광주시 남한산성면 엄미리 243-1번지","indutype":"일반휴게음식 - 일반한식","category":"restaurant"}]},{"lat":"37.47202176","long":"127.226283","imageIndex":4,"items":[{"name":"황태마을두부사랑","tel":"031-764-9324","addr":"경기도 광주시 남한산성면 엄미리 377-14번지 2동 1층","indutype":"일반휴게음식 - 일반한식","category":"restaurant"}]}]