[{"lat":"37.304097023","long":"127.12347002","imageIndex":13,"items":[{"name":"(주)조은랜드 /제이스파","tel":"031-283-0566","addr":"경기도 용인시 기흥구 마북동 181-2번지 한성프라자 지층 101호","indutype":"보건위생 - 사우나","category":"beauty"},{"name":"1001안경원","tel":"031-281-9191","addr":"경기도 용인시 기흥구 마북동 181-2번지 한성프라자 104호","indutype":"보건위생 - 안경","category":"beauty"},{"name":"나나네일","tel":"031-281-8885","addr":"경기도 용인시 기흥구 마북동 181-2번지 한성프라자 117호 일부","indutype":"보건위생 - 피부미용실","category":"beauty"},{"name":"올가내츄럴스킨(Natural skin)","tel":"031-257-5178","addr":"경기도 용인시 기흥구 마북동 181-2번지 한성프라자 117호","indutype":"보건위생 - 화장품","category":"beauty"},{"name":"이와이이쁘다(EYE쁘다)","tel":"","addr":"경기도 용인시 기흥구 마북동 181-2번지 한성프라자 1층 112호","indutype":"보건위생 - 미용원","category":"beauty"},{"name":"퀸헤어클리닉","tel":"031-284-0599","addr":"경기도 용인시 기흥구 마북동 181-2 한성프라자 205","indutype":"보건위생 - 미용원","category":"beauty"}]},{"lat":"37.292623307","long":"127.10846367","imageIndex":13,"items":[{"name":"(주)하랑","tel":"050-5510-4545","addr":"경기도 용인시 기흥구 마북동 431번지 경기도여성능력개발센타","indutype":"보건위생 - 화장품","category":"beauty"},{"name":"원헌드레드(Won Hundred)","tel":"031-000-0000","addr":"경기도 용인시 기흥구 마북동 431번지 경기도영성능력개발센터","indutype":"보건위생 - 화장품","category":"beauty"},{"name":"트루펑션","tel":"031-281-6313","addr":"경기도 용인시 기흥구 마북동 431번지 경기도여성능력개발센타 6호","indutype":"보건위생 - 화장품","category":"beauty"}]},{"lat":"37.303627962","long":"127.12398812","imageIndex":13,"items":[{"name":"A10헤어샬롱","tel":"031-282-3236","addr":"경기도 용인시 기흥구 마북동 182-15번지","indutype":"보건위생 - 미용원","category":"beauty"}]},{"lat":"37.302371594","long":"127.11893305","imageIndex":13,"items":[{"name":"JOY헤어","tel":"031-282-7622","addr":"경기도 용인시 기흥구 마북동 638번지 교동마을구성자이3차 상가동 102호","indutype":"보건위생 - 미용원","category":"beauty"}]},{"lat":"37.301485863","long":"127.12168377","imageIndex":13,"items":[{"name":"굿아이안경콘택트","tel":"031-283-2974","addr":"경기도 용인시 기흥구 마북동 168-6번지 현대타운 107호","indutype":"보건위생 - 안경","category":"beauty"},{"name":"노블레스헤어","tel":"031-285-4809","addr":"경기도 용인시 기흥구 마북동 168-6번지 현대타운 1층 101호","indutype":"보건위생 - 미용원","category":"beauty"}]},{"lat":"37.294988563","long":"127.11332781","imageIndex":13,"items":[{"name":"그레이스헤어","tel":"031-274-4776","addr":"경기도 용인시 기흥구 마북동 331-1번지 리딩프라자 1층 108호","indutype":"보건위생 - 미용원","category":"beauty"},{"name":"그레이스헤어","tel":"031-274-4776","addr":"경기도 용인시 기흥구 마북동 331-1번지 리딩프라자 1층 108호","indutype":"보건위생 - 미용원","category":"beauty"},{"name":"아이블레스안경","tel":"031-281-0982","addr":"경기도 용인시 기흥구 마북동 331-1번지 리딩프라자 1층 110호","indutype":"보건위생 - 안경","category":"beauty"}]},{"lat":"37.30087416","long":"127.12069026","imageIndex":13,"items":[{"name":"김성미뷰티살롱","tel":"031-274-2719","addr":"경기도 용인시 기흥구 마북동 239-6번지 나동 1층 102호","indutype":"보건위생 - 미용원","category":"beauty"}]},{"lat":"37.301848514","long":"127.10988644","imageIndex":13,"items":[{"name":"다인헤어","tel":"031-287-9533","addr":"경기도 용인시 기흥구 마북동 524-26번지 마북프라자 1층 103호","indutype":"보건위생 - 미용원","category":"beauty"}]},{"lat":"37.29973313","long":"127.1076277","imageIndex":13,"items":[{"name":"더고운피부관리","tel":"031-283-1259","addr":"경기도 용인시 기흥구 마북동 524-1번지 팬아시아빌딩 207호","indutype":"보건위생 - 피부미용실","category":"beauty"}]},{"lat":"37.298487773","long":"127.10980273","imageIndex":13,"items":[{"name":"더콥(The kop)","tel":"070-4793-7460","addr":"경기도 용인시 기흥구 마북동 518-1번지 1층","indutype":"보건위생 - 미용원","category":"beauty"}]},{"lat":"37.303376206","long":"127.12346887","imageIndex":13,"items":[{"name":"라헬헤어","tel":"031-284-3770","addr":"경기도 용인시 기흥구 마북동 174-3번지 1층","indutype":"보건위생 - 미용원","category":"beauty"},{"name":"수 샵(   Shop)","tel":"031-281-0888","addr":"경기도 용인시 기흥구 마북동 174-3번지 포대빌딩","indutype":"보건위생 - 화장품","category":"beauty"}]},{"lat":"37.295098252","long":"127.11163626","imageIndex":13,"items":[{"name":"로제타안경","tel":"031-284-2840","addr":"경기도 용인시 기흥구 마북동 370-8번지 본토빌딩 1층","indutype":"보건위생 - 안경","category":"beauty"}]},{"lat":"37.295012811","long":"127.11627141","imageIndex":13,"items":[{"name":"리안헤어 (구성점)","tel":"031-274-2007","addr":"경기도 용인시 기흥구 마북동 317-5번지 길상빌딩 2층","indutype":"보건위생 - 미용원","category":"beauty"}]},{"lat":"37.297371134","long":"127.10910189","imageIndex":13,"items":[{"name":"리프래쉬","tel":"031-283-2311","addr":"경기도 용인시 기흥구 마북동 475-3번지 상록마북프라자 3층 301호","indutype":"보건위생 - 화장품","category":"beauty"}]},{"lat":"37.296322109","long":"127.11329592","imageIndex":13,"items":[{"name":"모델헤어아트","tel":"031-283-6267","addr":"경기도 용인시 기흥구 마북동 352우림상가203","indutype":"보건위생 - 미용원","category":"beauty"}]},{"lat":"37.301874972","long":"127.11051811","imageIndex":13,"items":[{"name":"미용실","tel":"031-283-1238","addr":"경기도 용인시 기흥구 마북동 548-4번지","indutype":"보건위생 - 미용원","category":"beauty"}]},{"lat":"37.299516735","long":"127.10779658","imageIndex":13,"items":[{"name":"바르고네일","tel":"","addr":"경기도 용인시 기흥구 마북동 520-11번지 1층","indutype":"보건위생 - 피부미용실","category":"beauty"}]},{"lat":"37.296985683","long":"127.11665783","imageIndex":13,"items":[{"name":"바이민 (By Min)","tel":"031-691-8223","addr":"경기도 용인시 기흥구 마북동 651번지 효성해링턴플레이스 103동 501호","indutype":"보건위생 - 화장품","category":"beauty"}]},{"lat":"37.300238091","long":"127.10718852","imageIndex":13,"items":[{"name":"밝은세상안경","tel":"031-302-1002","addr":"경기도 용인시 기흥구 마북동 524-13번지 벽산 주상가 211호","indutype":"보건위생 - 안경","category":"beauty"},{"name":"윤헤어샵","tel":"031-285-9220","addr":"경기도 용인시 기흥구 마북동 524-13번지 연원마을벽산 주상가 205호","indutype":"보건위생 - 미용원","category":"beauty"}]},{"lat":"37.299822862","long":"127.10804514","imageIndex":13,"items":[{"name":"수헤어샵","tel":"031-285-8577","addr":"경기도 용인시 기흥구 마북동 524-7 삼호빌딩1층 103호","indutype":"보건위생 - 미용원","category":"beauty"},{"name":"임채헤어","tel":"070-7539-5844","addr":"경기도 용인시 기흥구 마북동 524-17번지 삼호빌딩 104호","indutype":"보건위생 - 미용원","category":"beauty"}]},{"lat":"37.299516193","long":"127.10840563","imageIndex":13,"items":[{"name":"스타일러두(STYLER Doo)","tel":"070-7672-1211","addr":"경기도 용인시 기흥구 마북동 520-7번지 연원프라자 104호","indutype":"보건위생 - 미용원","category":"beauty"}]},{"lat":"37.293373068","long":"127.10629938","imageIndex":13,"items":[{"name":"썬라이즈스마트스쿨주식회사","tel":"031-285-5142","addr":"경기도 용인시 기흥구 마북동 442번지","indutype":"보건위생 - 기타대인서비스","category":"beauty"}]},{"lat":"37.29879475","long":"127.10910389","imageIndex":13,"items":[{"name":"아틀란타헤어","tel":"031-285-6722","addr":"경기도 용인시 기흥구 마북동 516-32번지 진영빌딩 103호","indutype":"보건위생 - 미용원","category":"beauty"}]},{"lat":"37.294652693","long":"127.11596636","imageIndex":13,"items":[{"name":"안경박사","tel":"031-284-3333","addr":"경기도 용인시 기흥구 마북동 320-2번지","indutype":"보건위생 - 안경","category":"beauty"}]},{"lat":"37.302404655","long":"127.12193336","imageIndex":13,"items":[{"name":"연헤어","tel":"031-284-8688","addr":"경기도 용인시 기흥구 마북동 171-2번지 가동 104호","indutype":"보건위생 - 미용원","category":"beauty"}]},{"lat":"37.294517647","long":"127.11585338","imageIndex":13,"items":[{"name":"예뷰코스메틱","tel":"031-283-3518","addr":"경기도 용인시 기흥구 마북동 392-1번지 406호","indutype":"보건위생 - 화장품","category":"beauty"}]},{"lat":"37.303044233","long":"127.12208099","imageIndex":13,"items":[{"name":"오늘도예쁘게","tel":"","addr":"경기도 용인시 기흥구 마북동 173번지 1층 103호 일부","indutype":"보건위생 - 화장품","category":"beauty"}]},{"lat":"37.294490778","long":"127.11568417","imageIndex":13,"items":[{"name":"오예숙헤어","tel":"031-284-2214","addr":"경기도 용인시 기흥구 마북동 321-1번지","indutype":"보건위생 - 미용원","category":"beauty"}]},{"lat":"37.300820622","long":"127.11068579","imageIndex":13,"items":[{"name":"요술가위","tel":"031-285-7578","addr":"경기도 용인시 기흥구 마북동 524-8연원마을삼호벽산@분산상가107","indutype":"보건위생 - 미용원","category":"beauty"}]},{"lat":"37.294736665","long":"127.11291015","imageIndex":13,"items":[{"name":"웰빙헤어","tel":"031-285-2177","addr":"경기도 용인시 기흥구 마북동 329-1번지 일부 1층","indutype":"보건위생 - 미용원","category":"beauty"}]},{"lat":"37.306722927","long":"127.12835836","imageIndex":13,"items":[{"name":"은정민 헤어","tel":"031-283-3251","addr":"경기도 용인시 기흥구 마북동 636번지 e편한세상 상가동 203호","indutype":"보건위생 - 미용원","category":"beauty"}]},{"lat":"37.296439452","long":"127.11307053","imageIndex":13,"items":[{"name":"이슬대리","tel":"031-376-4284","addr":"경기도 용인시 기흥구 마북동 352번지 우림필유아파트","indutype":"보건위생 - 기타대인서비스","category":"beauty"}]},{"lat":"37.297320451","long":"127.10526717","imageIndex":13,"items":[{"name":"참조은테라피","tel":"","addr":"경기도 용인시 기흥구 마북동 502-80번지 2층","indutype":"보건위생 - 화장품","category":"beauty"}]},{"lat":"37.30037017","long":"127.12010298","imageIndex":13,"items":[{"name":"카라헤어","tel":"031-287-6494","addr":"경기도 용인시 기흥구 마북동 240-1번지 삼보빌라제1층 102호","indutype":"보건위생 - 미용원","category":"beauty"}]},{"lat":"37.301848187","long":"127.11024737","imageIndex":13,"items":[{"name":"태후사랑 연원점","tel":"031-274-2557","addr":"경기도 용인시 기흥구 마북동 548-1","indutype":"보건위생 - 이용원","category":"beauty"}]},{"lat":"37.299822339","long":"127.10863163","imageIndex":13,"items":[{"name":"한올","tel":"031-274-4050","addr":"경기도 용인시 기흥구 마북동 519-19번지 201,202호","indutype":"보건위생 - 미용원","category":"beauty"},{"name":"헤어홀릭","tel":"031-282-2757","addr":"경기도 용인시 기흥구 마북동 519-19번지 즐거운교회 상가동 102호","indutype":"보건위생 - 미용원","category":"beauty"}]},{"lat":"37.299917797","long":"127.11264701","imageIndex":13,"items":[{"name":"해별청소년통합지원센터","tel":"","addr":"경기도 용인시 기흥구 마북동 629번지 삼성래미안1차아파트","indutype":"보건위생 - 기타대인서비스","category":"beauty"}]},{"lat":"37.305706591","long":"127.12663089","imageIndex":13,"items":[{"name":"헤어스케치","tel":"031-284-9014","addr":"경기도 용인시 기흥구 마북동 143번지 신창무궁화 2층 201호","indutype":"보건위생 - 미용원","category":"beauty"}]},{"lat":"37.303095932","long":"127.1244046","imageIndex":13,"items":[{"name":"헤어스토리","tel":"070-8849-5959","addr":"경기도 용인시 기흥구 마북동 194-1번지 마북프라자 203호","indutype":"보건위생 - 미용원","category":"beauty"}]},{"lat":"37.300656526","long":"127.12207723","imageIndex":13,"items":[{"name":"헤어카페","tel":"031-274-3009","addr":"경기도 용인시 기흥구 마북동 226-1번지","indutype":"보건위생 - 미용원","category":"beauty"}]},{"lat":"37.299156175","long":"127.10796526","imageIndex":13,"items":[{"name":"황후에스테틱","tel":"031-286-3717","addr":"경기도 용인시 기흥구 마북동 521번지 4층 일부","indutype":"보건위생 - 피부미용실","category":"beauty"}]},{"lat":"37.317237614","long":"127.1285789","imageIndex":13,"items":[{"name":"힐스템구성","tel":"031-284-4702","addr":"경기도 용인시 기흥구 마북동 9-17번지","indutype":"보건위생 - 화장품","category":"beauty"}]}]