[{"lat":"38.010480767","long":"127.23826895","imageIndex":4,"items":[{"name":"산수갑산","tel":"531-3448","addr":"경기도 포천시 영중면 영송리 112-18번지","indutype":"음식 - 한식","category":"restaurant"},{"name":"산수갑산","tel":"031-531-3448","addr":"경기도 포천시 영중면 영송리 112-18번지","indutype":"일반휴게음식 - 일반한식","category":"restaurant"}]},{"lat":"38.013924643","long":"127.21821558","imageIndex":4,"items":[{"name":"양지해장국","tel":"031-531-6654","addr":"경기도 포천시 영중면 영송리 463-4번지","indutype":"일반휴게음식 - 일반한식","category":"restaurant"},{"name":"양지해장국","tel":"531-6654","addr":"경기도 포천시 영중면 영송리 463-4번지","indutype":"음식 - 한식","category":"restaurant"}]},{"lat":"38.013626321","long":"127.21877268","imageIndex":4,"items":[{"name":"영송은신정육점(달맞이농원)","tel":"534-8246","addr":"경기도 포천시 영중면 영송리 463-8번지","indutype":"음식 - 한식","category":"restaurant"}]},{"lat":"38.008149178","long":"127.22816177","imageIndex":4,"items":[{"name":"월드컵가든","tel":"031-532-0075","addr":"경기도 포천시 영중면 영송리 153-3번지","indutype":"일반휴게음식 - 일반한식","category":"restaurant"},{"name":"월드컵가든","tel":"532-0075","addr":"경기도 포천시 영중면 영송리 153-3번지","indutype":"음식 - 한식","category":"restaurant"}]},{"lat":"38.014312658","long":"127.21787509","imageIndex":4,"items":[{"name":"참새때꺼리","tel":"","addr":"경기도 포천시 영중면 영송리 461-4","indutype":"일반휴게음식 - 일반한식","category":"restaurant"},{"name":"참새때꺼리","tel":"533-5535","addr":"경기도 포천시 영중면 영송리 461-4","indutype":"음식 - 한식","category":"restaurant"}]},{"lat":"38.014404825","long":"127.21673663","imageIndex":4,"items":[{"name":"행복한밥상","tel":"533-2233","addr":"경기도 포천시 영중면 영송리 474-4번지","indutype":"음식 - 한식","category":"restaurant"},{"name":"행복한밥상","tel":"031-533-2233","addr":"경기도 포천시 영중면 영송리 474-4번지","indutype":"일반휴게음식 - 일반한식","category":"restaurant"}]}]