[{"lat":"37.364609741","long":"126.92587215","imageIndex":8,"items":[{"name":"(재)남천병원","tel":"031-390-2117","addr":"경기도 군포시 산본동 1100-1번지","indutype":"병원 - 종합병원","category":"medical"},{"name":"의료법인남천의료재단","tel":"031-390-2114","addr":"경기도 군포시 산본동 1100-1번지","indutype":"병원 - 병원","category":"medical"}]},{"lat":"37.372111897","long":"126.93523483","imageIndex":8,"items":[{"name":"(주)비앤씨코리아(B&C Korea)","tel":"02-1599-0341","addr":"경기도 군포시 산본동 1060번지 801호","indutype":"약국 - 제약회사","category":"medical"},{"name":"소통한의원","tel":"031-398-8883","addr":"경기도 군포시 산본동 1060번지 306호","indutype":"의원 - 한의원","category":"medical"}]},{"lat":"37.360387704","long":"126.93181386","imageIndex":8,"items":[{"name":"(주)원광메디칼써플라이어","tel":"0-0-0","addr":"경기도 군포시 산본동 1132-2번지 명동상가 6층","indutype":"약국 - 약국","category":"medical"}]},{"lat":"37.359001227","long":"126.93364376","imageIndex":8,"items":[{"name":"가까운약국","tel":"031-395-7586","addr":"경기도 군포시 산본동 1142-1번지 유화프라자빌딩 1층 12호","indutype":"약국 - 약국","category":"medical"}]},{"lat":"37.359639529","long":"126.93126147","imageIndex":8,"items":[{"name":"가나치과","tel":"031-396-2822","addr":"경기도 군포시 산본동 1136-2번지 삼일빌딩 404호","indutype":"의원 - 치과의원","category":"medical"},{"name":"미래정신과의원","tel":"031-394-0438","addr":"경기도 군포시 산본동 1136-2번지 삼일빌딩 401호","indutype":"의원 - 의원","category":"medical"},{"name":"이지원치과교정과치과의원","tel":"031-399-0080","addr":"경기도 군포시 산본동 1136-2번지 삼일빌딩 3층 303호","indutype":"의원 - 치과의원","category":"medical"},{"name":"하우림한의원","tel":"031-347-9775","addr":"경기도 군포시 산본동 1136-2번지 삼일빌딩 4층 2호","indutype":"의원 - 한의원","category":"medical"}]},{"lat":"37.368833761","long":"126.9380036","imageIndex":8,"items":[{"name":"가든치과의원","tel":"031-394-2011","addr":"경기도 군포시 산본동 224-1번지","indutype":"의원 - 치과의원","category":"medical"}]},{"lat":"37.359783113","long":"126.93031316","imageIndex":8,"items":[{"name":"강남동물병원","tel":"031-399-7599","addr":"경기도 군포시 산본동 1137-3번지","indutype":"기타의료기관 - 동물병원","category":"medical"}]},{"lat":"37.363919214","long":"126.93104292","imageIndex":8,"items":[{"name":"강송약국","tel":"031-393-0051","addr":"경기도 군포시 산본동 1095-3번지","indutype":"약국 - 약국","category":"medical"}]},{"lat":"37.358558876","long":"126.93219936","imageIndex":8,"items":[{"name":"경희 맥 한의원","tel":"031-399-7122","addr":"경기도 군포시 산본동 1142-10번지 동신 상가 203호","indutype":"의원 - 한의원","category":"medical"},{"name":"남연호내과","tel":"031-396-7800","addr":"경기도 군포시 산본동 1142-10 동산상가 4층 404,405호","indutype":"의원 - 의원","category":"medical"},{"name":"동산약국","tel":"070-7579-9064","addr":"경기도 군포시 산본동 1142-10번지","indutype":"약국 - 약국","category":"medical"},{"name":"드림연합소아청소년과","tel":"031-399-7588","addr":"경기도 군포시 산본동 1142-10번지 동산 상가 401,402","indutype":"의원 - 의원","category":"medical"},{"name":"메디팜리본약국","tel":"070-4898-9064","addr":"경기도 군포시 산본동 1142-10번지 동산상가 1층 111호","indutype":"약국 - 약국","category":"medical"},{"name":"삼성안과","tel":"031-348-8275","addr":"경기도 군포시 산본동 1142-10번지 304-307호","indutype":"의원 - 의원","category":"medical"},{"name":"서울은치과의원","tel":"031-399-8119","addr":"경기도 군포시 산본동 1142-10번지 동산프라자 203호","indutype":"의원 - 치과의원","category":"medical"},{"name":"예지미의원","tel":"031-395-2300","addr":"경기도 군포시 산본동 1142-10 동산상가504,505,506호","indutype":"의원 - 의원","category":"medical"}]},{"lat":"37.370581145","long":"126.93695218","imageIndex":8,"items":[{"name":"경희도담한의원","tel":"031-396-1080","addr":"경기도 군포시 산본동 213-7번지 2층","indutype":"의원 - 한의원","category":"medical"},{"name":"김국민의원","tel":"031-392-9001","addr":"경기도 군포시 산본동 213-7번지 3층","indutype":"의원 - 의원","category":"medical"},{"name":"사랑이가득한소아과","tel":"031-393-7005","addr":"경기도 군포시 산본동 213-7번지","indutype":"의원 - 의원","category":"medical"},{"name":"산본보룡약국","tel":"031-397-6556","addr":"경기도 군포시 산본동 213-7번지","indutype":"약국 - 약국","category":"medical"}]},{"lat":"37.359918404","long":"126.93053879","imageIndex":8,"items":[{"name":"경희백세한의원","tel":"031-395-0100","addr":"경기도 군포시 산본동 1137번지 동화프라자 303호","indutype":"의원 - 한의원","category":"medical"}]},{"lat":"37.359946934","long":"126.93303335","imageIndex":8,"items":[{"name":"고은한의원","tel":"031-391-0075","addr":"경기도 군포시 산본동 1126번지 경원빌딩 1층 6,7,8호","indutype":"의원 - 한의원","category":"medical"},{"name":"꼬마이패밀리치과","tel":"031-000-0000","addr":"경기도 군포시 산본동 1126번지 경원빌딩 6층 1호","indutype":"의원 - 치과의원","category":"medical"}]},{"lat":"37.359333334","long":"126.93151009","imageIndex":8,"items":[{"name":"고피부과의원","tel":"031-396-0427","addr":"경기도 군포시 산본동 1135 광림프라자 304호","indutype":"의원 - 의원","category":"medical"},{"name":"마음속내과(산본)","tel":"031-392-3905","addr":"경기도 군포시 산본동 1135번지 광림빌딩 505호,506호","indutype":"의원 - 의원","category":"medical"},{"name":"바다약국","tel":"031-391-7979","addr":"경기도 군포시 산본동 1135번지 광림프라자 502호","indutype":"약국 - 약국","category":"medical"},{"name":"바로이치과","tel":"","addr":"경기도 군포시 산본동 1135번지 광림빌딩 601,602,603호","indutype":"의원 - 치과의원","category":"medical"},{"name":"소이당한의원","tel":"031-392-8275","addr":"경기도 군포시 산본동 1135번지 401호 , 402호","indutype":"의원 - 한의원","category":"medical"},{"name":"의료법인편강의료재단","tel":"031-397-7733","addr":"경기도 군포시 산본동 1135번지 광림빌딩 501호","indutype":"의원 - 한의원","category":"medical"},{"name":"이정은속시원산부인과의원","tel":"031-395-5454","addr":"경기도 군포시 산본동 1135번지 중심상가광림프라자 404호","indutype":"의원 - 의원","category":"medical"},{"name":"장성원이비인후과의원","tel":"031-398-6848","addr":"경기도 군포시 산본동 1135번지 광림프라자 303호","indutype":"의원 - 의원","category":"medical"},{"name":"조시형치과의원","tel":"031-395-8042","addr":"경기도 군포시 산본동 1135번지","indutype":"의원 - 치과의원","category":"medical"},{"name":"하나약국","tel":"031-399-2357","addr":"경기도 군포시 산본동 1135번지 광림빌딩 301호","indutype":"약국 - 약국","category":"medical"},{"name":"행복한약국","tel":"031-393-7154","addr":"경기도 군포시 산본동 1135번지 광림빌딩 406호","indutype":"약국 - 약국","category":"medical"}]},{"lat":"37.360359901","long":"126.93053836","imageIndex":8,"items":[{"name":"군포산본튼튼척의원","tel":"031-399-7582","addr":"경기도 군포시 산본동 1123-2번지 인베스텔 303,304호","indutype":"의원 - 의원","category":"medical"},{"name":"김이서울치과","tel":"031-396-0275","addr":"경기도 군포시 산본동 1123-2번지 인베스텔 4층 1호","indutype":"의원 - 치과의원","category":"medical"},{"name":"레몬약국","tel":"031-111-1111","addr":"경기도 군포시 산본동 1123-2번지 인베스텔 1층 114호","indutype":"약국 - 약국","category":"medical"},{"name":"본한의원","tel":"031-343-2075","addr":"경기도 군포시 산본동 1123-2번지 인베스텔 412호","indutype":"의원 - 한의원","category":"medical"},{"name":"산본연세내과의원","tel":"031-399-2456","addr":"경기도 군포시 산본동 1123-2번지 인베스텔 402호","indutype":"의원 - 의원","category":"medical"},{"name":"산본연세소아청소년과의원","tel":"031-397-3003","addr":"경기도 군포시 산본동 1123-2번지 인베스텔 402호","indutype":"의원 - 의원","category":"medical"},{"name":"산본연세안과","tel":"031-343-3431","addr":"경기도 군포시 산본동 1123-2번지 인베스텔쇼핑몰 4층 8호","indutype":"의원 - 의원","category":"medical"},{"name":"서울약국","tel":"031-343-2112","addr":"경기도 군포시 산본동 1123-2번지 인베스텔 403호","indutype":"약국 - 약국","category":"medical"},{"name":"서울이비인후과","tel":"031-396-8006","addr":"경기도 군포시 산본동 1123-2(7인베스텔쇼핑몰4-4)","indutype":"의원 - 의원","category":"medical"},{"name":"연세피부과의원","tel":"031-343-2420","addr":"경기도 군포시 산본동 1123-2번지 인베스텔쇼핑몰 4층 5호","indutype":"의원 - 의원","category":"medical"},{"name":"행복한치과의원","tel":"031-343-2800","addr":"경기도 군포시 산본동 1123-2번지 인베스텔 410호","indutype":"의원 - 치과의원","category":"medical"}]},{"lat":"37.361645568","long":"126.92612352","imageIndex":8,"items":[{"name":"그린약국","tel":"070-8883-8222","addr":"경기도 군포시 산본동 1146번지 한숲스포츠센터 3층","indutype":"약국 - 약국","category":"medical"},{"name":"두리이비인후과의원","tel":"031-397-7577","addr":"경기도 군포시 산본동 1146.2층","indutype":"의원 - 의원","category":"medical"},{"name":"본치과","tel":"031-395-2875","addr":"경기도 군포시 산본동 1146번지 한숲프라자 4층","indutype":"의원 - 치과의원","category":"medical"},{"name":"산본함소아한의원","tel":"031-398-0022","addr":"경기도 군포시 산본동 1146한숲스포츠센타4층","indutype":"의원 - 한의원","category":"medical"},{"name":"속편한내과","tel":"031-393-0068","addr":"경기도 군포시 산본동 1146한숲스포츠센타203","indutype":"의원 - 의원","category":"medical"},{"name":"엘키즈의원","tel":"031-396-1224","addr":"경기도 군포시 산본동 1146번지 한숲스포츠센타 3층 302호","indutype":"의원 - 의원","category":"medical"},{"name":"좋은가정의학과의원","tel":"031-394-7512","addr":"경기도 군포시 산본동 1146 솔거대림상가 205호~206호","indutype":"의원 - 의원","category":"medical"},{"name":"한숲세계로약국","tel":"031-395-8275","addr":"경기도 군포시 산본동 1146한숲스포츠센타205호","indutype":"약국 - 약국","category":"medical"}]},{"lat":"37.360778196","long":"126.92251228","imageIndex":8,"items":[{"name":"금강약국","tel":"031-394-9401","addr":"경기도 군포시 산본동 1147번지 금강2단지주상복합아파트","indutype":"약국 - 약국","category":"medical"},{"name":"산본예인한의원","tel":"031-392-1075","addr":"경기도 군포시 산본동 1147번지 금강2차주상복합상가CD동 213호","indutype":"의원 - 한의원","category":"medical"},{"name":"세인소아과의원","tel":"031-398-9177","addr":"경기도 군포시 산본동 1147번지 금강2단지주상복합아파트","indutype":"의원 - 의원","category":"medical"},{"name":"소망약국","tel":"031-399-0504","addr":"경기도 군포시 산본동 1147번지 금강2단지주상복합아파트","indutype":"약국 - 약국","category":"medical"},{"name":"원광으뜸한의원","tel":"031-397-1275","addr":"경기도 군포시 산본동 1147번지 금강2단지 주상복합상가 AB동 208호","indutype":"의원 - 한의원","category":"medical"},{"name":"제일치과의원","tel":"031-391-7534","addr":"경기도 군포시 산본동 1147번지 주공A주상복합상 C,D동 209호","indutype":"의원 - 치과의원","category":"medical"}]},{"lat":"37.371337058","long":"126.93529197","imageIndex":8,"items":[{"name":"금정동물병원","tel":"031-394-2259","addr":"경기도 군포시 산본동 207-7번지","indutype":"기타의료기관 - 동물병원","category":"medical"}]},{"lat":"37.371755525","long":"126.94269752","imageIndex":8,"items":[{"name":"금정성심의원","tel":"031-391-5757","addr":"경기도 군포시 산본동 266-2번지 2층","indutype":"의원 - 의원","category":"medical"},{"name":"제일건강한약국","tel":"031-394-5757","addr":"경기도 군포시 산본동 266-2번지 1층","indutype":"약국 - 약국","category":"medical"}]},{"lat":"37.371331598","long":"126.94181728","imageIndex":8,"items":[{"name":"금정약국","tel":"031-0000-0000","addr":"경기도 군포시 산본동 265-6번지 세환타워 101호","indutype":"약국 - 약국","category":"medical"},{"name":"베스트플란트치과의원","tel":"031-398-2882","addr":"경기도 군포시 산본동 265-6번지 세환타워 1101호","indutype":"병원 - 치과병원","category":"medical"},{"name":"서울굿모닝내과의원","tel":"031-394-7700","addr":"경기도 군포시 산본동 265-6번지 7호 세환프라자5층 501호","indutype":"의원 - 의원","category":"medical"}]},{"lat":"37.370222448","long":"126.94009092","imageIndex":8,"items":[{"name":"금정한의원","tel":"031-393-2989","addr":"경기도 군포시 산본동 236-9번지","indutype":"의원 - 한의원","category":"medical"}]},{"lat":"37.36027847","long":"126.92998534","imageIndex":8,"items":[{"name":"기쁨약국","tel":"031-393-7451","addr":"경기도 군포시 산본동 1123-3번지 센트로601오피스텔 402호","indutype":"약국 - 약국","category":"medical"},{"name":"마음유외과의원","tel":"031-392-2266","addr":"경기도 군포시 산본동 1123-3번지 센트로빌딩 407호","indutype":"의원 - 의원","category":"medical"},{"name":"봉비뇨의학과의원","tel":"031-397-2556","addr":"경기도 군포시 산본동 1123-3번지 센트로601오피스텔 4층 409호","indutype":"의원 - 의원","category":"medical"},{"name":"연세공감정신건강의학과의원","tel":"031-397-7535","addr":"경기도 군포시 산본동 1123-3번지 센트로601오피스텔 4층 408호","indutype":"의원 - 의원","category":"medical"},{"name":"열린연세정형외과","tel":"031-1811-0807","addr":"경기도 군포시 산본동 1123-3번지 센트로 601 오피스텔 401호,403호","indutype":"의원 - 의원","category":"medical"},{"name":"오라클피부과의원","tel":"031-398-1931","addr":"경기도 군포시 산본동 1123-3번지 센트로601오피스텔 4층 407-1호","indutype":"의원 - 의원","category":"medical"}]},{"lat":"37.369500318","long":"126.93765306","imageIndex":8,"items":[{"name":"김경중내과의원","tel":"031-394-1919","addr":"경기도 군포시 산본동 216-13번지","indutype":"의원 - 의원","category":"medical"}]},{"lat":"37.371977213","long":"126.93605909","imageIndex":8,"items":[{"name":"김상용피부과의원","tel":"031-393-9277","addr":"경기도 군포시 산본동 206-1번지","indutype":"의원 - 의원","category":"medical"},{"name":"명숙포약국","tel":"031-395-3574","addr":"경기도 군포시 산본동 206-1번지","indutype":"약국 - 약국","category":"medical"},{"name":"센트럴치과의원","tel":"031-398-7317","addr":"경기도 군포시 산본동 206-1번지 태림빌딩 2층","indutype":"의원 - 치과의원","category":"medical"}]},{"lat":"37.360197085","long":"126.92951133","imageIndex":8,"items":[{"name":"김성근내과의원","tel":"031-398-7582","addr":"경기도 군포시 산본동 1123-5번지 신원빌딩 404호","indutype":"의원 - 의원","category":"medical"},{"name":"미앤미치과","tel":"031-391-4080","addr":"경기도 군포시 산본동 1123-5번지 신원타워빌딩 403호","indutype":"의원 - 치과의원","category":"medical"},{"name":"민사랑약국","tel":"031-391-0257","addr":"경기도 군포시 산본동 1123-5번지 신원타워빌딩 3층 305호","indutype":"약국 - 약국","category":"medical"},{"name":"봄빛아이한의원","tel":"031-395-1190","addr":"경기도 군포시 산본동 1123-5번지 신원타워빌딩 503호","indutype":"의원 - 한의원","category":"medical"},{"name":"서치과","tel":"031-394-4384","addr":"경기도 군포시 산본동 1123-5번지 신원빌딩 403호","indutype":"의원 - 치과의원","category":"medical"},{"name":"성준정형외과의원","tel":"031-398-1192","addr":"경기도 군포시 산본동 1123-5번지 신원타워 504동 505호","indutype":"의원 - 의원","category":"medical"},{"name":"세움한의원","tel":"031-360-5875","addr":"경기도 군포시 산본동 1123-5번지 신원타워빌딩 304호","indutype":"의원 - 한의원","category":"medical"},{"name":"손기태안과","tel":"031-398-9993","addr":"경기도 군포시 산본동 1123-5번지 신원빌딩 402호","indutype":"의원 - 의원","category":"medical"},{"name":"엔젤산부인과","tel":"031-394-0075","addr":"경기도 군포시 산본동 1123-5번지 신원타워빌딩 406호","indutype":"의원 - 의원","category":"medical"},{"name":"이재경소아과의원","tel":"031-398-9199","addr":"경기도 군포시 산본동 1123-5번지 신원빌딩 301호","indutype":"의원 - 의원","category":"medical"},{"name":"조이약국","tel":"031-393-0467","addr":"경기도 군포시 산본동 1123-5번지 신원타워빌딩 405호","indutype":"약국 - 약국","category":"medical"},{"name":"최선한의원","tel":"031-392-9100","addr":"경기도 군포시 산본동 1123-5번지 신원타워빌딩 601호","indutype":"의원 - 한의원","category":"medical"},{"name":"휴&락정신과의원","tel":"031-399-6993","addr":"경기도 군포시 산본동 1123-5번지 신원타워빌딩 4층 401호","indutype":"의원 - 의원","category":"medical"}]},{"lat":"37.371886501","long":"126.93498666","imageIndex":8,"items":[{"name":"김성진내과","tel":"031-347-4800","addr":"경기도 군포시 산본동 1060-1번지 하나로빌딩 3층 301호","indutype":"의원 - 의원","category":"medical"},{"name":"산본성심요양병원","tel":"031-391-2114","addr":"경기도 군포시 산본동 1060-1번지 5,6층","indutype":"병원 - 병원","category":"medical"},{"name":"최시영정신건강의학과의원","tel":"031-395-3747","addr":"경기도 군포시 산본동 1060-1번지 하나로빌딩 402호","indutype":"의원 - 의원","category":"medical"}]},{"lat":"37.359585903","long":"126.93198393","imageIndex":8,"items":[{"name":"김양식한의원","tel":"031-391-2400","addr":"경기도 군포시 산본동 1134번지 제5층3호","indutype":"의원 - 한의원","category":"medical"}]},{"lat":"37.36002678","long":"126.93095633","imageIndex":8,"items":[{"name":"김영진한의원","tel":"031-396-1199","addr":"경기도 군포시 산본동 1136번지 한솔프라자 303호","indutype":"의원 - 한의원","category":"medical"},{"name":"명문치과","tel":"031-397-2727","addr":"경기도 군포시 산본동 1136번지 한솔프라자 404호","indutype":"의원 - 치과의원","category":"medical"}]},{"lat":"37.358422954","long":"126.930924","imageIndex":8,"items":[{"name":"김온누리약국","tel":"031-395-4805","addr":"경기도 군포시 산본동 1143-3번지 신산본빌딩 101호","indutype":"약국 - 약국","category":"medical"},{"name":"산본경희한의원","tel":"031-396-8700","addr":"경기도 군포시 산본동 1143-3번지 신산본빌딩 302동 303호","indutype":"의원 - 한의원","category":"medical"},{"name":"예인부부치과의원","tel":"031-396-4528","addr":"경기도 군포시 산본동 1143-3번지 중심상업신산본빌딩 301호","indutype":"의원 - 치과의원","category":"medical"}]},{"lat":"37.371004482","long":"126.93670345","imageIndex":8,"items":[{"name":"김정호내과의원","tel":"031-394-5631","addr":"경기도 군포시 산본동 213-11번지","indutype":"의원 - 의원","category":"medical"}]},{"lat":"37.371670665","long":"126.9356981","imageIndex":8,"items":[{"name":"김창표재활의학과의원","tel":"031-393-3633","addr":"경기도 군포시 산본동 207-11번지 산본메디칼빌딩 4층","indutype":"의원 - 의원","category":"medical"},{"name":"산본종로약국","tel":"031-395-8011","addr":"경기도 군포시 산본동 207-11번지 메디칼빌딩 1층 101호","indutype":"약국 - 약국","category":"medical"},{"name":"연세선내과의원","tel":"031-391-2323","addr":"경기도 군포시 산본동 207-11번지 산본메디칼빌딩 3층","indutype":"의원 - 의원","category":"medical"},{"name":"이엔미치과의원","tel":"031-393-7528","addr":"경기도 군포시 산본동 207-11번지 산본메디칼빌딩 5층","indutype":"의원 - 치과의원","category":"medical"}]},{"lat":"37.364306209","long":"126.93032009","imageIndex":8,"items":[{"name":"김한샘봄한의원","tel":"031-392-8575","addr":"경기도 군포시 산본동 1097번지 진달래각 301호","indutype":"의원 - 한의원","category":"medical"}]},{"lat":"37.371725057","long":"126.9362851","imageIndex":8,"items":[{"name":"나래비뇨기과의원","tel":"031-392-7582","addr":"경기도 군포시 산본동 206-3번지 덕원빌딩 2층","indutype":"의원 - 의원","category":"medical"},{"name":"조은약국","tel":"031-391-6658","addr":"경기도 군포시 산본동 206-3번지","indutype":"약국 - 약국","category":"medical"},{"name":"화통한의원","tel":"031-391-7576","addr":"경기도 군포시 산본동 206-3번지 덕원빌딩 1층","indutype":"의원 - 한의원","category":"medical"}]},{"lat":"37.359387782","long":"126.93215343","imageIndex":8,"items":[{"name":"노블클래식의원","tel":"031-689-3638","addr":"경기도 군포시 산본동 1134-1번지 센타빌딩 8층 1호","indutype":"의원 - 의원","category":"medical"},{"name":"유디치과의원","tel":"031-399-6666","addr":"경기도 군포시 산본동 1134-1번지 센타빌딩 B동 8층 801~803,805호일부","indutype":"의원 - 치과의원","category":"medical"}]},{"lat":"37.359451309","long":"126.93292093","imageIndex":8,"items":[{"name":"다나약국","tel":"031-395-7117","addr":"경기도 군포시 산본동 1129-1번지 럭키빌딩 104호","indutype":"약국 - 약국","category":"medical"}]},{"lat":"37.359197964","long":"126.93114901","imageIndex":8,"items":[{"name":"다솔약국","tel":"031-397-9078","addr":"경기도 군포시 산본동 1139번지 거성2차 301호","indutype":"약국 - 약국","category":"medical"},{"name":"연세코웰이비인후과","tel":"031-399-0015","addr":"경기도 군포시 산본동 1139번지 거성2차 상가 3층","indutype":"의원 - 의원","category":"medical"}]},{"lat":"37.359305818","long":"126.93070869","imageIndex":8,"items":[{"name":"다올한의원","tel":"031-398-7585","addr":"경기도 군포시 산본동 1138-2번지 성훈빌딩 301호","indutype":"의원 - 한의원","category":"medical"},{"name":"연세윤내과","tel":"031-393-7085","addr":"경기도 군포시 산본동 1138-2번지 성훈빌딩 401호","indutype":"의원 - 의원","category":"medical"}]},{"lat":"37.371112572","long":"126.9366469","imageIndex":8,"items":[{"name":"다인약국","tel":"031-391-7177","addr":"경기도 군포시 산본동 213-12번지 태영빌딩 1층 101호","indutype":"약국 - 약국","category":"medical"},{"name":"차재활의학과","tel":"031-392-4573","addr":"경기도 군포시 산본동 213-12번지 태영빌딩 2,3층","indutype":"의원 - 의원","category":"medical"},{"name":"차정형외과의원","tel":"031-392-1230","addr":"경기도 군포시 산본동 213-12 태영빌딩 1,2,4층","indutype":"의원 - 의원","category":"medical"}]},{"lat":"37.370220878","long":"126.93720086","imageIndex":8,"items":[{"name":"담주약국","tel":"031-397-5676","addr":"경기도 군포시 산본동 216-20,104","indutype":"약국 - 약국","category":"medical"}]},{"lat":"37.366026418","long":"126.92914442","imageIndex":8,"items":[{"name":"대주약국","tel":"031-398-4304","addr":"경기도 군포시 산본동 1098번지 대주빌딩 102호 일부","indutype":"약국 - 약국","category":"medical"},{"name":"세린이비인후과","tel":"031-399-8275","addr":"경기도 군포시 산본동 1098대주빌딩4층402,403호","indutype":"의원 - 의원","category":"medical"}]},{"lat":"37.359226176","long":"126.93312432","imageIndex":8,"items":[{"name":"대학약국","tel":"031-398-1135","addr":"경기도 군포시 산본동 1128번지 금성프라자 102동 108호","indutype":"약국 - 약국","category":"medical"},{"name":"대학약국","tel":"031-398-1135","addr":"경기도 군포시 산본동 1128번지 금성프라자 102동 108호","indutype":"약국 - 약국","category":"medical"}]},{"lat":"37.359089705","long":"126.93092336","imageIndex":8,"items":[{"name":"더건강한내과","tel":"031-397-7582","addr":"경기도 군포시 산본동 1139-3번지 거성빌딩1차 6층 601,607호","indutype":"의원 - 의원","category":"medical"},{"name":"더건강한내과","tel":"031-397-7582","addr":"경기도 군포시 산본동 1139-3번지 6층601호~607호","indutype":"의원 - 의원","category":"medical"},{"name":"현대약국","tel":"031-399-7780","addr":"경기도 군포시 산본동 1139-3번지 거성빌딩1차 603호","indutype":"약국 - 약국","category":"medical"}]},{"lat":"37.370806322","long":"126.93681651","imageIndex":8,"items":[{"name":"로뎀한의원","tel":"031-395-1075","addr":"경기도 군포시 산본동 213-9 2층201호~202호","indutype":"의원 - 한의원","category":"medical"},{"name":"장경한의원","tel":"031-395-1075","addr":"경기도 군포시 산본동 213-9번지 2층 201호","indutype":"의원 - 한의원","category":"medical"}]},{"lat":"37.359946639","long":"126.93253669","imageIndex":8,"items":[{"name":"메디칼중앙약국","tel":"031-397-5775","addr":"경기도 군포시 산본동 330군포프라자304호 신메디칼","indutype":"약국 - 약국","category":"medical"},{"name":"생명마루한의원 산본점","tel":"031-397-1075","addr":"경기도 군포시 산본동 1130번지 군포프라자 303, 304호","indutype":"의원 - 한의원","category":"medical"}]},{"lat":"37.360532298","long":"126.93253614","imageIndex":8,"items":[{"name":"메이퓨어의원 산본점","tel":"031-395-3955","addr":"경기도 군포시 산본동 1125-2번지 보람타워 3층 2호","indutype":"의원 - 의원","category":"medical"},{"name":"화수토한의원","tel":"031-465-3003","addr":"경기도 군포시 산본동 1125-2번지 보람타워 411호","indutype":"의원 - 한의원","category":"medical"}]},{"lat":"37.369755873","long":"126.92796669","imageIndex":8,"items":[{"name":"몸짱맘짱","tel":"","addr":"경기도 군포시 산본동 1088번지 한양목련아파트","indutype":"약국 - 한약방","category":"medical"}]},{"lat":"37.359892099","long":"126.93173531","imageIndex":8,"items":[{"name":"미소지앤의원","tel":"031-343-2400","addr":"경기도 군포시 산본동 1133-2번지 산본중심상가 국민은행건물 4층","indutype":"의원 - 의원","category":"medical"},{"name":"샘물약국","tel":"031-393-2519","addr":"경기도 군포시 산본동 1133-2번지 5층","indutype":"약국 - 약국","category":"medical"},{"name":"아름다운피부과의원","tel":"031-395-7600","addr":"경기도 군포시 산본동 1133-2번지 5층","indutype":"의원 - 의원","category":"medical"},{"name":"연세웰치과의원","tel":"031-393-2804","addr":"경기도 군포시 산본동 1133-2번지 국민은행빌딩 4층","indutype":"의원 - 치과의원","category":"medical"}]},{"lat":"37.358946116","long":"126.93187166","imageIndex":8,"items":[{"name":"미올한의원 산본점","tel":"031-394-1075","addr":"경기도 군포시 산본동 1135-2번지 5층","indutype":"의원 - 한의원","category":"medical"},{"name":"스마일라인치과","tel":"031-398-2875","addr":"경기도 군포시 산본동 1135-2번지 농협중앙회빌딩 4층","indutype":"의원 - 의원","category":"medical"},{"name":"플레루김치과","tel":"031-399-2879","addr":"경기도 군포시 산본동 1135-2번지 4층","indutype":"의원 - 치과의원","category":"medical"}]},{"lat":"37.364306444","long":"126.9307039","imageIndex":8,"items":[{"name":"미체원의원","tel":"031-391-5395","addr":"경기도 군포시 산본동 1095-1번지 1층","indutype":"의원 - 의원","category":"medical"},{"name":"본약국","tel":"031-399-2345","addr":"경기도 군포시 산본동 1095-1,2","indutype":"약국 - 약국","category":"medical"}]},{"lat":"37.371833115","long":"126.93617211","imageIndex":8,"items":[{"name":"미플러스치과","tel":"031-399-2834","addr":"경기도 군포시 산본동 206-2번지 태웅빌딩 3층","indutype":"의원 - 치과의원","category":"medical"},{"name":"송안과의원","tel":"031-396-1874","addr":"경기도 군포시 산본동 206-2번지","indutype":"의원 - 의원","category":"medical"},{"name":"참이비인후과의원","tel":"031-393-8686","addr":"경기도 군포시 산본동 206-2번지 2층 지상","indutype":"의원 - 의원","category":"medical"}]},{"lat":"37.37272788","long":"126.94126296","imageIndex":8,"items":[{"name":"민우약국","tel":"031-393-5540","addr":"경기도 군포시 산본동 97-5번지","indutype":"약국 - 약국","category":"medical"}]},{"lat":"37.360811498","long":"126.93234399","imageIndex":8,"items":[{"name":"박정민신경과","tel":"031-399-7399","addr":"경기도 군포시 산본동 1125번지 현대코아텔 3층 302-304호","indutype":"의원 - 의원","category":"medical"}]},{"lat":"37.360252321","long":"126.9314302","imageIndex":8,"items":[{"name":"박형근내과","tel":"031-399-0975","addr":"경기도 군포시 산본동 1133번지 삼정빌딩 4층 402호","indutype":"의원 - 의원","category":"medical"},{"name":"삼정약국","tel":"031-399-3707","addr":"경기도 군포시 산본동 1133번지 삼정빌딩 105호","indutype":"약국 - 약국","category":"medical"},{"name":"서울수이비인후과의원","tel":"031-392-5250","addr":"경기도 군포시 산본동 1133번지 삼정빌딩 301호","indutype":"의원 - 의원","category":"medical"},{"name":"선비뇨기과의원","tel":"031-399-1110","addr":"경기도 군포시 산본동 1133번지 삼정빌딩 5층 501호","indutype":"의원 - 의원","category":"medical"},{"name":"수한의원","tel":"031-396-1075","addr":"경기도 군포시 산본동 1133번지 삼정빌딩 5층","indutype":"의원 - 한의원","category":"medical"},{"name":"엠디치과의원","tel":"031-399-0075","addr":"경기도 군포시 산본동 1133번지 심정빌딩 6층","indutype":"의원 - 치과의원","category":"medical"},{"name":"연세키즈소아청소년과의원","tel":"02-585-4336","addr":"경기도 군포시 산본동 1133번지 삼정빌딩 4층 401호","indutype":"의원 - 의원","category":"medical"},{"name":"우리안과","tel":"031-391-6200","addr":"경기도 군포시 산본동 1133번지 삼정빌딩 302호","indutype":"의원 - 의원","category":"medical"},{"name":"최일석의원","tel":"031-391-8275","addr":"경기도 군포시 산본동 1133번지 우신상호빌딩 4층","indutype":"의원 - 의원","category":"medical"}]},{"lat":"37.37133773","long":"126.93647737","imageIndex":8,"items":[{"name":"봄빛온누리약국","tel":"031-396-4001","addr":"경기도 군포시 산본동 99-49번지 1층","indutype":"약국 - 약국","category":"medical"},{"name":"한사랑치과의원","tel":"031-393-3636","addr":"경기도 군포시 산본동 99-49번지","indutype":"의원 - 치과의원","category":"medical"}]},{"lat":"37.371309463","long":"126.93430982","imageIndex":8,"items":[{"name":"사암아침한의원","tel":"031-393-5090","addr":"경기도 군포시 산본동 1061-1번지 현대아카데미센터 401호","indutype":"의원 - 한의원","category":"medical"}]},{"lat":"37.360531799","long":"126.93170084","imageIndex":8,"items":[{"name":"산본나란이치과의원","tel":"031-392-2875","addr":"경기도 군포시 산본동 1132-3번지 성진빌딩 301호~302호","indutype":"의원 - 치과의원","category":"medical"},{"name":"솔약국","tel":"031-397-0664","addr":"경기도 군포시 산본동 1132-3번지 성진빌딩 7층 704호","indutype":"약국 - 약국","category":"medical"}]},{"lat":"37.370808588","long":"126.94100487","imageIndex":8,"items":[{"name":"산본동물병원","tel":"031-394-0816","addr":"경기도 군포시 산본동 238-8번지","indutype":"기타의료기관 - 동물병원","category":"medical"}]},{"lat":"37.35991789","long":"126.92970349","imageIndex":8,"items":[{"name":"산본마취통증의학과의원","tel":"031-392-8955","addr":"경기도 군포시 산본동 1123-4번지 유공프라자 2층 208-211,230-232,234-236호","indutype":"의원 - 의원","category":"medical"},{"name":"삼성바른정형외과","tel":"031-395-7575","addr":"경기도 군포시 산본동 1123-4번지 유공프라자 5층 501,503,504,505,506,509,511,512호","indutype":"의원 - 의원","category":"medical"},{"name":"새봄약국","tel":"031-392-3700","addr":"경기도 군포시 산본동 1123-4번지 유공프라자 114동 115호","indutype":"약국 - 약국","category":"medical"}]},{"lat":"37.358089764","long":"126.93122908","imageIndex":8,"items":[{"name":"산본어린이치과의원","tel":"031-393-5275","addr":"경기도 군포시 산본동 1142-8번지 성원빌딩 401,402호","indutype":"의원 - 치과의원","category":"medical"}]},{"lat":"37.358784398","long":"126.93265065","imageIndex":8,"items":[{"name":"산본에이치치과의원","tel":"031-392-2835","addr":"경기도 군포시 산본동 1142-12번지 군포상가301호~309호","indutype":"의원 - 치과의원","category":"medical"},{"name":"신진약국","tel":"031-397-6991","addr":"경기도 군포시 산본동 1142-12번지","indutype":"약국 - 약국","category":"medical"},{"name":"신진약국","tel":"031-397-6991","addr":"경기도 군포시 산본동 1142-12번지 군포상가 102동 103호","indutype":"약국 - 약국","category":"medical"}]},{"lat":"37.370727438","long":"126.94089205","imageIndex":8,"items":[{"name":"산본온누리약국","tel":"031-393-6071","addr":"경기도 군포시 산본동 238-7번지 1층","indutype":"약국 - 약국","category":"medical"}]},{"lat":"37.370636528","long":"126.93936806","imageIndex":8,"items":[{"name":"산본외과","tel":"031-397-8130","addr":"경기도 군포시 산본동 89-21번지","indutype":"의원 - 의원","category":"medical"}]},{"lat":"37.358811835","long":"126.93333917","imageIndex":8,"items":[{"name":"산본유니드치과의원","tel":"031-395-2828","addr":"경기도 군포시 산본동 1142-2번지","indutype":"의원 - 치과의원","category":"medical"}]},{"lat":"37.363585867","long":"126.93108839","imageIndex":8,"items":[{"name":"산본제일병원","tel":"031-390-3444","addr":"경기도 군포시 산본동 1097-4번지","indutype":"병원 - 병원","category":"medical"},{"name":"산본제일병원","tel":"031-390-3444","addr":"경기도 군포시 산본동 1097-4번지","indutype":"병원 - 병원","category":"medical"}]},{"lat":"37.372112416","long":"126.93614928","imageIndex":8,"items":[{"name":"산본제일의원","tel":"031-398-3696","addr":"경기도 군포시 산본동 206-7번지","indutype":"의원 - 의원","category":"medical"}]},{"lat":"37.370886261","long":"126.93478435","imageIndex":8,"items":[{"name":"산본중앙동물병원","tel":"031-395-0075","addr":"경기도 군포시 산본동 207-2번지 1,2층","indutype":"기타의료기관 - 동물병원","category":"medical"}]},{"lat":"37.371276913","long":"126.94062065","imageIndex":8,"items":[{"name":"산본척척마취통증의학과의원","tel":"031-397-7588","addr":"경기도 군포시 산본동 91-41번지 2층","indutype":"의원 - 의원","category":"medical"}]},{"lat":"37.369392221","long":"126.93769831","imageIndex":8,"items":[{"name":"산본치과의원","tel":"031-393-4123","addr":"경기도 군포시 산본동 216-12번지","indutype":"의원 - 치과의원","category":"medical"},{"name":"생생당약국","tel":"031-399-0996","addr":"경기도 군포시 산본동 216-12번지 1층","indutype":"약국 - 약국","category":"medical"},{"name":"약손한의원","tel":"031-399-1233","addr":"경기도 군포시 산본동 216-12번지 3층","indutype":"의원 - 한의원","category":"medical"}]},{"lat":"37.358639095","long":"126.93075448","imageIndex":8,"items":[{"name":"산본피부비뇨기과의원","tel":"031-397-6848","addr":"경기도 군포시 산본동 1143-2번지 우주타운 302호","indutype":"의원 - 의원","category":"medical"},{"name":"서울S치과의원","tel":"031-397-0011","addr":"경기도 군포시 산본동 1143-2번지 우주타운빌딩","indutype":"의원 - 치과의원","category":"medical"}]},{"lat":"37.369608663","long":"126.93805938","imageIndex":8,"items":[{"name":"산본한의원","tel":"031-396-9666","addr":"경기도 군포시 산본동 221-5번지","indutype":"의원 - 한의원","category":"medical"}]},{"lat":"37.36030685","long":"126.93220901","imageIndex":8,"items":[{"name":"산본항외과의원","tel":"031-399-9900","addr":"경기도 군포시 산본동 1131번지 서련빌딩 3층 301호","indutype":"의원 - 의원","category":"medical"}]},{"lat":"37.371526535","long":"126.93575467","imageIndex":8,"items":[{"name":"삼성조은내과","tel":"031-399-5890","addr":"경기도 군포시 산본동 207-12,산본두성프라자3층301~303호","indutype":"의원 - 의원","category":"medical"},{"name":"예사랑약국","tel":"031-393-8823","addr":"경기도 군포시 산본동 207-12 외 2필지 산본 두성프라자 제1층","indutype":"약국 - 약국","category":"medical"}]},{"lat":"37.370087368","long":"126.94022651","imageIndex":8,"items":[{"name":"상록수약국","tel":"031-393-9386","addr":"경기도 군포시 산본동 236-10번지 1층","indutype":"약국 - 약국","category":"medical"}]},{"lat":"37.370004698","long":"126.93731395","imageIndex":8,"items":[{"name":"상쾌한이비인후과의원","tel":"031-391-7038","addr":"경기도 군포시 산본동 216-18번지 2층","indutype":"의원 - 의원","category":"medical"},{"name":"오케이치과의원","tel":"031-394-2879","addr":"경기도 군포시 산본동 216-18번지 4층","indutype":"의원 - 치과의원","category":"medical"},{"name":"파란약국","tel":"031-398-2119","addr":"경기도 군포시 산본동 216-18번지 1층","indutype":"약국 - 약국","category":"medical"},{"name":"활기찬 한의원","tel":"031-392-3400","addr":"경기도 군포시 산본동 216-18번지 3층","indutype":"의원 - 한의원","category":"medical"}]},{"lat":"37.359170445","long":"126.93034761","imageIndex":8,"items":[{"name":"새빛약국","tel":"031-393-6532","addr":"경기도 군포시 산본동 1144-2번지 세종빌딩 101호","indutype":"약국 - 약국","category":"medical"},{"name":"에이스치과","tel":"031-397-2875","addr":"경기도 군포시 산본동 1144-2번지 세종빌딩 304호","indutype":"의원 - 치과의원","category":"medical"},{"name":"하나로 약국","tel":"031-399-0445","addr":"경기도 군포시 산본동 1144-2번지 산본시네마 1층 109호","indutype":"약국 - 약국","category":"medical"},{"name":"한사랑약국","tel":"031-398-2865","addr":"경기도 군포시 산본동 1144-2번지 산본시네마빌딩 301호","indutype":"약국 - 약국","category":"medical"},{"name":"홍기영내과","tel":"031-395-8221","addr":"경기도 군포시 산본동 1144-2번지 세종빌딩 304호","indutype":"의원 - 의원","category":"medical"},{"name":"힘정형외과의원","tel":"031-393-0083","addr":"경기도 군포시 산본동 1144-2번지 세종빌딩 4층","indutype":"의원 - 의원","category":"medical"}]},{"lat":"37.364666427","long":"126.93001496","imageIndex":8,"items":[{"name":"새하늘약국","tel":"031-346-1551","addr":"경기도 군포시 산본동 1099-4번지 대림타운 107동 108호","indutype":"약국 - 약국","category":"medical"},{"name":"오앤드정부부치과의원","tel":"031-346-2875","addr":"경기도 군포시 산본동 1099-4번지 대림타운 301호","indutype":"의원 - 치과의원","category":"medical"},{"name":"필한의원","tel":"031-346-5400","addr":"경기도 군포시 산본동 1099-4번지 대림타운 3층 303호","indutype":"의원 - 한의원","category":"medical"},{"name":"하나소아과의원","tel":"031-346-8275","addr":"경기도 군포시 산본동 1099-4번지 대림타운 201호","indutype":"의원 - 의원","category":"medical"}]},{"lat":"37.364054056","long":"126.93053482","imageIndex":8,"items":[{"name":"서경약국","tel":"031-399-3662","addr":"경기도 군포시 산본동 1097-1번지 산본사이버텔 2층 204호","indutype":"약국 - 약국","category":"medical"},{"name":"세안약국","tel":"031-396-5526","addr":"경기도 군포시 산본동 1097-1번지 산본사이버텔 113호","indutype":"약국 - 약국","category":"medical"},{"name":"장태종내과의원","tel":"031-391-5565","addr":"경기도 군포시 산본동 1097-1번지 산본사이버텔 201호","indutype":"의원 - 의원","category":"medical"},{"name":"중앙신경외과","tel":"031-396-8420","addr":"경기도 군포시 산본동 1097-1번지 산본사이버텔 205호","indutype":"의원 - 의원","category":"medical"}]},{"lat":"37.369473406","long":"126.93786758","imageIndex":8,"items":[{"name":"서울 원선생 한의원","tel":"031-689-5727","addr":"경기도 군포시 산본동 216-11번지 2층","indutype":"의원 - 한의원","category":"medical"}]},{"lat":"37.368075335","long":"126.9351933","imageIndex":8,"items":[{"name":"서울삼성치과","tel":"031-392-2080","addr":"경기도 군포시 산본동 1240번지 1202호, 1203호 일부호","indutype":"의원 - 치과의원","category":"medical"}]},{"lat":"37.359557638","long":"126.92995217","imageIndex":8,"items":[{"name":"서울윤치과의원","tel":"031-395-2804","addr":"경기도 군포시 산본동 1144번지 신한은행빌딩 2층","indutype":"의원 - 치과의원","category":"medical"},{"name":"이병철한의원","tel":"031-397-8500","addr":"경기도 군포시 산본동 1144번지 조흥은행 2층","indutype":"의원 - 한의원","category":"medical"}]},{"lat":"37.36969846","long":"126.93750613","imageIndex":8,"items":[{"name":"서울하이안치과(산본)","tel":"031-394-7528","addr":"경기도 군포시 산본동 216-15번지 2층","indutype":"의원 - 치과의원","category":"medical"}]},{"lat":"37.370944825","long":"126.94311588","imageIndex":8,"items":[{"name":"성보약국","tel":"031-391-7881","addr":"경기도 군포시 산본동 266-9번지 1층","indutype":"약국 - 약국","category":"medical"}]},{"lat":"37.371170021","long":"126.94300281","imageIndex":8,"items":[{"name":"세아치과의원","tel":"031-394-1100","addr":"경기도 군포시 산본동 266-7번지","indutype":"의원 - 치과의원","category":"medical"}]},{"lat":"37.360667086","long":"126.93192647","imageIndex":8,"items":[{"name":"스누피 동물병원","tel":"031-397-0071","addr":"경기도 군포시 산본동 1132번지 창선빌딩 101,102,지층101호","indutype":"기타의료기관 - 동물병원","category":"medical"},{"name":"한빛종합동물병원","tel":"031-399-7582","addr":"경기도 군포시 산본동 1132번지 창선빌딩 104호","indutype":"기타의료기관 - 동물병원","category":"medical"}]},{"lat":"37.360054498","long":"126.93209637","imageIndex":8,"items":[{"name":"신동승치과의원","tel":"031-394-8125","addr":"경기도 군포시 산본동 1131-2번지 청운 상가 303호","indutype":"의원 - 치과의원","category":"medical"}]},{"lat":"37.37067281","long":"126.9398196","imageIndex":8,"items":[{"name":"신연세치과의원","tel":"031-397-2092","addr":"경기도 군포시 산본동 91-6번지","indutype":"의원 - 치과의원","category":"medical"}]},{"lat":"37.371471743","long":"126.93447901","imageIndex":8,"items":[{"name":"신풍제약(주)경인","tel":"031-391-7390","addr":"경기도 군포시 산본동 1061번지 한빛타운 6층","indutype":"약국 - 제약회사","category":"medical"}]},{"lat":"37.357837664","long":"126.93153408","imageIndex":8,"items":[{"name":"아름다운항외과의원","tel":"031-392-7979","addr":"경기도 군포시 산본동 1142-7번지 중앙타워 8층 801-806","indutype":"의원 - 의원","category":"medical"}]},{"lat":"37.371002895","long":"126.93392625","imageIndex":8,"items":[{"name":"양치과의원","tel":"031-391-2620","addr":"경기도 군포시 산본동 1061-3번지 국민은행 406호","indutype":"의원 - 치과의원","category":"medical"},{"name":"연세라인의원","tel":"031-397-8176","addr":"경기도 군포시 산본동 1061-3번지 미성프라자 404호","indutype":"의원 - 의원","category":"medical"},{"name":"연세라인의원","tel":"031-394-1132","addr":"경기도 군포시 산본동 1061-3번지 미성프라자","indutype":"의원 - 의원","category":"medical"}]},{"lat":"37.374223718","long":"126.94156656","imageIndex":8,"items":[{"name":"에스제이피","tel":"031-687-5413","addr":"경기도 군포시 산본동 79-75번지 해정빌딩 2층 201호","indutype":"약국 - 제약회사","category":"medical"}]},{"lat":"37.358225521","long":"126.93223353","imageIndex":8,"items":[{"name":"연세문치과의원","tel":"031-395-8270","addr":"경기도 군포시 산본동 1142-5번지 금화프라자 403호","indutype":"의원 - 치과의원","category":"medical"},{"name":"오월한의원","tel":"031-396-7573","addr":"경기도 군포시 산본동 1142-5번지 금화프라자 304,305호","indutype":"의원 - 한의원","category":"medical"}]},{"lat":"37.370419025","long":"126.93706522","imageIndex":8,"items":[{"name":"연세본치과의원","tel":"031-397-0011","addr":"경기도 군포시 산본동 216-22번지 3층","indutype":"의원 - 치과의원","category":"medical"},{"name":"제일경희한의원","tel":"031-398-3999","addr":"경기도 군포시 산본동 216-22번지 2층","indutype":"의원 - 한의원","category":"medical"}]},{"lat":"37.370112788","long":"126.9372574","imageIndex":8,"items":[{"name":"연세수치과의원","tel":"031-391-2804","addr":"경기도 군포시 산본동 216-19번지 산본빌딩 3층","indutype":"의원 - 치과의원","category":"medical"},{"name":"추규열 외과의원","tel":"031-393-3999","addr":"경기도 군포시 산본동 216-19번지","indutype":"의원 - 의원","category":"medical"}]},{"lat":"37.371890677","long":"126.94269741","imageIndex":8,"items":[{"name":"연세탑치과의원","tel":"031-399-1177","addr":"경기도 군포시 산본동 266-1번지 3층","indutype":"의원 - 치과의원","category":"medical"}]},{"lat":"37.35694562","long":"126.91784343","imageIndex":8,"items":[{"name":"오케이나라한의원","tel":"031-393-7501","addr":"경기도 군포시 산본동 1151-5한양프라자204,205호","indutype":"의원 - 한의원","category":"medical"},{"name":"현대중앙의원","tel":"031-397-3500","addr":"경기도 군포시 산본동 1151-5번지 한양프라자 2층 202,203호","indutype":"의원 - 의원","category":"medical"}]},{"lat":"37.370337966","long":"126.93712174","imageIndex":8,"items":[{"name":"온누리예치과의원","tel":"031-393-4048","addr":"경기도 군포시 산본동 216-21번지 2,3층","indutype":"의원 - 치과의원","category":"medical"}]},{"lat":"37.372721785","long":"126.93050391","imageIndex":8,"items":[{"name":"우리들약국","tel":"031-397-6822","addr":"경기도 군포시 산본동 1066-2번지 대현프라자 104호","indutype":"약국 - 약국","category":"medical"}]},{"lat":"37.359694783","long":"126.93325934","imageIndex":8,"items":[{"name":"원광대학교의과대학산본병원","tel":"031-390-2750","addr":"경기도 군포시 산본동 1126-1번지 1142번지","indutype":"병원 - 종합병원","category":"medical"}]},{"lat":"37.359334556","long":"126.93356444","imageIndex":8,"items":[{"name":"원광대학교치과대학산본치과병원","tel":"031-390-2875","addr":"경기도 군포시 산본동 1142번지","indutype":"병원 - 종합병원","category":"medical"}]},{"lat":"37.35963902","long":"126.93042618","imageIndex":8,"items":[{"name":"원광한약국","tel":"031-394-1079","addr":"경기도 군포시 산본동 1137-2번지 여명프라자 104호","indutype":"약국 - 약국","category":"medical"}]},{"lat":"37.36542288","long":"126.92937078","imageIndex":8,"items":[{"name":"윈치과병원","tel":"031-399-5226","addr":"경기도 군포시 산본동 1099-1번지 성우빌딩 10층","indutype":"의원 - 치과의원","category":"medical"}]},{"lat":"37.358360239","long":"126.93151101","imageIndex":8,"items":[{"name":"으뜸한의원","tel":"031-454-9509","addr":"경기도 군포시 산본동 1141번지 동선빌딩 2층","indutype":"의원 - 한의원","category":"medical"},{"name":"현지약국","tel":"031-393-6268","addr":"경기도 군포시 산본동 1141번지 동선빌딩 302호","indutype":"약국 - 약국","category":"medical"}]},{"lat":"37.37127812","long":"126.94295756","imageIndex":8,"items":[{"name":"이치과의원","tel":"031-396-1962","addr":"경기도 군포시 산본동 266-6번지","indutype":"의원 - 치과의원","category":"medical"}]},{"lat":"37.372337401","long":"126.93567492","imageIndex":8,"items":[{"name":"인술명인한의원","tel":"031-392-2090","addr":"경기도 군포시 산본동 111번지 202호","indutype":"의원 - 한의원","category":"medical"},{"name":"참이지치과의원","tel":"031-391-7475","addr":"경기도 군포시 산본동 111번지 301호","indutype":"의원 - 치과의원","category":"medical"}]},{"lat":"37.371697159","long":"126.93476104","imageIndex":8,"items":[{"name":"자생약국","tel":"031-391-0077","addr":"경기도 군포시 산본동 1060-2번지 1층","indutype":"약국 - 약국","category":"medical"}]},{"lat":"37.364999864","long":"126.93011623","imageIndex":8,"items":[{"name":"전희숙산부인과","tel":"031-394-9927","addr":"경기도 군포시 산본동 1094-1번지 신호프라자 2층","indutype":"의원 - 의원","category":"medical"}]},{"lat":"37.349418991","long":"126.92642941","imageIndex":8,"items":[{"name":"정수치과의원","tel":"031-391-2970","addr":"경기도 군포시 산본동 1156-8번지 한라1차아파트 종합상가 201호","indutype":"의원 - 치과의원","category":"medical"},{"name":"참가정의학과의원","tel":"031-392-0504","addr":"경기도 군포시 산본동 1156-8주공4단지상가동311.312호","indutype":"의원 - 의원","category":"medical"}]},{"lat":"37.359144237","long":"126.93170215","imageIndex":8,"items":[{"name":"좋은숨김휘정내과의원","tel":"031-398-3004","addr":"경기도 군포시 산본동 1135-1번지 롯데프라자 803호","indutype":"의원 - 의원","category":"medical"},{"name":"하박사약국","tel":"031-399-7333","addr":"경기도 군포시 산본동 1135-1번지 롯데프라자 8층 802호","indutype":"약국 - 약국","category":"medical"}]},{"lat":"37.369365802","long":"126.93881596","imageIndex":8,"items":[{"name":"차서한의원","tel":"031-397-6288","addr":"경기도 군포시 산본동 224-9번지 2층","indutype":"의원 - 한의원","category":"medical"}]},{"lat":"37.370141315","long":"126.94001196","imageIndex":8,"items":[{"name":"토비동물병원","tel":"031-399-1175","addr":"경기도 군포시 산본동 236-8번지 102호","indutype":"기타의료기관 - 동물병원","category":"medical"}]},{"lat":"37.359676052","long":"126.93206286","imageIndex":8,"items":[{"name":"평화약국","tel":"031-393-2803","addr":"경기도 군포시 산본동 1134번지 센타빌딩 A동 504호","indutype":"약국 - 약국","category":"medical"},{"name":"한피부과의원","tel":"031-393-7050","addr":"경기도 군포시 산본동 1134번지 센터빌딩 A동 502호","indutype":"의원 - 의원","category":"medical"}]},{"lat":"37.36991464","long":"126.93739305","imageIndex":8,"items":[{"name":"한초당한의원","tel":"031-398-7557","addr":"경기도 군포시 산본동 216-17번지","indutype":"의원 - 한의원","category":"medical"}]},{"lat":"37.368392431","long":"126.93830878","imageIndex":8,"items":[{"name":"현대치과의원","tel":"031-393-5789","addr":"경기도 군포시 산본동 225-13번지","indutype":"의원 - 치과의원","category":"medical"}]},{"lat":"37.370664313","long":"126.94079049","imageIndex":8,"items":[{"name":"현약국","tel":"031-392-5497","addr":"경기도 군포시 산본동 238-6번지 태평빌딩","indutype":"약국 - 약국","category":"medical"},{"name":"황가정의학과의원","tel":"031-398-3961","addr":"경기도 군포시 산본동 238-6번지","indutype":"의원 - 의원","category":"medical"}]},{"lat":"37.371141004","long":"126.93919829","imageIndex":8,"items":[{"name":"황약국","tel":"031-394-0499","addr":"경기도 군포시 산본동 90-7번지","indutype":"약국 - 약국","category":"medical"}]},{"lat":"37.367888036","long":"126.9386253","imageIndex":8,"items":[{"name":"회춘원한약방","tel":"031-394-8833","addr":"경기도 군포시 산본동 225-9번지","indutype":"의원 - 한의원","category":"medical"}]}]