[{"lat":"37.395247741","long":"126.97433314","imageIndex":17,"items":[{"name":"LYS컬렉션","tel":"031-426-9490","addr":"경기도 안양시 동안구 흥안대로","indutype":"레져용품 - 스포츠·레져용품","category":"other"}]},{"lat":"37.392220495","long":"126.97494409","imageIndex":17,"items":[{"name":"더아이잗 인덕원점","tel":"031-426-6660","addr":"경기도 안양시 동안구 흥안대로","indutype":"의류 - 스포츠의류","category":"other"},{"name":"링스골프","tel":"031-424-5945","addr":"경기도 안양시 동안구 흥안대로","indutype":"의류 - 스포츠의류","category":"other"},{"name":"지센인덕원점","tel":"031-2246-5634","addr":"경기도 안양시 동안구 흥안대로","indutype":"의류 - 스포츠의류","category":"other"},{"name":"클라스마골프 인덕원점","tel":"031-421-4022","addr":"경기도 안양시 동안구 흥안대로","indutype":"의류 - 스포츠의류","category":"other"}]},{"lat":"37.382416215","long":"126.96994576","imageIndex":17,"items":[{"name":"두현상회","tel":"","addr":"경기도 안양시 동안구 흥안대로","indutype":"유통업 영리 - 농축수산 가공품","category":"other"},{"name":"미소유통","tel":"031-427-1711","addr":"경기도 안양시 동안구 흥안대로","indutype":"유통업 영리 - 농축수산 가공품","category":"other"},{"name":"베스트상회","tel":"070-8776-4877","addr":"경기도 안양시 동안구 흥안대로","indutype":"유통업 영리 - 농축수산 가공품","category":"other"},{"name":"한밭상회","tel":"031-859-3232","addr":"경기도 안양시 동안구 흥안대로","indutype":"유통업 영리 - 농축수산 가공품","category":"other"}]},{"lat":"37.370834625","long":"126.9589211","imageIndex":17,"items":[{"name":"디자인기와&기와코퍼레이션","tel":"031-451-1640","addr":"경기도 안양시 동안구 흥안대로","indutype":"건축자재 - 인테리어전문","category":"other"}]},{"lat":"37.395247654","long":"126.97397177","imageIndex":17,"items":[{"name":"마운티아평촌점","tel":"031-421-8236","addr":"경기도 안양시 동안구 흥안대로","indutype":"레져용품 - 스포츠·레져용품","category":"other"}]},{"lat":"37.394860725","long":"126.97611758","imageIndex":17,"items":[{"name":"삼성당","tel":"031-444-0736","addr":"경기도 안양시 동안구 흥안대로","indutype":"신변잡화 - 시계","category":"other"}]},{"lat":"37.368778318","long":"126.95384222","imageIndex":17,"items":[{"name":"서진유통","tel":"031-477-2977","addr":"경기도 안양시 동안구 흥안대로","indutype":"의류 - 내의판매","category":"other"}]},{"lat":"37.400303083","long":"126.97731279","imageIndex":17,"items":[{"name":"수목댄스스포츠","tel":"031-422-3113","addr":"경기도 안양시 동안구 흥안대로","indutype":"회원제형태 - 레져업소","category":"other"}]},{"lat":"37.391300956","long":"126.97286662","imageIndex":17,"items":[{"name":"주식회사알펠로","tel":"031-478-2460","addr":"경기도 안양시 동안구 흥안대로","indutype":"기타 - 기계공구","category":"other"}]},{"lat":"37.396022918","long":"126.97564286","imageIndex":17,"items":[{"name":"코오롱스포츠 평촌점","tel":"031-423-8942","addr":"경기도 안양시 동안구 흥안대로","indutype":"레져용품 - 스포츠·레져용품","category":"other"}]},{"lat":"37.37230464","long":"126.96275871","imageIndex":17,"items":[{"name":"평촌라이온스클럽","tel":"031-384-4050","addr":"경기도 안양시 동안구 흥안대로","indutype":"기타 - 비영리/비대상","category":"other"}]},{"lat":"37.394473221","long":"126.97581281","imageIndex":17,"items":[{"name":"평촌문고","tel":"031-424-2258","addr":"경기도 안양시 동안구 흥안대로","indutype":"서적문구 - 일반서적","category":"other"}]},{"lat":"37.394301682","long":"126.9743335","imageIndex":17,"items":[{"name":"피앤티","tel":"070-8117-6001","addr":"경기도 안양시 동안구 흥안대로","indutype":"용역 서비스 - 사무서비스","category":"other"}]},{"lat":"37.369364887","long":"126.95608838","imageIndex":17,"items":[{"name":"호계중고가전","tel":"070-8940-0231","addr":"경기도 안양시 동안구 흥안대로","indutype":"신변잡화 - 기타잡화","category":"other"}]}]