[{"lat":"37.805596425","long":"127.35548415","imageIndex":17,"items":[{"name":"가평군농업협동조합상면지점","tel":"031-585-2015","addr":"경기도 가평군 상면 연하리 184-1번지 가평군농업협동조합","indutype":"농업 - 비료,사료,종자","category":"other"}]},{"lat":"37.83320578","long":"127.29085544","imageIndex":17,"items":[{"name":"가평군농협 상면지점","tel":"031-585-2015","addr":"경기도 가평군 상면 연하리 184-1번지","indutype":"유통업 비영리 - 농,축협 직영매장","category":"other"},{"name":"가평모범운전자회","tel":"","addr":"경기도 가평군 상면 연하리 184-1번지","indutype":"-","category":"other"}]},{"lat":"37.80506688","long":"127.35481168","imageIndex":17,"items":[{"name":"명당건축","tel":"031-585-0289","addr":"경기도 가평군 상면 연하리 186-1번지","indutype":"용역 서비스 - 기타용역서비스","category":"other"}]},{"lat":"37.805008167","long":"127.35636705","imageIndex":17,"items":[{"name":"상면우체국","tel":"031-585-2000","addr":"경기도 가평군 상면 연하리 174-10번지","indutype":"용역 서비스 - 공공요금대행서비스/소","category":"other"}]},{"lat":"37.799846545","long":"127.34387543","imageIndex":17,"items":[{"name":"애니크린 경기동부점","tel":"031-585-2185","addr":"경기도 가평군 상면 연하리 423-6번지","indutype":"용역 서비스 - 종합용역","category":"other"}]},{"lat":"37.802426946","long":"127.34259286","imageIndex":17,"items":[{"name":"유한플랜트","tel":"031-529-5135","addr":"경기도 가평군 상면 연하리 444-3","indutype":"유통업 영리 - 기타유통업","category":"other"}]},{"lat":"37.801067398","long":"127.34540254","imageIndex":4,"items":[{"name":"김가네잣두부","tel":"031-584-2957","addr":"경기도 가평군 상면 연하리 439-2번지","indutype":"일반휴게음식 - 일반한식","category":"restaurant"}]},{"lat":"37.805038427","long":"127.35528846","imageIndex":4,"items":[{"name":"속초 닭강정","tel":"031-584-3156","addr":"경기도 가평군 상면 연하리 179-18번지 1층","indutype":"일반휴게음식 - 일반한식","category":"restaurant"}]},{"lat":"37.806238446","long":"127.35770148","imageIndex":4,"items":[{"name":"쌈밥수라상","tel":"031-585-0902","addr":"경기도 가평군 상면 연하리 175-1번지","indutype":"일반휴게음식 - 일반한식","category":"restaurant"}]},{"lat":"37.788761664","long":"127.34809307","imageIndex":4,"items":[{"name":"아지랑이","tel":"031-585-5565","addr":"경기도 가평군 상면 연하리 309-9번지","indutype":"일반휴게음식 - 일반한식","category":"restaurant"}]},{"lat":"37.805264246","long":"127.35809425","imageIndex":4,"items":[{"name":"연인산 식당","tel":"031-585-9801","addr":"경기도 가평군 상면 연하리 14-5번지","indutype":"일반휴게음식 - 일반한식","category":"restaurant"}]},{"lat":"37.805181896","long":"127.35551625","imageIndex":4,"items":[{"name":"요리1번지곰탕","tel":"031-585-4542","addr":"경기도 가평군 상면 연하리 179-10번지","indutype":"일반휴게음식 - 일반한식","category":"restaurant"},{"name":"요리일번지","tel":"031-585-3704","addr":"경기도 가평군 상면 연하리 179-10","indutype":"일반휴게음식 - 일반한식","category":"restaurant"}]},{"lat":"37.805180501","long":"127.3559818","imageIndex":4,"items":[{"name":"이모네소머리국밥","tel":"031-585-6436","addr":"경기도 가평군 상면 연하리 180-4번지","indutype":"일반휴게음식 - 일반한식","category":"restaurant"}]},{"lat":"37.80492899","long":"127.35573079","imageIndex":4,"items":[{"name":"일번지 뼈 해장국","tel":"031-585-4245","addr":"경기도 가평군 상면 연하리 181-6번지","indutype":"일반휴게음식 - 일반한식","category":"restaurant"}]},{"lat":"37.805147353","long":"127.35501646","imageIndex":4,"items":[{"name":"황소가든 정육점식당","tel":"031-585-8955","addr":"경기도 가평군 상면 연하리 186-17번지","indutype":"일반휴게음식 - 일반한식","category":"restaurant"}]},{"lat":"37.801127772","long":"127.35245397","imageIndex":9,"items":[{"name":"미래가스","tel":"031-585-4062","addr":"경기도 가평군 상면 연하리 206","indutype":"연료판매점 - LPG 취급점","category":"oil"}]},{"lat":"37.805174569","long":"127.3609326","imageIndex":9,"items":[{"name":"상면주유소","tel":"031-584-3940","addr":"경기도 가평군 상면 연하리 11-9","indutype":"연료판매점 - SK주유소","category":"oil"}]},{"lat":"37.80545853","long":"127.35640327","imageIndex":16,"items":[{"name":"생명의빛어린이집[아이행복]","tel":"031-585-6624","addr":"경기도 가평군 상면 연하리 174-16번지","indutype":"학원 - 유아원","category":"study"}]},{"lat":"37.802985294","long":"127.3426749","imageIndex":16,"items":[{"name":"연하초등학교","tel":"031-585-2006","addr":"경기도 가평군 상면 연하리 452-1번지 연하초등학교","indutype":"학원 - 초중고교육기관","category":"study"},{"name":"연하초등학교병설유치원[아이행복]","tel":"031-585-3470","addr":"경기도 가평군 상면 연하리 452-1번지 연하초등학교","indutype":"학원 - 유치원","category":"study"}]},{"lat":"37.802347313","long":"127.34520407","imageIndex":7,"items":[{"name":"승찬농원","tel":"031-585-1573","addr":"경기도 가평군 상면 연하리 476-1","indutype":"음료식품 - 농·축·수산품","category":"food"},{"name":"승찬농원","tel":"031-585-1573","addr":"경기도 가평군 상면 연하리 476-1","indutype":"음료식품 - 농·축·수산품","category":"food"}]},{"lat":"37.802958909","long":"127.34864739","imageIndex":7,"items":[{"name":"연하리 영농조합법인","tel":"031-584-5851","addr":"경기도 가평군 상면 연하리 218-12번지","indutype":"음료식품 - 농·축·수산품","category":"food"}]}]