[{"lat":"37.361611551","long":"126.94559535","imageIndex":7,"items":[{"name":"(주)지제이에프앤비","tel":"","addr":"경기도 군포시 금정동 764-2번지 101호","indutype":"음료식품 - 정육점","category":"food"}]},{"lat":"37.374865578","long":"126.94584494","imageIndex":7,"items":[{"name":"(주)티에스디 솔루션즈","tel":"031-469-3655","addr":"경기도 군포시 금정동 1-61번지 7층","indutype":"음료식품 - 제과점","category":"food"}]},{"lat":"37.366502706","long":"126.94287105","imageIndex":7,"items":[{"name":"666중국식품점","tel":"070-4274-2949","addr":"경기도 군포시 금정동 730-5번지","indutype":"음료식품 - 기타음료식품","category":"food"},{"name":"산야초건강원","tel":"031-427-0362","addr":"경기도 군포시 금정동 730-5번지 102호","indutype":"건강식품 - 기타건강식품","category":"food"}]},{"lat":"37.355098594","long":"126.93155924","imageIndex":7,"items":[{"name":"MF상사","tel":"031-393-3084","addr":"경기도 군포시 금정동 876번지 율곡아파트","indutype":"음료식품 - 기타음료식품","category":"food"}]},{"lat":"37.367728113","long":"126.94292652","imageIndex":7,"items":[{"name":"가락수산","tel":"070-8055-5015","addr":"경기도 군포시 금정동 50번지","indutype":"음료식품 - 농·축·수산품","category":"food"}]},{"lat":"37.363442741","long":"126.950177","imageIndex":7,"items":[{"name":"가온전선매점","tel":"031-429-8960","addr":"경기도 군포시 금정동 166번지 1층","indutype":"음료식품 - 기타음료식품","category":"food"}]},{"lat":"37.363475818","long":"126.94390069","imageIndex":7,"items":[{"name":"경기농산","tel":"031-429-0477","addr":"경기도 군포시 금정동 742번지","indutype":"음료식품 - 미곡상","category":"food"}]},{"lat":"37.375252969","long":"126.94575433","imageIndex":7,"items":[{"name":"경기코델리","tel":"031-477-9900","addr":"경기도 군포시 금정동 1-37번지","indutype":"음료식품 - 정육점","category":"food"}]},{"lat":"37.355756423","long":"126.93170535","imageIndex":7,"items":[{"name":"고재영빵집","tel":"031-397-2295","addr":"경기도 군포시 금정동 875-2번지 퇴계 상가 109호","indutype":"음료식품 - 제과점","category":"food"},{"name":"한양떡방아간","tel":"031-391-8420","addr":"경기도 군포시 금정동 875-2번지 퇴계 상가 110호","indutype":"음료식품 - 제과점","category":"food"}]},{"lat":"37.360312891","long":"126.94316946","imageIndex":7,"items":[{"name":"고창청과야채","tel":"031-477-0915","addr":"경기도 군포시 금정동 748번지","indutype":"음료식품 - 농·축·수산품","category":"food"}]},{"lat":"37.361276586","long":"126.94240112","imageIndex":7,"items":[{"name":"고향쌀집","tel":"031-427-6628","addr":"경기도 군포시 금정동 747-9번지","indutype":"음료식품 - 미곡상","category":"food"}]},{"lat":"37.360033736","long":"126.94348574","imageIndex":7,"items":[{"name":"군산갯벌","tel":"031-396-8932","addr":"경기도 군포시 금정동 748-47번지 401호","indutype":"음료식품 - 농·축·수산품","category":"food"}]},{"lat":"37.360859774","long":"126.9379766","imageIndex":7,"items":[{"name":"군포시니어클럽","tel":"031-454-2077","addr":"경기도 군포시 금정동 719-4번지 금정빌딩 3층","indutype":"음료식품 - 농·축·수산품","category":"food"}]},{"lat":"37.363474033","long":"126.94042391","imageIndex":7,"items":[{"name":"군포와이엠씨에이등대두레소비자생활협동조","tel":"031-395-8614","addr":"경기도 군포시 금정동 710-7번지 유일빌딩 5층","indutype":"음료식품 - 농·축·수산품","category":"food"}]},{"lat":"37.364583444","long":"126.94266939","imageIndex":7,"items":[{"name":"군포의왕우유P/M대리점","tel":"031-429-7184","addr":"경기도 군포시 금정동 734-8번지 1층","indutype":"음료식품 - 기타음료식품","category":"food"}]},{"lat":"37.36258425","long":"126.94478187","imageIndex":7,"items":[{"name":"군포축산","tel":"031-456-2900","addr":"경기도 군포시 금정동 761-1번지","indutype":"음료식품 - 정육점","category":"food"}]},{"lat":"37.359835044","long":"126.9425603","imageIndex":7,"items":[{"name":"내일의 반찬","tel":"031-393-3681","addr":"경기도 군포시 금정동 856-2번지 1층 101호","indutype":"음료식품 - 기타음료식품","category":"food"}]},{"lat":"37.365223992","long":"126.944317","imageIndex":7,"items":[{"name":"농업회사법인 서울육가공(주)","tel":"031-459-5495","addr":"경기도 군포시 금정동 907번지","indutype":"음료식품 - 기타음료식품","category":"food"}]},{"lat":"37.36178181","long":"126.94369884","imageIndex":7,"items":[{"name":"다모아(건강원)","tel":"031-429-8155","addr":"경기도 군포시 금정동 756-16번지 102호","indutype":"건강식품 - 기타건강식품","category":"food"}]},{"lat":"37.361905338","long":"126.93868685","imageIndex":7,"items":[{"name":"다온커피","tel":"031-395-9045","addr":"경기도 군포시 금정동 713-2번지 일신빌라 가동 402호","indutype":"음료식품 - 기타음료식품","category":"food"}]},{"lat":"37.361333865","long":"126.94906097","imageIndex":7,"items":[{"name":"달디(달콤한디저트)","tel":"02-111-1111","addr":"경기도 군포시 금정동 212번지 1층","indutype":"음료식품 - 기타음료식품","category":"food"},{"name":"성원유통","tel":"031-454-2371","addr":"경기도 군포시 금정동 212번지","indutype":"음료식품 - 정육점","category":"food"}]},{"lat":"37.362169427","long":"126.94405975","imageIndex":7,"items":[{"name":"대농식품","tel":"031-454-4282","addr":"경기도 군포시 금정동 761-11번지","indutype":"음료식품 - 기타음료식품","category":"food"}]},{"lat":"37.362225981","long":"126.94930867","imageIndex":7,"items":[{"name":"대동상사","tel":"031-387-9459","addr":"경기도 군포시 금정동 203-6","indutype":"음료식품 - 기타음료식품","category":"food"}]},{"lat":"37.360754587","long":"126.94356419","imageIndex":7,"items":[{"name":"대성축산","tel":"031-429-5083","addr":"경기도 군포시 금정동 757-6번지 1층","indutype":"음료식품 - 정육점","category":"food"}]},{"lat":"37.357532415","long":"126.93337421","imageIndex":7,"items":[{"name":"더존축산물백화점","tel":"031-396-9245","addr":"경기도 군포시 금정동 874-1번지 역사 상가 214호","indutype":"음료식품 - 정육점","category":"food"},{"name":"선진포크프라자","tel":"031-394-9606","addr":"경기도 군포시 금정동 874-1번지 역사 상가 108호","indutype":"음료식품 - 정육점","category":"food"},{"name":"연세웰빙","tel":"031-392-3090","addr":"경기도 군포시 금정동 874-1번지 역사 상가 313호","indutype":"건강식품 - 기타건강식품","category":"food"},{"name":"초원떡집","tel":"031-391-7652","addr":"경기도 군포시 금정동 874-1번지 역사 상가 1층 13호","indutype":"음료식품 - 제과점","category":"food"},{"name":"파리바게뜨 산본역점","tel":"031-399-7006","addr":"경기도 군포시 금정동 874-1번지 산본역사상가 201호,202호,203호,204호","indutype":"음료식품 - 제과점","category":"food"},{"name":"파리바게트","tel":"031-399-7006","addr":"경기도 군포시 금정동 874-1번지 역사 상가 204호","indutype":"음료식품 - 제과점","category":"food"},{"name":"하이유통","tel":"0000-0000-0000","addr":"경기도 군포시 금정동 874-1번지 제역사 상가동 208호.209호210호","indutype":"음료식품 - 정육점","category":"food"}]},{"lat":"37.365006323","long":"126.94150633","imageIndex":7,"items":[{"name":"동네반찬가게","tel":"031-1111-1111","addr":"경기도 군포시 금정동 727-15번지 1층","indutype":"음료식품 - 기타음료식품","category":"food"}]},{"lat":"37.356946094","long":"126.93225731","imageIndex":7,"items":[{"name":"동서건강원","tel":"031-422-3448","addr":"경기도 군포시 금정동 873-4번지 명성빌딩 107호","indutype":"건강식품 - 기타건강식품","category":"food"}]},{"lat":"37.360918145","long":"126.94637475","imageIndex":7,"items":[{"name":"두현할인마트(청과,야채)","tel":"031-459-0023","addr":"경기도 군포시 금정동 765번지 두현타워 2층 202호","indutype":"음료식품 - 농·축·수산품","category":"food"}]},{"lat":"37.359726482","long":"126.94170252","imageIndex":7,"items":[{"name":"마장동고박사정육","tel":"02-575-9993","addr":"경기도 군포시 금정동 851-9번지 101호","indutype":"음료식품 - 정육점","category":"food"}]},{"lat":"37.360610282","long":"126.9432821","imageIndex":7,"items":[{"name":"만기네정육점","tel":"031-454-0317","addr":"경기도 군포시 금정동 747-45번지 103호","indutype":"음료식품 - 정육점","category":"food"}]},{"lat":"37.357779415","long":"126.94003356","imageIndex":7,"items":[{"name":"매점","tel":"","addr":"경기도 군포시 금정동 870-4번지 군포고등학교","indutype":"음료식품 - 기타음료식품","category":"food"}]},{"lat":"37.357306862","long":"126.93286649","imageIndex":7,"items":[{"name":"몽실몽실","tel":"070-4119-6587","addr":"경기도 군포시 금정동 874번지 산본빌딩 1층 104호","indutype":"음료식품 - 기타음료식품","category":"food"}]},{"lat":"37.365034656","long":"126.9440688","imageIndex":7,"items":[{"name":"미라클유통","tel":"","addr":"경기도 군포시 금정동 908-1번지 위너스빌 102동 501호","indutype":"음료식품 - 기타음료식품","category":"food"}]},{"lat":"37.362060155","long":"126.94179093","imageIndex":7,"items":[{"name":"미소반찬","tel":"031-427-9993","addr":"경기도 군포시 금정동 743-26번지 1층","indutype":"음료식품 - 기타음료식품","category":"food"}]},{"lat":"37.368199184","long":"126.94817552","imageIndex":7,"items":[{"name":"미트쿡","tel":"031-451-0522","addr":"경기도 군포시 금정동 693-2번지 성산빌딩 지층","indutype":"음료식품 - 정육점","category":"food"}]},{"lat":"37.365145717","long":"126.95031127","imageIndex":7,"items":[{"name":"민들레","tel":"02-1111-1111","addr":"경기도 군포시 금정동 170-8번지 101호 ,102호","indutype":"음료식품 - 기타음료식품","category":"food"}]},{"lat":"37.361222594","long":"126.94253662","imageIndex":7,"items":[{"name":"백세건강원","tel":"031-398-0011","addr":"경기도 군포시 금정동 747-10번지 101호","indutype":"건강식품 - 기타건강식품","category":"food"}]},{"lat":"37.367971682","long":"126.94351335","imageIndex":7,"items":[{"name":"복아구찜해물탕원조집","tel":"031-458-5556","addr":"경기도 군포시 금정동 45-11번지 1층","indutype":"음료식품 - 농·축·수산품","category":"food"}]},{"lat":"37.359556418","long":"126.94392634","imageIndex":7,"items":[{"name":"본유통","tel":"031-425-8643","addr":"경기도 군포시 금정동 748-30번지 202호","indutype":"음료식품 - 기타음료식품","category":"food"}]},{"lat":"37.363143165","long":"126.94536842","imageIndex":7,"items":[{"name":"뺄래찔래 다이어트","tel":"031-349-9787","addr":"경기도 군포시 금정동 769-1번지 영화아파트 402호","indutype":"건강식품 - 기타건강식품","category":"food"}]},{"lat":"37.365837954","long":"126.94694678","imageIndex":7,"items":[{"name":"산하유통","tel":"070-7717-7561","addr":"경기도 군포시 금정동 695-6번지","indutype":"음료식품 - 기타음료식품","category":"food"}]},{"lat":"37.364527165","long":"126.93845884","imageIndex":7,"items":[{"name":"서원푸드","tel":"","addr":"경기도 군포시 금정동 708-6번지 대덕빌라 B동 102호","indutype":"음료식품 - 기타음료식품","category":"food"},{"name":"서원푸드","tel":"","addr":"경기도 군포시 금정동 708-6번지 대덕빌라 B동 102호","indutype":"음료식품 - 기타음료식품","category":"food"}]},{"lat":"37.361139903","long":"126.93947765","imageIndex":7,"items":[{"name":"서현정김치","tel":"031-456-7745","addr":"경기도 군포시 금정동 745번지","indutype":"음료식품 - 기타음료식품","category":"food"}]},{"lat":"37.363610212","long":"126.94239924","imageIndex":7,"items":[{"name":"선영식품","tel":"031-477-7811","addr":"경기도 군포시 금정동 723-5번지","indutype":"음료식품 - 기타음료식품","category":"food"}]},{"lat":"37.360276402","long":"126.94228904","imageIndex":7,"items":[{"name":"선재당약초","tel":"070-8243-3222","addr":"경기도 군포시 금정동 854-5번지 B02호","indutype":"음료식품 - 농·축·수산품","category":"food"}]},{"lat":"37.361420673","long":"126.94225426","imageIndex":7,"items":[{"name":"소문난반찬","tel":"031-427-6055","addr":"경기도 군포시 금정동 747-4번지 1층","indutype":"음료식품 - 기타음료식품","category":"food"},{"name":"아이스킹","tel":"031-398-0906","addr":"경기도 군포시 금정동 747-4번지 1층","indutype":"음료식품 - 기타음료식품","category":"food"}]},{"lat":"37.363142426","long":"126.94386709","imageIndex":7,"items":[{"name":"쉐프삼촌 산본점","tel":"070-3143-7749","addr":"경기도 군포시 금정동 742-3번지 1층","indutype":"음료식품 - 기타음료식품","category":"food"}]},{"lat":"37.367170001","long":"126.94395425","imageIndex":7,"items":[{"name":"시운유통","tel":"031-457-1280","addr":"경기도 군포시 금정동 79-8번지","indutype":"음료식품 - 기타음료식품","category":"food"}]},{"lat":"37.367025715","long":"126.94370601","imageIndex":7,"items":[{"name":"신성유통","tel":"031-2325-9967","addr":"경기도 군포시 금정동 79-10번지 1층","indutype":"음료식품 - 기타음료식품","category":"food"}]},{"lat":"37.36736765","long":"126.94281392","imageIndex":7,"items":[{"name":"신우축산유통","tel":"031-362-6001","addr":"경기도 군포시 금정동 700번지 외1필지 1층","indutype":"음료식품 - 정육점","category":"food"}]},{"lat":"37.36488932","long":"126.94175477","imageIndex":7,"items":[{"name":"신흥방아간","tel":"031-455-8883","addr":"경기도 군포시 금정동 733번지 신흥빌딩 105동 106호","indutype":"음료식품 - 제과점","category":"food"}]},{"lat":"37.364446966","long":"126.94011831","imageIndex":7,"items":[{"name":"싱싱농수산물","tel":"","addr":"경기도 군포시 금정동 706-17번지 1층","indutype":"음료식품 - 농·축·수산품","category":"food"}]},{"lat":"37.353891451","long":"126.93192157","imageIndex":7,"items":[{"name":"싱싱야채","tel":"031-398-5285","addr":"경기도 군포시 금정동 876 율곡상가 112호","indutype":"음료식품 - 농·축·수산품","category":"food"},{"name":"파리바게트(산본3단지점)","tel":"031-396-0791","addr":"경기도 군포시 금정동 876,110","indutype":"음료식품 - 제과점","category":"food"}]},{"lat":"37.364915331","long":"126.93981313","imageIndex":7,"items":[{"name":"아이스킹군포금정점","tel":"031-427-0309","addr":"경기도 군포시 금정동 706-11번지","indutype":"음료식품 - 기타음료식품","category":"food"}]},{"lat":"37.359584199","long":"126.94545015","imageIndex":7,"items":[{"name":"알뜰유통","tel":"031-387-8975","addr":"경기도 군포시 금정동 754-15번지 2층","indutype":"음료식품 - 기타음료식품","category":"food"}]},{"lat":"37.365276569","long":"126.94139323","imageIndex":7,"items":[{"name":"양파랑","tel":"","addr":"경기도 군포시 금정동 727-40번지 101호","indutype":"음료식품 - 농·축·수산품","category":"food"}]},{"lat":"37.356342211","long":"126.93191926","imageIndex":7,"items":[{"name":"어진수산","tel":"070-8236-4308","addr":"경기도 군포시 금정동 875번지 퇴계주공아파트","indutype":"음료식품 - 농·축·수산품","category":"food"}]},{"lat":"37.363978529","long":"126.94028803","imageIndex":7,"items":[{"name":"에스앤이(S&E)식자재","tel":"031-477-3990","addr":"경기도 군포시 금정동 710-5번지 1층 1호","indutype":"음료식품 - 기타음료식품","category":"food"}]},{"lat":"37.370279728","long":"126.94648062","imageIndex":7,"items":[{"name":"에스플래닛주식회사","tel":"031-427-3979","addr":"경기도 군포시 금정동 689-41번지","indutype":"음료식품 - 기타음료식품","category":"food"}]},{"lat":"37.361998823","long":"126.94525642","imageIndex":7,"items":[{"name":"에이프라이스","tel":"070-7803-2707","addr":"경기도 군포시 금정동 763번지 1층 5호","indutype":"음료식품 - 기타음료식품","category":"food"}]},{"lat":"37.36244902","long":"126.94462394","imageIndex":7,"items":[{"name":"엔젤푸드","tel":"070-8258-8272","addr":"경기도 군포시 금정동 761-5번지 1층","indutype":"음료식품 - 기타음료식품","category":"food"}]},{"lat":"37.369252118","long":"126.9455331","imageIndex":7,"items":[{"name":"엠에스푸드","tel":"032-665-3660","addr":"경기도 군포시 금정동 689-8번지 형광빌딩","indutype":"음료식품 - 기타음료식품","category":"food"},{"name":"크린네이쳐","tel":"031-452-4526","addr":"경기도 군포시 금정동 689-8번지 형광빌딩 3층","indutype":"음료식품 - 기타음료식품","category":"food"}]},{"lat":"37.363059775","long":"126.94081934","imageIndex":7,"items":[{"name":"엣날가마솥누룽지","tel":"","addr":"경기도 군포시 금정동 722-3번지 1층","indutype":"음료식품 - 기타음료식품","category":"food"}]},{"lat":"37.359582202","long":"126.94147689","imageIndex":7,"items":[{"name":"와이씨손(YC SON)","tel":"031-392-3963","addr":"경기도 군포시 금정동 851-7번지 102호","indutype":"음료식품 - 기타음료식품","category":"food"}]},{"lat":"37.366359624","long":"126.9450386","imageIndex":7,"items":[{"name":"우리농산","tel":"031-458-0166","addr":"경기도 군포시 금정동 85-11번지 1층","indutype":"음료식품 - 기타음료식품","category":"food"}]},{"lat":"37.367115873","long":"126.94381882","imageIndex":7,"items":[{"name":"웅진식품군포대리점","tel":"031-457-2085","addr":"경기도 군포시 금정동 79-9번지","indutype":"음료식품 - 기타음료식품","category":"food"}]},{"lat":"37.361976046","long":"126.93620341","imageIndex":7,"items":[{"name":"이동주조 군포총판","tel":"031-477-9485","addr":"경기도 군포시 금정동 718번지","indutype":"음료식품 - 주류 판매점","category":"food"}]},{"lat":"37.369422466","long":"126.94381701","imageIndex":7,"items":[{"name":"이정래정육점","tel":"031-427-7764","addr":"경기도 군포시 금정동 44-1번지 1층","indutype":"음료식품 - 정육점","category":"food"}]},{"lat":"37.365556711","long":"126.94300727","imageIndex":7,"items":[{"name":"일등닭오리","tel":"031-397-6011","addr":"경기도 군포시 금정동 732-4번지 1층","indutype":"음료식품 - 정육점","category":"food"}]},{"lat":"37.365448532","long":"126.94289447","imageIndex":7,"items":[{"name":"장수건강원","tel":"031-458-2314","addr":"경기도 군포시 금정동 732번지","indutype":"건강식품 - 기타건강식품","category":"food"}]},{"lat":"37.361860312","long":"126.93873204","imageIndex":7,"items":[{"name":"정관장홍삼산본시장점","tel":"031-394-0303","addr":"경기도 군포시 금정동 713-2번지 산본두성프라자 106호","indutype":"건강식품 - 홍삼제품","category":"food"},{"name":"탑양봉원","tel":"031-346-7575","addr":"경기도 군포시 금정동 713-2번지 산본두성프라자 1층 101호","indutype":"건강식품 - 기타건강식품","category":"food"}]},{"lat":"37.360997352","long":"126.94255937","imageIndex":7,"items":[{"name":"정부자","tel":"031-427-0165","addr":"경기도 군포시 금정동 747-36번지 두원빌라 9동 B02호","indutype":"음료식품 - 기타음료식품","category":"food"}]},{"lat":"37.364645087","long":"126.93992624","imageIndex":7,"items":[{"name":"좋은날피에스타","tel":"031-452-0089","addr":"경기도 군포시 금정동 706-15번지","indutype":"음료식품 - 제과점","category":"food"}]},{"lat":"37.362027506","long":"126.94875569","imageIndex":7,"items":[{"name":"주식회사 경기물류","tel":"031-443-5015","addr":"경기도 군포시 금정동 206-14번지","indutype":"음료식품 - 기타음료식품","category":"food"}]},{"lat":"37.367586238","long":"126.94762281","imageIndex":7,"items":[{"name":"주식회사 천심","tel":"031-883-7855","addr":"경기도 군포시 금정동 694-2번지 2층","indutype":"건강식품 - 기타건강식품","category":"food"}]},{"lat":"37.370666504","long":"126.94511432","imageIndex":7,"items":[{"name":"주식회사 케이티에스씨 (KTSC) 경인사업소","tel":"031-477-2631","addr":"경기도 군포시 금정동 689-26번지 1층","indutype":"음료식품 - 농·축·수산품","category":"food"}]},{"lat":"37.361889853","long":"126.94354072","imageIndex":7,"items":[{"name":"진부농산","tel":"031-398-2116","addr":"경기도 군포시 금정동 759-18번지 성호빌딩 104호","indutype":"음료식품 - 농·축·수산품","category":"food"}]},{"lat":"37.36083227","long":"126.93711874","imageIndex":7,"items":[{"name":"진정한 벌꿀","tel":"031-477-8933","addr":"경기도 군포시 금정동 719-7번지 1층 일부호","indutype":"건강식품 - 기타건강식품","category":"food"}]},{"lat":"37.365943848","long":"126.94241995","imageIndex":7,"items":[{"name":"청원떡방앗간","tel":"031-455-0966","addr":"경기도 군포시 금정동 731번지","indutype":"음료식품 - 제과점","category":"food"}]},{"lat":"37.365889874","long":"126.94258932","imageIndex":7,"items":[{"name":"축산나라","tel":"031-454-1852","addr":"경기도 군포시 금정동 731-11번지 102호","indutype":"음료식품 - 정육점","category":"food"}]},{"lat":"37.361169686","long":"126.9448394","imageIndex":7,"items":[{"name":"콩가식품","tel":"031-455-0881","addr":"경기도 군포시 금정동 764-63번지 1층","indutype":"음료식품 - 기타음료식품","category":"food"}]},{"lat":"37.361978688","long":"126.94106856","imageIndex":7,"items":[{"name":"태진축산","tel":"031-451-7292","addr":"경기도 군포시 금정동 744-4번지","indutype":"음료식품 - 정육점","category":"food"}]},{"lat":"37.36561016","long":"126.94181063","imageIndex":7,"items":[{"name":"특산물건강원","tel":"031-455-9925","addr":"경기도 군포시 금정동 728-5번지 1층","indutype":"건강식품 - 기타건강식품","category":"food"}]},{"lat":"37.362339393","long":"126.94164396","imageIndex":7,"items":[{"name":"파리바게뜨 금정신환점","tel":"031-459-0089","addr":"경기도 군포시 금정동 743-6번지 경원빌딩 1층","indutype":"음료식품 - 제과점","category":"food"}]},{"lat":"37.366944787","long":"126.94403344","imageIndex":7,"items":[{"name":"푸름유통","tel":"031-457-1280","addr":"경기도 군포시 금정동 81-5번지 1층","indutype":"음료식품 - 기타음료식품","category":"food"}]},{"lat":"37.364780022","long":"126.93951974","imageIndex":7,"items":[{"name":"한밭유통(안산점)","tel":"","addr":"경기도 군포시 금정동 706-32번지 유일빌라 마동 101호","indutype":"음료식품 - 기타음료식품","category":"food"}]},{"lat":"37.361972552","long":"126.94683676","imageIndex":7,"items":[{"name":"한샘 유통","tel":"031-000-0000","addr":"경기도 군포시 금정동 772-8번지 101호","indutype":"음료식품 - 기타음료식품","category":"food"}]},{"lat":"37.364477726","long":"126.94759123","imageIndex":7,"items":[{"name":"함지박","tel":"031-1111-1111","addr":"경기도 군포시 금정동 185-4번지 1층 베스트골프클럽","indutype":"음료식품 - 기타음료식품","category":"food"}]},{"lat":"37.362223739","long":"126.94456767","imageIndex":7,"items":[{"name":"협신유통","tel":"031-444-2067","addr":"경기도 군포시 금정동 762-8번지","indutype":"음료식품 - 정육점","category":"food"},{"name":"홍성2호정육점","tel":"031-452-7793","addr":"경기도 군포시 금정동 762-8번지","indutype":"음료식품 - 정육점","category":"food"}]},{"lat":"37.362699452","long":"126.94097767","imageIndex":7,"items":[{"name":"형제정육점1호점","tel":"031-427-8024","addr":"경기도 군포시 금정동 722-7번지 아산나부빌 1층 105호","indutype":"음료식품 - 정육점","category":"food"}]}]