[{"lat":"37.012581617","long":"127.22387499","imageIndex":4,"items":[{"name":"(주)안성롯데","tel":"031-677-8880","addr":"경기도 안성시 대덕면 신령리 500-10","indutype":"일반휴게음식 - 일반한식","category":"restaurant"}]},{"lat":"37.012912828","long":"127.22504451","imageIndex":4,"items":[{"name":"고깃집","tel":"031-673-9279","addr":"경기도 안성시 대덕면 신령리 500-22번지","indutype":"일반휴게음식 - 일반한식","category":"restaurant"},{"name":"더원(대동)","tel":"031-000-0000","addr":"경기도 안성시 대덕면 신령리 500-22번지","indutype":"일반휴게음식 - 일반한식","category":"restaurant"},{"name":"명인만두안성중앙대점","tel":"031-673-8869","addr":"경기도 안성시 대덕면 신령리 500-22번지 지층 2호","indutype":"일반휴게음식 - 스넥","category":"restaurant"}]},{"lat":"37.01285929","long":"127.22476345","imageIndex":4,"items":[{"name":"고화식당","tel":"031-673-5289","addr":"경기도 안성시 대덕면 신령리 500-21번지","indutype":"일반휴게음식 - 일반한식","category":"restaurant"},{"name":"투썸플레이스 (안성중앙대점)","tel":"031-677-6060","addr":"경기도 안성시 대덕면 신령리 500-21번지","indutype":"일반휴게음식 - 서양음식","category":"restaurant"}]},{"lat":"37.013164136","long":"127.22557334","imageIndex":4,"items":[{"name":"다이꼬지","tel":"031-675-1007","addr":"경기도 안성시 대덕면 신령리 500-20번지 중앙빌딩 가동 2층 201호","indutype":"일반휴게음식 - 일반한식","category":"restaurant"},{"name":"박군치킨","tel":"031-676-9547","addr":"경기도 안성시 대덕면 신령리 500-20번지 가동 1층","indutype":"일반휴게음식 - 스넥","category":"restaurant"},{"name":"포트커피","tel":"031-675-9078","addr":"경기도 안성시 대덕면 신령리 500-20번지 1층 105호","indutype":"일반휴게음식 - 서양음식","category":"restaurant"}]},{"lat":"37.013434707","long":"127.2254393","imageIndex":4,"items":[{"name":"롯데분식","tel":"031-676-2280","addr":"경기도 안성시 대덕면 신령리 820번지 롯데캐슬센트럴시티 201동 201호","indutype":"일반휴게음식 - 스넥","category":"restaurant"}]},{"lat":"37.010437774","long":"127.21859917","imageIndex":4,"items":[{"name":"모박사","tel":"031-675-5288","addr":"경기도 안성시 대덕면 신령리 513번지","indutype":"일반휴게음식 - 일반한식","category":"restaurant"},{"name":"모박사본점","tel":"031-675-5288","addr":"경기도 안성시 대덕면 신령리 513번지","indutype":"일반휴게음식 - 일반한식","category":"restaurant"}]},{"lat":"37.010357474","long":"127.21816075","imageIndex":4,"items":[{"name":"모박사부대찌게","tel":"031-676-1508","addr":"경기도 안성시 대덕면 신령리 716-6번지","indutype":"일반휴게음식 - 일반한식","category":"restaurant"}]},{"lat":"37.01310908","long":"127.22610129","imageIndex":4,"items":[{"name":"비어캐슬","tel":"031-677-7222","addr":"경기도 안성시 대덕면 신령리 500번지 102호","indutype":"일반휴게음식 - 일반한식","category":"restaurant"},{"name":"육감만족안성중대점","tel":"031-675-7712","addr":"경기도 안성시 대덕면 신령리 500번지 1층","indutype":"일반휴게음식 - 일반한식","category":"restaurant"}]},{"lat":"37.010689315","long":"127.21901561","imageIndex":4,"items":[{"name":"새말촌","tel":"031-676-0207","addr":"경기도 안성시 대덕면 신령리 717-5번지","indutype":"일반휴게음식 - 일반한식","category":"restaurant"}]},{"lat":"37.010804731","long":"127.21995975","imageIndex":4,"items":[{"name":"송가네명가순두부","tel":"031-677-1445","addr":"경기도 안성시 대덕면 신령리 508-1번지 나동","indutype":"일반휴게음식 - 일반한식","category":"restaurant"}]},{"lat":"37.010993501","long":"127.22020748","imageIndex":4,"items":[{"name":"안다루안성중앙대점","tel":"031-671-0988","addr":"경기도 안성시 대덕면 신령리 508-1번지 가동 1층","indutype":"일반휴게음식 - 일반한식","category":"restaurant"}]},{"lat":"37.022052995","long":"127.2232394","imageIndex":4,"items":[{"name":"예향복집","tel":"031-673-3355","addr":"경기도 안성시 대덕면 신령리 290-4 1/1","indutype":"일반휴게음식 - 일반한식","category":"restaurant"}]},{"lat":"37.013020535","long":"127.22526955","imageIndex":4,"items":[{"name":"쿠잉","tel":"031-673-9095","addr":"경기도 안성시 대덕면 신령리 500-23번지 B01호","indutype":"일반휴게음식 - 서양음식","category":"restaurant"}]},{"lat":"37.015886223","long":"127.22024388","imageIndex":4,"items":[{"name":"푸른식당","tel":"031-671-0666","addr":"경기도 안성시 대덕면 신령리 538-1번지 1층","indutype":"일반휴게음식 - 일반한식","category":"restaurant"}]},{"lat":"37.010437018","long":"127.21901489","imageIndex":4,"items":[{"name":"황가네순대국","tel":"031-675-7772","addr":"경기도 안성시 대덕면 신령리 717-4번지","indutype":"일반휴게음식 - 일반한식","category":"restaurant"}]}]