[{"lat":"37.771613505","long":"126.72082242","imageIndex":17,"items":[{"name":"MH종합건설중기","tel":"031-949-6624","addr":"경기도 파주시 탄현면 갈현리 1731번지","indutype":"기타 - 기계공구","category":"other"}]},{"lat":"37.776894263","long":"126.71757873","imageIndex":17,"items":[{"name":"The Music Shop & Supply","tel":"031-943-8182","addr":"경기도 파주시 탄현면 갈현리 233-39번지","indutype":"레져용품 - 악기점","category":"other"}]},{"lat":"37.774809152","long":"126.71596362","imageIndex":17,"items":[{"name":"가나종합상사","tel":"031-945-0919","addr":"경기도 파주시 탄현면 갈현리 838-4","indutype":"건축자재 - 목재·석재·철물","category":"other"}]},{"lat":"37.772502663","long":"126.71593848","imageIndex":17,"items":[{"name":"경기애드","tel":"031-964-1972","addr":"경기도 파주시 탄현면 갈현리 829-6번지","indutype":"용역 서비스 - 사무서비스","category":"other"}]},{"lat":"37.774283376","long":"126.71834924","imageIndex":17,"items":[{"name":"국민헬스콤","tel":"031-944-1897","addr":"경기도 파주시 탄현면 갈현리 266-1번지","indutype":"전기제품 - 가전제품","category":"other"}]},{"lat":"37.773890856","long":"126.71623958","imageIndex":17,"items":[{"name":"근경포장공업사","tel":"031-945-6051","addr":"경기도 파주시 탄현면 갈현리 821-1","indutype":"유통업 영리 - 기타유통업","category":"other"}]},{"lat":"37.771892719","long":"126.72457822","imageIndex":17,"items":[{"name":"내맘속엔#","tel":"","addr":"경기도 파주시 탄현면 갈현리 1784-3번지","indutype":"가구 - 일반가구","category":"other"},{"name":"폴앤코코(pole&coco)","tel":"031-901-8521","addr":"경기도 파주시 탄현면 갈현리 1784-3번지","indutype":"가구 - 일반가구","category":"other"}]},{"lat":"37.771694512","long":"126.72457897","imageIndex":17,"items":[{"name":"대박부동산중개사무소","tel":"031-947-0071","addr":"경기도 파주시 탄현면 갈현리 1784-4번지","indutype":"용역 서비스 - 부동산 중개·임대","category":"other"},{"name":"대박상사","tel":"031-948-7782","addr":"경기도 파주시 탄현면 갈현리 1784-4번지","indutype":"건축자재 - 페인트","category":"other"}]},{"lat":"37.769419372","long":"126.71509917","imageIndex":17,"items":[{"name":"두올","tel":"031-949-3213","addr":"경기도 파주시 탄현면 갈현리 812번지","indutype":"가구 - 일반가구","category":"other"}]},{"lat":"37.773087582","long":"126.71565247","imageIndex":17,"items":[{"name":"디피아","tel":"031-945-8723","addr":"경기도 파주시 탄현면 갈현리 828번지","indutype":"유통업 영리 - 기타유통업","category":"other"}]},{"lat":"37.771140771","long":"126.7228218","imageIndex":17,"items":[{"name":"뜨라레","tel":"","addr":"경기도 파주시 탄현면 갈현리 1766-3번지","indutype":"문화.취미 - 화원","category":"other"}]},{"lat":"37.774611138","long":"126.71604384","imageIndex":17,"items":[{"name":"사랑의편의점","tel":"031-949-5400","addr":"경기도 파주시 탄현면 갈현리 838-14번지","indutype":"유통업 영리 - 편 의 점","category":"other"}]},{"lat":"37.772612298","long":"126.72029652","imageIndex":17,"items":[{"name":"샘 하우스","tel":"031-111-1111","addr":"경기도 파주시 탄현면 갈현리 287-6번지","indutype":"건축자재 - 인테리어전문","category":"other"},{"name":"선주천막공사","tel":"031-957-6236","addr":"경기도 파주시 탄현면 갈현리 287-6번지","indutype":"용역 서비스 - 기타용역서비스","category":"other"}]},{"lat":"37.766502058","long":"126.70851658","imageIndex":17,"items":[{"name":"생황예술공방.쉬는나무","tel":"","addr":"경기도 파주시 탄현면 갈현리 682-43번지","indutype":"문화.취미 - 문화취미기타","category":"other"}]},{"lat":"37.773865593","long":"126.7169661","imageIndex":17,"items":[{"name":"아미고","tel":"031-4768-6855","addr":"경기도 파주시 탄현면 갈현리 654-8번지","indutype":"의류 - 정장","category":"other"},{"name":"헤이리 하루","tel":"031-000-0000","addr":"경기도 파주시 탄현면 갈현리 654-8번지","indutype":"신변잡화 - 액세서리","category":"other"}]},{"lat":"37.770281501","long":"126.71766088","imageIndex":17,"items":[{"name":"여행캠프","tel":"031-941-0220","addr":"경기도 파주시 탄현면 갈현리 350-1번지","indutype":"회원제형태 - 기타4","category":"other"}]},{"lat":"37.767950423","long":"126.71493462","imageIndex":17,"items":[{"name":"정석프린테크","tel":"070-4388-6608","addr":"경기도 파주시 탄현면 갈현리 809-33번지","indutype":"회원제형태 - 기타4","category":"other"}]},{"lat":"37.767174573","long":"126.71821758","imageIndex":17,"items":[{"name":"천일봉투","tel":"02-2267-2372","addr":"경기도 파주시 탄현면 갈현리 434-3번지","indutype":"유통업 영리 - 기타유통업","category":"other"}]},{"lat":"37.772361693","long":"126.72098983","imageIndex":17,"items":[{"name":"청록엔지니어링 주식회사","tel":"031-949-3223","addr":"경기도 파주시 탄현면 갈현리 1769번지","indutype":"용역 서비스 - 기타용역서비스","category":"other"}]},{"lat":"37.773503848","long":"126.72013422","imageIndex":17,"items":[{"name":"코끼리 나무 숲","tel":"031-946-5652","addr":"경기도 파주시 탄현면 갈현리 284-4번지","indutype":"문화.취미 - 문화취미기타","category":"other"}]},{"lat":"37.770835703","long":"126.71585412","imageIndex":17,"items":[{"name":"태학원","tel":"031-941-4136","addr":"경기도 파주시 탄현면 갈현리 821-75번지","indutype":"서적문구 - 출판 및 인쇄물","category":"other"},{"name":"태학원","tel":"031-941-4136","addr":"경기도 파주시 탄현면 갈현리 821-75번지","indutype":"서적문구 - 출판 및 인쇄물","category":"other"}]},{"lat":"37.770060265","long":"126.7193188","imageIndex":17,"items":[{"name":"흔남","tel":"031-111-1111","addr":"경기도 파주시 탄현면 갈현리 385-1번지","indutype":"의류 - 정장","category":"other"}]}]