[{"lat":"37.308842197","long":"127.09724007","imageIndex":4,"items":[{"name":"(주)산간고 보정점","tel":"031-264-6823","addr":"경기도 용인시 기흥구 보정동 467-1번지","indutype":"일반휴게음식 - 일반한식","category":"restaurant"}]},{"lat":"37.321292914","long":"127.10949657","imageIndex":4,"items":[{"name":"(주)씨피스미스/소다피쉬(Sodafish)","tel":"070-8870-0544","addr":"경기도 용인시 기흥구 보정동 1187-11번지 1층","indutype":"일반휴게음식 - 중국식","category":"restaurant"},{"name":"호천당보정점","tel":"031-265-7651","addr":"경기도 용인시 기흥구 보정동 1187-11번지 1층","indutype":"일반휴게음식 - 일반한식","category":"restaurant"}]},{"lat":"37.30562418","long":"127.09893928","imageIndex":4,"items":[{"name":"(주)캐틀라운지","tel":"070-4454-9957","addr":"경기도 용인시 기흥구 보정동 878-11번지 1층","indutype":"일반휴게음식 - 서양음식","category":"restaurant"}]},{"lat":"37.319958251","long":"127.11076952","imageIndex":4,"items":[{"name":"(주)파인들/맥주창꼬 Beer Beer","tel":"02-568-8299","addr":"경기도 용인시 기흥구 보정동 1263번지 누리에뜰상가 B동 160호","indutype":"일반휴게음식 - 주점","category":"restaurant"},{"name":"가장맛있는족발","tel":"031-262-5849","addr":"경기도 용인시 기흥구 보정동 1263번지 죽전누리에뜰 107,109,165호","indutype":"일반휴게음식 - 일반한식","category":"restaurant"},{"name":"누리매점","tel":"031-262-4200","addr":"경기도 용인시 기흥구 보정동 1263번지 죽전누리에뜰아파트 지층","indutype":"일반휴게음식 - 일반한식","category":"restaurant"},{"name":"누리옹기종기","tel":"031-897-9740","addr":"경기도 용인시 기흥구 보정동 1263번지 죽전누리에뜰 지하1층","indutype":"일반휴게음식 - 일반한식","category":"restaurant"},{"name":"누리옹기종기","tel":"031-897-9393","addr":"경기도 용인시 기흥구 보정동 1263번지 죽전누리에뜰 지하1층","indutype":"일반휴게음식 - 스넥","category":"restaurant"},{"name":"뉘른베르크(보정동점)","tel":"031-261-7176","addr":"경기도 용인시 기흥구 보정동 1263대덕누리에뜰상가150,151,152호","indutype":"일반휴게음식 - 주점","category":"restaurant"},{"name":"더(THE)맛있는 족발 보쌈(보정점)","tel":"031-261-2090","addr":"경기도 용인시 기흥구 보정동 1263번지 죽전누리에뜰아파트 151호 150호,151호","indutype":"일반휴게음식 - 일반한식","category":"restaurant"},{"name":"더진국 보정점","tel":"031-889-9885","addr":"경기도 용인시 기흥구 보정동 1263번지 죽전누리에뜰 상가동 120호","indutype":"일반휴게음식 - 일반한식","category":"restaurant"},{"name":"명동칼국수","tel":"031-897-7953","addr":"경기도 용인시 기흥구 보정동 1263번지 죽전누리에뜰 상가 2층 213호","indutype":"일반휴게음식 - 일반한식","category":"restaurant"},{"name":"별코믹스","tel":"031-264-0486","addr":"경기도 용인시 기흥구 보정동 1263번지 죽전누리에뜰","indutype":"일반휴게음식 - 일반한식","category":"restaurant"},{"name":"빽다방 용인죽전누리점","tel":"031-898-0933","addr":"경기도 용인시 기흥구 보정동 1263번지 죽전누리에뜰 1층 108호","indutype":"일반휴게음식 - 서양음식","category":"restaurant"},{"name":"써브웨이 용인죽전점","tel":"031-889-8089","addr":"경기도 용인시 기흥구 보정동 1263번지 죽전누리에뜰 2동 1층 121호","indutype":"일반휴게음식 - 스넥","category":"restaurant"},{"name":"아우가","tel":"031-222-3693","addr":"경기도 용인시 기흥구 보정동 1263번지 죽전누리에뜰 104호,163호","indutype":"일반휴게음식 - 일반한식","category":"restaurant"},{"name":"아지또","tel":"070-8977-0916","addr":"경기도 용인시 기흥구 보정동 1263번지 죽전누리에뜰 105호","indutype":"일반휴게음식 - 일반한식","category":"restaurant"},{"name":"옐로우서브마린","tel":"031-889-4487","addr":"경기도 용인시 기흥구 보정동 1263번지 죽전누리에뜰아파트 130(130호,131동)","indutype":"일반휴게음식 - 주점","category":"restaurant"},{"name":"옹기종기,한식부페","tel":"031-897-9749","addr":"경기도 용인시 기흥구 보정동 1263번지 죽전누리에들상가B동161호,162호","indutype":"일반휴게음식 - 일반한식","category":"restaurant"},{"name":"우리동네스시신조","tel":"031-272-4499","addr":"경기도 용인시 기흥구 보정동 1263번지 죽전누리에뜰 224호","indutype":"일반휴게음식 - 일식·회집","category":"restaurant"},{"name":"이디야커피 용인보정제일점","tel":"031-898-2098","addr":"경기도 용인시 기흥구 보정동 1263번지 죽전누리에뜰 132, 133호","indutype":"일반휴게음식 - 서양음식","category":"restaurant"},{"name":"정가미감자탕해장국","tel":"031-263-1080","addr":"경기도 용인시 기흥구 보정동 1263번지 죽전누리에뜰 상가 138호","indutype":"일반휴게음식 - 일반한식","category":"restaurant"},{"name":"주식회사 자연애쿡","tel":"031-896-7929","addr":"경기도 용인시 기흥구 보정동 1263번지 죽전누리에뜰 219호","indutype":"일반휴게음식 - 일반한식","category":"restaurant"},{"name":"지호한방삼계탕죽전점","tel":"031-892-1300","addr":"경기도 용인시 기흥구 보정동 1263번지 죽전누리에뜰 상가 1층 147호","indutype":"일반휴게음식 - 일반한식","category":"restaurant"},{"name":"착한고기죽전점","tel":"031-889-9201","addr":"경기도 용인시 기흥구 보정동 1263번지 죽전누리에뜰 202호 203호","indutype":"일반휴게음식 - 일반한식","category":"restaurant"},{"name":"크래프트한스 죽전점","tel":"031-276-2413","addr":"경기도 용인시 기흥구 보정동 1263번지 죽전누리에뜰 1층 135호","indutype":"일반휴게음식 - 주점","category":"restaurant"},{"name":"타카커피","tel":"031-000-0000","addr":"경기도 용인시 기흥구 보정동 1263번지 죽전누리에뜰아파트 119호","indutype":"일반휴게음식 - 서양음식","category":"restaurant"},{"name":"황금푸줏간","tel":"031-897-7992","addr":"경기도 용인시 기흥구 보정동 1263번지 죽전누리에뜰 110호","indutype":"일반휴게음식 - 일반한식","category":"restaurant"}]},{"lat":"37.303371671","long":"127.09888002","imageIndex":4,"items":[{"name":"153닭갈비(일오삼닭갈비)","tel":"031-897-0153","addr":"경기도 용인시 기흥구 보정동 901-12번지","indutype":"일반휴게음식 - 일반한식","category":"restaurant"}]},{"lat":"37.319764976","long":"127.11513528","imageIndex":4,"items":[{"name":"153포인츠부대찌개","tel":"031-898-0153","addr":"경기도 용인시 기흥구 보정동 1266-2번지 우영프라자 1층 104호","indutype":"일반휴게음식 - 일반한식","category":"restaurant"},{"name":"민들레김밥 죽전홀씨점","tel":"031-896-0918","addr":"경기도 용인시 기흥구 보정동 1266-2번지 우영프라자 1층 111호","indutype":"일반휴게음식 - 일반한식","category":"restaurant"},{"name":"스시가","tel":"031-262-2051","addr":"경기도 용인시 기흥구 보정동 1266-2번지 우영프라자 112호","indutype":"일반휴게음식 - 일식·회집","category":"restaurant"},{"name":"커피에반하다","tel":"031-889-6411","addr":"경기도 용인시 기흥구 보정동 1266-2번지 우영프라자 102호","indutype":"일반휴게음식 - 서양음식","category":"restaurant"},{"name":"콩두 (죽전점)","tel":"070-4202-3280","addr":"경기도 용인시 기흥구 보정동 1266-2번지 우영프라자 110호","indutype":"일반휴게음식 - 일반한식","category":"restaurant"}]},{"lat":"37.321653454","long":"127.10935041","imageIndex":4,"items":[{"name":"25 디그리스(25 Degrees)","tel":"031-889-5749","addr":"경기도 용인시 기흥구 보정동 1186-12번지 1층","indutype":"일반휴게음식 - 서양음식","category":"restaurant"}]},{"lat":"37.313930068","long":"127.11115574","imageIndex":4,"items":[{"name":"60계치킨 용인보정점","tel":"031-261-8288","addr":"경기도 용인시 기흥구 보정동 1277번지 지젤스포츠클럽 107호","indutype":"일반휴게음식 - 스넥","category":"restaurant"},{"name":"라키식당","tel":"031-889-1129","addr":"경기도 용인시 기흥구 보정동 1277번지 지젤스포츠클럽 1층 106호","indutype":"일반휴게음식 - 서양음식","category":"restaurant"},{"name":"보정식당","tel":"031-889-3963","addr":"경기도 용인시 기흥구 보정동 1277번지 지젤스포츠클럽 110호","indutype":"일반휴게음식 - 일반한식","category":"restaurant"},{"name":"본죽&비빔밥카페","tel":"031-546-5757","addr":"경기도 용인시 기흥구 보정동 1277번지 지젤스포츠클럽 105호","indutype":"일반휴게음식 - 일반한식","category":"restaurant"},{"name":"이디야커피 용인보정중앙점","tel":"031-898-2280","addr":"경기도 용인시 기흥구 보정동 1277번지 지젤스포츠클럽 1층 112호","indutype":"일반휴게음식 - 서양음식","category":"restaurant"},{"name":"지젤갤러리카페","tel":"070-4492-6241","addr":"경기도 용인시 기흥구 보정동 1277번지 3층","indutype":"일반휴게음식 - 일반한식","category":"restaurant"}]},{"lat":"37.321094415","long":"127.1098009","imageIndex":4,"items":[{"name":"Awesome(어썸)","tel":"031-898-2250","addr":"경기도 용인시 기흥구 보정동 1193-6번지 1층","indutype":"일반휴게음식 - 주점","category":"restaurant"},{"name":"불라(BULA)","tel":"031-266-3018","addr":"경기도 용인시 기흥구 보정동 1193-6번지","indutype":"일반휴게음식 - 서양음식","category":"restaurant"}]},{"lat":"37.32165272","long":"127.11016272","imageIndex":4,"items":[{"name":"BLACK CUPS(블랙컵스)","tel":"031-889-3017","addr":"경기도 용인시 기흥구 보정동 1184-9번지 1층","indutype":"일반휴게음식 - 일반한식","category":"restaurant"}]},{"lat":"37.320678705","long":"127.11116542","imageIndex":4,"items":[{"name":"Bar &","tel":"","addr":"경기도 용인시 기흥구 보정동 1197-3번지 호암프라자 403호","indutype":"일반휴게음식 - 주점","category":"restaurant"},{"name":"신단설렁탕","tel":"031-889-7756","addr":"경기도 용인시 기흥구 보정동 1197-3번지 호암프라자 2층 201호","indutype":"일반휴게음식 - 일반한식","category":"restaurant"},{"name":"쓰촨쿵푸","tel":"031-889-9420","addr":"경기도 용인시 기흥구 보정동 1197-3번지 호암프라자 1층 107호","indutype":"일반휴게음식 - 중국식","category":"restaurant"},{"name":"오닭꼬치직영점","tel":"","addr":"경기도 용인시 기흥구 보정동 1197-3번지 죽전엘림프라자2 1층 102호","indutype":"일반휴게음식 - 일반한식","category":"restaurant"},{"name":"진미떡볶이","tel":"031-898-8988","addr":"경기도 용인시 기흥구 보정동 1197-3번지 호암프라자 205호","indutype":"일반휴게음식 - 스넥","category":"restaurant"},{"name":"치킨매니아","tel":"031-889-9292","addr":"경기도 용인시 기흥구 보정동 1197-3번지 죽전엘림프라자 102호","indutype":"일반휴게음식 - 주점","category":"restaurant"},{"name":"큐브보드게임","tel":"031-261-2991","addr":"경기도 용인시 기흥구 보정동 1197-3번지 호암프라자 301호","indutype":"일반휴게음식 - 서양음식","category":"restaurant"},{"name":"큐브보드게임","tel":"031-261-2991","addr":"경기도 용인시 기흥구 보정동 1197-3번지 호암프라자 3층 1호","indutype":"일반휴게음식 - 서양음식","category":"restaurant"},{"name":"홍루이젠","tel":"","addr":"경기도 용인시 기흥구 보정동 1197-3번지 호암프라자 103호","indutype":"일반휴게음식 - 일반한식","category":"restaurant"}]},{"lat":"37.321761047","long":"127.10993723","imageIndex":4,"items":[{"name":"Moon's(문스)","tel":"031-000-0000","addr":"경기도 용인시 기흥구 보정동 1186-7번지 1층","indutype":"일반휴게음식 - 서양음식","category":"restaurant"}]},{"lat":"37.319707617","long":"127.10894152","imageIndex":4,"items":[{"name":"shunkai","tel":"031-408-3836","addr":"경기도 용인시 기흥구 보정동 1261-1번지 휴먼타워 105호","indutype":"일반휴게음식 - 일반한식","category":"restaurant"},{"name":"맵도리탕 (죽전점)","tel":"031-287-4877","addr":"경기도 용인시 기흥구 보정동 1261-1번지 휴먼타워 101호","indutype":"일반휴게음식 - 일반한식","category":"restaurant"},{"name":"문어드새우","tel":"031-272-2077","addr":"경기도 용인시 기흥구 보정동 1261-1번지 휴먼타워 102호","indutype":"일반휴게음식 - 일반한식","category":"restaurant"},{"name":"보아즈","tel":"","addr":"경기도 용인시 기흥구 보정동 1261-1번지 휴먼타워 106호","indutype":"일반휴게음식 - 서양음식","category":"restaurant"},{"name":"볶고","tel":"","addr":"경기도 용인시 기흥구 보정동 1261-1번지 휴먼타워 1동 114호","indutype":"일반휴게음식 - 일반한식","category":"restaurant"},{"name":"오뎅55","tel":"070-4791-0192","addr":"경기도 용인시 기흥구 보정동 1261-1번지 휴먼타워 104호","indutype":"일반휴게음식 - 일반한식","category":"restaurant"},{"name":"주토리","tel":"02-000-0000","addr":"경기도 용인시 기흥구 보정동 1261-1번지 휴먼타워 1층 114호","indutype":"일반휴게음식 - 주점","category":"restaurant"},{"name":"진진카롱","tel":"","addr":"경기도 용인시 기흥구 보정동 1261-1번지 휴먼타워 108호","indutype":"일반휴게음식 - 서양음식","category":"restaurant"},{"name":"행복이네 벽돌집","tel":"031-898-2987","addr":"경기도 용인시 기흥구 보정동 1261-1번지 휴먼타워 1층 111호","indutype":"일반휴게음식 - 일반한식","category":"restaurant"}]},{"lat":"37.308375257","long":"127.10612816","imageIndex":4,"items":[{"name":"가배향기","tel":"031-262-8595","addr":"경기도 용인시 기흥구 보정동 1291번지 죽전자이2차 146호","indutype":"일반휴게음식 - 스넥","category":"restaurant"},{"name":"건강쌈밥","tel":"031-889-3316","addr":"경기도 용인시 기흥구 보정동 1291번지 자이2차 상가 104호","indutype":"일반휴게음식 - 일반한식","category":"restaurant"},{"name":"국이네칼국수와돈까스","tel":"031-266-2585","addr":"경기도 용인시 기흥구 보정동 1291번지 죽전자이2차 1동 1층 135호","indutype":"일반휴게음식 - 일반한식","category":"restaurant"},{"name":"김밥매니아","tel":"031-896-5800","addr":"경기도 용인시 기흥구 보정동 1291번지 죽전자이2차 상가동 133호","indutype":"일반휴게음식 - 스넥","category":"restaurant"},{"name":"남가남원추어탕","tel":"031-889-5425","addr":"경기도 용인시 기흥구 보정동 1291번지 죽전자이2차 1층 147호","indutype":"일반휴게음식 - 일반한식","category":"restaurant"},{"name":"디엔차이","tel":"031-889-7787","addr":"경기도 용인시 기흥구 보정동 1291번지 죽전자이2차 상가동 114,115호","indutype":"일반휴게음식 - 중국식","category":"restaurant"},{"name":"복이랑동태랑","tel":"031-272-2955","addr":"경기도 용인시 기흥구 보정동 1291번지 죽전자이2차 상가 136호","indutype":"일반휴게음식 - 일반한식","category":"restaurant"},{"name":"비에이치시(BHC)보정점","tel":"031-889-8892","addr":"경기도 용인시 기흥구 보정동 1291번지 상가동 142B호","indutype":"일반휴게음식 - 스넥","category":"restaurant"},{"name":"빈대떡신사","tel":"031-898-0592","addr":"경기도 용인시 기흥구 보정동 1291번지 죽전자이2차 108호","indutype":"일반휴게음식 - 스넥","category":"restaurant"},{"name":"소담치킨","tel":"031-272-6166","addr":"경기도 용인시 기흥구 보정동 1291번지 죽전자이2차 상가 123호","indutype":"일반휴게음식 - 스넥","category":"restaurant"},{"name":"소소한식탁","tel":"031-889-5943","addr":"경기도 용인시 기흥구 보정동 1291번지 죽전자이2차 140호","indutype":"일반휴게음식 - 일반한식","category":"restaurant"},{"name":"옷장속의 커피","tel":"031-266-1291","addr":"경기도 용인시 기흥구 보정동 1291번지 자이2차 상가동 110호","indutype":"일반휴게음식 - 서양음식","category":"restaurant"},{"name":"집커피(ZIP COFFEE)","tel":"070-4254-9555","addr":"경기도 용인시 기흥구 보정동 1291번지 죽전자이2차 상가동 1층 113호","indutype":"일반휴게음식 - 서양음식","category":"restaurant"},{"name":"켄커피 보정점","tel":"031-265-4709","addr":"경기도 용인시 기흥구 보정동 1291번지 죽전자이2차 1층 103-1호","indutype":"일반휴게음식 - 서양음식","category":"restaurant"},{"name":"쿡예찬","tel":"031-8081-5555","addr":"경기도 용인시 기흥구 보정동 1291번지 112호 죽전자이2차 일부","indutype":"일반휴게음식 - 일반한식","category":"restaurant"},{"name":"크림슨","tel":"031-262-1129","addr":"경기도 용인시 기흥구 보정동 1291번지 죽전자이2차 상가동 107호","indutype":"일반휴게음식 - 일반한식","category":"restaurant"},{"name":"파티세리기호","tel":"","addr":"경기도 용인시 기흥구 보정동 1291번지 죽전자이2차 1동 1층 108호","indutype":"일반휴게음식 - 서양음식","category":"restaurant"},{"name":"파티세리기호","tel":"","addr":"경기도 용인시 기흥구 보정동 1291번지 죽전자이2차 1동 1층 108호","indutype":"일반휴게음식 - 서양음식","category":"restaurant"}]},{"lat":"37.320180679","long":"127.11382721","imageIndex":4,"items":[{"name":"강정이닭","tel":"031-0000-0000","addr":"경기도 용인시 기흥구 보정동 1265-1번지 타워시티 1층 109호","indutype":"일반휴게음식 - 일반한식","category":"restaurant"},{"name":"김밥나라보정점","tel":"031-889-1614","addr":"경기도 용인시 기흥구 보정동 1265-1번지 타워시티 103호","indutype":"일반휴게음식 - 일반한식","category":"restaurant"},{"name":"두끼 죽전점","tel":"031-264-5888","addr":"경기도 용인시 기흥구 보정동 1265-1번지 타워시티 201,202호","indutype":"일반휴게음식 - 일반한식","category":"restaurant"},{"name":"이디야커피 보정점","tel":"031-261-2788","addr":"경기도 용인시 기흥구 보정동 1265-1번지 타워시티 104호","indutype":"일반휴게음식 - 서양음식","category":"restaurant"},{"name":"이삭토스트 용인보정점","tel":"031-898-2498","addr":"경기도 용인시 기흥구 보정동 1265-1번지 타워시티 1층 108호","indutype":"일반휴게음식 - 서양음식","category":"restaurant"},{"name":"피자애보정점","tel":"031-261-0045","addr":"경기도 용인시 기흥구 보정동 1265-1번지 타워시티 1층 111호","indutype":"일반휴게음식 - 서양음식","category":"restaurant"}]},{"lat":"37.305182698","long":"127.09891616","imageIndex":4,"items":[{"name":"고기방앗간","tel":"031-263-5980","addr":"경기도 용인시 기흥구 보정동 883-1번지 평성빌딩 1층","indutype":"일반휴게음식 - 일반한식","category":"restaurant"}]},{"lat":"37.32120883","long":"127.11276822","imageIndex":4,"items":[{"name":"고기이야기","tel":"031-261-3730","addr":"경기도 용인시 기흥구 보정동 1203-8번지 1층","indutype":"일반휴게음식 - 일반한식","category":"restaurant"}]},{"lat":"37.321093411","long":"127.11090653","imageIndex":4,"items":[{"name":"고노미","tel":"031-262-2300","addr":"경기도 용인시 기흥구 보정동 1191-6번지 1층","indutype":"일반휴게음식 - 일식·회집","category":"restaurant"}]},{"lat":"37.320958536","long":"127.11060172","imageIndex":4,"items":[{"name":"고반식당 용인보정점","tel":"031-889-1506","addr":"경기도 용인시 기흥구 보정동 1191-11번지 1층","indutype":"일반휴게음식 - 일반한식","category":"restaurant"}]},{"lat":"37.321760689","long":"127.1103321","imageIndex":4,"items":[{"name":"고베규카츠","tel":"031-123-4567","addr":"경기도 용인시 기흥구 보정동 1184-2번지 1층","indutype":"일반휴게음식 - 일식·회집","category":"restaurant"}]},{"lat":"37.320676239","long":"127.11382794","imageIndex":4,"items":[{"name":"고봉민김밥인(죽전보정점)","tel":"031-272-5558","addr":"경기도 용인시 기흥구 보정동 1208-1번지 웰빙타운 104호","indutype":"일반휴게음식 - 일반한식","category":"restaurant"},{"name":"소이냉면","tel":"031-889-7898","addr":"경기도 용인시 기흥구 보정동 1208-1번지 웰빙타운 101호","indutype":"일반휴게음식 - 일반한식","category":"restaurant"}]},{"lat":"37.320680272","long":"127.10943929","imageIndex":4,"items":[{"name":"고쿠텐 보정카페거리점","tel":"","addr":"경기도 용인시 기흥구 보정동 1195-2번지 하이프라자 1층 102호","indutype":"일반휴게음식 - 일식·회집","category":"restaurant"},{"name":"미스터육회엔전","tel":"031-262-4711","addr":"경기도 용인시 기흥구 보정동 1195-2번지 하이프라자 107호","indutype":"일반휴게음식 - 일반한식","category":"restaurant"},{"name":"배부장찌개 용인보정점","tel":"031-897-5314","addr":"경기도 용인시 기흥구 보정동 1195-2번지 108,109호","indutype":"일반휴게음식 - 일반한식","category":"restaurant"},{"name":"불닭동대문엽기떡볶이 죽전점","tel":"031-889-8591","addr":"경기도 용인시 기흥구 보정동 1195-2번지 하이프라자 101호","indutype":"일반휴게음식 - 일반한식","category":"restaurant"},{"name":"수내닭꼬치 보정점","tel":"031-263-7722","addr":"경기도 용인시 기흥구 보정동 1195-2번지 하이프라자 102호","indutype":"일반휴게음식 - 일반한식","category":"restaurant"},{"name":"채율당","tel":"070-7766-7918","addr":"경기도 용인시 기흥구 보정동 1195-2번지 하이프라자 106호","indutype":"일반휴게음식 - 일반한식","category":"restaurant"},{"name":"커먼플레이스","tel":"","addr":"경기도 용인시 기흥구 보정동 1195-2번지 하이프라자 2층 205호","indutype":"일반휴게음식 - 일반한식","category":"restaurant"},{"name":"코이라멘 용인보정점","tel":"","addr":"경기도 용인시 기흥구 보정동 1195-2번지 하이프라자 103호","indutype":"일반휴게음식 - 일식·회집","category":"restaurant"},{"name":"황소곱창","tel":"031-889-2864","addr":"경기도 용인시 기흥구 보정동 1195-2번지 하이프라자 105호","indutype":"일반휴게음식 - 일반한식","category":"restaurant"}]},{"lat":"37.321428067","long":"127.10949676","imageIndex":4,"items":[{"name":"골드문","tel":"","addr":"경기도 용인시 기흥구 보정동 1187-4번지 1층","indutype":"일반휴게음식 - 일반한식","category":"restaurant"}]},{"lat":"37.320679926","long":"127.10982288","imageIndex":4,"items":[{"name":"곱창가","tel":"031-272-2339","addr":"경기도 용인시 기흥구 보정동 1195-3번지","indutype":"일반휴게음식 - 일반한식","category":"restaurant"},{"name":"드림보드게임카페","tel":"031-897-5169","addr":"경기도 용인시 기흥구 보정동 1195-3번지 4층 403-2호","indutype":"일반휴게음식 - 서양음식","category":"restaurant"},{"name":"뚱보집","tel":"070-4409-1888","addr":"경기도 용인시 기흥구 보정동 1195-3번지 미래시티 1층 102호","indutype":"일반휴게음식 - 일반한식","category":"restaurant"},{"name":"보정족발","tel":"031-897-6577","addr":"경기도 용인시 기흥구 보정동 1195-3번지 미래시티 109호","indutype":"일반휴게음식 - 일반한식","category":"restaurant"},{"name":"신전떡볶이","tel":"031-882-6244","addr":"경기도 용인시 기흥구 보정동 1195-3번지 미래시티 101호","indutype":"일반휴게음식 - 스넥","category":"restaurant"},{"name":"연안식당","tel":"031-897-3001","addr":"경기도 용인시 기흥구 보정동 1195-3번지 104,105,106호","indutype":"일반휴게음식 - 일반한식","category":"restaurant"},{"name":"오징어바다","tel":"031-705-3182","addr":"경기도 용인시 기흥구 보정동 1195-3번지 미래시티 107호","indutype":"일반휴게음식 - 일반한식","category":"restaurant"},{"name":"핑크핑","tel":"070-8830-5926","addr":"경기도 용인시 기흥구 보정동 1195-3번지 2층","indutype":"일반휴게음식 - 일반한식","category":"restaurant"}]},{"lat":"37.320679117","long":"127.11071414","imageIndex":4,"items":[{"name":"곱창고","tel":"031-898-0818","addr":"경기도 용인시 기흥구 보정동 1197-2번지 풍산프라자 105호","indutype":"일반휴게음식 - 일반한식","category":"restaurant"},{"name":"더블루","tel":"031-897-2762","addr":"경기도 용인시 기흥구 보정동 1197-2번지 풍산프라자 109호","indutype":"일반휴게음식 - 일반한식","category":"restaurant"},{"name":"밀숲죽전점","tel":"","addr":"경기도 용인시 기흥구 보정동 1197-2번지 풍산프라자 1층 103호","indutype":"일반휴게음식 - 일반한식","category":"restaurant"},{"name":"오징어나라(죽전점)","tel":"031-897-5329","addr":"경기도 용인시 기흥구 보정동 1197-2번지 풍산프라자 106호","indutype":"일반휴게음식 - 일반한식","category":"restaurant"},{"name":"진룽마라탕","tel":"","addr":"경기도 용인시 기흥구 보정동 1197-2번지 풍산프라자 104호","indutype":"일반휴게음식 - 중국식","category":"restaurant"},{"name":"토종순대국","tel":"031-889-3895","addr":"경기도 용인시 기흥구 보정동 1197-2번지 풍산프라자 1층 102호","indutype":"일반휴게음식 - 일반한식","category":"restaurant"}]},{"lat":"37.320675507","long":"127.11460638","imageIndex":4,"items":[{"name":"공차 용인보정점","tel":"","addr":"경기도 용인시 기흥구 보정동 1208-3번지 1층 106호,107호","indutype":"일반휴게음식 - 서양음식","category":"restaurant"},{"name":"랭스터디카페죽전점","tel":"031-889-9520","addr":"경기도 용인시 기흥구 보정동 1208-3번지 야후빌딩 201,202호","indutype":"일반휴게음식 - 서양음식","category":"restaurant"},{"name":"삐사감러브스테이크 죽전보정점","tel":"031-889-2673","addr":"경기도 용인시 기흥구 보정동 1208-3번지 야후빌딩 1층 102호","indutype":"일반휴게음식 - 서양음식","category":"restaurant"},{"name":"투썸(용인보정점)","tel":"031-897-1210","addr":"경기도 용인시 기흥구 보정동 1208-3번지 야후빌딩 108호 203호 204호","indutype":"일반휴게음식 - 서양음식","category":"restaurant"}]},{"lat":"37.321317797","long":"127.11185453","imageIndex":4,"items":[{"name":"교촌치킨 보정점","tel":"031-261-1991","addr":"경기도 용인시 기흥구 보정동 1204-4번지 1층","indutype":"일반휴게음식 - 스넥","category":"restaurant"}]},{"lat":"37.319756787","long":"127.11426657","imageIndex":4,"items":[{"name":"국수나무 보정점","tel":"031-276-6353","addr":"경기도 용인시 기흥구 보정동 1266-1번지 리베로3 1층 123호","indutype":"일반휴게음식 - 스넥","category":"restaurant"},{"name":"더씨비포인트(THE CB POINT)","tel":"031-698-7815","addr":"경기도 용인시 기흥구 보정동 1266-1번지 리베로3 1층 135호","indutype":"일반휴게음식 - 일반한식","category":"restaurant"},{"name":"명주골","tel":"031-898-3125","addr":"경기도 용인시 기흥구 보정동 1266-1번지 리베로3 1층 120호","indutype":"일반휴게음식 - 일반한식","category":"restaurant"},{"name":"미소야 용인보정점","tel":"031-898-3399","addr":"경기도 용인시 기흥구 보정동 1266-1번지 리베로3 1층 134호","indutype":"일반휴게음식 - 일식·회집","category":"restaurant"},{"name":"밥앤&정락","tel":"031-898-0001","addr":"경기도 용인시 기흥구 보정동 1266-1번지 CH리베로3159,160호","indutype":"일반휴게음식 - 일반한식","category":"restaurant"},{"name":"백채김치찌개","tel":"070-4112-0042","addr":"경기도 용인시 기흥구 보정동 1266-1번지 리베로3 119호","indutype":"일반휴게음식 - 일반한식","category":"restaurant"},{"name":"북문로떡볶이(보정점)","tel":"031-889-8877","addr":"경기도 용인시 기흥구 보정동 1266-1번지 리베로3 129호","indutype":"일반휴게음식 - 일반한식","category":"restaurant"},{"name":"북촌손만두용인보정점","tel":"031-897-2929","addr":"경기도 용인시 기흥구 보정동 1266-1번지 리베로3 121호","indutype":"일반휴게음식 - 일반한식","category":"restaurant"},{"name":"스마일꽈배기","tel":"031-898-1253","addr":"경기도 용인시 기흥구 보정동 1266-1번지 리베로3 103호","indutype":"일반휴게음식 - 일반한식","category":"restaurant"},{"name":"슬로우","tel":"031-899-8050","addr":"경기도 용인시 기흥구 보정동 1266-1번지 리베로3 1층 152호","indutype":"일반휴게음식 - 서양음식","category":"restaurant"},{"name":"장국시와 온반","tel":"031-897-8456","addr":"경기도 용인시 기흥구 보정동 1266-1번지 CH리베로3 108호","indutype":"일반휴게음식 - 일반한식","category":"restaurant"},{"name":"전마당","tel":"031-276-7033","addr":"경기도 용인시 기흥구 보정동 1266-1번지 리베로3 135호","indutype":"일반휴게음식 - 일반한식","category":"restaurant"},{"name":"전주콩뿌리콩나물국밥","tel":"031-889-8893","addr":"경기도 용인시 기흥구 보정동 1266-1번지 CH리베로3 124호 ,125,126,127호","indutype":"일반휴게음식 - 일반한식","category":"restaurant"},{"name":"카페 마실","tel":"","addr":"경기도 용인시 기흥구 보정동 1266-1번지 리베로3 1층 152-1호","indutype":"일반휴게음식 - 서양음식","category":"restaurant"},{"name":"카페쑨","tel":"070-997-9970","addr":"경기도 용인시 기흥구 보정동 1266-1번지 리베로3, 205호일부","indutype":"일반휴게음식 - 서양음식","category":"restaurant"},{"name":"행복한 김밥가게","tel":"031-889-1300","addr":"경기도 용인시 기흥구 보정동 1266-1번지 리베로3 1층 104호","indutype":"일반휴게음식 - 스넥","category":"restaurant"},{"name":"홈밥","tel":"031-111-1111","addr":"경기도 용인시 기흥구 보정동 1266-1번지 리베로3 1층 143호","indutype":"일반휴게음식 - 일반한식","category":"restaurant"}]},{"lat":"37.306792666","long":"127.11257804","imageIndex":4,"items":[{"name":"그린퀼트","tel":"031-889-9097","addr":"경기도 용인시 기흥구 보정동 1328-8번지 지층","indutype":"일반휴게음식 - 서양음식","category":"restaurant"}]},{"lat":"37.320677124","long":"127.11288026","imageIndex":4,"items":[{"name":"김영희강남동태찜","tel":"031-272-1088","addr":"경기도 용인시 기흥구 보정동 1207-3번지 에스제이타워","indutype":"일반휴게음식 - 일반한식","category":"restaurant"},{"name":"롯데리아용인보정점","tel":"031-898-0512","addr":"경기도 용인시 기흥구 보정동 1207-3번지 에스제이타워 102호~104호","indutype":"일반휴게음식 - 서양음식","category":"restaurant"},{"name":"메콩타이 보정점","tel":"031-898-3909","addr":"경기도 용인시 기흥구 보정동 1207-3번지 에스제이타워 202호,203호","indutype":"일반휴게음식 - 서양음식","category":"restaurant"},{"name":"봉구스밥버거","tel":"031-889-7003","addr":"경기도 용인시 기흥구 보정동 1207-3번지 에스제이타워 111호","indutype":"일반휴게음식 - 스넥","category":"restaurant"},{"name":"소문난대구왕뽈찜","tel":"031-276-6666","addr":"경기도 용인시 기흥구 보정동 1207-3번지 에스제이타워 201호","indutype":"일반휴게음식 - 일반한식","category":"restaurant"},{"name":"아마스빈 보정점","tel":"031-889-6187","addr":"경기도 용인시 기흥구 보정동 1207-3번지 에스제이타워 1층 119호","indutype":"일반휴게음식 - 서양음식","category":"restaurant"},{"name":"어부나라","tel":"031-272-1088","addr":"경기도 용인시 기흥구 보정동 1207-3번지 에스제이타워 205,206호","indutype":"일반휴게음식 - 일반한식","category":"restaurant"}]},{"lat":"37.320677511","long":"127.11246283","imageIndex":4,"items":[{"name":"김쫄비","tel":"070-8878-5509","addr":"경기도 용인시 기흥구 보정동 1207-2번지 이데아프라자 104호","indutype":"일반휴게음식 - 스넥","category":"restaurant"},{"name":"돈가스담다","tel":"031-265-0902","addr":"경기도 용인시 기흥구 보정동 1207-2번지 이데아프라자 2층 202호","indutype":"일반휴게음식 - 서양음식","category":"restaurant"},{"name":"떡쌈시대(죽전단국대점)","tel":"031-889-5566","addr":"경기도 용인시 기흥구 보정동 1803-2이데아프라자203~204호","indutype":"일반휴게음식 - 일반한식","category":"restaurant"},{"name":"메가MGC커피 죽전보정점","tel":"031-889-7865","addr":"경기도 용인시 기흥구 보정동 1207-2번지 이데아프라자 103호","indutype":"일반휴게음식 - 서양음식","category":"restaurant"}]},{"lat":"37.321986424","long":"127.10980216","imageIndex":4,"items":[{"name":"까페 맑음","tel":"031-246-0704","addr":"경기도 용인시 기흥구 보정동 1181-7번지","indutype":"일반휴게음식 - 칵테일바","category":"restaurant"},{"name":"요루히루(Yoru Hiru)","tel":"031-889-3559","addr":"경기도 용인시 기흥구 보정동 1181-7번지","indutype":"일반휴게음식 - 일반한식","category":"restaurant"}]},{"lat":"37.314923948","long":"127.10810001","imageIndex":4,"items":[{"name":"깨돌이김밥","tel":"031-264-3720","addr":"경기도 용인시 기흥구 보정동 573-7번지 1층","indutype":"일반휴게음식 - 스넥","category":"restaurant"}]},{"lat":"37.320148376","long":"127.10976571","imageIndex":4,"items":[{"name":"꿀바","tel":"031-889-6168","addr":"경기도 용인시 기흥구 보정동 1261-4번지 장은프라자 303호","indutype":"일반휴게음식 - 일반한식","category":"restaurant"},{"name":"먹고보자 양꼬치","tel":"031-111-1111","addr":"경기도 용인시 기흥구 보정동 1261-4번지 장은메디칼프라자 2층 201호","indutype":"일반휴게음식 - 중국식","category":"restaurant"},{"name":"미소식당","tel":"031-264-7677","addr":"경기도 용인시 기흥구 보정동 1261-4번지 장은메디칼프라자 113호","indutype":"일반휴게음식 - 일반한식","category":"restaurant"},{"name":"미태리 용인보정점","tel":"031-123-4567","addr":"경기도 용인시 기흥구 보정동 1261-4번지 장은메디칼프라자 107호","indutype":"일반휴게음식 - 서양음식","category":"restaurant"},{"name":"설빙","tel":"031-263-1007","addr":"경기도 용인시 기흥구 보정동 1261-4번지 (203~204호)","indutype":"일반휴게음식 - 서양음식","category":"restaurant"},{"name":"인성참치","tel":"031-889-6706","addr":"경기도 용인시 기흥구 보정동 1261-4번지 장은메디칼프라자 112호","indutype":"일반휴게음식 - 일반한식","category":"restaurant"},{"name":"장백꼬치","tel":"031-276-1155","addr":"경기도 용인시 기흥구 보정동 1261-4번지 장은메디칼프라자 102호","indutype":"일반휴게음식 - 일반한식","category":"restaurant"},{"name":"창신동용족발","tel":"031-889-8879","addr":"경기도 용인시 기흥구 보정동 1261-4번지 장은메디칼프라자 114호","indutype":"일반휴게음식 - 일반한식","category":"restaurant"},{"name":"청담이상 보정점","tel":"031-889-7407","addr":"경기도 용인시 기흥구 보정동 1261-4번지 장은메디칼프라자 205,206호","indutype":"일반휴게음식 - 일식·회집","category":"restaurant"},{"name":"탐라상회","tel":"031-897-7999","addr":"경기도 용인시 기흥구 보정동 1261-4번지 장은메디칼프라자 111호","indutype":"일반휴게음식 - 일반한식","category":"restaurant"},{"name":"한솥도시락 용인보정동카페거리점","tel":"031-889-8480","addr":"경기도 용인시 기흥구 보정동 1261-4번지 장은메디칼프라자 103호","indutype":"일반휴게음식 - 일반한식","category":"restaurant"}]},{"lat":"37.310845881","long":"127.0928545","imageIndex":4,"items":[{"name":"끼니0120","tel":"","addr":"경기도 용인시 기흥구 보정동 429번지 제이티타워 지1층 B03호","indutype":"일반휴게음식 - 일반한식","category":"restaurant"},{"name":"언더브래드","tel":"","addr":"경기도 용인시 기흥구 보정동 429번지 지하1층 B02-1호일부,B02-2호일부","indutype":"일반휴게음식 - 서양음식","category":"restaurant"}]},{"lat":"37.31976108","long":"127.10960722","imageIndex":4,"items":[{"name":"노가리슈퍼보정점","tel":"","addr":"경기도 용인시 기흥구 보정동 1262번지 아이원프라자 1층 113,114호","indutype":"일반휴게음식 - 주점","category":"restaurant"},{"name":"달봉비어","tel":"031-265-2378","addr":"경기도 용인시 기흥구 보정동 1262번지 아이원프라자 107호","indutype":"일반휴게음식 - 주점","category":"restaurant"},{"name":"동백연가 보정점","tel":"031-000-0000","addr":"경기도 용인시 기흥구 보정동 1262번지 115호,116호","indutype":"일반휴게음식 - 일반한식","category":"restaurant"},{"name":"명동찌개마을","tel":"031-889-9290","addr":"경기도 용인시 기흥구 보정동 1262번지 아이원프라자108호~109호 108호","indutype":"일반휴게음식 - 일반한식","category":"restaurant"},{"name":"모자족발","tel":"031-897-5977","addr":"경기도 용인시 기흥구 보정동 1262번지 아이원프라자 1층117호~120호","indutype":"일반휴게음식 - 일반한식","category":"restaurant"},{"name":"봉구비어","tel":"031-261-2522","addr":"경기도 용인시 기흥구 보정동 1262번지 아이원프라자","indutype":"일반휴게음식 - 주점","category":"restaurant"},{"name":"인기명/주식회사 엠제이푸드디","tel":"031-000-0000","addr":"경기도 용인시 기흥구 보정동 1262번지 아이원프라자 110,111,112호","indutype":"일반휴게음식 - 일반한식","category":"restaurant"},{"name":"인기명/주식회사 엠제이푸드에이","tel":"031-266-0728","addr":"경기도 용인시 기흥구 보정동 1262번지 아이원프라자 110호, 111호, 112호","indutype":"일반휴게음식 - 일반한식","category":"restaurant"},{"name":"짱스쭈꾸미죽전점","tel":"031-262-1028","addr":"경기도 용인시 기흥구 보정동 1262번지 아이원프라자 106호","indutype":"일반휴게음식 - 일반한식","category":"restaurant"},{"name":"차이란","tel":"031-265-8286","addr":"경기도 용인시 기흥구 보정동 1262번지 아이원프라자 201동 202호","indutype":"일반휴게음식 - 중국식","category":"restaurant"},{"name":"처갓집양념치킨보정점","tel":"031-272-9259","addr":"경기도 용인시 기흥구 보정동 1262번지 아이원프라자 130","indutype":"일반휴게음식 - 스넥","category":"restaurant"}]},{"lat":"37.308038164","long":"127.11030129","imageIndex":4,"items":[{"name":"뉴욕김밥","tel":"031-889-8007","addr":"경기도 용인시 기흥구 보정동 1323-1번지 현대프라자 103호","indutype":"일반휴게음식 - 일반한식","category":"restaurant"},{"name":"둘둘치킨","tel":"031-896-2225","addr":"경기도 용인시 기흥구 보정동 1323-1번지 현대프라자 101호","indutype":"일반휴게음식 - 주점","category":"restaurant"}]},{"lat":"37.320149563","long":"127.11810296","imageIndex":4,"items":[{"name":"달리는카페","tel":"","addr":"경기도 용인시 기흥구 보정동 1213번지 죽전중앙공원 1212호","indutype":"일반휴게음식 - 서양음식","category":"restaurant"}]},{"lat":"37.320148772","long":"127.10932573","imageIndex":4,"items":[{"name":"달인즉석계란말이김밥","tel":"031-897-8855","addr":"경기도 용인시 기흥구 보정동 1261-3번지 한솔프라자 104호","indutype":"일반휴게음식 - 일반한식","category":"restaurant"},{"name":"예감쪽갈비(보정점)","tel":"031-000-0000","addr":"경기도 용인시 기흥구 보정동 1261-3번지 한솔프라자 111,112호","indutype":"일반휴게음식 - 일반한식","category":"restaurant"},{"name":"유부남 죽전보정점","tel":"031-000-0000","addr":"경기도 용인시 기흥구 보정동 1261-3번지 한솔프라자 109호","indutype":"일반휴게음식 - 일반한식","category":"restaurant"},{"name":"조선 살살녹쏘 보정직영점","tel":"031-889-9455","addr":"경기도 용인시 기흥구 보정동 1261-3번지 한솔프라자 113호~117호","indutype":"일반휴게음식 - 일반한식","category":"restaurant"},{"name":"코코호도죽전보정점","tel":"031-889-9945","addr":"경기도 용인시 기흥구 보정동 1261-3번지 한솔프라자 103호","indutype":"일반휴게음식 - 스넥","category":"restaurant"}]},{"lat":"37.321427945","long":"127.10963214","imageIndex":4,"items":[{"name":"달팽이부엌","tel":"","addr":"경기도 용인시 기흥구 보정동 1187-5번지 1층","indutype":"일반휴게음식 - 서양음식","category":"restaurant"},{"name":"성찬백반","tel":"031-276-2121","addr":"경기도 용인시 기흥구 보정동 1187-5번지 지하","indutype":"일반휴게음식 - 일반한식","category":"restaurant"},{"name":"홍아저씨초밥","tel":"031-272-8721","addr":"경기도 용인시 기흥구 보정동 1187-5번지","indutype":"일반휴게음식 - 일식·회집","category":"restaurant"}]},{"lat":"37.29573753","long":"127.09044554","imageIndex":4,"items":[{"name":"담주","tel":"031-266-9666","addr":"경기도 용인시 기흥구 보정동 1062-4번지","indutype":"일반휴게음식 - 일반한식","category":"restaurant"}]},{"lat":"37.321986902","long":"127.10927191","imageIndex":4,"items":[{"name":"더가맥집","tel":"031-889-2134","addr":"경기도 용인시 기흥구 보정동 1181-11번지 1층","indutype":"일반휴게음식 - 일반한식","category":"restaurant"}]},{"lat":"37.320677897","long":"127.1120454","imageIndex":4,"items":[{"name":"더벤티용인보정점","tel":"031-242-1027","addr":"경기도 용인시 기흥구 보정동 1207-1번지 포레스트프라자 1층 109호","indutype":"일반휴게음식 - 서양음식","category":"restaurant"},{"name":"차돌바기","tel":"031-889-5432","addr":"경기도 용인시 기흥구 보정동 1207-1번지 포레스트프라자","indutype":"일반휴게음식 - 일반한식","category":"restaurant"},{"name":"한신포차 죽전점","tel":"031-261-3869","addr":"경기도 용인시 기흥구 보정동 1207-1번지 포레스트프라자 2층 201호202호","indutype":"일반휴게음식 - 주점","category":"restaurant"}]},{"lat":"37.321653047","long":"127.10980169","imageIndex":4,"items":[{"name":"더블샷(DOUBLE SHOT)","tel":"031-898-1447","addr":"경기도 용인시 기흥구 보정동 1186-9번지 101호","indutype":"일반휴게음식 - 서양음식","category":"restaurant"}]},{"lat":"37.320675879","long":"127.11421152","imageIndex":4,"items":[{"name":"도쿄라멘","tel":"031-000-0000","addr":"경기도 용인시 기흥구 보정동 1208-2번지 씨티프라자 106호","indutype":"일반휴게음식 - 일식·회집","category":"restaurant"},{"name":"모그모그","tel":"031-889-5979","addr":"경기도 용인시 기흥구 보정동 1208-2번지 에듀타워 104,105호","indutype":"일반휴게음식 - 일반한식","category":"restaurant"},{"name":"버무리떡볶이 보정점","tel":"031-261-4159","addr":"경기도 용인시 기흥구 보정동 1208-2번지 씨티프라자 107호","indutype":"일반휴게음식 - 스넥","category":"restaurant"}]},{"lat":"37.320959262","long":"127.10980071","imageIndex":4,"items":[{"name":"돈뜨르","tel":"031-889-8583","addr":"경기도 용인시 기흥구 보정동 1193-9번지 1층","indutype":"일반휴게음식 - 일반한식","category":"restaurant"}]},{"lat":"37.321209394","long":"127.11215899","imageIndex":4,"items":[{"name":"돌빙커피 보정점","tel":"031-266-7555","addr":"경기도 용인시 기흥구 보정동 1203-12번지","indutype":"일반휴게음식 - 서양음식","category":"restaurant"}]},{"lat":"37.320680597","long":"127.10907827","imageIndex":4,"items":[{"name":"동네창고","tel":"031-898-0454","addr":"경기도 용인시 기흥구 보정동 1195-1번지 메트로프라자 1층 101-103호","indutype":"일반휴게음식 - 일반한식","category":"restaurant"},{"name":"맥주광","tel":"031-898-3060","addr":"경기도 용인시 기흥구 보정동 1195-1번지 메트로프라자 201호","indutype":"일반휴게음식 - 주점","category":"restaurant"},{"name":"싱싱광어","tel":"031-897-4499","addr":"경기도 용인시 기흥구 보정동 1195-1번지 메트로프라자 104호,105호,106호","indutype":"일반휴게음식 - 일식·회집","category":"restaurant"},{"name":"한조","tel":"031-889-8890","addr":"경기도 용인시 기흥구 보정동 1195-1번지 메트로프라자","indutype":"일반휴게음식 - 일식·회집","category":"restaurant"}]},{"lat":"37.304705275","long":"127.09876892","imageIndex":4,"items":[{"name":"동의 명태가","tel":"031-266-7425","addr":"경기도 용인시 기흥구 보정동 883-6번지 1층","indutype":"일반휴게음식 - 일반한식","category":"restaurant"}]},{"lat":"37.322121953","long":"127.10938492","imageIndex":4,"items":[{"name":"두툼1KG","tel":"031-889-8675","addr":"경기도 용인시 기흥구 보정동 1181-1번지 1층","indutype":"일반휴게음식 - 일반한식","category":"restaurant"}]},{"lat":"37.302650533","long":"127.09927387","imageIndex":4,"items":[{"name":"드라곤호프","tel":"031-266-9229","addr":"경기도 용인시 기흥구 보정동 1019-107번지","indutype":"일반휴게음식 - 일반한식","category":"restaurant"},{"name":"천상애장어가","tel":"031-898-3305","addr":"경기도 용인시 기흥구 보정동 1019-107번지 동진 1층 102호","indutype":"일반휴게음식 - 일반한식","category":"restaurant"}]},{"lat":"37.319396792","long":"127.11382606","imageIndex":4,"items":[{"name":"디쎄베이커리","tel":"03-111-1111","addr":"경기도 용인시 기흥구 보정동 1266-6번지 현대휴먼프라자 105호","indutype":"일반휴게음식 - 서양음식","category":"restaurant"},{"name":"킹차이","tel":"031-897-4888","addr":"경기도 용인시 기흥구 보정동 1266-6번지 현대휴먼프라자 1층","indutype":"일반휴게음식 - 중국식","category":"restaurant"},{"name":"톳","tel":"031-889-9222","addr":"경기도 용인시 기흥구 보정동 1266-6번지 현대휴먼프라자 106호","indutype":"일반휴게음식 - 일반한식","category":"restaurant"}]},{"lat":"37.321093935","long":"127.11033115","imageIndex":4,"items":[{"name":"디저트랩 (dessert lab)호두","tel":"070-7722-5252","addr":"경기도 용인시 기흥구 보정동 1191-2번지 1층 101호","indutype":"일반휴게음식 - 서양음식","category":"restaurant"}]},{"lat":"37.3193964","long":"127.11424348","imageIndex":4,"items":[{"name":"떡볶이창고","tel":"031-897-9159","addr":"경기도 용인시 기흥구 보정동 1266-5번지 로얄캠퍼빌 105호","indutype":"일반휴게음식 - 스넥","category":"restaurant"},{"name":"쌀어묵공방","tel":"","addr":"경기도 용인시 기흥구 보정동 1266-5번지 로얄캠퍼빌 1층 102호","indutype":"일반휴게음식 - 일반한식","category":"restaurant"}]},{"lat":"37.321093535","long":"127.11077115","imageIndex":4,"items":[{"name":"라보나쿠치나","tel":"031-889-7939","addr":"경기도 용인시 기흥구 보정동 1191-5번지 1층","indutype":"일반휴게음식 - 서양음식","category":"restaurant"}]},{"lat":"37.321427066","long":"127.11060239","imageIndex":4,"items":[{"name":"라비(La Vie)","tel":"070-8800-3744","addr":"경기도 용인시 기흥구 보정동 1189-4번지 1층","indutype":"일반휴게음식 - 서양음식","category":"restaurant"}]},{"lat":"37.30782192","long":"127.11030098","imageIndex":4,"items":[{"name":"라비엘르 베이커리(La vieille bakery)","tel":"031-000-0000","addr":"경기도 용인시 기흥구 보정동 1323-2번지 웰빙프라자 1층 104호","indutype":"일반휴게음식 - 일반한식","category":"restaurant"},{"name":"자연계절","tel":"031-889-7800","addr":"경기도 용인시 기흥구 보정동 1323-2번지 웰빙프라자 104호","indutype":"일반휴게음식 - 일반한식","category":"restaurant"},{"name":"집밥가정식백반","tel":"031-897-0896","addr":"경기도 용인시 기흥구 보정동 1323-2번지 웰빙프라자 105호","indutype":"일반휴게음식 - 스넥","category":"restaurant"}]},{"lat":"37.321986557","long":"127.1096555","imageIndex":4,"items":[{"name":"라스마가리타스","tel":"031-889-4343","addr":"경기도 용인시 기흥구 보정동 1181-8번지 1층","indutype":"일반휴게음식 - 일반한식","category":"restaurant"}]},{"lat":"37.307901692","long":"127.11174493","imageIndex":4,"items":[{"name":"라쎄라믹(la ceramique cafe)","tel":"031-264-8553","addr":"경기도 용인시 기흥구 보정동 1325-18번지 1층","indutype":"일반휴게음식 - 서양음식","category":"restaurant"}]},{"lat":"37.30262427","long":"127.09832639","imageIndex":4,"items":[{"name":"라트로브151(LA TROBE 151)","tel":"031-264-1510","addr":"경기도 용인시 기흥구 보정동 904-4번지 1,2층","indutype":"일반휴게음식 - 서양음식","category":"restaurant"}]},{"lat":"37.321292792","long":"127.10963195","imageIndex":4,"items":[{"name":"램니쿠야","tel":"02-1111-1111","addr":"경기도 용인시 기흥구 보정동 1187-10번지 1층 101호","indutype":"일반휴게음식 - 일반한식","category":"restaurant"},{"name":"스트릭스알루코","tel":"031-898-1741","addr":"경기도 용인시 기흥구 보정동 1187-10번지","indutype":"일반휴게음식 - 서양음식","category":"restaurant"}]},{"lat":"37.321653322","long":"127.10949708","imageIndex":4,"items":[{"name":"리골레토시카고피자","tel":"031-264-8100","addr":"경기도 용인시 기흥구 보정동 1186-11번지","indutype":"일반휴게음식 - 서양음식","category":"restaurant"}]},{"lat":"37.321428199","long":"127.10935009","imageIndex":4,"items":[{"name":"리오네즈","tel":"031-889-5252","addr":"경기도 용인시 기흥구 보정동 1187-3번지 1층","indutype":"일반휴게음식 - 서양음식","category":"restaurant"}]},{"lat":"37.320956408","long":"127.11291451","imageIndex":4,"items":[{"name":"마카나이 보정점","tel":"031-897-7558","addr":"경기도 용인시 기흥구 보정동 1206-8번지 1층","indutype":"일반휴게음식 - 일반한식","category":"restaurant"},{"name":"커피나무","tel":"031-898-1906","addr":"경기도 용인시 기흥구 보정동 1206-8번지 1층","indutype":"일반휴게음식 - 서양음식","category":"restaurant"}]},{"lat":"37.293288027","long":"127.10033332","imageIndex":4,"items":[{"name":"만나정","tel":"031-265-7503","addr":"경기도 용인시 기흥구 보정동 1031-11번지","indutype":"일반휴게음식 - 일반한식","category":"restaurant"}]},{"lat":"37.320180319","long":"127.11421079","imageIndex":4,"items":[{"name":"맘스터치 용인보정점","tel":"031-261-0566","addr":"경기도 용인시 기흥구 보정동 1265-2번지 센타프라자 103,104호","indutype":"일반휴게음식 - 서양음식","category":"restaurant"},{"name":"본죽","tel":"031-896-6288","addr":"경기도 용인시 기흥구 보정동 1805-2센타프라자107","indutype":"일반휴게음식 - 일반한식","category":"restaurant"},{"name":"싸움의고수 죽전보정점","tel":"031-898-4579","addr":"경기도 용인시 기흥구 보정동 1265-2번지 센타프라자 102호","indutype":"일반휴게음식 - 일반한식","category":"restaurant"},{"name":"오딧세이","tel":"031-898-3336","addr":"경기도 용인시 기흥구 보정동 1805-2센타프라자304","indutype":"일반휴게음식 - 주점","category":"restaurant"},{"name":"파찌네만두","tel":"031-889-3293","addr":"경기도 용인시 기흥구 보정동 1265-2번지 센타프라자 108호","indutype":"일반휴게음식 - 일반한식","category":"restaurant"}]},{"lat":"37.307623695","long":"127.1103007","imageIndex":4,"items":[{"name":"멕시카나","tel":"031-262-9255","addr":"경기도 용인시 기흥구 보정동 1323-3번지 보정프라자 105호","indutype":"일반휴게음식 - 스넥","category":"restaurant"}]},{"lat":"37.321985698","long":"127.11060319","imageIndex":4,"items":[{"name":"명륜진사갈비","tel":"031-264-0292","addr":"경기도 용인시 기흥구 보정동 1183-5번지 1층","indutype":"일반휴게음식 - 일반한식","category":"restaurant"}]},{"lat":"37.320956952","long":"127.11232785","imageIndex":4,"items":[{"name":"무지개돌솥밥","tel":"031-889-2378","addr":"경기도 용인시 기흥구 보정동 1206-4번지","indutype":"일반휴게음식 - 일반한식","category":"restaurant"}]},{"lat":"37.321094293","long":"127.10993628","imageIndex":4,"items":[{"name":"문스펍","tel":"070-8905-0089","addr":"경기도 용인시 기흥구 보정동 1193-7번지 1층","indutype":"일반휴게음식 - 주점","category":"restaurant"}]},{"lat":"37.32095914","long":"127.10993609","imageIndex":4,"items":[{"name":"미스터오징어 용인보정점","tel":"031-265-0222","addr":"경기도 용인시 기흥구 보정동 1193-8번지 1층","indutype":"일반휴게음식 - 일식·회집","category":"restaurant"}]},{"lat":"37.321652444","long":"127.11046733","imageIndex":4,"items":[{"name":"미카도스시 회전초밥전문점 (보정점)","tel":"031-264-2468","addr":"경기도 용인시 기흥구 보정동 1184-7번지 1층","indutype":"일반휴게음식 - 일식·회집","category":"restaurant"}]},{"lat":"37.32095667","long":"127.11263247","imageIndex":4,"items":[{"name":"박가네칼국수","tel":"031-889-1141","addr":"경기도 용인시 기흥구 보정동 1206-6번지 1층","indutype":"일반휴게음식 - 일반한식","category":"restaurant"}]},{"lat":"37.31939559","long":"127.11510088","imageIndex":4,"items":[{"name":"베네시안카페/(주)솔라엘(SolaEL)","tel":"031-889-3338","addr":"경기도 용인시 기흥구 보정동 1266-3번지 105,106호","indutype":"일반휴게음식 - 서양음식","category":"restaurant"},{"name":"스파게티샵(#)","tel":"031-264-3116","addr":"경기도 용인시 기흥구 보정동 1266-3번지 현대프라자 103호","indutype":"일반휴게음식 - 서양음식","category":"restaurant"},{"name":"함께여서 행복해","tel":"070-8800-2118","addr":"경기도 용인시 기흥구 보정동 1266-3번지 현대프라자 102호","indutype":"일반휴게음식 - 일반한식","category":"restaurant"}]},{"lat":"37.302794971","long":"127.09893568","imageIndex":4,"items":[{"name":"베이커리까페 에셀(ezer)","tel":"031-889-2254","addr":"경기도 용인시 기흥구 보정동 902-1번지 1층","indutype":"일반휴게음식 - 일반한식","category":"restaurant"}]},{"lat":"37.304119565","long":"127.09882457","imageIndex":4,"items":[{"name":"부산꼼장어","tel":"031-000-0000","addr":"경기도 용인시 기흥구 보정동 900-1번지","indutype":"일반휴게음식 - 일반한식","category":"restaurant"}]},{"lat":"37.320958782","long":"127.11033096","imageIndex":4,"items":[{"name":"브롱스 죽전카페거리점","tel":"031-897-5254","addr":"경기도 용인시 기흥구 보정동 1191-13번지 1동","indutype":"일반휴게음식 - 주점","category":"restaurant"}]},{"lat":"37.321812408","long":"127.11288191","imageIndex":4,"items":[{"name":"블루문(BlueMoon)","tel":"031-276-7171","addr":"경기도 용인시 기흥구 보정동 1200-2번지","indutype":"일반휴게음식 - 서양음식","category":"restaurant"}]},{"lat":"37.321292313","long":"127.1101622","imageIndex":4,"items":[{"name":"비니에올리","tel":"031-889-4932","addr":"경기도 용인시 기흥구 보정동 1189-14번지 1층","indutype":"일반휴게음식 - 서양음식","category":"restaurant"}]},{"lat":"37.308237663","long":"127.09829964","imageIndex":4,"items":[{"name":"빅브레드","tel":"031-324-3269","addr":"경기도 용인시 기흥구 보정동 851-5번지 1층","indutype":"일반휴게음식 - 서양음식","category":"restaurant"},{"name":"창프억","tel":"031-272-0609","addr":"경기도 용인시 기흥구 보정동 851-5번지 2층","indutype":"일반휴게음식 - 일반한식","category":"restaurant"}]},{"lat":"37.322148485","long":"127.10993778","imageIndex":4,"items":[{"name":"빈스빈스","tel":"031-889-7350","addr":"경기도 용인시 기흥구 보정동 1181-5번지 1층","indutype":"일반휴게음식 - 서양음식","category":"restaurant"}]},{"lat":"37.320957234","long":"127.11202324","imageIndex":4,"items":[{"name":"뼈나라감자탕","tel":"031-889-3360","addr":"경기도 용인시 기흥구 보정동 1206-2번지 1층","indutype":"일반휴게음식 - 일반한식","category":"restaurant"}]},{"lat":"37.320959537","long":"127.1094961","imageIndex":4,"items":[{"name":"사나포차","tel":"031-262-3843","addr":"경기도 용인시 기흥구 보정동 1193-11번지 1층","indutype":"일반휴게음식 - 주점","category":"restaurant"}]},{"lat":"37.321370877","long":"127.11291512","imageIndex":4,"items":[{"name":"사랑방","tel":"031-711-4231","addr":"경기도 용인시 기흥구 보정동 1203-6번지 1층 101호","indutype":"일반휴게음식 - 서양음식","category":"restaurant"}]},{"lat":"37.320679497","long":"127.11029671","imageIndex":4,"items":[{"name":"사쿠라사케","tel":"031-889-6999","addr":"경기도 용인시 기흥구 보정동 1197-1번지 벤포스타2 107호","indutype":"일반휴게음식 - 일반한식","category":"restaurant"},{"name":"생활맥주(죽전까페거리점)","tel":"031-897-3755","addr":"경기도 용인시 기흥구 보정동 1197-1번지 벤포스타2 105호","indutype":"일반휴게음식 - 주점","category":"restaurant"},{"name":"스카이","tel":"031-889-6842","addr":"경기도 용인시 기흥구 보정동 1197-1번지","indutype":"일반휴게음식 - 주점","category":"restaurant"},{"name":"이차돌용인죽전점","tel":"031-898-2779","addr":"경기도 용인시 기흥구 보정동 1197-1번지 벤포스타II 109호 108호,109호","indutype":"일반휴게음식 - 일반한식","category":"restaurant"},{"name":"잘군","tel":"031-262-9279","addr":"경기도 용인시 기흥구 보정동 1197-1번지 벤포스타2 101호","indutype":"일반휴게음식 - 주점","category":"restaurant"}]},{"lat":"37.320957857","long":"127.10102338","imageIndex":4,"items":[{"name":"삼성웰스토리(주)보쉬코리아용인COFFEE&","tel":"031-5171-1167","addr":"경기도 용인시 기흥구 보정동 298번지","indutype":"일반휴게음식 - 일반한식","category":"restaurant"}]},{"lat":"37.320956827","long":"127.11246324","imageIndex":4,"items":[{"name":"삼포가는길","tel":"031-272-6767","addr":"경기도 용인시 기흥구 보정동 1206-5번지 1층","indutype":"일반휴게음식 - 일반한식","category":"restaurant"}]},{"lat":"37.321761576","long":"127.10935056","imageIndex":4,"items":[{"name":"섬게장","tel":"031-889-8044","addr":"경기도 용인시 기흥구 보정동 1186-3번지","indutype":"일반휴게음식 - 일반한식","category":"restaurant"}]},{"lat":"37.320956545","long":"127.11276785","imageIndex":4,"items":[{"name":"세꼬시마을","tel":"031-898-0908","addr":"경기도 용인시 기흥구 보정동 1206-7번지","indutype":"일반휴게음식 - 일식·회집","category":"restaurant"}]},{"lat":"37.293934781","long":"127.10271378","imageIndex":4,"items":[{"name":"세도건설(카페에스)","tel":"031-281-8820","addr":"경기도 용인시 기흥구 보정동 1019-466번지 강규복","indutype":"일반휴게음식 - 스넥","category":"restaurant"}]},{"lat":"37.306650489","long":"127.0999896","imageIndex":4,"items":[{"name":"솔뫼마을장수촌","tel":"031-266-9944","addr":"경기도 용인시 기흥구 보정동 841-1번지","indutype":"일반휴게음식 - 일반한식","category":"restaurant"}]},{"lat":"37.310786426","long":"127.09969035","imageIndex":4,"items":[{"name":"솔뫼숯불갈비","tel":"070-1111-1111","addr":"경기도 용인시 기흥구 보정동 484-11번지","indutype":"일반휴게음식 - 일반한식","category":"restaurant"}]},{"lat":"37.321813254","long":"127.11196807","imageIndex":4,"items":[{"name":"수담(죽전본점)","tel":"031-897-6987","addr":"경기도 용인시 기흥구 보정동 1199-2번지","indutype":"일반휴게음식 - 일반한식","category":"restaurant"}]},{"lat":"37.321732266","long":"127.11185513","imageIndex":4,"items":[{"name":"수뿌레닭갈비(죽전점)","tel":"031-889-2252","addr":"경기도 용인시 기흥구 보정동 1199-1번지 1층","indutype":"일반휴게음식 - 일반한식","category":"restaurant"}]},{"lat":"37.321209113","long":"127.1124636","imageIndex":4,"items":[{"name":"순천회관","tel":"070-7740-4911","addr":"경기도 용인시 기흥구 보정동 1203-10번지","indutype":"일반휴게음식 - 일반한식","category":"restaurant"}]},{"lat":"37.304988395","long":"127.10499558","imageIndex":4,"items":[{"name":"스무디킹 트레이더스 구성점","tel":"031-287-8064","addr":"경기도 용인시 기흥구 보정동 1019-488번지 2층","indutype":"일반휴게음식 - 서양음식","category":"restaurant"}]},{"lat":"37.321093812","long":"127.11046653","imageIndex":4,"items":[{"name":"스시센","tel":"031-266-3904","addr":"경기도 용인시 기흥구 보정동 1191-3번지 1층","indutype":"일반휴게음식 - 일식·회집","category":"restaurant"}]},{"lat":"37.321292517","long":"127.10993656","imageIndex":4,"items":[{"name":"스시율","tel":"","addr":"경기도 용인시 기흥구 보정동 1187-8번지 1층","indutype":"일반휴게음식 - 일반한식","category":"restaurant"}]},{"lat":"37.317674131","long":"127.10574602","imageIndex":4,"items":[{"name":"신남서문곰탕","tel":"031-262-1770","addr":"경기도 용인시 기흥구 보정동 547-25번지","indutype":"일반휴게음식 - 일반한식","category":"restaurant"}]},{"lat":"37.317680998","long":"127.10818282","imageIndex":4,"items":[{"name":"신부자","tel":"031-898-1700","addr":"경기도 용인시 기흥구 보정동 557번지 1층","indutype":"일반휴게음식 - 일반한식","category":"restaurant"},{"name":"치엔차이","tel":"031-8002-5550","addr":"경기도 용인시 기흥구 보정동 557번지 2층","indutype":"일반휴게음식 - 중국식","category":"restaurant"}]},{"lat":"37.323122237","long":"127.1092171","imageIndex":4,"items":[{"name":"쏘렐라에프라텔로","tel":"031-897-5882","addr":"경기도 용인시 기흥구 보정동 1179번지 죽전신세계쉐덴 201호,202호,203호","indutype":"일반휴게음식 - 서양음식","category":"restaurant"},{"name":"카페브리지(cafe Bridge)","tel":"070-8882-6789","addr":"경기도 용인시 기흥구 보정동 1179번지 죽전신세계쉐덴 204호","indutype":"일반휴게음식 - 서양음식","category":"restaurant"}]},{"lat":"37.320958382","long":"127.11077095","imageIndex":4,"items":[{"name":"쏘삼208(죽전보정카페거리점)","tel":"031-263-9293","addr":"경기도 용인시 기흥구 보정동 1191-10번지 1층","indutype":"일반휴게음식 - 일반한식","category":"restaurant"}]},{"lat":"37.319403482","long":"127.11627419","imageIndex":4,"items":[{"name":"쏭스클럽 죽전점","tel":"031-276-0818","addr":"경기도 용인시 기흥구 보정동 1254-3번지 에듀타워 102호","indutype":"일반휴게음식 - 스넥","category":"restaurant"}]},{"lat":"37.321761698","long":"127.10921518","imageIndex":4,"items":[{"name":"아라비카1948분당용인점","tel":"070-4147-7680","addr":"경기도 용인시 기흥구 보정동 1186-2번지 지하1층,1층","indutype":"일반휴게음식 - 서양음식","category":"restaurant"}]},{"lat":"37.321760566","long":"127.11046748","imageIndex":4,"items":[{"name":"아우라배 (AURA BAE)","tel":"","addr":"경기도 용인시 기흥구 보정동 1184-3번지 1층","indutype":"일반휴게음식 - 일반한식","category":"restaurant"}]},{"lat":"37.321986098","long":"127.11016319","imageIndex":4,"items":[{"name":"아임홈(I'm home)","tel":"031-265-7791","addr":"경기도 용인시 기흥구 보정동 1183-8번지","indutype":"일반휴게음식 - 일반한식","category":"restaurant"}]},{"lat":"37.311119285","long":"127.10032248","imageIndex":4,"items":[{"name":"압돈지","tel":"031-266-9620","addr":"경기도 용인시 기흥구 보정동 491-1번지","indutype":"일반휴게음식 - 일반한식","category":"restaurant"}]},{"lat":"37.321427466","long":"127.1101624","imageIndex":4,"items":[{"name":"양(yaang)","tel":"031-897-1249","addr":"경기도 용인시 기흥구 보정동 1189-1번지","indutype":"일반휴게음식 - 서양음식","category":"restaurant"}]},{"lat":"37.312619907","long":"127.10516382","imageIndex":4,"items":[{"name":"양평해장국(구성점)","tel":"031-261-0808","addr":"경기도 용인시 기흥구 보정동 614-17번지 1층 일부","indutype":"일반휴게음식 - 일반한식","category":"restaurant"}]},{"lat":"37.321291913","long":"127.1106022","imageIndex":4,"items":[{"name":"어반트리","tel":"","addr":"경기도 용인시 기흥구 보정동 1189-11번지 1층 일부호","indutype":"일반휴게음식 - 서양음식","category":"restaurant"}]},{"lat":"37.322148035","long":"127.11043419","imageIndex":4,"items":[{"name":"어부의 밥상 보정점","tel":"02-0000-0000","addr":"경기도 용인시 기흥구 보정동 1183-3번지 1층","indutype":"일반휴게음식 - 일반한식","category":"restaurant"}]},{"lat":"37.320675091","long":"127.11504638","imageIndex":4,"items":[{"name":"에스키친234","tel":"031-1111-1111","addr":"경기도 용인시 기흥구 보정동 1208-4번지 엘림프라자 2층 204호","indutype":"일반휴게음식 - 서양음식","category":"restaurant"},{"name":"오마뎅 죽전점","tel":"031-897-2367","addr":"경기도 용인시 기흥구 보정동 1208-4번지 호암빌딩 105호","indutype":"일반휴게음식 - 스넥","category":"restaurant"},{"name":"장호덕손만두","tel":"031-897-7755","addr":"경기도 용인시 기흥구 보정동 1208-4번지 호암빌딩 107호","indutype":"일반휴게음식 - 일반한식","category":"restaurant"},{"name":"피자마루죽전1호점","tel":"031-263-3800","addr":"경기도 용인시 기흥구 보정동 1208-4번지 엘림프라자 104호","indutype":"일반휴게음식 - 서양음식","category":"restaurant"}]},{"lat":"37.322119163","long":"127.11244236","imageIndex":4,"items":[{"name":"에스프레소&티(E&T)","tel":"031-897-7977","addr":"경기도 용인시 기흥구 보정동 1199-6번지","indutype":"일반휴게음식 - 서양음식","category":"restaurant"}]},{"lat":"37.32142767","long":"127.10993676","imageIndex":4,"items":[{"name":"에코의서재","tel":"031-266-1138","addr":"경기도 용인시 기흥구 보정동 1187-7번지 1층","indutype":"일반휴게음식 - 서양음식","category":"restaurant"}]},{"lat":"37.320958258","long":"127.11090634","imageIndex":4,"items":[{"name":"여우곱창","tel":"031-265-6297","addr":"경기도 용인시 기흥구 보정동 1191-9번지 1층","indutype":"일반휴게음식 - 일반한식","category":"restaurant"}]},{"lat":"37.301731737","long":"127.09896816","imageIndex":4,"items":[{"name":"예하랑","tel":"031-262-8977","addr":"경기도 용인시 기흥구 보정동 724번지","indutype":"일반휴게음식 - 중국식","category":"restaurant"}]},{"lat":"37.32109469","long":"127.10949629","imageIndex":4,"items":[{"name":"오늘 와인한잔","tel":"031-889-7357","addr":"경기도 용인시 기흥구 보정동 1193-4번지 1층","indutype":"일반휴게음식 - 일반한식","category":"restaurant"}]},{"lat":"37.32198678","long":"127.10940729","imageIndex":4,"items":[{"name":"오스트.OST","tel":"032-621-8225","addr":"경기도 용인시 기흥구 보정동 1181-10번지 1층","indutype":"일반휴게음식 - 서양음식","category":"restaurant"}]},{"lat":"37.321428473","long":"127.10904548","imageIndex":4,"items":[{"name":"오카방고","tel":"031-898-1531","addr":"경기도 용인시 기흥구 보정동 1187-1번지 1층","indutype":"일반휴게음식 - 서양음식","category":"restaurant"}]},{"lat":"37.321653728","long":"127.1090458","imageIndex":4,"items":[{"name":"온더고(ONTHEGO)","tel":"031-263-3444","addr":"경기도 용인시 기흥구 보정동 1186-14번지","indutype":"일반휴게음식 - 서양음식","category":"restaurant"}]},{"lat":"37.321093277","long":"127.11105319","imageIndex":4,"items":[{"name":"옵서예","tel":"031-265-4397","addr":"경기도 용인시 기흥구 보정동 1191-7번지","indutype":"일반휴게음식 - 일반한식","category":"restaurant"}]},{"lat":"37.320649726","long":"127.11327509","imageIndex":4,"items":[{"name":"와바(보정점)","tel":"031-889-8047","addr":"경기도 용인시 기흥구 보정동 1803-3에스제이타워204","indutype":"일반휴게음식 - 주점","category":"restaurant"}]},{"lat":"37.320959669","long":"127.10934943","imageIndex":4,"items":[{"name":"와바탭하우스","tel":"031-897-7942","addr":"경기도 용인시 기흥구 보정동 1193-12번지","indutype":"일반휴게음식 - 일반한식","category":"restaurant"}]},{"lat":"37.310457213","long":"127.1054429","imageIndex":4,"items":[{"name":"유진식당","tel":"031-305-4921","addr":"경기도 용인시 기흥구 보정동 1289-1번지","indutype":"일반휴게음식 - 일반한식","category":"restaurant"}]},{"lat":"37.322038175","long":"127.11232942","imageIndex":4,"items":[{"name":"육감","tel":"031-889-8788","addr":"경기도 용인시 기흥구 보정동 1199-5번지 상가 1층","indutype":"일반휴게음식 - 일반한식","category":"restaurant"}]},{"lat":"37.321903252","long":"127.11208102","imageIndex":4,"items":[{"name":"의정부부대찌개","tel":"031-889-5744","addr":"경기도 용인시 기흥구 보정동 1199-3번지","indutype":"일반휴게음식 - 일반한식","category":"restaurant"},{"name":"죽전","tel":"031-897-2220","addr":"경기도 용인시 기흥구 보정동 1199-3번지","indutype":"일반휴게음식 - 일반한식","category":"restaurant"}]},{"lat":"37.321427189","long":"127.11046701","imageIndex":4,"items":[{"name":"이코아노(ICOANO)","tel":"","addr":"경기도 용인시 기흥구 보정동 1189-3번지 1층","indutype":"일반휴게음식 - 일반한식","category":"restaurant"}]},{"lat":"37.321985975","long":"127.11029857","imageIndex":4,"items":[{"name":"이태리옥","tel":"031-889-9577","addr":"경기도 용인시 기흥구 보정동 1183-7번지","indutype":"일반휴게음식 - 일반한식","category":"restaurant"}]},{"lat":"37.306954797","long":"127.11263467","imageIndex":4,"items":[{"name":"잔비어스","tel":"031-897-8880","addr":"경기도 용인시 기흥구 보정동 1328-7번지","indutype":"일반휴게음식 - 주점","category":"restaurant"}]},{"lat":"37.302092512","long":"127.09851746","imageIndex":4,"items":[{"name":"전경희비빔,잔치국수","tel":"031-264-6923","addr":"경기도 용인시 기흥구 보정동 906-3보정프라자106,107,108호 전경희비빔 잔치국수","indutype":"일반휴게음식 - 일반한식","category":"restaurant"},{"name":"카페에비뉴(cafe' AVENUE)","tel":"031-898-1224","addr":"경기도 용인시 기흥구 보정동 906-3번지 보정프라자 102호","indutype":"일반휴게음식 - 서양음식","category":"restaurant"}]},{"lat":"37.320950801","long":"127.10919147","imageIndex":4,"items":[{"name":"제주오겹살","tel":"031-897-1411","addr":"경기도 용인시 기흥구 보정동 1193-13번지 1층","indutype":"일반휴게음식 - 일반한식","category":"restaurant"}]},{"lat":"37.32214589","long":"127.11276958","imageIndex":4,"items":[{"name":"조가네갑오징어","tel":"031-897-6633","addr":"경기도 용인시 기흥구 보정동 1199-8번지 1층","indutype":"일반휴게음식 - 일반한식","category":"restaurant"}]},{"lat":"37.317038514","long":"127.10090547","imageIndex":4,"items":[{"name":"주식회사지씨웰페어","tel":"031-260-9450","addr":"경기도 용인시 기흥구 보정동 303번지","indutype":"일반휴게음식 - 서양음식","category":"restaurant"}]},{"lat":"37.303903384","long":"127.09874534","imageIndex":4,"items":[{"name":"죽도한우곰탕","tel":"031-261-0700","addr":"경기도 용인시 기흥구 보정동 900-2번지 1층","indutype":"일반휴게음식 - 일반한식","category":"restaurant"}]},{"lat":"37.32017953","long":"127.11504564","imageIndex":4,"items":[{"name":"죽전샤브향","tel":"031-265-5553","addr":"경기도 용인시 기흥구 보정동 1265-4번지 202호","indutype":"일반휴게음식 - 일반한식","category":"restaurant"}]},{"lat":"37.321426912","long":"127.11077162","imageIndex":4,"items":[{"name":"지글2.4","tel":"031-263-9291","addr":"경기도 용인시 기흥구 보정동 1189-5번지 1층","indutype":"일반휴게음식 - 일반한식","category":"restaurant"}]},{"lat":"37.306984365","long":"127.09938092","imageIndex":4,"items":[{"name":"진향순대국","tel":"031-262-1170","addr":"경기도 용인시 기흥구 보정동 841-3번지","indutype":"일반휴게음식 - 일반한식","category":"restaurant"}]},{"lat":"37.321208694","long":"127.11291488","imageIndex":4,"items":[{"name":"찌마기","tel":"031-264-8988","addr":"경기도 용인시 기흥구 보정동 1203-7번지","indutype":"일반휴게음식 - 일반한식","category":"restaurant"}]},{"lat":"37.321426654","long":"127.11105367","imageIndex":4,"items":[{"name":"청년다방 보정카페거리점","tel":"031-266-5789","addr":"경기도 용인시 기흥구 보정동 1189-7번지 1층","indutype":"일반휴게음식 - 서양음식","category":"restaurant"}]},{"lat":"37.321371598","long":"127.11213666","imageIndex":4,"items":[{"name":"춘자육개장","tel":"031-265-7714","addr":"경기도 용인시 기흥구 보정동 1203-1번지 1층","indutype":"일반휴게음식 - 일반한식","category":"restaurant"}]},{"lat":"37.319396007","long":"127.1146609","imageIndex":4,"items":[{"name":"친절한 미쓰리","tel":"","addr":"경기도 용인시 기흥구 보정동 1266-4번지 로얄프라자 1층 111호","indutype":"일반휴게음식 - 일반한식","category":"restaurant"}]},{"lat":"37.321371171","long":"127.11259922","imageIndex":4,"items":[{"name":"카이도","tel":"","addr":"경기도 용인시 기흥구 보정동 1203-4번지","indutype":"일반휴게음식 - 일반한식","category":"restaurant"}]},{"lat":"37.321094089","long":"127.11016192","imageIndex":4,"items":[{"name":"카페 율","tel":"031-889-2379","addr":"경기도 용인시 기흥구 보정동 1191-1번지 1층","indutype":"일반휴게음식 - 서양음식","category":"restaurant"}]},{"lat":"37.320957369","long":"127.11187658","imageIndex":4,"items":[{"name":"카페더치즈케익(CAFE THE CHEESE CAKE) 죽","tel":"031-897-7501","addr":"경기도 용인시 기흥구 보정동 1206-1번지 102,103호","indutype":"일반휴게음식 - 서양음식","category":"restaurant"}]},{"lat":"37.306236857","long":"127.09896262","imageIndex":4,"items":[{"name":"카페블레스","tel":"031-265-7656","addr":"경기도 용인시 기흥구 보정동 838번지","indutype":"일반휴게음식 - 서양음식","category":"restaurant"}]},{"lat":"37.32192954","long":"127.11288209","imageIndex":4,"items":[{"name":"카페엔","tel":"031-890-7009","addr":"경기도 용인시 기흥구 보정동 1200-1번지 1층","indutype":"일반휴게음식 - 서양음식","category":"restaurant"}]},{"lat":"37.321986302","long":"127.10993755","imageIndex":4,"items":[{"name":"커피온","tel":"031-272-8789","addr":"경기도 용인시 기흥구 보정동 1181-6번지 1층","indutype":"일반휴게음식 - 서양음식","category":"restaurant"}]},{"lat":"37.32162529","long":"127.11060268","imageIndex":4,"items":[{"name":"코드지 보정점","tel":"070-7722-5805","addr":"경기도 용인시 기흥구 보정동 1184-6번지","indutype":"일반휴게음식 - 서양음식","category":"restaurant"}]},{"lat":"37.321284178","long":"127.10919194","imageIndex":4,"items":[{"name":"킴벌리페이지원","tel":"031-898-4254","addr":"경기도 용인시 기흥구 보정동 1187-13번지 1층","indutype":"일반휴게음식 - 서양음식","category":"restaurant"}]},{"lat":"37.321653576","long":"127.10921503","imageIndex":4,"items":[{"name":"타이테라스","tel":"031-898-0913","addr":"경기도 용인시 기흥구 보정동 1186-13번지","indutype":"일반휴게음식 - 일식·회집","category":"restaurant"}]},{"lat":"37.321761444","long":"127.10949723","imageIndex":4,"items":[{"name":"토텐","tel":"031-889-4915","addr":"경기도 용인시 기흥구 보정동 1186-4번지","indutype":"일반휴게음식 - 일반한식","category":"restaurant"}]},{"lat":"37.321986648","long":"127.10955396","imageIndex":4,"items":[{"name":"토텐","tel":"031-889-4915","addr":"경기도 용인시 기흥구 보정동 1181-9번지","indutype":"일반휴게음식 - 일반한식","category":"restaurant"}]},{"lat":"37.321284036","long":"127.10934989","imageIndex":4,"items":[{"name":"팬케이크 팬트리(Pancake Pantry)","tel":"031-276-0168","addr":"경기도 용인시 기흥구 보정동 1187-12번지 1층","indutype":"일반휴게음식 - 서양음식","category":"restaurant"}]},{"lat":"37.322148158","long":"127.1102988","imageIndex":4,"items":[{"name":"포마이","tel":"031-889-3080","addr":"경기도 용인시 기흥구 보정동 1183-2번지 1층","indutype":"일반휴게음식 - 일반한식","category":"restaurant"}]},{"lat":"37.316897151","long":"127.1081366","imageIndex":4,"items":[{"name":"포메인","tel":"031-276-0344","addr":"경기도 용인시 기흥구 보정동 557-7번지","indutype":"일반휴게음식 - 일반한식","category":"restaurant"}]},{"lat":"37.321625136","long":"127.11077191","imageIndex":4,"items":[{"name":"포베이","tel":"031-889-9963","addr":"경기도 용인시 기흥구 보정동 1184-5번지 1층","indutype":"일반휴게음식 - 서양음식","category":"restaurant"}]},{"lat":"37.316737484","long":"127.12432502","imageIndex":4,"items":[{"name":"푸드스토리","tel":"031-263-6049","addr":"경기도 용인시 기흥구 보정동 30-3번지","indutype":"일반휴게음식 - 위탁급식업","category":"restaurant"}]},{"lat":"37.304452916","long":"127.09885883","imageIndex":4,"items":[{"name":"프리미엄뿅의전설","tel":"031-264-9272","addr":"경기도 용인시 기흥구 보정동 883-3번지 1,2층","indutype":"일반휴게음식 - 중국식","category":"restaurant"}]},{"lat":"37.321652925","long":"127.10993708","imageIndex":4,"items":[{"name":"플레이버","tel":"031-427-1287","addr":"경기도 용인시 기흥구 보정동 1186-8번지 1층","indutype":"일반휴게음식 - 서양음식","category":"restaurant"}]},{"lat":"37.321209269","long":"127.11229437","imageIndex":4,"items":[{"name":"피그불판","tel":"031-261-3562","addr":"경기도 용인시 기흥구 보정동 1203-11번지","indutype":"일반휴게음식 - 일반한식","category":"restaurant"}]},{"lat":"37.3216532","long":"127.10963246","imageIndex":4,"items":[{"name":"피제리아다문","tel":"031-889-2010","addr":"경기도 용인시 기흥구 보정동 1186-10번지 1층","indutype":"일반휴게음식 - 서양음식","category":"restaurant"}]},{"lat":"37.320095056","long":"127.10894207","imageIndex":4,"items":[{"name":"필라이브","tel":"031-889-5333","addr":"경기도 용인시 기흥구 보정동 1261-2번지 현타워 404동 405호","indutype":"일반휴게음식 - 주점","category":"restaurant"}]},{"lat":"37.32176117","long":"127.10980184","imageIndex":4,"items":[{"name":"하루무늬","tel":"031-111-1111","addr":"경기도 용인시 기흥구 보정동 1186-6번지","indutype":"일반휴게음식 - 일반한식","category":"restaurant"}]},{"lat":"37.320958659","long":"127.11046634","imageIndex":4,"items":[{"name":"한가네숯불닭갈비","tel":"031-266-4819","addr":"경기도 용인시 기흥구 보정동 1191-12번지 1층","indutype":"일반휴게음식 - 일반한식","category":"restaurant"}]},{"lat":"37.321760392","long":"127.11065928","imageIndex":4,"items":[{"name":"한참치(HANMAGURO)","tel":"031-889-4875","addr":"경기도 용인시 기흥구 보정동 1184-4번지","indutype":"일반휴게음식 - 일반한식","category":"restaurant"}]},{"lat":"37.321208987","long":"127.11259899","imageIndex":4,"items":[{"name":"해담","tel":"031-897-1282","addr":"경기도 용인시 기흥구 보정동 1203-9번지 1층","indutype":"일반휴게음식 - 일반한식","category":"restaurant"}]},{"lat":"37.321957219","long":"127.11218264","imageIndex":4,"items":[{"name":"현대옥","tel":"031-261-2247","addr":"경기도 용인시 기흥구 보정동 1199-4번지 1층","indutype":"일반휴게음식 - 일반한식","category":"restaurant"}]},{"lat":"37.320950933","long":"127.10904481","imageIndex":4,"items":[{"name":"화로구이 육공방","tel":"031-897-8592","addr":"경기도 용인시 기흥구 보정동 1193-14번지 1층","indutype":"일반휴게음식 - 일반한식","category":"restaurant"}]},{"lat":"37.322147902","long":"127.11058086","imageIndex":4,"items":[{"name":"황도바지락손칼국수","tel":"031-889-5235","addr":"경기도 용인시 기흥구 보정동 1183-4번지","indutype":"일반휴게음식 - 일반한식","category":"restaurant"}]},{"lat":"37.320959415","long":"127.10963148","imageIndex":4,"items":[{"name":"황제 양꼬치","tel":"031-897-5510","addr":"경기도 용인시 기흥구 보정동 1193-10번지 1층","indutype":"일반휴게음식 - 일반한식","category":"restaurant"}]},{"lat":"37.32214874","long":"127.10965573","imageIndex":4,"items":[{"name":"황제훠궈","tel":"031-897-5510","addr":"경기도 용인시 기흥구 보정동 1181-3번지 1층","indutype":"일반휴게음식 - 중국식","category":"restaurant"}]}]