[{"lat":"37.213663423","long":"127.03575595","imageIndex":7,"items":[{"name":"강민미트","tel":"031-237-3878","addr":"경기도 화성시 진안동 460-16번지 1층","indutype":"음료식품 - 정육점","category":"food"}]},{"lat":"37.217247492","long":"127.04248358","imageIndex":7,"items":[{"name":"경기 수산물 직판장","tel":"","addr":"경기도 화성시 진안동 910번지 진안골마을주공12단지 1202동 703호","indutype":"음료식품 - 농·축·수산품","category":"food"}]},{"lat":"37.219267662","long":"127.03650199","imageIndex":7,"items":[{"name":"경기청과","tel":"","addr":"경기도 화성시 진안동 922-8번지 304호","indutype":"음료식품 - 농·축·수산품","category":"food"}]},{"lat":"37.208248356","long":"127.03514528","imageIndex":7,"items":[{"name":"경기축산물도,소매센타","tel":"031-223-0245","addr":"경기도 화성시 진안동 527-16","indutype":"음료식품 - 정육점","category":"food"},{"name":"마카레베이킹","tel":"","addr":"경기도 화성시 진안동 527-16번지 YJ금성빌딩 B동 1층 105호","indutype":"음료식품 - 기타음료식품","category":"food"}]},{"lat":"37.224854722","long":"127.03417207","imageIndex":7,"items":[{"name":"광명축산유통","tel":"031-307-3436","addr":"경기도 화성시 진안동 46-30번지","indutype":"음료식품 - 정육점","category":"food"},{"name":"대경비젼","tel":"031-237-6563","addr":"경기도 화성시 진안동 46-30번지","indutype":"음료식품 - 기타음료식품","category":"food"}]},{"lat":"37.215327794","long":"127.04392465","imageIndex":7,"items":[{"name":"국선생","tel":"","addr":"경기도 화성시 진안동 914-7번지 거성프라자 110호","indutype":"음료식품 - 기타음료식품","category":"food"},{"name":"떡집담쟁이","tel":"031-234-8003","addr":"경기도 화성시 진안동 914-7번지 거성프라자 102호","indutype":"음료식품 - 제과점","category":"food"},{"name":"착한축산깔꾸리","tel":"031-234-9235","addr":"경기도 화성시 진안동 914-7번지 거성프라자 1층 105호","indutype":"음료식품 - 정육점","category":"food"},{"name":"행복한빵집","tel":"032-233-8004","addr":"경기도 화성시 진안동 914-7번지 거성프라자 106호","indutype":"음료식품 - 제과점","category":"food"}]},{"lat":"37.21455358","long":"127.04191887","imageIndex":7,"items":[{"name":"굿키즈","tel":"031-221-6582","addr":"경기도 화성시 진안동 914-1번지 메인프라자 409호","indutype":"건강식품 - 기타건강식품","category":"food"},{"name":"아센사우나 매점","tel":"031-898-8880","addr":"경기도 화성시 진안동 914-1번지 메인프라자 9층동 9층","indutype":"음료식품 - 기타음료식품","category":"food"}]},{"lat":"37.211131329","long":"127.03639699","imageIndex":7,"items":[{"name":"그레잇태안","tel":"02-1111-1111","addr":"경기도 화성시 진안동 512-1번지 3층 태안의원 비젼월드","indutype":"건강식품 - 기타건강식품","category":"food"}]},{"lat":"37.215185033","long":"127.03964343","imageIndex":7,"items":[{"name":"꼬꼬맘 수제하우스","tel":"","addr":"경기도 화성시 진안동 863-14번지 1층 일부호","indutype":"음료식품 - 기타음료식품","category":"food"}]},{"lat":"37.21358197","long":"127.03702896","imageIndex":7,"items":[{"name":"꿈꾸는유통","tel":"","addr":"경기도 화성시 진안동 868-13번지 406호","indutype":"음료식품 - 기타음료식품","category":"food"}]},{"lat":"37.212490549","long":"127.04085883","imageIndex":7,"items":[{"name":"나래 아트 앤 빈","tel":"070-8871-1671","addr":"경기도 화성시 진안동 881-9번지 1층","indutype":"음료식품 - 기타음료식품","category":"food"}]},{"lat":"37.209662886","long":"127.03550638","imageIndex":7,"items":[{"name":"능동한우정육점","tel":"031-224-6161","addr":"경기도 화성시 진안동 523-6번지 근영빌","indutype":"음료식품 - 정육점","category":"food"}]},{"lat":"37.214996331","long":"127.03794216","imageIndex":7,"items":[{"name":"다람베이커리","tel":"031-231-9045","addr":"경기도 화성시 진안동 861-9번지 한아름빌딩 101호","indutype":"음료식품 - 제과점","category":"food"}]},{"lat":"37.208914777","long":"127.03639601","imageIndex":7,"items":[{"name":"대원떡방앗간","tel":"031-237-9940","addr":"경기도 화성시 진안동 526-22번지","indutype":"음료식품 - 제과점","category":"food"}]},{"lat":"37.213022125","long":"127.04097175","imageIndex":7,"items":[{"name":"돼지네정육","tel":"031-233-2388","addr":"경기도 화성시 진안동 877-7번지 1층","indutype":"음료식품 - 정육점","category":"food"}]},{"lat":"37.215580228","long":"127.04350793","imageIndex":7,"items":[{"name":"두부를만드는사람들","tel":"070-4024-2308","addr":"경기도 화성시 진안동 914-8번지 뱅뱅프라자 106호","indutype":"음료식품 - 기타음료식품","category":"food"},{"name":"땅스부대찌개 (병점점)","tel":"02-000-0000","addr":"경기도 화성시 진안동 914-8번지 뱅뱅프라자 1층 111호","indutype":"음료식품 - 기타음료식품","category":"food"},{"name":"정직한정육점","tel":"031-222-4042","addr":"경기도 화성시 진안동 914-8번지 뱅뱅프라자 108호","indutype":"음료식품 - 정육점","category":"food"}]},{"lat":"37.212464457","long":"127.0378058","imageIndex":7,"items":[{"name":"떡천지","tel":"031-231-9690","addr":"경기도 화성시 진안동 873-2번지","indutype":"음료식품 - 제과점","category":"food"},{"name":"천지축산","tel":"031-298-6821","addr":"경기도 화성시 진안동 873-2번지 102호","indutype":"음료식품 - 정육점","category":"food"}]},{"lat":"37.207825011","long":"127.03461565","imageIndex":7,"items":[{"name":"뚜레쥬르 병점역","tel":"031-226-3117","addr":"경기도 화성시 진안동 529-1번지","indutype":"음료식품 - 제과점","category":"food"}]},{"lat":"37.208410776","long":"127.03427794","imageIndex":7,"items":[{"name":"명성복권방","tel":"031-232-9411","addr":"경기도 화성시 진안동 525-58번지","indutype":"음료식품 - 기타음료식품","category":"food"},{"name":"중국식품","tel":"031-225-8612","addr":"경기도 화성시 진안동 525-58번지","indutype":"음료식품 - 기타음료식품","category":"food"}]},{"lat":"37.217050961","long":"127.03703053","imageIndex":7,"items":[{"name":"명성유통","tel":"031-221-3387","addr":"경기도 화성시 진안동 856-4번지 1층 101호","indutype":"음료식품 - 정육점","category":"food"}]},{"lat":"37.214637317","long":"127.03283846","imageIndex":7,"items":[{"name":"미득골가든","tel":"031-234-0555","addr":"경기도 화성시 진안동 590-2번지","indutype":"음료식품 - 정육점","category":"food"}]},{"lat":"37.208582053","long":"127.03397385","imageIndex":7,"items":[{"name":"미득골정육점","tel":"031-235-0160","addr":"경기도 화성시 진안동 525-47번지","indutype":"음료식품 - 정육점","category":"food"}]},{"lat":"37.210078145","long":"127.03253249","imageIndex":7,"items":[{"name":"병점건강원","tel":"031-238-6316","addr":"경기도 화성시 진안동 544-18번지","indutype":"건강식품 - 기타건강식품","category":"food"}]},{"lat":"37.210410303","long":"127.03708386","imageIndex":7,"items":[{"name":"병점떡전거리","tel":"031-238-5608","addr":"경기도 화성시 진안동 524-23번지","indutype":"음료식품 - 제과점","category":"food"}]},{"lat":"37.216969307","long":"127.03892325","imageIndex":7,"items":[{"name":"생생푸드","tel":"031-233-5686","addr":"경기도 화성시 진안동 858-2번지 그린빌1","indutype":"음료식품 - 기타음료식품","category":"food"}]},{"lat":"37.212049365","long":"127.03983343","imageIndex":7,"items":[{"name":"서울떡방아간","tel":"031-234-0768","addr":"경기도 화성시 진안동 880-8번지 1동 1호","indutype":"음료식품 - 제과점","category":"food"}]},{"lat":"37.214580435","long":"127.04244839","imageIndex":7,"items":[{"name":"슈케익하우스 병점점","tel":"","addr":"경기도 화성시 진안동 914-2번지 미래프라자 110호","indutype":"음료식품 - 제과점","category":"food"},{"name":"싱싱식자재","tel":"031-111-1111","addr":"경기도 화성시 진안동 914-2번지 미래프라자 201호","indutype":"음료식품 - 농·축·수산품","category":"food"}]},{"lat":"37.208185875","long":"127.03289224","imageIndex":7,"items":[{"name":"심야셔틀","tel":"031-225-0303","addr":"경기도 화성시 진안동 824-4번지 1층","indutype":"음료식품 - 기타음료식품","category":"food"}]},{"lat":"37.211274806","long":"127.03875155","imageIndex":7,"items":[{"name":"에스핏&다이어트","tel":"031-215-8208","addr":"경기도 화성시 진안동 879-6번지 서원빌딩 501호","indutype":"건강식품 - 기타건강식품","category":"food"}]},{"lat":"37.215157016","long":"127.04269654","imageIndex":7,"items":[{"name":"오네뜨베이커리카페","tel":"031-221-8006","addr":"경기도 화성시 진안동 913번지 1동 1층","indutype":"음료식품 - 제과점","category":"food"},{"name":"진로반찬","tel":"031-898-9100","addr":"경기도 화성시 진안동 913번지 진로그린마트내 1층","indutype":"음료식품 - 기타음료식품","category":"food"}]},{"lat":"37.212193232","long":"127.04077982","imageIndex":7,"items":[{"name":"자연마을식자재","tel":"031-224-7322","addr":"경기도 화성시 진안동 883-4번지 1층","indutype":"음료식품 - 기타음료식품","category":"food"}]},{"lat":"37.208077323","long":"127.0345369","imageIndex":7,"items":[{"name":"정관장병점역점","tel":"031-237-2304","addr":"경기도 화성시 진안동 527-19번지","indutype":"건강식품 - 홍삼제품","category":"food"},{"name":"정관장병점역점/상품권사용","tel":"031-237-2304","addr":"경기도 화성시 진안동 527-19번지","indutype":"건강식품 - 홍삼제품","category":"food"}]},{"lat":"37.212887259","long":"127.04005915","imageIndex":7,"items":[{"name":"정관장홍삼태안점","tel":"031-224-2304","addr":"경기도 화성시 진안동 877-1번지 삼성프라자 103호","indutype":"건강식품 - 홍삼제품","category":"food"}]},{"lat":"37.215165724","long":"127.04358657","imageIndex":7,"items":[{"name":"정관장화성태안점","tel":"031-224-2304","addr":"경기도 화성시 진안동 914-6번지 메디피아 1층 101호","indutype":"건강식품 - 홍삼제품","category":"food"}]},{"lat":"37.214852014","long":"127.03844906","imageIndex":7,"items":[{"name":"중국식품","tel":"031-892-7520","addr":"경기도 화성시 진안동 863-1번지 1층 109호","indutype":"음료식품 - 기타음료식품","category":"food"}]},{"lat":"37.211859386","long":"127.04219912","imageIndex":7,"items":[{"name":"진명건강원","tel":"031-435-0401","addr":"경기도 화성시 진안동 887-2번지","indutype":"건강식품 - 기타건강식품","category":"food"}]},{"lat":"37.213355363","long":"127.04142255","imageIndex":7,"items":[{"name":"진상회","tel":"031-221-3039","addr":"경기도 화성시 진안동 876-7번지","indutype":"음료식품 - 기타음료식품","category":"food"}]},{"lat":"37.225935683","long":"127.03522042","imageIndex":7,"items":[{"name":"창성유통","tel":"031-232-9280","addr":"경기도 화성시 진안동 36-19번지","indutype":"음료식품 - 기타음료식품","category":"food"}]},{"lat":"37.212075709","long":"127.04197392","imageIndex":7,"items":[{"name":"태원","tel":"031-267-1600","addr":"경기도 화성시 진안동 886-6번지 진안빌딩","indutype":"음료식품 - 정육점","category":"food"}]},{"lat":"37.21251847","long":"127.03797481","imageIndex":7,"items":[{"name":"파라바게트병점진안점","tel":"031-267-2996","addr":"경기도 화성시 진안동 873-3번지 1층","indutype":"음료식품 - 제과점","category":"food"}]},{"lat":"37.216158419","long":"127.0387764","imageIndex":7,"items":[{"name":"피알푸드","tel":"031-898-5313","addr":"경기도 화성시 진안동 857-6번지","indutype":"음료식품 - 기타음료식품","category":"food"}]}]