[{"lat":"37.336114262","long":"126.8104077","imageIndex":13,"items":[{"name":"the조은바디&풋샵","tel":"031-401-8111","addr":"경기도 안산시 단원구 선부동 1076-17번지 신언골드리치빌딩 302호,303호","indutype":"보건위생 - 화장품","category":"beauty"},{"name":"스파월드보석사우나","tel":"031-482-8765","addr":"경기도 안산시 단원구 선부동 1076-17 신안골드리치빌딩401호~408호","indutype":"보건위생 - 사우나","category":"beauty"},{"name":"영스킨케어","tel":"031-411-1213","addr":"경기도 안산시 단원구 선부동 1076-17번지 신안골드리치빌딩 1","indutype":"보건위생 - 피부미용실","category":"beauty"},{"name":"행복드림","tel":"031-410-1129","addr":"경기도 안산시 단원구 선부동 1076-17번지 신안골드리치빌딩 4층","indutype":"보건위생 - 화장품","category":"beauty"},{"name":"헤어룩","tel":"031-402-0041","addr":"경기도 안산시 단원구 선부동 1076-17번지 신안골드리치빌딩 302 ,303호","indutype":"보건위생 - 미용원","category":"beauty"}]},{"lat":"37.333729227","long":"126.81204994","imageIndex":13,"items":[{"name":"가꾸는동안","tel":"031-408-8828","addr":"경기도 안산시 단원구 선부동 1077번지 서울프라자 116호","indutype":"보건위생 - 화장품","category":"beauty"},{"name":"글라스바바(선부점)","tel":"031-482-5900","addr":"경기도 안산시 단원구 선부동 1077번지 서울프라자 108동 169호","indutype":"보건위생 - 안경","category":"beauty"},{"name":"엔와이(NY)네일","tel":"031-411-3366","addr":"경기도 안산시 단원구 선부동 1077번지 서울프라자 128호","indutype":"보건위생 - 피부미용실","category":"beauty"}]},{"lat":"37.336618356","long":"126.80466273","imageIndex":13,"items":[{"name":"개성연출","tel":"031-411-1237","addr":"경기도 안산시 단원구 선부동 969-11번지 컴퓨터세상 103호","indutype":"보건위생 - 미용원","category":"beauty"}]},{"lat":"37.344868157","long":"126.81352272","imageIndex":13,"items":[{"name":"건강한&우아한헤어","tel":"","addr":"경기도 안산시 단원구 선부동 1135-5번지 메르디앙 1층 101호","indutype":"보건위생 - 미용원","category":"beauty"}]},{"lat":"37.341921919","long":"126.81357526","imageIndex":13,"items":[{"name":"건일의료기(안산지점)","tel":"031-405-3430","addr":"경기도 안산시 단원구 선부동 1144-8번지 지하1층","indutype":"보건위생 - 의료용품","category":"beauty"}]},{"lat":"37.339285435","long":"126.8157711","imageIndex":13,"items":[{"name":"고운머리터","tel":"031-401-6933","addr":"경기도 안산시 단원구 선부동 1086번지 한양프라자상가 103호","indutype":"보건위생 - 미용원","category":"beauty"},{"name":"올리(ORLY)","tel":"031-411-9086","addr":"경기도 안산시 단원구 선부동 1086번지","indutype":"보건위생 - 화장품","category":"beauty"}]},{"lat":"37.335451191","long":"126.80715958","imageIndex":13,"items":[{"name":"고은콜라겐","tel":"031-401-8601","addr":"경기도 안산시 단원구 선부동 1070-11번지 동양빌딩 306호","indutype":"보건위생 - 화장품","category":"beauty"},{"name":"아이리스헤어샵","tel":"031-484-0775","addr":"경기도 안산시 단원구 선부동 1070-11번지 동양 106호","indutype":"보건위생 - 미용원","category":"beauty"},{"name":"카리스헤어","tel":"031-405-8620","addr":"경기도 안산시 단원구 선부동 1070-11번지 동양빌딩 108호","indutype":"보건위생 - 미용원","category":"beauty"}]},{"lat":"37.336888471","long":"126.80454918","imageIndex":13,"items":[{"name":"고혜숙헤어샵","tel":"031-401-1106","addr":"경기도 안산시 단원구 선부동 969-9번지 1층","indutype":"보건위생 - 미용원","category":"beauty"}]},{"lat":"37.344169868","long":"126.8163571","imageIndex":13,"items":[{"name":"공주 만신","tel":"031-401-1786","addr":"경기도 안산시 단원구 선부동 1094-19번지 202호","indutype":"보건위생 - 기타대인서비스","category":"beauty"}]},{"lat":"37.341755617","long":"126.81665649","imageIndex":13,"items":[{"name":"구피샵","tel":"031-405-0463","addr":"경기도 안산시 단원구 선부동 1087-30번지 서울빌딩 203호","indutype":"보건위생 - 미용원","category":"beauty"}]},{"lat":"37.341531624","long":"126.80629743","imageIndex":13,"items":[{"name":"그녀는예뻤다","tel":"031-485-9959","addr":"경기도 안산시 단원구 선부동 1033-19번지 101호","indutype":"보건위생 - 미용원","category":"beauty"}]},{"lat":"37.337337575","long":"126.80371296","imageIndex":13,"items":[{"name":"그린미용실","tel":"031-484-9089","addr":"경기도 안산시 단원구 선부동 969-2번지","indutype":"보건위생 - 미용원","category":"beauty"}]},{"lat":"37.336563001","long":"126.80932327","imageIndex":13,"items":[{"name":"글라스스토리","tel":"031-439-2001","addr":"경기도 안산시 단원구 선부동 1070-18번지 상록타운 112호,114호","indutype":"보건위생 - 안경","category":"beauty"},{"name":"은하수25시랜드","tel":"031-487-9936","addr":"경기도 안산시 단원구 선부동 1070-18번지 상록타운 6,7층","indutype":"보건위생 - 사우나","category":"beauty"},{"name":"은하수피부관리","tel":"031-487-9936","addr":"경기도 안산시 단원구 선부동 1070-18번지 상록타운 701호,702호","indutype":"보건위생 - 피부미용실","category":"beauty"},{"name":"헤어 포스 원","tel":"","addr":"경기도 안산시 단원구 선부동 1070-18번지 상록타운 208호","indutype":"보건위생 - 미용원","category":"beauty"}]},{"lat":"37.34244654","long":"126.81484916","imageIndex":13,"items":[{"name":"기쁜 아동청소년 발달센터","tel":"031-509-6469","addr":"경기도 안산시 단원구 선부동 1143-1번지 2층","indutype":"보건위생 - 기타대인서비스","category":"beauty"}]},{"lat":"37.335757722","long":"126.80727162","imageIndex":13,"items":[{"name":"기파 작명원","tel":"","addr":"경기도 안산시 단원구 선부동 1070-12번지 광원빌딩 302-1호","indutype":"보건위생 - 기타대인서비스","category":"beauty"},{"name":"꽃보다네일","tel":"031-402-3466","addr":"경기도 안산시 단원구 선부동 1070-12번지 광원빌딩 202호","indutype":"보건위생 - 미용재료","category":"beauty"},{"name":"뷰티풀","tel":"","addr":"경기도 안산시 단원구 선부동 1070-12번지 광원빌딩 406호","indutype":"보건위생 - 피부미용실","category":"beauty"},{"name":"쁘디샤샤","tel":"031-402-2427","addr":"경기도 안산시 단원구 선부동 1070-12번지 광원빌딩 203호","indutype":"보건위생 - 미용원","category":"beauty"},{"name":"생그린안산골드지사","tel":"031-405-8228","addr":"경기도 안산시 단원구 선부동 1070-12번지 광원빌딩 306호","indutype":"보건위생 - 화장품","category":"beauty"},{"name":"유니베라안산선부대리점","tel":"031-484-2101","addr":"경기도 안산시 단원구 선부동 1070-12번지 광원빌딩 3층 303호","indutype":"보건위생 - 화장품","category":"beauty"},{"name":"참사랑어머니회","tel":"031-408-0808","addr":"경기도 안산시 단원구 선부동 1070-12번지 광원빌딩 209호","indutype":"보건위생 - 기타대인서비스","category":"beauty"}]},{"lat":"37.341721024","long":"126.80640978","imageIndex":13,"items":[{"name":"김미정 헤어샵","tel":"031-414-3673","addr":"경기도 안산시 단원구 선부동 1033-1번지 상가 1층","indutype":"보건위생 - 미용원","category":"beauty"},{"name":"태후사랑미용실","tel":"","addr":"경기도 안산시 단원구 선부동 1033-1번지 1층","indutype":"보건위생 - 미용원","category":"beauty"}]},{"lat":"37.339783718","long":"126.79577334","imageIndex":13,"items":[{"name":"김은아헤어","tel":"031-493-3664","addr":"경기도 안산시 단원구 선부동 986-9번지","indutype":"보건위생 - 미용원","category":"beauty"}]},{"lat":"37.332199589","long":"126.81335142","imageIndex":13,"items":[{"name":"김정문알로에 선부지사","tel":"031-437-2676","addr":"경기도 안산시 단원구 선부동 1078-2번지 삼희프라자 202호","indutype":"보건위생 - 화장품","category":"beauty"},{"name":"밀레니엄헤어샵","tel":"031-410-5627","addr":"경기도 안산시 단원구 선부동 1078-2번지 삼희프라자 101호","indutype":"보건위생 - 미용원","category":"beauty"}]},{"lat":"37.345200827","long":"126.81308175","imageIndex":13,"items":[{"name":"까까머리미용실","tel":"031-405-5446","addr":"경기도 안산시 단원구 선부동 1119-17번지 1층","indutype":"보건위생 - 미용원","category":"beauty"}]},{"lat":"37.343417149","long":"126.80774831","imageIndex":13,"items":[{"name":"까망머리","tel":"031-475-7450","addr":"경기도 안산시 단원구 선부동 1058-9번지 1층","indutype":"보건위생 - 미용원","category":"beauty"}]},{"lat":"37.336336805","long":"126.80874835","imageIndex":13,"items":[{"name":"까미헤어샵","tel":"031-482-9494","addr":"경기도 안산시 단원구 선부동 1070-16번지 1층 칠성플러스타운 110","indutype":"보건위생 - 미용원","category":"beauty"},{"name":"오휘 선부지사","tel":"031-482-5333","addr":"경기도 안산시 단원구 선부동 1070-16번지 칠성프러스타운 5층 501호","indutype":"보건위생 - 화장품","category":"beauty"},{"name":"토리헤어","tel":"031-403-9700","addr":"경기도 안산시 단원구 선부동 1070-16번지","indutype":"보건위생 - 미용원","category":"beauty"}]},{"lat":"37.346664887","long":"126.81585436","imageIndex":13,"items":[{"name":"깎지헤어","tel":"070-8991-4308","addr":"경기도 안산시 단원구 선부동 1103-18번지 1층","indutype":"보건위생 - 미용원","category":"beauty"}]},{"lat":"37.345890282","long":"126.80494307","imageIndex":13,"items":[{"name":"꾸미지오","tel":"070-4090-8942","addr":"경기도 안산시 단원구 선부동 1048번지","indutype":"보건위생 - 미용원","category":"beauty"}]},{"lat":"37.342615983","long":"126.80279621","imageIndex":13,"items":[{"name":"나나","tel":"031-503-8018","addr":"경기도 안산시 단원구 선부동 1017-11번지 2층 201호","indutype":"보건위생 - 화장품","category":"beauty"}]},{"lat":"37.344055169","long":"126.80671969","imageIndex":13,"items":[{"name":"네일공주","tel":"031-411-5000","addr":"경기도 안산시 단원구 선부동 1041-15번지 1층","indutype":"보건위생 - 피부미용실","category":"beauty"},{"name":"샤론애터미","tel":"070-7522-1521","addr":"경기도 안산시 단원구 선부동 1041-15번지 상가 101호","indutype":"보건위생 - 화장품","category":"beauty"}]},{"lat":"37.336475126","long":"126.81068888","imageIndex":13,"items":[{"name":"네일맑음","tel":"031-482-1125","addr":"경기도 안산시 단원구 선부동 1076-1번지 213호","indutype":"보건위생 - 피부미용실","category":"beauty"},{"name":"렌즈타운","tel":"031-485-6462","addr":"경기도 안산시 단원구 선부동 1076-1번지 1층 110호","indutype":"보건위생 - 안경","category":"beauty"},{"name":"로렌헤어","tel":"031-475-9494","addr":"경기도 안산시 단원구 선부동 1076-1번지 206호","indutype":"보건위생 - 미용원","category":"beauty"},{"name":"쏘울스킨","tel":"031-405-4526","addr":"경기도 안산시 단원구 선부동 1076-1번지 206호","indutype":"보건위생 - 화장품","category":"beauty"},{"name":"쑤니미장원","tel":"031-507-3300","addr":"경기도 안산시 단원구 선부동 1076-1번지 206호","indutype":"보건위생 - 미용원","category":"beauty"},{"name":"휴바디앤피부","tel":"031-413-3690","addr":"경기도 안산시 단원구 선부동 1076-1번지 401호","indutype":"보건위생 - 피부미용실","category":"beauty"}]},{"lat":"37.332808477","long":"126.8109916","imageIndex":13,"items":[{"name":"네일솔루션","tel":"","addr":"경기도 안산시 단원구 선부동 1077-16번지 원영오프시텔 203호","indutype":"보건위생 - 피부미용실","category":"beauty"}]},{"lat":"37.336196709","long":"126.81124252","imageIndex":13,"items":[{"name":"누가의료기 선부지점","tel":"031-475-5210","addr":"경기도 안산시 단원구 선부동 1076-2번지 동원상가빌딩 401호","indutype":"보건위생 - 의료용품","category":"beauty"},{"name":"렌즈미안산선부점","tel":"031-405-0020","addr":"경기도 안산시 단원구 선부동 1076-2번지 동원상가빌딩 106호","indutype":"보건위생 - 안경","category":"beauty"},{"name":"머리못하는집","tel":"031-414-7181","addr":"경기도 안산시 단원구 선부동 1076-2번지 동원상가빌딩","indutype":"보건위생 - 미용원","category":"beauty"},{"name":"살롱 드 별빛","tel":"031-414-5352","addr":"경기도 안산시 단원구 선부동 1076-2번지 동원상가빌딩 201호","indutype":"보건위생 - 미용원","category":"beauty"},{"name":"원안경","tel":"031-439-7558","addr":"경기도 안산시 단원구 선부동 1076-2번지 동원 상가 402호","indutype":"보건위생 - 안경","category":"beauty"},{"name":"천궁의료기","tel":"031-405-7572","addr":"경기도 안산시 단원구 선부동 1076-2번지 동원상가빌딩 502호","indutype":"보건위생 - 의료용품","category":"beauty"}]},{"lat":"37.337701328","long":"126.81119356","imageIndex":13,"items":[{"name":"눈썹공주","tel":"070-5031-0313","addr":"경기도 안산시 단원구 선부동 1082번지 벽산블루밍아파트 상가동 2층 245호","indutype":"보건위생 - 피부미용실","category":"beauty"},{"name":"라비앙르로즈","tel":"","addr":"경기도 안산시 단원구 선부동 1082번지 벽산블루밍아파트 상가동 209호","indutype":"보건위생 - 미용원","category":"beauty"},{"name":"미샤","tel":"031-402-9878","addr":"경기도 안산시 단원구 선부동 1082번지 벽산블루밍 상가 113호","indutype":"보건위생 - 화장품","category":"beauty"},{"name":"살롱드 상사","tel":"031-403-2663","addr":"경기도 안산시 단원구 선부동 1082번지 벽산블루밍 상가 132호","indutype":"보건위생 - 미용재료","category":"beauty"}]},{"lat":"37.335864374","long":"126.81188656","imageIndex":13,"items":[{"name":"뉴안경마을","tel":"031-483-5480","addr":"경기도 안산시 단원구 선부동 1076-4번지 군자빌딩 3층","indutype":"보건위생 - 안경","category":"beauty"},{"name":"정연에스테틱","tel":"031-411-9970","addr":"경기도 안산시 단원구 선부동 1076-4번지 군자빌딩 504호","indutype":"보건위생 - 피부미용실","category":"beauty"},{"name":"제이제이테라피","tel":"031-000-0000","addr":"경기도 안산시 단원구 선부동 1076-4번지 군자빌딩 3층 303호","indutype":"보건위생 - 피부미용실","category":"beauty"},{"name":"황실풋카페","tel":"031-439-3778","addr":"경기도 안산시 단원구 선부동 1076-4번지 군자빌딩 405호","indutype":"보건위생 - 화장품","category":"beauty"}]},{"lat":"37.332557235","long":"126.81163541","imageIndex":13,"items":[{"name":"뉴톤보청기","tel":"031-413-3451","addr":"경기도 안산시 단원구 선부동 1077-6번지 대준빌딩 4층 401호 일부","indutype":"보건위생 - 의료용품","category":"beauty"},{"name":"루디아피부비만관리화장품","tel":"031-439-2340","addr":"경기도 안산시 단원구 선부동 1077-6번지 대준빌딩 504호","indutype":"보건위생 - 화장품","category":"beauty"},{"name":"바나나","tel":"031-408-5242","addr":"경기도 안산시 단원구 선부동 1077-6 대준빌딩302호~303호","indutype":"보건위생 - 기타대인서비스","category":"beauty"},{"name":"오송림미용실","tel":"031-410-1358","addr":"경기도 안산시 단원구 선부동 1077-6 대준빌딩 1층 2","indutype":"보건위생 - 미용원","category":"beauty"}]},{"lat":"37.343335368","long":"126.80733097","imageIndex":13,"items":[{"name":"뉴힐링","tel":"","addr":"경기도 안산시 단원구 선부동 1041-7번지 3층","indutype":"보건위생 - 화장품","category":"beauty"}]},{"lat":"37.345139399","long":"126.81410889","imageIndex":13,"items":[{"name":"다올헤어","tel":"031-321-3649","addr":"경기도 안산시 단원구 선부동 1119-10번지 1층 101호","indutype":"보건위생 - 미용원","category":"beauty"}]},{"lat":"37.341949044","long":"126.80268513","imageIndex":13,"items":[{"name":"대왕사","tel":"031-402-5939","addr":"경기도 안산시 단원구 선부동 1011-14 302","indutype":"보건위생 - 기타대인서비스","category":"beauty"}]},{"lat":"37.342728956","long":"126.80568491","imageIndex":13,"items":[{"name":"더 (The) 끌림토탈샵","tel":"","addr":"경기도 안산시 단원구 선부동 1031-1번지 102,103호","indutype":"보건위생 - 미용원","category":"beauty"}]},{"lat":"37.348810067","long":"126.80524013","imageIndex":13,"items":[{"name":"도로시","tel":"","addr":"경기도 안산시 단원구 선부동 1177번지 안산메트로타운푸르지오힐스테이트 상가 3동 112호","indutype":"보건위생 - 미용원","category":"beauty"},{"name":"케미","tel":"031-411-8077","addr":"경기도 안산시 단원구 선부동 1177번지 안산메트로타운푸르지오힐스테이트 501동 상가1동 105호","indutype":"보건위생 - 미용원","category":"beauty"}]},{"lat":"37.336035019","long":"126.8115476","imageIndex":13,"items":[{"name":"동명헤어샵","tel":"031-486-0964","addr":"경기도 안산시 단원구 선부동 1076-3.1층126호,127호","indutype":"보건위생 - 미용원","category":"beauty"},{"name":"마임","tel":"031-483-3330","addr":"경기도 안산시 단원구 선부동 1076-3번지 용현빌딩 407호","indutype":"보건위생 - 화장품","category":"beauty"},{"name":"샤론피부미용실","tel":"031-402-8599","addr":"경기도 안산시 단원구 선부동 1076-3번지 용현빌딩 405호","indutype":"보건위생 - 미용원","category":"beauty"},{"name":"아랑화장품","tel":"031-403-2463","addr":"경기도 안산시 단원구 선부동 1076-3번지 용현빌딩 1층 101호","indutype":"보건위생 - 화장품","category":"beauty"}]},{"lat":"37.340921643","long":"126.80793533","imageIndex":13,"items":[{"name":"두발자유","tel":"031-480-8582","addr":"경기도 안산시 단원구 선부동 1059-10번지 1층","indutype":"보건위생 - 미용원","category":"beauty"}]},{"lat":"37.333171362","long":"126.81252526","imageIndex":13,"items":[{"name":"로이드밤헤어","tel":"031-439-3434","addr":"경기도 안산시 단원구 선부동 1077-3번지 다이아몬드프라자 205호","indutype":"보건위생 - 미용원","category":"beauty"},{"name":"샤인안경콘택트","tel":"031-481-9022","addr":"경기도 안산시 단원구 선부동 1077-3번지 다이아몬드프라자 111호","indutype":"보건위생 - 안경","category":"beauty"}]},{"lat":"37.338146008","long":"126.80224384","imageIndex":13,"items":[{"name":"루비헤어#","tel":"031-413-5477","addr":"경기도 안산시 단원구 선부동 974번지","indutype":"보건위생 - 미용원","category":"beauty"}]},{"lat":"37.335505132","long":"126.81260965","imageIndex":13,"items":[{"name":"마음봄봄 심리상담센터","tel":"031-410-2789","addr":"경기도 안산시 단원구 선부동 1076-6번지 서림프라자 4층 404-1호","indutype":"보건위생 - 기타대인서비스","category":"beauty"},{"name":"아리따움 선부광장점","tel":"031-403-3003","addr":"경기도 안산시 단원구 선부동 1076-6번지 서림프라자 1층 103호","indutype":"보건위생 - 화장품","category":"beauty"},{"name":"아모레","tel":"031-486-1891","addr":"경기도 안산시 단원구 선부동 1076-6번지 서림빌딩 506호","indutype":"보건위생 - 화장품","category":"beauty"},{"name":"아모레","tel":"031-486-1891","addr":"경기도 안산시 단원구 선부동 1076-6번지 서림빌딩 506호","indutype":"보건위생 - 화장품","category":"beauty"},{"name":"아모레 카운셀러","tel":"031-486-1891","addr":"경기도 안산시 단원구 선부동 1076-6번지 서림프라자 506호","indutype":"보건위생 - 화장품","category":"beauty"},{"name":"아모레 카운셀러","tel":"031-486-1891","addr":"경기도 안산시 단원구 선부동 1076-6번지 서림프라자 506호","indutype":"보건위생 - 화장품","category":"beauty"},{"name":"아모레 카운셀러","tel":"031-486-1891","addr":"경기도 안산시 단원구 선부동 1076-6번지 서림프라자 506호","indutype":"보건위생 - 화장품","category":"beauty"},{"name":"아모레 카운셀러","tel":"031-486-1891","addr":"경기도 안산시 단원구 선부동 1076-6번지 서림프라자 506호","indutype":"보건위생 - 화장품","category":"beauty"},{"name":"아모레 카운셀러","tel":"031-486-1891","addr":"경기도 안산시 단원구 선부동 1076-6번지 서림프라자 5층","indutype":"보건위생 - 화장품","category":"beauty"},{"name":"아모레 카운셀러","tel":"031-486-1891","addr":"경기도 안산시 단원구 선부동 1076-6번지 서림프라자 506호","indutype":"보건위생 - 화장품","category":"beauty"},{"name":"아모레 카운셀러","tel":"031-486-1891","addr":"경기도 안산시 단원구 선부동 1076-6번지 서림빌딩 아모레퍼시픽 안산 선부 특약점 506호","indutype":"보건위생 - 화장품","category":"beauty"},{"name":"아모레 카운셀러","tel":"031-486-1891","addr":"경기도 안산시 단원구 선부동 1076-6번지 서림프라자 506호","indutype":"보건위생 - 화장품","category":"beauty"},{"name":"아모레 카운셀러","tel":"031-486-1891","addr":"경기도 안산시 단원구 선부동 1076-6번지 서림프라자 5층 506호","indutype":"보건위생 - 화장품","category":"beauty"},{"name":"아모레 카운셀러","tel":"031-486-1891","addr":"경기도 안산시 단원구 선부동 1076-6번지 서림프라자 5층","indutype":"보건위생 - 화장품","category":"beauty"},{"name":"아모레 카운셀러","tel":"031-486-1891","addr":"경기도 안산시 단원구 선부동 1076-6번지 서림프라자 5층","indutype":"보건위생 - 화장품","category":"beauty"},{"name":"아모레 카운셀러","tel":"031-486-1891","addr":"경기도 안산시 단원구 선부동 1706-6 서림빌딩 506","indutype":"보건위생 - 화장품","category":"beauty"},{"name":"아모레 카운셀러","tel":"031-486-1891","addr":"경기도 안산시 단원구 선부동 1076-6번지 서림빌딩 506호","indutype":"보건위생 - 화장품","category":"beauty"},{"name":"아모레 카운셀러","tel":"031-486-1891","addr":"경기도 안산시 단원구 선부동 1076-6번지 서림프라자 506호","indutype":"보건위생 - 화장품","category":"beauty"},{"name":"아모레 카운셀러","tel":"031-486-1891","addr":"경기도 안산시 단원구 선부동 1076-6번지 서림프라자 506호","indutype":"보건위생 - 화장품","category":"beauty"},{"name":"아모레 카운셀러","tel":"031-486-1891","addr":"경기도 안산시 단원구 선부동 1076-6번지 서림프라자 5층 506호","indutype":"보건위생 - 화장품","category":"beauty"},{"name":"아모레카운셀러","tel":"031-486-1981","addr":"경기도 안산시 단원구 선부동 1076-6번지 서림프라자 506호","indutype":"보건위생 - 화장품","category":"beauty"},{"name":"아모레카운셀러","tel":"031-486-1891","addr":"경기도 안산시 단원구 선부동 1076-6번지 서림프라자 506호","indutype":"보건위생 - 화장품","category":"beauty"},{"name":"아모레카운셀러","tel":"031-486-1891","addr":"경기도 안산시 단원구 선부동 1076-6번지 서림프라자 506호","indutype":"보건위생 - 화장품","category":"beauty"},{"name":"아모레카운셀러","tel":"031-486-1891","addr":"경기도 안산시 단원구 선부동 1076-6번지 서림프라자 506호","indutype":"보건위생 - 화장품","category":"beauty"},{"name":"아모레카운셀러","tel":"031-486-1891","addr":"경기도 안산시 단원구 선부동 1076-6번지 서림빌딩 506호","indutype":"보건위생 - 화장품","category":"beauty"},{"name":"아모레카운셀러","tel":"031-486-1891","addr":"경기도 안산시 단원구 선부동 1076-6번지 서림프라자 506호","indutype":"보건위생 - 화장품","category":"beauty"},{"name":"아모레카운셀러","tel":"031-486-1891","addr":"경기도 안산시 단원구 선부동 1076-6번지 서림프라자 506호","indutype":"보건위생 - 화장품","category":"beauty"},{"name":"아모레카운셀러","tel":"031-486-1891","addr":"경기도 안산시 단원구 선부동 1076-6번지 서림프라자 506호","indutype":"보건위생 - 화장품","category":"beauty"},{"name":"아모레카운셀러","tel":"031-486-1891","addr":"경기도 안산시 단원구 선부동 1076-6번지 서림프라자 506호","indutype":"보건위생 - 화장품","category":"beauty"},{"name":"아모레카운셀러","tel":"031-486-1891","addr":"경기도 안산시 단원구 선부동 1076-6번지 서림프라자 506호","indutype":"보건위생 - 화장품","category":"beauty"},{"name":"아모레카운셀러","tel":"031-486-1891","addr":"경기도 안산시 단원구 선부동 1076-6번지 서림프라자 506호","indutype":"보건위생 - 화장품","category":"beauty"},{"name":"아모레카운셀러","tel":"031-486-1891","addr":"경기도 안산시 단원구 선부동 1076-6번지 서림프라자 506호","indutype":"보건위생 - 화장품","category":"beauty"},{"name":"아모레카운셀러","tel":"031-486-1891","addr":"경기도 안산시 단원구 선부동 1076-6번지 서림프라자 506호","indutype":"보건위생 - 화장품","category":"beauty"},{"name":"아모레카운셀러","tel":"031-486-1891","addr":"경기도 안산시 단원구 선부동 1076-6번지 서림프라자 506호","indutype":"보건위생 - 화장품","category":"beauty"},{"name":"아모레카운셀러","tel":"031-486-1891","addr":"경기도 안산시 단원구 선부동 1076-6번지 서림프라자 506호","indutype":"보건위생 - 화장품","category":"beauty"},{"name":"아모레카운셀러","tel":"031-486-1891","addr":"경기도 안산시 단원구 선부동 1076-6번지 서림빌딩 506호","indutype":"보건위생 - 화장품","category":"beauty"},{"name":"아모레카운셀러","tel":"031-486-1891","addr":"경기도 안산시 단원구 선부동 1076-6번지 서림빌딩 506호","indutype":"보건위생 - 화장품","category":"beauty"},{"name":"아모레카운셀러","tel":"031-486-1891","addr":"경기도 안산시 단원구 선부동 1076-6번지 서림프라자 506호","indutype":"보건위생 - 화장품","category":"beauty"},{"name":"아모레카운셀러","tel":"031-486-1891","addr":"경기도 안산시 단원구 선부동 1076-6번지 서림프라자 506호 선부동,서림빌딩","indutype":"보건위생 - 화장품","category":"beauty"},{"name":"아모레카운셀러","tel":"031-486-1891","addr":"경기도 안산시 단원구 선부동 1076-6번지 서림프라자 5층","indutype":"보건위생 - 화장품","category":"beauty"},{"name":"아모레카운셀러","tel":"031-486-1891","addr":"경기도 안산시 단원구 선부동 1076-6번지 서림프라자 5층","indutype":"보건위생 - 화장품","category":"beauty"},{"name":"아모레카운셀러","tel":"031-486-1891","addr":"경기도 안산시 단원구 선부동 1076-6번지 서림프라자 506호","indutype":"보건위생 - 화장품","category":"beauty"},{"name":"아모레카운셀러","tel":"031-486-1891","addr":"경기도 안산시 단원구 선부동 1076-6번지 서림빌딩 506호","indutype":"보건위생 - 화장품","category":"beauty"},{"name":"아모레카운셀러","tel":"031-486-1891","addr":"경기도 안산시 단원구 선부동 1076-6번지 서림빌딩 506호","indutype":"보건위생 - 화장품","category":"beauty"},{"name":"아모레카운셀러","tel":"031-486-1891","addr":"경기도 안산시 단원구 선부동 1076-6번지 서림프라자 506호","indutype":"보건위생 - 화장품","category":"beauty"},{"name":"아모레카운셀러","tel":"031-486-1891","addr":"경기도 안산시 단원구 선부동 1076-6번지 서림프라자 506호","indutype":"보건위생 - 화장품","category":"beauty"},{"name":"아모레카운셀러","tel":"031-486-1891","addr":"경기도 안산시 단원구 선부동 1076-6번지 서림프라자 506호","indutype":"보건위생 - 화장품","category":"beauty"},{"name":"아모레카운셀러","tel":"031-486-1891","addr":"경기도 안산시 단원구 선부동 1076-6번지 서림프라자 5층","indutype":"보건위생 - 화장품","category":"beauty"},{"name":"아모레카운셀러","tel":"031-486-1891","addr":"경기도 안산시 단원구 선부동 1076-6번지 서림프라자 506호","indutype":"보건위생 - 화장품","category":"beauty"},{"name":"아모레카운셀러","tel":"031-486-1891","addr":"경기도 안산시 단원구 선부동 1076-6번지 서림빌딩 506호","indutype":"보건위생 - 화장품","category":"beauty"},{"name":"아모레카운셀러","tel":"031-486-1891","addr":"경기도 안산시 단원구 선부동 1076-6번지 서림프라자 506호","indutype":"보건위생 - 화장품","category":"beauty"},{"name":"아모레카운셀러","tel":"031-486-1891","addr":"경기도 안산시 단원구 선부동 1076-6번지 서림프라자 506호","indutype":"보건위생 - 화장품","category":"beauty"},{"name":"아모레카운셀러","tel":"031-486-1891","addr":"경기도 안산시 단원구 선부동 1076-6번지 서림프라자 506호","indutype":"보건위생 - 화장품","category":"beauty"},{"name":"아모레카운셀러","tel":"031-486-1891","addr":"경기도 안산시 단원구 선부동 1076-6번지 서림프라자 506호","indutype":"보건위생 - 화장품","category":"beauty"},{"name":"아모레카운셀러","tel":"031-486-1891","addr":"경기도 안산시 단원구 선부동 1076-6 서림빌딩5층","indutype":"보건위생 - 화장품","category":"beauty"},{"name":"아모레카운셀러","tel":"031-486-1891","addr":"경기도 안산시 단원구 선부동 1076-6번지 서림빌딩 506호","indutype":"보건위생 - 화장품","category":"beauty"},{"name":"아모레카운셀러","tel":"031-486-1892","addr":"경기도 안산시 단원구 선부동 1076-6번지 서림프라자 506호","indutype":"보건위생 - 화장품","category":"beauty"},{"name":"아모레카운셀러","tel":"031-486-1891","addr":"경기도 안산시 단원구 선부동 1076-6번지 서림프라자 506호","indutype":"보건위생 - 화장품","category":"beauty"},{"name":"아모레카운셀러","tel":"031-486-1891","addr":"경기도 안산시 단원구 선부동 1076-6번지 서림프라자 506호","indutype":"보건위생 - 화장품","category":"beauty"},{"name":"아모레카운셀러","tel":"031-486-1894","addr":"경기도 안산시 단원구 선부동 1076-6번지 서림프라자 506호","indutype":"보건위생 - 화장품","category":"beauty"},{"name":"아모레카운셀러","tel":"031-486-1891","addr":"경기도 안산시 단원구 선부동 1076-6번지 서림프라자 5층","indutype":"보건위생 - 화장품","category":"beauty"},{"name":"아모레카운셀러","tel":"031-486-1891","addr":"경기도 안산시 단원구 선부동 1076-6번지 서림프라자 506호","indutype":"보건위생 - 화장품","category":"beauty"},{"name":"아모레카운셀러","tel":"031-486-1891","addr":"경기도 안산시 단원구 선부동 1076-6번지 서림프라자 506호","indutype":"보건위생 - 화장품","category":"beauty"},{"name":"아모레카운셀러","tel":"031-436-1891","addr":"경기도 안산시 단원구 선부동 1076-6번지 서림빌딩 506호","indutype":"보건위생 - 화장품","category":"beauty"},{"name":"아모레카운셀러","tel":"031-486-1891","addr":"경기도 안산시 단원구 선부동 1076-6번지 서림빌딩 506호","indutype":"보건위생 - 화장품","category":"beauty"},{"name":"아모레카운셀러","tel":"031-486-1891","addr":"경기도 안산시 단원구 선부동 1076-6번지 서림프라자 506호","indutype":"보건위생 - 화장품","category":"beauty"},{"name":"아모레카운셀러","tel":"031-486-1891","addr":"경기도 안산시 단원구 선부동 1076-6번지 서림프라자 5층","indutype":"보건위생 - 화장품","category":"beauty"},{"name":"아모레카운셀러","tel":"031-486-1891","addr":"경기도 안산시 단원구 선부동 1076-6번지 서림프라자 5층 506호","indutype":"보건위생 - 화장품","category":"beauty"},{"name":"아모레카운셀러","tel":"031-486-1891","addr":"경기도 안산시 단원구 선부동 1076-6번지 서림프라자 506호","indutype":"보건위생 - 화장품","category":"beauty"},{"name":"아모레카운셀러","tel":"031-486-1891","addr":"경기도 안산시 단원구 선부동 1076-6번지 서림프라자 506호","indutype":"보건위생 - 화장품","category":"beauty"},{"name":"아모레카운셀러","tel":"031-486-1891","addr":"경기도 안산시 단원구 선부동 1076-6번지 서림프라자 5층 506호","indutype":"보건위생 - 화장품","category":"beauty"},{"name":"아모레카운셀러","tel":"031-486-1891","addr":"경기도 안산시 단원구 선부동 1076-6번지 서림빌딩 506호","indutype":"보건위생 - 화장품","category":"beauty"},{"name":"아모레카운셀러","tel":"031-486-1891","addr":"경기도 안산시 단원구 선부동 1076-6번지 서림빌딩 506호","indutype":"보건위생 - 화장품","category":"beauty"},{"name":"아모레카운셀러","tel":"031-486-1891","addr":"경기도 안산시 단원구 선부동 1076-6번지 서림프라자 506호","indutype":"보건위생 - 화장품","category":"beauty"},{"name":"아모레카운셀러","tel":"031-486-1891","addr":"경기도 안산시 단원구 선부동 1076-6번지 서림빌딩 506호","indutype":"보건위생 - 화장품","category":"beauty"},{"name":"아모레카운셀러","tel":"031-486-1891","addr":"경기도 안산시 단원구 선부동 1076-6번지 서림프라자 506호","indutype":"보건위생 - 화장품","category":"beauty"},{"name":"아모레카운셀러","tel":"031-486-1891","addr":"경기도 안산시 단원구 선부동 1076-6번지 서림프라자 506호","indutype":"보건위생 - 화장품","category":"beauty"},{"name":"아모레카운셀러","tel":"031-486-1891","addr":"경기도 안산시 단원구 선부동 1076-6번지 서림프라자 506호","indutype":"보건위생 - 화장품","category":"beauty"},{"name":"아모레카운셀러","tel":"031-486-1891","addr":"경기도 안산시 단원구 선부동 1076-6번지 서림빌딩 506호","indutype":"보건위생 - 화장품","category":"beauty"},{"name":"아모레카운셀러","tel":"031-486-1891","addr":"경기도 안산시 단원구 선부동 1076-6번지 서림빌딩 506호","indutype":"보건위생 - 화장품","category":"beauty"},{"name":"아모레카운셀러","tel":"031-486-1891","addr":"경기도 안산시 단원구 선부동 1076-6번지 서림빌딩 506호","indutype":"보건위생 - 화장품","category":"beauty"},{"name":"아모레카운셀러","tel":"031-486-1891","addr":"경기도 안산시 단원구 선부동 1076-6번지 서림프라자 506호","indutype":"보건위생 - 화장품","category":"beauty"},{"name":"아모레카운셀러","tel":"031-486-1891","addr":"경기도 안산시 단원구 선부동 1076-6번지 서림프라자 506호","indutype":"보건위생 - 화장품","category":"beauty"},{"name":"아모레카운셀러","tel":"031-486-1891","addr":"경기도 안산시 단원구 선부동 1076-6번지 서림프라자 506호","indutype":"보건위생 - 화장품","category":"beauty"},{"name":"아모레카운셀러","tel":"031-486-1891","addr":"경기도 안산시 단원구 선부동 1076-6번지 서림빌딩 506호","indutype":"보건위생 - 화장품","category":"beauty"},{"name":"아모레카운셀러","tel":"031-486-1891","addr":"경기도 안산시 단원구 선부동 1076-6번지 서림빌딩 506호","indutype":"보건위생 - 화장품","category":"beauty"},{"name":"아모레카운셀러","tel":"031-486-1891","addr":"경기도 안산시 단원구 선부동 1076-6번지 서림프라자 502호","indutype":"보건위생 - 화장품","category":"beauty"},{"name":"아모레카운셀러","tel":"031-486-1891","addr":"경기도 안산시 단원구 선부동 1076-6번지 서림프라자 502호","indutype":"보건위생 - 화장품","category":"beauty"},{"name":"아모레카운셀러","tel":"031-486-1891","addr":"경기도 안산시 단원구 선부동 1076-6번지 서림프라자 502호","indutype":"보건위생 - 화장품","category":"beauty"},{"name":"아모레카운셀러","tel":"031-486-1891","addr":"경기도 안산시 단원구 선부동 1076-6번지 서림빌딩 506호","indutype":"보건위생 - 화장품","category":"beauty"},{"name":"아모레카운셀러","tel":"031-486-1891","addr":"경기도 안산시 단원구 선부동 1076-6번지 서림빌딩 506호","indutype":"보건위생 - 화장품","category":"beauty"},{"name":"아모레카운셀러","tel":"031-486-1891","addr":"경기도 안산시 단원구 선부동 1076-6번지 서림빌딩 506호","indutype":"보건위생 - 화장품","category":"beauty"},{"name":"아모레카운셀러","tel":"031-486-1891","addr":"경기도 안산시 단원구 선부동 1076-6번지 서림빌딩 506호","indutype":"보건위생 - 화장품","category":"beauty"},{"name":"아모레카운셀러","tel":"031-486-1891","addr":"경기도 안산시 단원구 선부동 1076-6번지 서림 506호","indutype":"보건위생 - 화장품","category":"beauty"},{"name":"아모레카운셀러","tel":"031-486-1891","addr":"경기도 안산시 단원구 선부동 1076-6번지 서림빌딩 506호","indutype":"보건위생 - 화장품","category":"beauty"},{"name":"아모레카운셀러","tel":"031-486-1891","addr":"경기도 안산시 단원구 선부동 1076-6번지 서림빌딩 5층","indutype":"보건위생 - 화장품","category":"beauty"},{"name":"아모레카운셀러","tel":"031-486-1891","addr":"경기도 안산시 단원구 선부동 1076-6번지 서림빌딩 506호","indutype":"보건위생 - 화장품","category":"beauty"},{"name":"아모레카운셀러","tel":"031-486-1891","addr":"경기도 안산시 단원구 선부동 1076-6번지 서림빌딩 506호","indutype":"보건위생 - 화장품","category":"beauty"},{"name":"아모레카운셀러","tel":"031-486-1891","addr":"경기도 안산시 단원구 선부동 1076-6번지 서림빌딩 506호","indutype":"보건위생 - 화장품","category":"beauty"},{"name":"아모레카운셀러","tel":"031-486-1891","addr":"경기도 안산시 단원구 선부동 1076-6번지 서림빌딩 506호","indutype":"보건위생 - 화장품","category":"beauty"},{"name":"아모레카운셀러","tel":"031-486-1891","addr":"경기도 안산시 단원구 선부동 1076-6번지 서림빌딩 506호","indutype":"보건위생 - 화장품","category":"beauty"},{"name":"아모레카운셀러","tel":"031-486-0891","addr":"경기도 안산시 단원구 선부동 1076-6번지 서림프라자 506호","indutype":"보건위생 - 화장품","category":"beauty"},{"name":"아모레카운셀러","tel":"031-486-1891","addr":"경기도 안산시 단원구 선부동 1076-6번지 서림빌딩 5층 506호","indutype":"보건위생 - 화장품","category":"beauty"},{"name":"아모레카운셀러","tel":"031-486-1891","addr":"경기도 안산시 단원구 선부동 1076-6번지 서림빌딩 506호","indutype":"보건위생 - 화장품","category":"beauty"},{"name":"아모레카운셀러","tel":"031-486-1891","addr":"경기도 안산시 단원구 선부동 1076-6서림빌딩5층-506","indutype":"보건위생 - 화장품","category":"beauty"},{"name":"아모레카운셀러","tel":"031-486-1891","addr":"경기도 안산시 단원구 선부동 1076-6번지 서림빌딩 506호","indutype":"보건위생 - 화장품","category":"beauty"},{"name":"아모레카운셀러","tel":"031-486-1891","addr":"경기도 안산시 단원구 선부동 1076-6번지 서림빌딩 506호","indutype":"보건위생 - 화장품","category":"beauty"},{"name":"아모레카운셀러","tel":"031-486-1891","addr":"경기도 안산시 단원구 선부동 1076-6번지 서림빌딩 506호","indutype":"보건위생 - 화장품","category":"beauty"},{"name":"아모레카운셀러","tel":"031-486-1891","addr":"경기도 안산시 단원구 선부동 1076-6번지 서림빌딩 506호","indutype":"보건위생 - 화장품","category":"beauty"},{"name":"아모레카운셀러","tel":"031-402-0167","addr":"경기도 안산시 단원구 선부동 1076-6번지 서림빌딩 506호","indutype":"보건위생 - 화장품","category":"beauty"},{"name":"아모레카운셀러","tel":"031-486-1891","addr":"경기도 안산시 단원구 선부동 1076-6번지 서림프라자 506호","indutype":"보건위생 - 화장품","category":"beauty"},{"name":"아모레카운셀러","tel":"031-486-1891","addr":"경기도 안산시 단원구 선부동 1076-6번지 서림프라자 506호","indutype":"보건위생 - 화장품","category":"beauty"},{"name":"아모레카운셀러","tel":"031-486-1891","addr":"경기도 안산시 단원구 선부동 1076-6번지 서림프라자 506호","indutype":"보건위생 - 화장품","category":"beauty"},{"name":"아모레카운셀러","tel":"031-486-1891","addr":"경기도 안산시 단원구 선부동 1076-6번지 서림프라자 506호","indutype":"보건위생 - 화장품","category":"beauty"},{"name":"아모레카운셀러","tel":"031-486-1891","addr":"경기도 안산시 단원구 선부동 1076-6번지 서림빌딩 506호","indutype":"보건위생 - 화장품","category":"beauty"},{"name":"아모레카운셀러","tel":"031-486-1891","addr":"경기도 안산시 단원구 선부동 1076-6번지 서림빌딩 506호","indutype":"보건위생 - 화장품","category":"beauty"},{"name":"아모레카운셀러","tel":"031-486-1891","addr":"경기도 안산시 단원구 선부동 1076-6번지 서림프라자 506호","indutype":"보건위생 - 화장품","category":"beauty"},{"name":"아모레카운셀러(김옥분)","tel":"031-486-1891","addr":"경기도 안산시 단원구 선부동 1076-6번지 서림빌딩 506호","indutype":"보건위생 - 화장품","category":"beauty"},{"name":"아모레카운셀러(박지선)","tel":"031-486-1891","addr":"경기도 안산시 단원구 선부동 1076-6번지 서림빌딩 506호","indutype":"보건위생 - 화장품","category":"beauty"},{"name":"아모레카운셀러(이영주)","tel":"031-486-1891","addr":"경기도 안산시 단원구 선부동 1076-6번지 서림빌딩 506호","indutype":"보건위생 - 화장품","category":"beauty"},{"name":"아모레화장품카운셀러","tel":"031-480-1891","addr":"경기도 안산시 단원구 선부동 1076 서림빌딩5층 6/","indutype":"보건위생 - 화장품","category":"beauty"},{"name":"안산선부특약점","tel":"031-486-1891","addr":"경기도 안산시 단원구 선부동 1076-6번지 서림프라자 5층 506호","indutype":"보건위생 - 화장품","category":"beauty"},{"name":"엘리트안경","tel":"031-411-8800","addr":"경기도 안산시 단원구 선부동 1076-6번지","indutype":"보건위생 - 안경","category":"beauty"},{"name":"헤어라벤더","tel":"031-414-0605","addr":"경기도 안산시 단원구 선부동 1076-6번지 서림프라자 204호","indutype":"보건위생 - 미용원","category":"beauty"}]},{"lat":"37.345475628","long":"126.80483131","imageIndex":13,"items":[{"name":"마임고잔","tel":"031-483-3330","addr":"경기도 안산시 단원구 선부동 1046-6번지 한솔주택 401호","indutype":"보건위생 - 화장품","category":"beauty"}]},{"lat":"37.340282611","long":"126.80835451","imageIndex":13,"items":[{"name":"머리이야기","tel":"031-401-5737","addr":"경기도 안산시 단원구 선부동 1061-30번지","indutype":"보건위생 - 미용원","category":"beauty"}]},{"lat":"37.342283923","long":"126.80357576","imageIndex":13,"items":[{"name":"머리쟁이미용실","tel":"070-8779-0075","addr":"경기도 안산시 단원구 선부동 1028번지 안산제1종합시장 1층 1136호","indutype":"보건위생 - 미용원","category":"beauty"},{"name":"메카닉스","tel":"031-495-2502","addr":"경기도 안산시 단원구 선부동 1028번지 2층","indutype":"보건위생 - 화장품","category":"beauty"},{"name":"버르장머리","tel":"031-405-4644","addr":"경기도 안산시 단원구 선부동 1028번지 안산종합시장 1145호","indutype":"보건위생 - 미용원","category":"beauty"},{"name":"안산대중사우나","tel":"031-411-5309","addr":"경기도 안산시 단원구 선부동 1028번지 3008.9호","indutype":"보건위생 - 사우나","category":"beauty"},{"name":"연우네일샵","tel":"","addr":"경기도 안산시 단원구 선부동 1028번지 안산제1종합시장 1층 113호","indutype":"보건위생 - 피부미용실","category":"beauty"},{"name":"오땡규천연머리염색점","tel":"031-401-8683","addr":"경기도 안산시 단원구 선부동 1028번지 안산종합시장 1136호","indutype":"보건위생 - 미용원","category":"beauty"},{"name":"이정화헤어뱅크","tel":"031-401-8987","addr":"경기도 안산시 단원구 선부동 1028번지 안산제1종합시장 1115호","indutype":"보건위생 - 미용원","category":"beauty"},{"name":"제일건강관리","tel":"031-483-2277","addr":"경기도 안산시 단원구 선부동 1028번지 안산제1종합시장 3028호","indutype":"보건위생 - 피부미용실","category":"beauty"},{"name":"제일안경원","tel":"031-411-8118","addr":"경기도 안산시 단원구 선부동 1028번지 안산제1종합시장 1130호","indutype":"보건위생 - 안경","category":"beauty"},{"name":"헤어미인","tel":"031-411-1292","addr":"경기도 안산시 단원구 선부동 1028번지 종합시장 1128호","indutype":"보건위생 - 미용원","category":"beauty"}]},{"lat":"37.33411134","long":"126.80336039","imageIndex":13,"items":[{"name":"머리하는날","tel":"031-413-1566","addr":"경기도 안산시 단원구 선부동 964-2성동상가101","indutype":"보건위생 - 미용원","category":"beauty"}]},{"lat":"37.339117317","long":"126.80119179","imageIndex":13,"items":[{"name":"명동미용타운","tel":"031-413-8605","addr":"경기도 안산시 단원구 선부동 998-15 1층102","indutype":"보건위생 - 미용원","category":"beauty"}]},{"lat":"37.340001514","long":"126.81280143","imageIndex":13,"items":[{"name":"명지피부","tel":"031-411-7667","addr":"경기도 안산시 단원구 선부동 1085번지 군자2차상가 1층 일부","indutype":"보건위생 - 피부미용실","category":"beauty"},{"name":"아이데코","tel":"031-411-7218","addr":"경기도 안산시 단원구 선부동 1085번지 한양프라자 군자점 연도상사 116,117호","indutype":"보건위생 - 안경","category":"beauty"},{"name":"한양스파랜드","tel":"031-485-8488","addr":"경기도 안산시 단원구 선부동 1085번지 한양프라자군자점 지하층 3호","indutype":"보건위생 - 사우나","category":"beauty"},{"name":"한양스파랜드 사우나 (세신사)","tel":"031-485-8488","addr":"경기도 안산시 단원구 선부동 1085번지 오렌지팩토리,기업은행한샘레포트점 지하2층","indutype":"보건위생 - 기타대인서비스","category":"beauty"}]},{"lat":"37.339721574","long":"126.79630389","imageIndex":13,"items":[{"name":"목화밭가데스헤어","tel":"031-495-6684","addr":"경기도 안산시 단원구 선부동 987-17번지","indutype":"보건위생 - 미용원","category":"beauty"}]},{"lat":"37.336056341","long":"126.80804946","imageIndex":13,"items":[{"name":"문향에스테틱","tel":"031-401-5343","addr":"경기도 안산시 단원구 선부동 1070-14번지 문정프라자 204호","indutype":"보건위생 - 피부미용실","category":"beauty"}]},{"lat":"37.342084553","long":"126.81385698","imageIndex":13,"items":[{"name":"미","tel":"031-486-4868","addr":"경기도 안산시 단원구 선부동 1144-5번지","indutype":"보건위생 - 화장품","category":"beauty"},{"name":"캣츠헤어","tel":"070-3113-7713","addr":"경기도 안산시 단원구 선부동 1144-5번지 101호","indutype":"보건위생 - 미용원","category":"beauty"}]},{"lat":"37.342503796","long":"126.80574192","imageIndex":13,"items":[{"name":"미녀뽀글이","tel":"031-410-0584","addr":"경기도 안산시 단원구 선부동 1031-3번지 1층","indutype":"보건위생 - 미용원","category":"beauty"}]},{"lat":"37.336614393","long":"126.81323877","imageIndex":13,"items":[{"name":"미샤안산선부점","tel":"031-414-3600","addr":"경기도 안산시 단원구 선부동 1081한양3차산호상가111","indutype":"보건위생 - 화장품","category":"beauty"},{"name":"산호이발관","tel":"031-414-2855","addr":"경기도 안산시 단원구 선부동 1081 산호상가지하8호","indutype":"보건위생 - 이용원","category":"beauty"},{"name":"이가자헤어비스","tel":"031-414-4914","addr":"경기도 안산시 단원구 선부동 1081 산호한양상가 102","indutype":"보건위생 - 미용원","category":"beauty"},{"name":"행복한안경","tel":"042-634-3561","addr":"경기도 안산시 단원구 선부동 1081번지 산호 상가 112호","indutype":"보건위생 - 안경","category":"beauty"}]},{"lat":"37.336166925","long":"126.80954997","imageIndex":13,"items":[{"name":"미소헤나","tel":"031-484-7797","addr":"경기도 안산시 단원구 선부동 1070-1번지 안산세이브시티 801호","indutype":"보건위생 - 미용원","category":"beauty"}]},{"lat":"37.342278638","long":"126.80579894","imageIndex":13,"items":[{"name":"믿음헤어","tel":"031-405-3775","addr":"경기도 안산시 단원구 선부동 1031-5번지 새누리교회 1층 101호","indutype":"보건위생 - 미용원","category":"beauty"}]},{"lat":"37.343918278","long":"126.81679785","imageIndex":13,"items":[{"name":"반야암","tel":"070-8816-8255","addr":"경기도 안산시 단원구 선부동 1093-5번지 소노펠리체 101호","indutype":"보건위생 - 기타대인서비스","category":"beauty"}]},{"lat":"37.342057919","long":"126.81410532","imageIndex":13,"items":[{"name":"방콕","tel":"031-401-0155","addr":"경기도 안산시 단원구 선부동 1143-12번지 1층","indutype":"보건위생 - 화장품","category":"beauty"},{"name":"숲인(in)헤어","tel":"031-411-8650","addr":"경기도 안산시 단원구 선부동 1143-12번지 102호","indutype":"보건위생 - 미용원","category":"beauty"}]},{"lat":"37.342420763","long":"126.80457977","imageIndex":13,"items":[{"name":"베넷머리","tel":"031-414-3834","addr":"경기도 안산시 단원구 선부동 1029-15번지 1층","indutype":"보건위생 - 미용원","category":"beauty"}]},{"lat":"37.343609652","long":"126.8153541","imageIndex":13,"items":[{"name":"보떼헤어","tel":"031-000-0000","addr":"경기도 안산시 단원구 선부동 1091-3번지 103호","indutype":"보건위생 - 미용원","category":"beauty"}]},{"lat":"37.341781989","long":"126.81623887","imageIndex":13,"items":[{"name":"블루클럽","tel":"031-410-6011","addr":"경기도 안산시 단원구 선부동 1087-31번지 신협빌딩 103호","indutype":"보건위생 - 미용원","category":"beauty"},{"name":"컷트타운","tel":"031-410-6011","addr":"경기도 안산시 단원구 선부동 1087-31번지 신협빌딩 1층 103호","indutype":"보건위생 - 미용원","category":"beauty"}]},{"lat":"37.33563808","long":"126.81124394","imageIndex":13,"items":[{"name":"비겐의료기안산점","tel":"031-485-8558","addr":"경기도 안산시 단원구 선부동 1076-15번지 진주프라자 5층 503호,504호","indutype":"보건위생 - 의료용품","category":"beauty"},{"name":"수테라피","tel":"031-410-5666","addr":"경기도 안산시 단원구 선부동 1076-15번지 진주프라자 5층 502호","indutype":"보건위생 - 기타대인서비스","category":"beauty"}]},{"lat":"37.341889201","long":"126.81566307","imageIndex":13,"items":[{"name":"비바리헤어","tel":"","addr":"경기도 안산시 단원구 선부동 1087-1번지 대흥빌딩 103호","indutype":"보건위생 - 미용원","category":"beauty"},{"name":"은지유통","tel":"031-410-2722","addr":"경기도 안산시 단원구 선부동 1087-1번지 대흥빌딩 103호","indutype":"보건위생 - 화장품","category":"beauty"}]},{"lat":"37.343253493","long":"126.8068572","imageIndex":13,"items":[{"name":"빛나피부샵","tel":"031-439-8817","addr":"경기도 안산시 단원구 선부동 1040-6번지 102호","indutype":"보건위생 - 화장품","category":"beauty"}]},{"lat":"37.339835976","long":"126.79474629","imageIndex":13,"items":[{"name":"삼거리종합화장품","tel":"031-491-6388","addr":"경기도 안산시 단원구 선부동 986-16번지","indutype":"보건위생 - 화장품","category":"beauty"}]},{"lat":"37.34458305","long":"126.81554353","imageIndex":13,"items":[{"name":"새로나안경","tel":"031-411-8822","addr":"경기도 안산시 단원구 선부동 1096-16번지 102(17번지1층)","indutype":"보건위생 - 안경","category":"beauty"}]},{"lat":"37.341726283","long":"126.80416405","imageIndex":13,"items":[{"name":"샤샤헤어","tel":"031-411-3066","addr":"경기도 안산시 단원구 선부동 1028-1번지 휴먼빌 상가 117호","indutype":"보건위생 - 미용원","category":"beauty"}]},{"lat":"37.333560483","long":"126.8026284","imageIndex":13,"items":[{"name":"서미화미용타운","tel":"031-484-1119","addr":"경기도 안산시 단원구 선부동 963효자상가1층","indutype":"보건위생 - 미용원","category":"beauty"}]},{"lat":"37.334504952","long":"126.81257832","imageIndex":13,"items":[{"name":"설희 겟잇뷰티","tel":"","addr":"경기도 안산시 단원구 선부동 1076-21번지 503호","indutype":"보건위생 - 화장품","category":"beauty"}]},{"lat":"37.344894483","long":"126.81308252","imageIndex":13,"items":[{"name":"성질머리","tel":"031-405-3038","addr":"경기도 안산시 단원구 선부동 1135-2번지","indutype":"보건위생 - 미용원","category":"beauty"}]},{"lat":"37.341915749","long":"126.81535831","imageIndex":13,"items":[{"name":"소리샘 심리상담센터","tel":"070-4325-3299","addr":"경기도 안산시 단원구 선부동 1087-11번지 화성프라자 5층 3호","indutype":"보건위생 - 기타대인서비스","category":"beauty"},{"name":"왓포 화장품","tel":"","addr":"경기도 안산시 단원구 선부동 1087-11번지 화성프라자 지하1층 2호","indutype":"보건위생 - 화장품","category":"beauty"},{"name":"하와이여성사우나","tel":"031-484-4166","addr":"경기도 안산시 단원구 선부동 1087-11화성프라자지하2층1","indutype":"보건위생 - 사우나","category":"beauty"}]},{"lat":"37.343114792","long":"126.81579545","imageIndex":13,"items":[{"name":"손톱관리소","tel":"031-411-3322","addr":"경기도 안산시 단원구 선부동 1090-3번지 1층 102호","indutype":"보건위생 - 피부미용실","category":"beauty"},{"name":"영광미용실","tel":"031-439-8404","addr":"경기도 안산시 단원구 선부동 1090-3번지","indutype":"보건위생 - 미용원","category":"beauty"}]},{"lat":"37.339280888","long":"126.80738662","imageIndex":13,"items":[{"name":"수다쟁이","tel":"031-504-9329","addr":"경기도 안산시 단원구 선부동 1064-6번지 102호","indutype":"보건위생 - 미용원","category":"beauty"}]},{"lat":"37.339757319","long":"126.79613453","imageIndex":13,"items":[{"name":"수빈헤어케어","tel":"031-492-7067","addr":"경기도 안산시 단원구 선부동 987-18번지","indutype":"보건위생 - 미용원","category":"beauty"}]},{"lat":"37.335666679","long":"126.8122143","imageIndex":13,"items":[{"name":"스완(Swan)","tel":"031-405-0877","addr":"경기도 안산시 단원구 선부동 1076-5번지 쇼핑 1층 122호","indutype":"보건위생 - 화장품","category":"beauty"},{"name":"으뜸플러스 안산선부점","tel":"031-000-0000","addr":"경기도 안산시 단원구 선부동 1076-5번지 훼미리프라자 2층 205호","indutype":"보건위생 - 안경","category":"beauty"},{"name":"프리티아이","tel":"070-4247-8659","addr":"경기도 안산시 단원구 선부동 1076-5번지 훼미리프라자 쇼핑 1층 105호","indutype":"보건위생 - 화장품","category":"beauty"},{"name":"훼미리종합화장품","tel":"031-410-9096","addr":"경기도 안산시 단원구 선부동 1076-5번지 훼미리프라자쇼핑 102호","indutype":"보건위생 - 화장품","category":"beauty"},{"name":"훼미리종합화장품114호","tel":"031-410-8956","addr":"경기도 안산시 단원구 선부동 1076-5번지 훼미리 1층 114호","indutype":"보건위생 - 화장품","category":"beauty"}]},{"lat":"37.344867669","long":"126.81321801","imageIndex":13,"items":[{"name":"스카이미용실","tel":"031-411-1990","addr":"경기도 안산시 단원구 선부동 1135-3번지 1호","indutype":"보건위생 - 미용원","category":"beauty"}]},{"lat":"37.335922746","long":"126.80899767","imageIndex":13,"items":[{"name":"스트레칭","tel":"031-410-8194","addr":"경기도 안산시 단원구 선부동 1070-2번지 다이아몬드빌딩 4층 401호","indutype":"보건위생 - 기타대인서비스","category":"beauty"}]},{"lat":"37.342698997","long":"126.80393579","imageIndex":13,"items":[{"name":"신세계헤어샵","tel":"031-402-5224","addr":"경기도 안산시 단원구 선부동 1027-15번지 신화속셈 102호","indutype":"보건위생 - 미용원","category":"beauty"}]},{"lat":"37.342782602","long":"126.80543649","imageIndex":13,"items":[{"name":"실버네일","tel":"031-509-0051","addr":"경기도 안산시 단원구 선부동 1031-19번지 1층 103호","indutype":"보건위생 - 피부미용실","category":"beauty"},{"name":"예쁜헤어","tel":"031-411-8889","addr":"경기도 안산시 단원구 선부동 1031-19번지 1층 104호","indutype":"보건위생 - 미용원","category":"beauty"},{"name":"제이헤어(J헤어)","tel":"031-411-8889","addr":"경기도 안산시 단원구 선부동 1031-19번지 104호","indutype":"보건위생 - 미용원","category":"beauty"}]},{"lat":"37.341639295","long":"126.80602631","imageIndex":13,"items":[{"name":"심정아헤어샵","tel":"031-483-7760","addr":"경기도 안산시 단원구 선부동 1032-9번지","indutype":"보건위생 - 미용원","category":"beauty"},{"name":"예쁜걸","tel":"","addr":"경기도 안산시 단원구 선부동 1032-9번지 관인제일학원 102호","indutype":"보건위생 - 화장품","category":"beauty"}]},{"lat":"37.344308778","long":"126.8075203","imageIndex":13,"items":[{"name":"썬메디칼","tel":"031-486-4245","addr":"경기도 안산시 단원구 선부동 1058번지 브라운스톤","indutype":"보건위생 - 의료용품","category":"beauty"}]},{"lat":"37.333391555","long":"126.80397162","imageIndex":13,"items":[{"name":"아델헤어","tel":"031-487-0112","addr":"경기도 안산시 단원구 선부동 963-1번지 동국연립 바동 105호","indutype":"보건위생 - 미용원","category":"beauty"},{"name":"아띠랑스헤어","tel":"031-503-7427","addr":"경기도 안산시 단원구 선부동 963-1번지 동국연립 바동 1층 105호","indutype":"보건위생 - 미용원","category":"beauty"},{"name":"제일이용원","tel":"031-414-8798","addr":"경기도 안산시 단원구 선부동 963-1번지 보영상가 바-110","indutype":"보건위생 - 이용원","category":"beauty"}]},{"lat":"37.348503823","long":"126.81077109","imageIndex":13,"items":[{"name":"아로마","tel":"070-7007-5050","addr":"경기도 안산시 단원구 선부동 1127-1번지 101호","indutype":"보건위생 - 화장품","category":"beauty"}]},{"lat":"37.33517183","long":"126.81265563","imageIndex":13,"items":[{"name":"아리따움 선부점","tel":"031-403-4193","addr":"경기도 안산시 단원구 선부동 1076-7번지 새한프라자 103호","indutype":"보건위생 - 화장품","category":"beauty"},{"name":"탑네일","tel":"031-410-7123","addr":"경기도 안산시 단원구 선부동 1076-7번지 새한프라자 109호","indutype":"보건위생 - 피부미용실","category":"beauty"},{"name":"푸켓화장품","tel":"031-411-1417","addr":"경기도 안산시 단원구 선부동 1076-7번지 새한프라자 401호","indutype":"보건위생 - 화장품","category":"beauty"},{"name":"한빛나노의료기(안산선부)","tel":"031-483-4755","addr":"경기도 안산시 단원구 선부동 1076-7번지 새한프라자 503호","indutype":"보건위생 - 의료용품","category":"beauty"}]},{"lat":"37.33255524","long":"126.8104055","imageIndex":13,"items":[{"name":"아모레 카운셀러","tel":"031-486-1891","addr":"경기도 안산시 단원구 선부동 1077-15번지 늘봄스위트빌2","indutype":"보건위생 - 화장품","category":"beauty"}]},{"lat":"37.34172721","long":"126.80471702","imageIndex":13,"items":[{"name":"아모레카운셀러","tel":"062-374-7401","addr":"경기도 안산시 단원구 선부동 1029-10번지 3층","indutype":"보건위생 - 화장품","category":"beauty"}]},{"lat":"37.338283562","long":"126.80366532","imageIndex":13,"items":[{"name":"아모레카운셀러","tel":"031-486-1891","addr":"경기도 안산시 단원구 선부동 994-14번지","indutype":"보건위생 - 화장품","category":"beauty"}]},{"lat":"37.332895603","long":"126.81474885","imageIndex":13,"items":[{"name":"아지랑이","tel":"031-486-5314","addr":"경기도 안산시 단원구 선부동 1079번지 주공13, 14단지아파트 상가 1층 102호","indutype":"보건위생 - 미용원","category":"beauty"},{"name":"자연 미장원","tel":"031-111-1111","addr":"경기도 안산시 단원구 선부동 1079번지 주공13, 14단지아파트 13단가 상가 203호","indutype":"보건위생 - 미용원","category":"beauty"},{"name":"칼라시대","tel":"031-411-7161","addr":"경기도 안산시 단원구 선부동 1079번지 주공 상가 207호","indutype":"보건위생 - 미용원","category":"beauty"}]},{"lat":"37.341860792","long":"126.8147942","imageIndex":13,"items":[{"name":"에담안경","tel":"031-403-0988","addr":"경기도 안산시 단원구 선부동 1143-6번지 1층","indutype":"보건위생 - 안경","category":"beauty"},{"name":"에담안경원","tel":"031-403-0988","addr":"경기도 안산시 단원구 선부동 1143-6번지","indutype":"보건위생 - 안경","category":"beauty"}]},{"lat":"37.345222643","long":"126.81546294","imageIndex":13,"items":[{"name":"여우머리","tel":"031-411-9264","addr":"경기도 안산시 단원구 선부동 1097-3번지 1층","indutype":"보건위생 - 미용원","category":"beauty"},{"name":"폭스","tel":"031-411-9264","addr":"경기도 안산시 단원구 선부동 1097-3번지 101호","indutype":"보건위생 - 화장품","category":"beauty"}]},{"lat":"37.346171347","long":"126.8059919","imageIndex":13,"items":[{"name":"영샤론미용실","tel":"031-484-5574","addr":"경기도 안산시 단원구 선부동 1043번지","indutype":"보건위생 - 미용원","category":"beauty"}]},{"lat":"37.337032255","long":"126.80432312","imageIndex":13,"items":[{"name":"영운이발관","tel":"031-483-7729","addr":"경기도 안산시 단원구 선부동 969-7번지 1층","indutype":"보건위생 - 이용원","category":"beauty"}]},{"lat":"37.342228222","long":"126.80799966","imageIndex":13,"items":[{"name":"오땡큐","tel":"031-401-0993","addr":"경기도 안산시 단원구 선부동 1058-34번지 1층","indutype":"보건위생 - 미용원","category":"beauty"}]},{"lat":"37.345755224","long":"126.80499986","imageIndex":13,"items":[{"name":"오페라미용실","tel":"031-439-1329","addr":"경기도 안산시 단원구 선부동 1048-13번지 1층","indutype":"보건위생 - 미용원","category":"beauty"}]},{"lat":"37.337500611","long":"126.80422032","imageIndex":13,"items":[{"name":"온누리대리운전","tel":"031-483-9771","addr":"경기도 안산시 단원구 선부동 993-12번지 201호","indutype":"보건위생 - 기타대인서비스","category":"beauty"}]},{"lat":"37.337643044","long":"126.80319307","imageIndex":13,"items":[{"name":"우정헤어매직","tel":"031-414-0811","addr":"경기도 안산시 단원구 선부동 974-8번지 1층","indutype":"보건위생 - 미용원","category":"beauty"},{"name":"표방미용실","tel":"070-7550-2906","addr":"경기도 안산시 단원구 선부동 974-8번지 1층","indutype":"보건위생 - 미용원","category":"beauty"}]},{"lat":"37.347339681","long":"126.81524325","imageIndex":13,"items":[{"name":"원헤어필","tel":"031-405-4073","addr":"경기도 안산시 단원구 선부동 1115-7번지 1층","indutype":"보건위생 - 미용원","category":"beauty"}]},{"lat":"37.345473259","long":"126.81441276","imageIndex":13,"items":[{"name":"유헤어미용실","tel":"031-401-3715","addr":"경기도 안산시 단원구 선부동 1117-11번지 102호","indutype":"보건위생 - 미용원","category":"beauty"}]},{"lat":"37.341145785","long":"126.80188603","imageIndex":13,"items":[{"name":"이슈헤어","tel":"031-411-6224","addr":"경기도 안산시 단원구 선부동 1006-8번지 세종미술 104호","indutype":"보건위생 - 미용원","category":"beauty"}]},{"lat":"37.346333168","long":"126.81690475","imageIndex":13,"items":[{"name":"이조헤어샵","tel":"031-483-6369","addr":"경기도 안산시 단원구 선부동 1101번지 1층 101호","indutype":"보건위생 - 미용원","category":"beauty"}]},{"lat":"37.34336004","long":"126.81704751","imageIndex":13,"items":[{"name":"인네일(innail)","tel":"031-483-8380","addr":"경기도 안산시 단원구 선부동 1092-17번지 1층","indutype":"보건위생 - 피부미용실","category":"beauty"}]},{"lat":"37.343088689","long":"126.81638235","imageIndex":13,"items":[{"name":"인스헤어","tel":"","addr":"경기도 안산시 단원구 선부동 1090-7번지 1층","indutype":"보건위생 - 미용원","category":"beauty"}]},{"lat":"37.344944352","long":"126.80502456","imageIndex":13,"items":[{"name":"정은헤어샵","tel":"031-439-5994","addr":"경기도 안산시 단원구 선부동 1044-17번지","indutype":"보건위생 - 미용원","category":"beauty"}]},{"lat":"37.342002263","long":"126.80218844","imageIndex":13,"items":[{"name":"정인헤어샵","tel":"031-410-3204","addr":"경기도 안산시 단원구 선부동 1013-7번지 예일교회 103호","indutype":"보건위생 - 미용원","category":"beauty"}]},{"lat":"37.344727872","long":"126.81596073","imageIndex":13,"items":[{"name":"정헤어라인","tel":"031-506-8500","addr":"경기도 안산시 단원구 선부동 1096-4번지","indutype":"보건위생 - 미용원","category":"beauty"}]},{"lat":"37.341895917","long":"126.81421857","imageIndex":13,"items":[{"name":"정헤어피아","tel":"031-487-3331","addr":"경기도 안산시 단원구 선부동 1143-10번지","indutype":"보건위생 - 미용원","category":"beauty"}]},{"lat":"37.343032466","long":"126.80399133","imageIndex":13,"items":[{"name":"제이 (J)젤네일","tel":"","addr":"경기도 안산시 단원구 선부동 1027-6번지 102호 호선부동","indutype":"보건위생 - 피부미용실","category":"beauty"}]},{"lat":"37.336113638","long":"126.80457379","imageIndex":13,"items":[{"name":"제이제이헤어","tel":"031-413-3421","addr":"경기도 안산시 단원구 선부동 968-4번지","indutype":"보건위생 - 미용원","category":"beauty"}]},{"lat":"37.345026084","long":"126.80540805","imageIndex":13,"items":[{"name":"조은헤어클리닉","tel":"031-403-3319","addr":"경기도 안산시 단원구 선부동 1043-17번지","indutype":"보건위생 - 미용원","category":"beauty"}]},{"lat":"37.34475451","long":"126.81571239","imageIndex":13,"items":[{"name":"좋은느낌잘된머리","tel":"031-410-9037","addr":"경기도 안산시 단원구 선부동 1096-2번지 1층","indutype":"보건위생 - 미용원","category":"beauty"}]},{"lat":"37.335197579","long":"126.80635907","imageIndex":13,"items":[{"name":"주공미용실","tel":"031-486-7799","addr":"경기도 안산시 단원구 선부동 967-2번지 9단지슈퍼상가 복합상가 106호","indutype":"보건위생 - 미용원","category":"beauty"}]},{"lat":"37.346225046","long":"126.81690502","imageIndex":13,"items":[{"name":"주식회사 한솔테크","tel":"031-000-0000","addr":"경기도 안산시 단원구 선부동 1101-11번지 101호,101호일부,102호","indutype":"보건위생 - 의료용품","category":"beauty"}]},{"lat":"37.333947189","long":"126.80758098","imageIndex":13,"items":[{"name":"처음의료기","tel":"031-487-8782","addr":"경기도 안산시 단원구 선부동 1071-1번지 지하층 한도병원 1층","indutype":"보건위생 - 의료용품","category":"beauty"}]},{"lat":"37.333119112","long":"126.80810218","imageIndex":13,"items":[{"name":"춘향마사지","tel":"","addr":"경기도 안산시 단원구 선부동 1071-5번지 201호","indutype":"보건위생 - 피부미용실","category":"beauty"},{"name":"행복머리방","tel":"031-000-0000","addr":"경기도 안산시 단원구 선부동 1071-5번지 201호","indutype":"보건위생 - 미용원","category":"beauty"}]},{"lat":"37.342754137","long":"126.8045789","imageIndex":13,"items":[{"name":"코코로미","tel":"070-8628-5060","addr":"경기도 안산시 단원구 선부동 1026-5번지 1층","indutype":"보건위생 - 미용원","category":"beauty"},{"name":"코코로미","tel":"070-8628-5060","addr":"경기도 안산시 단원구 선부동 1026-5번지 101호","indutype":"보건위생 - 미용원","category":"beauty"}]},{"lat":"37.34328459","long":"126.81491478","imageIndex":13,"items":[{"name":"쿨헤어","tel":"031-414-3755","addr":"경기도 안산시 단원구 선부동 1142-3번지 1층","indutype":"보건위생 - 미용원","category":"beauty"}]},{"lat":"37.342728089","long":"126.80516579","imageIndex":13,"items":[{"name":"큐사랑 선부점","tel":"070-4325-7063","addr":"경기도 안산시 단원구 선부동 1030번지 관인슬기속셈학원 1층 101호","indutype":"보건위생 - 미용재료","category":"beauty"}]},{"lat":"37.333450699","long":"126.80701808","imageIndex":13,"items":[{"name":"태양메디칼","tel":"031-405-7545","addr":"경기도 안산시 단원구 선부동 1071-12번지 송천빌딩 108호","indutype":"보건위생 - 의료용품","category":"beauty"}]},{"lat":"37.339304518","long":"126.79482675","imageIndex":13,"items":[{"name":"태크노미용실","tel":"031-494-7486","addr":"경기도 안산시 단원구 선부동 983-17번지","indutype":"보건위생 - 미용원","category":"beauty"}]},{"lat":"37.337589174","long":"126.80330605","imageIndex":13,"items":[{"name":"트라움 컴퍼니 (Traum Co.)","tel":"031-509-0043","addr":"경기도 안산시 단원구 선부동 974-9번지 3층 301-1호","indutype":"보건위생 - 화장품","category":"beauty"}]},{"lat":"37.342919013","long":"126.80619224","imageIndex":13,"items":[{"name":"트위기헤어","tel":"031-402-0627","addr":"경기도 안산시 단원구 선부동 1037번지","indutype":"보건위생 - 미용원","category":"beauty"}]},{"lat":"37.342700719","long":"126.80496273","imageIndex":13,"items":[{"name":"하늘정원","tel":"031-503-9595","addr":"경기도 안산시 단원구 선부동 1030-19번지 103호","indutype":"보건위생 - 미용원","category":"beauty"}]},{"lat":"37.339449275","long":"126.79516489","imageIndex":13,"items":[{"name":"하원미용실","tel":"031-492-9995","addr":"경기도 안산시 단원구 선부동 983-2번지 101호","indutype":"보건위생 - 미용원","category":"beauty"}]},{"lat":"37.337418495","long":"126.80361118","imageIndex":13,"items":[{"name":"해윤화장품","tel":"","addr":"경기도 안산시 단원구 선부동 969-1번지 관인호돌이태권도 1동 101호","indutype":"보건위생 - 화장품","category":"beauty"}]},{"lat":"37.343584503","long":"126.80543439","imageIndex":13,"items":[{"name":"헤어1번지","tel":"031-401-7333","addr":"경기도 안산시 단원구 선부동 1024-1번지 101호","indutype":"보건위생 - 미용원","category":"beauty"},{"name":"헤어1번지","tel":"031-401-7333","addr":"경기도 안산시 단원구 선부동 1024-1번지 101호","indutype":"보건위생 - 미용원","category":"beauty"}]},{"lat":"37.339054534","long":"126.80136122","imageIndex":13,"items":[{"name":"헤어로즈","tel":"031-410-6532","addr":"경기도 안산시 단원구 선부동 998-14번지 1층","indutype":"보건위생 - 미용원","category":"beauty"}]},{"lat":"37.345086399","long":"126.81477487","imageIndex":13,"items":[{"name":"헤어마끼","tel":"031-508-4520","addr":"경기도 안산시 단원구 선부동 1116-15번지 103호","indutype":"보건위생 - 미용원","category":"beauty"},{"name":"헤어쇼","tel":"031-405-8236","addr":"경기도 안산시 단원구 선부동 1116-15번지","indutype":"보건위생 - 미용원","category":"beauty"}]},{"lat":"37.336921963","long":"126.80844217","imageIndex":13,"items":[{"name":"헤어모드","tel":"031-402-8368","addr":"경기도 안산시 단원구 선부동 1083-1번지 제나동상가동 104호","indutype":"보건위생 - 미용원","category":"beauty"}]},{"lat":"37.347306959","long":"126.80619208","imageIndex":13,"items":[{"name":"헤어민","tel":"031-318-4252","addr":"경기도 안산시 단원구 선부동 1054-17번지 그린펠리스 102호","indutype":"보건위생 - 미용원","category":"beauty"}]},{"lat":"37.343117142","long":"126.8061353","imageIndex":13,"items":[{"name":"헤어알마","tel":"031-410-7987","addr":"경기도 안산시 단원구 선부동 1038-7번지 1층","indutype":"보건위생 - 미용원","category":"beauty"}]},{"lat":"37.345254344","long":"126.81274305","imageIndex":13,"items":[{"name":"헤어짱","tel":"031-504-3755","addr":"경기도 안산시 단원구 선부동 1119-19번지 1층 101호","indutype":"보건위생 - 미용원","category":"beauty"}]},{"lat":"37.343919324","long":"126.80630249","imageIndex":13,"items":[{"name":"헤어채널","tel":"031-486-5470","addr":"경기도 안산시 단원구 선부동 1039번지 1층","indutype":"보건위생 - 미용원","category":"beauty"}]},{"lat":"37.345587192","long":"126.81241493","imageIndex":13,"items":[{"name":"헤어칼라","tel":"031-483-3370","addr":"경기도 안산시 단원구 선부동 1122-10번지 1층","indutype":"보건위생 - 미용원","category":"beauty"}]},{"lat":"37.342726571","long":"126.81529987","imageIndex":13,"items":[{"name":"헤어캐슬","tel":"","addr":"경기도 안산시 단원구 선부동 1090-18번지 101호","indutype":"보건위생 - 미용원","category":"beauty"}]},{"lat":"37.34503427","long":"126.81599383","imageIndex":13,"items":[{"name":"헤어통통","tel":"031-410-9794","addr":"경기도 안산시 단원구 선부동 1097-16번지 1층","indutype":"보건위생 - 미용원","category":"beauty"}]},{"lat":"37.344859364","long":"126.81365817","imageIndex":13,"items":[{"name":"헤어팡","tel":"031-493-3199","addr":"경기도 안산시 단원구 선부동 1135-6번지 101호","indutype":"보건위생 - 미용원","category":"beauty"},{"name":"헤어팡","tel":"","addr":"경기도 안산시 단원구 선부동 1135-6번지 1층 104호","indutype":"보건위생 - 미용원","category":"beauty"}]},{"lat":"37.342501264","long":"126.81526657","imageIndex":13,"items":[{"name":"휴테라피","tel":"031-487-8868","addr":"경기도 안산시 단원구 선부동 1090-20번지 2층","indutype":"보건위생 - 기타대인서비스","category":"beauty"}]}]