[{"lat":"37.302849563","long":"127.39001766","imageIndex":17,"items":[{"name":"가마오감도","tel":"031-638-9033","addr":"경기도 이천시 신둔면 마교리 106-3","indutype":"기타 - 기계공구","category":"other"}]},{"lat":"37.303991707","long":"127.38791428","imageIndex":17,"items":[{"name":"나작가","tel":"","addr":"경기도 이천시 신둔면 마교리 179-1번지 A","indutype":"문화.취미 - 민예·공예품","category":"other"},{"name":"잇담","tel":"","addr":"경기도 이천시 신둔면 마교리 179-1번지","indutype":"문화.취미 - 민예·공예품","category":"other"}]},{"lat":"37.304048008","long":"127.38998996","imageIndex":17,"items":[{"name":"벨카","tel":"02-6405-5545","addr":"경기도 이천시 신둔면 마교리 128-1번지","indutype":"신변잡화 - 기타잡화","category":"other"}]},{"lat":"37.303653733","long":"127.39207461","imageIndex":17,"items":[{"name":"서광윤요","tel":"031-633-5573","addr":"경기도 이천시 신둔면 마교리 117-4","indutype":"문화.취미 - 민예·공예품","category":"other"}]},{"lat":"37.304021846","long":"127.39247128","imageIndex":17,"items":[{"name":"에이에스티","tel":"031-632-0211","addr":"경기도 이천시 신둔면 마교리 134-9번지","indutype":"기타 - 기타 전문점","category":"other"}]},{"lat":"37.303436211","long":"127.38971613","imageIndex":17,"items":[{"name":"예손도자기","tel":"031-632-9910","addr":"경기도 이천시 신둔면 마교리 159번지","indutype":"문화.취미 - 민예·공예품","category":"other"}]},{"lat":"37.30352131","long":"127.38571243","imageIndex":17,"items":[{"name":"이천바스","tel":"","addr":"경기도 이천시 신둔면 마교리 226-5번지","indutype":"건축자재 - 건축용 요업제품","category":"other"}]},{"lat":"37.304100111","long":"127.39332891","imageIndex":17,"items":[{"name":"지광도요","tel":"031-637-7760","addr":"경기도 이천시 신둔면 마교리 134-1","indutype":"문화.취미 - 민예·공예품","category":"other"}]},{"lat":"37.302517815","long":"127.38951968","imageIndex":17,"items":[{"name":"타비 (TABI)","tel":"070-8031-4038","addr":"경기도 이천시 신둔면 마교리 281-1번지","indutype":"문화.취미 - 민예·공예품","category":"other"}]},{"lat":"37.30379422","long":"127.38768769","imageIndex":17,"items":[{"name":"현흥제형","tel":"031-637-5855","addr":"경기도 이천시 신둔면 마교리 178-4번지","indutype":"신변잡화 - 기타잡화","category":"other"}]},{"lat":"37.302050361","long":"127.38919019","imageIndex":7,"items":[{"name":"방가방가마트","tel":"031-637-7798","addr":"경기도 이천시 신둔면 마교리 369-23번지","indutype":"유통업 영리 - 슈퍼마켓","category":"mart"}]},{"lat":"37.302627436","long":"127.38349719","imageIndex":4,"items":[{"name":"신둔돼지","tel":"031-637-6360","addr":"경기도 이천시 신둔면 마교리 235번지","indutype":"일반휴게음식 - 일반한식","category":"restaurant"}]},{"lat":"37.302050361","long":"127.38919019","imageIndex":4,"items":[{"name":"아지매","tel":"031-637-7798","addr":"경기도 이천시 신둔면 마교리 369-23번지","indutype":"일반휴게음식 - 일반한식","category":"restaurant"}]},{"lat":"37.304432134","long":"127.38824363","imageIndex":4,"items":[{"name":"카페 마소로 (CAFFE MASORO)","tel":"031-638-6699","addr":"경기도 이천시 신둔면 마교리 181-9번지","indutype":"일반휴게음식 - 일반한식","category":"restaurant"}]}]