[{"lat":"37.004716896","long":"127.09127913","imageIndex":0,"items":[{"name":"그린썬팅멀티샵","tel":"031-656-4012","addr":"경기도 평택시 동삭동 181-14번지","indutype":"자동차정비 유지 - 자동차부품","category":"car"}]},{"lat":"37.007689654","long":"127.092305","imageIndex":0,"items":[{"name":"덱카 Decar","tel":"031-652-0000","addr":"경기도 평택시 동삭동 687-1번지 유니빌 101호","indutype":"자동차정비 유지 - 자동차부품","category":"car"}]},{"lat":"37.011491631","long":"127.09300608","imageIndex":0,"items":[{"name":"디테일링스퀘어","tel":"","addr":"경기도 평택시 동삭동 652-5번지 302호","indutype":"자동차정비 유지 - 세차장","category":"car"}]},{"lat":"37.011273253","long":"127.09575864","imageIndex":0,"items":[{"name":"상일모터스","tel":"031-652-5679","addr":"경기도 평택시 동삭동 655-8번지 101호","indutype":"서비스업 - 자동차정비","category":"car"}]},{"lat":"37.018797385","long":"127.09547563","imageIndex":0,"items":[{"name":"스피드메이트 이에스점","tel":"031-655-6720","addr":"경기도 평택시 동삭동 337-1번지","indutype":"자동차정비 유지 - 자동차정비","category":"car"}]},{"lat":"37.005185777","long":"127.0908415","imageIndex":0,"items":[{"name":"신우자동차공업사","tel":"031-666-5182","addr":"경기도 평택시 동삭동 182-7번지","indutype":"서비스업 - 자동차정비","category":"car"},{"name":"신우자동차공업사","tel":"031-652-5679","addr":"경기도 평택시 동삭동 182-7번지","indutype":"자동차정비 유지 - 자동차정비","category":"car"},{"name":"제이원모터스","tel":"031-692-3575","addr":"경기도 평택시 동삭동 182-7번지","indutype":"자동차정비 유지 - 자동차정비","category":"car"}]},{"lat":"37.007968073","long":"127.09350752","imageIndex":0,"items":[{"name":"오렌지카워시","tel":"031-657-1749","addr":"경기도 평택시 동삭동 685-9번지 101호","indutype":"자동차정비 유지 - 세차장","category":"car"}]},{"lat":"37.00666191","long":"127.09300038","imageIndex":0,"items":[{"name":"자동차꾸밈방","tel":"031-654-7743","addr":"경기도 평택시 동삭동 187-3번지","indutype":"자동차정비 유지 - 자동차부품","category":"car"}]},{"lat":"37.009021276","long":"127.09486828","imageIndex":0,"items":[{"name":"평택스파이썬팅","tel":"031-651-6222","addr":"경기도 평택시 동삭동 695-1번지 크레파스","indutype":"자동차정비 유지 - 카인테리어","category":"car"}]}]