[{"lat":"37.36253847","long":"127.3148858","imageIndex":4,"items":[{"name":"(주)백년가","tel":"031-768-1144","addr":"경기도 광주시 초월읍 산이리 13-9번지 1층","indutype":"일반휴게음식 - 중국식","category":"restaurant"}]},{"lat":"37.36173143","long":"127.313415","imageIndex":4,"items":[{"name":"개울목불막창","tel":"031-763-6861","addr":"경기도 광주시 초월읍 산이리 13-17번지","indutype":"일반휴게음식 - 일반한식","category":"restaurant"}]},{"lat":"37.36031962","long":"127.3157796","imageIndex":4,"items":[{"name":"그루와넝에시아","tel":"031-764-8413","addr":"경기도 광주시 초월읍 산이리 9-1번지 2층","indutype":"일반휴게음식 - 서양음식","category":"restaurant"},{"name":"초월반점","tel":"031-762-9956","addr":"경기도 광주시 초월읍 산이리 9-1번지","indutype":"일반휴게음식 - 중국식","category":"restaurant"}]},{"lat":"37.36103932","long":"127.31278","imageIndex":4,"items":[{"name":"까페테라스","tel":"031-761-1225","addr":"경기도 광주시 초월읍 산이리 13-22번지","indutype":"일반휴게음식 - 서양음식","category":"restaurant"}]},{"lat":"37.36159063","long":"127.3155591","imageIndex":4,"items":[{"name":"나능이버섯백숙","tel":"031-764-4711","addr":"경기도 광주시 초월읍 산이리 7-1번지","indutype":"일반휴게음식 - 일반한식","category":"restaurant"}]},{"lat":"37.36198423","long":"127.3166331","imageIndex":4,"items":[{"name":"너른골묵밥","tel":"031-762-5509","addr":"경기도 광주시 초월읍 산이리 4-2번지 1층","indutype":"일반휴게음식 - 일반한식","category":"restaurant"}]},{"lat":"37.36414454","long":"127.3105803","imageIndex":4,"items":[{"name":"단미(Danmmi)","tel":"031-766-9987","addr":"경기도 광주시 초월읍 산이리 94-1번지 1층","indutype":"일반휴게음식 - 서양음식","category":"restaurant"},{"name":"떡뽁이가족곤지암점","tel":"02-1577-0000","addr":"경기도 광주시 초월읍 산이리 94-1번지 1층","indutype":"일반휴게음식 - 스넥","category":"restaurant"},{"name":"신통치킨 초월점","tel":"031-761-9242","addr":"경기도 광주시 초월읍 산이리 94-1번지 1층 101호","indutype":"일반휴게음식 - 스넥","category":"restaurant"},{"name":"용포차","tel":"070-7768-7460","addr":"경기도 광주시 초월읍 산이리 94-1번지 103호","indutype":"일반휴게음식 - 주점","category":"restaurant"}]},{"lat":"37.36439733","long":"127.3138324","imageIndex":4,"items":[{"name":"닭익는마을","tel":"031-764-4805","addr":"경기도 광주시 초월읍 산이리 79-1번지","indutype":"일반휴게음식 - 일반한식","category":"restaurant"}]},{"lat":"37.36375732","long":"127.3139426","imageIndex":4,"items":[{"name":"돌쇠네흑염소강원도양양막국수","tel":"031-768-6633","addr":"경기도 광주시 초월읍 산이리 80-4번지","indutype":"일반휴게음식 - 일반한식","category":"restaurant"}]},{"lat":"37.36048371","long":"127.3150579","imageIndex":4,"items":[{"name":"먹쇄뒷고기","tel":"031-769-2103","addr":"경기도 광주시 초월읍 산이리 17-19번지","indutype":"일반휴게음식 - 일반한식","category":"restaurant"}]},{"lat":"37.36181603","long":"127.3155036","imageIndex":4,"items":[{"name":"명륜진사갈비 광주초월점","tel":"031-9152-9719","addr":"경기도 광주시 초월읍 산이리 7-6번지 2층","indutype":"일반휴게음식 - 일반한식","category":"restaurant"}]},{"lat":"37.36248185","long":"127.3158563","imageIndex":4,"items":[{"name":"무진장","tel":"031-797-3636","addr":"경기도 광주시 초월읍 산이리 6-4번지 정원그린맨션 101호","indutype":"일반휴게음식 - 중국식","category":"restaurant"}]},{"lat":"37.36067191","long":"127.3154424","imageIndex":4,"items":[{"name":"미소포장마차","tel":"031-767-0783","addr":"경기도 광주시 초월읍 산이리 17-2번지","indutype":"일반휴게음식 - 일반한식","category":"restaurant"}]},{"lat":"37.36026152","long":"127.3173032","imageIndex":4,"items":[{"name":"버섯마루","tel":"070-4522-5233","addr":"경기도 광주시 초월읍 산이리 2-2번지 1층","indutype":"일반휴게음식 - 일반한식","category":"restaurant"}]},{"lat":"37.36303557","long":"127.310858","imageIndex":4,"items":[{"name":"본스치킨 산이리점","tel":"031-798-2929","addr":"경기도 광주시 초월읍 산이리 433번지 2층 201,202호","indutype":"일반휴게음식 - 스넥","category":"restaurant"},{"name":"행복김밥","tel":"070-8814-8014","addr":"경기도 광주시 초월읍 산이리 433번지 벽산블루밍아파트 상가동 104호","indutype":"일반휴게음식 - 스넥","category":"restaurant"}]},{"lat":"37.35781541","long":"127.3155548","imageIndex":4,"items":[{"name":"불레스유(BLECC U)","tel":"031-762-7906","addr":"경기도 광주시 초월읍 산이리 33번지 1호","indutype":"일반휴게음식 - 서양음식","category":"restaurant"}]},{"lat":"37.3640665","long":"127.3128602","imageIndex":4,"items":[{"name":"브로떼","tel":"031-763-3678","addr":"경기도 광주시 초월읍 산이리 92-12번지 1층","indutype":"일반휴게음식 - 서양음식","category":"restaurant"},{"name":"샤를롯데 키즈카페","tel":"031-769-1236","addr":"경기도 광주시 초월읍 산이리 92-12번지 4층","indutype":"일반휴게음식 - 서양음식","category":"restaurant"}]},{"lat":"37.36131798","long":"127.3130295","imageIndex":4,"items":[{"name":"뽕뜨락피자(초월점)","tel":"031-763-7175","addr":"경기도 광주시 초월읍 산이리 13-21번지 6호","indutype":"일반휴게음식 - 서양음식","category":"restaurant"},{"name":"왕십리곱창","tel":"031-7762-3351","addr":"경기도 광주시 초월읍 산이리 13-21번지","indutype":"일반휴게음식 - 일반한식","category":"restaurant"}]},{"lat":"37.35858991","long":"127.3156934","imageIndex":4,"items":[{"name":"산이리한식부페","tel":"031-766-7689","addr":"경기도 광주시 초월읍 산이리 31번지","indutype":"일반휴게음식 - 일반한식","category":"restaurant"}]},{"lat":"37.36209228","long":"127.3132472","imageIndex":4,"items":[{"name":"산정화로숯불장어","tel":"031-763-5427","addr":"경기도 광주시 초월읍 산이리 13-25","indutype":"일반휴게음식 - 일반한식","category":"restaurant"}]},{"lat":"37.36195638","long":"127.3135288","imageIndex":4,"items":[{"name":"안심치킨","tel":"031-111-1111","addr":"경기도 광주시 초월읍 산이리 13-15번지","indutype":"일반휴게음식 - 스넥","category":"restaurant"}]},{"lat":"37.3638965","long":"127.3089425","imageIndex":4,"items":[{"name":"옛골주점","tel":"031-769-2011","addr":"경기도 광주시 초월읍 산이리 432번지 산이리대주파크빌","indutype":"일반휴게음식 - 일반한식","category":"restaurant"}]},{"lat":"37.36045118","long":"127.3171347","imageIndex":4,"items":[{"name":"오향루 곤지암점","tel":"`031-761-9565","addr":"경기도 광주시 초월읍 산이리 2-1번지","indutype":"일반휴게음식 - 중국식","category":"restaurant"}]},{"lat":"37.3638406","long":"127.3131076","imageIndex":4,"items":[{"name":"우명가","tel":"031-767-2590","addr":"경기도 광주시 초월읍 산이리 79-15번지","indutype":"일반휴게음식 - 일반한식","category":"restaurant"}]},{"lat":"37.36322943","long":"127.3125294","imageIndex":4,"items":[{"name":"이디야커피 광주점","tel":"031-763-8736","addr":"경기도 광주시 초월읍 산이리 77-6번지 지하1층","indutype":"일반휴게음식 - 서양음식","category":"restaurant"}]},{"lat":"37.36089421","long":"127.3131406","imageIndex":4,"items":[{"name":"장수칼국수","tel":"031-764-4530","addr":"경기도 광주시 초월읍 산이리 13-40(초월읍)","indutype":"일반휴게음식 - 일반한식","category":"restaurant"}]},{"lat":"37.36323209","long":"127.3149451","imageIndex":4,"items":[{"name":"초월상회","tel":"031-762-6389","addr":"경기도 광주시 초월읍 산이리 80-5번지","indutype":"일반휴게음식 - 일반한식","category":"restaurant"}]},{"lat":"37.36266381","long":"127.3117595","imageIndex":4,"items":[{"name":"해피펄스","tel":"031-765-5058","addr":"경기도 광주시 초월읍 산이리 139-49번지 까사펠리스 A동 1층 01호","indutype":"일반휴게음식 - 서양음식","category":"restaurant"}]},{"lat":"37.36076231","long":"127.3153299","imageIndex":4,"items":[{"name":"홍정훈한양쇠고기국밥","tel":"031-761-0177","addr":"경기도 광주시 초월읍 산이리 11-3번지 1층","indutype":"일반휴게음식 - 일반한식","category":"restaurant"}]},{"lat":"37.36014757","long":"127.3161062","imageIndex":4,"items":[{"name":"화랑포차식당","tel":"031-765-3140","addr":"경기도 광주시 초월읍 산이리 8-9번지 지층","indutype":"일반휴게음식 - 일반한식","category":"restaurant"}]},{"lat":"37.36428876","long":"127.3140012","imageIndex":4,"items":[{"name":"황소고집","tel":"031-762-1089","addr":"경기도 광주시 초월읍 산이리 79-12번지","indutype":"일반휴게음식 - 일반한식","category":"restaurant"}]},{"lat":"37.3626517","long":"127.3129447","imageIndex":17,"items":[{"name":"(주)해원수산 광주지점","tel":"031-0000-0000","addr":"경기도 광주시 초월읍 산이리 78-4번지 2층 201호,202호","indutype":"용역 서비스 - 부동산 중개·임대","category":"other"},{"name":"굿데이초월","tel":"031-761-1755","addr":"경기도 광주시 초월읍 산이리 78-4번지 1층 110호","indutype":"유통업 영리 - 편 의 점","category":"other"}]},{"lat":"37.36067281","long":"127.3081957","imageIndex":17,"items":[{"name":"F. G.O","tel":"031-797-1621","addr":"경기도 광주시 초월읍 산이리 175-7번지","indutype":"의류 - 정장","category":"other"}]},{"lat":"37.36014757","long":"127.3161062","imageIndex":17,"items":[{"name":"GS25광주삼리점","tel":"","addr":"경기도 광주시 초월읍 산이리 8-9번지","indutype":"유통업 영리 - 편 의 점","category":"other"}]},{"lat":"37.3640665","long":"127.3128602","imageIndex":17,"items":[{"name":"GS25초월산이점","tel":"","addr":"경기도 광주시 초월읍 산이리 92-12번지","indutype":"유통업 영리 - 상품권전문판매","category":"other"},{"name":"GS25초월산이점","tel":"","addr":"경기도 광주시 초월읍 산이리 92-12번지","indutype":"유통업 영리 - 편 의 점","category":"other"},{"name":"성음스텐레스","tel":"031-797-1323","addr":"경기도 광주시 초월읍 산이리 92-12번지","indutype":"건축자재 - 기타건축자재","category":"other"},{"name":"이앤택스컨설팅","tel":"031-763-0010","addr":"경기도 광주시 초월읍 산이리 92-12번지 유석빌딩 2층 207호","indutype":"용역 서비스 - 법률회계서비스(개인)","category":"other"}]},{"lat":"37.36450808","long":"127.3128282","imageIndex":17,"items":[{"name":"J&B design Sm가구타운","tel":"031-797-1116","addr":"경기도 광주시 초월읍 산이리 91번지","indutype":"가구 - 일반가구","category":"other"},{"name":"에코퍼스트","tel":"031-761-3096","addr":"경기도 광주시 초월읍 산이리 91번지 트윈키즈","indutype":"레져용품 - 스포츠·레져용품","category":"other"}]},{"lat":"37.36420392","long":"127.308526","imageIndex":17,"items":[{"name":"J&P 스포츠","tel":"070-7604-4996","addr":"경기도 광주시 초월읍 산이리 432번지 산이리대주파크빌","indutype":"레져용품 - 스포츠·레져용품","category":"other"}]},{"lat":"37.36420295","long":"127.3123641","imageIndex":17,"items":[{"name":"J스크린골프","tel":"031-766-1383","addr":"경기도 광주시 초월읍 산이리 92-18번지","indutype":"레져용품 - 골프용품 전문점","category":"other"}]},{"lat":"37.3609247","long":"127.3152516","imageIndex":17,"items":[{"name":"WAIN MAM","tel":"031-761-3096","addr":"경기도 광주시 초월읍 산이리 11-4","indutype":"레져용품 - 스포츠·레져용품","category":"other"}]},{"lat":"37.36373594","long":"127.3117865","imageIndex":17,"items":[{"name":"경기교육사","tel":"","addr":"경기도 광주시 초월읍 산이리 433번지 광주산이리벽산블루밍 102동 101호","indutype":"서적문구 - 기타서적문구","category":"other"}]},{"lat":"37.36337722","long":"127.3111416","imageIndex":17,"items":[{"name":"노스폴코리아(주)","tel":"033-434-5658","addr":"경기도 광주시 초월읍 산이리 433번지 광주산이리벽산블루밍","indutype":"레져용품 - 스포츠·레져용품","category":"other"},{"name":"노스폴코리아(주)/신세계구매","tel":"031-769-7221","addr":"경기도 광주시 초월읍 산이리 433번지 광주산이리벽산블루밍","indutype":"기타 - 기타 전문점","category":"other"},{"name":"하이캠프","tel":"031-798-3220","addr":"경기도 광주시 초월읍 산이리 433","indutype":"회원제형태 - 기타4","category":"other"}]},{"lat":"37.36345128","long":"127.3138285","imageIndex":17,"items":[{"name":"다나가구","tel":"031-761-1352","addr":"경기도 광주시 초월읍 산이리 79-6번지 1층","indutype":"가구 - 일반가구","category":"other"}]},{"lat":"37.35953922","long":"127.3110243","imageIndex":17,"items":[{"name":"다인도요","tel":"031-797-2390","addr":"경기도 광주시 초월읍 산이리 65-21번지","indutype":"문화.취미 - 민예·공예품","category":"other"}]},{"lat":"37.3638965","long":"127.3089425","imageIndex":17,"items":[{"name":"대주진","tel":"031-763-9185","addr":"경기도 광주시 초월읍 산이리 432번지 산이리대주파크빌 1층 103호 상가","indutype":"직물 - 카페트,커튼,천막,지물","category":"other"}]},{"lat":"37.3575725","long":"127.311987","imageIndex":17,"items":[{"name":"동양이엔지","tel":"031-792-5126","addr":"경기도 광주시 초월읍 산이리 46-5번지 조은맨션 A동 201호","indutype":"용역 서비스 - 기타용역서비스","category":"other"}]},{"lat":"37.35681851","long":"127.310889","imageIndex":17,"items":[{"name":"리꼬","tel":"070-3658-0984","addr":"경기도 광주시 초월읍 산이리 57-5번지 포레스트힐 107동 102호","indutype":"의류 - 내의판매","category":"other"}]},{"lat":"37.36450725","long":"127.3131442","imageIndex":17,"items":[{"name":"리싸이클씨티 광주점","tel":"031-767-7288","addr":"경기도 광주시 초월읍 산이리 91-1번지","indutype":"신변잡화 - 기타잡화","category":"other"}]},{"lat":"37.36195419","long":"127.3143641","imageIndex":17,"items":[{"name":"마모트곤지암점","tel":"031-764-4612","addr":"경기도 광주시 초월읍 산이리 13-24번지","indutype":"레져용품 - 스포츠·레져용품","category":"other"},{"name":"주식히사에이모션(초월점)","tel":"031-764-4800","addr":"경기도 광주시 초월읍 산이리 13-24번지 5호","indutype":"레져용품 - 스포츠·레져용품","category":"other"}]},{"lat":"37.36506188","long":"127.3112275","imageIndex":17,"items":[{"name":"모바일박스","tel":"070-5017-8165","addr":"경기도 광주시 초월읍 산이리 95-38번지 1층 일부","indutype":"사무통신 - 통신기기","category":"other"},{"name":"스타일","tel":"","addr":"경기도 광주시 초월읍 산이리 95-38번지 초월농협하나로마트 1층","indutype":"신변잡화 - 가방","category":"other"}]},{"lat":"37.36048219","long":"127.3156336","imageIndex":17,"items":[{"name":"미니스톱광주삼리타운점","tel":"031-1577-9621","addr":"경기도 광주시 초월읍 산이리 10-1번지","indutype":"유통업 영리 - 편 의 점","category":"other"},{"name":"호남톱공구/디자인크래프트무브먼트(DESIGN","tel":"031-798-0797","addr":"경기도 광주시 초월읍 산이리 10-1번지 산이리10-3(103호)","indutype":"기타 - 기계공구","category":"other"}]},{"lat":"37.35970109","long":"127.3145806","imageIndex":17,"items":[{"name":"별난마켓","tel":"","addr":"경기도 광주시 초월읍 산이리 19-15번지 더프라임 204동 4층 2호","indutype":"의류 - 정장","category":"other"}]},{"lat":"37.36473224","long":"127.3132468","imageIndex":17,"items":[{"name":"복합문화공간 NORITER","tel":"031-797-4466","addr":"경기도 광주시 초월읍 산이리 91-4번지","indutype":"문화.취미 - 문화취미기타","category":"other"}]},{"lat":"37.36078375","long":"127.3140319","imageIndex":17,"items":[{"name":"삼정냉동공조","tel":"","addr":"경기도 광주시 초월읍 산이리 14-7번지 베스트하임 201동 501호","indutype":"수리서비스 - 기타수리서비스","category":"other"}]},{"lat":"37.36004771","long":"127.3129678","imageIndex":17,"items":[{"name":"샘물 남강동 가맹점","tel":"031-764-7855","addr":"경기도 광주시 초월읍 산이리 18-1번지 코아루햇빛마을아파트","indutype":"유통업 영리 - 기타유통업","category":"other"},{"name":"이동자판","tel":"","addr":"경기도 광주시 초월읍 산이리 18-1번지 코아루햇빛마을아파트","indutype":"신변잡화 - 기타잡화","category":"other"},{"name":"핸디가이","tel":"070-4829-7797","addr":"경기도 광주시 초월읍 산이리 18-1번지 코아루햇빛마을아파트","indutype":"용역 서비스 - 종합용역","category":"other"}]},{"lat":"37.36036768","long":"127.3146398","imageIndex":17,"items":[{"name":"씨유광주산이타운점","tel":"080-080-3663","addr":"경기도 광주시 초월읍 산이리 17-13번지 1층","indutype":"유통업 영리 - 편 의 점","category":"other"}]},{"lat":"37.36322943","long":"127.3125294","imageIndex":17,"items":[{"name":"씨유모다아울렛곤지암점","tel":"031-761-5937","addr":"경기도 광주시 초월읍 산이리 77-6번지 1층","indutype":"유통업 영리 - 편 의 점","category":"other"}]},{"lat":"37.36382","long":"127.3106467","imageIndex":17,"items":[{"name":"씨유초월산이점","tel":"080-080-3663","addr":"경기도 광주시 초월읍 산이리 432번지 산이리대주파크빌 116동 101호 상가동","indutype":"유통업 영리 - 편 의 점","category":"other"}]},{"lat":"37.3627751","long":"127.3105408","imageIndex":17,"items":[{"name":"어반링","tel":"031-763-0946","addr":"경기도 광주시 초월읍 산이리 433번지 광주산이리벽산블루밍 106동 301호","indutype":"신변잡화 - 액세서리","category":"other"}]},{"lat":"37.36126103","long":"127.3175332","imageIndex":17,"items":[{"name":"에바다산업","tel":"031-767-7270","addr":"경기도 광주시 초월읍 산이리 6-2번지 외1필지","indutype":"건축자재 - 기타건축자재","category":"other"}]},{"lat":"37.36100698","long":"127.3148004","imageIndex":17,"items":[{"name":"이즈창호","tel":"031-761-7906","addr":"경기도 광주시 초월읍 산이리 17-36번지","indutype":"건축자재 - 기타건축자재","category":"other"}]},{"lat":"37.36178965","long":"127.3083582","imageIndex":17,"items":[{"name":"재경테크","tel":"031-761-1566","addr":"경기도 광주시 초월읍 산이리 162-2번지","indutype":"주방용구 - 주방용구","category":"other"}]},{"lat":"37.36112336","long":"127.3150831","imageIndex":17,"items":[{"name":"조은이불","tel":"031-761-4416","addr":"경기도 광주시 초월읍 산이리 17-12번지 지하층","indutype":"직물 - 침구·수예점","category":"other"},{"name":"진우종합상사","tel":"031-798-5144","addr":"경기도 광주시 초월읍 산이리 17-12번지 심원빌딩 1층 1호","indutype":"기타 - 기계공구","category":"other"}]},{"lat":"37.36086676","long":"127.3063565","imageIndex":17,"items":[{"name":"주식회사 오성폼","tel":"031-762-2577","addr":"경기도 광주시 초월읍 산이리 168-2번지","indutype":"유통업 영리 - 기타유통업","category":"other"}]},{"lat":"37.36703401","long":"127.3116419","imageIndex":17,"items":[{"name":"주식회사 위더스요양원","tel":"031-798-5800","addr":"경기도 광주시 초월읍 산이리 109번지","indutype":"기타의료기관 - 기타의료기관 및 기타","category":"other"}]},{"lat":"37.36667158","long":"127.3124194","imageIndex":17,"items":[{"name":"진성","tel":"","addr":"경기도 광주시 초월읍 산이리 109-3번지 101호","indutype":"신변잡화 - 기타잡화","category":"other"}]},{"lat":"37.36479049","long":"127.311644","imageIndex":17,"items":[{"name":"초월농업협동조합 하나로마트","tel":"031-798-4983","addr":"경기도 광주시 초월읍 산이리 95-36","indutype":"유통업 비영리 - 농,축협 직영매장","category":"other"}]},{"lat":"37.36023057","long":"127.3153842","imageIndex":17,"items":[{"name":"컴앤프린터","tel":"031-769-0093","addr":"경기도 광주시 초월읍 산이리 9-3번지 골든빌4차 1층 상가 101호","indutype":"수리서비스 - 사무·통신기기수리","category":"other"}]},{"lat":"37.36303557","long":"127.310858","imageIndex":17,"items":[{"name":"크린토피아 초월벽산점","tel":"031-797-6543","addr":"경기도 광주시 초월읍 산이리 433번지 광주산이리벽산블루밍 제상가동 206호","indutype":"수리서비스 - 세탁소","category":"other"}]},{"lat":"37.36131308","long":"127.314892","imageIndex":17,"items":[{"name":"토탈샵","tel":"031-767-1503","addr":"경기도 광주시 초월읍 산이리 17-64번지","indutype":"건축자재 - 기타건축자재","category":"other"}]},{"lat":"37.35998236","long":"127.3138367","imageIndex":17,"items":[{"name":"티피코교육","tel":"031-000-0000","addr":"경기도 광주시 초월읍 산이리 19-3번지 더프라임 106동 102호","indutype":"용역 서비스 - 종합용역","category":"other"}]},{"lat":"37.3644187","long":"127.3090913","imageIndex":17,"items":[{"name":"파트너에듀","tel":"031-797-3409","addr":"경기도 광주시 초월읍 산이리 432번지 산이리대주파크빌","indutype":"서적문구 - 일반서적","category":"other"}]},{"lat":"37.36086762","long":"127.3163914","imageIndex":17,"items":[{"name":"팔도유로폼","tel":"031-798-6012","addr":"경기도 광주시 초월읍 산이리 3-3번지","indutype":"건축자재 - 기타건축자재","category":"other"}]},{"lat":"37.35858991","long":"127.3156934","imageIndex":17,"items":[{"name":"평강요양원","tel":"031-766-7611","addr":"경기도 광주시 초월읍 산이리 31번지 3층","indutype":"기타의료기관 - 기타의료기관 및 기타","category":"other"}]},{"lat":"37.35851028","long":"127.31514","imageIndex":17,"items":[{"name":"풀잎","tel":"031-769-7503","addr":"경기도 광주시 초월읍 산이리 31-1 6/","indutype":"회원제형태 - 기타1","category":"other"}]},{"lat":"37.36067191","long":"127.3154424","imageIndex":17,"items":[{"name":"피부미인스킨케어","tel":"031-762-4926","addr":"경기도 광주시 초월읍 산이리 17-2","indutype":"회원제형태 - 기타4","category":"other"}]},{"lat":"37.35862167","long":"127.3069683","imageIndex":17,"items":[{"name":"한마음","tel":"031-797-4408","addr":"경기도 광주시 초월읍 산이리 189-1번지","indutype":"주방용구 - 주방용구","category":"other"}]},{"lat":"37.36384602","long":"127.3144735","imageIndex":17,"items":[{"name":"혜성기계","tel":"031-798-3416","addr":"경기도 광주시 초월읍 산이리 80-9번지","indutype":"주방용구 - 주방용구","category":"other"}]},{"lat":"37.36175707","long":"127.3139456","imageIndex":5,"items":[{"name":"Will모텔","tel":"031-766-6622","addr":"경기도 광주시 초월읍 산이리 13-29번지","indutype":"숙박업 - 여관/기타숙박업","category":"hotel"},{"name":"윌(Will)무인텔","tel":"031-766-6622","addr":"경기도 광주시 초월읍 산이리 13-29번지","indutype":"숙박업 - 여관/기타숙박업","category":"hotel"}]},{"lat":"37.3595163","long":"127.3128979","imageIndex":7,"items":[{"name":"가인","tel":"031-764-0305","addr":"경기도 광주시 초월읍 산이리 18-1번지 코아루햇빛마을아파트","indutype":"음료식품 - 농·축·수산품","category":"food"}]},{"lat":"37.3638406","long":"127.3131076","imageIndex":7,"items":[{"name":"곤지암 축산","tel":"031-767-2590","addr":"경기도 광주시 초월읍 산이리 79-15번지","indutype":"음료식품 - 정육점","category":"food"}]},{"lat":"37.36081812","long":"127.3146642","imageIndex":7,"items":[{"name":"광주유통","tel":"","addr":"경기도 광주시 초월읍 산이리 14-23번지 베스트하임 303동 102호","indutype":"음료식품 - 농·축·수산품","category":"food"}]},{"lat":"37.36429001","long":"127.3135271","imageIndex":7,"items":[{"name":"다농마트","tel":"031-798-4300","addr":"경기도 광주시 초월읍 산이리 79-17번지","indutype":"음료식품 - 정육점","category":"food"}]},{"lat":"37.35953596","long":"127.3156974","imageIndex":7,"items":[{"name":"로즈카카오 주식회사","tel":"070-4640-0816","addr":"경기도 광주시 초월읍 산이리 27번지 2층","indutype":"음료식품 - 기타음료식품","category":"food"}]},{"lat":"37.36420295","long":"127.3123641","imageIndex":7,"items":[{"name":"아리수","tel":"031-766-1384","addr":"경기도 광주시 초월읍 산이리 92-18번지","indutype":"음료식품 - 기타음료식품","category":"food"}]},{"lat":"37.36040218","long":"127.3117954","imageIndex":7,"items":[{"name":"예림 농산물","tel":"031-791-6883","addr":"경기도 광주시 초월읍 산이리 70-2번지 이천빌라","indutype":"음료식품 - 농·축·수산품","category":"food"}]},{"lat":"37.36265125","long":"127.313114","imageIndex":7,"items":[{"name":"주식회사 해도수산 광주지점","tel":"031-0000-0000","addr":"경기도 광주시 초월읍 산이리 78-14번지 101호,102호","indutype":"음료식품 - 농·축·수산품","category":"food"}]},{"lat":"37.35889797","long":"127.3116086","imageIndex":7,"items":[{"name":"초월식품","tel":"031-763-8623","addr":"경기도 광주시 초월읍 산이리 67번지","indutype":"음료식품 - 기타음료식품","category":"food"}]},{"lat":"37.36004771","long":"127.3129678","imageIndex":7,"items":[{"name":"커피뱅크2","tel":"031-000-0000","addr":"경기도 광주시 초월읍 산이리 18-1번지 코아루햇빛마을아파트","indutype":"음료식품 - 기타음료식품","category":"food"}]},{"lat":"37.36506188","long":"127.3112275","imageIndex":7,"items":[{"name":"파리바게트 초월농협하나로마트","tel":"031-797-8293","addr":"경기도 광주시 초월읍 산이리 95-38번지 초월농협하나로마트 1층","indutype":"음료식품 - 제과점","category":"food"}]},{"lat":"37.36112336","long":"127.3150831","imageIndex":13,"items":[{"name":"경충당구클럽","tel":"02-000-0000","addr":"경기도 광주시 초월읍 산이리 17-12번지 심원빌딩 2층","indutype":"레저업소 - 당 구 장","category":"leisure"}]},{"lat":"37.36045118","long":"127.3171347","imageIndex":13,"items":[{"name":"에스엠 (SM)스크린골프","tel":"031-769-9619","addr":"경기도 광주시 초월읍 산이리 2-1번지 2층","indutype":"레저업소 - 스크린골프","category":"leisure"}]},{"lat":"37.3640665","long":"127.3128602","imageIndex":13,"items":[{"name":"와이낫짐(WHY NOT GYM)","tel":"031-761-7971","addr":"경기도 광주시 초월읍 산이리 92-12번지","indutype":"레저업소 - 헬스클럽","category":"leisure"}]},{"lat":"37.36159063","long":"127.3155591","imageIndex":13,"items":[{"name":"투혼복싱다이어트클럽","tel":"031-762-8414","addr":"경기도 광주시 초월읍 산이리 7-1번지","indutype":"레저업소 - 헬스클럽","category":"leisure"}]},{"lat":"37.36345128","long":"127.3138285","imageIndex":8,"items":[{"name":"경희동의보감한의원","tel":"031-763-7589","addr":"경기도 광주시 초월읍 산이리 79-6번지 301호","indutype":"의원 - 한의원","category":"medical"},{"name":"광주샘치과의원","tel":"031-769-6500","addr":"경기도 광주시 초월읍 산이리 79-6번지","indutype":"의원 - 치과의원","category":"medical"},{"name":"김대일 소아청소년과의원","tel":"031-762-4501","addr":"경기도 광주시 초월읍 산이리 79-6번지","indutype":"의원 - 의원","category":"medical"},{"name":"새싹약국","tel":"031-769-2801","addr":"경기도 광주시 초월읍 산이리 79-6번지 2층 202호","indutype":"약국 - 약국","category":"medical"},{"name":"아름다운온누리약국","tel":"031-763-1516","addr":"경기도 광주시 초월읍 산이리 79-6번지 1층","indutype":"약국 - 약국","category":"medical"},{"name":"지인내과의원","tel":"031-762-8273","addr":"경기도 광주시 초월읍 산이리 79-6번지 2층","indutype":"의원 - 의원","category":"medical"}]},{"lat":"37.36076231","long":"127.3153299","imageIndex":8,"items":[{"name":"지인의원","tel":"031-762-8275","addr":"경기도 광주시 초월읍 산이리 11-3번지 2층","indutype":"의원 - 의원","category":"medical"},{"name":"초월한의원","tel":"031-797-7511","addr":"경기도 광주시 초월읍 산이리 11-3번지","indutype":"의원 - 한의원","category":"medical"}]},{"lat":"37.36506188","long":"127.3112275","imageIndex":8,"items":[{"name":"한빛약국","tel":"031-762-0039","addr":"경기도 광주시 초월읍 산이리 95-38번지","indutype":"약국 - 약국","category":"medical"}]},{"lat":"37.36131075","long":"127.3157724","imageIndex":13,"items":[{"name":"나이스","tel":"031-762-9646","addr":"경기도 광주시 초월읍 산이리 7-8번지","indutype":"보건위생 - 피부미용실","category":"beauty"}]},{"lat":"37.36036768","long":"127.3146398","imageIndex":13,"items":[{"name":"너의예쁨에스테틱","tel":"031-767-9772","addr":"경기도 광주시 초월읍 산이리 17-13번지 3층 301호","indutype":"보건위생 - 피부미용실","category":"beauty"}]},{"lat":"37.36014757","long":"127.3161062","imageIndex":13,"items":[{"name":"네일 Haja","tel":"031-000-0000","addr":"경기도 광주시 초월읍 산이리 8-9번지 2층","indutype":"보건위생 - 피부미용실","category":"beauty"}]},{"lat":"37.3638965","long":"127.3089425","imageIndex":13,"items":[{"name":"뉴스타헤어타운","tel":"02-1111-1111","addr":"경기도 광주시 초월읍 산이리 432번지 산이리대주파크빌 203-1호","indutype":"보건위생 - 미용원","category":"beauty"}]},{"lat":"37.36248408","long":"127.3115781","imageIndex":13,"items":[{"name":"마리뷰티라인","tel":"070-4219-0063","addr":"경기도 광주시 초월읍 산이리 139-50번지 까사펠리스 제아이동 1층 1호","indutype":"보건위생 - 미용재료","category":"beauty"}]},{"lat":"37.36131798","long":"127.3130295","imageIndex":13,"items":[{"name":"메디파크","tel":"031-743-9437","addr":"경기도 광주시 초월읍 산이리 13-21번지","indutype":"보건위생 - 의료용품","category":"beauty"},{"name":"우노헤어","tel":"031-798-3698","addr":"경기도 광주시 초월읍 산이리 13-21번지 1층","indutype":"보건위생 - 미용원","category":"beauty"}]},{"lat":"37.36045118","long":"127.3171347","imageIndex":13,"items":[{"name":"에프앤씨","tel":"031-797-1701","addr":"경기도 광주시 초월읍 산이리 2-1","indutype":"보건위생 - 화장품","category":"beauty"}]},{"lat":"37.36223439","long":"127.3140266","imageIndex":13,"items":[{"name":"오휘화장품","tel":"031-798-5242","addr":"경기도 광주시 초월읍 산이리 13-2번지 한일빌딩 2층","indutype":"보건위생 - 화장품","category":"beauty"}]},{"lat":"37.36414454","long":"127.3105803","imageIndex":13,"items":[{"name":"원헤어(One hair)","tel":"031-769-2932","addr":"경기도 광주시 초월읍 산이리 94-1번지 상상초월아트 1층 4호","indutype":"보건위생 - 미용원","category":"beauty"}]},{"lat":"37.3640665","long":"127.3128602","imageIndex":13,"items":[{"name":"지은스킨 앤 바디","tel":"031-797-9219","addr":"경기도 광주시 초월읍 산이리 92-12번지 2층","indutype":"보건위생 - 피부미용실","category":"beauty"}]},{"lat":"37.36265125","long":"127.313114","imageIndex":13,"items":[{"name":"헤어리더","tel":"031-761-1568","addr":"경기도 광주시 초월읍 산이리 78-14번지","indutype":"보건위생 - 미용원","category":"beauty"}]},{"lat":"37.36131075","long":"127.3157724","imageIndex":0,"items":[{"name":"디씨 (D.C)타이어 토탈정비","tel":"031-762-9007","addr":"경기도 광주시 초월읍 산이리 7-8번지 1층","indutype":"자동차정비 유지 - 자동차시트·타이어","category":"car"},{"name":"현대자동차초월점","tel":"031-762-9008","addr":"경기도 광주시 초월읍 산이리 7-8번지","indutype":"자동차정비 유지 - 자동차정비","category":"car"}]},{"lat":"37.36156625","long":"127.3145544","imageIndex":0,"items":[{"name":"명가 타이어","tel":"031-764-1186","addr":"경기도 광주시 초월읍 산이리 13-14번지","indutype":"자동차정비 유지 - 자동차시트·타이어","category":"car"}]},{"lat":"37.36383971","long":"127.3134463","imageIndex":0,"items":[{"name":"서연카자동차정비","tel":"031-767-6585","addr":"경기도 광주시 초월읍 산이리 79-14번지","indutype":"자동차정비 유지 - 자동차정비","category":"car"}]},{"lat":"37.36228892","long":"127.3069154","imageIndex":0,"items":[{"name":"엠제이씨 매니지먼트","tel":"","addr":"경기도 광주시 초월읍 산이리 156-11번지 그린홈타운 202동 402호","indutype":"자동차정비 유지 - 세차장","category":"car"}]},{"lat":"37.3606776","long":"127.3166954","imageIndex":0,"items":[{"name":"워시존 곤지암점","tel":"","addr":"경기도 광주시 초월읍 산이리 3-2번지","indutype":"자동차정비 유지 - 세차장","category":"car"}]},{"lat":"37.36420295","long":"127.3123641","imageIndex":0,"items":[{"name":"투링모터스","tel":"031-768-1222","addr":"경기도 광주시 초월읍 산이리 92-18번지 1층","indutype":"자동차판매 - 이륜차판매","category":"car"}]},{"lat":"37.35898656","long":"127.3156161","imageIndex":0,"items":[{"name":"현대스마일모터카","tel":"031-763-0061","addr":"경기도 광주시 초월읍 산이리 29-2번지 현대스마일모터카","indutype":"자동차정비 유지 - 자동차부품","category":"car"}]},{"lat":"37.3609266","long":"127.3145292","imageIndex":16,"items":[{"name":"뮤직아이 하남지사","tel":"","addr":"경기도 광주시 초월읍 산이리 14-22번지 베스트하임 302동 102호","indutype":"학원 - 기타 교육기관","category":"study"}]},{"lat":"37.3575725","long":"127.311987","imageIndex":16,"items":[{"name":"엘리트홈스쿨","tel":"070-8688-0550","addr":"경기도 광주시 초월읍 산이리 46-5번지 조은맨션 A동 202호","indutype":"학원 - 보습학원","category":"study"}]},{"lat":"37.3638965","long":"127.3089425","imageIndex":16,"items":[{"name":"용인대 금메달 태권도장","tel":"031-763-0900","addr":"경기도 광주시 초월읍 산이리 432번지 산이리대주파크빌 2층 상가","indutype":"학원 - 예·체능계학원","category":"study"}]},{"lat":"37.36303557","long":"127.310858","imageIndex":16,"items":[{"name":"책읽는미술","tel":"031-797-3694","addr":"경기도 광주시 초월읍 산이리 433번지 초월벽산블루밍 205호","indutype":"학원 - 예·체능계학원","category":"study"}]},{"lat":"37.36371735","long":"127.3085354","imageIndex":16,"items":[{"name":"한우리독서논술대주홈클럽","tel":"","addr":"경기도 광주시 초월읍 산이리 432번지 산이리대주파크빌","indutype":"학원 - 기타 교육기관","category":"study"}]},{"lat":"37.35814872","long":"127.3155787","imageIndex":9,"items":[{"name":"진흥석유","tel":"031-711-6058","addr":"경기도 광주시 초월읍 산이리 32번지","indutype":"연료판매점 - 유류판매","category":"oil"}]}]