[{"lat":"37.341695997","long":"126.86526117","imageIndex":4,"items":[{"name":"(주)태원에이티에스","tel":"031-411-6456","addr":"경기도 안산시 상록구 부곡동 81-13번지 2층","indutype":"일반휴게음식 - 서양음식","category":"restaurant"},{"name":"이비가짬뽕안산부곡점","tel":"031-439-6577","addr":"경기도 안산시 상록구 부곡동 81-13번지","indutype":"일반휴게음식 - 중국식","category":"restaurant"}]},{"lat":"37.326480534","long":"126.85996347","imageIndex":4,"items":[{"name":"24시옛날집","tel":"031-480-9502","addr":"경기도 안산시 상록구 부곡동 613-10번지 1층","indutype":"일반휴게음식 - 일반한식","category":"restaurant"}]},{"lat":"37.332142772","long":"126.86317985","imageIndex":4,"items":[{"name":"7080민속주점","tel":"031-417-2062","addr":"경기도 안산시 상록구 부곡동 538-4번지","indutype":"일반휴게음식 - 주점","category":"restaurant"},{"name":"가을놀이터","tel":"031-111-1111","addr":"경기도 안산시 상록구 부곡동 538-4번지 서광빌딩 2층 202호","indutype":"일반휴게음식 - 일반한식","category":"restaurant"}]},{"lat":"37.333702221","long":"126.86376372","imageIndex":4,"items":[{"name":"7080좋은사람들","tel":"031-418-4222","addr":"경기도 안산시 상록구 부곡동 661-6번지 지하1층","indutype":"일반휴게음식 - 주점","category":"restaurant"},{"name":"젠틀맨","tel":"031-409-5955","addr":"경기도 안산시 상록구 부곡동 661-6번지","indutype":"일반휴게음식 - 일반한식","category":"restaurant"}]},{"lat":"37.339369198","long":"126.86340344","imageIndex":4,"items":[{"name":"D&J푸드양평해장국","tel":"031-411-6162","addr":"경기도 안산시 상록구 부곡동 214-18번지","indutype":"일반휴게음식 - 일반한식","category":"restaurant"},{"name":"양평해장국","tel":"031-411-6162","addr":"경기도 안산시 상록구 부곡동 214-18번지 1층","indutype":"일반휴게음식 - 일반한식","category":"restaurant"}]},{"lat":"37.333731112","long":"126.86535469","imageIndex":4,"items":[{"name":"가마치통닭부곡점","tel":"","addr":"경기도 안산시 상록구 부곡동 641-2번지 102호","indutype":"일반휴게음식 - 스넥","category":"restaurant"}]},{"lat":"37.333197917","long":"126.86399032","imageIndex":4,"items":[{"name":"고향촌","tel":"031-501-6469","addr":"경기도 안산시 상록구 부곡동 533-1번지 외1필지","indutype":"일반휴게음식 - 일반한식","category":"restaurant"},{"name":"구워더존치킨","tel":"031-406-9282","addr":"경기도 안산시 상록구 부곡동 533-1번지 1층 104,105호","indutype":"일반휴게음식 - 스넥","category":"restaurant"},{"name":"이박사참숯갈비","tel":"031-406-2463","addr":"경기도 안산시 상록구 부곡동 533-1번지 1층","indutype":"일반휴게음식 - 일반한식","category":"restaurant"}]},{"lat":"37.324308768","long":"126.85970809","imageIndex":4,"items":[{"name":"골목길","tel":"","addr":"경기도 안산시 상록구 부곡동 606-9번지 1층 104호","indutype":"일반휴게음식 - 일반한식","category":"restaurant"},{"name":"우연호프","tel":"031-501-1800","addr":"경기도 안산시 상록구 부곡동 606-9번지 1층","indutype":"일반휴게음식 - 주점","category":"restaurant"},{"name":"전이랑술이랑","tel":"","addr":"경기도 안산시 상록구 부곡동 606-9번지 1층","indutype":"일반휴게음식 - 일반한식","category":"restaurant"},{"name":"프린스호프","tel":"031-501-1800","addr":"경기도 안산시 상록구 부곡동 606-9번지 1층 102호","indutype":"일반휴게음식 - 주점","category":"restaurant"}]},{"lat":"37.332645398","long":"126.86154279","imageIndex":4,"items":[{"name":"곰망치모듬생선구이","tel":"","addr":"경기도 안산시 상록구 부곡동 667-12번지 1층","indutype":"일반휴게음식 - 일반한식","category":"restaurant"}]},{"lat":"37.33072712","long":"126.86229108","imageIndex":4,"items":[{"name":"곱깨비(부곡점)","tel":"","addr":"경기도 안산시 상록구 부곡동 627-10번지 1층","indutype":"일반휴게음식 - 일반한식","category":"restaurant"}]},{"lat":"37.329257509","long":"126.86149272","imageIndex":4,"items":[{"name":"교촌치킨(부곡점)","tel":"031-501-9924","addr":"경기도 안산시 상록구 부곡동 623-7번지 101호","indutype":"일반휴게음식 - 스넥","category":"restaurant"},{"name":"호식이두마리치킨(부곡점)","tel":"031-419-9925","addr":"경기도 안산시 상록구 부곡동 623-7번지 101호","indutype":"일반휴게음식 - 일반한식","category":"restaurant"}]},{"lat":"37.333396366","long":"126.86418178","imageIndex":4,"items":[{"name":"구들장생삼겹살","tel":"031-403-4139","addr":"경기도 안산시 상록구 부곡동 643-7번지 1층","indutype":"일반휴게음식 - 일반한식","category":"restaurant"},{"name":"돈이랑김치랑","tel":"031-417-5550","addr":"경기도 안산시 상록구 부곡동 643-7번지","indutype":"일반휴게음식 - 일반한식","category":"restaurant"}]},{"lat":"37.330313215","long":"126.86276575","imageIndex":4,"items":[{"name":"구이동","tel":"031-417-9290","addr":"경기도 안산시 상록구 부곡동 626-7번지","indutype":"일반휴게음식 - 일반한식","category":"restaurant"}]},{"lat":"37.332395841","long":"126.86384511","imageIndex":4,"items":[{"name":"국가대표족발","tel":"031-437-9233","addr":"경기도 안산시 상록구 부곡동 539-6번지 104호","indutype":"일반휴게음식 - 일반한식","category":"restaurant"},{"name":"또와막썰어회","tel":"031-416-8254","addr":"경기도 안산시 상록구 부곡동 539-6번지 101호","indutype":"일반휴게음식 - 일반한식","category":"restaurant"},{"name":"한판승","tel":"070-8613-7534","addr":"경기도 안산시 상록구 부곡동 539-6번지 102,103호","indutype":"일반휴게음식 - 일반한식","category":"restaurant"}]},{"lat":"37.325785972","long":"126.85932168","imageIndex":4,"items":[{"name":"국민미니왕족발","tel":"031-111-1111","addr":"경기도 안산시 상록구 부곡동 686-7번지 105호","indutype":"일반휴게음식 - 일반한식","category":"restaurant"}]},{"lat":"37.333592526","long":"126.86243243","imageIndex":4,"items":[{"name":"굴바다","tel":"031-417-8881","addr":"경기도 안산시 상록구 부곡동 663-7번지 1층","indutype":"일반휴게음식 - 일반한식","category":"restaurant"},{"name":"신경화굴바다보쌈삼합","tel":"031-417-9882","addr":"경기도 안산시 상록구 부곡동 663-7번지 101호","indutype":"일반휴게음식 - 일반한식","category":"restaurant"}]},{"lat":"37.332585293","long":"126.86404787","imageIndex":4,"items":[{"name":"굽모닝닭오리숯불바베큐","tel":"031-418-9192","addr":"경기도 안산시 상록구 부곡동 539번지 1층 108호 ,109,110호","indutype":"일반휴게음식 - 일반한식","category":"restaurant"},{"name":"비에이치씨부곡점","tel":"031-417-4777","addr":"경기도 안산시 상록구 부곡동 539번지 지하1층 B03호","indutype":"일반휴게음식 - 스넥","category":"restaurant"},{"name":"이삭토스트부곡점","tel":"031-501-5544","addr":"경기도 안산시 상록구 부곡동 539번지 부곡쇼핑 113호","indutype":"일반휴게음식 - 스넥","category":"restaurant"}]},{"lat":"37.346194379","long":"126.86726181","imageIndex":4,"items":[{"name":"귀인촌버섯샤브샤브","tel":"031-484-4885","addr":"경기도 안산시 상록구 부곡동 2-44번지","indutype":"일반휴게음식 - 일반한식","category":"restaurant"}]},{"lat":"37.34631155","long":"126.86729546","imageIndex":4,"items":[{"name":"귀인한우촌","tel":"031-485-4885","addr":"경기도 안산시 상록구 부곡동 2번지 귀인한우촌가든목장 가동 1층","indutype":"일반휴게음식 - 일반한식","category":"restaurant"}]},{"lat":"37.332728991","long":"126.86365268","imageIndex":4,"items":[{"name":"귀일만두","tel":"","addr":"경기도 안산시 상록구 부곡동 538번지 부곡프라자 105호","indutype":"일반휴게음식 - 스넥","category":"restaurant"},{"name":"뉴프라자커피까페","tel":"031-416-0877","addr":"경기도 안산시 상록구 부곡동 538번지 부곡프라자","indutype":"일반휴게음식 - 서양음식","category":"restaurant"},{"name":"달달한친구들북카페협동조합","tel":"031-319-3089","addr":"경기도 안산시 상록구 부곡동 538번지 부곡프라자 3층 304호","indutype":"일반휴게음식 - 서양음식","category":"restaurant"},{"name":"뻘떡빨닭","tel":"031-502-9966","addr":"경기도 안산시 상록구 부곡동 538번지 부곡프라자 103호","indutype":"일반휴게음식 - 일반한식","category":"restaurant"},{"name":"뻘떡빨닭","tel":"031-502-9966","addr":"경기도 안산시 상록구 부곡동 538번지 부곡프라자 103호","indutype":"일반휴게음식 - 일반한식","category":"restaurant"},{"name":"애플김밥","tel":"031-408-1272","addr":"경기도 안산시 상록구 부곡동 538번지 부곡프라자 112호","indutype":"일반휴게음식 - 일반한식","category":"restaurant"}]},{"lat":"37.333668298","long":"126.85802032","imageIndex":4,"items":[{"name":"그옛날치킨","tel":"031-480-3533","addr":"경기도 안산시 상록구 부곡동 734-7번지 1층","indutype":"일반휴게음식 - 스넥","category":"restaurant"},{"name":"복덩이포차","tel":"","addr":"경기도 안산시 상록구 부곡동 734-7번지 1층","indutype":"일반휴게음식 - 일반한식","category":"restaurant"}]},{"lat":"37.330445116","long":"126.86004623","imageIndex":4,"items":[{"name":"금강산숯불갈비","tel":"031-406-3992","addr":"경기도 안산시 상록구 부곡동 678-7번지 1층","indutype":"일반휴게음식 - 일반한식","category":"restaurant"}]},{"lat":"37.322558527","long":"126.85784985","imageIndex":4,"items":[{"name":"금도끼은도끼","tel":"","addr":"경기도 안산시 상록구 부곡동 695-22번지 1층","indutype":"일반휴게음식 - 일반한식","category":"restaurant"}]},{"lat":"37.325784997","long":"126.85852061","imageIndex":4,"items":[{"name":"금메달햇순대국밥","tel":"031-407-5525","addr":"경기도 안산시 상록구 부곡동 686-2번지 1층","indutype":"일반휴게음식 - 일반한식","category":"restaurant"}]},{"lat":"37.329644676","long":"126.86126633","imageIndex":4,"items":[{"name":"김밥사랑","tel":"031-416-3383","addr":"경기도 안산시 상록구 부곡동 674-1번지 동현빌딩 1층 102호","indutype":"일반휴게음식 - 스넥","category":"restaurant"},{"name":"커피하우스","tel":"070-3611-1872","addr":"경기도 안산시 상록구 부곡동 674-1번지 동현빌딩 1층 4호","indutype":"일반휴게음식 - 서양음식","category":"restaurant"}]},{"lat":"37.333394891","long":"126.86292929","imageIndex":4,"items":[{"name":"김밥천국","tel":"031-417-0109","addr":"경기도 안산시 상록구 부곡동 662-9번지 1층","indutype":"일반휴게음식 - 스넥","category":"restaurant"}]},{"lat":"37.329870065","long":"126.86137874","imageIndex":4,"items":[{"name":"김밥천국","tel":"031-471-6787","addr":"경기도 안산시 상록구 부곡동 673-10번지 1층","indutype":"일반휴게음식 - 일반한식","category":"restaurant"},{"name":"아지매순대","tel":"031-416-8887","addr":"경기도 안산시 상록구 부곡동 673-10번지 1층","indutype":"일반휴게음식 - 일반한식","category":"restaurant"}]},{"lat":"37.333449379","long":"126.86329027","imageIndex":4,"items":[{"name":"꼬꼬씨참숯닭갈비(부곡점)","tel":"031-415-7115","addr":"경기도 안산시 상록구 부곡동 662-2번지 1층","indutype":"일반휴게음식 - 일반한식","category":"restaurant"},{"name":"부곡역","tel":"031-406-8979","addr":"경기도 안산시 상록구 부곡동 662-2번지 1층","indutype":"일반휴게음식 - 일반한식","category":"restaurant"},{"name":"후루룩칼국수","tel":"031-417-9659","addr":"경기도 안산시 상록구 부곡동 662-2번지 1층 101호","indutype":"일반휴게음식 - 일반한식","category":"restaurant"}]},{"lat":"37.325785574","long":"126.85899448","imageIndex":4,"items":[{"name":"꽃분이낙지마당(부곡동)","tel":"031-407-1103","addr":"경기도 안산시 상록구 부곡동 686-5번지","indutype":"일반휴게음식 - 일반한식","category":"restaurant"}]},{"lat":"37.332307912","long":"126.86570707","imageIndex":4,"items":[{"name":"꿀벅지","tel":"031-000-0000","addr":"경기도 안산시 상록구 부곡동 537-9번지","indutype":"일반휴게음식 - 일반한식","category":"restaurant"},{"name":"주방장허준","tel":"031-407-7963","addr":"경기도 안산시 상록구 부곡동 537-9번지 1층","indutype":"일반휴게음식 - 일반한식","category":"restaurant"}]},{"lat":"37.332753655","long":"126.86165542","imageIndex":4,"items":[{"name":"나드리","tel":"031-411-1660","addr":"경기도 안산시 상록구 부곡동 667-13번지","indutype":"일반휴게음식 - 일반한식","category":"restaurant"},{"name":"장수풍천민물장어","tel":"031-438-9295","addr":"경기도 안산시 상록구 부곡동 667-13번지 1층 101,102호","indutype":"일반휴게음식 - 일반한식","category":"restaurant"},{"name":"최영숙한식부페","tel":"031-111-1111","addr":"경기도 안산시 상록구 부곡동 667-13번지","indutype":"일반휴게음식 - 일반한식","category":"restaurant"}]},{"lat":"37.321396173","long":"126.85781824","imageIndex":4,"items":[{"name":"나들이식당","tel":"031-406-3123","addr":"경기도 안산시 상록구 부곡동 696-8번지 1층","indutype":"일반휴게음식 - 일반한식","category":"restaurant"},{"name":"지나씨","tel":"031-406-4010","addr":"경기도 안산시 상록구 부곡동 696-8번지 1층 2호","indutype":"일반휴게음식 - 서양음식","category":"restaurant"},{"name":"해물짬뽕","tel":"","addr":"경기도 안산시 상록구 부곡동 696-8번지 103호","indutype":"일반휴게음식 - 중국식","category":"restaurant"}]},{"lat":"37.327534928","long":"126.86013072","imageIndex":4,"items":[{"name":"남산전","tel":"031-000-0000","addr":"경기도 안산시 상록구 부곡동 684-2번지 101호","indutype":"일반휴게음식 - 주점","category":"restaurant"},{"name":"오다야","tel":"031-406-2861","addr":"경기도 안산시 상록구 부곡동 684-2번지 1층","indutype":"일반휴게음식 - 일반한식","category":"restaurant"},{"name":"정다운친구","tel":"031-407-0233","addr":"경기도 안산시 상록구 부곡동 684-2번지 1층 102호","indutype":"일반휴게음식 - 일반한식","category":"restaurant"}]},{"lat":"37.334532174","long":"126.86463105","imageIndex":4,"items":[{"name":"노란참새","tel":"031-111-1111","addr":"경기도 안산시 상록구 부곡동 644-9번지 101호","indutype":"일반휴게음식 - 일반한식","category":"restaurant"}]},{"lat":"37.322756724","long":"126.85782691","imageIndex":4,"items":[{"name":"녹원칼국수","tel":"031-406-7733","addr":"경기도 안산시 상록구 부곡동 695-23번지","indutype":"일반휴게음식 - 일반한식","category":"restaurant"},{"name":"잔치집국시랑족발","tel":"031-406-4111","addr":"경기도 안산시 상록구 부곡동 695-23번지 102호","indutype":"일반휴게음식 - 일반한식","category":"restaurant"}]},{"lat":"37.328644412","long":"126.86115538","imageIndex":4,"items":[{"name":"놀러와","tel":"031-501-2977","addr":"경기도 안산시 상록구 부곡동 622-13번지 1층","indutype":"일반휴게음식 - 일반한식","category":"restaurant"},{"name":"토마토","tel":"031-409-7465","addr":"경기도 안산시 상록구 부곡동 622-13번지 1층","indutype":"일반휴게음식 - 일반한식","category":"restaurant"},{"name":"토마토","tel":"","addr":"경기도 안산시 상록구 부곡동 622-13번지 103호","indutype":"일반휴게음식 - 스넥","category":"restaurant"}]},{"lat":"37.329446857","long":"126.8616052","imageIndex":4,"items":[{"name":"뉴토종순대국","tel":"031-416-0094","addr":"경기도 안산시 상록구 부곡동 623-9,103번지","indutype":"일반휴게음식 - 일반한식","category":"restaurant"}]},{"lat":"37.333613875","long":"126.86526463","imageIndex":4,"items":[{"name":"느루부곡점","tel":"031-406-5559","addr":"경기도 안산시 상록구 부곡동 641-3번지 1층","indutype":"일반휴게음식 - 일반한식","category":"restaurant"}]},{"lat":"37.333171864","long":"126.86482537","imageIndex":4,"items":[{"name":"다둥이네 쌈밥","tel":"031-501-1186","addr":"경기도 안산시 상록구 부곡동 641-7번지 102호","indutype":"일반휴게음식 - 일반한식","category":"restaurant"}]},{"lat":"37.333647908","long":"126.86354943","imageIndex":4,"items":[{"name":"더한잔","tel":"","addr":"경기도 안산시 상록구 부곡동 661-8번지 1층 103호","indutype":"일반휴게음식 - 일반한식","category":"restaurant"},{"name":"뚝방길호프","tel":"031-402-6769","addr":"경기도 안산시 상록구 부곡동 661-8번지 1층","indutype":"일반휴게음식 - 주점","category":"restaurant"},{"name":"부담없는포차","tel":"031-406-7693","addr":"경기도 안산시 상록구 부곡동 661-8번지 1층","indutype":"일반휴게음식 - 주점","category":"restaurant"},{"name":"탁가네","tel":"031-409-2728","addr":"경기도 안산시 상록구 부곡동 661-8번지","indutype":"일반휴게음식 - 일반한식","category":"restaurant"}]},{"lat":"37.334198138","long":"126.86406747","imageIndex":4,"items":[{"name":"덤불포차","tel":"031-408-5758","addr":"경기도 안산시 상록구 부곡동 661-2번지","indutype":"일반휴게음식 - 주점","category":"restaurant"},{"name":"서박사곱창","tel":"031-415-9207","addr":"경기도 안산시 상록구 부곡동 661-2번지 포도나무교회 1층 102호","indutype":"일반휴게음식 - 일반한식","category":"restaurant"},{"name":"청춘호프","tel":"031-417-9787","addr":"경기도 안산시 상록구 부곡동 661-2번지 포도나무교회 101호","indutype":"일반휴게음식 - 일반한식","category":"restaurant"}]},{"lat":"37.331337829","long":"126.86063128","imageIndex":4,"items":[{"name":"도도해","tel":"031-437-6969","addr":"경기도 안산시 상록구 부곡동 672번지 1층","indutype":"일반휴게음식 - 일반한식","category":"restaurant"},{"name":"예궁","tel":"031-407-2235","addr":"경기도 안산시 상록구 부곡동 672번지 101호","indutype":"일반휴게음식 - 중국식","category":"restaurant"}]},{"lat":"37.333088319","long":"126.86273803","imageIndex":4,"items":[{"name":"돈가네","tel":"031-403-9250","addr":"경기도 안산시 상록구 부곡동 665번지 1층","indutype":"일반휴게음식 - 일반한식","category":"restaurant"},{"name":"청솔얼음막걸리","tel":"031-415-1566","addr":"경기도 안산시 상록구 부곡동 665번지 1층","indutype":"일반휴게음식 - 칵테일바","category":"restaurant"}]},{"lat":"37.324785911","long":"126.85937999","imageIndex":4,"items":[{"name":"돈기부여부곡점","tel":"031-406-2663","addr":"경기도 안산시 상록구 부곡동 692-2번지 103호","indutype":"일반휴게음식 - 일반한식","category":"restaurant"}]},{"lat":"37.333001092","long":"126.86518676","imageIndex":4,"items":[{"name":"두꺼비","tel":"","addr":"경기도 안산시 상록구 부곡동 534번지 102호","indutype":"일반휴게음식 - 일반한식","category":"restaurant"}]},{"lat":"37.334785254","long":"126.85776993","imageIndex":4,"items":[{"name":"두리아(부곡점)","tel":"031-484-9595","addr":"경기도 안산시 상록구 부곡동 728-15번지 1층","indutype":"일반휴게음식 - 일반한식","category":"restaurant"},{"name":"진장어탕구이","tel":"031-483-5482","addr":"경기도 안산시 상록구 부곡동 728-15번지","indutype":"일반휴게음식 - 일반한식","category":"restaurant"}]},{"lat":"37.32745423","long":"126.86045807","imageIndex":4,"items":[{"name":"디디치킨부곡점(피자명)","tel":"031-475-8255","addr":"경기도 안산시 상록구 부곡동 619-9번지","indutype":"일반휴게음식 - 스넥","category":"restaurant"}]},{"lat":"37.333007561","long":"126.86302028","imageIndex":4,"items":[{"name":"땅땅치킨(부곡프라자점)","tel":"031-417-6663","addr":"경기도 안산시 상록구 부곡동 665-2번지 101호 102호 상가","indutype":"일반휴게음식 - 스넥","category":"restaurant"},{"name":"스시애참치","tel":"031-408-5635","addr":"경기도 안산시 상록구 부곡동 665-2번지","indutype":"일반휴게음식 - 일반한식","category":"restaurant"}]},{"lat":"37.323696076","long":"126.85970925","imageIndex":4,"items":[{"name":"떡볶이와친구들","tel":"070-7520-3834","addr":"경기도 안산시 상록구 부곡동 605-13번지","indutype":"일반휴게음식 - 일반한식","category":"restaurant"},{"name":"풍미가","tel":"031-415-5901","addr":"경기도 안산시 상록구 부곡동 605-13번지 1층","indutype":"일반휴게음식 - 일반한식","category":"restaurant"}]},{"lat":"37.332926002","long":"126.8626255","imageIndex":4,"items":[{"name":"또래오래","tel":"031-406-5580","addr":"경기도 안산시 상록구 부곡동 665-9번지","indutype":"일반휴게음식 - 스넥","category":"restaurant"}]},{"lat":"37.332280016","long":"126.8649624","imageIndex":4,"items":[{"name":"또봉이통닭(부곡점)","tel":"031-406-9956","addr":"경기도 안산시 상록구 부곡동 542번지 효성빌딩 102호","indutype":"일반휴게음식 - 스넥","category":"restaurant"}]},{"lat":"37.324308331","long":"126.85934705","imageIndex":4,"items":[{"name":"똘이국밥","tel":"031-407-9882","addr":"경기도 안산시 상록구 부곡동 692-5번지 102호","indutype":"일반휴게음식 - 일반한식","category":"restaurant"},{"name":"이모네서한잔","tel":"031-410-7115","addr":"경기도 안산시 상록구 부곡동 692-5번지","indutype":"일반휴게음식 - 주점","category":"restaurant"}]},{"lat":"37.332503671","long":"126.86359668","imageIndex":4,"items":[{"name":"라이브","tel":"031-416-8600","addr":"경기도 안산시 상록구 부곡동 538-1번지 은성빌딩 201호","indutype":"일반휴게음식 - 일반한식","category":"restaurant"},{"name":"콘서트라이브","tel":"031-416-4939","addr":"경기도 안산시 상록구 부곡동 538-1번지 은성빌딩 201호","indutype":"일반휴게음식 - 주점","category":"restaurant"}]},{"lat":"37.335640753","long":"126.86491112","imageIndex":4,"items":[{"name":"라피노호프","tel":"031-417-6163","addr":"경기도 안산시 상록구 부곡동 655-10번지 1층","indutype":"일반휴게음식 - 칵테일바","category":"restaurant"}]},{"lat":"37.334364944","long":"126.86037732","imageIndex":4,"items":[{"name":"로또네","tel":"031-413-1164","addr":"경기도 안산시 상록구 부곡동 726-3번지 101호","indutype":"일반휴게음식 - 일반한식","category":"restaurant"}]},{"lat":"37.332368199","long":"126.86332612","imageIndex":4,"items":[{"name":"롯데리아 안산부곡점","tel":"031-418-0502","addr":"경기도 안산시 상록구 부곡동 538-5번지 삼성타워 102호 ,103,104호","indutype":"일반휴게음식 - 서양음식","category":"restaurant"},{"name":"본죽","tel":"031-417-0288","addr":"경기도 안산시 상록구 부곡동 538-5번지","indutype":"일반휴게음식 - 일반한식","category":"restaurant"}]},{"lat":"37.336639803","long":"126.85651381","imageIndex":4,"items":[{"name":"류바의커피가게","tel":"070-8755-8480","addr":"경기도 안산시 상록구 부곡동 717번지","indutype":"일반휴게음식 - 서양음식","category":"restaurant"}]},{"lat":"37.333395491","long":"126.86343706","imageIndex":4,"items":[{"name":"마마닭강정","tel":"031-406-6188","addr":"경기도 안산시 상록구 부곡동 662-3번지 1층","indutype":"일반휴게음식 - 일반한식","category":"restaurant"},{"name":"부탁해요밥상","tel":"031-419-3338","addr":"경기도 안산시 상록구 부곡동 662-3번지 1층","indutype":"일반휴게음식 - 일반한식","category":"restaurant"},{"name":"전마을","tel":"031-408-5682","addr":"경기도 안산시 상록구 부곡동 662-3번지 1층","indutype":"일반휴게음식 - 일반한식","category":"restaurant"}]},{"lat":"37.331700954","long":"126.86290986","imageIndex":4,"items":[{"name":"마엑스(X)포차","tel":"031-500-8815","addr":"경기도 안산시 상록구 부곡동 628-12번지 1층","indutype":"일반휴게음식 - 주점","category":"restaurant"}]},{"lat":"37.333117117","long":"126.86423872","imageIndex":4,"items":[{"name":"만사태평정육식당","tel":"031-416-9930","addr":"경기도 안산시 상록구 부곡동 533-3번지 1층","indutype":"일반휴게음식 - 일반한식","category":"restaurant"},{"name":"신용정육생고기","tel":"031-416-9930","addr":"경기도 안산시 상록구 부곡동 533-3번지 1층","indutype":"일반휴게음식 - 일반한식","category":"restaurant"}]},{"lat":"37.332088911","long":"126.8633492","imageIndex":4,"items":[{"name":"맘스터치(부곡,월피점)","tel":"031-406-4122","addr":"경기도 안산시 상록구 부곡동 538-3번지 금신부곡빌딩 1층 105호","indutype":"일반휴게음식 - 스넥","category":"restaurant"},{"name":"영선횟집","tel":"031-407-1664","addr":"경기도 안산시 상록구 부곡동 538-3번지 (1층상가103호)","indutype":"일반휴게음식 - 일반한식","category":"restaurant"},{"name":"전주식당","tel":"031-501-1765","addr":"경기도 안산시 상록구 부곡동 538-3번지 금신부곡빌딩 101,102호","indutype":"일반휴게음식 - 일반한식","category":"restaurant"},{"name":"코리엔탈깻잎칩킨","tel":"031-501-5009","addr":"경기도 안산시 상록구 부곡동 538-3번지 금신부곡빌딩 104호","indutype":"일반휴게음식 - 서양음식","category":"restaurant"}]},{"lat":"37.335389473","long":"126.85820885","imageIndex":4,"items":[{"name":"맛돼지네양푼","tel":"031-410-2750","addr":"경기도 안산시 상록구 부곡동 727-17번지","indutype":"일반휴게음식 - 일반한식","category":"restaurant"},{"name":"푸른솔밭오리농장","tel":"031-484-3077","addr":"경기도 안산시 상록구 부곡동 727-17번지 1층","indutype":"일반휴게음식 - 일반한식","category":"restaurant"}]},{"lat":"37.325785766","long":"126.85915244","imageIndex":4,"items":[{"name":"맥스","tel":"031-407-0843","addr":"경기도 안산시 상록구 부곡동 686-6번지 1층","indutype":"일반휴게음식 - 주점","category":"restaurant"},{"name":"조개가끝내주는집","tel":"031-410-1133","addr":"경기도 안산시 상록구 부곡동 686-6번지 101호","indutype":"일반휴게음식 - 일반한식","category":"restaurant"},{"name":"착한통닭","tel":"031-417-6336","addr":"경기도 안산시 상록구 부곡동 686-6번지 1층 상가동","indutype":"일반휴게음식 - 스넥","category":"restaurant"},{"name":"하면돼지","tel":"031-410-1133","addr":"경기도 안산시 상록구 부곡동 686-6번지 101호","indutype":"일반휴게음식 - 일반한식","category":"restaurant"}]},{"lat":"37.327814814","long":"126.86060407","imageIndex":4,"items":[{"name":"먹고반","tel":"","addr":"경기도 안산시 상록구 부곡동 620-15번지 1층","indutype":"일반휴게음식 - 일반한식","category":"restaurant"},{"name":"송학추어탕","tel":"031-406-3105","addr":"경기도 안산시 상록구 부곡동 620-15번지","indutype":"일반휴게음식 - 일반한식","category":"restaurant"}]},{"lat":"37.333063188","long":"126.86435165","imageIndex":4,"items":[{"name":"먹어보3","tel":"031-501-3080","addr":"경기도 안산시 상록구 부곡동 533-4번지 부곡시장 1층 102호","indutype":"일반휴게음식 - 일반한식","category":"restaurant"},{"name":"샘","tel":"","addr":"경기도 안산시 상록구 부곡동 533-4번지 304,305호","indutype":"일반휴게음식 - 일반한식","category":"restaurant"}]},{"lat":"37.336423461","long":"126.8639054","imageIndex":4,"items":[{"name":"미선웰빙산채","tel":"031-408-2150","addr":"경기도 안산시 상록구 부곡동 654-11번지 1층","indutype":"일반휴게음식 - 일반한식","category":"restaurant"}]},{"lat":"37.332197458","long":"126.86371008","imageIndex":4,"items":[{"name":"바이올렛","tel":"031-227-2163","addr":"경기도 안산시 상록구 부곡동 539-5번지 1층 104,105호","indutype":"일반휴게음식 - 일반한식","category":"restaurant"},{"name":"현이네조개전골","tel":"","addr":"경기도 안산시 상록구 부곡동 539-5번지 101-103호","indutype":"일반휴게음식 - 일반한식","category":"restaurant"},{"name":"호프짱","tel":"031-000-0000","addr":"경기도 안산시 상록구 부곡동 539-5번지","indutype":"일반휴게음식 - 주점","category":"restaurant"}]},{"lat":"37.326147321","long":"126.86009949","imageIndex":4,"items":[{"name":"박여사부곡곱창","tel":"031-406-3330","addr":"경기도 안산시 상록구 부곡동 613-6번지 1층","indutype":"일반휴게음식 - 일반한식","category":"restaurant"}]},{"lat":"37.324784013","long":"126.85782301","imageIndex":4,"items":[{"name":"발렌타인","tel":"031-415-1228","addr":"경기도 안산시 상록구 부곡동 689-9번지 1층","indutype":"일반휴게음식 - 주점","category":"restaurant"}]},{"lat":"37.333169142","long":"126.86251221","imageIndex":4,"items":[{"name":"백년순대","tel":"031-417-6678","addr":"경기도 안산시 상록구 부곡동 664-4번지 1층","indutype":"일반휴게음식 - 일반한식","category":"restaurant"}]},{"lat":"37.335086259","long":"126.86079347","imageIndex":4,"items":[{"name":"백두산통돼지바베큐","tel":"","addr":"경기도 안산시 상록구 부곡동 723-8번지 1층 102호","indutype":"일반휴게음식 - 일반한식","category":"restaurant"}]},{"lat":"37.332394763","long":"126.86293114","imageIndex":4,"items":[{"name":"버블캐슬","tel":"031-409-2263","addr":"경기도 안산시 상록구 부곡동 666-4번지 1층","indutype":"일반휴게음식 - 주점","category":"restaurant"},{"name":"이디야커피 (안산부곡동점)","tel":"031-502-1587","addr":"경기도 안산시 상록구 부곡동 666-4번지 부곡웨스턴빌딩 103호","indutype":"일반휴게음식 - 서양음식","category":"restaurant"}]},{"lat":"37.338088836","long":"126.86262718","imageIndex":4,"items":[{"name":"별빛새길갤러리&카페","tel":"","addr":"경기도 안산시 상록구 부곡동 215-1번지 1층","indutype":"일반휴게음식 - 서양음식","category":"restaurant"}]},{"lat":"37.335756126","long":"126.86341012","imageIndex":4,"items":[{"name":"보은집","tel":"031-418-9492","addr":"경기도 안산시 상록구 부곡동 656번지","indutype":"일반휴게음식 - 일반한식","category":"restaurant"}]},{"lat":"37.335639246","long":"126.86362474","imageIndex":4,"items":[{"name":"보은집1호점","tel":"031-415-7180","addr":"경기도 안산시 상록구 부곡동 656-1번지","indutype":"일반휴게음식 - 일반한식","category":"restaurant"}]},{"lat":"37.332863105","long":"126.8627723","imageIndex":4,"items":[{"name":"본향들깨수제비","tel":"031-501-1139","addr":"경기도 안산시 상록구 부곡동 665-8번지 1층 102호","indutype":"일반휴게음식 - 일반한식","category":"restaurant"}]},{"lat":"37.333034418","long":"126.86287354","imageIndex":4,"items":[{"name":"봉구스밥버거(부곡점)","tel":"031-417-2434","addr":"경기도 안산시 상록구 부곡동 665-1번지 1층","indutype":"일반휴게음식 - 스넥","category":"restaurant"},{"name":"장터공방","tel":"","addr":"경기도 안산시 상록구 부곡동 665-1번지 102호","indutype":"일반휴게음식 - 일반한식","category":"restaurant"}]},{"lat":"37.334000343","long":"126.85693643","imageIndex":4,"items":[{"name":"부곡가든","tel":"031-504-4015","addr":"경기도 안산시 상록구 부곡동 734-17번지 101호","indutype":"일반휴게음식 - 일반한식","category":"restaurant"},{"name":"세희닭발","tel":"031-410-3318","addr":"경기도 안산시 상록구 부곡동 734-17번지 103호","indutype":"일반휴게음식 - 일반한식","category":"restaurant"},{"name":"훈이네","tel":"","addr":"경기도 안산시 상록구 부곡동 734-17번지 103호","indutype":"일반휴게음식 - 일반한식","category":"restaurant"}]},{"lat":"37.333195422","long":"126.86188027","imageIndex":4,"items":[{"name":"부곡닭한마리칼국수","tel":"","addr":"경기도 안산시 상록구 부곡동 664-9번지 1층 103,104호","indutype":"일반휴게음식 - 일반한식","category":"restaurant"},{"name":"생불고기하우스","tel":"031-408-5855","addr":"경기도 안산시 상록구 부곡동 664-9번지 101호 102호","indutype":"일반휴게음식 - 일반한식","category":"restaurant"},{"name":"착한찜","tel":"031-407-7721","addr":"경기도 안산시 상록구 부곡동 664-9번지 1층","indutype":"일반휴게음식 - 일반한식","category":"restaurant"}]},{"lat":"37.333728827","long":"126.86340259","imageIndex":4,"items":[{"name":"부곡동맛집","tel":"031-416-1291","addr":"경기도 안산시 상록구 부곡동 661-9번지 1층","indutype":"일반휴게음식 - 일반한식","category":"restaurant"}]},{"lat":"37.334342367","long":"126.86412362","imageIndex":4,"items":[{"name":"부곡수산활어센터","tel":"","addr":"경기도 안산시 상록구 부곡동 661-1번지 2층 202호","indutype":"일반휴게음식 - 일식·회집","category":"restaurant"},{"name":"부곡수산활어직판장","tel":"031-501-5050","addr":"경기도 안산시 상록구 부곡동 661-1번지","indutype":"일반휴게음식 - 일식·회집","category":"restaurant"},{"name":"원조 꼼장어 숯불구이","tel":"031-418-4168","addr":"경기도 안산시 상록구 부곡동 661-1번지 1층","indutype":"일반휴게음식 - 일반한식","category":"restaurant"}]},{"lat":"37.332171828","long":"126.86490618","imageIndex":4,"items":[{"name":"부곡식당","tel":"031-403-6012","addr":"경기도 안산시 상록구 부곡동 542-9번지 1층","indutype":"일반휴게음식 - 일반한식","category":"restaurant"}]},{"lat":"37.337036528","long":"126.85673873","imageIndex":4,"items":[{"name":"부곡아구탕","tel":"031-410-1177","addr":"경기도 안산시 상록구 부곡동 713-3번지","indutype":"일반휴게음식 - 일반한식","category":"restaurant"}]},{"lat":"37.332059211","long":"126.86110383","imageIndex":4,"items":[{"name":"부곡영양탕","tel":"031-416-1939","addr":"경기도 안산시 상록구 부곡동 671-3번지 디자인뷰 1층","indutype":"일반휴게음식 - 일반한식","category":"restaurant"}]},{"lat":"37.33389049","long":"126.86296222","imageIndex":4,"items":[{"name":"부곡족발","tel":"","addr":"경기도 안산시 상록구 부곡동 660-9번지 104호","indutype":"일반휴게음식 - 일반한식","category":"restaurant"}]},{"lat":"37.333306555","long":"126.86443019","imageIndex":4,"items":[{"name":"부자식당","tel":"031-406-0375","addr":"경기도 안산시 상록구 부곡동 642-8번지 1층","indutype":"일반휴게음식 - 일반한식","category":"restaurant"},{"name":"옛날장터치킨","tel":"031-417-2288","addr":"경기도 안산시 상록구 부곡동 642-8번지 1층","indutype":"일반휴게음식 - 일반한식","category":"restaurant"}]},{"lat":"37.330006803","long":"126.86270991","imageIndex":4,"items":[{"name":"북경중화요리","tel":"031-416-0844","addr":"경기도 안산시 상록구 부곡동 625-1번지 1층","indutype":"일반휴게음식 - 중국식","category":"restaurant"}]},{"lat":"37.334561392","long":"126.85891004","imageIndex":4,"items":[{"name":"브로스호프","tel":"031-405-2164","addr":"경기도 안산시 상록구 부곡동 728-7번지 1층","indutype":"일반휴게음식 - 주점","category":"restaurant"}]},{"lat":"37.335866707","long":"126.85795968","imageIndex":4,"items":[{"name":"빨주노초","tel":"","addr":"경기도 안산시 상록구 부곡동 715-6번지 1층","indutype":"일반휴게음식 - 스넥","category":"restaurant"}]},{"lat":"37.337000697","long":"126.85690806","imageIndex":4,"items":[{"name":"뽕나무상계탕","tel":"031-412-9567","addr":"경기도 안산시 상록구 부곡동 713-4번지 1층","indutype":"일반휴게음식 - 일반한식","category":"restaurant"},{"name":"토속정","tel":"031-487-9567","addr":"경기도 안산시 상록구 부곡동 713-4번지 1층","indutype":"일반휴게음식 - 일반한식","category":"restaurant"}]},{"lat":"37.32217109","long":"126.8578506","imageIndex":4,"items":[{"name":"산새알물새알","tel":"031-406-3852","addr":"경기도 안산시 상록구 부곡동 696번지","indutype":"일반휴게음식 - 칵테일바","category":"restaurant"}]},{"lat":"37.327896163","long":"126.86081829","imageIndex":4,"items":[{"name":"상록보신장","tel":"031-418-3429","addr":"경기도 안산시 상록구 부곡동 620-1번지 1층","indutype":"일반휴게음식 - 일반한식","category":"restaurant"}]},{"lat":"37.326370589","long":"126.85846308","imageIndex":4,"items":[{"name":"샘골동태탕","tel":"","addr":"경기도 안산시 상록구 부곡동 685-11번지 안산제2종합시장 1034,1035호","indutype":"일반휴게음식 - 일반한식","category":"restaurant"},{"name":"손님식당","tel":"031-111-1111","addr":"경기도 안산시 상록구 부곡동 685-11번지 안산제2종합시장 1027호","indutype":"일반휴게음식 - 일반한식","category":"restaurant"},{"name":"술먹기좋은날","tel":"031-409-9167","addr":"경기도 안산시 상록구 부곡동 685-11번지 1042","indutype":"일반휴게음식 - 주점","category":"restaurant"},{"name":"아바이","tel":"031-409-6666","addr":"경기도 안산시 상록구 부곡동 685-11번지 1005,1006호","indutype":"일반휴게음식 - 일반한식","category":"restaurant"},{"name":"얼큰이포차","tel":"031-502-5752","addr":"경기도 안산시 상록구 부곡동 685-11번지 안산제2종합시장 1층 1041호","indutype":"일반휴게음식 - 주점","category":"restaurant"},{"name":"옛날통닭(부곡점)","tel":"031-408-6396","addr":"경기도 안산시 상록구 부곡동 685-11번지 안산제2종합시장 1002호","indutype":"일반휴게음식 - 스넥","category":"restaurant"},{"name":"옛날통닭(부곡점)","tel":"031-408-6396","addr":"경기도 안산시 상록구 부곡동 685-11번지 안산제2종합시장 1층 1002호","indutype":"일반휴게음식 - 스넥","category":"restaurant"},{"name":"일삼오칠호프","tel":"031-416-3400","addr":"경기도 안산시 상록구 부곡동 685-11번지 안산제2종합시장 1층 1002호","indutype":"일반휴게음식 - 주점","category":"restaurant"},{"name":"잇츠들","tel":"031-494-4902","addr":"경기도 안산시 상록구 부곡동 685-11번지 안산제2종합시장 1021호","indutype":"일반휴게음식 - 일반한식","category":"restaurant"},{"name":"잇츠들/피엘닷컴","tel":"031-494-4902","addr":"경기도 안산시 상록구 부곡동 685-11번지 안산제2종합시장1021호","indutype":"일반휴게음식 - 서양음식","category":"restaurant"},{"name":"장안에곱창","tel":"031-416-0066","addr":"경기도 안산시 상록구 부곡동 685-11번지 제2종합시장 1027호","indutype":"일반휴게음식 - 일반한식","category":"restaurant"},{"name":"제주오겹살참숯깡통구이","tel":"031-406-5592","addr":"경기도 안산시 상록구 부곡동 685-11번지 1039호 1038호","indutype":"일반휴게음식 - 일반한식","category":"restaurant"},{"name":"페리카나종합시장점","tel":"031-416-7532","addr":"경기도 안산시 상록구 부곡동 685-11번지 안산제2종합시장 1003호","indutype":"일반휴게음식 - 주점","category":"restaurant"},{"name":"홍어와생막걸리","tel":"031-416-2258","addr":"경기도 안산시 상록구 부곡동 685-11번지 안산제2종합시장 1030호","indutype":"일반휴게음식 - 일반한식","category":"restaurant"}]},{"lat":"37.327363625","long":"126.86004078","imageIndex":4,"items":[{"name":"샤이닝스타커피비어","tel":"031-000-0000","addr":"경기도 안산시 상록구 부곡동 684-3번지 101호","indutype":"일반휴게음식 - 서양음식","category":"restaurant"},{"name":"정나곱창","tel":"031-501-4028","addr":"경기도 안산시 상록구 부곡동 684-3번지 105호","indutype":"일반휴게음식 - 일반한식","category":"restaurant"},{"name":"피자스쿨(안산부곡점)","tel":"031-501-0789","addr":"경기도 안산시 상록구 부곡동 684-3번지 1층 102호","indutype":"일반휴게음식 - 서양음식","category":"restaurant"}]},{"lat":"37.330032908","long":"126.86193131","imageIndex":4,"items":[{"name":"서가네우렁쌈밥","tel":"031-415-6555","addr":"경기도 안산시 상록구 부곡동 624-9번지","indutype":"일반휴게음식 - 일반한식","category":"restaurant"}]},{"lat":"37.334784657","long":"126.86479985","imageIndex":4,"items":[{"name":"소소한카페","tel":"02-1111-1111","addr":"경기도 안산시 상록구 부곡동 644-11번지 1층","indutype":"일반휴게음식 - 서양음식","category":"restaurant"}]},{"lat":"37.330841998","long":"126.86040654","imageIndex":4,"items":[{"name":"송담추어탕","tel":"031-406-7988","addr":"경기도 안산시 상록구 부곡동 678-1번지 1층","indutype":"일반휴게음식 - 일반한식","category":"restaurant"}]},{"lat":"37.326561147","long":"126.85956842","imageIndex":4,"items":[{"name":"수원화로","tel":"031-256-0391","addr":"경기도 안산시 상록구 부곡동 685-7번지 1-2층","indutype":"일반휴게음식 - 일반한식","category":"restaurant"},{"name":"수원화로","tel":"031-493-1313","addr":"경기도 안산시 상록구 부곡동 685-7번지 ,1,2층","indutype":"일반휴게음식 - 일반한식","category":"restaurant"}]},{"lat":"37.32575942","long":"126.85971662","imageIndex":4,"items":[{"name":"술잔비어스 (Beer, s)","tel":"031-406-6605","addr":"경기도 안산시 상록구 부곡동 612번지 4층","indutype":"일반휴게음식 - 주점","category":"restaurant"}]},{"lat":"37.328057816","long":"126.86037795","imageIndex":4,"items":[{"name":"승승장구","tel":"031-438-0991","addr":"경기도 안산시 상록구 부곡동 682-7번지","indutype":"일반휴게음식 - 일반한식","category":"restaurant"}]},{"lat":"37.337036291","long":"126.85654689","imageIndex":4,"items":[{"name":"시낭골영양탕","tel":"031-487-2399","addr":"경기도 안산시 상록구 부곡동 713-2번지 1층","indutype":"일반휴게음식 - 일반한식","category":"restaurant"}]},{"lat":"37.33636956","long":"126.86404091","imageIndex":4,"items":[{"name":"시장통닭개장","tel":"031-507-0240","addr":"경기도 안산시 상록구 부곡동 654-10번지 102호","indutype":"일반휴게음식 - 일반한식","category":"restaurant"}]},{"lat":"37.341335118","long":"126.86485557","imageIndex":4,"items":[{"name":"신진휴게식당","tel":"031-484-7154","addr":"경기도 안산시 상록구 부곡동 75-43번지","indutype":"일반휴게음식 - 일반한식","category":"restaurant"}]},{"lat":"37.327174752","long":"126.86032321","imageIndex":4,"items":[{"name":"신통치킨","tel":"031-419-8772","addr":"경기도 안산시 상록구 부곡동 619-7번지 1층","indutype":"일반휴게음식 - 일반한식","category":"restaurant"}]},{"lat":"37.333252692","long":"126.86459955","imageIndex":4,"items":[{"name":"심봉사도로케","tel":"070-0000-0000","addr":"경기도 안산시 상록구 부곡동 642-7번지 102호","indutype":"일반휴게음식 - 서양음식","category":"restaurant"},{"name":"짱구오빠네","tel":"031-502-0958","addr":"경기도 안산시 상록구 부곡동 642-7번지 1층 103호","indutype":"일반휴게음식 - 일반한식","category":"restaurant"}]},{"lat":"37.335092372","long":"126.85840124","imageIndex":4,"items":[{"name":"아지네포차","tel":"","addr":"경기도 안산시 상록구 부곡동 727-14번지 1층","indutype":"일반휴게음식 - 일반한식","category":"restaurant"},{"name":"페리아치킨","tel":"031-483-3322","addr":"경기도 안산시 상록구 부곡동 727-14번지 1층","indutype":"일반휴게음식 - 주점","category":"restaurant"}]},{"lat":"37.327950061","long":"126.8606828","imageIndex":4,"items":[{"name":"아지트","tel":"070-8817-9295","addr":"경기도 안산시 상록구 부곡동 620번지 1층","indutype":"일반휴게음식 - 주점","category":"restaurant"}]},{"lat":"37.331141896","long":"126.86254983","imageIndex":4,"items":[{"name":"압구정본가불닭발","tel":"031-407-0098","addr":"경기도 안산시 상록구 부곡동 627번지","indutype":"일반휴게음식 - 일반한식","category":"restaurant"},{"name":"훌랄라베이크치킨","tel":"031-407-9205","addr":"경기도 안산시 상록구 부곡동 627번지 1층","indutype":"일반휴게음식 - 주점","category":"restaurant"}]},{"lat":"37.330752168","long":"126.86063238","imageIndex":4,"items":[{"name":"양근해장국","tel":"","addr":"경기도 안산시 상록구 부곡동 673번지 1층","indutype":"일반휴게음식 - 일반한식","category":"restaurant"}]},{"lat":"37.330644412","long":"126.86093723","imageIndex":4,"items":[{"name":"양평해장국(부곡점)","tel":"031-407-6162","addr":"경기도 안산시 상록구 부곡동 673-2번지 1층","indutype":"일반휴게음식 - 일반한식","category":"restaurant"}]},{"lat":"37.334396956","long":"126.86457488","imageIndex":4,"items":[{"name":"언니포차","tel":"031-416-7493","addr":"경기도 안산시 상록구 부곡동 644-8번지 1층 103호","indutype":"일반휴게음식 - 일반한식","category":"restaurant"}]},{"lat":"37.332918761","long":"126.86412624","imageIndex":4,"items":[{"name":"역전꽈배기","tel":"031-415-8230","addr":"경기도 안산시 상록구 부곡동 533-8번지","indutype":"일반휴게음식 - 스넥","category":"restaurant"}]},{"lat":"37.329924719","long":"126.8618751","imageIndex":4,"items":[{"name":"영광의맛찜","tel":"031-416-1768","addr":"경기도 안산시 상록구 부곡동 624-8번지 102호","indutype":"일반휴게음식 - 일반한식","category":"restaurant"}]},{"lat":"37.326669842","long":"126.86004209","imageIndex":4,"items":[{"name":"예당민물매운탕","tel":"031-406-0025","addr":"경기도 안산시 상록구 부곡동 613-11번지 101,102","indutype":"일반휴게음식 - 일반한식","category":"restaurant"},{"name":"쭈노치킨부곡월피점","tel":"031-502-4060","addr":"경기도 안산시 상록구 부곡동 613-11번지 1층","indutype":"일반휴게음식 - 주점","category":"restaurant"}]},{"lat":"37.336504261","long":"126.86365699","imageIndex":4,"items":[{"name":"오투하우스카페(O2HOUSECAFE)","tel":"031-406-3013","addr":"경기도 안산시 상록구 부곡동 654-13 (정재로 128) 1층","indutype":"일반휴게음식 - 서양음식","category":"restaurant"}]},{"lat":"37.335007723","long":"126.86293758","imageIndex":4,"items":[{"name":"옥류정","tel":"031-407-6214","addr":"경기도 안산시 상록구 부곡동 656-13번지","indutype":"일반휴게음식 - 일반한식","category":"restaurant"}]},{"lat":"37.33953242","long":"126.8722052","imageIndex":4,"items":[{"name":"옹기갤러리","tel":"031-486-1113","addr":"경기도 안산시 상록구 부곡동 261-9번지 ,1-2층","indutype":"일반휴게음식 - 일반한식","category":"restaurant"}]},{"lat":"37.332502952","long":"126.86298736","imageIndex":4,"items":[{"name":"요거프레소(부곡점)","tel":"","addr":"경기도 안산시 상록구 부곡동 666-3번지 1층","indutype":"일반휴게음식 - 서양음식","category":"restaurant"}]},{"lat":"37.33159227","long":"126.86243616","imageIndex":4,"items":[{"name":"우리동네","tel":"031-407-8814","addr":"경기도 안산시 상록구 부곡동 670-2번지 1층 101호","indutype":"일반휴게음식 - 일반한식","category":"restaurant"}]},{"lat":"37.330473719","long":"126.86135504","imageIndex":4,"items":[{"name":"원배추해장국","tel":"031-408-2881","addr":"경기도 안산시 상록구 부곡동 673-5번지","indutype":"일반휴게음식 - 일반한식","category":"restaurant"}]},{"lat":"37.334225631","long":"126.86446236","imageIndex":4,"items":[{"name":"원샷호프&소주","tel":"031-111-1111","addr":"경기도 안산시 상록구 부곡동 643번지 1층","indutype":"일반휴게음식 - 주점","category":"restaurant"}]},{"lat":"37.321981849","long":"126.8578284","imageIndex":4,"items":[{"name":"입암리막국수","tel":"031-502-6590","addr":"경기도 안산시 상록구 부곡동 696-11번지","indutype":"일반휴게음식 - 일반한식","category":"restaurant"}]},{"lat":"37.334674107","long":"126.86273509","imageIndex":4,"items":[{"name":"장강중화요리","tel":"031-408-3009","addr":"경기도 안산시 상록구 부곡동 660-18번지 1층","indutype":"일반휴게음식 - 중국식","category":"restaurant"}]},{"lat":"37.322532984","long":"126.85906837","imageIndex":4,"items":[{"name":"장우녹차오리농장","tel":"031-416-5292","addr":"경기도 안산시 상록구 부곡동 695-14번지 1층","indutype":"일반휴게음식 - 일반한식","category":"restaurant"}]},{"lat":"37.329753432","long":"126.86179644","imageIndex":4,"items":[{"name":"장치봉의맵꼬만명태찜","tel":"031-415-1467","addr":"경기도 안산시 상록구 부곡동 624-7번지 1층","indutype":"일반휴게음식 - 일반한식","category":"restaurant"}]},{"lat":"37.324921064","long":"126.85937973","imageIndex":4,"items":[{"name":"장터치킨","tel":"031-507-2599","addr":"경기도 안산시 상록구 부곡동 692-1번지 1층","indutype":"일반휴게음식 - 스넥","category":"restaurant"}]},{"lat":"37.324612819","long":"126.85782334","imageIndex":4,"items":[{"name":"제이앤비호프(J&B)","tel":"031-407-7692","addr":"경기도 안산시 상록구 부곡동 689-8번지 101호","indutype":"일반휴게음식 - 일반한식","category":"restaurant"}]},{"lat":"37.33033889","long":"126.86162609","imageIndex":4,"items":[{"name":"제일생고기","tel":"031-052-1373","addr":"경기도 안산시 상록구 부곡동 673-7번지 1층","indutype":"일반휴게음식 - 일반한식","category":"restaurant"}]},{"lat":"37.330141138","long":"126.86202138","imageIndex":4,"items":[{"name":"제일호프","tel":"031-000-0000","addr":"경기도 안산시 상록구 부곡동 624-10번지 1층","indutype":"일반휴게음식 - 주점","category":"restaurant"}]},{"lat":"37.324315484","long":"126.85782391","imageIndex":4,"items":[{"name":"제주해양수산","tel":"031-408-2976","addr":"경기도 안산시 상록구 부곡동 689-6번지 1층","indutype":"일반휴게음식 - 일반한식","category":"restaurant"}]},{"lat":"37.326812459","long":"126.85876687","imageIndex":4,"items":[{"name":"조은식당","tel":"031-418-6607","addr":"경기도 안산시 상록구 부곡동 685-2번지","indutype":"일반휴게음식 - 일반한식","category":"restaurant"}]},{"lat":"37.333287103","long":"126.86321158","imageIndex":4,"items":[{"name":"종로해장국감자탕","tel":"031-415-6808","addr":"경기도 안산시 상록구 부곡동 662-7번지 1층","indutype":"일반휴게음식 - 일반한식","category":"restaurant"}]},{"lat":"37.3343702319","long":"126.8573193716","imageIndex":4,"items":[{"name":"주식회사 포유컴퍼니","tel":"031-413-4130","addr":"경기도 안산시 상록구 부곡동 733-11번지","indutype":"도매 및 소매업 - 음식물처리기 등","category":"restaurant"}]},{"lat":"37.325785162","long":"126.858656","imageIndex":4,"items":[{"name":"중국관","tel":"031-407-5123","addr":"경기도 안산시 상록구 부곡동 686-3번지 101호","indutype":"일반휴게음식 - 중국식","category":"restaurant"}]},{"lat":"37.334640389","long":"126.86470984","imageIndex":4,"items":[{"name":"중독곱창구이","tel":"031-416-8292","addr":"경기도 안산시 상록구 부곡동 644-10번지 1층","indutype":"일반휴게음식 - 일반한식","category":"restaurant"}]},{"lat":"37.332703625","long":"126.86507447","imageIndex":4,"items":[{"name":"지니갤러리&젬카페","tel":"070-4379-7307","addr":"경기도 안산시 상록구 부곡동 537-3번지 1층","indutype":"일반휴게음식 - 서양음식","category":"restaurant"}]},{"lat":"37.324002627","long":"126.8598779","imageIndex":4,"items":[{"name":"쭈꾸미술관","tel":"031-501-7818","addr":"경기도 안산시 상록구 부곡동 605-1번지 1층 102,103호","indutype":"일반휴게음식 - 일반한식","category":"restaurant"}]},{"lat":"37.330005312","long":"126.86145747","imageIndex":4,"items":[{"name":"쭌호프","tel":"","addr":"경기도 안산시 상록구 부곡동 673-9번지 1층 101호","indutype":"일반휴게음식 - 주점","category":"restaurant"}]},{"lat":"37.33186323","long":"126.86298855","imageIndex":4,"items":[{"name":"착한숯불닭갈비","tel":"031-406-4067","addr":"경기도 안산시 상록구 부곡동 628번지 1층","indutype":"일반휴게음식 - 일반한식","category":"restaurant"},{"name":"펀비어킹(부곡점)","tel":"031-500-8760","addr":"경기도 안산시 상록구 부곡동 628번지 1층","indutype":"일반휴게음식 - 일반한식","category":"restaurant"}]},{"lat":"37.338722152","long":"126.8727934","imageIndex":4,"items":[{"name":"청곡한우촌","tel":"031-411-6725","addr":"경기도 안산시 상록구 부곡동 261-5번지","indutype":"일반휴게음식 - 일반한식","category":"restaurant"}]},{"lat":"37.330590514","long":"126.86107274","imageIndex":4,"items":[{"name":"청석골유황오리","tel":"031-409-7716","addr":"경기도 안산시 상록구 부곡동 673-3번지","indutype":"일반휴게음식 - 일반한식","category":"restaurant"}]},{"lat":"37.334480561","long":"126.85912459","imageIndex":4,"items":[{"name":"청춘회포차","tel":"","addr":"경기도 안산시 상록구 부곡동 729번지 101호","indutype":"일반휴게음식 - 일반한식","category":"restaurant"}]},{"lat":"37.345257169","long":"126.86712807","imageIndex":4,"items":[{"name":"초장집","tel":"031-405-9972","addr":"경기도 안산시 상록구 부곡동 45-1번지 A동 1층","indutype":"일반휴게음식 - 일식·회집","category":"restaurant"}]},{"lat":"37.332287267","long":"126.86346167","imageIndex":4,"items":[{"name":"취흥루","tel":"031-402-8452","addr":"경기도 안산시 상록구 부곡동 538-2번지 1층","indutype":"일반휴게음식 - 중국식","category":"restaurant"}]},{"lat":"37.333865009","long":"126.85679001","imageIndex":4,"items":[{"name":"치킨쉐프 (부곡점)","tel":"031-413-5592","addr":"경기도 안산시 상록구 부곡동 734-16번지 104호","indutype":"일반휴게음식 - 스넥","category":"restaurant"},{"name":"치킨쉐프(부곡점)","tel":"031-413-5592","addr":"경기도 안산시 상록구 부곡동 734-16번지 1층","indutype":"일반휴게음식 - 스넥","category":"restaurant"},{"name":"치킨쉐프(부곡점)","tel":"031-413-5592","addr":"경기도 안산시 상록구 부곡동 734-16번지 1층 104호","indutype":"일반휴게음식 - 일반한식","category":"restaurant"}]},{"lat":"37.334417092","long":"126.85879748","imageIndex":4,"items":[{"name":"친구네","tel":"031-410-2443","addr":"경기도 안산시 상록구 부곡동 728-8번지 1층","indutype":"일반휴게음식 - 일반한식","category":"restaurant"},{"name":"행복한음식점","tel":"031-411-1940","addr":"경기도 안산시 상록구 부곡동 728-8번지 1층 일부","indutype":"일반휴게음식 - 일반한식","category":"restaurant"}]},{"lat":"37.33041982","long":"126.86149054","imageIndex":4,"items":[{"name":"카페329","tel":"070-8688-0319","addr":"경기도 안산시 상록구 부곡동 673-6번지 102호","indutype":"일반휴게음식 - 서양음식","category":"restaurant"}]},{"lat":"37.333974851","long":"126.85818899","imageIndex":4,"items":[{"name":"카페샬롬","tel":"031-410-9420","addr":"경기도 안산시 상록구 부곡동 733-6번지 1층","indutype":"일반휴게음식 - 서양음식","category":"restaurant"}]},{"lat":"37.323840239","long":"126.85970898","imageIndex":4,"items":[{"name":"카페아이엔지(cafe ing)","tel":"031-416-1658","addr":"경기도 안산시 상록구 부곡동 605-11번지 1층","indutype":"일반휴게음식 - 서양음식","category":"restaurant"}]},{"lat":"37.328337837","long":"126.86096414","imageIndex":4,"items":[{"name":"카페에이치(cafe H)","tel":"","addr":"경기도 안산시 상록구 부곡동 622-10번지 1층","indutype":"일반휴게음식 - 서양음식","category":"restaurant"}]},{"lat":"37.333835573","long":"126.86224016","imageIndex":4,"items":[{"name":"카페펠리체","tel":"031-416-4931","addr":"경기도 안산시 상록구 부곡동 663번지 외4필지 1층","indutype":"일반휴게음식 - 서양음식","category":"restaurant"}]},{"lat":"37.332557546","long":"126.8634386","imageIndex":4,"items":[{"name":"커피생각","tel":"031-418-6618","addr":"경기도 안산시 상록구 부곡동 538-6번지 부곡주유소 1층 3호","indutype":"일반휴게음식 - 서양음식","category":"restaurant"}]},{"lat":"37.33295366","long":"126.86315578","imageIndex":4,"items":[{"name":"커피하우스","tel":"031-416-0094","addr":"경기도 안산시 상록구 부곡동 665-3번지 101층","indutype":"일반휴게음식 - 서양음식","category":"restaurant"}]},{"lat":"37.332861844","long":"126.86171164","imageIndex":4,"items":[{"name":"케이준치킨","tel":"031-415-5525","addr":"경기도 안산시 상록구 부곡동 667-14번지 1층","indutype":"일반휴게음식 - 스넥","category":"restaurant"}]},{"lat":"37.333560411","long":"126.85821235","imageIndex":4,"items":[{"name":"터줏대감","tel":"031-410-0292","addr":"경기도 안산시 상록구 부곡동 735번지","indutype":"일반휴게음식 - 일반한식","category":"restaurant"}]},{"lat":"37.331202541","long":"126.8605187","imageIndex":4,"items":[{"name":"토속음식초원","tel":"031-415-7020","addr":"경기도 안산시 상록구 부곡동 672-22번지","indutype":"일반휴게음식 - 일반한식","category":"restaurant"}]},{"lat":"37.325784791","long":"126.85835137","imageIndex":4,"items":[{"name":"투다리(부곡점)","tel":"031-417-3459","addr":"경기도 안산시 상록구 부곡동 686-1번지 101호","indutype":"일반휴게음식 - 스넥","category":"restaurant"}]},{"lat":"37.333946963","long":"126.85748945","imageIndex":4,"items":[{"name":"투다리(시낭점)","tel":"031-410-7115","addr":"경기도 안산시 상록구 부곡동 734-3번지 1층","indutype":"일반휴게음식 - 일반한식","category":"restaurant"}]},{"lat":"37.333809625","long":"126.86315419","imageIndex":4,"items":[{"name":"푼푼","tel":"","addr":"경기도 안산시 상록구 부곡동 661-11번지 1층 102호","indutype":"일반휴게음식 - 서양음식","category":"restaurant"}]},{"lat":"37.333585487","long":"126.86410245","imageIndex":4,"items":[{"name":"피자헐(3호점)","tel":"031-407-7748","addr":"경기도 안산시 상록구 부곡동 643-9번지","indutype":"일반휴게음식 - 서양음식","category":"restaurant"}]},{"lat":"37.332226152","long":"126.86513176","imageIndex":4,"items":[{"name":"하림각","tel":"031-416-4401","addr":"경기도 안산시 상록구 부곡동 542-1번지 1층 부곡동0","indutype":"일반휴게음식 - 중국식","category":"restaurant"}]},{"lat":"37.333366749","long":"126.86199279","imageIndex":4,"items":[{"name":"한방전주콩나물국밥","tel":"031-408-8848","addr":"경기도 안산시 상록구 부곡동 664번지 102,103호","indutype":"일반휴게음식 - 일반한식","category":"restaurant"}]},{"lat":"37.330060663","long":"126.86254056","imageIndex":4,"items":[{"name":"현일병까스돈","tel":"031-1111-1111","addr":"경기도 안산시 상록구 부곡동 625번지 102호","indutype":"일반휴게음식 - 일반한식","category":"restaurant"}]},{"lat":"37.335478465","long":"126.86482115","imageIndex":4,"items":[{"name":"호프일번가","tel":"031-501-3769","addr":"경기도 안산시 상록구 부곡동 655-11번지 101호","indutype":"일반휴게음식 - 주점","category":"restaurant"}]},{"lat":"37.325784321","long":"126.85796776","imageIndex":4,"items":[{"name":"황금돼지","tel":"031-416-1703","addr":"경기도 안산시 상록구 부곡동 688-1번지","indutype":"일반휴게음식 - 일반한식","category":"restaurant"}]},{"lat":"37.330309855","long":"126.85995622","imageIndex":4,"items":[{"name":"후크커피(HOOK COFFEE)","tel":"031-520-2501","addr":"경기도 안산시 상록구 부곡동 678-6번지 1층","indutype":"일반휴게음식 - 서양음식","category":"restaurant"}]},{"lat":"37.325561196","long":"126.85971699","imageIndex":4,"items":[{"name":"훌랄라숯불바베큐","tel":"031-409-3292","addr":"경기도 안산시 상록구 부곡동 612-11번지 1층","indutype":"일반휴게음식 - 스넥","category":"restaurant"},{"name":"훌랄라숯불바베큐","tel":"031-409-3292","addr":"경기도 안산시 상록구 부곡동 612-11번지 1층","indutype":"일반휴게음식 - 스넥","category":"restaurant"}]},{"lat":"37.333172062","long":"126.86499462","imageIndex":4,"items":[{"name":"힐링","tel":"031-416-3354","addr":"경기도 안산시 상록구 부곡동 641-6번지 101호","indutype":"일반휴게음식 - 일반한식","category":"restaurant"}]}]