[{"lat":"37.37242211","long":"127.3010857","imageIndex":4,"items":[{"name":"가장맛있는족발 초월역점","tel":"031-765-5848","addr":"경기도 광주시 초월읍 쌍동리 199-1번지 청파빌딩 1층","indutype":"일반휴게음식 - 일반한식","category":"restaurant"}]},{"lat":"37.37869986","long":"127.2947766","imageIndex":4,"items":[{"name":"강릉먹거리타운","tel":"031-797-0514","addr":"경기도 광주시 초월읍 쌍동리 271-2번지 1층","indutype":"일반휴게음식 - 일반한식","category":"restaurant"}]},{"lat":"37.37661494","long":"127.2962249","imageIndex":4,"items":[{"name":"강산하늘이네","tel":"031-768-4488","addr":"경기도 광주시 초월읍 쌍동리 253-95번지 2층","indutype":"일반휴게음식 - 중국식","category":"restaurant"},{"name":"용지장어숯불구이","tel":"031-766-8198","addr":"경기도 광주시 초월읍 쌍동리 253-95번지","indutype":"일반휴게음식 - 일반한식","category":"restaurant"}]},{"lat":"37.37670423","long":"127.2965527","imageIndex":4,"items":[{"name":"광주우가네본가","tel":"031-763-3778","addr":"경기도 광주시 초월읍 쌍동리 253-28번지 1층","indutype":"일반휴게음식 - 일반한식","category":"restaurant"}]},{"lat":"37.37619773","long":"127.2900024","imageIndex":4,"items":[{"name":"굽네치킨 초월점","tel":"031-765-9492","addr":"경기도 광주시 초월읍 쌍동리 393번지 초월이-편한세상 B106호","indutype":"일반휴게음식 - 스넥","category":"restaurant"},{"name":"굽네치킨(초월점)","tel":"031-765-9492","addr":"경기도 광주시 초월읍 쌍동리 393번지 초월이-편한세상 B106호","indutype":"일반휴게음식 - 스넥","category":"restaurant"}]},{"lat":"37.37769947","long":"127.2948856","imageIndex":4,"items":[{"name":"깡통숯불구이","tel":"031-797-9977","addr":"경기도 광주시 초월읍 쌍동리 279-4번지 1층","indutype":"일반휴게음식 - 일반한식","category":"restaurant"}]},{"lat":"37.37009055","long":"127.303831","imageIndex":4,"items":[{"name":"남석식품 듬박이화로숯불구이","tel":"031-766-1158","addr":"경기도 광주시 초월읍 쌍동리 170-1번지","indutype":"일반휴게음식 - 일반한식","category":"restaurant"}]},{"lat":"37.37797953","long":"127.2945818","imageIndex":4,"items":[{"name":"농부네들밥쌈밥","tel":"031-798-4549","addr":"경기도 광주시 초월읍 쌍동리 279-2번지 1층 동리빌딩","indutype":"일반휴게음식 - 일반한식","category":"restaurant"}]},{"lat":"37.36983726","long":"127.300669","imageIndex":4,"items":[{"name":"니네먹","tel":"031-767-1171","addr":"경기도 광주시 초월읍 쌍동리 125-8번지 민주빌딩 1층","indutype":"일반휴게음식 - 일반한식","category":"restaurant"}]},{"lat":"37.37114985","long":"127.2982244","imageIndex":4,"items":[{"name":"다올","tel":"031-765-9953","addr":"경기도 광주시 초월읍 쌍동리 184번지 1층","indutype":"일반휴게음식 - 스넥","category":"restaurant"},{"name":"비비큐","tel":"031-111-1111","addr":"경기도 광주시 초월읍 쌍동리 184번지 104호","indutype":"일반휴게음식 - 스넥","category":"restaurant"},{"name":"손가락놀이터","tel":"","addr":"경기도 광주시 초월읍 쌍동리 184번지 1층 106호","indutype":"일반휴게음식 - 서양음식","category":"restaurant"}]},{"lat":"37.37006767","long":"127.302194","imageIndex":4,"items":[{"name":"달빛도곡포차","tel":"031-766-4903","addr":"경기도 광주시 초월읍 쌍동리 129-3번지 2동 1층","indutype":"일반휴게음식 - 일반한식","category":"restaurant"}]},{"lat":"37.37133996","long":"127.2978639","imageIndex":4,"items":[{"name":"대니버거 (초월역점)","tel":"031-761-0082","addr":"경기도 광주시 초월읍 쌍동리 222번지 초월팰리스 A동 지101호","indutype":"일반휴게음식 - 서양음식","category":"restaurant"},{"name":"대니버거 초월역점","tel":"031-761-0082","addr":"경기도 광주시 초월읍 쌍동리 222번지 초월팰리스","indutype":"일반휴게음식 - 일반한식","category":"restaurant"}]},{"lat":"37.3702844","long":"127.3020029","imageIndex":4,"items":[{"name":"도곡식당","tel":"031-762-8130","addr":"경기도 광주시 초월읍 쌍동리 177-2번지","indutype":"일반휴게음식 - 일반한식","category":"restaurant"},{"name":"커피오즈","tel":"031-766-7921","addr":"경기도 광주시 초월읍 쌍동리 177-2번지 1층","indutype":"일반휴게음식 - 서양음식","category":"restaurant"}]},{"lat":"37.36922656","long":"127.3034437","imageIndex":4,"items":[{"name":"도골오리농장","tel":"031-761-5967","addr":"경기도 광주시 초월읍 쌍동리 167-3번지","indutype":"일반휴게음식 - 일반한식","category":"restaurant"},{"name":"아리아콩나물국밥","tel":"031-762-0443","addr":"경기도 광주시 초월읍 쌍동리 167-3번지","indutype":"일반휴게음식 - 일반한식","category":"restaurant"}]},{"lat":"37.36895555","long":"127.3037249","imageIndex":4,"items":[{"name":"도야지한식부페","tel":"","addr":"경기도 광주시 초월읍 쌍동리 166-1번지","indutype":"일반휴게음식 - 일반한식","category":"restaurant"},{"name":"초원갈비","tel":"031-1111-1111","addr":"경기도 광주시 초월읍 쌍동리 166-1번지","indutype":"일반휴게음식 - 일반한식","category":"restaurant"},{"name":"초원생고기","tel":"031-767-2998","addr":"경기도 광주시 초월읍 쌍동리 166-1번지 1층","indutype":"일반휴게음식 - 일반한식","category":"restaurant"}]},{"lat":"37.37334078","long":"127.2976347","imageIndex":4,"items":[{"name":"마이마이","tel":"","addr":"경기도 광주시 초월읍 쌍동리 355-6번지 드림하우스 1층 102호","indutype":"일반휴게음식 - 서양음식","category":"restaurant"}]},{"lat":"37.36981833","long":"127.3010302","imageIndex":4,"items":[{"name":"맷돌","tel":"","addr":"경기도 광주시 초월읍 쌍동리 127-1번지 초광빌딩 1층","indutype":"일반휴게음식 - 일반한식","category":"restaurant"},{"name":"현진문구","tel":"031-766-4370","addr":"경기도 광주시 초월읍 쌍동리 127-1","indutype":"일반휴게음식 - 스넥","category":"restaurant"}]},{"lat":"37.37431594","long":"127.296803","imageIndex":4,"items":[{"name":"맹골추어탕","tel":"031-766-7140","addr":"경기도 광주시 초월읍 쌍동리 260-10번지","indutype":"일반휴게음식 - 일반한식","category":"restaurant"}]},{"lat":"37.36990013","long":"127.3043044","imageIndex":4,"items":[{"name":"목포는항구다","tel":"031-000-0000","addr":"경기도 광주시 초월읍 쌍동리 3-11번지 초월리버빌","indutype":"일반휴게음식 - 일반한식","category":"restaurant"}]},{"lat":"37.37161776","long":"127.3020534","imageIndex":4,"items":[{"name":"몬머스카페(monmouth cafe)","tel":"031-769-7778","addr":"경기도 광주시 초월읍 쌍동리 179-7번지 1층","indutype":"일반휴게음식 - 서양음식","category":"restaurant"},{"name":"육감만족 초월점","tel":"031-764-9211","addr":"경기도 광주시 초월읍 쌍동리 179-7번지 1층","indutype":"일반휴게음식 - 일반한식","category":"restaurant"},{"name":"코다리밥상","tel":"031-768-1405","addr":"경기도 광주시 초월읍 쌍동리 179-7번지 1층","indutype":"일반휴게음식 - 일반한식","category":"restaurant"}]},{"lat":"37.37631728","long":"127.2963592","imageIndex":4,"items":[{"name":"무봉리토종순대국","tel":"031-765-6630","addr":"경기도 광주시 초월읍 쌍동리 253-37","indutype":"일반휴게음식 - 일반한식","category":"restaurant"}]},{"lat":"37.36978257","long":"127.3044733","imageIndex":4,"items":[{"name":"안숙소곱창전골","tel":"031-764-8856","addr":"경기도 광주시 초월읍 쌍동리 3-7번지 1층","indutype":"일반휴게음식 - 일반한식","category":"restaurant"}]},{"lat":"37.37414542","long":"127.2965314","imageIndex":4,"items":[{"name":"얼리버드","tel":"031-766-5004","addr":"경기도 광주시 초월읍 쌍동리 260-13번지 1층","indutype":"일반휴게음식 - 서양음식","category":"restaurant"}]},{"lat":"37.36892534","long":"127.3014218","imageIndex":4,"items":[{"name":"여울목","tel":"031-764-6446","addr":"경기도 광주시 초월읍 쌍동리 133-2번지","indutype":"일반휴게음식 - 일반한식","category":"restaurant"}]},{"lat":"37.37764198","long":"127.292616","imageIndex":4,"items":[{"name":"연지삼겹살","tel":"031-769-8009","addr":"경기도 광주시 초월읍 쌍동리 287-7","indutype":"일반휴게음식 - 일반한식","category":"restaurant"}]},{"lat":"37.36795684","long":"127.3031677","imageIndex":4,"items":[{"name":"오렌지분식","tel":"031-1111-1111","addr":"경기도 광주시 초월읍 쌍동리 154-1번지 1층","indutype":"일반휴게음식 - 스넥","category":"restaurant"}]},{"lat":"37.36875635","long":"127.3041079","imageIndex":4,"items":[{"name":"오징어 나라","tel":"031-764-5898","addr":"경기도 광주시 초월읍 쌍동리 18-2번지 2층","indutype":"일반휴게음식 - 일반한식","category":"restaurant"},{"name":"중화촌","tel":"031-767-7750","addr":"경기도 광주시 초월읍 쌍동리 18-2번지","indutype":"일반휴게음식 - 중국식","category":"restaurant"}]},{"lat":"37.36778608","long":"127.3029977","imageIndex":4,"items":[{"name":"와와한식뷔페정식","tel":"031-761-4213","addr":"경기도 광주시 초월읍 쌍동리 155-1번지 1층","indutype":"일반휴게음식 - 일반한식","category":"restaurant"}]},{"lat":"37.37056056","long":"127.3032459","imageIndex":4,"items":[{"name":"유주희손만두국칼국수","tel":"","addr":"경기도 광주시 초월읍 쌍동리 130-18번지 1층","indutype":"일반휴게음식 - 일반한식","category":"restaurant"},{"name":"타임브릿지커피","tel":"031-797-0711","addr":"경기도 광주시 초월읍 쌍동리 130-18번지 1호동동 3층","indutype":"일반휴게음식 - 서양음식","category":"restaurant"}]},{"lat":"37.36522992","long":"127.305471","imageIndex":4,"items":[{"name":"제일구내식당","tel":"031-528-8126","addr":"경기도 광주시 초월읍 쌍동리 48-7","indutype":"일반휴게음식 - 위탁급식업","category":"restaurant"}]},{"lat":"37.37780834","long":"127.2945812","imageIndex":4,"items":[{"name":"초월포차","tel":"031-765-4431","addr":"경기도 광주시 초월읍 쌍동리 279-6번지","indutype":"일반휴게음식 - 일반한식","category":"restaurant"}]},{"lat":"37.36925669","long":"127.3022246","imageIndex":4,"items":[{"name":"치킨선생","tel":"031-797-0688","addr":"경기도 광주시 초월읍 쌍동리 332-5번지 1층","indutype":"일반휴게음식 - 스넥","category":"restaurant"}]},{"lat":"37.36762318","long":"127.3032793","imageIndex":4,"items":[{"name":"카페드림 (cafe drim)","tel":"031-4765-6380","addr":"경기도 광주시 초월읍 쌍동리 151-1번지 1층","indutype":"일반휴게음식 - 서양음식","category":"restaurant"}]},{"lat":"37.37011603","long":"127.3008846","imageIndex":4,"items":[{"name":"카페로운","tel":"070-4259-3443","addr":"경기도 광주시 초월읍 쌍동리 181-25번지 1층","indutype":"일반휴게음식 - 서양음식","category":"restaurant"}]},{"lat":"37.37739469","long":"127.2978876","imageIndex":4,"items":[{"name":"카페첼코바","tel":"031-766-1050","addr":"경기도 광주시 초월읍 쌍동리 255-1번지 느티나무하우스 1층","indutype":"일반휴게음식 - 서양음식","category":"restaurant"}]},{"lat":"37.36956653","long":"127.3043934","imageIndex":4,"items":[{"name":"태능참숯숯불구이","tel":"031-762-1268","addr":"경기도 광주시 초월읍 쌍동리 3-2번지 2층","indutype":"일반휴게음식 - 일반한식","category":"restaurant"},{"name":"태능참숯화로구이","tel":"031-762-1268","addr":"경기도 광주시 초월읍 쌍동리 3-2번지 1층","indutype":"일반휴게음식 - 일반한식","category":"restaurant"}]},{"lat":"37.37147654","long":"127.30089","imageIndex":4,"items":[{"name":"페리카나초월점","tel":"031-767-4166","addr":"경기도 광주시 초월읍 쌍동리 198-4번지","indutype":"일반휴게음식 - 스넥","category":"restaurant"}]},{"lat":"37.37689632","long":"127.2953905","imageIndex":4,"items":[{"name":"풍요마을수산시장","tel":"031-768-5555","addr":"경기도 광주시 초월읍 쌍동리 253-32번지","indutype":"일반휴게음식 - 일식·회집","category":"restaurant"}]},{"lat":"37.36981086","long":"127.3039767","imageIndex":4,"items":[{"name":"해신","tel":"031-766-3358","addr":"경기도 광주시 초월읍 쌍동리 170-9번지 1층","indutype":"일반휴게음식 - 일반한식","category":"restaurant"}]},{"lat":"37.36881765","long":"127.301252","imageIndex":4,"items":[{"name":"해장국(감자탕)","tel":"031-797-7880","addr":"경기도 광주시 초월읍 쌍동리 133-6번지","indutype":"일반휴게음식 - 일반한식","category":"restaurant"}]},{"lat":"37.36895183","long":"127.3016364","imageIndex":4,"items":[{"name":"허가네 흑염소","tel":"031-765-5844","addr":"경기도 광주시 초월읍 쌍동리 332-6번지 1층","indutype":"일반휴게음식 - 일반한식","category":"restaurant"}]}]