[{"lat":"37.3213130209","long":"126.9545048694","imageIndex":13,"items":[{"name":"DVD노래연습장","tel":"031-462-3456","addr":"경기도 의왕시 삼동 208-3번지 태광빌딩 4층","indutype":"레저업소 - 노 래 방","category":"leisure"},{"name":"토토당구클럽","tel":"031-462-5898","addr":"경기도 의왕시 삼동 208-3번지 태광빌딩 3층","indutype":"레저업소 - 당 구 장","category":"leisure"}]},{"lat":"37.3206991109","long":"126.9516171016","imageIndex":13,"items":[{"name":"NEW당구클럽","tel":"02-1111-1111","addr":"경기도 의왕시 삼동 192-12번지 태웅빌딩 4층","indutype":"레저업소 - 당 구 장","category":"leisure"},{"name":"크리드PC방","tel":"070-3959-6922","addr":"경기도 의왕시 삼동 192-12번지 태웅빌딩 2층 201호,202호","indutype":"레저업소 - 기타레져업소","category":"leisure"}]},{"lat":"37.3212855896","long":"126.9535346377","imageIndex":13,"items":[{"name":"SBS당구클럽","tel":"031-226-4025","addr":"경기도 의왕시 삼동 208-10번지 2층","indutype":"레저업소 - 당 구 장","category":"leisure"}]},{"lat":"37.3212309898","long":"126.9522598120","imageIndex":13,"items":[{"name":"SOS노래연습장","tel":"031-462-1006","addr":"경기도 의왕시 삼동 199-4번지 오라빌딩 2층","indutype":"레저업소 - 노 래 방","category":"leisure"}]},{"lat":"37.3208171529","long":"126.9537605820","imageIndex":13,"items":[{"name":"SUMMIT PC방","tel":"070-3159-7003","addr":"경기도 의왕시 삼동 208-18번지 2층","indutype":"레저업소 - 기타레져업소","category":"leisure"},{"name":"의왕주짓수","tel":"","addr":"경기도 의왕시 삼동 208-18번지 4층","indutype":"레저업소 - 헬스클럽","category":"leisure"}]},{"lat":"37.3212311533","long":"126.9526433985","imageIndex":13,"items":[{"name":"그레이스짐","tel":"031-462-1461","addr":"경기도 의왕시 삼동 200-52번지 미우프라자 2층","indutype":"레저업소 - 헬스클럽","category":"leisure"},{"name":"리조트요가","tel":"031-462-1461","addr":"경기도 의왕시 삼동 200-52번지 미우프라자 2층 202호","indutype":"레저업소 - 헬스클럽","category":"leisure"}]},{"lat":"37.3213106725","long":"126.9490669606","imageIndex":13,"items":[{"name":"그린필라테스","tel":"","addr":"경기도 의왕시 삼동 471-68, 3층","indutype":"레저업소 - 헬스클럽","category":"leisure"}]},{"lat":"37.3191503117","long":"126.9538744834","imageIndex":13,"items":[{"name":"노리파크 의왕삼동점","tel":"031-8296-3137","addr":"경기도 의왕시 삼동 216-12번지 2층","indutype":"레저업소 - 기타레져업소","category":"leisure"}]},{"lat":"37.3189784241","long":"126.9522274780","imageIndex":13,"items":[{"name":"닉PC방","tel":"02-1111-1111","addr":"경기도 의왕시 삼동 166-15번지 부영빌딩 지층","indutype":"레저업소 - 기타레져업소","category":"leisure"}]},{"lat":"37.3178978321","long":"126.9537286376","imageIndex":13,"items":[{"name":"다마내기 당구클럽","tel":"","addr":"경기도 의왕시 삼동 134-26번지 3층","indutype":"레저업소 - 당 구 장","category":"leisure"}]},{"lat":"37.3206716559","long":"126.9506468789","imageIndex":13,"items":[{"name":"라이또 PC방 의왕 본점","tel":"070-2351-4102","addr":"경기도 의왕시 삼동 192-38번지 3층 301호","indutype":"레저업소 - 기타레져업소","category":"leisure"}]},{"lat":"37.3211217338","long":"126.9496763203","imageIndex":13,"items":[{"name":"럭셔리질러존노래연습장","tel":"031-416-3885","addr":"경기도 의왕시 삼동 471-26번지 남송빌딩 2,3층","indutype":"레저업소 - 노 래 방","category":"leisure"},{"name":"스타당구클럽","tel":"031-111-1111","addr":"경기도 의왕시 삼동 471-26번지 남송빌딩 4층","indutype":"레저업소 - 당 구 장","category":"leisure"}]},{"lat":"37.3199236240","long":"126.9502299714","imageIndex":13,"items":[{"name":"로웰PC방","tel":"070-5533-9209","addr":"경기도 의왕시 삼동 192-56번지 부곡빌딩 지하","indutype":"레저업소 - 기타레져업소","category":"leisure"},{"name":"부곡당구장","tel":"031-427-5811","addr":"경기도 의왕시 삼동 192-56번지 부곡빌딩 3층","indutype":"레저업소 - 당 구 장","category":"leisure"}]},{"lat":"37.3206442791","long":"126.9498684487","imageIndex":13,"items":[{"name":"모던노래연습장","tel":"031-462-9713","addr":"경기도 의왕시 삼동 471-24번지 3층","indutype":"레저업소 - 노 래 방","category":"leisure"}]},{"lat":"37.3210951255","long":"126.9506240219","imageIndex":13,"items":[{"name":"무지개노래연습장","tel":"031-462-2966","addr":"경기도 의왕시 삼동 192-25번지 삼동빌라 2층","indutype":"레저업소 - 노 래 방","category":"leisure"},{"name":"예이원당구장","tel":"031-462-9924","addr":"경기도 의왕시 삼동 192-25번지 삼동빌라","indutype":"레저업소 - 당 구 장","category":"leisure"}]},{"lat":"37.3188154539","long":"126.9504225317","imageIndex":13,"items":[{"name":"비지 복싱","tel":"031-461-6668","addr":"경기도 의왕시 삼동 160-16번지","indutype":"레저업소 - 헬스클럽","category":"leisure"},{"name":"비지복싱","tel":"031-461-6668","addr":"경기도 의왕시 삼동 160-16번지 B02호","indutype":"레저업소 - 헬스클럽","category":"leisure"}]},{"lat":"37.3175109614","long":"126.9551165022","imageIndex":13,"items":[{"name":"삼호스크린골프","tel":"031-461-5033","addr":"경기도 의왕시 삼동 124-8번지","indutype":"레저업소 - 스크린골프","category":"leisure"}]},{"lat":"37.3210950106","long":"126.9503645374","imageIndex":13,"items":[{"name":"스카이당구장","tel":"","addr":"경기도 의왕시 삼동 471-99번지 우성빌딩 4층","indutype":"레저업소 - 당 구 장","category":"leisure"}]},{"lat":"37.3206444152","long":"126.9501730592","imageIndex":13,"items":[{"name":"스토리PC방","tel":"","addr":"경기도 의왕시 삼동 192-42번지 동서빌딩 2층","indutype":"레저업소 - 기타레져업소","category":"leisure"}]},{"lat":"37.3183947947","long":"126.9572255901","imageIndex":13,"items":[{"name":"의왕시청 부곡스포츠센터","tel":"031-8086-7395","addr":"경기도 의왕시 삼동 101-5번지 부곡스포츠센터","indutype":"레저업소 - 헬스클럽","category":"leisure"}]},{"lat":"37.3174556410","long":"126.9520931233","imageIndex":13,"items":[{"name":"정안노래연습장","tel":"031-462-2436","addr":"경기도 의왕시 삼동 146-41번지","indutype":"레저업소 - 노 래 방","category":"leisure"}]},{"lat":"37.3213128262","long":"126.9540310267","imageIndex":13,"items":[{"name":"제이제이(J.J)당구클럽","tel":"031-375-0548","addr":"경기도 의왕시 삼동 208-37번지 계정빌딩 4층","indutype":"레저업소 - 당 구 장","category":"leisure"},{"name":"콘서트노래연습장","tel":"031-461-3338","addr":"경기도 의왕시 삼동 208-37번지","indutype":"레저업소 - 노 래 방","category":"leisure"}]},{"lat":"37.3199238339","long":"126.9507038053","imageIndex":13,"items":[{"name":"지에스 노래연습장","tel":"031-461-8331","addr":"경기도 의왕시 삼동 192-51번지 지층","indutype":"레저업소 - 노 래 방","category":"leisure"}]},{"lat":"37.3211765193","long":"126.9513121646","imageIndex":13,"items":[{"name":"채플린노래연습장","tel":"031-461-5333","addr":"경기도 의왕시 삼동 196-1번지 신흥빌딩 3층","indutype":"레저업소 - 노 래 방","category":"leisure"}]},{"lat":"37.3200946718","long":"126.9499026802","imageIndex":13,"items":[{"name":"퀸노래연습장","tel":"031-462-6699","addr":"경기도 의왕시 삼동 192-59번지","indutype":"레저업소 - 노 래 방","category":"leisure"}]},{"lat":"37.3205089026","long":"126.9493721423","imageIndex":13,"items":[{"name":"큐 코인노래연습장","tel":"031-458-6464","addr":"경기도 의왕시 삼동 193-10번지 벽강빌딩 지층","indutype":"레저업소 - 노 래 방","category":"leisure"}]},{"lat":"37.3169510693","long":"126.9520934628","imageIndex":13,"items":[{"name":"키다리 방방","tel":"070-8267-0078","addr":"경기도 의왕시 삼동 147-18번지","indutype":"레저업소 - 기타레져업소","category":"leisure"}]},{"lat":"37.3213129098","long":"126.9542341021","imageIndex":13,"items":[{"name":"팡팡노래연습장","tel":"031-461-7726","addr":"경기도 의왕시 삼동 208-7번지 3층","indutype":"레저업소 - 노 래 방","category":"leisure"}]},{"lat":"37.3175628493","long":"126.9500059901","imageIndex":13,"items":[{"name":"필스크린골프","tel":"031-462-0753","addr":"경기도 의왕시 삼동 160-63번지 부곡꿈마을 3층","indutype":"레저업소 - 스크린골프","category":"leisure"}]}]