[{"lat":"37.894423509","long":"127.55781685","imageIndex":7,"items":[{"name":"(주)고려상역","tel":"","addr":"경기도 가평군 북면 목동리 699-17번지 1층","indutype":"음료식품 - 기타음료식품","category":"food"}]},{"lat":"37.882203439","long":"127.5508823","imageIndex":7,"items":[{"name":"가평오가피청국된장","tel":"031-582-4726","addr":"경기도 가평군 북면 목동리 792-1 1/3","indutype":"음료식품 - 기타음료식품","category":"food"}]},{"lat":"37.886642701","long":"127.54943742","imageIndex":7,"items":[{"name":"대일정육점","tel":"031-582-1190","addr":"경기도 가평군 북면 목동리 891-2","indutype":"음료식품 - 정육점","category":"food"}]},{"lat":"37.886253364","long":"127.54985514","imageIndex":7,"items":[{"name":"또와상회","tel":"031-581-0035","addr":"경기도 가평군 북면 목동리 886-24번지","indutype":"음료식품 - 기타음료식품","category":"food"}]},{"lat":"37.885229566","long":"127.54915416","imageIndex":7,"items":[{"name":"명지정육점","tel":"031-582-8861","addr":"경기도 가평군 북면 목동리 825-10번지","indutype":"음료식품 - 정육점","category":"food"}]},{"lat":"37.886480013","long":"127.54954989","imageIndex":7,"items":[{"name":"목동정육점","tel":"031-582-0033","addr":"경기도 가평군 북면 목동리 890-1번지","indutype":"음료식품 - 정육점","category":"food"},{"name":"목동정육점","tel":"031-582-0033","addr":"경기도 가평군 북면 목동리 890-1","indutype":"음료식품 - 정육점","category":"food"}]},{"lat":"37.887204103","long":"127.54882772","imageIndex":7,"items":[{"name":"북면떡방아","tel":"031-582-7890","addr":"경기도 가평군 북면 목동리 898-8번지","indutype":"음료식품 - 제과점","category":"food"}]},{"lat":"37.887031773","long":"127.54907653","imageIndex":7,"items":[{"name":"하나정육점","tel":"031-582-7354","addr":"경기도 가평군 북면 목동리 897번지","indutype":"음료식품 - 정육점","category":"food"}]}]