[{"lat":"37.42997099","long":"127.2407327","imageIndex":17,"items":[{"name":"(주)명성디자인","tel":"031-766-7178","addr":"경기도 광주시 회덕동 259-1번지 2층","indutype":"건축자재 - 인테리어전문","category":"other"}]},{"lat":"37.43294325","long":"127.2412506","imageIndex":17,"items":[{"name":"(주)우진디앤티","tel":"031-762-3788","addr":"경기도 광주시 회덕동 233-1번지","indutype":"의류 - 기타의류","category":"other"},{"name":"(주)유림통상","tel":"031-764-0552","addr":"경기도 광주시 회덕동 233-1번지","indutype":"레져용품 - 스포츠·레져용품","category":"other"},{"name":"주식회사 우진디앤티","tel":"032-762-3788","addr":"경기도 광주시 회덕동 233-1번지","indutype":"의류 - 기타의류","category":"other"}]},{"lat":"37.43280393","long":"127.2433065","imageIndex":17,"items":[{"name":"B엔B","tel":"031-763-1183","addr":"경기도 광주시 회덕동 196-2번지","indutype":"가구 - 일반가구","category":"other"}]},{"lat":"37.43164112","long":"127.2435626","imageIndex":17,"items":[{"name":"GS25회덕타운점","tel":"","addr":"경기도 광주시 회덕동 205번지 골든빌 103동 1층상가","indutype":"유통업 영리 - 편 의 점","category":"other"}]},{"lat":"37.43083608","long":"127.2406677","imageIndex":17,"items":[{"name":"JD퍼니처","tel":"070-7783-9919","addr":"경기도 광주시 회덕동 249번지","indutype":"가구 - 일반가구","category":"other"}]},{"lat":"37.42894082","long":"127.2466383","imageIndex":17,"items":[{"name":"경기씨스템","tel":"031-761-8028","addr":"경기도 광주시 회덕동 375번지","indutype":"용역 서비스 - 기타용역서비스","category":"other"}]},{"lat":"37.42861449","long":"127.2432027","imageIndex":17,"items":[{"name":"경덕재주간보호센터경안점","tel":"031-798-7977","addr":"경기도 광주시 회덕동 315번지 1층","indutype":"기타의료기관 - 기타의료기관 및 기타","category":"other"},{"name":"칼의부활성동","tel":"031-111-1111","addr":"경기도 광주시 회덕동 315번지 혜아빌 203호","indutype":"수리서비스 - 기타수리서비스","category":"other"}]},{"lat":"37.4345816","long":"127.2419789","imageIndex":17,"items":[{"name":"경호폴딩","tel":"031-797-2355","addr":"경기도 광주시 회덕동 221-3번지","indutype":"건축자재 - 기타건축자재","category":"other"}]},{"lat":"37.42722007","long":"127.2421475","imageIndex":17,"items":[{"name":"공구이야기","tel":"031-766-2209","addr":"경기도 광주시 회덕동 271-5번지 신주빌딩 105호","indutype":"기타 - 기계공구","category":"other"}]},{"lat":"37.42864142","long":"127.2476429","imageIndex":17,"items":[{"name":"광고생각","tel":"031-764-7770","addr":"경기도 광주시 회덕동 381-2번지","indutype":"용역 서비스 - 종합용역","category":"other"}]},{"lat":"37.42691323","long":"127.2423951","imageIndex":17,"items":[{"name":"광주종합설비","tel":"031-764-0004","addr":"경기도 광주시 회덕동 272-1번지","indutype":"용역 서비스 - 기타용역서비스","category":"other"}]},{"lat":"37.42716381","long":"127.2432319","imageIndex":17,"items":[{"name":"나무꼴","tel":"070-8822-5025","addr":"경기도 광주시 회덕동 304번지","indutype":"가구 - 일반가구","category":"other"}]},{"lat":"37.42794213","long":"127.2415284","imageIndex":17,"items":[{"name":"농민아울렛","tel":"031-768-7077","addr":"경기도 광주시 회덕동 271-1번지 103호","indutype":"신변잡화 - 기타잡화","category":"other"}]},{"lat":"37.43022377","long":"127.2492863","imageIndex":17,"items":[{"name":"누리테크(로이포스)","tel":"031-722-4040","addr":"경기도 광주시 회덕동 441번지 회덕동대주파크빌 상가동 201호","indutype":"사무통신 - 기타 사무용품","category":"other"}]},{"lat":"37.43182136","long":"127.2390777","imageIndex":17,"items":[{"name":"대유위니아서비스","tel":"031-266-9588","addr":"경기도 광주시 회덕동 246-1번지 주원타운 121동 302호","indutype":"수리서비스 - 가정용품수리","category":"other"}]},{"lat":"37.43100883","long":"127.2398886","imageIndex":17,"items":[{"name":"도나수","tel":"","addr":"경기도 광주시 회덕동 246-1번지 주원타운 109동 4층 1호","indutype":"신변잡화 - 액세서리","category":"other"}]},{"lat":"37.42653206","long":"127.2437496","imageIndex":17,"items":[{"name":"도도앤패리스","tel":"070-8223-3813","addr":"경기도 광주시 회덕동 276-5번지 장미빌라 101호","indutype":"용역 서비스 - 종합용역","category":"other"}]},{"lat":"37.42827618","long":"127.2456194","imageIndex":17,"items":[{"name":"동양택크린","tel":"031-768-7201","addr":"경기도 광주시 회덕동 370번지","indutype":"건축자재 - 보일러·펌프·샷시","category":"other"}]},{"lat":"37.4275585","long":"127.2440918","imageIndex":17,"items":[{"name":"라이팅월드","tel":"031-761-4815","addr":"경기도 광주시 회덕동 299번지 1층","indutype":"건축자재 - 조명기구","category":"other"}]},{"lat":"37.43447167","long":"127.2428711","imageIndex":17,"items":[{"name":"만년생옻칠방","tel":"031-768-5278","addr":"경기도 광주시 회덕동 219-2번지 B동","indutype":"문화.취미 - 민예·공예품","category":"other"}]},{"lat":"37.43075157","long":"127.2423621","imageIndex":17,"items":[{"name":"명문부엌가구","tel":"031-765-4244","addr":"경기도 광주시 회덕동 329-1번지","indutype":"주방용구 - 주방용구","category":"other"}]},{"lat":"37.43027801","long":"127.2403947","imageIndex":17,"items":[{"name":"명성광고디자인","tel":"031-769-5219","addr":"경기도 광주시 회덕동 250-15번지","indutype":"서적문구 - 출판 및 인쇄물","category":"other"},{"name":"창작디자인","tel":"031-798-9123","addr":"경기도 광주시 회덕동 250-15","indutype":"용역 서비스 - 종합용역","category":"other"}]},{"lat":"37.43722108","long":"127.242202","imageIndex":17,"items":[{"name":"바른골프","tel":"0331-797-3048","addr":"경기도 광주시 회덕동 151-2번지 현대빌리지","indutype":"회원제형태 - 레져업소","category":"other"}]},{"lat":"37.43038462","long":"127.2411408","imageIndex":17,"items":[{"name":"본생태키즈","tel":"031-769-1250","addr":"경기도 광주시 회덕동 251-3번지","indutype":"가구 - 일반가구","category":"other"}]},{"lat":"37.4289753","long":"127.2473954","imageIndex":17,"items":[{"name":"봉봉디자인","tel":"031-763-0607","addr":"경기도 광주시 회덕동 385번지 1층 104호","indutype":"서적문구 - 출판 및 인쇄물","category":"other"}]},{"lat":"37.4315513","long":"127.2434267","imageIndex":17,"items":[{"name":"뽀송홈케어","tel":"","addr":"경기도 광주시 회덕동 205-6번지 미리내타운 101동 201호","indutype":"용역 서비스 - 종합용역","category":"other"}]},{"lat":"37.43369062","long":"127.2414789","imageIndex":17,"items":[{"name":"새한고속관광(주)","tel":"031-764-8625","addr":"경기도 광주시 회덕동 227-18번지","indutype":"여행 - 고속버스","category":"other"}]},{"lat":"37.42905351","long":"127.2487853","imageIndex":17,"items":[{"name":"서울광고","tel":"031-765-0845","addr":"경기도 광주시 회덕동 382번지","indutype":"용역 서비스 - 종합용역","category":"other"},{"name":"에스에이치조경(주)","tel":"031-769-3595","addr":"경기도 광주시 회덕동 382번지 B-5호","indutype":"건축자재 - 인테리어전문","category":"other"},{"name":"컴피아","tel":"031-766-1728","addr":"경기도 광주시 회덕동 382번지 A동 101호","indutype":"용역 서비스 - 소프트웨어","category":"other"}]},{"lat":"37.42861216","long":"127.2443438","imageIndex":17,"items":[{"name":"서울상사","tel":"031-323-4072","addr":"경기도 광주시 회덕동 310-4번지","indutype":"의류 - 정장","category":"other"}]},{"lat":"37.44085633","long":"127.2401118","imageIndex":17,"items":[{"name":"성남에어컨","tel":"070-7527-9879","addr":"경기도 광주시 회덕동 산76번지","indutype":"전기제품 - 가전제품","category":"other"}]},{"lat":"37.43580787","long":"127.2415308","imageIndex":17,"items":[{"name":"세븐일레븐경기광주회덕점","tel":"031-1577-0711","addr":"경기도 광주시 회덕동 142-3번지 1층","indutype":"유통업 영리 - 편 의 점","category":"other"}]},{"lat":"37.42955541","long":"127.241285","imageIndex":17,"items":[{"name":"세븐일레븐광주소울점","tel":"","addr":"경기도 광주시 회덕동 265-2번지","indutype":"유통업 영리 - 편 의 점","category":"other"},{"name":"스피드셀프 coin빨래방","tel":"02-000-0000","addr":"경기도 광주시 회덕동 265-2번지 102호","indutype":"수리서비스 - 세탁소","category":"other"},{"name":"천연사랑I(l love natural)","tel":"031-797-4035","addr":"경기도 광주시 회덕동 265-2번지 303호","indutype":"신변잡화 - 기타잡화","category":"other"}]},{"lat":"37.42964204","long":"127.2473976","imageIndex":17,"items":[{"name":"신신메디케어","tel":"031-8864-2479","addr":"경기도 광주시 회덕동 361-1번지","indutype":"수리서비스 - 기타수리서비스","category":"other"}]},{"lat":"37.42736458","long":"127.2419785","imageIndex":17,"items":[{"name":"앤조이팻","tel":"031-764-4478","addr":"경기도 광주시 회덕동 271-2번지","indutype":"문화.취미 - 애완동물","category":"other"}]},{"lat":"37.43619578","long":"127.2500629","imageIndex":17,"items":[{"name":"에이치엔에스(HNS)","tel":"","addr":"경기도 광주시 회덕동 173-43번지","indutype":"주방용구 - 주방용구","category":"other"}]},{"lat":"37.43063595","long":"127.2460337","imageIndex":17,"items":[{"name":"엔 케이스","tel":"02-1111-1111","addr":"경기도 광주시 회덕동 354-1번지","indutype":"가구 - 일반가구","category":"other"}]},{"lat":"37.43255637","long":"127.2409782","imageIndex":17,"items":[{"name":"오션사운드","tel":"031-798-2278","addr":"경기도 광주시 회덕동 235-35번지 굿모닝하우스","indutype":"전기제품 - 가전제품","category":"other"}]},{"lat":"37.42584402","long":"127.2453517","imageIndex":17,"items":[{"name":"옷이날개","tel":"070-4102-9174","addr":"경기도 광주시 회덕동 282-1번지 상록파크타운 104동 401호","indutype":"의류 - 정장","category":"other"}]},{"lat":"37.42944641","long":"127.2461429","imageIndex":17,"items":[{"name":"우리정보통신","tel":"031-765-8476","addr":"경기도 광주시 회덕동 362-13번지","indutype":"사무통신 - 통신기기","category":"other"}]},{"lat":"37.43008308","long":"127.2476137","imageIndex":17,"items":[{"name":"우승정보통신","tel":"031-769-2259","addr":"경기도 광주시 회덕동 388-2번지 초원빌라 202호","indutype":"사무통신 - 통신기기","category":"other"}]},{"lat":"37.42927617","long":"127.2412502","imageIndex":17,"items":[{"name":"이마트24 광주회덕점","tel":"","addr":"경기도 광주시 회덕동 264-3번지 1층 101,102호","indutype":"유통업 영리 - 편 의 점","category":"other"}]},{"lat":"37.42792463","long":"127.2456973","imageIndex":17,"items":[{"name":"이수에너텍","tel":"031-798-2548","addr":"경기도 광주시 회덕동 295-3번지 벽산블루밍아파트","indutype":"수리서비스 - 기타수리서비스","category":"other"}]},{"lat":"37.42963682","long":"127.245556","imageIndex":17,"items":[{"name":"전국 에어컨 토탈 매니아","tel":"","addr":"경기도 광주시 회덕동 350번지 용천맨션 101호","indutype":"용역 서비스 - 기타용역서비스","category":"other"}]},{"lat":"37.42869468","long":"127.2480272","imageIndex":17,"items":[{"name":"제이비테크","tel":"031-767-5360","addr":"경기도 광주시 회덕동 381-4번지 (행정타운로95,1층)","indutype":"사무통신 - 컴퓨터","category":"other"}]},{"lat":"37.42744705","long":"127.2457184","imageIndex":17,"items":[{"name":"종합상사","tel":"02-0000-0000","addr":"경기도 광주시 회덕동 295-3번지 벽산블루밍아파트","indutype":"문화.취미 - 화랑","category":"other"}]},{"lat":"37.43325183","long":"127.2445847","imageIndex":17,"items":[{"name":"주식회사케이엠에스","tel":"031-746-1006","addr":"경기도 광주시 회덕동 195-5번지","indutype":"기타 - 기계공구","category":"other"}]},{"lat":"37.4292235","long":"127.2405609","imageIndex":17,"items":[{"name":"카사인","tel":"031-333-3048","addr":"경기도 광주시 회덕동 242-7번지 카사인 2층","indutype":"기타 - 기타 전문점","category":"other"}]},{"lat":"37.43274748","long":"127.2444813","imageIndex":17,"items":[{"name":"캔들소소","tel":"","addr":"경기도 광주시 회덕동 195-27번지 다원베르빌","indutype":"신변잡화 - 기타잡화","category":"other"}]},{"lat":"37.42722417","long":"127.2445653","imageIndex":17,"items":[{"name":"컬(curl)","tel":"031-797-5260","addr":"경기도 광주시 회덕동 298-1번지 2층","indutype":"가구 - 일반가구","category":"other"}]},{"lat":"37.43244024","long":"127.2404807","imageIndex":17,"items":[{"name":"코스켐(KOSCHEM)","tel":"031-767-1620","addr":"경기도 광주시 회덕동 235-7번지","indutype":"유통업 영리 - 기타유통업","category":"other"}]},{"lat":"37.43233425","long":"127.2394183","imageIndex":17,"items":[{"name":"태경강화자동문","tel":"031-798-4947","addr":"경기도 광주시 회덕동 237-1번지 굿데이빌","indutype":"수리서비스 - 기타수리서비스","category":"other"}]},{"lat":"37.4361926","long":"127.2428653","imageIndex":17,"items":[{"name":"포시즌","tel":"031-767-7506","addr":"경기도 광주시 회덕동 161-2번지 스타파크뷰 102동 401호","indutype":"용역 서비스 - 기타용역서비스","category":"other"}]},{"lat":"37.42813645","long":"127.2434497","imageIndex":17,"items":[{"name":"푸르네광주","tel":"031-767-1503","addr":"경기도 광주시 회덕동 309-4번지 에덴하우스 402호","indutype":"농업 - 비료,사료,종자","category":"other"}]},{"lat":"37.43427862","long":"127.2447574","imageIndex":17,"items":[{"name":"필라우대","tel":"02-3442-2457","addr":"경기도 광주시 회덕동 193번지","indutype":"건축자재 - 인테리어전문","category":"other"}]},{"lat":"37.43028198","long":"127.2472867","imageIndex":17,"items":[{"name":"하이진 (Hygene)","tel":"070-4127-8042","addr":"경기도 광주시 회덕동 357번지 황제쉐르빌 4층 402호","indutype":"서적문구 - 과학기자재","category":"other"}]},{"lat":"37.43819241","long":"127.2430638","imageIndex":17,"items":[{"name":"한양 강화 유리문-자동문","tel":"031-742-2030","addr":"경기도 광주시 회덕동 155-3번지 헤라빌 401호","indutype":"수리서비스 - 기타수리서비스","category":"other"}]},{"lat":"37.4305254","long":"127.2428134","imageIndex":17,"items":[{"name":"한양케미칼","tel":"","addr":"경기도 광주시 회덕동 332-7번지","indutype":"직물 - 기타직물","category":"other"}]},{"lat":"37.42950441","long":"127.2485948","imageIndex":17,"items":[{"name":"혁진","tel":"","addr":"경기도 광주시 회덕동 441번지 회덕동대주파크빌","indutype":"의류 - 정장","category":"other"}]},{"lat":"37.42902994","long":"127.2471132","imageIndex":17,"items":[{"name":"홈브리즈","tel":"031-761-7807","addr":"경기도 광주시 회덕동 377번지","indutype":"직물 - 옷감·직물","category":"other"}]}]