[{"lat":"37.391300956","long":"126.97286662","imageIndex":17,"items":[{"name":"(재)한국먹는물안전연구원","tel":"031-478-0790","addr":"경기도 안양시 동안구 평촌동 126-1번지","indutype":"용역 서비스 - 사무서비스","category":"other"},{"name":"(주)국제E&C","tel":"031-479-4630","addr":"경기도 안양시 동안구 평촌동 126-1번지","indutype":"별도관리 - 자체물품대금","category":"other"},{"name":"(주)넥스원/원격지","tel":"031-478-2585","addr":"경기도 안양시 동안구 평촌동 126-1번지","indutype":"기타 - 기타 전문점","category":"other"},{"name":"(주)블루포인트","tel":"031-478-2494","addr":"경기도 안양시 동안구 평촌동 126-1번지","indutype":"회원제형태 - 기타3","category":"other"},{"name":"(주)에스지비즈","tel":"031-423-3633","addr":"경기도 안양시 동안구 평촌동 126-1번지","indutype":"신변잡화 - 기타잡화","category":"other"},{"name":"(주)엔이에이치","tel":"031-2273-8841","addr":"경기도 안양시 동안구 평촌동 126-1번지","indutype":"신변잡화 - 기타잡화","category":"other"},{"name":"(주)이에스정보통신","tel":"031-446-8275","addr":"경기도 안양시 동안구 평촌동 126-1번지","indutype":"사무통신 - 사무용 OA기기","category":"other"},{"name":"(주)트리즈","tel":"031-478-3997","addr":"경기도 안양시 동안구 평촌동 126-1번지","indutype":"건축자재 - 기타건축자재","category":"other"},{"name":"그린문고","tel":"031-478-5338","addr":"경기도 안양시 동안구 평촌동 126-1번지","indutype":"서적문구 - 일반서적","category":"other"},{"name":"나노스텍","tel":"031-478-4240","addr":"경기도 안양시 동안구 평촌동 126-1번지","indutype":"전기제품 - 기타전기제품","category":"other"},{"name":"나노스텍/원격지","tel":"031-478-4240","addr":"경기도 안양시 동안구 평촌동 126-1번지","indutype":"기타 - 기타 전문점","category":"other"},{"name":"네오엠텍","tel":"031-434-5197","addr":"경기도 안양시 동안구 평촌동 126-1번지","indutype":"기타 - 기계공구","category":"other"},{"name":"동영과학(주)","tel":"031-478-4451","addr":"경기도 안양시 동안구 평촌동 126-1번지","indutype":"서적문구 - 과학기자재","category":"other"},{"name":"동영과학(주)/원격지","tel":"031-478-4451","addr":"경기도 안양시 동안구 평촌동 126-1번지","indutype":"기타 - 기타 전문점","category":"other"},{"name":"리바이스플레이어","tel":"031-478-4048","addr":"경기도 안양시 동안구 평촌동 126-1번지","indutype":"의류 - 기타의류","category":"other"},{"name":"미소706(MISO706)","tel":"031-478-0706","addr":"경기도 안양시 동안구 평촌동 126-1번지","indutype":"의류 - 정장","category":"other"},{"name":"보만전자(주)/원격지","tel":"031-478-3331","addr":"경기도 안양시 동안구 평촌동","indutype":"기타 - 기타 전문점","category":"other"},{"name":"세무사정유선사무소","tel":"031-478-4066","addr":"경기도 안양시 동안구 평촌동 126-1번지","indutype":"용역 서비스 - 법률회계서비스(개인)","category":"other"},{"name":"아주공사","tel":"031-478-3344","addr":"경기도 안양시 동안구 평촌동 126-1번지","indutype":"서적문구 - 출판 및 인쇄물","category":"other"},{"name":"애드플러스","tel":"031-478-5516","addr":"경기도 안양시 동안구 평촌동 126-1번지","indutype":"건축자재 - 조명기구","category":"other"},{"name":"에나꼬레","tel":"031-478-4676","addr":"경기도 안양시 동안구 평촌동 126-1번지","indutype":"신변잡화 - 기타잡화","category":"other"},{"name":"엠로그씨주식회사","tel":"031-478-0620","addr":"경기도 안양시 동안구 평촌동 126-1번지","indutype":"용역 서비스 - 소프트웨어","category":"other"},{"name":"엠앤지디자인","tel":"031-343-4596","addr":"경기도 안양시 동안구 평촌동 126-1번지","indutype":"용역 서비스 - 종합용역","category":"other"},{"name":"오피스웨이안양점","tel":"031-478-3390","addr":"경기도 안양시 동안구 평촌동 126-1번지","indutype":"서적문구 - 문구용품","category":"other"},{"name":"유정테크","tel":"031-478-4646","addr":"경기도 안양시 동안구 평촌동 126-1번지","indutype":"서적문구 - 출판 및 인쇄물","category":"other"},{"name":"유피싱(U-Fishing Co.)","tel":"031-478-5328","addr":"경기도 안양시 동안구 평촌동 126-1번지","indutype":"기타 - 기타 전문점","category":"other"},{"name":"재경OA","tel":"031-478-0681","addr":"경기도 안양시 동안구 평촌동 126-1번지","indutype":"유통업 영리 - 기타유통업","category":"other"},{"name":"제일에드컴","tel":"031-478-3939","addr":"경기도 안양시 동안구 평촌동 126-1번지","indutype":"건축자재 - 인테리어전문","category":"other"},{"name":"조엔프라워(Joe&flower)","tel":"031-478-4944","addr":"경기도 안양시 동안구 평촌동 126-1번지","indutype":"문화.취미 - 화원","category":"other"},{"name":"조엔플라워","tel":"031-478-4944","addr":"경기도 안양시 동안구 평촌동 126-1번지","indutype":"문화.취미 - 화원","category":"other"},{"name":"주식회사 로트켐","tel":"031-715-4093","addr":"경기도 안양시 동안구 평촌동 126-1번지","indutype":"가구 - 일반가구","category":"other"},{"name":"주식회사 마블사인","tel":"031-478-5400","addr":"경기도 안양시 동안구 평촌동 126-1번지","indutype":"전기제품 - 기타전기제품","category":"other"},{"name":"주식회사 퓨리","tel":"031-478-3404","addr":"경기도 안양시 동안구 평촌동 126-1번지","indutype":"주방용구 - 정수기","category":"other"},{"name":"주식회사금조디앤에스","tel":"031-478-3988","addr":"경기도 안양시 동안구 평촌동 126-1번지","indutype":"의류 - 정장","category":"other"},{"name":"주식회사나눔글로벌","tel":"031-478-3381","addr":"경기도 안양시 동안구 평촌동 126-1번지","indutype":"건축자재 - 기타건축자재","category":"other"},{"name":"주식회사명진테크","tel":"031-478-3150","addr":"경기도 안양시 동안구 평촌동 126-1번지","indutype":"기타 - 기계공구","category":"other"},{"name":"주식회사캔/삼원FA(일반)","tel":"031-478-0733","addr":"경기도 안양시 동안구 평촌동 126-1번지","indutype":"기타 - 기타 전문점","category":"other"},{"name":"주식회사프로시스템","tel":"031-478-3460","addr":"경기도 안양시 동안구 평촌동 126-1번지","indutype":"기타 - 기계공구","category":"other"},{"name":"진솔정보시스템","tel":"031-478-2580","addr":"경기도 안양시 동안구 평촌동 126-1번지","indutype":"사무통신 - 컴퓨터","category":"other"},{"name":"캔시스템코리아","tel":"031-478-4640","addr":"경기도 안양시 동안구 평촌동 126-1번지","indutype":"용역 서비스 - 소프트웨어","category":"other"},{"name":"코리아정보","tel":"031-478-5473","addr":"경기도 안양시 동안구 평촌동 126-1번지","indutype":"사무통신 - 사무용 OA기기","category":"other"},{"name":"코리아트/원격지","tel":"031-426-1123","addr":"경기도 안양시 동안구 평촌동 126-1번지","indutype":"기타 - 기타 전문점","category":"other"},{"name":"퍼스트피앤디(안양점)","tel":"031-360-7941","addr":"경기도 안양시 동안구 평촌동 126-1번지","indutype":"서적문구 - 출판 및 인쇄물","category":"other"},{"name":"퓰링플라워(flower)","tel":"031-478-3338","addr":"경기도 안양시 동안구 평촌동 126-1번지","indutype":"문화.취미 - 화원","category":"other"},{"name":"프로시스템","tel":"031-478-3460","addr":"경기도 안양시 동안구 평촌동 126-1번지","indutype":"기타 - 기계공구","category":"other"},{"name":"한국웰포트","tel":"031-478-0713","addr":"경기도 안양시 동안구 평촌동 126-1번지","indutype":"전기제품 - 가전제품","category":"other"},{"name":"홍선생교육","tel":"031-478-3383","addr":"경기도 안양시 동안구 평촌동","indutype":"회원제형태 - 서적","category":"other"}]},{"lat":"37.395752254","long":"126.97411838","imageIndex":17,"items":[{"name":"(주)보승","tel":"031-426-9992","addr":"경기도 안양시 동안구 평촌동 84-3번지","indutype":"건축자재 - 기타건축자재","category":"other"},{"name":"TNGT복합상설평촌점","tel":"031-423-3002","addr":"경기도 안양시 동안구 평촌동 84-3번지","indutype":"의류 - 스포츠의류","category":"other"},{"name":"아디다스 인덕원","tel":"031-424-4514","addr":"경기도 안양시 동안구 평촌동 84-3번지","indutype":"레져용품 - 스포츠·레져용품","category":"other"},{"name":"태백상사","tel":"031-424-8755","addr":"경기도 안양시 동안구 평촌동 84-3번지","indutype":"의류 - 정장","category":"other"},{"name":"플러스아울렛수선실","tel":"031-422-8283","addr":"경기도 안양시 동안구 평촌동 84-3번지","indutype":"수리서비스 - 세탁소","category":"other"}]},{"lat":"37.395001794","long":"126.96483582","imageIndex":17,"items":[{"name":"(주)블루레인코트","tel":"070-4403-0159","addr":"경기도 안양시 동안구 평촌동 897번지","indutype":"문화.취미 - 애완동물","category":"other"},{"name":"구상","tel":"070-7543-3137","addr":"경기도 안양시 동안구 평촌동 897번지","indutype":"문화.취미 - 화원","category":"other"},{"name":"노브패리스","tel":"031-426-0825","addr":"경기도 안양시 동안구 평촌동 897번지","indutype":"의류 - 정장","category":"other"},{"name":"보담한복","tel":"031-425-3930","addr":"경기도 안양시 동안구 평촌동 897번지","indutype":"의류 - 맞춤복점","category":"other"},{"name":"씨엔에이치플러스","tel":"031-816-7000","addr":"경기도 안양시 동안구 평촌동 897번지","indutype":"여행 - 렌터카","category":"other"},{"name":"에덴상사","tel":"031-425-5550","addr":"경기도 안양시 동안구 평촌동 897번지","indutype":"의류 - 기타의류","category":"other"},{"name":"에스앤피인터내셔널(S&P)","tel":"031-426-7712","addr":"경기도 안양시 동안구 평촌동","indutype":"의류 - 기타의류","category":"other"},{"name":"인현왕후한복대여점","tel":"031-421-0113","addr":"경기도 안양시 동안구 평촌동 897번지","indutype":"의류 - 맞춤복점","category":"other"}]},{"lat":"37.393472813","long":"126.97458226","imageIndex":17,"items":[{"name":"(주)상록시스템","tel":"031-422-8500","addr":"경기도 안양시 동안구 평촌동 87-5번지","indutype":"사무통신 - 통신기기","category":"other"}]},{"lat":"37.395193829","long":"126.97495428","imageIndex":17,"items":[{"name":"(주)서현","tel":"031-421-8950","addr":"경기도 안양시 동안구 평촌동","indutype":"레져용품 - 스포츠·레져용품","category":"other"},{"name":"데니스골프평촌","tel":"031-426-8845","addr":"경기도 안양시 동안구 평촌동 85-11번지","indutype":"레져용품 - 스포츠·레져용품","category":"other"},{"name":"레노마 골프 안양인덕원점","tel":"031-425-6111","addr":"경기도 안양시 동안구 평촌동 85-11번지","indutype":"의류 - 스포츠의류","category":"other"},{"name":"보그너,커터앤벅","tel":"031-422-3335","addr":"경기도 안양시 동안구 평촌동 85-11번지","indutype":"의류 - 스포츠의류","category":"other"},{"name":"살레와안양인덕원점","tel":"031-425-8944","addr":"경기도 안양시 동안구 평촌동 85-11번지","indutype":"레져용품 - 스포츠·레져용품","category":"other"},{"name":"승지수상사","tel":"031-425-7270","addr":"경기도 안양시 동안구 평촌동 85-11번지","indutype":"의류 - 스포츠의류","category":"other"},{"name":"주식회사 에스비컴퍼니","tel":"031-425-6111","addr":"경기도 안양시 동안구 평촌동 85-11번지","indutype":"레져용품 - 스포츠·레져용품","category":"other"}]},{"lat":"37.394779415","long":"126.975169","imageIndex":17,"items":[{"name":"(주)어르신세상동안센터","tel":"031-426-1090","addr":"경기도 안양시 동안구 평촌동 87-3번지","indutype":"기타의료기관 - 기타의료기관 및 기타","category":"other"},{"name":"제일현수막","tel":"031-421-5533","addr":"경기도 안양시 동안구 평촌동 87-3번지","indutype":"용역 서비스 - 종합용역","category":"other"},{"name":"퀸커튼","tel":"031-422-5550","addr":"경기도 안양시 동안구 평촌동 87-3번지","indutype":"직물 - 카페트,커튼,천막,지물","category":"other"}]},{"lat":"37.390084217","long":"126.9714217","imageIndex":17,"items":[{"name":"(주)오뚜기상조회 안양지점","tel":"031-421-2113","addr":"경기도 안양시 동안구 평촌동 160-4번지","indutype":"신변잡화 - 기타잡화","category":"other"}]},{"lat":"37.383557513","long":"126.9605622","imageIndex":17,"items":[{"name":"(주)코비스/원격지","tel":"031-382-7113","addr":"경기도 안양시 동안구 평촌동 922번지","indutype":"기타 - 기타 전문점","category":"other"},{"name":"(주)플러스21건축사사무소","tel":"031-383-9666","addr":"경기도 안양시 동안구 평촌동 922번지","indutype":"용역 서비스 - 사무서비스","category":"other"},{"name":"드림디포 평촌학원가점","tel":"031-381-1355","addr":"경기도 안양시 동안구 평촌동 922번지","indutype":"서적문구 - 문구용품","category":"other"},{"name":"박성덕세무사사무소","tel":"031-746-1002","addr":"경기도 안양시 동안구 평촌동","indutype":"용역 서비스 - 법률회계서비스(개인)","category":"other"},{"name":"어라운드스터디룸 안양평촌점","tel":"031-388-1079","addr":"경기도 안양시 동안구 평촌동 922번지","indutype":"용역 서비스 - 사무서비스","category":"other"}]},{"lat":"37.391165474","long":"126.97159063","imageIndex":17,"items":[{"name":"(주)크린어스코리아","tel":"02-1644-3723","addr":"경기도 안양시 동안구 평촌동 160-1번지","indutype":"신변잡화 - 기타잡화","category":"other"},{"name":"빈즈무역개발","tel":"","addr":"경기도 안양시 동안구 평촌동 160-1번지","indutype":"건축자재 - 기타건축자재","category":"other"},{"name":"선샤인블라인드","tel":"031-449-6144","addr":"경기도 안양시 동안구 평촌동 160-1번지","indutype":"직물 - 카페트,커튼,천막,지물","category":"other"},{"name":"에이프릴뮤직서비스","tel":"031-348-8090","addr":"경기도 안양시 동안구 평촌동 160-1번지","indutype":"전기제품 - 가전제품","category":"other"},{"name":"인터플래닝코리아(Inter Planning Korea)","tel":"031-8091-3377","addr":"경기도 안양시 동안구 평촌동 160-1번지","indutype":"레져용품 - 골프용품 전문점","category":"other"},{"name":"제이테크","tel":"","addr":"경기도 안양시 동안구 평촌동 160-1번지","indutype":"건축자재 - 기타건축자재","category":"other"},{"name":"주식회사 하나티에스","tel":"031-344-7373","addr":"경기도 안양시 동안구 평촌동 160-1번지","indutype":"건축자재 - 기타건축자재","category":"other"},{"name":"티엠디코리아(TMDKOREA)","tel":"031-342-3372","addr":"경기도 안양시 동안구 평촌동 160-1번지","indutype":"사무통신 - 컴퓨터","category":"other"}]},{"lat":"37.382416215","long":"126.96994576","imageIndex":17,"items":[{"name":"112용필상회","tel":"031-421-0951","addr":"경기도 안양시 동안구 평촌동 934-1번지","indutype":"유통업 영리 - 농축수산 가공품","category":"other"},{"name":"116우신상회","tel":"031-424-7179","addr":"경기도 안양시 동안구 평촌동 934-1번지","indutype":"유통업 영리 - 농축수산 가공품","category":"other"},{"name":"133진양상회","tel":"031-424-3137","addr":"경기도 안양시 동안구 평촌동 934-1번지","indutype":"유통업 영리 - 농축수산 가공품","category":"other"},{"name":"140기선상회","tel":"031-423-1157","addr":"경기도 안양시 동안구 평촌동 934-1번지","indutype":"유통업 영리 - 농축수산 가공품","category":"other"},{"name":"215백양상회","tel":"031-421-1415","addr":"경기도 안양시 동안구 평촌동 934-1번지","indutype":"유통업 영리 - 농축수산 가공품","category":"other"},{"name":"감사유통","tel":"031-344-4800","addr":"경기도 안양시 동안구 평촌동 934-1번지","indutype":"유통업 영리 - 농축수산 가공품","category":"other"},{"name":"국제유통","tel":"031-424-3077","addr":"경기도 안양시 동안구 평촌동 934-1번지","indutype":"유통업 영리 - 농축수산 가공품","category":"other"},{"name":"그린농산","tel":"031-0-0","addr":"경기도 안양시 동안구 평촌동 934-1번지","indutype":"유통업 영리 - 농축수산 가공품","category":"other"},{"name":"극동주방","tel":"031-424-5194","addr":"경기도 안양시 동안구 평촌동 934-1번지","indutype":"주방용구 - 주방용구","category":"other"},{"name":"대농원예자재","tel":"031-422-8889","addr":"경기도 안양시 동안구 평촌동 934-1번지","indutype":"농업 - 비료,사료,종자","category":"other"},{"name":"대명농자재","tel":"031-426-8387","addr":"경기도 안양시 동안구 평촌동 934-1번지","indutype":"농업 - 기타농업관련","category":"other"},{"name":"데꼴로레스","tel":"031-423-7774","addr":"경기도 안양시 동안구 평촌동 934-1번지","indutype":"문화.취미 - 화원","category":"other"},{"name":"만물상회","tel":"031-422-2315","addr":"경기도 안양시 동안구 평촌동 934-1번지","indutype":"건축자재 - 목재·석재·철물","category":"other"},{"name":"미래농산","tel":"031-422-9686","addr":"경기도 안양시 동안구 평촌동 934-1번지","indutype":"회원제형태 - 기타1","category":"other"},{"name":"삼신상사","tel":"031-423-7972","addr":"경기도 안양시 동안구 평촌동","indutype":"신변잡화 - 기타잡화","category":"other"},{"name":"서울상회","tel":"031-424-4654","addr":"경기도 안양시 동안구 평촌동 934-1번지","indutype":"건축자재 - 목재·석재·철물","category":"other"},{"name":"성광상회","tel":"031-424-6618","addr":"경기도 안양시 동안구 평촌동 934-1번지","indutype":"신변잡화 - 기타잡화","category":"other"},{"name":"엘지상회","tel":"031-422-4120","addr":"경기도 안양시 동안구 평촌동 934-1번지","indutype":"유통업 영리 - 농축수산 가공품","category":"other"},{"name":"요한상회","tel":"031-424-0218","addr":"경기도 안양시 동안구 평촌동 934-1번지","indutype":"유통업 영리 - 농축수산 가공품","category":"other"},{"name":"이레유통","tel":"031-421-4323","addr":"경기도 안양시 동안구 평촌동 934-1번지","indutype":"의류 - 정장","category":"other"},{"name":"이레유통","tel":"031-421-4323","addr":"경기도 안양시 동안구 평촌동 934-1번지","indutype":"의류 - 정장","category":"other"},{"name":"제이바디짐","tel":"031-347-9731","addr":"경기도 안양시 동안구 평촌동 934-1번지","indutype":"회원제형태 - 레져업소","category":"other"},{"name":"파랑새상회","tel":"031-426-5852","addr":"경기도 안양시 동안구 평촌동 934-1번지","indutype":"유통업 영리 - 농축수산 가공품","category":"other"},{"name":"하나상회","tel":"031-421-3852","addr":"경기도 안양시 동안구 평촌동 934-1번지","indutype":"유통업 영리 - 농축수산 가공품","category":"other"},{"name":"한국청과","tel":"031-422-3560","addr":"경기도 안양시 동안구 평촌동 934-1번지","indutype":"유통업 영리 - 농축수산 가공품","category":"other"},{"name":"형제그릇","tel":"031-412-2210","addr":"경기도 안양시 동안구 평촌동","indutype":"주방용구 - 주방용구","category":"other"},{"name":"형제상사","tel":"031-423-8787","addr":"경기도 안양시 동안구 평촌동 934-1번지","indutype":"신변잡화 - 기타잡화","category":"other"},{"name":"형제잡화","tel":"031-384-8989","addr":"경기도 안양시 동안구 평촌동 934-1번지","indutype":"신변잡화 - 기타잡화","category":"other"}]},{"lat":"37.387027748","long":"126.96450109","imageIndex":17,"items":[{"name":"21세기씨앤씨","tel":"031-423-8278","addr":"경기도 안양시 동안구 평촌동 898-2번지 초원대림아파트","indutype":"회원제형태 - 기타3","category":"other"}]},{"lat":"37.395247654","long":"126.97397177","imageIndex":17,"items":[{"name":"23구 골프","tel":"","addr":"경기도 안양시 동안구 평촌동 85-14번지","indutype":"의류 - 스포츠의류","category":"other"},{"name":"TNF 인덕원점","tel":"031-422-0172","addr":"경기도 안양시 동안구 평촌동 85-14번지","indutype":"레져용품 - 스포츠·레져용품","category":"other"},{"name":"금천어패럴","tel":"031-422-8755","addr":"경기도 안양시 동안구 평촌동","indutype":"레져용품 - 스포츠·레져용품","category":"other"},{"name":"아이더 안양 평촌점","tel":"031-422-3667","addr":"경기도 안양시 동안구 평촌동 85-14번지","indutype":"레져용품 - 스포츠·레져용품","category":"other"},{"name":"안양평촌 로가디스","tel":"","addr":"경기도 안양시 동안구 평촌동 85-14번지","indutype":"레져용품 - 스포츠·레져용품","category":"other"},{"name":"유라시안 인터내셔날","tel":"031-421-1811","addr":"경기도 안양시 동안구 평촌동 85-14번지","indutype":"신변잡화 - 가방","category":"other"}]},{"lat":"37.386503354","long":"126.95928458","imageIndex":17,"items":[{"name":"2에이치제이몰(HJ Mall)(소득공제용)","tel":"","addr":"경기도 안양시 동안구 평촌동 899-2번지 향촌현대4차아파트","indutype":"서적문구 - 기타서적문구","category":"other"}]},{"lat":"37.382666409","long":"126.96314838","imageIndex":17,"items":[{"name":"911컴퍼니","tel":"070-8860-0911","addr":"경기도 안양시 동안구 평촌동 926-9번지","indutype":"용역 서비스 - 종합용역","category":"other"}]},{"lat":"37.39123556","long":"126.96479255","imageIndex":17,"items":[{"name":"ABC 바이오","tel":"","addr":"경기도 안양시 동안구 평촌동 896-6번지 초원부영아파트","indutype":"서적문구 - 과학기자재","category":"other"}]},{"lat":"37.38330529","long":"126.96073171","imageIndex":17,"items":[{"name":"D포토","tel":"031-384-4282","addr":"경기도 안양시 동안구 평촌동 922-2번지","indutype":"광학제품 - 사진관","category":"other"}]},{"lat":"37.392167159","long":"126.97819638","imageIndex":17,"items":[{"name":"Flatfish Records (플랫피쉬 레코즈)","tel":"070-7685-3809","addr":"경기도 안양시 동안구 평촌동 44-4번지","indutype":"용역 서비스 - 종합용역","category":"other"}]},{"lat":"37.386137807","long":"126.9714798","imageIndex":17,"items":[{"name":"GAPJEAN","tel":"","addr":"경기도 안양시 동안구 평촌동 933-7번지 꿈마을아파트","indutype":"의류 - 정장","category":"other"},{"name":"네오디자인","tel":"031-422-9089","addr":"경기도 안양시 동안구 평촌동 933-7번지 꿈마을아파트","indutype":"직물 - 카페트,커튼,천막,지물","category":"other"},{"name":"재클린","tel":"031-393-2724","addr":"경기도 안양시 동안구 평촌동 933-7번지 꿈마을아파트","indutype":"의류 - 정장","category":"other"},{"name":"평촌에띠임","tel":"031-426-6318","addr":"경기도 안양시 동안구 평촌동 933-7번지 꿈마을아파트","indutype":"의류 - 내의판매","category":"other"}]},{"lat":"37.384614669","long":"126.96989964","imageIndex":17,"items":[{"name":"GS25평촌건영점","tel":"","addr":"경기도 안양시 동안구 평촌동 933-6번지","indutype":"유통업 영리 - 편 의 점","category":"other"}]},{"lat":"37.394780223","long":"126.9788618","imageIndex":17,"items":[{"name":"H. 수입의류","tel":"","addr":"경기도 안양시 동안구 평촌동 75-2번지 인덕원대우아파트푸른마을","indutype":"의류 - 정장","category":"other"},{"name":"대우제일보수","tel":"031-423-1245","addr":"경기도 안양시 동안구 평촌동 75-2번지 인덕원대우아파트푸른마을","indutype":"용역 서비스 - 기타용역서비스","category":"other"},{"name":"모닝글로리인덕원점","tel":"031-424-2324","addr":"경기도 안양시 동안구 평촌동","indutype":"서적문구 - 문구용품","category":"other"},{"name":"세븐일레븐인덕원대우벌말점","tel":"031-1577-0711","addr":"경기도 안양시 동안구 평촌동 75-2번지 인덕원대우아파트푸른마을","indutype":"유통업 영리 - 편 의 점","category":"other"},{"name":"일층대우세탁소","tel":"031-425-3698","addr":"경기도 안양시 동안구 평촌동 75-2번지 인덕원대우아파트푸른마을","indutype":"수리서비스 - 세탁소","category":"other"}]},{"lat":"37.389191422","long":"126.96856516","imageIndex":17,"items":[{"name":"J&J인테리어","tel":"031-422-8558","addr":"경기도 안양시 동안구 평촌동 897-7번지","indutype":"건축자재 - 인테리어전문","category":"other"},{"name":"아르페지오","tel":"","addr":"경기도 안양시 동안구 평촌동 897-7번지","indutype":"신변잡화 - 기타잡화","category":"other"},{"name":"엘지세탁","tel":"031-423-9474","addr":"경기도 안양시 동안구 평촌동 897-7번지","indutype":"수리서비스 - 세탁소","category":"other"},{"name":"초원지물보수","tel":"031-423-6797","addr":"경기도 안양시 동안구 평촌동","indutype":"건축자재 - 목재·석재·철물","category":"other"},{"name":"피부공감","tel":"031-425-0124","addr":"경기도 안양시 동안구 평촌동 897-7번지","indutype":"회원제형태 - 기타4","category":"other"}]},{"lat":"37.384143069","long":"126.96027959","imageIndex":17,"items":[{"name":"LG메디칼","tel":"031-386-0573","addr":"경기도 안양시 동안구 평촌동 900-7번지","indutype":"기타의료기관 - 기타의료기관 및 기타","category":"other"},{"name":"NOLT(놀트)","tel":"031-383-8118","addr":"경기도 안양시 동안구 평촌동 900-7번지","indutype":"회원제형태 - 기타4","category":"other"},{"name":"다다명찰","tel":"031-383-0083","addr":"경기도 안양시 동안구 평촌동 900-7번지","indutype":"신변잡화 - 기념품점","category":"other"},{"name":"라이라이중국어안양지사","tel":"031-386-9594","addr":"경기도 안양시 동안구 평촌동","indutype":"회원제형태 - 서적","category":"other"},{"name":"에버핏(EVER FIT)","tel":"031-381-0561","addr":"경기도 안양시 동안구 평촌동 900-7번지","indutype":"회원제형태 - 레져업소","category":"other"},{"name":"요꼬마꼬","tel":"031-381-5660","addr":"경기도 안양시 동안구 평촌동 900-7번지","indutype":"서적문구 - 문구용품","category":"other"},{"name":"요꼬마꼬","tel":"031-381-5660","addr":"경기도 안양시 동안구 평촌동 900-7번지","indutype":"서적문구 - 문구용품","category":"other"},{"name":"하우스터디 평촌센터 모임공간","tel":"031-383-1303","addr":"경기도 안양시 동안구 평촌동 900-7번지","indutype":"용역 서비스 - 사무서비스","category":"other"}]},{"lat":"37.391580682","long":"126.9745378","imageIndex":17,"items":[{"name":"Main","tel":"031-423-5010","addr":"경기도 안양시 동안구 평촌동 117-3번지","indutype":"사무통신 - 통신기기","category":"other"}]},{"lat":"37.390786177","long":"126.96845151","imageIndex":17,"items":[{"name":"OK유통","tel":"031-382-5258","addr":"경기도 안양시 동안구 평촌동 897-5번지 초원한양아파트","indutype":"유통업 영리 - 기타유통업","category":"other"},{"name":"소독나라 정수기나라","tel":"070-4232-8161","addr":"경기도 안양시 동안구 평촌동 897-5번지 초원한양아파트","indutype":"회원제형태 - 기타4","category":"other"}]},{"lat":"37.383863808","long":"126.96042653","imageIndex":17,"items":[{"name":"SK스마트학생복평촌점","tel":"031-476-4757","addr":"경기도 안양시 동안구 평촌동 900-9번지","indutype":"의류 - 맞춤복점","category":"other"},{"name":"에스컴과학교습소","tel":"031-385-5835","addr":"경기도 안양시 동안구 평촌동 900-9번지","indutype":"서적문구 - 과학기자재","category":"other"},{"name":"주식회사 엘리트안양과천대리점","tel":"031-449-7147","addr":"경기도 안양시 동안구 평촌동 900-9번지","indutype":"의류 - 단체복","category":"other"}]},{"lat":"37.392220495","long":"126.97494409","imageIndex":17,"items":[{"name":"S쏠레지아","tel":"031-425-5478","addr":"경기도 안양시 동안구 평촌동 96-4번지","indutype":"의류 - 아동의류","category":"other"},{"name":"리스트인덕원점","tel":"031-425-4780","addr":"경기도 안양시 동안구 평촌동 96-4번지","indutype":"의류 - 정장","category":"other"},{"name":"발렌시아","tel":"031-425-5594","addr":"경기도 안양시 동안구 평촌동 96-4번지","indutype":"의류 - 정장","category":"other"},{"name":"에스플러스","tel":"031-422-8959","addr":"경기도 안양시 동안구 평촌동 96-4번지","indutype":"의류 - 정장","category":"other"},{"name":"지센 인덕원점","tel":"031-423-4108","addr":"경기도 안양시 동안구 평촌동 96-4번지","indutype":"레져용품 - 스포츠·레져용품","category":"other"},{"name":"혜원실업","tel":"031-424-0920","addr":"경기도 안양시 동안구 평촌동 96-4번지","indutype":"신변잡화 - 가방","category":"other"}]},{"lat":"37.395473142","long":"126.97495418","imageIndex":17,"items":[{"name":"가기통상","tel":"031-426-1633","addr":"경기도 안양시 동안구 평촌동 85-9번지","indutype":"레져용품 - 스포츠·레져용품","category":"other"},{"name":"디에스상사","tel":"031-422-0478","addr":"경기도 안양시 동안구 평촌동 85-9번지","indutype":"의류 - 정장","category":"other"},{"name":"레노마","tel":"031-422-0478","addr":"경기도 안양시 동안구 평촌동 85-9번지","indutype":"의류 - 스포츠의류","category":"other"},{"name":"톨비스트 평촌점","tel":"","addr":"경기도 안양시 동안구 평촌동 85-9번지","indutype":"의류 - 스포츠의류","category":"other"},{"name":"톨비스트(TORBIST) 평촌점","tel":"031-425-8631","addr":"경기도 안양시 동안구 평촌동 85-9번지","indutype":"레져용품 - 스포츠·레져용품","category":"other"},{"name":"피에르가르뎅","tel":"031-423-3381","addr":"경기도 안양시 동안구 평촌동 87-3번지","indutype":"의류 - 스포츠의류","category":"other"}]},{"lat":"37.385280153","long":"126.96564243","imageIndex":17,"items":[{"name":"가온","tel":"031-383-1338","addr":"경기도 안양시 동안구 평촌동","indutype":"신변잡화 - 액세서리","category":"other"},{"name":"금호문구","tel":"031-384-0616","addr":"경기도 안양시 동안구 평촌동","indutype":"서적문구 - 문구용품","category":"other"},{"name":"꿈마을컴퓨터세탁","tel":"031-384-0408","addr":"경기도 안양시 동안구 평촌동","indutype":"수리서비스 - 세탁소","category":"other"},{"name":"비앙","tel":"","addr":"경기도 안양시 동안구 평촌동 932-2번지","indutype":"의류 - 정장","category":"other"},{"name":"알바트로스","tel":"031-381-4063","addr":"경기도 안양시 동안구 평촌동","indutype":"의류 - 기타의류","category":"other"},{"name":"월드WINDOW","tel":"031-383-8045","addr":"경기도 안양시 동안구 평촌동 932-2번지 꿈마을금호아파트","indutype":"용역 서비스 - 기타용역서비스","category":"other"}]},{"lat":"37.383143842","long":"126.96284326","imageIndex":17,"items":[{"name":"가온테크","tel":"031-387-0202","addr":"경기도 안양시 동안구 평촌동 920-3번지","indutype":"신변잡화 - 기타잡화","category":"other"}]},{"lat":"37.384414766","long":"126.96434435","imageIndex":17,"items":[{"name":"강아지집메종드숑","tel":"031-388-3512","addr":"경기도 안양시 동안구 평촌동 912번지","indutype":"문화.취미 - 애완동물","category":"other"}]},{"lat":"37.384333336","long":"126.96331687","imageIndex":17,"items":[{"name":"개냥아치","tel":"","addr":"경기도 안양시 동안구 평촌동 908-1번지","indutype":"문화.취미 - 애완동물","category":"other"},{"name":"귀인문구백화점","tel":"031-387-4995","addr":"경기도 안양시 동안구 평촌동 908-1번지","indutype":"서적문구 - 문구용품","category":"other"}]},{"lat":"37.38689178","long":"126.96206214","imageIndex":17,"items":[{"name":"갤러리","tel":"031-383-3836","addr":"경기도 안양시 동안구 평촌동 899-7번지","indutype":"의류 - 정장","category":"other"},{"name":"동명철물","tel":"031-782-4629","addr":"경기도 안양시 동안구 평촌동 899-7번지 향촌현대5차아파트","indutype":"건축자재 - 목재·석재·철물","category":"other"},{"name":"로코코","tel":"031-388-7347","addr":"경기도 안양시 동안구 평촌동 899-7번지","indutype":"의류 - 정장","category":"other"},{"name":"슈퍼맨 인테리어 디자인","tel":"031-387-9909","addr":"경기도 안양시 동안구 평촌동 899-7번지","indutype":"건축자재 - 인테리어전문","category":"other"},{"name":"크린토피아 평촌향촌현대5차점","tel":"031-388-1170","addr":"경기도 안양시 동안구 평촌동 899-7번지","indutype":"수리서비스 - 세탁소","category":"other"},{"name":"훈인테리어","tel":"031-381-9883","addr":"경기도 안양시 동안구 평촌동 899-7번지","indutype":"직물 - 카페트,커튼,천막,지물","category":"other"}]},{"lat":"37.384252518","long":"126.96414118","imageIndex":17,"items":[{"name":"갤러리호미","tel":"031-382-3730","addr":"경기도 안양시 동안구 평촌동 913번지","indutype":"의류 - 정장","category":"other"},{"name":"쉬크","tel":"02-1577-0000","addr":"경기도 안양시 동안구 평촌동 913번지","indutype":"의류 - 정장","category":"other"}]},{"lat":"37.389499146","long":"126.97370296","imageIndex":17,"items":[{"name":"고수스포츠","tel":"031-421-1879","addr":"경기도 안양시 동안구 평촌동 133-12번지","indutype":"레져용품 - 스포츠·레져용품","category":"other"},{"name":"자람 스터디 카페","tel":"","addr":"경기도 안양시 동안구 평촌동 133-12번지","indutype":"용역 서비스 - 사무서비스","category":"other"},{"name":"정진물산","tel":"031-435-5641","addr":"경기도 안양시 동안구 평촌동 133-12번지","indutype":"신변잡화 - 기타잡화","category":"other"}]},{"lat":"37.385107243","long":"126.96053875","imageIndex":17,"items":[{"name":"골드뱅크","tel":"031-381-7472","addr":"경기도 안양시 동안구 평촌동 901-1번지","indutype":"신변잡화 - 귀금속","category":"other"},{"name":"그림일기","tel":"031-384-1756","addr":"경기도 안양시 동안구 평촌동 901-1번지","indutype":"신변잡화 - 기타잡화","category":"other"}]},{"lat":"37.383774012","long":"126.96128473","imageIndex":17,"items":[{"name":"공간샘스터디카페평촌점","tel":"","addr":"경기도 안양시 동안구 평촌동 916번지","indutype":"용역 서비스 - 사무서비스","category":"other"},{"name":"펫(PET STREET)","tel":"070-8860-9408","addr":"경기도 안양시 동안구 평촌동 916번지","indutype":"문화.취미 - 애완동물","category":"other"},{"name":"홈스마일평촌점","tel":"031-387-0963","addr":"경기도 안양시 동안구 평촌동 916번지","indutype":"직물 - 침구·수예점","category":"other"}]},{"lat":"37.391110368","long":"126.96786415","imageIndex":17,"items":[{"name":"공부습관트레이닝센터주인공평촌센터","tel":"031-421-2179","addr":"경기도 안양시 동안구 평촌동 897-5번지","indutype":"회원제형태 - 기타4","category":"other"},{"name":"다올이엔지","tel":"031-381-4031","addr":"경기도 안양시 동안구 평촌동 897-5번지","indutype":"기타 - 기계공구","category":"other"},{"name":"정나눔시니어케어센터 주식회사","tel":"031-425-5288","addr":"경기도 안양시 동안구 평촌동 897-5번지","indutype":"기타의료기관 - 기타의료기관 및 기타","category":"other"},{"name":"크린토피아평촌한양 LG점","tel":"031-422-3081","addr":"경기도 안양시 동안구 평촌동 897-5번지","indutype":"수리서비스 - 세탁소","category":"other"},{"name":"한양철물","tel":"031-421-0477","addr":"경기도 안양시 동안구 평촌동 897-5번지","indutype":"건축자재 - 목재·석재·철물","category":"other"}]},{"lat":"37.386630188","long":"126.96120411","imageIndex":17,"items":[{"name":"과천종합미싱","tel":"031-381-6439","addr":"경기도 안양시 동안구 평촌동 899-7번지 향촌현대5차아파트","indutype":"기타 - 기타 전문점","category":"other"}]},{"lat":"37.393941769","long":"126.9764454","imageIndex":17,"items":[{"name":"광명전기조명","tel":"031-424-8535","addr":"경기도 안양시 동안구 평촌동 59-1번지","indutype":"건축자재 - 조명기구","category":"other"},{"name":"별두리어린이집","tel":"031-425-0391","addr":"경기도 안양시 동안구 평촌동 59-1번지","indutype":"기타 - 비영리/대상","category":"other"},{"name":"아크로스터디카페","tel":"","addr":"경기도 안양시 동안구 평촌동 59-1번지","indutype":"용역 서비스 - 사무서비스","category":"other"}]},{"lat":"37.385443456","long":"126.96939115","imageIndex":17,"items":[{"name":"귀인동주민자치위원회","tel":"031-8045-4158","addr":"경기도 안양시 동안구 평촌동 933-4번지","indutype":"문화.취미 - 문화취미기타","category":"other"}]},{"lat":"37.388497107","long":"126.96675875","imageIndex":17,"items":[{"name":"그린팬시샵","tel":"031-385-9423","addr":"경기도 안양시 동안구 평촌동","indutype":"서적문구 - 문구용품","category":"other"},{"name":"네오네집","tel":"031-981-5619","addr":"경기도 안양시 동안구 평촌동 898-6번지","indutype":"의류 - 정장","category":"other"},{"name":"대원세탁소","tel":"031-308-6444","addr":"경기도 안양시 동안구 평촌동 898-6번지","indutype":"수리서비스 - 세탁소","category":"other"},{"name":"대원수입","tel":"031-381-2889","addr":"경기도 안양시 동안구 평촌동 898-6번지","indutype":"신변잡화 - 기타잡화","category":"other"},{"name":"대원종합보수","tel":"031-383-2696","addr":"경기도 안양시 동안구 평촌동","indutype":"기타 - 기타 전문점","category":"other"},{"name":"드림인테리어","tel":"031-387-0477","addr":"경기도 안양시 동안구 평촌동 898-6번지","indutype":"건축자재 - 인테리어전문","category":"other"},{"name":"무지개세탁편의점","tel":"031-388-3236","addr":"경기도 안양시 동안구 평촌동","indutype":"수리서비스 - 세탁소","category":"other"},{"name":"바오 BaO","tel":"031-9419-7332","addr":"경기도 안양시 동안구 평촌동 898-6번지","indutype":"의류 - 정장","category":"other"},{"name":"샤론플라워","tel":"031-386-8383","addr":"경기도 안양시 동안구 평촌동","indutype":"문화.취미 - 화원","category":"other"},{"name":"쉼터","tel":"02-1577-0000","addr":"경기도 안양시 동안구 평촌동 898-6번지","indutype":"의류 - 정장","category":"other"},{"name":"여우옷장","tel":"031-476-7773","addr":"경기도 안양시 동안구 평촌동","indutype":"의류 - 정장","category":"other"},{"name":"의류 - 정장","tel":"031-388-4521","addr":"경기도 안양시 동안구 평촌동 898-6번지","indutype":"의류 - 정장","category":"other"},{"name":"제이.딜리셔스(J.Delicious)","tel":"070-8286-8368","addr":"경기도 안양시 동안구 평촌동 898-6번지","indutype":"의류 - 정장","category":"other"},{"name":"제이엔티","tel":"","addr":"경기도 안양시 동안구 평촌동 898-6번지 초원대원아파트","indutype":"신변잡화 - 액세서리","category":"other"},{"name":"크린에이드","tel":"031-382-4362","addr":"경기도 안양시 동안구 평촌동","indutype":"수리서비스 - 세탁소","category":"other"},{"name":"크린토피아","tel":"031-381-1338","addr":"경기도 안양시 동안구 평촌동 898-6번지","indutype":"수리서비스 - 세탁소","category":"other"},{"name":"후즈","tel":"031-388-2157","addr":"경기도 안양시 동안구 평촌동 898-6번지","indutype":"의류 - 정장","category":"other"}]},{"lat":"37.387363591","long":"126.97306015","imageIndex":17,"items":[{"name":"글로우 리(glow ri)","tel":"070-8946-4507","addr":"경기도 안양시 동안구 평촌동 138-9번지","indutype":"의류 - 정장","category":"other"},{"name":"좋은세상","tel":"031-426-0585","addr":"경기도 안양시 동안구 평촌동 138-9번지","indutype":"의류 - 정장","category":"other"}]},{"lat":"37.383170159","long":"126.96078825","imageIndex":17,"items":[{"name":"까만너구리 평촌점","tel":"031-381-8119","addr":"경기도 안양시 동안구 평촌동 922-3번지","indutype":"서적문구 - 문구용품","category":"other"},{"name":"하우징프로","tel":"031-387-8899","addr":"경기도 안양시 동안구 평촌동 922-3번지","indutype":"건축자재 - 건축용 요업제품","category":"other"}]},{"lat":"37.395202842","long":"126.97496557","imageIndex":17,"items":[{"name":"까스텔바작 평촌점","tel":"031-423-0170","addr":"경기도 안양시 동안구 평촌동 85-11번지","indutype":"레져용품 - 스포츠·레져용품","category":"other"}]},{"lat":"37.383892114","long":"126.96414137","imageIndex":17,"items":[{"name":"꾸모아마을책방","tel":"031-388-5032","addr":"경기도 안양시 동안구 평촌동 913-10번지","indutype":"서적문구 - 일반서적","category":"other"}]},{"lat":"37.385693541","long":"126.96236766","imageIndex":17,"items":[{"name":"꾸에르뽀","tel":"","addr":"경기도 안양시 동안구 평촌동 341-1번지","indutype":"레져용품 - 스포츠·레져용품","category":"other"},{"name":"아파트스토리","tel":"","addr":"경기도 안양시 동안구 평촌동 341-1번지","indutype":"건축자재 - 인테리어전문","category":"other"}]},{"lat":"37.383305843","long":"126.96231249","imageIndex":17,"items":[{"name":"꾼","tel":"","addr":"경기도 안양시 동안구 평촌동 919-2번지","indutype":"건축자재 - 인테리어전문","category":"other"}]},{"lat":"37.384749303","long":"126.96809294","imageIndex":17,"items":[{"name":"꿈마을골프스쿨","tel":"031-385-0991","addr":"경기도 안양시 동안구 평촌동","indutype":"회원제형태 - 레져업소","category":"other"},{"name":"현대세탁","tel":"031-385-0010","addr":"경기도 안양시 동안구 평촌동 932-7번지","indutype":"수리서비스 - 세탁소","category":"other"}]},{"lat":"37.383504112","long":"126.96244788","imageIndex":17,"items":[{"name":"네이티브필드","tel":"070-4118-8867","addr":"경기도 안양시 동안구 평촌동 915-7번지","indutype":"레져용품 - 악기점","category":"other"}]},{"lat":"37.384333184","long":"126.96286521","imageIndex":17,"items":[{"name":"노리그랫츠","tel":"","addr":"경기도 안양시 동안구 평촌동 906-6번지","indutype":"신변잡화 - 기타잡화","category":"other"}]},{"lat":"37.391497094","long":"126.96554902","imageIndex":17,"items":[{"name":"노브","tel":"031-386-1988","addr":"경기도 안양시 동안구 평촌동 896-6번지 초원부영아파트","indutype":"의류 - 기타의류","category":"other"},{"name":"노브/올리브물대","tel":"032-424-1270","addr":"경기도 안양시 동안구 평촌동 896-6번지 초원부영아파트","indutype":"별도관리 - 자체물품대금","category":"other"}]},{"lat":"37.392725426","long":"126.97653617","imageIndex":17,"items":[{"name":"뉴그린건설","tel":"031-421-6889","addr":"경기도 안양시 동안구 평촌동 54-1번지 대도아파트","indutype":"건축자재 - 인테리어전문","category":"other"}]},{"lat":"37.384143725","long":"126.96214267","imageIndex":17,"items":[{"name":"다락","tel":"031-425-2062","addr":"경기도 안양시 동안구 평촌동 906-12번지","indutype":"의류 - 정장","category":"other"}]},{"lat":"37.391191147","long":"126.96682521","imageIndex":17,"items":[{"name":"다락방","tel":"","addr":"경기도 안양시 동안구 평촌동 897-5번지 초원한양아파트","indutype":"의류 - 정장","category":"other"}]},{"lat":"37.391884258","long":"126.96470188","imageIndex":17,"items":[{"name":"다온 인테리어","tel":"031-382-8739","addr":"경기도 안양시 동안구 평촌동 896-6번지","indutype":"직물 - 카페트,커튼,천막,지물","category":"other"},{"name":"부영인테리어","tel":"031-381-4393","addr":"경기도 안양시 동안구 평촌동 896-6번지 초원부영아파트","indutype":"건축자재 - 인테리어전문","category":"other"},{"name":"부영철물","tel":"031-382-7540","addr":"경기도 안양시 동안구 평촌동","indutype":"건축자재 - 목재·석재·철물","category":"other"},{"name":"초원부영세탁소","tel":"031-382-7848","addr":"경기도 안양시 동안구 평촌동 896-6번지","indutype":"수리서비스 - 세탁소","category":"other"}]},{"lat":"37.391563094","long":"126.97640107","imageIndex":17,"items":[{"name":"다판다 상회","tel":"","addr":"경기도 안양시 동안구 평촌동 101번지 인덕원대림2차아파트","indutype":"신변잡화 - 기타잡화","category":"other"}]},{"lat":"37.394077434","long":"126.97885074","imageIndex":17,"items":[{"name":"다팔아유통","tel":"031-340-6005","addr":"경기도 안양시 동안구 평촌동 75-2번지 인덕원대우아파트푸른마을","indutype":"회원제형태 - 기타4","category":"other"}]},{"lat":"37.384054979","long":"126.96628665","imageIndex":17,"items":[{"name":"대동공인중개사","tel":"031-441-8819","addr":"경기도 안양시 동안구 평촌동","indutype":"용역 서비스 - 부동산 중개·임대","category":"other"},{"name":"드라마","tel":"031-388-4530","addr":"경기도 안양시 동안구 평촌동 932-4번지 꿈마을한신아파트","indutype":"의류 - 정장","category":"other"},{"name":"소울플레이스","tel":"070-4140-0329","addr":"경기도 안양시 동안구 평촌동 932-4번지","indutype":"문화.취미 - 티켓","category":"other"},{"name":"오렌지","tel":"031-383-3993","addr":"경기도 안양시 동안구 평촌동","indutype":"의류 - 기타의류","category":"other"},{"name":"용디자인","tel":"031-422-4211","addr":"경기도 안양시 동안구 평촌동 932-4번지","indutype":"건축자재 - 인테리어전문","category":"other"},{"name":"주공공이 로또","tel":"031-591-3898","addr":"경기도 안양시 동안구 평촌동 932-4번지 꿈마을한신아파트","indutype":"신변잡화 - 기타잡화","category":"other"},{"name":"태양보수","tel":"031-385-0973","addr":"경기도 안양시 동안구 평촌동 932-4번지 꿈마을한신아파트","indutype":"용역 서비스 - 기타용역서비스","category":"other"},{"name":"티파니","tel":"031-387-7129","addr":"경기도 안양시 동안구 평촌동","indutype":"신변잡화 - 귀금속","category":"other"},{"name":"한신세탁","tel":"031-383-9837","addr":"경기도 안양시 동안구 평촌동 932-4번지 꿈마을한신아파트","indutype":"수리서비스 - 세탁소","category":"other"}]},{"lat":"37.387057233","long":"126.97300382","imageIndex":17,"items":[{"name":"대림타일","tel":"031-421-3714","addr":"경기도 안양시 동안구 평촌동 138-12번지","indutype":"건축자재 - 건축용 요업제품","category":"other"},{"name":"로렌","tel":"031-422-7961","addr":"경기도 안양시 동안구 평촌동 138-12번지","indutype":"의류 - 정장","category":"other"},{"name":"시내산기업","tel":"031-421-1010","addr":"경기도 안양시 동안구 평촌동","indutype":"유통업 영리 - 기타유통업","category":"other"},{"name":"평촌태양조명","tel":"031-424-6692","addr":"경기도 안양시 동안구 평촌동 138-12번지","indutype":"건축자재 - 조명기구","category":"other"}]},{"lat":"37.391941953","long":"126.9784223","imageIndex":17,"items":[{"name":"대우장식","tel":"031-424-2359","addr":"경기도 안양시 동안구 평촌동 45-1번지","indutype":"직물 - 카페트,커튼,천막,지물","category":"other"},{"name":"신혜음향","tel":"031-21-7658","addr":"경기도 안양시 동안구 평촌동 45-1번지","indutype":"전기제품 - 가전제품","category":"other"}]},{"lat":"37.393941574","long":"126.97558715","imageIndex":17,"items":[{"name":"대일사","tel":"031-424-4180","addr":"경기도 안양시 동안구 평촌동 93-2번지","indutype":"서적문구 - 출판 및 인쇄물","category":"other"}]},{"lat":"37.383252426","long":"126.96423203","imageIndex":17,"items":[{"name":"더.전기조명","tel":"031-476-1538","addr":"경기도 안양시 동안구 평촌동 928-5번지","indutype":"건축자재 - 조명기구","category":"other"}]},{"lat":"37.395247741","long":"126.97433314","imageIndex":17,"items":[{"name":"더불루","tel":"031-421-4246","addr":"경기도 안양시 동안구 평촌동 85-13번지","indutype":"레져용품 - 스포츠·레져용품","category":"other"},{"name":"디즈니골프","tel":"031-423-3394","addr":"경기도 안양시 동안구 평촌동 85-13번지","indutype":"레져용품 - 스포츠·레져용품","category":"other"},{"name":"루이까스텔평촌점","tel":"031-426-7610","addr":"경기도 안양시 동안구 평촌동 85-13번지","indutype":"의류 - 스포츠의류","category":"other"},{"name":"르꼬끄 인덕원","tel":"031-424-5482","addr":"경기도 안양시 동안구 평촌동 85-13번지","indutype":"레져용품 - 스포츠·레져용품","category":"other"},{"name":"르꼬끄골프 인덕원점","tel":"031-426-5667","addr":"경기도 안양시 동안구 평촌동 85-13번지","indutype":"의류 - 스포츠의류","category":"other"},{"name":"무크인덕원","tel":"031-425-1585","addr":"경기도 안양시 동안구 평촌동 85-13번지","indutype":"레져용품 - 스포츠·레져용품","category":"other"},{"name":"안양탑골프","tel":"031-423-5422","addr":"경기도 안양시 동안구 평촌동 85-13번지","indutype":"레져용품 - 골프용품 전문점","category":"other"},{"name":"유프로 골프샵","tel":"031-423-5422","addr":"경기도 안양시 동안구 평촌동 85-13번지","indutype":"레져용품 - 스포츠·레져용품","category":"other"},{"name":"인현유통","tel":"","addr":"경기도 안양시 동안구 평촌동 85-13번지","indutype":"의류 - 정장","category":"other"},{"name":"지오송지오","tel":"031-424-3003","addr":"경기도 안양시 동안구 평촌동 85-13번지","indutype":"레져용품 - 스포츠·레져용품","category":"other"},{"name":"트레비스 안양평촌점","tel":"031-423-9731","addr":"경기도 안양시 동안구 평촌동 85-13번지","indutype":"레져용품 - 스포츠·레져용품","category":"other"}]},{"lat":"37.395527068","long":"126.9743895","imageIndex":17,"items":[{"name":"더캠트안양점","tel":"070-4103-4410","addr":"경기도 안양시 동안구 평촌동 85-7번지","indutype":"레져용품 - 스포츠·레져용품","category":"other"}]},{"lat":"37.395220936","long":"126.97528177","imageIndex":17,"items":[{"name":"데상트골프","tel":"031-423-4007","addr":"경기도 안양시 동안구 평촌동 85-10번지","indutype":"레져용품 - 스포츠·레져용품","category":"other"},{"name":"락 휘트니스","tel":"031-424-8884","addr":"경기도 안양시 동안구 평촌동 85-10번지","indutype":"회원제형태 - 레져업소","category":"other"}]},{"lat":"37.38330672","long":"126.96495464","imageIndex":17,"items":[{"name":"데코리아","tel":"031-475-8884","addr":"경기도 안양시 동안구 평촌동 930-2번지","indutype":"문화.취미 - 화방·표구점","category":"other"}]},{"lat":"37.384387431","long":"126.96341846","imageIndex":17,"items":[{"name":"도그컷","tel":"031-381-0711","addr":"경기도 안양시 동안구 평촌동 908-2번지","indutype":"문화.취미 - 애완동물","category":"other"}]},{"lat":"37.383504906","long":"126.96484163","imageIndex":17,"items":[{"name":"도도그루밍","tel":"","addr":"경기도 안양시 동안구 평촌동 930번지","indutype":"문화.취미 - 애완동물","category":"other"},{"name":"롤리비에","tel":"","addr":"경기도 안양시 동안구 평촌동 930번지","indutype":"문화.취미 - 문화취미기타","category":"other"},{"name":"보울","tel":"070-8683-3382","addr":"경기도 안양시 동안구 평촌동 930번지","indutype":"주방용구 - 주방용구","category":"other"}]},{"lat":"37.389027608","long":"126.96333699","imageIndex":17,"items":[{"name":"동안문방구","tel":"031-382-1958","addr":"경기도 안양시 동안구 평촌동 898번지","indutype":"서적문구 - 문구용품","category":"other"},{"name":"이화디자인","tel":"031-422-6659","addr":"경기도 안양시 동안구 평촌동","indutype":"용역 서비스 - 기타용역서비스","category":"other"}]},{"lat":"37.390391679","long":"126.97594979","imageIndex":17,"items":[{"name":"동우인테리어 평촌점","tel":"031-422-6240","addr":"경기도 안양시 동안구 평촌동 108-10번지","indutype":"직물 - 카페트,커튼,천막,지물","category":"other"},{"name":"모닝글로리벌말점","tel":"031-422-9157","addr":"경기도 안양시 동안구 평촌동 108-10번지","indutype":"서적문구 - 문구용품","category":"other"},{"name":"안나 (ANNA)","tel":"031-424-8640","addr":"경기도 안양시 동안구 평촌동 108-10번지","indutype":"의류 - 정장","category":"other"},{"name":"플래르","tel":"070-8683-4002","addr":"경기도 안양시 동안구 평촌동 108-10번지","indutype":"의류 - 정장","category":"other"}]},{"lat":"37.393725305","long":"126.9754743","imageIndex":17,"items":[{"name":"동일상사","tel":"031-421-7398","addr":"경기도 안양시 동안구 평촌동 93-6번지","indutype":"기타 - 기계공구","category":"other"},{"name":"성도조명","tel":"031-421-4470","addr":"경기도 안양시 동안구 평촌동 93-6번지","indutype":"건축자재 - 조명기구","category":"other"}]},{"lat":"37.391472547","long":"126.97448138","imageIndex":17,"items":[{"name":"두리사진관","tel":"031-425-5882","addr":"경기도 안양시 동안구 평촌동 117-6번지","indutype":"광학제품 - 사진관","category":"other"},{"name":"로엔블루","tel":"031-424-8558","addr":"경기도 안양시 동안구 평촌동 117-6번지","indutype":"의류 - 기타의류","category":"other"}]},{"lat":"37.384746627","long":"126.9599518","imageIndex":17,"items":[{"name":"라-마글리아","tel":"031-384-9975","addr":"경기도 안양시 동안구 평촌동 900-2번지","indutype":"의류 - 기타의류","category":"other"},{"name":"리빙한지","tel":"031-381-1392","addr":"경기도 안양시 동안구 평촌동 900-2번지","indutype":"문화.취미 - 문화취미기타","category":"other"},{"name":"사랑옷수선","tel":"031-383-8233","addr":"경기도 안양시 동안구 평촌동 900-2번지","indutype":"수리서비스 - 세탁소","category":"other"},{"name":"슈크레","tel":"031-385-0019","addr":"경기도 안양시 동안구 평촌동 900-2번지","indutype":"신변잡화 - 기타잡화","category":"other"},{"name":"시크릿","tel":"031-476-4256","addr":"경기도 안양시 동안구 평촌동 900-2번지","indutype":"의류 - 정장","category":"other"},{"name":"평촌아파트상가관리실","tel":"031-385-7074","addr":"경기도 안양시 동안구 평촌동 900-2번지","indutype":"용역 서비스 - 사무서비스","category":"other"},{"name":"평촌작심스페이스","tel":"031-387-7286","addr":"경기도 안양시 동안구 평촌동 900-2번지","indutype":"용역 서비스 - 사무서비스","category":"other"}]},{"lat":"37.383387793","long":"126.96489814","imageIndex":17,"items":[{"name":"라온인테리어","tel":"031-387-9244","addr":"경기도 안양시 동안구 평촌동 930-1번지","indutype":"건축자재 - 인테리어전문","category":"other"}]},{"lat":"37.395212958","long":"126.98012649","imageIndex":17,"items":[{"name":"라인","tel":"0707-628-2527","addr":"경기도 안양시 동안구 평촌동 75-2번지 인덕원대우아파트푸른마을","indutype":"의류 - 내의판매","category":"other"}]},{"lat":"37.389057235","long":"126.97206578","imageIndex":17,"items":[{"name":"로뎀나무아래","tel":"031-420-8592","addr":"경기도 안양시 동안구 평촌동 158-3번지","indutype":"서적문구 - 일반서적","category":"other"},{"name":"사단법인새중앙문화아카데미","tel":"031-421-3173","addr":"경기도 안양시 동안구 평촌동 158-3번지","indutype":"문화.취미 - 문화취미기타","category":"other"}]},{"lat":"37.388443985","long":"126.969977","imageIndex":17,"items":[{"name":"로즈마리플라워","tel":"031-425-5455","addr":"경기도 안양시 동안구 평촌동 176-1번지","indutype":"문화.취미 - 화원","category":"other"}]},{"lat":"37.395085969","long":"126.97608362","imageIndex":17,"items":[{"name":"로즈플래닛","tel":"031-423-9484","addr":"경기도 안양시 동안구 평촌동 72-8번지","indutype":"신변잡화 - 액세서리","category":"other"},{"name":"삼기냉열","tel":"031-25-8844","addr":"경기도 안양시 동안구 평촌동 72-8번지","indutype":"전기제품 - 냉열기기","category":"other"},{"name":"삼기냉열(무이자할부)","tel":"031-425-8844","addr":"경기도 안양시 동안구 평촌동 72-8번지","indutype":"전기제품 - 냉열기기","category":"other"},{"name":"소피아피부관리","tel":"031-424-2022","addr":"경기도 안양시 동안구 평촌동 72-8번지","indutype":"회원제형태 - 기타4","category":"other"},{"name":"스펀지서적","tel":"031-422-5455","addr":"경기도 안양시 동안구 평촌동 72-8번지","indutype":"서적문구 - 일반서적","category":"other"},{"name":"스펀지서적","tel":"031-422-5455","addr":"경기도 안양시 동안구 평촌동 72-8번지","indutype":"서적문구 - 일반서적","category":"other"},{"name":"이브자리 안양평촌점","tel":"031-421-2355","addr":"경기도 안양시 동안구 평촌동 72-8번지","indutype":"직물 - 침구·수예점","category":"other"},{"name":"한양사인그래픽","tel":"031-424-4454","addr":"경기도 안양시 동안구 평촌동 72-8번지","indutype":"용역 서비스 - 종합용역","category":"other"}]},{"lat":"37.3937797","long":"126.97695364","imageIndex":17,"items":[{"name":"롯데캐논안양점","tel":"031-423-8863","addr":"경기도 안양시 동안구 평촌동 59-19번지","indutype":"사무통신 - 사무용 OA기기","category":"other"},{"name":"루비","tel":"031-423-0491","addr":"경기도 안양시 동안구 평촌동 59-19번지","indutype":"의류 - 정장","category":"other"}]},{"lat":"37.385360431","long":"126.96314696","imageIndex":17,"items":[{"name":"루디아","tel":"","addr":"경기도 안양시 동안구 평촌동 314번지 귀인마을현대홈타운","indutype":"의류 - 정장","category":"other"}]},{"lat":"37.382837775","long":"126.96366768","imageIndex":17,"items":[{"name":"루루라탄(LULU RATTAN)","tel":"","addr":"경기도 안양시 동안구 평촌동 928-17번지","indutype":"문화.취미 - 문화취미기타","category":"other"},{"name":"아르떼포슬린","tel":"02-383-5451","addr":"경기도 안양시 동안구 평촌동 928-17번지","indutype":"주방용구 - 주방용식기","category":"other"}]},{"lat":"37.392992645","long":"126.96515303","imageIndex":17,"items":[{"name":"루벤스 (RUBENS)","tel":"","addr":"경기도 안양시 동안구 평촌동 896-6번지 초원부영아파트","indutype":"신변잡화 - 귀금속","category":"other"}]},{"lat":"37.38274783","long":"126.96414196","imageIndex":17,"items":[{"name":"룰루펫","tel":"031-383-2601","addr":"경기도 안양시 동안구 평촌동 929번지","indutype":"문화.취미 - 애완동물","category":"other"},{"name":"페이퍼랜드","tel":"","addr":"경기도 안양시 동안구 평촌동 929번지","indutype":"문화.취미 - 민예·공예품","category":"other"}]},{"lat":"37.383774311","long":"126.96214287","imageIndex":17,"items":[{"name":"리노디자인빌드","tel":"031-385-0257","addr":"경기도 안양시 동안구 평촌동 915-10번지","indutype":"건축자재 - 기타건축자재","category":"other"}]},{"lat":"37.385100583","long":"126.96770887","imageIndex":17,"items":[{"name":"리드림 엔터테인먼트(ReDream Entertainmen","tel":"","addr":"경기도 안양시 동안구 평촌동 932-7번지 꿈마을현대아파트","indutype":"용역 서비스 - 종합용역","category":"other"}]},{"lat":"37.390049011","long":"126.97473035","imageIndex":17,"items":[{"name":"마스터코칭랭귀지콘텐츠연구소","tel":"070-4025-1605","addr":"경기도 안양시 동안구 평촌동 132-3번지 한미아파트","indutype":"용역 서비스 - 사무서비스","category":"other"}]},{"lat":"37.390003947","long":"126.9746739","imageIndex":17,"items":[{"name":"마켓쥴리아(Market Julia)","tel":"","addr":"경기도 안양시 동안구 평촌동 132-3번지 한미아파트","indutype":"신변잡화 - 기타잡화","category":"other"}]},{"lat":"37.38692801","long":"126.96261542","imageIndex":17,"items":[{"name":"맘사랑케어","tel":"031-215-7722","addr":"경기도 안양시 동안구 평촌동 899-7번지 향촌현대5차아파트","indutype":"회원제형태 - 기타4","category":"other"}]},{"lat":"37.388219669","long":"126.97353408","imageIndex":17,"items":[{"name":"메리다평촌점","tel":"031-476-2580","addr":"경기도 안양시 동안구 평촌동 136-42번지","indutype":"레져용품 - 스포츠·레져용품","category":"other"},{"name":"자전거도매","tel":"031-421-0122","addr":"경기도 안양시 동안구 평촌동 136-42번지","indutype":"레져용품 - 스포츠·레져용품","category":"other"}]},{"lat":"37.38425136","long":"126.96075377","imageIndex":17,"items":[{"name":"멘토","tel":"031-555-0505","addr":"경기도 안양시 동안구 평촌동 903-3번지","indutype":"용역 서비스 - 사무서비스","category":"other"}]},{"lat":"37.386516159","long":"126.97120865","imageIndex":17,"items":[{"name":"모라솝","tel":"","addr":"경기도 안양시 동안구 평촌동 933-7번지 꿈마을아파트","indutype":"신변잡화 - 기타잡화","category":"other"}]},{"lat":"37.38446866","long":"126.9638362","imageIndex":17,"items":[{"name":"미드나잇","tel":"","addr":"경기도 안양시 동안구 평촌동 909-5번지","indutype":"의류 - 정장","category":"other"}]},{"lat":"37.387802646","long":"126.96459103","imageIndex":17,"items":[{"name":"미미세탁소","tel":"031-387-2920","addr":"경기도 안양시 동안구 평촌동","indutype":"수리서비스 - 세탁소","category":"other"},{"name":"한우리","tel":"031-382-4612","addr":"경기도 안양시 동안구 평촌동","indutype":"회원제형태 - 서적","category":"other"}]},{"lat":"37.386524204","long":"126.96778725","imageIndex":17,"items":[{"name":"미슬림하우스","tel":"031-382-5887","addr":"경기도 안양시 동안구 평촌동 932-6번지","indutype":"회원제형태 - 기타4","category":"other"}]},{"lat":"37.386750898","long":"126.97303781","imageIndex":17,"items":[{"name":"미플라이","tel":"","addr":"경기도 안양시 동안구 평촌동 138-14번지","indutype":"용역 서비스 - 종합용역","category":"other"},{"name":"안양철물만돌이","tel":"031-421-0428","addr":"경기도 안양시 동안구 평촌동 138-14번지","indutype":"건축자재 - 인테리어전문","category":"other"},{"name":"파킹넷","tel":"031-341-9892","addr":"경기도 안양시 동안구 평촌동 138-14번지","indutype":"용역 서비스 - 기타용역서비스","category":"other"}]},{"lat":"37.391560633","long":"126.96706218","imageIndex":17,"items":[{"name":"민 인테리어","tel":"031-1544-7924","addr":"경기도 안양시 동안구 평촌동 897-5번지 초원한양아파트","indutype":"용역 서비스 - 기타용역서비스","category":"other"}]},{"lat":"37.3942209","long":"126.97564351","imageIndex":17,"items":[{"name":"믿음24시","tel":"031-421-9555","addr":"경기도 안양시 동안구 평촌동 89-14번지","indutype":"건축자재 - 목재·석재·철물","category":"other"},{"name":"희망커텐홈인테리어","tel":"031-423-0442","addr":"경기도 안양시 동안구 평촌동 89-14번지","indutype":"직물 - 카페트,커튼,천막,지물","category":"other"}]},{"lat":"37.393554266","long":"126.97614063","imageIndex":17,"items":[{"name":"바이 제이(by j)","tel":"","addr":"경기도 안양시 동안구 평촌동 57-1번지","indutype":"의류 - 정장","category":"other"}]},{"lat":"37.38616145","long":"126.96060591","imageIndex":17,"items":[{"name":"바이온텍서비스","tel":"031-383-8948","addr":"경기도 안양시 동안구 평촌동 899-2번지 향촌현대4차아파트","indutype":"회원제형태 - 기타3","category":"other"}]},{"lat":"37.394302017","long":"126.97575641","imageIndex":17,"items":[{"name":"박홍근 플래그샵","tel":"031-395-9371","addr":"경기도 안양시 동안구 평촌동 89-13번지","indutype":"직물 - 침구·수예점","category":"other"}]},{"lat":"37.3935548","long":"126.97861375","imageIndex":17,"items":[{"name":"백통신","tel":"031-423-8010","addr":"경기도 안양시 동안구 평촌동 63-1번지","indutype":"사무통신 - 통신기기","category":"other"}]},{"lat":"37.384917778","long":"126.95983878","imageIndex":17,"items":[{"name":"뱅크라인","tel":"031-384-5114","addr":"경기도 안양시 동안구 평촌동 900-1번지","indutype":"사무통신 - 통신기기","category":"other"},{"name":"윙(WING)","tel":"031-387-1999","addr":"경기도 안양시 동안구 평촌동 900-1번지","indutype":"의류 - 정장","category":"other"},{"name":"윤종훈세무사","tel":"031-383-0467","addr":"경기도 안양시 동안구 평촌동 900-1번지","indutype":"용역 서비스 - 법률회계서비스(개인)","category":"other"},{"name":"코스코튼","tel":"031-386-6261","addr":"경기도 안양시 동안구 평촌동 900-1번지","indutype":"직물 - 카페트,커튼,천막,지물","category":"other"},{"name":"현스킨케어토탈샵","tel":"031-388-4483","addr":"경기도 안양시 동안구 평촌동 900-1번지","indutype":"회원제형태 - 기타4","category":"other"}]},{"lat":"37.396221096","long":"126.9754508","imageIndex":17,"items":[{"name":"법무사김성태사무소","tel":"031-425-8878","addr":"경기도 안양시 동안구 평촌동 872-19번지","indutype":"용역 서비스 - 법률회계서비스(개인)","category":"other"},{"name":"수리","tel":"031-426-6903","addr":"경기도 안양시 동안구 평촌동 872-19번지","indutype":"주방용구 - 주방용구","category":"other"}]},{"lat":"37.395220792","long":"126.97467195","imageIndex":17,"items":[{"name":"베델 (Bethel)","tel":"031-422-1449","addr":"경기도 안양시 동안구 평촌동 85-12번지","indutype":"의류 - 정장","category":"other"},{"name":"본(BON)","tel":"031-423-9849","addr":"경기도 안양시 동안구 평촌동 85-12번지","indutype":"의류 - 스포츠의류","category":"other"},{"name":"본(BON)","tel":"031-423-9849","addr":"경기도 안양시 동안구 평촌동 85-12번지","indutype":"의류 - 정장","category":"other"},{"name":"볼빅 평촌점","tel":"031-423-5063","addr":"경기도 안양시 동안구 평촌동 85-12번지","indutype":"레져용품 - 스포츠·레져용품","category":"other"},{"name":"인덕원코오롱","tel":"031-425-8127","addr":"경기도 안양시 동안구 평촌동 85-12번지","indutype":"레져용품 - 스포츠·레져용품","category":"other"},{"name":"파사디골프 플러스아울렛점","tel":"031-426-5775","addr":"경기도 안양시 동안구 평촌동 85-12번지","indutype":"의류 - 스포츠의류","category":"other"}]},{"lat":"37.393662408","long":"126.97623094","imageIndex":17,"items":[{"name":"불독PC","tel":"070-5055-5939","addr":"경기도 안양시 동안구 평촌동 57번지","indutype":"수리서비스 - 사무·통신기기수리","category":"other"}]},{"lat":"37.396022918","long":"126.97564286","imageIndex":17,"items":[{"name":"블랙야크 안양 인덕원점","tel":"031-423-8942","addr":"경기도 안양시 동안구 평촌동 80-1번지","indutype":"의류 - 스포츠의류","category":"other"},{"name":"주식회사 원커머스","tel":"031-360-0851","addr":"경기도 안양시 동안구 평촌동 80-1번지","indutype":"용역 서비스 - 소프트웨어","category":"other"}]},{"lat":"37.383918472","long":"126.96214279","imageIndex":17,"items":[{"name":"비너스뷰티클리닉","tel":"070-4155-6008","addr":"경기도 안양시 동안구 평촌동 915-2번지","indutype":"회원제형태 - 기타4","category":"other"}]},{"lat":"37.390256238","long":"126.97470768","imageIndex":17,"items":[{"name":"비누마을","tel":"070-8865-9339","addr":"경기도 안양시 동안구 평촌동 132-3번지 한미아파트","indutype":"신변잡화 - 기타잡화","category":"other"},{"name":"온누리컴퓨터","tel":"031-426-2155","addr":"경기도 안양시 동안구 평촌동 132-3번지 한미아파트","indutype":"사무통신 - 컴퓨터","category":"other"},{"name":"하늘담빛","tel":"070-7594-9887","addr":"경기도 안양시 동안구 평촌동 132-3번지 한미아파트","indutype":"용역 서비스 - 가례서비스업","category":"other"}]},{"lat":"37.383386857","long":"126.96208662","imageIndex":17,"items":[{"name":"비비컷","tel":"031-383-1009","addr":"경기도 안양시 동안구 평촌동 919-8번지","indutype":"문화.취미 - 애완동물","category":"other"}]},{"lat":"37.392004194","long":"126.97469574","imageIndex":17,"items":[{"name":"비조상사","tel":"031-454-5840","addr":"경기도 안양시 동안구 평촌동 117번지","indutype":"레져용품 - 스포츠·레져용품","category":"other"}]},{"lat":"37.396140319","long":"126.97683989","imageIndex":17,"items":[{"name":"빅쳇","tel":"031-342-7775","addr":"경기도 안양시 동안구 평촌동 75-1번지 평촌이편한세상","indutype":"신변잡화 - 액세서리","category":"other"}]},{"lat":"37.394752677","long":"126.97644512","imageIndex":17,"items":[{"name":"뽀뽀애견샵","tel":"031-425-7580","addr":"경기도 안양시 동안구 평촌동 69-1번지","indutype":"문화.취미 - 애완동물","category":"other"},{"name":"아름다운요가","tel":"031-426-2322","addr":"경기도 안양시 동안구 평촌동 69-1번지","indutype":"회원제형태 - 레져업소","category":"other"},{"name":"주식회사 윤영","tel":"031-385-8414","addr":"경기도 안양시 동안구 평촌동 69-1번지","indutype":"서적문구 - 기타서적문구","category":"other"}]},{"lat":"37.392391895","long":"126.97583615","imageIndex":17,"items":[{"name":"사라에스테틱","tel":"031-422-2777","addr":"경기도 안양시 동안구 평촌동 98-2번지","indutype":"회원제형태 - 기타4","category":"other"}]},{"lat":"37.392969206","long":"126.97891885","imageIndex":17,"items":[{"name":"삼성레미안","tel":"031-422-3780","addr":"경기도 안양시 동안구 평촌동 34번지","indutype":"수리서비스 - 세탁소","category":"other"}]},{"lat":"37.393663116","long":"126.9795849","imageIndex":17,"items":[{"name":"색종이스쿨","tel":"","addr":"경기도 안양시 동안구 평촌동 75-9번지","indutype":"문화.취미 - 문화취미기타","category":"other"},{"name":"오시플러스","tel":"031-341-3939","addr":"경기도 안양시 동안구 평촌동 75-9번지","indutype":"신변잡화 - 귀금속","category":"other"},{"name":"키즈앤맘","tel":"031-424-1291","addr":"경기도 안양시 동안구 평촌동 75-9번지","indutype":"의류 - 기타의류","category":"other"},{"name":"평촌인테리어","tel":"031-424-9355","addr":"경기도 안양시 동안구 평촌동 75-9번지","indutype":"건축자재 - 인테리어전문","category":"other"}]},{"lat":"37.382774378","long":"126.96269667","imageIndex":17,"items":[{"name":"샛별광고","tel":"","addr":"경기도 안양시 동안구 평촌동 920-7번지","indutype":"건축자재 - 인테리어전문","category":"other"}]},{"lat":"37.393127589","long":"126.96450928","imageIndex":17,"items":[{"name":"성심장례토탈 서비스","tel":"00-1577-0207","addr":"경기도 안양시 동안구 평촌동 896-6번지 초원부영아파트","indutype":"회원제형태 - 기타4","category":"other"}]},{"lat":"37.389802136","long":"126.96233157","imageIndex":17,"items":[{"name":"세경문구","tel":"031-386-2566","addr":"경기도 안양시 동안구 평촌동 896-2번지","indutype":"서적문구 - 문구용품","category":"other"},{"name":"세경인테리어","tel":"031-381-9232","addr":"경기도 안양시 동안구 평촌동","indutype":"건축자재 - 인테리어전문","category":"other"}]},{"lat":"37.39555401","long":"126.97402811","imageIndex":17,"items":[{"name":"세림스포츠","tel":"031-426-1425","addr":"경기도 안양시 동안구 평촌동","indutype":"레져용품 - 스포츠·레져용품","category":"other"},{"name":"진인터내쇼날","tel":"031-421-4212","addr":"경기도 안양시 동안구 평촌동","indutype":"레져용품 - 스포츠·레져용품","category":"other"}]},{"lat":"37.38774693","long":"126.95978071","imageIndex":17,"items":[{"name":"세종기획","tel":"031-421-4466","addr":"경기도 안양시 동안구 평촌동","indutype":"회원제형태 - 기타4","category":"other"}]},{"lat":"37.38491799","long":"126.96042594","imageIndex":17,"items":[{"name":"소꿉놀이","tel":"","addr":"경기도 안양시 동안구 평촌동 902번지","indutype":"의류 - 정장","category":"other"}]},{"lat":"37.385108326","long":"126.96367779","imageIndex":17,"items":[{"name":"수디자인 909","tel":"031-383-0479","addr":"경기도 안양시 동안구 평촌동 909번지","indutype":"건축자재 - 인테리어전문","category":"other"}]},{"lat":"37.395500105","long":"126.97467184","imageIndex":17,"items":[{"name":"수선","tel":"031-423-7753","addr":"경기도 안양시 동안구 평촌동 85-8번지","indutype":"수리서비스 - 세탁소","category":"other"},{"name":"팬텀평촌플러스","tel":"031-426-0366","addr":"경기도 안양시 동안구 평촌동 85-8번지","indutype":"의류 - 스포츠의류","category":"other"},{"name":"힐크릭/더 레드","tel":"031-421-4246","addr":"경기도 안양시 동안구 평촌동 85-8번지","indutype":"레져용품 - 스포츠·레져용품","category":"other"}]},{"lat":"37.394301682","long":"126.9743335","imageIndex":17,"items":[{"name":"슈페리어평촌점","tel":"031-425-9940","addr":"경기도 안양시 동안구 평촌동","indutype":"레져용품 - 스포츠·레져용품","category":"other"}]},{"lat":"37.383838219","long":"126.96464951","imageIndex":17,"items":[{"name":"스케치1993평촌점","tel":"031-716-1060","addr":"경기도 안양시 동안구 평촌동 912-6번지","indutype":"가구 - 일반가구","category":"other"},{"name":"토담","tel":"031-387-0008","addr":"경기도 안양시 동안구 평촌동 912-6번지","indutype":"주방용구 - 주방용식기","category":"other"}]},{"lat":"37.391977502","long":"126.97615249","imageIndex":17,"items":[{"name":"스포츠벨샵","tel":"031-347-1887","addr":"경기도 안양시 동안구 평촌동 101번지 인덕원대림2차아파트","indutype":"레져용품 - 스포츠·레져용품","category":"other"}]},{"lat":"37.383387065","long":"126.96269635","imageIndex":17,"items":[{"name":"시앤","tel":"","addr":"경기도 안양시 동안구 평촌동 920-1번지","indutype":"기타 - 기계공구","category":"other"}]},{"lat":"37.383198617","long":"126.96501115","imageIndex":17,"items":[{"name":"시엠팩토리(CM Factory)","tel":"0505-202-6028","addr":"경기도 안양시 동안구 평촌동 930-3번지","indutype":"가구 - 일반가구","category":"other"}]},{"lat":"37.384503395","long":"126.96006485","imageIndex":17,"items":[{"name":"신세기타운관리소","tel":"031-386-2100","addr":"경기도 안양시 동안구 평촌동 900-4번지","indutype":"용역 서비스 - 사무서비스","category":"other"}]},{"lat":"37.382026466","long":"126.96248254","imageIndex":17,"items":[{"name":"싯딤나무","tel":"070-8031-4038","addr":"경기도 안양시 동안구 평촌동 925-4번지","indutype":"광학제품 - 사진관","category":"other"}]},{"lat":"37.386091924","long":"126.96848753","imageIndex":17,"items":[{"name":"싸과","tel":"031-381-4500","addr":"경기도 안양시 동안구 평촌동 932-6번지 꿈마을라이프아파트","indutype":"회원제형태 - 기타1","category":"other"}]},{"lat":"37.383197741","long":"126.962369","imageIndex":17,"items":[{"name":"씨드(Seed)","tel":"031-385-9661","addr":"경기도 안양시 동안구 평촌동 919-3번지","indutype":"의류 - 정장","category":"other"}]},{"lat":"37.39487008","long":"126.9776873","imageIndex":17,"items":[{"name":"씽크톡창의수학","tel":"031-381-2436","addr":"경기도 안양시 동안구 평촌동 75-2번지 인덕원대우아파트푸른마을","indutype":"서적문구 - 일반서적","category":"other"}]},{"lat":"37.382251544","long":"126.96197432","imageIndex":17,"items":[{"name":"아이폰하우징","tel":"031-384-4857","addr":"경기도 안양시 동안구 평촌동 924-3번지","indutype":"신변잡화 - 기타잡화","category":"other"}]},{"lat":"37.387521433","long":"126.95911461","imageIndex":17,"items":[{"name":"아현당","tel":"","addr":"경기도 안양시 동안구 평촌동 899번지 향촌롯데아파트","indutype":"문화.취미 - 문화취미기타","category":"other"}]},{"lat":"37.391974693","long":"126.96575205","imageIndex":17,"items":[{"name":"아홉빛깔무지개","tel":"070-8262-6653","addr":"경기도 안양시 동안구 평촌동 896-6번지 초원부영아파트","indutype":"회원제형태 - 서적","category":"other"}]},{"lat":"37.391536357","long":"126.97774488","imageIndex":17,"items":[{"name":"안양도시농업연구회","tel":"031-426-7857","addr":"경기도 안양시 동안구 평촌동 101번지 인덕원대림2차아파트","indutype":"문화.취미 - 문화취미기타","category":"other"}]},{"lat":"37.383666332","long":"126.9625607","imageIndex":17,"items":[{"name":"앤","tel":"031-476-4027","addr":"경기도 안양시 동안구 평촌동 915-5번지","indutype":"의류 - 정장","category":"other"}]},{"lat":"37.384027247","long":"126.96408484","imageIndex":17,"items":[{"name":"앤디오","tel":"031-897-7712","addr":"경기도 안양시 동안구 평촌동 913-11번지","indutype":"회원제형태 - 서적","category":"other"}]},{"lat":"37.385171302","long":"126.96339547","imageIndex":17,"items":[{"name":"양희수에스테틱","tel":"031-382-7628","addr":"경기도 안양시 동안구 평촌동 910-1번지","indutype":"회원제형태 - 기타4","category":"other"}]},{"lat":"37.388523967","long":"126.96620543","imageIndex":17,"items":[{"name":"에드","tel":"","addr":"경기도 안양시 동안구 평촌동 898-6번지 초원대원아파트","indutype":"신변잡화 - 액세서리","category":"other"}]},{"lat":"37.396022543","long":"126.97406181","imageIndex":17,"items":[{"name":"에스알앤에프","tel":"031-426-5425","addr":"경기도 안양시 동안구 평촌동 84-1번지","indutype":"레져용품 - 스포츠·레져용품","category":"other"},{"name":"와이드앵글평촌","tel":"02-2608-5063","addr":"경기도 안양시 동안구 평촌동","indutype":"레져용품 - 스포츠·레져용품","category":"other"},{"name":"와이드앵글평촌점","tel":"031-422-5063","addr":"경기도 안양시 동안구 평촌동 84-1번지","indutype":"의류 - 스포츠의류","category":"other"}]},{"lat":"37.384026247","long":"126.96114909","imageIndex":17,"items":[{"name":"에스엠엘 (Sml)영어연구소","tel":"031-1588-7748","addr":"경기도 안양시 동안구 평촌동 904-2번지","indutype":"용역 서비스 - 사무서비스","category":"other"}]},{"lat":"37.392914339","long":"126.97522615","imageIndex":17,"items":[{"name":"엑서사이즈","tel":"070-7451-3757","addr":"경기도 안양시 동안구 평촌동 96번지","indutype":"회원제형태 - 레져업소","category":"other"}]},{"lat":"37.393193939","long":"126.97647954","imageIndex":17,"items":[{"name":"엘루시 앤틱","tel":"","addr":"경기도 안양시 동안구 평촌동 56-5번지","indutype":"신변잡화 - 기타잡화","category":"other"},{"name":"피에이치몰","tel":"031-421-1378","addr":"경기도 안양시 동안구 평촌동 56-5번지","indutype":"의류 - 정장","category":"other"}]},{"lat":"37.384504141","long":"126.96217635","imageIndex":17,"items":[{"name":"엘리팝스","tel":"070-7405-0531","addr":"경기도 안양시 동안구 평촌동 319-1번지","indutype":"의류 - 정장","category":"other"},{"name":"주식회사 잉리라이브러리","tel":"031-386-1875","addr":"경기도 안양시 동안구 평촌동 319-1번지","indutype":"서적문구 - 일반서적","category":"other"}]},{"lat":"37.381774093","long":"126.96222299","imageIndex":17,"items":[{"name":"엘림상사","tel":"","addr":"경기도 안양시 동안구 평촌동 925-11번지","indutype":"신변잡화 - 기타잡화","category":"other"}]},{"lat":"37.394221115","long":"126.97659211","imageIndex":17,"items":[{"name":"엠플라워","tel":"031-424-5215","addr":"경기도 안양시 동안구 평촌동 68-5번지","indutype":"문화.취미 - 화원","category":"other"},{"name":"크린토피아 평촌점","tel":"031-426-0803","addr":"경기도 안양시 동안구 평촌동 68-5번지","indutype":"수리서비스 - 세탁소","category":"other"}]},{"lat":"37.388057431","long":"126.9733083","imageIndex":17,"items":[{"name":"온유갤러리","tel":"031-422-3309","addr":"경기도 안양시 동안구 평촌동 138-1번지","indutype":"문화.취미 - 화랑","category":"other"}]},{"lat":"37.383054036","long":"126.96372403","imageIndex":17,"items":[{"name":"우리집인테리어","tel":"070-4190-1003","addr":"경기도 안양시 동안구 평촌동 928-1번지","indutype":"건축자재 - 인테리어전문","category":"other"}]},{"lat":"37.387837915","long":"126.96227617","imageIndex":17,"items":[{"name":"원호","tel":"070-7556-6649","addr":"경기도 안양시 동안구 평촌동 899-7번지 향촌현대5차아파트","indutype":"신변잡화 - 기타잡화","category":"other"}]},{"lat":"37.38944349","long":"126.96783105","imageIndex":17,"items":[{"name":"월드렌탈","tel":"031-383-2863","addr":"경기도 안양시 동안구 평촌동 897-7번지 초원럭키아파트","indutype":"회원제형태 - 기타4","category":"other"}]},{"lat":"37.382891605","long":"126.96297889","imageIndex":17,"items":[{"name":"위즈초크아트","tel":"031-384-0428","addr":"경기도 안양시 동안구 평촌동 920-5번지","indutype":"문화.취미 - 문화취미기타","category":"other"},{"name":"지엠공조시스템","tel":"031-381-2266","addr":"경기도 안양시 동안구 평촌동 920-5번지","indutype":"전기제품 - 가전제품","category":"other"}]},{"lat":"37.388084106","long":"126.97191938","imageIndex":17,"items":[{"name":"유니쿡","tel":"","addr":"경기도 안양시 동안구 평촌동 933-7번지 꿈마을아파트","indutype":"유통업 영리 - 기타유통업","category":"other"}]},{"lat":"37.382278322","long":"126.96125168","imageIndex":17,"items":[{"name":"유모바일(Y.U MOBILE)","tel":"031-382-2013","addr":"경기도 안양시 동안구 평촌동 922-10번지","indutype":"사무통신 - 통신기기","category":"other"}]},{"lat":"37.382477159","long":"126.96303557","imageIndex":17,"items":[{"name":"유진통상","tel":"031-386-2728","addr":"경기도 안양시 동안구 평촌동 926-5번지","indutype":"문화.취미 - 민예·공예품","category":"other"}]},{"lat":"37.392140203","long":"126.97855775","imageIndex":17,"items":[{"name":"유후모바일","tel":"031-341-4994","addr":"경기도 안양시 동안구 평촌동 41-11번지","indutype":"사무통신 - 통신기기","category":"other"},{"name":"카피텍","tel":"","addr":"경기도 안양시 동안구 평촌동 41-11번지","indutype":"유통업 영리 - 기타유통업","category":"other"}]},{"lat":"37.391766991","long":"126.96428412","imageIndex":17,"items":[{"name":"윤민상사","tel":"031-385-6869","addr":"경기도 안양시 동안구 평촌동 896-6번지 초원부영아파트","indutype":"회원제형태 - 기타4","category":"other"}]},{"lat":"37.392581542","long":"126.97781229","imageIndex":17,"items":[{"name":"은나노크리닝","tel":"031-423-1660","addr":"경기도 안양시 동안구 평촌동 41-2번지","indutype":"용역 서비스 - 종합용역","category":"other"}]},{"lat":"37.395518878","long":"126.97802588","imageIndex":17,"items":[{"name":"이안세미콘","tel":"","addr":"경기도 안양시 동안구 평촌동 75-2번지 인덕원대우아파트푸른마을","indutype":"회원제형태 - 기타4","category":"other"}]},{"lat":"37.387832116","long":"126.97305997","imageIndex":17,"items":[{"name":"이원산업","tel":"031-454-6628","addr":"경기도 안양시 동안구 평촌동 140-10번지","indutype":"건축자재 - 페인트","category":"other"}]},{"lat":"37.391500113","long":"126.97680762","imageIndex":17,"items":[{"name":"인견사랑(엘림)","tel":"031-426-5051","addr":"경기도 안양시 동안구 평촌동 101번지","indutype":"의류 - 정장","category":"other"}]},{"lat":"37.384279226","long":"126.96317011","imageIndex":17,"items":[{"name":"인어부인","tel":"031-427-0760","addr":"경기도 안양시 동안구 평촌동 908번지","indutype":"의류 - 정장","category":"other"}]},{"lat":"37.394139827","long":"126.97572259","imageIndex":17,"items":[{"name":"자연이만드는디자인가구","tel":"031-425-5093","addr":"경기도 안양시 동안구 평촌동 91-6번지","indutype":"가구 - 일반가구","category":"other"}]},{"lat":"37.392500563","long":"126.97834307","imageIndex":17,"items":[{"name":"정우공업사","tel":"031-384-4869","addr":"경기도 안양시 동안구 평촌동 41-7번지","indutype":"건축자재 - 목재·석재·철물","category":"other"}]},{"lat":"37.381891209","long":"126.96217776","imageIndex":17,"items":[{"name":"정인교육사","tel":"031-386-2920","addr":"경기도 안양시 동안구 평촌동 925-2번지","indutype":"회원제형태 - 서적","category":"other"}]},{"lat":"37.38658745","long":"126.96838568","imageIndex":17,"items":[{"name":"제니 벨로","tel":"","addr":"경기도 안양시 동안구 평촌동 932-6번지 꿈마을라이프아파트","indutype":"의류 - 내의판매","category":"other"}]},{"lat":"37.387007907","long":"126.95925041","imageIndex":17,"items":[{"name":"제이디","tel":"031-349-2879","addr":"경기도 안양시 동안구 평촌동 899번지 향촌롯데아파트","indutype":"서적문구 - 기타서적문구","category":"other"}]},{"lat":"37.382945582","long":"126.96273046","imageIndex":17,"items":[{"name":"주식회사 선민복지","tel":"031-381-5940","addr":"경기도 안양시 동안구 평촌동 920-12번지","indutype":"문화.취미 - 화원","category":"other"}]},{"lat":"37.38386447","long":"126.96231219","imageIndex":17,"items":[{"name":"주식회사 웰스포저","tel":"070-8862-7198","addr":"경기도 안양시 동안구 평촌동 915-3번지","indutype":"회원제형태 - 레져업소","category":"other"}]},{"lat":"37.384279485","long":"126.96394922","imageIndex":17,"items":[{"name":"주식회사 투앤투디자인","tel":"031-476-5080","addr":"경기도 안양시 동안구 평촌동 913-13번지","indutype":"건축자재 - 인테리어전문","category":"other"}]},{"lat":"37.387440375","long":"126.959205","imageIndex":17,"items":[{"name":"준스맘","tel":"031-344-4566","addr":"경기도 안양시 동안구 평촌동 899번지","indutype":"신변잡화 - 기타잡화","category":"other"},{"name":"초이컴","tel":"031-479-4849","addr":"경기도 안양시 동안구 평촌동 899번지 향촌롯데아파트(한밀교회)","indutype":"사무통신 - 기타 사무용품","category":"other"},{"name":"플로시아(flosia)","tel":"","addr":"경기도 안양시 동안구 평촌동 899번지","indutype":"문화.취미 - 화원","category":"other"}]},{"lat":"37.388138654","long":"126.97383899","imageIndex":17,"items":[{"name":"중일상사","tel":"031-24-7715","addr":"경기도 안양시 동안구 평촌동 136-7번지","indutype":"건축자재 - 페인트","category":"other"},{"name":"테라티움 (Terra Teeum)","tel":"031-421-2313","addr":"경기도 안양시 동안구 평촌동 136-7번지","indutype":"문화.취미 - 민예·공예품","category":"other"}]},{"lat":"37.394860725","long":"126.97611758","imageIndex":17,"items":[{"name":"지오세무회계","tel":"031-424-3082","addr":"경기도 안양시 동안구 평촌동 72-9번지","indutype":"용역 서비스 - 법률회계서비스(개인)","category":"other"}]},{"lat":"37.382864722","long":"126.96341926","imageIndex":17,"items":[{"name":"진성상사","tel":"031-387-2050","addr":"경기도 안양시 동안구 평촌동 926-1번지","indutype":"의류 - 아동의류","category":"other"}]},{"lat":"37.392581374","long":"126.9770331","imageIndex":17,"items":[{"name":"창고이불매장","tel":"031-8045-4685","addr":"경기도 안양시 동안구 평촌동 53-3번지","indutype":"직물 - 침구·수예점","category":"other"}]},{"lat":"37.386143181","long":"126.95991712","imageIndex":17,"items":[{"name":"창작나라 조형마을","tel":"031-382-7952","addr":"경기도 안양시 동안구 평촌동","indutype":"문화.취미 - 민예·공예품","category":"other"}]},{"lat":"37.389982457","long":"126.96268153","imageIndex":17,"items":[{"name":"청룡기업","tel":"031-422-7777","addr":"경기도 안양시 동안구 평촌동 896-2번지 초원세경아파트","indutype":"용역 서비스 - 종합용역","category":"other"}]},{"lat":"37.384414517","long":"126.96358782","imageIndex":17,"items":[{"name":"치엘로(cielo)","tel":"02-1577-0000","addr":"경기도 안양시 동안구 평촌동 908-4번지","indutype":"의류 - 정장","category":"other"}]},{"lat":"37.393527683","long":"126.97819593","imageIndex":17,"items":[{"name":"커브스 인덕원클럽","tel":"031-426-8802","addr":"경기도 안양시 동안구 평촌동 62-2번지","indutype":"회원제형태 - 레져업소","category":"other"}]},{"lat":"37.385774755","long":"126.96272895","imageIndex":17,"items":[{"name":"커브스평촌클럽","tel":"031-381-3013","addr":"경기도 안양시 동안구 평촌동 341-3번지","indutype":"회원제형태 - 레져업소","category":"other"}]},{"lat":"37.38322616","long":"126.96664837","imageIndex":17,"items":[{"name":"컴피씨119(COMPC119)","tel":"031-384-1471","addr":"경기도 안양시 동안구 평촌동","indutype":"수리서비스 - 사무·통신기기수리","category":"other"}]},{"lat":"37.392248145","long":"126.97769947","imageIndex":17,"items":[{"name":"컴피아21","tel":"031-424-5119","addr":"경기도 안양시 동안구 평촌동 43-2번지","indutype":"사무통신 - 컴퓨터","category":"other"}]},{"lat":"37.382945353","long":"126.96206428","imageIndex":17,"items":[{"name":"콩뮤직엔터테인먼트","tel":"070-8944-7300","addr":"경기도 안양시 동안구 평촌동 918-5번지","indutype":"기타 - 기타 전문점","category":"other"}]},{"lat":"37.391292982","long":"126.97727068","imageIndex":17,"items":[{"name":"쿠키앤클레이","tel":"031-426-7890","addr":"경기도 안양시 동안구 평촌동 101번지 인덕원대림2차아파트","indutype":"문화.취미 - 민예·공예품","category":"other"}]},{"lat":"37.385496516","long":"126.96602624","imageIndex":17,"items":[{"name":"키즈앤북","tel":"","addr":"경기도 안양시 동안구 평촌동 932-2번지 꿈마을금호아파트","indutype":"서적문구 - 기타서적문구","category":"other"}]},{"lat":"37.383197826","long":"126.96261741","imageIndex":17,"items":[{"name":"타일스페이스","tel":"031-427-1150","addr":"경기도 안양시 동안구 평촌동 920-14번지","indutype":"건축자재 - 건축용 요업제품","category":"other"}]},{"lat":"37.385558206","long":"126.96183703","imageIndex":17,"items":[{"name":"타임유스터디카페 평촌점","tel":"","addr":"경기도 안양시 동안구 평촌동 343번지","indutype":"용역 서비스 - 사무서비스","category":"other"}]},{"lat":"37.390634627","long":"126.97456074","imageIndex":17,"items":[{"name":"태정교육","tel":"070-7728-0960","addr":"경기도 안양시 동안구 평촌동 130-1번지 영풍아파트","indutype":"서적문구 - 과학기자재","category":"other"},{"name":"허브스킨바디","tel":"031-425-1144","addr":"경기도 안양시 동안구 평촌동 130-1번지 영풍아파트","indutype":"회원제형태 - 기타4","category":"other"}]},{"lat":"37.393365161","long":"126.976615","imageIndex":17,"items":[{"name":"트라이평촌점","tel":"031-424-2361","addr":"경기도 안양시 동안구 평촌동 56-3번지","indutype":"의류 - 내의판매","category":"other"}]},{"lat":"37.384802127","long":"126.96411832","imageIndex":17,"items":[{"name":"티앤씨","tel":"031-381-9448","addr":"경기도 안양시 동안구 평촌동 911-4번지","indutype":"의류 - 정장","category":"other"}]},{"lat":"37.383387702","long":"126.96461586","imageIndex":17,"items":[{"name":"티앤오","tel":"070-4226-5456","addr":"경기도 안양시 동안구 평촌동 928-8번지","indutype":"용역 서비스 - 종합용역","category":"other"}]},{"lat":"37.393635463","long":"126.9766149","imageIndex":17,"items":[{"name":"파스텔디자인","tel":"031-423-3008","addr":"경기도 안양시 동안구 평촌동 58-2번지","indutype":"건축자재 - 인테리어전문","category":"other"}]},{"lat":"37.382838129","long":"126.96475164","imageIndex":17,"items":[{"name":"펜지퀼트샵","tel":"031-384-4857","addr":"경기도 안양시 동안구 평촌동 929-7번지","indutype":"문화.취미 - 문화취미기타","category":"other"}]},{"lat":"37.383171441","long":"126.96455952","imageIndex":17,"items":[{"name":"평온한 아침. 고요","tel":"070-8945-3313","addr":"경기도 안양시 동안구 평촌동 928-10번지","indutype":"문화.취미 - 민예·공예품","category":"other"}]},{"lat":"37.382944954","long":"126.96092387","imageIndex":17,"items":[{"name":"평촌모임센터","tel":"031-341-0915","addr":"경기도 안양시 동안구 평촌동 922-5번지","indutype":"용역 서비스 - 사무서비스","category":"other"}]},{"lat":"37.394249059","long":"126.98108667","imageIndex":17,"items":[{"name":"평촌점 대우 영아트","tel":"031-424-4020","addr":"경기도 안양시 동안구 평촌동 75-3번지 인덕원대우아파트푸른마을","indutype":"서적문구 - 문구용품","category":"other"}]},{"lat":"37.389073495","long":"126.96592286","imageIndex":17,"items":[{"name":"평촌콜밴","tel":"","addr":"경기도 안양시 동안구 평촌동 898-6번지 초원대원아파트","indutype":"여행 - 기타교통수단","category":"other"}]},{"lat":"37.394311794","long":"126.97933626","imageIndex":17,"items":[{"name":"포레스티","tel":"","addr":"경기도 안양시 동안구 평촌동 75-2번지 인덕원대우아파트푸른마을","indutype":"용역 서비스 - 사무서비스","category":"other"}]},{"lat":"37.383026972","long":"126.96362242","imageIndex":17,"items":[{"name":"프린세스벨리","tel":"031-443-0588","addr":"경기도 안양시 동안구 평촌동 928번지","indutype":"의류 - 정장","category":"other"}]},{"lat":"37.384612952","long":"126.96423133","imageIndex":17,"items":[{"name":"플러스","tel":"","addr":"경기도 안양시 동안구 평촌동 911-6번지","indutype":"의류 - 기타의류","category":"other"}]},{"lat":"37.389517312","long":"126.97430144","imageIndex":17,"items":[{"name":"플러스시스템","tel":"","addr":"경기도 안양시 동안구 평촌동 133-1번지 경남연립","indutype":"용역 서비스 - 기타용역서비스","category":"other"}]},{"lat":"37.383639006","long":"126.96170258","imageIndex":17,"items":[{"name":"하와이이벤트","tel":"031-388-8693","addr":"경기도 안양시 동안구 평촌동","indutype":"회원제형태 - 기타4","category":"other"}]},{"lat":"37.389263109","long":"126.96723265","imageIndex":17,"items":[{"name":"하우스클린","tel":"","addr":"경기도 안양시 동안구 평촌동 898-6번지 초원대원아파트","indutype":"용역 서비스 - 종합용역","category":"other"}]},{"lat":"37.392302164","long":"126.97750748","imageIndex":17,"items":[{"name":"한빛엘이디","tel":"031-421-6554","addr":"경기도 안양시 동안구 평촌동 43-1번지","indutype":"용역 서비스 - 종합용역","category":"other"}]},{"lat":"37.387408295","long":"126.9717164","imageIndex":17,"items":[{"name":"한아름유통","tel":"031-422-9294","addr":"경기도 안양시 동안구 평촌동 933-7번지 꿈마을아파트","indutype":"회원제형태 - 기타4","category":"other"}]},{"lat":"37.387859285","long":"126.97361326","imageIndex":17,"items":[{"name":"한일그린버티칼","tel":"031-421-6124","addr":"경기도 안양시 동안구 평촌동 137-2번지","indutype":"직물 - 카페트,커튼,천막,지물","category":"other"}]},{"lat":"37.39308653","long":"126.97988998","imageIndex":17,"items":[{"name":"헤쎄드(hessed)","tel":"031-425-2439","addr":"경기도 안양시 동안구 평촌동 21-2번지","indutype":"의류 - 정장","category":"other"}]},{"lat":"37.382891456","long":"126.96253854","imageIndex":17,"items":[{"name":"현대기획","tel":"031-387-3001","addr":"경기도 안양시 동안구 평촌동 920-11번지","indutype":"용역 서비스 - 종합용역","category":"other"}]},{"lat":"37.394086036","long":"126.97691965","imageIndex":17,"items":[{"name":"현수플라워","tel":"031-423-0181","addr":"경기도 안양시 동안구 평촌동 68-14번지","indutype":"문화.취미 - 화원","category":"other"}]},{"lat":"37.388750522","long":"126.97067698","imageIndex":17,"items":[{"name":"협선공업(주)안양공장","tel":"031-421-1123","addr":"경기도 안양시 동안구 평촌동","indutype":"기타 - 기계공구","category":"other"},{"name":"호림주식회사","tel":"031-423-8813","addr":"경기도 안양시 동안구 평촌동 167번지","indutype":"건축자재 - 기타건축자재","category":"other"}]},{"lat":"37.394302066","long":"126.97597097","imageIndex":17,"items":[{"name":"형제당","tel":"031-421-5331","addr":"경기도 안양시 동안구 평촌동 89-5번지","indutype":"신변잡화 - 시계","category":"other"}]},{"lat":"37.393455091","long":"126.97585835","imageIndex":17,"items":[{"name":"홍농원","tel":"02-571-4946","addr":"경기도 안양시 동안구 평촌동 93-1번지 인덕원대림아파트","indutype":"문화.취미 - 화원","category":"other"}]}]