[{"lat":"37.656631381","long":"126.83895719","imageIndex":0,"items":[{"name":"SJ모터스","tel":"","addr":"경기도 고양시 덕양구 성사동 506-17번지","indutype":"자동차정비 유지 - 자동차정비","category":"car"}]},{"lat":"37.645633606","long":"126.85490118","imageIndex":0,"items":[{"name":"고양자동차클럽","tel":"031-965-2006","addr":"경기도 고양시 덕양구 성사동 27번지","indutype":"자동차정비 유지 - 자동차시트·타이어","category":"car"}]},{"lat":"37.65218956","long":"126.83256447","imageIndex":0,"items":[{"name":"고양카써비스쎈타","tel":"031-963-4483","addr":"경기도 고양시 덕양구 성사동 734-6번지","indutype":"자동차정비 유지 - 자동차정비","category":"car"}]},{"lat":"37.660143596","long":"126.83783883","imageIndex":0,"items":[{"name":"덕일윤활유","tel":"02-356-7666","addr":"경기도 고양시 덕양구 성사동","indutype":"자동차정비 유지 - 윤활유 전문 판매","category":"car"}]},{"lat":"37.644522537","long":"126.85262592","imageIndex":0,"items":[{"name":"브로매틱","tel":"031-963-9484","addr":"경기도 고양시 덕양구 성사동 236-7번지","indutype":"자동차정비 유지 - 카인테리어","category":"car"}]},{"lat":"37.657052349","long":"126.83717705","imageIndex":0,"items":[{"name":"삼성홈파킹","tel":"031-969-1849","addr":"경기도 고양시 덕양구 성사동 696번지","indutype":"자동차정비 유지 - 주차장","category":"car"}]},{"lat":"37.652600898","long":"126.84322684","imageIndex":0,"items":[{"name":"설아전자","tel":"031-968-7325","addr":"경기도 고양시 덕양구 성사동 337-2번지","indutype":"자동차정비 유지 - 자동차부품","category":"car"},{"name":"케이아이(KI)모터스","tel":"031-1577-3174","addr":"경기도 고양시 덕양구 성사동 337-2번지","indutype":"자동차판매 - 이륜차판매","category":"car"}]},{"lat":"37.654932873","long":"126.83561791","imageIndex":0,"items":[{"name":"성사점현대자동차","tel":"031-967-6969","addr":"경기도 고양시 덕양구 성사동 700-11번지","indutype":"자동차정비 유지 - 자동차부품","category":"car"},{"name":"주식회사 성사점현대자동차","tel":"031-967-6969","addr":"경기도 고양시 덕양구 성사동 700-11번지","indutype":"자동차정비 유지 - 자동차정비","category":"car"}]},{"lat":"37.658210483","long":"126.84069896","imageIndex":0,"items":[{"name":"성일카인테리어","tel":"031-968-3533","addr":"경기도 고양시 덕양구 성사동 495-2번지","indutype":"자동차정비 유지 - 자동차부품","category":"car"}]},{"lat":"37.645741538","long":"126.85475366","imageIndex":0,"items":[{"name":"세이프","tel":"031-965-4873","addr":"경기도 고양시 덕양구 성사동 281-2번지","indutype":"자동차정비 유지 - 세차장","category":"car"},{"name":"세이프모터스","tel":"031-968-8304","addr":"경기도 고양시 덕양구 성사동 281-2번지","indutype":"자동차정비 유지 - 자동차정비","category":"car"}]},{"lat":"37.656852149","long":"126.84225447","imageIndex":0,"items":[{"name":"에이치원","tel":"031-971-9870","addr":"경기도 고양시 덕양구 성사동 488-40번지","indutype":"자동차정비 유지 - 자동차정비","category":"car"}]},{"lat":"37.656267461","long":"126.84294701","imageIndex":0,"items":[{"name":"엠디 오토 방문세차 경기 일산1호점","tel":"","addr":"경기도 고양시 덕양구 성사동 422-2번지 미도아파트","indutype":"자동차정비 유지 - 세차장","category":"car"}]},{"lat":"37.654658675","long":"126.83925616","imageIndex":0,"items":[{"name":"영진카센타","tel":"031-966-7267","addr":"경기도 고양시 덕양구 성사동 705-19번지","indutype":"자동차정비 유지 - 자동차정비","category":"car"}]},{"lat":"37.656269114","long":"126.84417091","imageIndex":0,"items":[{"name":"영창오토서비스","tel":"031-969-0642","addr":"경기도 고양시 덕양구 성사동 424-10번지","indutype":"자동차정비 유지 - 자동차정비","category":"car"}]},{"lat":"37.648440399","long":"126.85875957","imageIndex":0,"items":[{"name":"와!스팀세차","tel":"031-111-1111","addr":"경기도 고양시 덕양구 성사동 291번지","indutype":"자동차정비 유지 - 세차장","category":"car"}]},{"lat":"37.654632221","long":"126.83328415","imageIndex":0,"items":[{"name":"우노상사","tel":"031-965-7005","addr":"경기도 고양시 덕양구 성사동 740-3번지","indutype":"자동차정비 유지 - 자동차부품","category":"car"}]},{"lat":"37.655324823","long":"126.83884674","imageIndex":0,"items":[{"name":"원당오토바이","tel":"031-967-0458","addr":"경기도 고양시 덕양구 성사동 371-6번지","indutype":"자동차판매 - 이륜차판매","category":"car"}]},{"lat":"37.657238745","long":"126.84165301","imageIndex":0,"items":[{"name":"유진카트로닉","tel":"031-969-5633","addr":"경기도 고양시 덕양구 성사동 488-27번지","indutype":"자동차정비 유지 - 자동차정비","category":"car"}]},{"lat":"37.638803441","long":"126.8542576","imageIndex":0,"items":[{"name":"자성","tel":"031-818-6112","addr":"경기도 고양시 덕양구 성사동 48-1번지","indutype":"자동차판매 - 기타운송","category":"car"}]},{"lat":"37.648803476","long":"126.83364868","imageIndex":0,"items":[{"name":"재단법인고양문화재단","tel":"031-960-9735","addr":"경기도 고양시 덕양구 성사동 826번지","indutype":"자동차정비 유지 - 주차장","category":"car"}]},{"lat":"37.658272143","long":"126.83967888","imageIndex":0,"items":[{"name":"제일카독크","tel":"031-967-5686","addr":"경기도 고양시 덕양구 성사동 499-2번지","indutype":"자동차정비 유지 - 자동차정비","category":"car"}]},{"lat":"37.65080199","long":"126.83251098","imageIndex":0,"items":[{"name":"주교점기아오토큐","tel":"031-966-7657","addr":"경기도 고양시 덕양구 성사동 738번지","indutype":"자동차정비 유지 - 자동차정비","category":"car"}]},{"lat":"37.664491988","long":"126.84873222","imageIndex":0,"items":[{"name":"주식회사 레이스상사","tel":"031-966-1930","addr":"경기도 고양시 덕양구 성사동 603-1번지","indutype":"자동차정비 유지 - 자동차부품","category":"car"}]},{"lat":"37.655302863","long":"126.83603638","imageIndex":0,"items":[{"name":"주식회사 서호환경","tel":"031-995-8325","addr":"경기도 고양시 덕양구 성사동 700번지","indutype":"자동차판매 - 기타운송","category":"car"}]},{"lat":"37.651907787","long":"126.83715449","imageIndex":0,"items":[{"name":"지오스쿨","tel":"02-1661-8246","addr":"경기도 고양시 덕양구 성사동 724번지 어울림마을3단지아파트","indutype":"자동차정비 유지 - 자동차부품","category":"car"}]},{"lat":"37.654744936","long":"126.83651358","imageIndex":0,"items":[{"name":"진오토바이크","tel":"031-964-7085","addr":"경기도 고양시 덕양구 성사동 703-1번지","indutype":"자동차판매 - 이륜차판매","category":"car"}]},{"lat":"37.658988207","long":"126.84281651","imageIndex":0,"items":[{"name":"카앤피플 덕양구3호점","tel":"","addr":"경기도 고양시 덕양구 성사동 860번지 래미안휴레스트아파트","indutype":"자동차정비 유지 - 세차장","category":"car"}]},{"lat":"37.659850021","long":"126.84053673","imageIndex":0,"items":[{"name":"현대카센타","tel":"031-966-6383","addr":"경기도 고양시 덕양구 성사동 523-3번지","indutype":"자동차정비 유지 - 자동차정비","category":"car"}]},{"lat":"37.646325667","long":"126.85356276","imageIndex":0,"items":[{"name":"형제타이어","tel":"031-973-2472","addr":"경기도 고양시 덕양구 성사동","indutype":"자동차정비 유지 - 자동차시트·타이어","category":"car"}]}]