[{"lat":"37.910551746","long":"127.00009592","imageIndex":17,"items":[{"name":"GS25양주원당점","tel":"080-555-2525","addr":"경기도 양주시 남면 한산리 324-2번지","indutype":"유통업 영리 - 편 의 점","category":"other"}]},{"lat":"37.908244756","long":"126.99060123","imageIndex":17,"items":[{"name":"고려산업","tel":"031-865-4283","addr":"경기도 양주시 남면 한산리 449-2번지","indutype":"직물 - 옷감·직물","category":"other"}]},{"lat":"37.910020088","long":"126.99709393","imageIndex":17,"items":[{"name":"세명기계정밀","tel":"031-861-8457","addr":"경기도 양주시 남면 한산리 292-7번지 1층","indutype":"기타 - 기계공구","category":"other"},{"name":"세븐일레븐양주한산점","tel":"","addr":"경기도 양주시 남면 한산리 292-7번지","indutype":"유통업 영리 - 편 의 점","category":"other"}]},{"lat":"37.909821923","long":"126.99795816","imageIndex":17,"items":[{"name":"와이피엘","tel":"070-8230-6278","addr":"경기도 양주시 남면 한산리 290-1번지 1층","indutype":"의류 - 정장","category":"other"}]},{"lat":"37.913020241","long":"126.99840144","imageIndex":17,"items":[{"name":"참좋은이웃","tel":"","addr":"경기도 양주시 남면 한산리 335-2번지 참좋은이웃","indutype":"서적문구 - 문구용품","category":"other"}]},{"lat":"37.909488388","long":"126.99456957","imageIndex":9,"items":[{"name":"대동주유소","tel":"031-861-2221","addr":"경기도 양주시 남면 한산리 420-1번지","indutype":"연료판매점 - 현대정유(오일뱅크)","category":"oil"}]},{"lat":"37.90965959","long":"126.99493343","imageIndex":0,"items":[{"name":"대영폐차장","tel":"031-866-5000","addr":"경기도 양주시 남면 한산리 420번지 외6필지","indutype":"자동차정비 유지 - 가타자동차서비스","category":"car"}]},{"lat":"37.910578438","long":"126.99356877","imageIndex":0,"items":[{"name":"서진올카 주식회사","tel":"031-872-7877","addr":"경기도 양주시 남면 한산리 371번지","indutype":"자동차정비 유지 - 가타자동차서비스","category":"car"}]},{"lat":"37.910020088","long":"126.99709393","imageIndex":0,"items":[{"name":"승일자동차정비공업사","tel":"031-61-2588","addr":"경기도 양주시 남면 한산리 292-7번지","indutype":"자동차정비 유지 - 자동차정비","category":"car"}]},{"lat":"37.910551746","long":"127.00009592","imageIndex":4,"items":[{"name":"맛자랑","tel":"031-865-1287","addr":"경기도 양주시 남면 한산리 324-2번지","indutype":"일반휴게음식 - 일반한식","category":"restaurant"},{"name":"삼거리식당","tel":"031-862-6636","addr":"경기도 양주시 남면 한산리 324-2번지","indutype":"일반휴게음식 - 일반한식","category":"restaurant"}]},{"lat":"37.910461644","long":"126.99973204","imageIndex":4,"items":[{"name":"봉암밥집","tel":"031-866-1790","addr":"경기도 양주시 남면 한산리 324-3번지","indutype":"일반휴게음식 - 일반한식","category":"restaurant"},{"name":"혜성해물짬뽕","tel":"031-858-8280","addr":"경기도 양주시 남면 한산리 324-3","indutype":"일반휴게음식 - 중국식","category":"restaurant"}]},{"lat":"37.90991199","long":"126.99737822","imageIndex":4,"items":[{"name":"중원해물모듬짱뽕","tel":"031-857-7730","addr":"경기도 양주시 남면 한산리 292-4번지","indutype":"일반휴게음식 - 중국식","category":"restaurant"}]},{"lat":"37.909821923","long":"126.99795816","imageIndex":4,"items":[{"name":"코피발리","tel":"031-862-7766","addr":"경기도 양주시 남면 한산리 290-1번지 1층 일부","indutype":"일반휴게음식 - 서양음식","category":"restaurant"}]},{"lat":"37.910966013","long":"126.99612728","imageIndex":16,"items":[{"name":"양주에이스원드론교육원","tel":"","addr":"경기도 양주시 남면 한산리 301-1번지","indutype":"학원 - 기능학원","category":"study"}]}]