[{"lat":"37.667352294","long":"126.79821009","imageIndex":8,"items":[{"name":"경희참한의원","tel":"031-905-7595","addr":"경기도 고양시 일산동구 풍동 1280-1번지","indutype":"의원 - 한의원","category":"medical"}]},{"lat":"37.667238906","long":"126.80037522","imageIndex":8,"items":[{"name":"더조은내과의원","tel":"031-905-8575","addr":"경기도 고양시 일산동구 풍동 1278번지","indutype":"의원 - 의원","category":"medical"},{"name":"동의약손한의원","tel":"031-902-9500","addr":"경기도 고양시 일산동구 풍동 1278번지","indutype":"의원 - 한의원","category":"medical"},{"name":"타임치과의원","tel":"031-906-2875","addr":"경기도 고양시 일산동구 풍동 1278번지","indutype":"병원 - 치과병원","category":"medical"},{"name":"풍동조은약국","tel":"070-8878-8098","addr":"경기도 고양시 일산동구 풍동 1278번지","indutype":"약국 - 약국","category":"medical"}]},{"lat":"37.667264745","long":"126.79968377","imageIndex":8,"items":[{"name":"뜨란약국","tel":"031-902-8975","addr":"경기도 고양시 일산동구 풍동","indutype":"약국 - 약국","category":"medical"},{"name":"서울마로니에치과의원","tel":"031-907-2987","addr":"경기도 고양시 일산동구 풍동 1279-4번지","indutype":"의원 - 치과의원","category":"medical"},{"name":"포시즌한의원","tel":"031-909-1070","addr":"경기도 고양시 일산동구 풍동 1279-4번지","indutype":"의원 - 한의원","category":"medical"}]},{"lat":"37.667544239","long":"126.79979635","imageIndex":8,"items":[{"name":"문혜경산부인과의원","tel":"031-932-2299","addr":"경기도 고양시 일산동구 풍동 1274-1번지","indutype":"의원 - 의원","category":"medical"},{"name":"숲속소아청소년과의원","tel":"031-905-0905","addr":"경기도 고양시 일산동구 풍동","indutype":"의원 - 의원","category":"medical"},{"name":"스카이비뇨기과의원","tel":"031-813-7582","addr":"경기도 고양시 일산동구 풍동 1274-1번지","indutype":"의원 - 의원","category":"medical"},{"name":"신기율한의원","tel":"031-907-1001","addr":"경기도 고양시 일산동구 풍동 1274-1번지","indutype":"의원 - 한의원","category":"medical"},{"name":"이내과의원","tel":"031-906-7553","addr":"경기도 고양시 일산동구 풍동 1274-1번지","indutype":"의원 - 의원","category":"medical"}]},{"lat":"37.667378792","long":"126.797904","imageIndex":8,"items":[{"name":"서울정도치과의원","tel":"031-908-7711","addr":"경기도 고양시 일산동구 풍동 1280번지","indutype":"의원 - 치과의원","category":"medical"},{"name":"아름내과의원","tel":"031-903-3552","addr":"경기도 고양시 일산동구 풍동 1280번지","indutype":"의원 - 의원","category":"medical"},{"name":"풍동동물병원","tel":"031-907-7702","addr":"경기도 고양시 일산동구 풍동 1280번지","indutype":"기타의료기관 - 동물병원","category":"medical"},{"name":"훈민약국","tel":"031-901-1235","addr":"경기도 고양시 일산동구 풍동 1280번지","indutype":"약국 - 약국","category":"medical"}]},{"lat":"37.667716415","long":"126.80037392","imageIndex":8,"items":[{"name":"서원구마취통증의학과의원","tel":"031-907-1975","addr":"경기도 고양시 일산동구 풍동 1275번지","indutype":"의원 - 의원","category":"medical"},{"name":"연세물방울치과","tel":"031-905-2882","addr":"경기도 고양시 일산동구 풍동 1275번지","indutype":"의원 - 치과의원","category":"medical"},{"name":"예스의원","tel":"031-906-2901","addr":"경기도 고양시 일산동구 풍동 1275번지","indutype":"의원 - 의원","category":"medical"},{"name":"풍동연세이비인후과의원","tel":"031-907-7770","addr":"경기도 고양시 일산동구 풍동 1275번지","indutype":"의원 - 의원","category":"medical"}]},{"lat":"37.66774245","long":"126.79979581","imageIndex":8,"items":[{"name":"숲속부부한의원","tel":"031-932-1075","addr":"경기도 고양시 일산동구 풍동 1274번지","indutype":"의원 - 한의원","category":"medical"},{"name":"이윤영이비인후과","tel":"031-902-7005","addr":"경기도 고양시 일산동구 풍동 1274번지","indutype":"의원 - 의원","category":"medical"},{"name":"풍동메디칼약국","tel":"031-909-5335","addr":"경기도 고양시 일산동구 풍동 1274번지","indutype":"약국 - 약국","category":"medical"},{"name":"풍동메디칼약국","tel":"031-909-5335","addr":"경기도 고양시 일산동구 풍동 1274번지","indutype":"약국 - 약국","category":"medical"}]},{"lat":"37.667239528","long":"126.80073791","imageIndex":8,"items":[{"name":"숲속약국","tel":"031-903-6565","addr":"경기도 고양시 일산동구 풍동 1278-1번지","indutype":"약국 - 약국","category":"medical"}]},{"lat":"37.667299728","long":"126.79907163","imageIndex":8,"items":[{"name":"연세L치과","tel":"031-904-2871","addr":"경기도 고양시 일산동구 풍동 1279-2번지","indutype":"의원 - 치과의원","category":"medical"},{"name":"풍동라파엘동물병원","tel":"031-901-7980","addr":"경기도 고양시 일산동구 풍동 1279-2번지","indutype":"기타의료기관 - 동물병원","category":"medical"}]},{"lat":"37.667186323","long":"126.80123675","imageIndex":8,"items":[{"name":"연세사랑의치과의원","tel":"031-906-2279","addr":"경기도 고양시 일산동구 풍동 1278-3번지","indutype":"의원 - 치과의원","category":"medical"}]},{"lat":"37.663100554","long":"126.80395651","imageIndex":8,"items":[{"name":"연합연세가정의학과의원","tel":"031-902-0418","addr":"경기도 고양시 일산동구 풍동 150-6번지","indutype":"의원 - 의원","category":"medical"}]},{"lat":"37.664071078","long":"126.79723308","imageIndex":8,"items":[{"name":"이화연소아과의원","tel":"031-901-7288","addr":"경기도 고양시 일산동구 풍동","indutype":"의원 - 의원","category":"medical"},{"name":"풍동한미르치과의원","tel":"031-919-7528","addr":"경기도 고양시 일산동구 풍동 1354번지","indutype":"의원 - 치과의원","category":"medical"},{"name":"해봄약국","tel":"031-907-3621","addr":"경기도 고양시 일산동구 풍동 1354번지","indutype":"약국 - 약국","category":"medical"}]},{"lat":"37.667325835","long":"126.79853885","imageIndex":8,"items":[{"name":"치아나라치과의원","tel":"031-902-2860","addr":"경기도 고양시 일산동구 풍동 1279번지","indutype":"의원 - 치과의원","category":"medical"},{"name":"풍동가족한의원","tel":"031-905-7523","addr":"경기도 고양시 일산동구 풍동 1279번지","indutype":"의원 - 한의원","category":"medical"}]},{"lat":"37.679020849","long":"126.79367769","imageIndex":8,"items":[{"name":"펫스티벌동물병원","tel":"070-4337-5964","addr":"경기도 고양시 일산동구 풍동 660-3번지","indutype":"기타의료기관 - 동물병원","category":"medical"}]},{"lat":"37.667326267","long":"126.7987882","imageIndex":8,"items":[{"name":"풍동약국","tel":"031-906-8111","addr":"경기도 고양시 일산동구 풍동 1279-1번지","indutype":"약국 - 약국","category":"medical"},{"name":"하니소아청소년과의원","tel":"031-908-7850","addr":"경기도 고양시 일산동구 풍동 1279-1번지","indutype":"의원 - 의원","category":"medical"}]}]