[{"lat":"37.320702328","long":"127.09380264","imageIndex":16,"items":[{"name":"(사)푸른꿈청소년상담원","tel":"031-276-0770","addr":"경기도 용인시 수지구 풍덕천동 1091-6번지 3층","indutype":"학원 - 기타 교육기관","category":"study"}]},{"lat":"37.324458943","long":"127.09463079","imageIndex":16,"items":[{"name":"(주)디코기획","tel":"070-4414-6556","addr":"경기도 용인시 수지구 풍덕천동 707번지 한길타운 507호","indutype":"회원제형태 - 학원","category":"study"},{"name":"공운학원","tel":"031-265-9775","addr":"경기도 용인시 수지구 풍덕천동 707번지 한길타운 705호","indutype":"학원 - 보습학원","category":"study"},{"name":"김윤전 영어학원","tel":"070-4130-4380","addr":"경기도 용인시 수지구 풍덕천동 707번지 한길타운 507호","indutype":"학원 - 외국어학원","category":"study"},{"name":"대치트라움학원","tel":"031-265-8010","addr":"경기도 용인시 수지구 풍덕천동 707번지 한길타운 2층 201호","indutype":"학원 - 보습학원","category":"study"},{"name":"더스쿨보습학원","tel":"031-263-1721","addr":"경기도 용인시 수지구 풍덕천동 707번지 한길타운 402호","indutype":"학원 - 보습학원","category":"study"},{"name":"동현수학전문학원","tel":"031-261-4113","addr":"경기도 용인시 수지구 풍덕천동 707번지 한길타운 601호","indutype":"학원 - 보습학원","category":"study"},{"name":"돼감신쌤국어교습소","tel":"070-8820-9315","addr":"경기도 용인시 수지구 풍덕천동 707번지 한길타운 205호","indutype":"회원제형태 - 학원","category":"study"},{"name":"삼성영어탑클래스영어교습소","tel":"031-272-6400","addr":"경기도 용인시 수지구 풍덕천동 707번지 한길타운 205호","indutype":"학원 - 외국어학원","category":"study"},{"name":"새로고침학원","tel":"","addr":"경기도 용인시 수지구 풍덕천동 707번지 한길타운 7층 706호","indutype":"학원 - 보습학원","category":"study"},{"name":"수지대한논리정속독학원","tel":"031-266-8214","addr":"경기도 용인시 수지구 풍덕천동 707번지 한길타운 703호","indutype":"학원 - 기타 교육기관","category":"study"},{"name":"수지태강수학교습소","tel":"070-8621-8253","addr":"경기도 용인시 수지구 풍덕천동 707번지 한길타운 6층 602호","indutype":"학원 - 보습학원","category":"study"},{"name":"수학세상학원","tel":"031-264-2251","addr":"경기도 용인시 수지구 풍덕천동 707번지 한길타운 7층 701호 702호","indutype":"학원 - 보습학원","category":"study"},{"name":"스카이워커영어교습소","tel":"","addr":"경기도 용인시 수지구 풍덕천동 707번지 한길타운 602호","indutype":"학원 - 외국어학원","category":"study"},{"name":"어썸팩토리 독서실","tel":"031-272-9636","addr":"경기도 용인시 수지구 풍덕천동 707번지 604~606호","indutype":"학원 - 독서실","category":"study"},{"name":"연세독서실","tel":"031-263-2365","addr":"경기도 용인시 수지구 풍덕천동 707번지 7층","indutype":"학원 - 독서실","category":"study"},{"name":"윤선생영어숲학원","tel":"031-262-6651","addr":"경기도 용인시 수지구 풍덕천동 707 한길타운205호 404호","indutype":"학원 - 학습지 교육","category":"study"},{"name":"인설학원","tel":"031-264-3777","addr":"경기도 용인시 수지구 풍덕천동 707번지 한길타운 701,702호","indutype":"학원 - 보습학원","category":"study"},{"name":"제이케이정앤감어학원","tel":"070-7715-9500","addr":"경기도 용인시 수지구 풍덕천동 707번지 한길타운 307호","indutype":"회원제형태 - 학원","category":"study"},{"name":"코어스터디(Corestudy)학원","tel":"","addr":"경기도 용인시 수지구 풍덕천동 707번지 한길타운 2층 207호","indutype":"학원 - 보습학원","category":"study"},{"name":"하얀숲 미술 교습소","tel":"070-7786-1420","addr":"경기도 용인시 수지구 풍덕천동 707번지 한길타운 3층 306호","indutype":"학원 - 예·체능계학원","category":"study"}]},{"lat":"37.320899847","long":"127.09471672","imageIndex":16,"items":[{"name":"(주)비법스터디에듀","tel":"","addr":"경기도 용인시 수지구 풍덕천동 1082-13번지 혜명빌딩 4층 402호","indutype":"학원 - 보습학원","category":"study"},{"name":"김정욱국어논술학원","tel":"031-264-0584","addr":"경기도 용인시 수지구 풍덕천동 1082-13번지 혜명빌딩","indutype":"학원 - 보습학원","category":"study"},{"name":"나음(NAUM)에듀케이션학원","tel":"031-262-9241","addr":"경기도 용인시 수지구 풍덕천동 1082-13번지 혜명빌딩 302호","indutype":"학원 - 보습학원","category":"study"},{"name":"더프라임일대일수학학원","tel":"031-4191-4551","addr":"경기도 용인시 수지구 풍덕천동 1082-13번지 혜명빌딩 5층 502호","indutype":"학원 - 보습학원","category":"study"},{"name":"뚱싸이언스학원","tel":"031-309-1717","addr":"경기도 용인시 수지구 풍덕천동 1082-13번지 혜명빌딩 401호","indutype":"학원 - 보습학원","category":"study"},{"name":"수학의샘학원","tel":"031-263-2512","addr":"경기도 용인시 수지구 풍덕천동 1082-13번지 혜명빌딩 602호","indutype":"학원 - 보습학원","category":"study"},{"name":"언어비전국어티칭관학원","tel":"031-263-2058","addr":"경기도 용인시 수지구 풍덕천동 1082-13번지 혜명빌딩 402호","indutype":"학원 - 보습학원","category":"study"},{"name":"최용훈국어학원","tel":"031-265-5155","addr":"경기도 용인시 수지구 풍덕천동 1082-13번지 혜명빌딩 7층","indutype":"학원 - 보습학원","category":"study"},{"name":"킨더레제르수지교육원","tel":"031-262-0011","addr":"경기도 용인시 수지구 풍덕천동 1082-13번지 혜명빌딩 5층 2호","indutype":"회원제형태 - 학원","category":"study"},{"name":"태산학원","tel":"031-266-8333","addr":"경기도 용인시 수지구 풍덕천동 1082-13번지 해명빌딩 403호","indutype":"학원 - 보습학원","category":"study"}]},{"lat":"37.319733507","long":"127.08804779","imageIndex":16,"items":[{"name":"(주)비제이피","tel":"031-265-8859","addr":"경기도 용인시 수지구 풍덕천동 1047-3번지 거묵상가제2동 305호","indutype":"학원 - 독서실","category":"study"},{"name":"삼성영어엠베스트수지정평학원","tel":"031-263-3405","addr":"경기도 용인시 수지구 풍덕천동 1047-3번지 거묵2상가 301,302호","indutype":"학원 - 보습학원","category":"study"},{"name":"키키 점프스쿨","tel":"031-265-8859","addr":"경기도 용인시 수지구 풍덕천동 1047-3번지 거묵상가2 304호","indutype":"학원 - 기타 교육기관","category":"study"},{"name":"함수별곡학원","tel":"031-000-0000","addr":"경기도 용인시 수지구 풍덕천동 1047-3번지 거물상가2 503호,504호","indutype":"학원 - 보습학원","category":"study"}]},{"lat":"37.321007838","long":"127.09488608","imageIndex":16,"items":[{"name":"(주)수지청운학원","tel":"031-262-2625","addr":"경기도 용인시 수지구 풍덕천동 1082-12번지 4층","indutype":"학원 - 보습학원","category":"study"},{"name":"디씨티대세학원","tel":"070-4214-0212","addr":"경기도 용인시 수지구 풍덕천동 1082-12번지 석암빌딩 5층","indutype":"회원제형태 - 학원","category":"study"},{"name":"유에이스어학원","tel":"031-898-0588","addr":"경기도 용인시 수지구 풍덕천동 1082-12번지 2층","indutype":"학원 - 외국어학원","category":"study"}]},{"lat":"37.321340766","long":"127.09546186","imageIndex":16,"items":[{"name":"(주)제이리어학원","tel":"031-526-9777","addr":"경기도 용인시 수지구 풍덕천동 1082-9번지 서초빌딩","indutype":"학원 - 외국어학원","category":"study"},{"name":"FM수학학원","tel":"070-4106-0979","addr":"경기도 용인시 수지구 풍덕천동 1082-9번지 서초빌딩 7층","indutype":"학원 - 보습학원","category":"study"},{"name":"로고스에이수학학원","tel":"031-897-0741","addr":"경기도 용인시 수지구 풍덕천동 1082-9번지 서초빌딩 5층","indutype":"학원 - 보습학원","category":"study"},{"name":"매직수학매직영어학원","tel":"031-272-9555","addr":"경기도 용인시 수지구 풍덕천동 1082-9번지 서초빌딩 7층 702호","indutype":"학원 - 보습학원","category":"study"},{"name":"비전학원","tel":"031-264-2058","addr":"경기도 용인시 수지구 풍덕천동 1082-9번지 서초빌딩 2층 서초프라자","indutype":"학원 - 보습학원","category":"study"},{"name":"수지에프원학원","tel":"031-276-5775","addr":"경기도 용인시 수지구 풍덕천동 1082-9번지 서초빌딩 2층","indutype":"학원 - 보습학원","category":"study"},{"name":"스터디플래닛수지센타독서실","tel":"031-548-2809","addr":"경기도 용인시 수지구 풍덕천동 1082-9번지 서초빌딩 4층","indutype":"학원 - 독서실","category":"study"},{"name":"잉글리쉬래더학원","tel":"031-263-1733","addr":"경기도 용인시 수지구 풍덕천동 1082-9번지 서초빌딩 3층","indutype":"학원 - 외국어학원","category":"study"},{"name":"주식회사 제이리어학원","tel":"031-526-9777","addr":"경기도 용인시 수지구 풍덕천동 1082-9번지 서초빌딩","indutype":"학원 - 외국어학원","category":"study"}]},{"lat":"37.320041222","long":"127.09807764","imageIndex":16,"items":[{"name":"(주)진산서당","tel":"031-263-1331","addr":"경기도 용인시 수지구 풍덕천동 193-8번지 훼미리빌딩 311호","indutype":"회원제형태 - 학원","category":"study"},{"name":"(주)진산서당","tel":"031-263-1331","addr":"경기도 용인시 수지구 풍덕천동 193-8번지 훼미리빌딩 311호","indutype":"회원제형태 - 학원","category":"study"},{"name":"단소야 국악학원","tel":"031-304-3026","addr":"경기도 용인시 수지구 풍덕천동 193-8 훼미리빌딩512~514호","indutype":"회원제형태 - 학원","category":"study"},{"name":"수지아트트리미술교습소","tel":"031-264-1598","addr":"경기도 용인시 수지구 풍덕천동 193-8번지 훼미리빌딩 303호","indutype":"학원 - 예·체능계학원","category":"study"},{"name":"예림피아노","tel":"031-272-1075","addr":"경기도 용인시 수지구 풍덕천동 193-8번지 훼미리빌딩 401~403호","indutype":"학원 - 예·체능계학원","category":"study"},{"name":"오름러닝코칭센터학원","tel":"070-5143-0865","addr":"경기도 용인시 수지구 풍덕천동 193-8번지 훼미리빌딩 411호","indutype":"학원 - 보습학원","category":"study"},{"name":"용인대수지태권도","tel":"031-263-5933","addr":"경기도 용인시 수지구 풍덕천동 193-8번지 훼미리프라자 502호","indutype":"학원 - 예·체능계학원","category":"study"},{"name":"이솔바이올린첼로음악학원","tel":"070-8635-9948","addr":"경기도 용인시 수지구 풍덕천동 193-8번지 훼미리빌딩 510호","indutype":"학원 - 예·체능계학원","category":"study"},{"name":"작품세계미술학원","tel":"031-272-1023","addr":"경기도 용인시 수지구 풍덕천동 193-8훼미리빌딩406-2,407,408,409호","indutype":"학원 - 예·체능계학원","category":"study"},{"name":"청보리국어교습소","tel":"031-272-1933","addr":"경기도 용인시 수지구 풍덕천동 193-8 훼미리빌딩301","indutype":"회원제형태 - 학원","category":"study"},{"name":"템주식회사(Tem Co, Ltd.)","tel":"031-261-6966","addr":"경기도 용인시 수지구 풍덕천동 193-8번지 훼미리빌딩 410호","indutype":"회원제형태 - 학원","category":"study"}]},{"lat":"37.32472903","long":"127.09491318","imageIndex":16,"items":[{"name":"5품사창작영어","tel":"070-4670-0555","addr":"경기도 용인시 수지구 풍덕천동 706번지 3층 303호","indutype":"학원 - 보습학원","category":"study"}]},{"lat":"37.323925973","long":"127.0963789","imageIndex":16,"items":[{"name":"J중국어학원","tel":"031-276-5978","addr":"경기도 용인시 수지구 풍덕천동 713-3번지 수지파크빌딩 501호","indutype":"학원 - 외국어학원","category":"study"},{"name":"그린리버 요양보호사 교육원","tel":"031-896-9898","addr":"경기도 용인시 수지구 풍덕천동 713-3번지","indutype":"회원제형태 - 학원","category":"study"},{"name":"뉴욕실용음악학원","tel":"031-261-8866","addr":"경기도 용인시 수지구 풍덕천동 713-3번지 수지파크빌딩 6층","indutype":"학원 - 예·체능계학원","category":"study"}]},{"lat":"37.321055421","long":"127.09156925","imageIndex":16,"items":[{"name":"M.at.H","tel":"070-4158-3186","addr":"경기도 용인시 수지구 풍덕천동 1065번지 용인수지신정마을1단지","indutype":"회원제형태 - 학원","category":"study"}]},{"lat":"37.322035263","long":"127.09454887","imageIndex":16,"items":[{"name":"OLA수학전문학원","tel":"031-272-0129","addr":"경기도 용인시 수지구 풍덕천동 1080-4번지 하나프라자 503호","indutype":"학원 - 보습학원","category":"study"},{"name":"김시연과학학원","tel":"031-272-8886","addr":"경기도 용인시 수지구 풍덕천동 1080-4번지 하나프라자 5층 503호","indutype":"회원제형태 - 학원","category":"study"},{"name":"데카르트수학교습소","tel":"034-272-1595","addr":"경기도 용인시 수지구 풍덕천동 1080-4번지 하나프라자 601호","indutype":"학원 - 보습학원","category":"study"},{"name":"수지그린섬미술학원","tel":"031-261-8828","addr":"경기도 용인시 수지구 풍덕천동 1080-4번지","indutype":"학원 - 예·체능계학원","category":"study"},{"name":"언어비전학원","tel":"031-6499-3726","addr":"경기도 용인시 수지구 풍덕천동 1080-4 하나프라자 502호","indutype":"학원 - 보습학원","category":"study"},{"name":"올탑영어학원","tel":"031-262-0182","addr":"경기도 용인시 수지구 풍덕천동 1080-4번지 하나프라자 5층 502호","indutype":"학원 - 보습학원","category":"study"},{"name":"풍덕천주니어비미술학원","tel":"031-366-5405","addr":"경기도 용인시 수지구 풍덕천동 1080-4번지 하나프라자 201호","indutype":"학원 - 예·체능계학원","category":"study"}]},{"lat":"37.321566189","long":"127.09524778","imageIndex":16,"items":[{"name":"TS학원","tel":"031-266-6480","addr":"경기도 용인시 수지구 풍덕천동 1082-6번지 정석빌딩 602호","indutype":"학원 - 보습학원","category":"study"},{"name":"더에이치학원","tel":"031-896-8577","addr":"경기도 용인시 수지구 풍덕천동 1082-6번지 정석빌딩 501호","indutype":"학원 - 보습학원","category":"study"},{"name":"수시종합플랜비(Plan-B)논술학원","tel":"031-261-0359","addr":"경기도 용인시 수지구 풍덕천동 1082-6번지 정석빌딩 801호","indutype":"학원 - 보습학원","category":"study"},{"name":"스터디팩토리학원","tel":"031-264-0826","addr":"경기도 용인시 수지구 풍덕천동 1082-6번지 정석빌딩 801호","indutype":"학원 - 보습학원","category":"study"},{"name":"씨엔에이논술학원","tel":"031-266-3666","addr":"경기도 용인시 수지구 풍덕천동 1082-6번지 정석빌딩 601호","indutype":"학원 - 보습학원","category":"study"},{"name":"에듀코치개별지도 수지학원","tel":"070-5022-4846","addr":"경기도 용인시 수지구 풍덕천동 1082-6번지 정석빌딩 301호","indutype":"학원 - 보습학원","category":"study"},{"name":"조동기국어논술전문학원","tel":"031-896-3776","addr":"경기도 용인시 수지구 풍덕천동 1082-6번지 정석빌딩 802호","indutype":"학원 - 보습학원","category":"study"}]},{"lat":"37.319991708","long":"127.0922449","imageIndex":16,"items":[{"name":"a1study","tel":"","addr":"경기도 용인시 수지구 풍덕천동 1104번지 용인수지신정마을9단지","indutype":"학원 - 기타 교육기관","category":"study"}]},{"lat":"37.326953637","long":"127.09607802","imageIndex":16,"items":[{"name":"가온김경희수학전문학원","tel":"031-896-2864","addr":"경기도 용인시 수지구 풍덕천동 29-9번지 두레빌딩 302호","indutype":"회원제형태 - 학원","category":"study"},{"name":"레드우드국제교육학원","tel":"031-262-9997","addr":"경기도 용인시 수지구 풍덕천동 29-9번지 303호 304호","indutype":"회원제형태 - 학원","category":"study"}]},{"lat":"37.332070723","long":"127.09696446","imageIndex":16,"items":[{"name":"감동수학","tel":"","addr":"경기도 용인시 수지구 풍덕천동 664번지 동아.삼익.풍림아파트 103동 104호","indutype":"학원 - 기타 교육기관","category":"study"}]},{"lat":"37.324402896","long":"127.09715798","imageIndex":16,"items":[{"name":"경기제일제과제빵학원","tel":"031-265-0456","addr":"경기도 용인시 수지구 풍덕천동 714-3 세원빌딩3층 301호~302호","indutype":"회원제형태 - 학원","category":"study"}]},{"lat":"37.330784633","long":"127.09393891","imageIndex":16,"items":[{"name":"경희3태권도장","tel":"031-261-4497","addr":"경기도 용인시 수지구 풍덕천동 663-1번지 수지4차삼성래미안 관리사무소 3층","indutype":"학원 - 예·체능계학원","category":"study"},{"name":"김충원키드빌리지유치원","tel":"031-264-1221","addr":"경기도 용인시 수지구 풍덕천동 663-1","indutype":"학원 - 유치원","category":"study"},{"name":"벧엘피아노교습소","tel":"031-261-5313","addr":"경기도 용인시 수지구 풍덕천동 663-1번지 수지4차삼성래미안 상가 203호","indutype":"학원 - 예·체능계학원","category":"study"}]},{"lat":"37.324181585","long":"127.09206934","imageIndex":16,"items":[{"name":"공감 수학","tel":"","addr":"경기도 용인시 수지구 풍덕천동 698-2번지 한성아파트","indutype":"학원 - 기타 교육기관","category":"study"}]},{"lat":"37.319147698","long":"127.0882502","imageIndex":16,"items":[{"name":"공터영어카이스트초등수학학원","tel":"031-263-2200","addr":"경기도 용인시 수지구 풍덕천동 1051-1번지 성운코아 401호","indutype":"학원 - 보습학원","category":"study"},{"name":"수능플러스학원","tel":"031-896-2402","addr":"경기도 용인시 수지구 풍덕천동 1051-1번지 성운코아 501호","indutype":"학원 - 보습학원","category":"study"},{"name":"위대한탄생영어학원","tel":"070-4422-5577","addr":"경기도 용인시 수지구 풍덕천동 1051-1번지 성운코아 502호","indutype":"학원 - 보습학원","category":"study"}]},{"lat":"37.321647929","long":"127.09441301","imageIndex":16,"items":[{"name":"과수원보습학원","tel":"031-266-8767","addr":"경기도 용인시 수지구 풍덕천동 1080-16 화강빌딩 202-2","indutype":"회원제형태 - 학원","category":"study"},{"name":"대훈학원","tel":"031-266-5005","addr":"경기도 용인시 수지구 풍덕천동 1080-16번지 화강빌딩 3층","indutype":"학원 - 보습학원","category":"study"},{"name":"민성원연구소학원","tel":"031-261-0884","addr":"경기도 용인시 수지구 풍덕천동 1080-16번지 화강빌딩 501호","indutype":"학원 - 보습학원","category":"study"},{"name":"지플러스국어보습학원","tel":"031-264-1930","addr":"경기도 용인시 수지구 풍덕천동 1080-16번지 화강빌딩 402호","indutype":"학원 - 보습학원","category":"study"},{"name":"한스수학학원","tel":"031-266-1935","addr":"경기도 용인시 수지구 풍덕천동 1080-16번지 화강빌딩 403호","indutype":"회원제형태 - 학원","category":"study"}]},{"lat":"37.322097816","long":"127.09521458","imageIndex":16,"items":[{"name":"과학경시뉴튼학원","tel":"031-381-0017","addr":"경기도 용인시 수지구 풍덕천동 1080-11번지 비즈마루빌딩 401호","indutype":"학원 - 보습학원","category":"study"},{"name":"노상진수학전문학원","tel":"031-262-6615","addr":"경기도 용인시 수지구 풍덕천동 1080-11번지 비즈마루빌딩 4101호","indutype":"회원제형태 - 학원","category":"study"},{"name":"수지청담홀딩스주식회사","tel":"031-262-6110","addr":"경기도 용인시 수지구 풍덕천동 1080-11번지 비즈마루빌딩 501호","indutype":"회원제형태 - 학원","category":"study"},{"name":"이주후수학학원","tel":"070-7778-6227","addr":"경기도 용인시 수지구 풍덕천동 1080-11번지 비즈마루빌딩 4층","indutype":"학원 - 보습학원","category":"study"},{"name":"주식회사 지트에듀텍엔드네트워크","tel":"031-263-8003","addr":"경기도 용인시 수지구 풍덕천동 1080-11번지 비즈마루빌딩 801호","indutype":"회원제형태 - 학원","category":"study"},{"name":"지트에듀케이션클라비스학원","tel":"031-276-8003","addr":"경기도 용인시 수지구 풍덕천동 1080-11번지 비즈마루빌딩 301호","indutype":"학원 - 보습학원","category":"study"},{"name":"채재준국어동주학원","tel":"031-304-6001","addr":"경기도 용인시 수지구 풍덕천동 1080-11번지 비즈마루빌딩 402호","indutype":"학원 - 보습학원","category":"study"}]},{"lat":"37.318209205","long":"127.09021212","imageIndex":16,"items":[{"name":"교학사풍덕천영어교습소","tel":"031-263-0515","addr":"경기도 용인시 수지구 풍덕천동 1112번지 신정마을","indutype":"회원제형태 - 학원","category":"study"},{"name":"오름수학교습소","tel":"031-265-5530","addr":"경기도 용인시 수지구 풍덕천동 1112번지 신정마을 302호","indutype":"학원 - 보습학원","category":"study"},{"name":"용인대석사한울태권도","tel":"031-266-7073","addr":"경기도 용인시 수지구 풍덕천동 1112번지 현대성우 상가동 303호~305호","indutype":"학원 - 예·체능계학원","category":"study"},{"name":"제이에스기타교습소","tel":"","addr":"경기도 용인시 수지구 풍덕천동 1112번지 신정마을 상가동 205호","indutype":"학원 - 예·체능계학원","category":"study"}]},{"lat":"37.326867807","long":"127.10191112","imageIndex":16,"items":[{"name":"국민영어와 나누는 사람들","tel":"031-8013-3489","addr":"경기도 용인시 수지구 풍덕천동 742-2번지","indutype":"회원제형태 - 학원","category":"study"}]},{"lat":"37.324152421","long":"127.09485606","imageIndex":16,"items":[{"name":"국신국어논술학원","tel":"070-4898-0941","addr":"경기도 용인시 수지구 풍덕천동 707-2번지 성보빌딩 801호","indutype":"학원 - 보습학원","category":"study"}]},{"lat":"37.322260211","long":"127.09494401","imageIndex":16,"items":[{"name":"굿타임미술교습소","tel":"031-261-7562","addr":"경기도 용인시 수지구 풍덕천동 1080-7번지 명일빌딩 501호","indutype":"학원 - 예·체능계학원","category":"study"},{"name":"하우스터디 용인수지센터 독서실","tel":"031-272-9086","addr":"경기도 용인시 수지구 풍덕천동 1080-7번지 영일빌딩 601,602호","indutype":"학원 - 독서실","category":"study"}]},{"lat":"37.324233126","long":"127.09535259","imageIndex":16,"items":[{"name":"그린아이티","tel":"031-263-2545","addr":"경기도 용인시 수지구 풍덕천동 708-4번지 우헌빌딩 507호","indutype":"회원제형태 - 학원","category":"study"}]},{"lat":"37.315401807","long":"127.08491804","imageIndex":16,"items":[{"name":"그림뜰미술교습소","tel":"031-276-9929","addr":"경기도 용인시 수지구 풍덕천동 1209번지 e편한세상수지 상가 125동 102-1호","indutype":"학원 - 예·체능계학원","category":"study"},{"name":"수학미소","tel":"","addr":"경기도 용인시 수지구 풍덕천동 1209번지 e편한세상 수지","indutype":"학원 - 기타 교육기관","category":"study"},{"name":"슈퍼키즈태권도","tel":"031-263-5544","addr":"경기도 용인시 수지구 풍덕천동 1209번지 e편한세상 수지","indutype":"학원 - 예·체능계학원","category":"study"},{"name":"이쇼팽음악학원","tel":"031-272-4988","addr":"경기도 용인시 수지구 풍덕천동 1209번지 e편한세상 수지","indutype":"학원 - 예·체능계학원","category":"study"},{"name":"타타","tel":"","addr":"경기도 용인시 수지구 풍덕천동 1209번지 e편한세상 수지","indutype":"학원 - 기타 교육기관","category":"study"},{"name":"한우리 독서논술","tel":"","addr":"경기도 용인시 수지구 풍덕천동 1209번지 e편한세상 수지","indutype":"학원 - 기타 교육기관","category":"study"},{"name":"해법셀파수학","tel":"031-896-5584","addr":"경기도 용인시 수지구 풍덕천동 1209번지 e편한세상 수지","indutype":"학원 - 기타 교육기관","category":"study"}]},{"lat":"37.328408334","long":"127.09077679","imageIndex":16,"items":[{"name":"김정임 개인과외교습소","tel":"031-304-2425","addr":"경기도 용인시 수지구 풍덕천동 690번지 동문아파트","indutype":"회원제형태 - 학원","category":"study"}]},{"lat":"37.323736715","long":"127.09643508","imageIndex":16,"items":[{"name":"김지형국어교습소","tel":"031-272-1819","addr":"경기도 용인시 수지구 풍덕천동 713-6번지 요진타워 502호","indutype":"회원제형태 - 학원","category":"study"},{"name":"라마시아커뮤니티학원","tel":"031-264-6550","addr":"경기도 용인시 수지구 풍덕천동 713-6번지 요진타워 601,602,603호","indutype":"학원 - 보습학원","category":"study"},{"name":"시오스학원","tel":"031-264-5551","addr":"경기도 용인시 수지구 풍덕천동 713-6번지 요진타워 504호","indutype":"학원 - 보습학원","category":"study"},{"name":"잇올스파르타 독학재수학원","tel":"031-546-0561","addr":"경기도 용인시 수지구 풍덕천동 713-6번지 6층 604호일부, 605호","indutype":"학원 - 보습학원","category":"study"},{"name":"잇올스파르타관리형프리미엄독서실","tel":"031-546-0561","addr":"경기도 용인시 수지구 풍덕천동 713-6번지 6층 601호,602호,603호,604호일부 (풍덕천공)","indutype":"학원 - 독서실","category":"study"}]},{"lat":"37.32342584","long":"127.10199686","imageIndex":16,"items":[{"name":"남서울요양보호사교육원","tel":"031-266-8193","addr":"경기도 용인시 수지구 풍덕천동 85-35번지 4층","indutype":"회원제형태 - 학원","category":"study"},{"name":"원더뮤직실용음악학원","tel":"031-264-4879","addr":"경기도 용인시 수지구 풍덕천동 85-35번지 성지교회 3층 4호","indutype":"회원제형태 - 학원","category":"study"}]},{"lat":"37.323286835","long":"127.09563348","imageIndex":16,"items":[{"name":"누보컨투어아카데미 (수지점)","tel":"","addr":"경기도 용인시 수지구 풍덕천동 712-3번지 수지프라자 502호","indutype":"학원 - 기능학원","category":"study"},{"name":"에이블대입학원","tel":"031-272-2309","addr":"경기도 용인시 수지구 풍덕천동 712-3번지 7층","indutype":"학원 - 보습학원","category":"study"},{"name":"파니키즈 언어발달연구소","tel":"031-548-1133","addr":"경기도 용인시 수지구 풍덕천동 712-3번지 수지프라자 4층 402호","indutype":"학원 - 기타 교육기관","category":"study"}]},{"lat":"37.321927271","long":"127.0943795","imageIndex":16,"items":[{"name":"뉴-페이스(NewFACE) 수학학원","tel":"031-266-4800","addr":"경기도 용인시 수지구 풍덕천동 1080-3번지 중수빌딩 5층 일부","indutype":"학원 - 보습학원","category":"study"},{"name":"영원한미소 미술학원","tel":"031-276-0014","addr":"경기도 용인시 수지구 풍덕천동 1080-3번지 중수빌딩 3층","indutype":"학원 - 예·체능계학원","category":"study"}]},{"lat":"37.314285024","long":"127.08421741","imageIndex":16,"items":[{"name":"뉴쇼팽음악학원","tel":"","addr":"경기도 용인시 수지구 풍덕천동 576-16번지 수정빌딩 5층 일부","indutype":"학원 - 예·체능계학원","category":"study"},{"name":"발라레무용학원","tel":"031-717-1013","addr":"경기도 용인시 수지구 풍덕천동 576-16번지 수정빌딩 5층 501호 일부","indutype":"학원 - 예·체능계학원","category":"study"},{"name":"예뜰아트 미술학원","tel":"","addr":"경기도 용인시 수지구 풍덕천동 576-16번지 수정빌딩 5층","indutype":"학원 - 예·체능계학원","category":"study"},{"name":"와이비엠(YBM)아이비스카이학원","tel":"031-261-0509","addr":"경기도 용인시 수지구 풍덕천동 576-16번지 402호","indutype":"학원 - 보습학원","category":"study"}]},{"lat":"37.321846302","long":"127.09422146","imageIndex":16,"items":[{"name":"닥터정이클래스학원","tel":"031-212-0539","addr":"경기도 용인시 수지구 풍덕천동 1080-2번지 6층 603호","indutype":"학원 - 보습학원","category":"study"},{"name":"로고스에듀학원","tel":"031-265-8341","addr":"경기도 용인시 수지구 풍덕천동 1080-2번지 준오빌딩 6층","indutype":"학원 - 기타 교육기관","category":"study"},{"name":"아카데미라운지 수지독서실","tel":"031-893-7695","addr":"경기도 용인시 수지구 풍덕천동 1080-2번지 준오빌딩 6층 603호","indutype":"학원 - 독서실","category":"study"},{"name":"애니팝미술학원","tel":"031-261-8803","addr":"경기도 용인시 수지구 풍덕천동 1080-2번지 301호","indutype":"학원 - 예·체능계학원","category":"study"},{"name":"엘앤케이학원","tel":"031-266-0032","addr":"경기도 용인시 수지구 풍덕천동 1080-2번지 503호","indutype":"학원 - 보습학원","category":"study"},{"name":"지평학원","tel":"031-272-3525","addr":"경기도 용인시 수지구 풍덕천동 1080-2번지 준오빌딩 2층 203호","indutype":"학원 - 보습학원","category":"study"},{"name":"케이클라스어학원","tel":"031-762-0264","addr":"경기도 용인시 수지구 풍덕천동 1080-2번지 준오빌딩 6층 602호","indutype":"회원제형태 - 학원","category":"study"},{"name":"휴앤아이간호학원","tel":"031-276-7670","addr":"경기도 용인시 수지구 풍덕천동 1080-2번지 2층","indutype":"회원제형태 - 학원","category":"study"}]},{"lat":"37.315679313","long":"127.08749044","imageIndex":16,"items":[{"name":"대박학원","tel":"031-266-4151","addr":"경기도 용인시 수지구 풍덕천동 239-3번지 중앙빌딩 2층","indutype":"학원 - 보습학원","category":"study"},{"name":"수지꿈나무바둑교습소","tel":"","addr":"경기도 용인시 수지구 풍덕천동 239-3번지 중앙빌딩 5층 일부","indutype":"학원 - 기타 교육기관","category":"study"},{"name":"스카이(SKY)어학원","tel":"031-263-1180","addr":"경기도 용인시 수지구 풍덕천동 239-3번지 중앙빌딩 4층 일부","indutype":"학원 - 외국어학원","category":"study"},{"name":"아이엘씨어학원","tel":"031-261-6860","addr":"경기도 용인시 수지구 풍덕천동 239-3번지 중앙빌딩 5층","indutype":"회원제형태 - 학원","category":"study"},{"name":"오즈24스터디센터 독서실","tel":"031-266-2261","addr":"경기도 용인시 수지구 풍덕천동 239-3번지 중앙빌딩 5층 502호","indutype":"학원 - 독서실","category":"study"},{"name":"이지셈이정희주산암산학원","tel":"031-255-2725","addr":"경기도 용인시 수지구 풍덕천동 239-3번지 중앙빌딩 501호","indutype":"학원 - 기타 교육기관","category":"study"},{"name":"하이스트에듀 주식회사","tel":"031-266-3000","addr":"경기도 용인시 수지구 풍덕천동 239-3번지 중앙빌딩 3층","indutype":"학원 - 보습학원","category":"study"}]},{"lat":"37.321341241","long":"127.09485264","imageIndex":16,"items":[{"name":"대치미래인학원","tel":"031-896-3701","addr":"경기도 용인시 수지구 풍덕천동 1082-3번지 202호","indutype":"회원제형태 - 학원","category":"study"}]},{"lat":"37.319680995","long":"127.09785155","imageIndex":16,"items":[{"name":"더퍼스트클래스 중고등영어학원","tel":"031-204-7982","addr":"경기도 용인시 수지구 풍덕천동 193-12번지 에스바디 상가동 501호","indutype":"학원 - 외국어학원","category":"study"},{"name":"스마트온(SMARTON)어학원","tel":"031-264-0077","addr":"경기도 용인시 수지구 풍덕천동 193-12번지 에스바디 상가동 6층 601호","indutype":"회원제형태 - 학원","category":"study"}]},{"lat":"37.319896047","long":"127.08755158","imageIndex":16,"items":[{"name":"더피아노음악교습소","tel":"031-889-7337","addr":"경기도 용인시 수지구 풍덕천동 1047-1번지 거묵상가1 403-1호","indutype":"학원 - 예·체능계학원","category":"study"},{"name":"스너그 독서실","tel":"031-896-0982","addr":"경기도 용인시 수지구 풍덕천동 1047-1번지 거묵상가1 201호일부","indutype":"학원 - 독서실","category":"study"},{"name":"용인대박사백호태권도","tel":"031-265-2805","addr":"경기도 용인시 수지구 풍덕천동 1047-1번지 거묵상가 5층","indutype":"학원 - 예·체능계학원","category":"study"},{"name":"탑클래스학원","tel":"031-266-0231","addr":"경기도 용인시 수지구 풍덕천동 1047-1번지 거묵 상가 301","indutype":"학원 - 보습학원","category":"study"},{"name":"풍덕매스피아학원","tel":"031-263-9166","addr":"경기도 용인시 수지구 풍덕천동 1047-1거묵상가1,202","indutype":"학원 - 보습학원","category":"study"},{"name":"하이수학교습소","tel":"031-262-8621","addr":"경기도 용인시 수지구 풍덕천동 1047-1번지 4층","indutype":"학원 - 보습학원","category":"study"},{"name":"해법 풍덕천 중국어 교습소","tel":"070-8899-9559","addr":"경기도 용인시 수지구 풍덕천동 1047-1번지 302-1호 거묵상가","indutype":"학원 - 외국어학원","category":"study"}]},{"lat":"37.323372214","long":"127.08999245","imageIndex":16,"items":[{"name":"데이스프링피아노교습소","tel":"031-276-9992","addr":"경기도 용인시 수지구 풍덕천동 1014 신정마을2단지상가 104호~105호","indutype":"학원 - 예·체능계학원","category":"study"}]},{"lat":"37.322430956","long":"127.09551961","imageIndex":16,"items":[{"name":"디에이치수학학원","tel":"","addr":"경기도 용인시 수지구 풍덕천동 1080-9번지 하나로프라자 603-2호","indutype":"학원 - 보습학원","category":"study"},{"name":"루비콘학원","tel":"031-262-0712","addr":"경기도 용인시 수지구 풍덕천동 1080-9번지 하나로프라자 605-1호","indutype":"학원 - 보습학원","category":"study"},{"name":"몬스터수학학원","tel":"070-8181-8209","addr":"경기도 용인시 수지구 풍덕천동 1080-9번지 하나로프라자 603-2호","indutype":"학원 - 보습학원","category":"study"},{"name":"수지디아인재교육학원","tel":"031-276-8214","addr":"경기도 용인시 수지구 풍덕천동 1080-9번지 하나로프라자 502-1호","indutype":"학원 - 보습학원","category":"study"},{"name":"수지씨앤씨미술학원","tel":"031-265-6581","addr":"경기도 용인시 수지구 풍덕천동 1080-9번지 하나로프라자 603호","indutype":"학원 - 예·체능계학원","category":"study"},{"name":"수지창조의아침미술학원","tel":"031-261-6585","addr":"경기도 용인시 수지구 풍덕천동 1080-9번지 하나로프라자 5층 505호","indutype":"학원 - 예·체능계학원","category":"study"},{"name":"인스타미술학원","tel":"031-896-7771","addr":"경기도 용인시 수지구 풍덕천동 1080-9번지 하나로프라자 501호","indutype":"학원 - 예·체능계학원","category":"study"},{"name":"조이매스","tel":"031-261-6722","addr":"경기도 용인시 수지구 풍덕천동 1080-9하나로프라자503-2호","indutype":"학원 - 기타 교육기관","category":"study"},{"name":"키즈 스피치 예시바","tel":"070-4417-2228","addr":"경기도 용인시 수지구 풍덕천동 1080-9번지 하나로프라자 2호 503","indutype":"회원제형태 - 학원","category":"study"},{"name":"키즈스피치예소스","tel":"070-4417-2228","addr":"경기도 용인시 수지구 풍덕천동 1080-9번지 하나로프라자 5층 503-2호","indutype":"학원 - 기타 교육기관","category":"study"},{"name":"텔레오수학입시학원 (수학)","tel":"031-276-9911","addr":"경기도 용인시 수지구 풍덕천동 1080-9번지 하나로프라자 상가동 5층 505-1호","indutype":"학원 - 보습학원","category":"study"},{"name":"텔레오수학입시학원(학생부)","tel":"031-276-9911","addr":"경기도 용인시 수지구 풍덕천동 1080-9번지 하나로프라자 상가동 5층 505-1호","indutype":"학원 - 보습학원","category":"study"},{"name":"하늘바다컴퓨터학원","tel":"031-261-7785","addr":"경기도 용인시 수지구 풍덕천동 1080-9번지 하나로프라자 503호","indutype":"회원제형태 - 학원","category":"study"}]},{"lat":"37.325008002","long":"127.09535353","imageIndex":16,"items":[{"name":"라온독서실","tel":"031-261-8865","addr":"경기도 용인시 수지구 풍덕천동 706-3번지 7층","indutype":"학원 - 독서실","category":"study"},{"name":"엠이케이학원","tel":"031-263-1317","addr":"경기도 용인시 수지구 풍덕천동 706-3번지 강남빌딩 6층","indutype":"학원 - 보습학원","category":"study"},{"name":"엠이케이학원","tel":"031-263-1317","addr":"경기도 용인시 수지구 풍덕천동 706-3번지 강남빌딩 6층","indutype":"학원 - 보습학원","category":"study"},{"name":"엠이케이학원","tel":"031-263-1317","addr":"경기도 용인시 수지구 풍덕천동 706-3번지 강남빌딩 6층","indutype":"학원 - 보습학원","category":"study"},{"name":"엠이케이학원","tel":"031-263-1317","addr":"경기도 용인시 수지구 풍덕천동 706-3번지 강남빌딩 6층","indutype":"학원 - 보습학원","category":"study"},{"name":"용인대태권도","tel":"031-262-8000","addr":"경기도 용인시 수지구 풍덕천동 706-3번지 강남빌딩 401호","indutype":"학원 - 예·체능계학원","category":"study"},{"name":"이승향음악학원","tel":"031-264-1060","addr":"경기도 용인시 수지구 풍덕천동 706-3번지 강남빌딩 501호","indutype":"학원 - 예·체능계학원","category":"study"}]},{"lat":"37.331701851","long":"127.0962757","imageIndex":16,"items":[{"name":"라임피아노 교습소","tel":"053-266-6572","addr":"경기도 용인시 수지구 풍덕천동 664번지 동아.삼익.풍림아파트 상가동 2층 202호","indutype":"학원 - 예·체능계학원","category":"study"},{"name":"아트뮤미술교습소","tel":"","addr":"경기도 용인시 수지구 풍덕천동 664번지 삼익 상가 210호","indutype":"학원 - 예·체능계학원","category":"study"},{"name":"용인대KAT태권도","tel":"031-264-0384","addr":"경기도 용인시 수지구 풍덕천동 664삼익상가211~3호","indutype":"학원 - 예·체능계학원","category":"study"},{"name":"즐거운바둑교습소","tel":"031-272-3578","addr":"경기도 용인시 수지구 풍덕천동 664 삼익상가동3층305","indutype":"학원 - 기타 교육기관","category":"study"}]},{"lat":"37.324592611","long":"127.0965264","imageIndex":16,"items":[{"name":"레드고시하우스","tel":"031-265-6507","addr":"경기도 용인시 수지구 풍덕천동 710-1번지 고덕빌딩 601호","indutype":"학원 - 독서실","category":"study"}]},{"lat":"37.32218013","long":"127.09363519","imageIndex":16,"items":[{"name":"레슨뮤직홈","tel":"031-264-7333","addr":"경기도 용인시 수지구 풍덕천동 1070-7번지 301호","indutype":"학원 - 예·체능계학원","category":"study"}]},{"lat":"37.319589579","long":"127.08772046","imageIndex":16,"items":[{"name":"루미스영어학원","tel":"031-261-0880","addr":"경기도 용인시 수지구 풍덕천동 1049-1번지 거묵상가3 201호","indutype":"학원 - 보습학원","category":"study"},{"name":"샘독서실","tel":"031-272-4556","addr":"경기도 용인시 수지구 풍덕천동 1049-1번지 3층","indutype":"학원 - 독서실","category":"study"},{"name":"서일영수전문학원","tel":"031-272-3536","addr":"경기도 용인시 수지구 풍덕천동 1049-1번지 거묵상가3 202호","indutype":"학원 - 기타 교육기관","category":"study"}]},{"lat":"37.321729299","long":"127.09405208","imageIndex":16,"items":[{"name":"리딩뱅크독서실","tel":"031-272-1318","addr":"경기도 용인시 수지구 풍덕천동 1080-1번지 수석빌딩 301호","indutype":"학원 - 독서실","category":"study"},{"name":"바우미술학원","tel":"031-266-5436","addr":"경기도 용인시 수지구 풍덕천동 1080-1번지 수석프라자 501호","indutype":"학원 - 예·체능계학원","category":"study"},{"name":"바우하우스미술학원","tel":"031-266-5411","addr":"경기도 용인시 수지구 풍덕천동 1080-1번지 수석빌딩 601호","indutype":"학원 - 예·체능계학원","category":"study"},{"name":"수지에듀플렉스학원","tel":"031-263-1520","addr":"경기도 용인시 수지구 풍덕천동 1080-1번지 수석빌딩 901호","indutype":"학원 - 보습학원","category":"study"},{"name":"아크로학원","tel":"031-264-0979","addr":"경기도 용인시 수지구 풍덕천동 1080-1번지 수석프라자 9층 901호","indutype":"학원 - 보습학원","category":"study"},{"name":"안세웅어학원","tel":"031-897-0579","addr":"경기도 용인시 수지구 풍덕천동 1080-1번지","indutype":"회원제형태 - 학원","category":"study"},{"name":"주식회사 세이외국어학원","tel":"031-890-0595","addr":"경기도 용인시 수지구 풍덕천동 1080-1번지 수석빌딩 701호","indutype":"학원 - 외국어학원","category":"study"},{"name":"주식회사 세이외국어학원","tel":"031-890-0595","addr":"경기도 용인시 수지구 풍덕천동 1080-1번지 수석빌딩 701호","indutype":"학원 - 외국어학원","category":"study"},{"name":"페이지원수지독서실","tel":"031-263-1011","addr":"경기도 용인시 수지구 풍덕천동 1080-1번지 수석빌딩 8층","indutype":"학원 - 독서실","category":"study"}]},{"lat":"37.321898982","long":"127.0959928","imageIndex":16,"items":[{"name":"리딩비영어독서학원","tel":"02-421-8500","addr":"경기도 용인시 수지구 풍덕천동 1080-20번지 중수프라자 204호","indutype":"학원 - 외국어학원","category":"study"},{"name":"마그마영어학원","tel":"031-893-0621","addr":"경기도 용인시 수지구 풍덕천동 1080-20번지 중수프라자 305호","indutype":"학원 - 보습학원","category":"study"},{"name":"마일스톤학원","tel":"031-262-7976","addr":"경기도 용인시 수지구 풍덕천동 1080-20번지 중수프라자 304호","indutype":"학원 - 보습학원","category":"study"},{"name":"아담리즈수학수지센터학원","tel":"031-265-9038","addr":"경기도 용인시 수지구 풍덕천동 1080-20번지 중수프라자 205호","indutype":"학원 - 보습학원","category":"study"},{"name":"제카영어학원","tel":"031-264-3888","addr":"경기도 용인시 수지구 풍덕천동 1080-20번지 중수프라자 504호 일부","indutype":"학원 - 외국어학원","category":"study"},{"name":"주식회사 가온미르","tel":"031-263-3362","addr":"경기도 용인시 수지구 풍덕천동 1080-20번지 중수프라자 203호","indutype":"학원 - 예·체능계학원","category":"study"}]},{"lat":"37.329013867","long":"127.09993939","imageIndex":16,"items":[{"name":"리아음악교습소","tel":"031-889-6497","addr":"경기도 용인시 수지구 풍덕천동 1198번지 래미안이스트파크 204호","indutype":"학원 - 예·체능계학원","category":"study"},{"name":"아트큐미술교습소","tel":"031-715-0862","addr":"경기도 용인시 수지구 풍덕천동 1198번지 래미안이스트파크 상가동 203호","indutype":"학원 - 예·체능계학원","category":"study"},{"name":"용인대 상성태권도장","tel":"031-262-8001","addr":"경기도 용인시 수지구 풍덕천동 1198번지 래미안이스트파크 상가동 지하1층 201,202호","indutype":"학원 - 예·체능계학원","category":"study"}]},{"lat":"37.314258071","long":"127.08410458","imageIndex":16,"items":[{"name":"마법수학교습소","tel":"031-263-5012","addr":"경기도 용인시 수지구 풍덕천동 576-3번지 3층","indutype":"학원 - 보습학원","category":"study"},{"name":"아트앤키즈 미술학원","tel":"","addr":"경기도 용인시 수지구 풍덕천동 576-3번지 3층","indutype":"학원 - 예·체능계학원","category":"study"}]},{"lat":"37.31617554","long":"127.08655466","imageIndex":16,"items":[{"name":"멋GYM태권도","tel":"070-4036-3662","addr":"경기도 용인시 수지구 풍덕천동 509-1번지 청담빌딩 3층","indutype":"학원 - 예·체능계학원","category":"study"},{"name":"삼성영어수지학원","tel":"031-272-8528","addr":"경기도 용인시 수지구 풍덕천동 509-1번지 청담빌딩 2층","indutype":"학원 - 외국어학원","category":"study"},{"name":"애플음악학원","tel":"031-262-2666","addr":"경기도 용인시 수지구 풍덕천동 509-1번지 청담빌딩 2층 일부","indutype":"학원 - 예·체능계학원","category":"study"}]},{"lat":"37.331441923","long":"127.09452644","imageIndex":16,"items":[{"name":"뮤엠영어수지삼성NEST","tel":"070-8635-8539","addr":"경기도 용인시 수지구 풍덕천동 663-1번지 수지4차삼성래미안 103동 108호","indutype":"학원 - 기타 교육기관","category":"study"}]},{"lat":"37.320235527","long":"127.09152316","imageIndex":16,"items":[{"name":"뮤직바움","tel":"031-265-3013","addr":"경기도 용인시 수지구 풍덕천동 1104-1번지 주공9단지 상가 204호","indutype":"학원 - 예·체능계학원","category":"study"}]},{"lat":"37.321262376","long":"127.09194179","imageIndex":16,"items":[{"name":"미뉴엣피아노교습소","tel":"031-265-6930","addr":"경기도 용인시 수지구 풍덕천동 1065-2번지 용인수지신정마을1단지 206호","indutype":"학원 - 예·체능계학원","category":"study"},{"name":"와이비엠시사주니어영어교습소","tel":"031-265-5280","addr":"경기도 용인시 수지구 풍덕천동 1065-2번지 신청마을1단지 가상가동 203호","indutype":"학원 - 외국어학원","category":"study"},{"name":"탄탄수학교습소","tel":"031-000-0000","addr":"경기도 용인시 수지구 풍덕천동 1065-2번지 용인수지신정마을1단지 가상가동 104호","indutype":"학원 - 보습학원","category":"study"}]},{"lat":"37.321953847","long":"127.0949662","imageIndex":16,"items":[{"name":"미스터디학원","tel":"031-261-9064","addr":"경기도 용인시 수지구 풍덕천동 1080-13번지 501호","indutype":"학원 - 보습학원","category":"study"},{"name":"삼점일사수지본원수학학원","tel":"031-272-3314","addr":"경기도 용인시 수지구 풍덕천동 1080-13번지 201호","indutype":"학원 - 보습학원","category":"study"},{"name":"수지바우하우스미술학원","tel":"031-261-0790","addr":"경기도 용인시 수지구 풍덕천동 1080-13번지 202호","indutype":"학원 - 예·체능계학원","category":"study"},{"name":"주식회사조은에듀","tel":"031-263-0678","addr":"경기도 용인시 수지구 풍덕천동 1080-13번지 다모아빌딩 301호,401호","indutype":"회원제형태 - 학원","category":"study"}]},{"lat":"37.316133792","long":"127.09427095","imageIndex":16,"items":[{"name":"바른수학교실","tel":"","addr":"경기도 용인시 수지구 풍덕천동 1167번지 진산마을삼성래미안5차아파트","indutype":"학원 - 기타 교육기관","category":"study"}]},{"lat":"37.321097808","long":"127.09505541","imageIndex":16,"items":[{"name":"박성우 영어학원","tel":"","addr":"경기도 용인시 수지구 풍덕천동 1082-11번지 3층 301호","indutype":"학원 - 외국어학원","category":"study"},{"name":"설연고에이플러스학원","tel":"031-265-5515","addr":"경기도 용인시 수지구 풍덕천동 1082-11번지 삼공타워 8층 801호,802호803호","indutype":"학원 - 보습학원","category":"study"},{"name":"수지설연고학원","tel":"070-4334-7245","addr":"경기도 용인시 수지구 풍덕천동 1082-11번지 901호","indutype":"학원 - 보습학원","category":"study"},{"name":"에듀북랜드교육센터","tel":"031-276-0549","addr":"경기도 용인시 수지구 풍덕천동 1082-11번지 삼공타워 302동 303호","indutype":"회원제형태 - 학원","category":"study"},{"name":"와이즈만영재교육학원","tel":"031-264-4339","addr":"경기도 용인시 수지구 풍덕천동 1082-11번지 삼공타워 501동 503호","indutype":"학원 - 보습학원","category":"study"},{"name":"정앤박수학학원","tel":"031-276-3014","addr":"경기도 용인시 수지구 풍덕천동 1082-11번지 삼공타워 201호","indutype":"학원 - 보습학원","category":"study"},{"name":"주식회사 수지에이프릴어학원","tel":"031-261-4505","addr":"경기도 용인시 수지구 풍덕천동 1082-11번지 삼공타워 4층","indutype":"학원 - 외국어학원","category":"study"}]},{"lat":"37.32567386","long":"127.0964939","imageIndex":16,"items":[{"name":"베스트영수학원","tel":"031-262-0717","addr":"경기도 용인시 수지구 풍덕천동 704번지 현대프라자빌딩 2층 202호","indutype":"학원 - 보습학원","category":"study"},{"name":"수지수학교습소","tel":"031-896-0106","addr":"경기도 용인시 수지구 풍덕천동 704번지 현대프라자 301호","indutype":"학원 - 기타 교육기관","category":"study"},{"name":"수지프라임영어학원","tel":"031-263-0852","addr":"경기도 용인시 수지구 풍덕천동 704번지","indutype":"학원 - 보습학원","category":"study"},{"name":"아라독서실","tel":"031-265-0999","addr":"경기도 용인시 수지구 풍덕천동 704번지 현대프라자 401호","indutype":"학원 - 독서실","category":"study"},{"name":"에이블리영어교습소","tel":"031-262-9170","addr":"경기도 용인시 수지구 풍덕천동 704번지 현대프라자빌딩 501호","indutype":"학원 - 외국어학원","category":"study"},{"name":"제니앤케빈영어학원(Jenny&Kevin)","tel":"031-262-0697","addr":"경기도 용인시 수지구 풍덕천동 704번지 현대프라자빌딩 602호 일부","indutype":"학원 - 외국어학원","category":"study"},{"name":"파낙토스 IBC통합뇌센터 용인수지센터","tel":"031-265-1002","addr":"경기도 용인시 수지구 풍덕천동 704번지 현대프라자빌딩 601호","indutype":"학원 - 기타 교육기관","category":"study"},{"name":"후츠파독서실","tel":"070-8222-9797","addr":"경기도 용인시 수지구 풍덕천동 704번지 현대프라자 201호","indutype":"학원 - 독서실","category":"study"}]},{"lat":"37.327227545","long":"127.09138469","imageIndex":16,"items":[{"name":"브레이니리더스영어교습소","tel":"070-4122-1250","addr":"경기도 용인시 수지구 풍덕천동 692-1번지 수지2차삼성래미안 상가동 202호","indutype":"학원 - 외국어학원","category":"study"}]},{"lat":"37.324231585","long":"127.09730444","imageIndex":16,"items":[{"name":"브릿지(Bridge)수학학원","tel":"031-265-2412","addr":"경기도 용인시 수지구 풍덕천동 714-5번지 3층","indutype":"학원 - 보습학원","category":"study"},{"name":"에스제이실용음악학원","tel":"031-264-7627","addr":"경기도 용인시 수지구 풍덕천동 714-5번지 효은빌딩 201호","indutype":"회원제형태 - 학원","category":"study"},{"name":"와이앤제이수학학원","tel":"031-272-1121","addr":"경기도 용인시 수지구 풍덕천동 714-5번지 유용빌딩 5층 일부","indutype":"학원 - 보습학원","category":"study"}]},{"lat":"37.332429112","long":"127.09946987","imageIndex":16,"items":[{"name":"블룸스타일(Bloomstyle)","tel":"000-000-0000","addr":"경기도 용인시 수지구 풍덕천동 670-7번지","indutype":"학원 - 기능학원","category":"study"}]},{"lat":"37.314231133","long":"127.08396918","imageIndex":16,"items":[{"name":"비비(BB)어학원","tel":"031-262-0579","addr":"경기도 용인시 수지구 풍덕천동 579-3번지 3층","indutype":"학원 - 외국어학원","category":"study"},{"name":"빅피쉬미술학원","tel":"","addr":"경기도 용인시 수지구 풍덕천동 579-3번지 신정빌딩 3층","indutype":"학원 - 예·체능계학원","category":"study"}]},{"lat":"37.316403124","long":"127.0831931","imageIndex":16,"items":[{"name":"빛그림미술학원","tel":"031-266-0363","addr":"경기도 용인시 수지구 풍덕천동 522-2번지 수지태영프라자 301호","indutype":"학원 - 예·체능계학원","category":"study"},{"name":"생각수학교습소","tel":"031-000-0000","addr":"경기도 용인시 수지구 풍덕천동 522-2번지 수지태영프라자 1층 104호","indutype":"학원 - 보습학원","category":"study"},{"name":"수지음악학원","tel":"031-261-5254","addr":"경기도 용인시 수지구 풍덕천동 522-2번지 수지태영프라자 303호","indutype":"학원 - 예·체능계학원","category":"study"},{"name":"용인대필승태권도","tel":"031-262-1845","addr":"경기도 용인시 수지구 풍덕천동 522-2번지 수지태영프라자 501호-502호","indutype":"학원 - 예·체능계학원","category":"study"},{"name":"튼튼영어마스터클럽풍덕천학원","tel":"031-898-0525","addr":"경기도 용인시 수지구 풍덕천동 522-2번지 수지태영프라자 302호","indutype":"학원 - 보습학원","category":"study"}]},{"lat":"37.325484584","long":"127.09657264","imageIndex":16,"items":[{"name":"사단법인코리아하이파이브수원스포츠클럽","tel":"031-264-2244","addr":"경기도 용인시 수지구 풍덕천동 704-1번지 상경빌딩 B2층","indutype":"학원 - 기타 교육기관","category":"study"},{"name":"오투원룸텔","tel":"031-263-4114","addr":"경기도 용인시 수지구 풍덕천동 704-1번지 상경빌딩 3~4층","indutype":"학원 - 독서실","category":"study"}]},{"lat":"37.321152307","long":"127.09449138","imageIndex":16,"items":[{"name":"사오수학학원","tel":"031-264-6550","addr":"경기도 용인시 수지구 풍덕천동 1082-1번지 미래빌딩 301호","indutype":"학원 - 보습학원","category":"study"},{"name":"한샘국어교습소","tel":"031-261-9795","addr":"경기도 용인시 수지구 풍덕천동 1082-1번지 미래빌딩 401호 일부","indutype":"학원 - 보습학원","category":"study"}]},{"lat":"37.316314083","long":"127.09415836","imageIndex":16,"items":[{"name":"삼성래미안학원","tel":"031-896-6656","addr":"경기도 용인시 수지구 풍덕천동 1167번지 진산마을삼성래미안5차아파트","indutype":"학원 - 보습학원","category":"study"}]},{"lat":"37.321260917","long":"127.09385973","imageIndex":16,"items":[{"name":"샘(SAM ENGLISH)","tel":"031-276-0829","addr":"경기도 용인시 수지구 풍덕천동 1089-2번지 202호","indutype":"학원 - 보습학원","category":"study"}]},{"lat":"37.316602679","long":"127.09380899","imageIndex":16,"items":[{"name":"생각오름교육원(풍덕천점)","tel":"070-5022-4846","addr":"경기도 용인시 수지구 풍덕천동 1167번지 진산마을삼성래미안5차아파트","indutype":"회원제형태 - 학원","category":"study"}]},{"lat":"37.332122063","long":"127.10032703","imageIndex":16,"items":[{"name":"수지다솜유치원","tel":"031-266-0051","addr":"경기도 용인시 수지구 풍덕천동 678번지","indutype":"학원 - 유치원","category":"study"}]},{"lat":"37.324340353","long":"127.09649224","imageIndex":16,"items":[{"name":"수지댄스","tel":"070-7736-3118","addr":"경기도 용인시 수지구 풍덕천동 710-4번지 동림빌딩 3층 302호","indutype":"학원 - 예·체능계학원","category":"study"}]},{"lat":"37.321430736","long":"127.0956312","imageIndex":16,"items":[{"name":"수지비상에듀학원","tel":"031-266-0505","addr":"경기도 용인시 수지구 풍덕천동 1082-8번지 창진빌딩 4층 401호일부","indutype":"학원 - 보습학원","category":"study"},{"name":"이투스24/7수지용인점학원","tel":"031-265-0247","addr":"경기도 용인시 수지구 풍덕천동 1082-8번지 창진빌딩 202호","indutype":"학원 - 보습학원","category":"study"},{"name":"최강학원","tel":"031-265-1720","addr":"경기도 용인시 수지구 풍덕천동 1082-8번지 창진빌딩","indutype":"학원 - 보습학원","category":"study"}]},{"lat":"37.32281178","long":"127.09240619","imageIndex":16,"items":[{"name":"수지정철어학원","tel":"031-265-8050","addr":"경기도 용인시 수지구 풍덕천동 697-4번지 2층","indutype":"회원제형태 - 학원","category":"study"},{"name":"쿠키 마카롱(KUKI MACARON)","tel":"031-266-2059","addr":"경기도 용인시 수지구 풍덕천동 697-4번지 부영빌딩 1층 3칸중 중간","indutype":"학원 - 기능학원","category":"study"}]},{"lat":"37.320840407","long":"127.08991055","imageIndex":16,"items":[{"name":"스마트영어학원","tel":"031-302-6309","addr":"경기도 용인시 수지구 풍덕천동 1060번지 205,206호","indutype":"학원 - 외국어학원","category":"study"}]},{"lat":"37.332815315","long":"127.1009711","imageIndex":16,"items":[{"name":"스카이고시원","tel":"031-477-2158","addr":"경기도 용인시 수지구 풍덕천동 672-1 4,5층","indutype":"학원 - 독서실","category":"study"}]},{"lat":"37.325403269","long":"127.0968546","imageIndex":16,"items":[{"name":"신촌빌딩","tel":"031-263-0015","addr":"경기도 용인시 수지구 풍덕천동 704-6번지 신촌빌딩","indutype":"학원 - 독서실","category":"study"}]},{"lat":"37.315730587","long":"127.09130352","imageIndex":16,"items":[{"name":"영어도서관사회적협동조합","tel":"031-261-7006","addr":"경기도 용인시 수지구 풍덕천동 1150-1번지 4층","indutype":"학원 - 기타 교육기관","category":"study"}]},{"lat":"37.319346109","long":"127.08799095","imageIndex":16,"items":[{"name":"영재바둑교실","tel":"031-265-8355","addr":"경기도 용인시 수지구 풍덕천동 1049-3,202-1,3/","indutype":"학원 - 예·체능계학원","category":"study"},{"name":"카이스트영어마스터학원","tel":"031-265-2205","addr":"경기도 용인시 수지구 풍덕천동 1049-3번지 2층 202호","indutype":"학원 - 보습학원","category":"study"},{"name":"카이스트학원","tel":"031-265-3311","addr":"경기도 용인시 수지구 풍덕천동 1049-3번지 4층 401호","indutype":"학원 - 보습학원","category":"study"}]},{"lat":"37.324673578","long":"127.09668446","imageIndex":16,"items":[{"name":"오렌지원룸텔","tel":"031-262-0322","addr":"경기도 용인시 수지구 풍덕천동 710-2번지 한주빌딩 5,6층","indutype":"학원 - 독서실","category":"study"},{"name":"유한회사 더스타라잇","tel":"070-4693-6960","addr":"경기도 용인시 수지구 풍덕천동 710-2번지 두림빌딩 5,6층","indutype":"학원 - 독서실","category":"study"}]},{"lat":"37.321532893","long":"127.09166006","imageIndex":16,"items":[{"name":"올백공부방","tel":"031-891-9870","addr":"경기도 용인시 수지구 풍덕천동 1065번지 용인수지신정마을1단지 111동 203호","indutype":"회원제형태 - 학원","category":"study"}]},{"lat":"37.323818745","long":"127.09523925","imageIndex":16,"items":[{"name":"요미요미수지","tel":"031-266-2552","addr":"경기도 용인시 수지구 풍덕천동 712번지 오성빌딩 7층","indutype":"학원 - 예·체능계학원","category":"study"},{"name":"토즈스터디센터 수지독서실","tel":"031-896-0303","addr":"경기도 용인시 수지구 풍덕천동 712번지 오성빌딩 6층 1호","indutype":"학원 - 독서실","category":"study"}]},{"lat":"37.320457803","long":"127.09541565","imageIndex":16,"items":[{"name":"용인시청 (평생교육원)","tel":"031-324-8985","addr":"경기도 용인시 수지구 풍덕천동 1086번지","indutype":"학원 - 기타 교육기관","category":"study"}]},{"lat":"37.323084827","long":"127.08870594","imageIndex":16,"items":[{"name":"우리동네 작은연구실","tel":"","addr":"경기도 용인시 수지구 풍덕천동 1018번지 신정마을극동임광아파트","indutype":"학원 - 기타 교육기관","category":"study"}]},{"lat":"37.322730603","long":"127.09251892","imageIndex":16,"items":[{"name":"유니발레아카데미","tel":"031-265-9114","addr":"경기도 용인시 수지구 풍덕천동 697-5번지 예은빌딩 2층","indutype":"회원제형태 - 학원","category":"study"}]},{"lat":"37.322648703","long":"127.09357934","imageIndex":16,"items":[{"name":"유럽스페셜티커피학원","tel":"031-263-1689","addr":"경기도 용인시 수지구 풍덕천동 1072-3번지 1층","indutype":"학원 - 기능학원","category":"study"}]},{"lat":"37.323953572","long":"127.09565687","imageIndex":16,"items":[{"name":"윤선생체육교실","tel":"031-893-3841","addr":"경기도 용인시 수지구 풍덕천동 711번지 경방프라자","indutype":"학원 - 예·체능계학원","category":"study"}]},{"lat":"37.323398932","long":"127.10185016","imageIndex":16,"items":[{"name":"이너스(INUS)","tel":"031-263-8789","addr":"경기도 용인시 수지구 풍덕천동 85-5번지 지하전체","indutype":"학원 - 예·체능계학원","category":"study"}]},{"lat":"37.31897867","long":"127.08519269","imageIndex":16,"items":[{"name":"이화피아노교습소","tel":"031-263-6311","addr":"경기도 용인시 수지구 풍덕천동 1027번지 신정마을 상가동 102호","indutype":"학원 - 예·체능계학원","category":"study"},{"name":"풍덕천토이공미술교습소","tel":"031-262-6520","addr":"경기도 용인시 수지구 풍덕천동 1027번지 신정마을 상가동 205호","indutype":"학원 - 예·체능계학원","category":"study"}]},{"lat":"37.319974711","long":"127.09087979","imageIndex":16,"items":[{"name":"재경쌤의 전략영어","tel":"031-3028-4108","addr":"경기도 용인시 수지구 풍덕천동 1104번지 용인수지신정마을9단지","indutype":"학원 - 기타 교육기관","category":"study"}]},{"lat":"37.325511936","long":"127.0961665","imageIndex":16,"items":[{"name":"제니앤케빈영어학원(Jenny&Kevin)","tel":"031-262-0697","addr":"경기도 용인시 수지구 풍덕천동 705-3번지 현대빌딩 4층","indutype":"학원 - 외국어학원","category":"study"}]},{"lat":"37.327868587","long":"127.10113391","imageIndex":16,"items":[{"name":"조이플어학원","tel":"031-262-0509","addr":"경기도 용인시 수지구 풍덕천동 71-163번지 삼성독서실","indutype":"학원 - 외국어학원","category":"study"}]},{"lat":"37.32404099","long":"127.09901912","imageIndex":16,"items":[{"name":"좋은커피연구소","tel":"070-4024-0521","addr":"경기도 용인시 수지구 풍덕천동 728-16번지 지하1층","indutype":"회원제형태 - 학원","category":"study"},{"name":"커피라빈트에듀","tel":"031-261-3392","addr":"경기도 용인시 수지구 풍덕천동 728-16번지 101","indutype":"학원 - 기능학원","category":"study"}]},{"lat":"37.319481359","long":"127.08785572","imageIndex":16,"items":[{"name":"주니아티스트실용음악학원","tel":"031-898-2256","addr":"경기도 용인시 수지구 풍덕천동 1049-2번지 우성프라자 301호","indutype":"학원 - 예·체능계학원","category":"study"},{"name":"클라라발레학원","tel":"031-265-4422","addr":"경기도 용인시 수지구 풍덕천동 1049-2번지 우성프라자 2층","indutype":"학원 - 예·체능계학원","category":"study"}]},{"lat":"37.323374593","long":"127.09857827","imageIndex":16,"items":[{"name":"주식회사청명학원","tel":"031-266-1046","addr":"경기도 용인시 수지구 풍덕천동 726번지 3층","indutype":"학원 - 보습학원","category":"study"}]},{"lat":"37.321485229","long":"127.09507845","imageIndex":16,"items":[{"name":"지니어스21주식회사","tel":"031-272-6311","addr":"경기도 용인시 수지구 풍덕천동 1082-5번지 2층 3층","indutype":"학원 - 보습학원","category":"study"}]},{"lat":"37.329119329","long":"127.0918608","imageIndex":16,"items":[{"name":"캔캔어린이집","tel":"031-263-1103","addr":"경기도 용인시 수지구 풍덕천동 399-3번지","indutype":"학원 - 유아원","category":"study"}]},{"lat":"37.3217919","long":"127.09466139","imageIndex":16,"items":[{"name":"케이에이지이영재교육연구실학원","tel":"031-264-0097","addr":"경기도 용인시 수지구 풍덕천동 1080-15번지 가람빌딩 301호","indutype":"회원제형태 - 학원","category":"study"}]},{"lat":"37.326913929","long":"127.08902622","imageIndex":16,"items":[{"name":"케이제이스포츠클럽","tel":"","addr":"경기도 용인시 수지구 풍덕천동 693번지 삼성래미안1차아파트","indutype":"학원 - 기타 교육기관","category":"study"}]},{"lat":"37.323145345","long":"127.09215838","imageIndex":16,"items":[{"name":"토마스잉글리쉬영어학습소","tel":"031-262-9222","addr":"경기도 용인시 수지구 풍덕천동 697-1번지 104호","indutype":"회원제형태 - 학원","category":"study"}]},{"lat":"37.330485673","long":"127.09602596","imageIndex":16,"items":[{"name":"파란논리영어교육센터","tel":"031-8002-7703","addr":"경기도 용인시 수지구 풍덕천동 664번지 동아.삼익.풍림아파트","indutype":"회원제형태 - 학원","category":"study"}]},{"lat":"37.317626243","long":"127.09837919","imageIndex":16,"items":[{"name":"풍천태권도장","tel":"031-272-9082","addr":"경기도 용인시 수지구 풍덕천동 1168-1번지 진산마을삼성래미안5차아파트 1동 301호~304호","indutype":"학원 - 예·체능계학원","category":"study"}]},{"lat":"37.326179994","long":"127.09449749","imageIndex":16,"items":[{"name":"하우투(How to)코딩교습소","tel":"031-261-0193","addr":"경기도 용인시 수지구 풍덕천동 700-1번지 현대상가 2층 206호","indutype":"학원 - 컴퓨터학원","category":"study"}]},{"lat":"37.323620451","long":"127.09532927","imageIndex":16,"items":[{"name":"하이댄스스포츠학원","tel":"031-305-0070","addr":"경기도 용인시 수지구 풍덕천동 712-1번지 2층 전체","indutype":"학원 - 예·체능계학원","category":"study"}]},{"lat":"37.31440242","long":"127.08383399","imageIndex":16,"items":[{"name":"한스 (Hanns)잉글리쉬(English)영어교습소","tel":"031-898-4552","addr":"경기도 용인시 수지구 풍덕천동 579-11번지 2층 201호","indutype":"학원 - 외국어학원","category":"study"}]},{"lat":"37.323984642","long":"127.10179451","imageIndex":16,"items":[{"name":"함께하는 SW교육","tel":"","addr":"경기도 용인시 수지구 풍덕천동 82-9번지 한샘더랜드마크오피스텔 6층 616호","indutype":"학원 - 기타 교육기관","category":"study"}]},{"lat":"37.31525898","long":"127.08296627","imageIndex":16,"items":[{"name":"행복한세계로 영어교습소","tel":"031-263-1205","addr":"경기도 용인시 수지구 풍덕천동 1183번지 정자뜰마을태영데시앙1차아파트","indutype":"학원 - 외국어학원","category":"study"}]},{"lat":"37.325061692","long":"127.09582747","imageIndex":16,"items":[{"name":"홍샘과학교습소","tel":"070-7613-9862","addr":"경기도 용인시 수지구 풍덕천동 705-4번지 덕원빌딩 203호","indutype":"회원제형태 - 학원","category":"study"}]}]