[{"lat":"37.28212748","long":"127.01752965","imageIndex":7,"items":[{"name":"공덕상회","tel":"031-255-2726","addr":"경기도 수원시 팔달구 북수동 311-6번지","indutype":"유통업 영리 - 슈퍼마켓","category":"mart"}]},{"lat":"37.287705083","long":"127.01533173","imageIndex":7,"items":[{"name":"양지슈퍼","tel":"031-257-8685","addr":"경기도 수원시 팔달구 북수동 124-2번지 1층","indutype":"유통업 영리 - 슈퍼마켓","category":"mart"}]},{"lat":"37.283289935","long":"127.0164248","imageIndex":7,"items":[{"name":"왕의슈퍼","tel":"031-254-2014","addr":"경기도 수원시 팔달구 북수동 346-1번지 1층","indutype":"유통업 영리 - 슈퍼마켓","category":"mart"}]},{"lat":"37.283650352","long":"127.01636849","imageIndex":7,"items":[{"name":"잉크가이월드점","tel":"031-256-5881","addr":"경기도 수원시 팔달구 북수동 340-1번지","indutype":"유통업 영리 - 슈퍼마켓","category":"mart"}]},{"lat":"37.285037977","long":"127.01597405","imageIndex":7,"items":[{"name":"제로마트종로점","tel":"031-255-3662","addr":"경기도 수원시 팔달구 북수동 219번지","indutype":"유통업 영리 - 슈퍼마켓","category":"mart"}]},{"lat":"37.283208707","long":"127.01756369","imageIndex":7,"items":[{"name":"종로종합유통","tel":"031-256-3748","addr":"경기도 수원시 팔달구 북수동 290번지","indutype":"유통업 영리 - 슈퍼마켓","category":"mart"}]},{"lat":"37.287182372","long":"127.01639167","imageIndex":7,"items":[{"name":"화홍마트","tel":"031-248-6865","addr":"경기도 수원시 팔달구 북수동 25-14번지 1층 103호","indutype":"유통업 영리 - 슈퍼마켓","category":"mart"}]},{"lat":"37.287038195","long":"127.01650441","imageIndex":7,"items":[{"name":"화홍슈퍼문구","tel":"031-253-1373","addr":"경기도 수원시 팔달구 북수동 25-16번지","indutype":"유통업 영리 - 슈퍼마켓","category":"mart"}]}]