[{"lat":"37.092375465","long":"127.48840925","imageIndex":17,"items":[{"name":"(주)청미바이오","tel":"031-674-8130","addr":"경기도 안성시 일죽면 주천리 219-1번지","indutype":"농업 - 비료,사료,종자","category":"other"}]},{"lat":"37.090935642","long":"127.4901547","imageIndex":17,"items":[{"name":"동신글로벌","tel":"02-424-9720","addr":"경기도 안성시 일죽면 주천리 232-2번지","indutype":"전기제품 - 가전제품","category":"other"}]},{"lat":"37.093098753","long":"127.49654613","imageIndex":17,"items":[{"name":"동양곡면창호(주)","tel":"031-673-4024","addr":"경기도 안성시 일죽면 주천리 89-5번지","indutype":"건축자재 - 기타건축자재","category":"other"}]},{"lat":"37.092985178","long":"127.48026964","imageIndex":17,"items":[{"name":"세븐일레븐안성일죽주천점","tel":"031-1577-0711","addr":"경기도 안성시 일죽면 주천리 479-3번지","indutype":"유통업 영리 - 편 의 점","category":"other"}]},{"lat":"37.093746879","long":"127.48130924","imageIndex":17,"items":[{"name":"엠제이","tel":"070-4800-6600","addr":"경기도 안성시 일죽면 주천리 469-8번지 천보연립 나동 203호","indutype":"회원제형태 - 기타4","category":"other"}]},{"lat":"37.092408093","long":"127.48260557","imageIndex":4,"items":[{"name":"늘푸른 언덕위 집","tel":"031-674-1037","addr":"경기도 안성시 일죽면 주천리 302-1번지","indutype":"일반휴게음식 - 일반한식","category":"restaurant"}]},{"lat":"37.09001632","long":"127.4902163","imageIndex":4,"items":[{"name":"파크엘림","tel":"031-673-9920","addr":"경기도 안성시 일죽면 주천리 250-9번지","indutype":"일반휴게음식 - 서양음식","category":"restaurant"}]},{"lat":"37.09496506","long":"127.48532126","imageIndex":7,"items":[{"name":"두레동산","tel":"031-375-5088","addr":"경기도 안성시 일죽면 주천리 567-1번지 외1필지","indutype":"음료식품 - 농·축·수산품","category":"food"}]},{"lat":"37.091681082","long":"127.48190363","imageIndex":16,"items":[{"name":"일죽초등학교","tel":"031-673-6915","addr":"경기도 안성시 일죽면 주천리 300번지 일죽초등학교","indutype":"학원 - 초중고교육기관","category":"study"},{"name":"일죽초등학교병설유치원[아이행복]","tel":"031-673-6915","addr":"경기도 안성시 일죽면 주천리 300번지 일죽초등학교","indutype":"학원 - 유치원","category":"study"}]},{"lat":"37.092654547","long":"127.48404686","imageIndex":16,"items":[{"name":"퍼스트클래스","tel":"031-672-6720","addr":"경기도 안성시 일죽면 주천리 373-3번지 1층","indutype":"학원 - 보습학원","category":"study"}]}]