[{"lat":"37.334253671","long":"126.84376764","imageIndex":7,"items":[{"name":"(주)경기종합식품","tel":"031-403-1135","addr":"경기도 안산시 상록구 월피동 517-11번지","indutype":"음료식품 - 기타음료식품","category":"food"},{"name":"경기식품","tel":"03-1403-1135","addr":"경기도 안산시 상록구 월피동 517-11번지","indutype":"음료식품 - 기타음료식품","category":"food"}]},{"lat":"37.334145443","long":"126.84368888","imageIndex":7,"items":[{"name":"(주)성실푸드","tel":"031-485-9292","addr":"경기도 안산시 상록구 월피동 517-10번지 101호 102 호","indutype":"음료식품 - 정육점","category":"food"}]},{"lat":"37.334583929","long":"126.84146501","imageIndex":7,"items":[{"name":"(주)지킴이푸드","tel":"031-409-4580","addr":"경기도 안산시 상록구 월피동 505-4번지 101호","indutype":"음료식품 - 정육점","category":"food"}]},{"lat":"37.335948669","long":"126.85145985","imageIndex":7,"items":[{"name":"강서유통","tel":"031-450-8054","addr":"경기도 안산시 상록구 월피동 475-8번지 1층 101호","indutype":"음료식품 - 기타음료식품","category":"food"}]},{"lat":"37.332174967","long":"126.85268605","imageIndex":7,"items":[{"name":"강원과일야채","tel":"","addr":"경기도 안산시 상록구 월피동 435-11번지 월피마트 103호","indutype":"음료식품 - 농·축·수산품","category":"food"}]},{"lat":"37.336114443","long":"126.85429185","imageIndex":7,"items":[{"name":"건강하세요건강원","tel":"031-480-9800","addr":"경기도 안산시 상록구 월피동 469-12번지 1층 2호","indutype":"건강식품 - 기타건강식품","category":"food"}]},{"lat":"37.334865997","long":"126.84349553","imageIndex":7,"items":[{"name":"건국우유고잔보급소","tel":"031-410-2768","addr":"경기도 안산시 상록구 월피동 521 104","indutype":"음료식품 - 기타음료식품","category":"food"},{"name":"진성유통","tel":"","addr":"경기도 안산시 상록구 월피동 521번지","indutype":"음료식품 - 농·축·수산품","category":"food"}]},{"lat":"37.334341515","long":"126.84209743","imageIndex":7,"items":[{"name":"곡창유통","tel":"031-419-6900","addr":"경기도 안산시 상록구 월피동 522-1번지","indutype":"음료식품 - 미곡상","category":"food"}]},{"lat":"37.339924113","long":"126.84604648","imageIndex":7,"items":[{"name":"광덕고 교육경제공동체 사회적협동조합","tel":"031-8040-4621","addr":"경기도 안산시 상록구 월피동 236-37번지 광덕고등학교","indutype":"음료식품 - 기타음료식품","category":"food"}]},{"lat":"37.335697424","long":"126.84535565","imageIndex":7,"items":[{"name":"광덕농수산물","tel":"031-414-5381","addr":"경기도 안산시 상록구 월피동 492-15번지","indutype":"음료식품 - 농·축·수산품","category":"food"}]},{"lat":"37.328780904","long":"126.84785237","imageIndex":7,"items":[{"name":"국제산업","tel":"031-482-6667","addr":"경기도 안산시 상록구 월피동 445-21번지 오성빌딩 지하층","indutype":"음료식품 - 농·축·수산품","category":"food"},{"name":"신장수건강원","tel":"031-482-4131","addr":"경기도 안산시 상록구 월피동 445-21번지 오성빌딩 106호","indutype":"건강식품 - 기타건강식품","category":"food"}]},{"lat":"37.332223301","long":"126.84824022","imageIndex":7,"items":[{"name":"금산인삼홍삼","tel":"031-485-1373","addr":"경기도 안산시 상록구 월피동 447번지 (1동지하층13,14호)","indutype":"건강식품 - 홍삼제품","category":"food"},{"name":"대성축산","tel":"031-484-4947","addr":"경기도 안산시 상록구 월피동 447세반쇼핑105","indutype":"음료식품 - 정육점","category":"food"}]},{"lat":"37.334170084","long":"126.84868759","imageIndex":7,"items":[{"name":"기천농산","tel":"031-403-4060","addr":"경기도 안산시 상록구 월피동 455번지","indutype":"음료식품 - 정육점","category":"food"}]},{"lat":"37.336421946","long":"126.85521655","imageIndex":7,"items":[{"name":"김제농산","tel":"","addr":"경기도 안산시 상록구 월피동 469-4번지 101호","indutype":"음료식품 - 농·축·수산품","category":"food"}]},{"lat":"37.336506285","long":"126.84381931","imageIndex":7,"items":[{"name":"깊은산자연약초","tel":"031-503-3385","addr":"경기도 안산시 상록구 월피동 493-15번지 101호","indutype":"음료식품 - 농·축·수산품","category":"food"}]},{"lat":"37.333532702","long":"126.85049429","imageIndex":7,"items":[{"name":"낙원떡집","tel":"031-483-7550","addr":"경기도 안산시 상록구 월피동 453-7번지 103,104호","indutype":"음료식품 - 기타음료식품","category":"food"}]},{"lat":"37.335390553","long":"126.84496135","imageIndex":7,"items":[{"name":"남형기 자연치유연구소","tel":"070-8239-6352","addr":"경기도 안산시 상록구 월피동 508-9번지 1층 106호","indutype":"음료식품 - 미곡상","category":"food"}]},{"lat":"37.333675171","long":"126.84918508","imageIndex":7,"items":[{"name":"내가만든반찬","tel":"031-405-9621","addr":"경기도 안산시 상록구 월피동 455-10번지 1층","indutype":"음료식품 - 기타음료식품","category":"food"}]},{"lat":"37.328280226","long":"126.84399461","imageIndex":7,"items":[{"name":"내추럴하우스","tel":"031-483-4686","addr":"경기도 안산시 상록구 월피동 445번지 다농마트 지하1층 102호","indutype":"건강식품 - 기타건강식품","category":"food"},{"name":"뉴세계주류","tel":"031-401-8901","addr":"경기도 안산시 상록구 월피동 445번지 다농마트 1층","indutype":"음료식품 - 주류 판매점","category":"food"},{"name":"뉴세계주류","tel":"031-402-3662","addr":"경기도 안산시 상록구 월피동 445번지 1층 다농마트","indutype":"음료식품 - 주류 판매점","category":"food"},{"name":"뚜레쥬르 안산다농(3)","tel":"031-413-2250","addr":"경기도 안산시 상록구 월피동 445 외1필지 다농마트1층195,196호","indutype":"음료식품 - 제과점","category":"food"},{"name":"백두산사우나내매점","tel":"031-475-8878","addr":"경기도 안산시 상록구 월피동 445번지 5층 일부호","indutype":"음료식품 - 기타음료식품","category":"food"},{"name":"순우리안산","tel":"031-403-0990","addr":"경기도 안산시 상록구 월피동 445번지 1층 180,191,192호","indutype":"건강식품 - 홍삼제품","category":"food"},{"name":"진로떡방앗간","tel":"031-405-7202","addr":"경기도 안산시 상록구 월피동 445번지 다농마트 지하층 108호","indutype":"음료식품 - 제과점","category":"food"},{"name":"진로반찬","tel":"031-000-0000","addr":"경기도 안산시 상록구 월피동 445번지 다농마트","indutype":"음료식품 - 기타음료식품","category":"food"}]},{"lat":"37.3282802259","long":"126.8439946101","imageIndex":7,"items":[{"name":"내추럴하우스다농점","tel":"031-483-4686","addr":"경기도 안산시 상록구 월피동 445번지","indutype":"도매 및 소매업 - 건강식품","category":"food"},{"name":"진로반찬","tel":"","addr":"경기도 안산시 상록구 월피동 445번지","indutype":"제조업 - 과실 및 채소 절임식품","category":"food"}]},{"lat":"37.336118149","long":"126.84330105","imageIndex":7,"items":[{"name":"다이써 아이스크림 안산월피점","tel":"","addr":"경기도 안산시 상록구 월피동 506-18번지 1층 102호","indutype":"음료식품 - 기타음료식품","category":"food"}]},{"lat":"37.335978765","long":"126.8538746","imageIndex":7,"items":[{"name":"대경젓갈","tel":"031-402-6764","addr":"경기도 안산시 상록구 월피동 467-5번지 104호","indutype":"음료식품 - 농·축·수산품","category":"food"}]},{"lat":"37.332310263","long":"126.85279862","imageIndex":7,"items":[{"name":"대명수산","tel":"031-402-3004","addr":"경기도 안산시 상록구 월피동 435-12번지 104호","indutype":"음료식품 - 농·축·수산품","category":"food"}]},{"lat":"37.333536942","long":"126.853823","imageIndex":7,"items":[{"name":"대풍방앗간","tel":"031-417-3166","addr":"경기도 안산시 상록구 월피동 434-19번지 104호","indutype":"음료식품 - 제과점","category":"food"},{"name":"온누리건강원","tel":"031-401-8203","addr":"경기도 안산시 상록구 월피동 434-19번지 1층 102호","indutype":"건강식품 - 기타건강식품","category":"food"},{"name":"온누리건강원","tel":"031-401-8203","addr":"경기도 안산시 상록구 월피동 434-19번지 102호","indutype":"건강식품 - 기타건강식품","category":"food"}]},{"lat":"37.32809087","long":"126.85074223","imageIndex":7,"items":[{"name":"더냠냠","tel":"","addr":"경기도 안산시 상록구 월피동 443번지 라성연립 상가 105호","indutype":"음료식품 - 기타음료식품","category":"food"}]},{"lat":"37.335975095","long":"126.8441251","imageIndex":7,"items":[{"name":"롤로타바코 월피점","tel":"031-413-2255","addr":"경기도 안산시 상록구 월피동 518번지 104호","indutype":"음료식품 - 기타음료식품","category":"food"}]},{"lat":"37.329004555","long":"126.84663333","imageIndex":7,"items":[{"name":"마임안산월피지사","tel":"031-410-6518","addr":"경기도 안산시 상록구 월피동 445-28번지 202호","indutype":"건강식품 - 기타건강식품","category":"food"}]},{"lat":"37.33125494","long":"126.85190933","imageIndex":7,"items":[{"name":"맛집","tel":"031-509-1115","addr":"경기도 안산시 상록구 월피동 436-13번지 1층","indutype":"음료식품 - 정육점","category":"food"}]},{"lat":"37.33495091","long":"126.85332371","imageIndex":7,"items":[{"name":"명성축산물유통센타","tel":"031-414-1333","addr":"경기도 안산시 상록구 월피동 464-15번지 1층","indutype":"음료식품 - 정육점","category":"food"}]},{"lat":"37.328703735","long":"126.85087639","imageIndex":7,"items":[{"name":"명지","tel":"031-000-0000","addr":"경기도 안산시 상록구 월피동 441-13번지","indutype":"음료식품 - 농·축·수산품","category":"food"}]},{"lat":"37.332452801","long":"126.85152329","imageIndex":7,"items":[{"name":"미래농산물","tel":"070-4789-2381","addr":"경기도 안산시 상록구 월피동 449-9번지","indutype":"음료식품 - 농·축·수산품","category":"food"}]},{"lat":"37.329284197","long":"126.84688098","imageIndex":7,"items":[{"name":"배스킨라빈스(안산월피점)","tel":"031-401-5588","addr":"경기도 안산시 상록구 월피동 445-18번지 로얄프라자 105,106호","indutype":"음료식품 - 제과점","category":"food"},{"name":"브레드(이민영베이커리)","tel":"031-480-0766","addr":"경기도 안산시 상록구 월피동 445-18번지 로얄프라자 1층 107호","indutype":"음료식품 - 제과점","category":"food"},{"name":"사계절과일","tel":"031-411-7364","addr":"경기도 안산시 상록구 월피동 445-18번지 로얄프라자 1층 103호","indutype":"음료식품 - 농·축·수산품","category":"food"},{"name":"월피농수산직판장","tel":"031-485-3337","addr":"경기도 안산시 상록구 월피동 445-18번지 로얄프라자 101호,102호","indutype":"음료식품 - 농·축·수산품","category":"food"}]},{"lat":"37.329227592","long":"126.84496297","imageIndex":7,"items":[{"name":"블럭제빵소안산월피점","tel":"031-401-7756","addr":"경기도 안산시 상록구 월피동 445-6번지 105호","indutype":"음료식품 - 제과점","category":"food"},{"name":"종로복떡방앗간","tel":"031-480-4400","addr":"경기도 안산시 상록구 월피동 445-6번지","indutype":"음료식품 - 제과점","category":"food"},{"name":"파워점핑","tel":"031-411-4843","addr":"경기도 안산시 상록구 월피동 445-6번지 301호","indutype":"건강식품 - 기타건강식품","category":"food"}]},{"lat":"37.335758283","long":"126.85054622","imageIndex":7,"items":[{"name":"빛과소금","tel":"031-111-1111","addr":"경기도 안산시 상록구 월피동 458-12번지 1층","indutype":"음료식품 - 기타음료식품","category":"food"}]},{"lat":"37.333695697","long":"126.85112586","imageIndex":7,"items":[{"name":"뿅가아이스","tel":"","addr":"경기도 안산시 상록구 월피동 452-9번지 101호, 102호","indutype":"음료식품 - 기타음료식품","category":"food"}]},{"lat":"37.329113435","long":"126.84720855","imageIndex":7,"items":[{"name":"산장약수터흑염소","tel":"031-480-9151","addr":"경기도 안산시 상록구 월피동 445-19번지 현대프라자 105호","indutype":"건강식품 - 기타건강식품","category":"food"}]},{"lat":"37.335392293","long":"126.8462703","imageIndex":7,"items":[{"name":"샬롬건강마을","tel":"031-1800-3409","addr":"경기도 안산시 상록구 월피동 492-9번지 1층","indutype":"건강식품 - 기타건강식품","category":"food"}]},{"lat":"37.334501455","long":"126.85415962","imageIndex":7,"items":[{"name":"서해안","tel":"031-485-1833","addr":"경기도 안산시 상록구 월피동 464-8번지 1층","indutype":"음료식품 - 농·축·수산품","category":"food"}]},{"lat":"37.336447052","long":"126.85368184","imageIndex":7,"items":[{"name":"서해양곡유통","tel":"031-410-6715","addr":"경기도 안산시 상록구 월피동 470-13번지","indutype":"음료식품 - 미곡상","category":"food"}]},{"lat":"37.334366268","long":"126.84713","imageIndex":7,"items":[{"name":"수빈수산","tel":"031-405-1314","addr":"경기도 안산시 상록구 월피동 511-1번지 407호","indutype":"음료식품 - 농·축·수산품","category":"food"}]},{"lat":"37.328729838","long":"126.84332796","imageIndex":7,"items":[{"name":"신개념 정육점 미트샵","tel":"031-405-0480","addr":"경기도 안산시 상록구 월피동 446-2번지","indutype":"음료식품 - 정육점","category":"food"}]},{"lat":"37.328891698","long":"126.84990566","imageIndex":7,"items":[{"name":"아침햇살베이커리","tel":"070-8816-8255","addr":"경기도 안산시 상록구 월피동 444-2번지 참사랑미술학원 101호","indutype":"음료식품 - 제과점","category":"food"}]},{"lat":"37.336781901","long":"126.85485475","imageIndex":7,"items":[{"name":"야미 케이크","tel":"","addr":"경기도 안산시 상록구 월피동 472-7번지 1층 좌측 상가","indutype":"음료식품 - 제과점","category":"food"}]},{"lat":"37.335508647","long":"126.84568328","imageIndex":7,"items":[{"name":"우돈정육점","tel":"031-439-6660","addr":"경기도 안산시 상록구 월피동 492-13번지","indutype":"음료식품 - 정육점","category":"food"}]},{"lat":"37.33681347","long":"126.8513227","imageIndex":7,"items":[{"name":"우리제과","tel":"031-0000-0000","addr":"경기도 안산시 상록구 월피동 476번지 상가 A호","indutype":"음료식품 - 기타음료식품","category":"food"}]},{"lat":"37.329730575","long":"126.85062609","imageIndex":7,"items":[{"name":"우리한우직판장","tel":"031-405-8985","addr":"경기도 안산시 상록구 월피동 442-24번지 1층","indutype":"음료식품 - 정육점","category":"food"}]},{"lat":"37.3288427737","long":"126.8469383114","imageIndex":7,"items":[{"name":"월피전집","tel":"031-410-4049","addr":"경기도 안산시 상록구 월피동 445-27번지","indutype":"숙박 및 음식점업 - 식품접객업","category":"food"}]},{"lat":"37.336563342","long":"126.85301584","imageIndex":7,"items":[{"name":"웰빙탕제원","tel":"031-487-1527","addr":"경기도 안산시 상록구 월피동 474-5번지","indutype":"건강식품 - 기타건강식품","category":"food"}]},{"lat":"37.3365633420","long":"126.8530158429","imageIndex":7,"items":[{"name":"웰빙탕제원","tel":"","addr":"경기도 안산시 상록구 월피동 474-5번지","indutype":"도매 및 소매업 - 건강식품","category":"food"}]},{"lat":"37.3289473411","long":"126.8442639998","imageIndex":7,"items":[{"name":"유니베라안산북부대리점","tel":"031-405-7557","addr":"경기도 안산시 상록구 월피동 445-4번지","indutype":"도매 및 소매업 - 건강식품","category":"food"}]},{"lat":"37.332723759","long":"126.8451249","imageIndex":7,"items":[{"name":"유민상사","tel":"031-487-8004","addr":"경기도 안산시 상록구 월피동 524-2번지 102호","indutype":"음료식품 - 기타음료식품","category":"food"}]},{"lat":"37.32808687","long":"126.84766198","imageIndex":7,"items":[{"name":"유호여성의원 (건식)","tel":"031-439-5700","addr":"경기도 안산시 상록구 월피동 445-29번지 에스엘타운 403호","indutype":"건강식품 - 기타건강식품","category":"food"}]},{"lat":"37.334813088","long":"126.84435322","imageIndex":7,"items":[{"name":"이영수과자점","tel":"070-4024-3775","addr":"경기도 안산시 상록구 월피동 508-3번지 베스코아트빌 104호","indutype":"음료식품 - 제과점","category":"food"}]},{"lat":"37.329057135","long":"126.8455162","imageIndex":7,"items":[{"name":"자연수산,바다마트","tel":"031-413-8877","addr":"경기도 안산시 상록구 월피동 445-9번지","indutype":"음료식품 - 농·축·수산품","category":"food"}]},{"lat":"37.334696892","long":"126.85195886","imageIndex":7,"items":[{"name":"자연주의 건강원","tel":"031-520-2123","addr":"경기도 안산시 상록구 월피동 460-10번지 1층","indutype":"건강식품 - 기타건강식품","category":"food"}]},{"lat":"37.336836821","long":"126.85554298","imageIndex":7,"items":[{"name":"장수방앗간","tel":"031-410-8961","addr":"경기도 안산시 상록구 월피동 469-1번지","indutype":"음료식품 - 제과점","category":"food"}]},{"lat":"37.335090642","long":"126.84304369","imageIndex":7,"items":[{"name":"제이엘상사","tel":"","addr":"경기도 안산시 상록구 월피동 520번지 103호","indutype":"음료식품 - 농·축·수산품","category":"food"}]},{"lat":"37.336254637","long":"126.84429377","imageIndex":7,"items":[{"name":"종가집떡방앗간","tel":"031-485-6656","addr":"경기도 안산시 상록구 월피동 493-12번지","indutype":"음료식품 - 제과점","category":"food"}]},{"lat":"37.337480611","long":"126.85162604","imageIndex":7,"items":[{"name":"주식회사 김명자","tel":"031-405-4405","addr":"경기도 안산시 상록구 월피동 480-1번지 (101~104호)","indutype":"음료식품 - 기타음료식품","category":"food"}]},{"lat":"37.333751185","long":"126.85224285","imageIndex":7,"items":[{"name":"주식회사 미트포앤","tel":"031-438-1230","addr":"경기도 안산시 상록구 월피동 461-15번지 1층","indutype":"음료식품 - 정육점","category":"food"}]},{"lat":"37.337308763","long":"126.84424642","imageIndex":7,"items":[{"name":"주하물산","tel":"031-505-5212","addr":"경기도 안산시 상록구 월피동 495번지","indutype":"음료식품 - 농·축·수산품","category":"food"}]},{"lat":"37.328813049","long":"126.84490742","imageIndex":7,"items":[{"name":"참고깃간","tel":"031-485-7755","addr":"경기도 안산시 상록구 월피동 445-11번지 1층","indutype":"음료식품 - 정육점","category":"food"}]},{"lat":"37.333810001","long":"126.84893657","imageIndex":7,"items":[{"name":"참샘이 양봉원","tel":"031-494-7536","addr":"경기도 안산시 상록구 월피동 455-12번지","indutype":"건강식품 - 기타건강식품","category":"food"}]},{"lat":"37.3370029","long":"126.85149159","imageIndex":7,"items":[{"name":"창대종합상사","tel":"031-405-8245","addr":"경기도 안산시 상록구 월피동 477-19번지 남영송림마을","indutype":"음료식품 - 기타음료식품","category":"food"}]},{"lat":"37.33333426","long":"126.85032544","imageIndex":7,"items":[{"name":"천세건강원","tel":"031-402-3614","addr":"경기도 안산시 상록구 월피동 453-8번지 101호","indutype":"건강식품 - 기타건강식품","category":"food"}]},{"lat":"37.334725795","long":"126.84646351","imageIndex":7,"items":[{"name":"축산물도매센터","tel":"031-504-4986","addr":"경기도 안산시 상록구 월피동 509-1번지 103,104호","indutype":"음료식품 - 정육점","category":"food"}]},{"lat":"37.335868166","long":"126.84501677","imageIndex":7,"items":[{"name":"파리바게뜨 안산광덕","tel":"031-410-9004","addr":"경기도 안산시 상록구 월피동 492-17번지 102호","indutype":"음료식품 - 제과점","category":"food"}]},{"lat":"37.328921577","long":"126.84521183","imageIndex":7,"items":[{"name":"파리바게뜨(다농점)","tel":"031-414-8228","addr":"경기도 안산시 상록구 월피동 445-10번지 1층","indutype":"음료식품 - 제과점","category":"food"}]},{"lat":"37.328586212","long":"126.85057198","imageIndex":7,"items":[{"name":"프로틴다이어트클럽","tel":"070-4233-9825","addr":"경기도 안산시 상록구 월피동 442-14번지","indutype":"회원제형태 - 건강식품","category":"food"}]},{"lat":"37.334587381","long":"126.84401518","imageIndex":7,"items":[{"name":"하누리","tel":"031-403-4121","addr":"경기도 안산시 상록구 월피동 517번지 101,102호","indutype":"음료식품 - 정육점","category":"food"}]},{"lat":"37.335861889","long":"126.85407795","imageIndex":7,"items":[{"name":"한국야쿠르트부곡점","tel":"031-401-6978","addr":"경기도 안산시 상록구 월피동 468번지","indutype":"음료식품 - 기타음료식품","category":"food"}]},{"lat":"37.33358847","long":"126.85182567","imageIndex":7,"items":[{"name":"한미식품","tel":"031-413-2941","addr":"경기도 안산시 상록구 월피동 452-4번지 1층","indutype":"음료식품 - 기타음료식품","category":"food"}]},{"lat":"37.336701529","long":"126.8554304","imageIndex":7,"items":[{"name":"한성푸드코리아","tel":"070-7139-6765","addr":"경기도 안산시 상록구 월피동 469-2번지 102호","indutype":"음료식품 - 기타음료식품","category":"food"}]},{"lat":"37.333450488","long":"126.84962561","imageIndex":7,"items":[{"name":"형제축산","tel":"031-402-7972","addr":"경기도 안산시 상록구 월피동 453-13번지 104호","indutype":"음료식품 - 정육점","category":"food"}]},{"lat":"37.330479244","long":"126.85126773","imageIndex":7,"items":[{"name":"홍성축산물도매센타","tel":"031-405-7283","addr":"경기도 안산시 상록구 월피동 442번지 1층","indutype":"음료식품 - 정육점","category":"food"},{"name":"홍성한우촌축산물직판장","tel":"031-405-7283","addr":"경기도 안산시 상록구 월피동 442번지 105호","indutype":"음료식품 - 정육점","category":"food"}]},{"lat":"37.334529029","long":"126.84756974","imageIndex":7,"items":[{"name":"황금건강원","tel":"031-413-7020","addr":"경기도 안산시 상록구 월피동 486-6번지 1층","indutype":"건강식품 - 기타건강식품","category":"food"}]}]