[{"lat":"37.424632803","long":"127.01019141","imageIndex":4,"items":[{"name":"Arabica","tel":"031-000-0000","addr":"경기도 과천시 문원동 115-64번지 401호","indutype":"일반휴게음식 - 서양음식","category":"restaurant"}]},{"lat":"37.423858107","long":"126.99922162","imageIndex":4,"items":[{"name":"가원갤러리카페","tel":"02-504-3730","addr":"경기도 과천시 문원동 226번지 가원미술관 1층","indutype":"일반휴게음식 - 서양음식","category":"restaurant"}]},{"lat":"37.415938005","long":"126.99417263","imageIndex":4,"items":[{"name":"강릉동치미막국수","tel":"02-503-1199","addr":"경기도 과천시 문원동 488-4번지","indutype":"일반휴게음식 - 일반한식","category":"restaurant"}]},{"lat":"37.428299546","long":"126.9912789","imageIndex":4,"items":[{"name":"강릉동치미막국수","tel":"02-503-1199","addr":"경기도 과천시 문원동 488-4","indutype":"음식점업 - 한식","category":"restaurant"}]},{"lat":"37.413694364","long":"126.99250111","imageIndex":4,"items":[{"name":"건국식당","tel":"","addr":"경기도 과천시 문원동 902-26번지 1필지","indutype":"일반휴게음식 - 일반한식","category":"restaurant"}]},{"lat":"37.416298437","long":"126.99459054","imageIndex":4,"items":[{"name":"과천골","tel":"02-503-1195","addr":"경기도 과천시 문원동 485-4번지","indutype":"일반휴게음식 - 일반한식","category":"restaurant"},{"name":"과천골정육식당","tel":"02-503-1195","addr":"경기도 과천시 문원동 485-4번지 1,2층","indutype":"일반휴게음식 - 일반한식","category":"restaurant"}]},{"lat":"37.420578027","long":"126.99225162","imageIndex":4,"items":[{"name":"과천골정육식당","tel":"02-503-1195","addr":"경기도 과천시 문원동 485-4번지 1,2층","indutype":"음식점업 - 한식","category":"restaurant"},{"name":"쉼터","tel":"02-502-7277","addr":"경기도 과천시 문원동 323-7번지 1층","indutype":"음식점업 - 커피","category":"restaurant"},{"name":"아라비카","tel":"02-504-0202","addr":"경기도 과천시 문원동 115-64번지 101호","indutype":"음식점업 - 커피","category":"restaurant"}]},{"lat":"37.424777104","long":"127.00736706","imageIndex":4,"items":[{"name":"나무그늘","tel":"02-2185-8059","addr":"경기도 과천시 문원동 178-3번지 문원도서관내 쉼터 3층","indutype":"일반휴게음식 - 서양음식","category":"restaurant"}]},{"lat":"37.428777645","long":"127.00197811","imageIndex":4,"items":[{"name":"나무그늘 까페","tel":"031-2185-8059","addr":"경기도 과천시 문원동 31-3번지 장애인복지관 1층 115호","indutype":"일반휴게음식 - 서양음식","category":"restaurant"}]},{"lat":"37.428191537","long":"126.99247651","imageIndex":4,"items":[{"name":"농부네수제갈비","tel":"02-504-7233","addr":"경기도 과천시 문원동 224번지","indutype":"음식점업 - 한식","category":"restaurant"},{"name":"희망드림공동작업장,카페나루","tel":"02-509-7680","addr":"경기도 과천시 문원동 15-168번지 과천시노인복지관","indutype":"음식점업 - 커피","category":"restaurant"}]},{"lat":"37.426579184","long":"127.00102913","imageIndex":4,"items":[{"name":"다인푸드","tel":"02-503-4949","addr":"경기도 과천시 문원동 199번지 청소년수련관 3층","indutype":"일반휴게음식 - 일반한식","category":"restaurant"}]},{"lat":"37.427470731","long":"126.99244271","imageIndex":4,"items":[{"name":"더푸짐","tel":"02-504-8500","addr":"경기도 과천시 문원동 948-2번지","indutype":"음식점업 - 한식","category":"restaurant"}]},{"lat":"37.411189961","long":"126.99910928","imageIndex":4,"items":[{"name":"더푸짐","tel":"02-504-8500","addr":"경기도 과천시 문원동 948-2번지","indutype":"일반휴게음식 - 일반한식","category":"restaurant"}]},{"lat":"37.423389588","long":"126.99933461","imageIndex":4,"items":[{"name":"도깨비를 물리친 농부네 수제갈비/(주)조은","tel":"02-3679-7755","addr":"경기도 과천시 문원동 224번지","indutype":"일반휴게음식 - 일반한식","category":"restaurant"}]},{"lat":"37.421749634","long":"127.00938904","imageIndex":4,"items":[{"name":"만나식당까페","tel":"02-500-3456","addr":"경기도 과천시 문원동 115-354번지","indutype":"일반휴게음식 - 서양음식","category":"restaurant"}]},{"lat":"37.42424543","long":"127.00916331","imageIndex":4,"items":[{"name":"멕시칸","tel":"02-507-1003","addr":"경기도 과천시 문원동 115-153번지","indutype":"일반휴게음식 - 일반한식","category":"restaurant"}]},{"lat":"37.451356507","long":"126.99502743","imageIndex":4,"items":[{"name":"멕시칸","tel":"02-507-1003","addr":"경기도 과천시 문원동 115-153번지","indutype":"음식점업 - 기타","category":"restaurant"}]},{"lat":"37.424299524","long":"127.00849677","imageIndex":4,"items":[{"name":"문원식당","tel":"02-503-0239","addr":"경기도 과천시 문원동 115-92번지 마을회관 1층","indutype":"일반휴게음식 - 일반한식","category":"restaurant"}]},{"lat":"37.423218266","long":"127.00950214","imageIndex":4,"items":[{"name":"부흥정육점식당","tel":"02-504-2050","addr":"경기도 과천시 문원동 115-305번지","indutype":"일반휴게음식 - 일반한식","category":"restaurant"}]},{"lat":"37.413496258","long":"126.99391311","imageIndex":4,"items":[{"name":"세곡산촌가든","tel":"02-502-3696","addr":"경기도 과천시 문원동 906-1번지","indutype":"일반휴게음식 - 일반한식","category":"restaurant"}]},{"lat":"37.428993889","long":"127.00341297","imageIndex":4,"items":[{"name":"숟가락협동조합","tel":"031-502-5105","addr":"경기도 과천시 문원동 15-111번지 G동 1층","indutype":"일반휴게음식 - 일반한식","category":"restaurant"}]},{"lat":"37.420389232","long":"126.99905234","imageIndex":4,"items":[{"name":"쉼터","tel":"02-502-7277","addr":"경기도 과천시 문원동 323-7번지 1층","indutype":"일반휴게음식 - 서양음식","category":"restaurant"}]},{"lat":"37.424353377","long":"126.99392311","imageIndex":4,"items":[{"name":"싱싱포차","tel":"02-3679-9514","addr":"경기도 과천시 문원동 115-154번지 1층","indutype":"음식점업 - 호프","category":"restaurant"}]},{"lat":"37.426578609","long":"126.99108711","imageIndex":4,"items":[{"name":"쌀로만카스텔라","tel":"","addr":"경기도 과천시 문원동 115-154번지 1층","indutype":"음식점업 - 빵및과자","category":"restaurant"}]},{"lat":"37.424443686","long":"127.00847418","imageIndex":4,"items":[{"name":"아재네","tel":"02-503-8511","addr":"경기도 과천시 문원동 115-91번지","indutype":"일반휴게음식 - 일반한식","category":"restaurant"}]},{"lat":"37.447797006","long":"127.0167256","imageIndex":4,"items":[{"name":"아재네","tel":"02-6369-4785","addr":"경기도 과천시 문원동 115-91번지","indutype":"음식점업 - 휴게음식","category":"restaurant"}]},{"lat":"37.411279738","long":"126.99335989","imageIndex":4,"items":[{"name":"옛날에","tel":"02-502-7588","addr":"경기도 과천시 문원동 1019-3번지","indutype":"일반휴게음식 - 일반한식","category":"restaurant"}]},{"lat":"37.427686932","long":"126.99200206","imageIndex":4,"items":[{"name":"옛날에","tel":"02-502-7587","addr":"경기도 과천시 문원동 1019-3번지","indutype":"음식점업 - 한식","category":"restaurant"}]},{"lat":"37.43271462","long":"126.99297302","imageIndex":4,"items":[{"name":"유천옥","tel":"02-507-7741","addr":"경기도 과천시 문원동 103-1번지","indutype":"음식점업 - 한식","category":"restaurant"}]},{"lat":"37.435273762","long":"127.0082829","imageIndex":4,"items":[{"name":"집밥여왕의 알찬반찬만찬","tel":"02-507-5517","addr":"경기도 과천시 문원동 115-113번지 지층 2호","indutype":"음식점업 - 한식","category":"restaurant"}]},{"lat":"37.459354971","long":"127.02805302","imageIndex":4,"items":[{"name":"플로라","tel":"02-503-4564","addr":"경기도 과천시 문원동 228","indutype":"음식점업 - 한식","category":"restaurant"}]},{"lat":"37.429471418","long":"127.00388749","imageIndex":4,"items":[{"name":"하림멕시칸","tel":"02-502-9275","addr":"경기도 과천시 문원동 15-75번지 준영빌딩","indutype":"일반휴게음식 - 스넥","category":"restaurant"}]},{"lat":"37.426749933","long":"126.9924993","imageIndex":4,"items":[{"name":"하림멕시칸","tel":"02-502-9275","addr":"경기도 과천시 문원동 15-75번지 준영빌딩","indutype":"음식점업 - 치킨","category":"restaurant"}]},{"lat":"37.427245524","long":"126.99295115","imageIndex":4,"items":[{"name":"한스케익","tel":"02-502-0933","addr":"경기도 과천시 문원동 228번지","indutype":"음식점업 - 케이크","category":"restaurant"}]},{"lat":"37.424497836","long":"126.99975257","imageIndex":4,"items":[{"name":"한스케익 과천점","tel":"02-502-0933","addr":"경기도 과천시 문원동 228번지","indutype":"일반휴게음식 - 서양음식","category":"restaurant"}]},{"lat":"37.41277549","long":"126.9944215","imageIndex":4,"items":[{"name":"할머니 보리밥","tel":"02-503-4793","addr":"경기도 과천시 문원동 923-3번지","indutype":"일반휴게음식 - 일반한식","category":"restaurant"}]},{"lat":"37.428074857","long":"127.0043055","imageIndex":4,"items":[{"name":"희망드림공동작업장,카페나루","tel":"02-509-7680","addr":"경기도 과천시 문원동 15-168번지","indutype":"일반휴게음식 - 서양음식","category":"restaurant"}]}]