[{"lat":"37.270622245","long":"127.00080748","imageIndex":5,"items":[{"name":"골드타워모텔","tel":"031-225-8416","addr":"경기도 수원시 팔달구 고등동 232-3번지","indutype":"숙박업 - 여관/기타숙박업","category":"hotel"},{"name":"골드타워장","tel":"031-255-8416","addr":"경기도 수원시 팔달구 고등동 232-3번지","indutype":"숙박업 - 여관/기타숙박업","category":"hotel"}]},{"lat":"37.269991543","long":"127.00266776","imageIndex":5,"items":[{"name":"모텔러브","tel":"031-258-9968","addr":"경기도 수원시 팔달구 고등동 300-10번지","indutype":"숙박업 - 여관/기타숙박업","category":"hotel"}]},{"lat":"37.270126689","long":"127.00433636","imageIndex":5,"items":[{"name":"비즈호텔","tel":"031-245-5588","addr":"경기도 수원시 팔달구 고등동 115-4번지 ,3-15층","indutype":"숙박업 - 여관/기타숙박업","category":"hotel"}]},{"lat":"37.270847518","long":"127.00205894","imageIndex":5,"items":[{"name":"산장여관","tel":"031-247-3728","addr":"경기도 수원시 팔달구 고등동 241-1","indutype":"숙박업 - 여관/기타숙박업","category":"hotel"}]},{"lat":"37.270018574","long":"127.00283688","imageIndex":5,"items":[{"name":"선화장여관","tel":"031-256-6777","addr":"경기도 수원시 팔달구 고등동 300-11번지 3층 2호","indutype":"숙박업 - 여관/기타숙박업","category":"hotel"}]},{"lat":"37.270487108","long":"127.00225061","imageIndex":5,"items":[{"name":"아이비스테이","tel":"031-246-7799","addr":"경기도 수원시 팔달구 고등동 303-2번지","indutype":"숙박업 - 여관/기타숙박업","category":"hotel"}]},{"lat":"37.270351953","long":"127.00217169","imageIndex":5,"items":[{"name":"아이비스테이","tel":"031-246-7799","addr":"경기도 수원시 팔달구 고등동 303-3번지","indutype":"숙박업 - 여관/기타숙박업","category":"hotel"},{"name":"아이비스테이","tel":"031-246-7799","addr":"경기도 수원시 팔달구 고등동 303-3번지","indutype":"숙박업 - 여관/기타숙박업","category":"hotel"}]},{"lat":"37.27051412","long":"127.00069474","imageIndex":5,"items":[{"name":"에이세븐호텔(A7호텔)","tel":"031-246-5507","addr":"경기도 수원시 팔달구 고등동 229-1번지","indutype":"숙박업 - 여관/기타숙박업","category":"hotel"}]},{"lat":"37.27073938","long":"127.00089768","imageIndex":5,"items":[{"name":"영빈장","tel":"031-244-4295","addr":"경기도 수원시 팔달구 고등동 232-1번지","indutype":"숙박업 - 여관/기타숙박업","category":"hotel"}]},{"lat":"37.270460075","long":"127.00205894","imageIndex":5,"items":[{"name":"조이모텔","tel":"031-111-1111","addr":"경기도 수원시 팔달구 고등동 303-14번지 ,2-3층","indutype":"숙박업 - 여관/기타숙박업","category":"hotel"}]},{"lat":"37.270126697","long":"127.00234081","imageIndex":5,"items":[{"name":"체크인모텔","tel":"031-245-2522","addr":"경기도 수원시 팔달구 고등동 300-6번지","indutype":"숙박업 - 여관/기타숙박업","category":"hotel"}]},{"lat":"37.270378965","long":"127.0006722","imageIndex":5,"items":[{"name":"토마토모텔","tel":"031-247-8893","addr":"경기도 수원시 팔달구 고등동 263-1번지","indutype":"숙박업 - 여관/기타숙박업","category":"hotel"}]},{"lat":"37.269955502","long":"127.00308491","imageIndex":5,"items":[{"name":"팰리스가족호텔","tel":"031-243-9533","addr":"경기도 수원시 팔달구 고등동 300-13번지","indutype":"숙박업 - 여관/기타숙박업","category":"hotel"}]},{"lat":"37.269991543","long":"127.00297217","imageIndex":5,"items":[{"name":"해시호텔(HASH HOTEL)","tel":"031-251-8881","addr":"경기도 수원시 팔달구 고등동 300-12번지","indutype":"숙박업 - 여관/기타숙박업","category":"hotel"}]}]