[{"lat":"37.529292884","long":"127.17545375","imageIndex":17,"items":[{"name":"(주)네온테크","tel":"02-441-1229","addr":"경기도 하남시 광암동 49번지","indutype":"용역 서비스 - 종합용역","category":"other"},{"name":"새로운렌탈","tel":"02-3427-0030","addr":"경기도 하남시 광암동 49번지","indutype":"신변잡화 - 기타잡화","category":"other"}]},{"lat":"37.531817468","long":"127.17420376","imageIndex":17,"items":[{"name":"(주)동양도어테크","tel":"02-1234-1234","addr":"경기도 하남시 광암동 16-5번지 1층","indutype":"건축자재 - 기타건축자재","category":"other"}]},{"lat":"37.51443151","long":"127.17203755","imageIndex":17,"items":[{"name":"(주)제이와이푸드","tel":"031-796-6906","addr":"경기도 하남시 광암동 273-8번지","indutype":"주방용구 - 주방용구","category":"other"}]},{"lat":"37.525071801","long":"127.17231045","imageIndex":17,"items":[{"name":"(주)하이언트커뮤니케이션즈","tel":"02-6956-4556","addr":"경기도 하남시 광암동 407-6번지 우리콤텍스타일하남공장 201호","indutype":"의류 - 기타의류","category":"other"},{"name":"주식회사 성원인터내셔널","tel":"02-525-1819","addr":"경기도 하남시 광암동 407-6번지 5층","indutype":"레져용품 - 스포츠·레져용품","category":"other"}]},{"lat":"37.530070917","long":"127.17326076","imageIndex":17,"items":[{"name":"GS25하남광암점","tel":"","addr":"경기도 하남시 광암동 36-4번지","indutype":"유통업 영리 - 편 의 점","category":"other"}]},{"lat":"37.527014119","long":"127.17495074","imageIndex":17,"items":[{"name":"TK 우드","tel":"02-441-3181","addr":"경기도 하남시 광암동 98-2번지","indutype":"건축자재 - 기타건축자재","category":"other"}]},{"lat":"37.532378122","long":"127.17279083","imageIndex":17,"items":[{"name":"경원위브하우징","tel":"031-794-0073","addr":"경기도 하남시 광암동 5-1번지","indutype":"건축자재 - 기타건축자재","category":"other"}]},{"lat":"37.512713154","long":"127.17025789","imageIndex":17,"items":[{"name":"고성테크닉스","tel":"02-470-9926","addr":"경기도 하남시 광암동 312-8번지","indutype":"용역 서비스 - 종합용역","category":"other"}]},{"lat":"37.519435658","long":"127.17573647","imageIndex":17,"items":[{"name":"꽃보는 강아지","tel":"070-0000-0000","addr":"경기도 하남시 광암동 196-1번지","indutype":"문화.취미 - 애완동물","category":"other"}]},{"lat":"37.516180862","long":"127.1710348","imageIndex":17,"items":[{"name":"꿈의다육","tel":"02-471-6982","addr":"경기도 하남시 광암동 223-1번지","indutype":"문화.취미 - 화원","category":"other"},{"name":"은혜농원","tel":"031-111-1111","addr":"경기도 하남시 광암동 223-1번지","indutype":"문화.취미 - 화원","category":"other"}]},{"lat":"37.531565799","long":"127.17378458","imageIndex":17,"items":[{"name":"나우유통","tel":"02-456-4946","addr":"경기도 하남시 광암동 16-3번지","indutype":"유통업 영리 - 기타유통업","category":"other"}]},{"lat":"37.532684065","long":"127.17306306","imageIndex":17,"items":[{"name":"대경기업","tel":"02-477-7374","addr":"경기도 하남시 광암동 4번지","indutype":"건축자재 - 보일러·펌프·샷시","category":"other"}]},{"lat":"37.52554114","long":"127.17173456","imageIndex":17,"items":[{"name":"대광유리","tel":"031-111-1111","addr":"경기도 하남시 광암동 406-3번지","indutype":"건축자재 - 유리","category":"other"}]},{"lat":"37.522322575","long":"127.17315264","imageIndex":17,"items":[{"name":"리드통상","tel":"070-5067-1234","addr":"경기도 하남시 광암동 180-1번지 2층","indutype":"신변잡화 - 기타잡화","category":"other"}]},{"lat":"37.529653278","long":"127.17545458","imageIndex":17,"items":[{"name":"부림공조시스템","tel":"02-3159-3001","addr":"경기도 하남시 광암동 44-1번지","indutype":"전기제품 - 가전제품","category":"other"}]},{"lat":"37.516901571","long":"127.17109297","imageIndex":17,"items":[{"name":"삼영천막기업","tel":"031-471-5600","addr":"경기도 하남시 광암동 220-1번지","indutype":"직물 - 카페트,커튼,천막,지물","category":"other"}]},{"lat":"37.53157417","long":"127.17422583","imageIndex":17,"items":[{"name":"삼진상사","tel":"02-426-5906","addr":"경기도 하남시 광암동 16-4번지","indutype":"가구 - 일반가구","category":"other"},{"name":"삼진앤틱가구","tel":"","addr":"경기도 하남시 광암동 16-4번지","indutype":"가구 - 일반가구","category":"other"},{"name":"이강테크","tel":"02-428-8504","addr":"경기도 하남시 광암동 16-4번지","indutype":"건축자재 - 기타건축자재","category":"other"}]},{"lat":"37.526574131","long":"127.17392026","imageIndex":17,"items":[{"name":"서울중앙안전","tel":"031-478-2022","addr":"경기도 하남시 광암동 96-1번지","indutype":"기타 - 기계공구","category":"other"}]},{"lat":"37.516987232","long":"127.17418117","imageIndex":17,"items":[{"name":"세화자동기계","tel":"02-482-3187","addr":"경기도 하남시 광암동 211-1번지","indutype":"기타 - 기계공구","category":"other"}]},{"lat":"37.517072356","long":"127.17137614","imageIndex":17,"items":[{"name":"신선상사","tel":"02-472-7819","addr":"경기도 하남시 광암동 170-5번지 외1필지","indutype":"유통업 영리 - 기타유통업","category":"other"}]},{"lat":"37.529872063","long":"127.17370153","imageIndex":17,"items":[{"name":"신영우드","tel":"02-481-5049","addr":"경기도 하남시 광암동 36-1번지","indutype":"건축자재 - 기타건축자재","category":"other"}]},{"lat":"37.529706691","long":"127.17589592","imageIndex":17,"items":[{"name":"알리다그룹(주)","tel":"02-426-6844","addr":"경기도 하남시 광암동 45번지","indutype":"건축자재 - 인테리어전문","category":"other"}]},{"lat":"37.525544737","long":"127.17547906","imageIndex":17,"items":[{"name":"에스비상사","tel":"02-478-9004","addr":"경기도 하남시 광암동 111-3번지","indutype":"기타 - 기계공구","category":"other"}]},{"lat":"37.517043382","long":"127.17273344","imageIndex":17,"items":[{"name":"와일드기어","tel":"02-488-1450","addr":"경기도 하남시 광암동 214-5번지","indutype":"레져용품 - 스포츠·레져용품","category":"other"}]},{"lat":"37.524851094","long":"127.17539827","imageIndex":17,"items":[{"name":"우정아스팔트","tel":"02-471-7948","addr":"경기도 하남시 광암동 114-4번지","indutype":"건축자재 - 기타건축자재","category":"other"}]},{"lat":"37.528323251","long":"127.17308709","imageIndex":17,"items":[{"name":"이마트24 하남광암점","tel":"","addr":"경기도 하남시 광암동 402번지 1층 이마트 24","indutype":"유통업 영리 - 편 의 점","category":"other"}]},{"lat":"37.52193471","long":"127.17345719","imageIndex":17,"items":[{"name":"제이투코리아","tel":"031-483-1508","addr":"경기도 하남시 광암동 181-3번지","indutype":"유통업 영리 - 농축수산 가공품","category":"other"}]},{"lat":"37.517042666","long":"127.17323114","imageIndex":17,"items":[{"name":"제일농원","tel":"02-484-3002","addr":"경기도 하남시 광암동 210-8번지 정면우측 2동","indutype":"문화.취미 - 화원","category":"other"}]},{"lat":"37.515375236","long":"127.17364586","imageIndex":17,"items":[{"name":"조우","tel":"02-475-8001","addr":"경기도 하남시 광암동 228번지","indutype":"직물 - 카페트,커튼,천막,지물","category":"other"}]},{"lat":"37.532736882","long":"127.17392302","imageIndex":17,"items":[{"name":"주식회사 대용","tel":"02-476-0038","addr":"경기도 하남시 광암동 4-3번지","indutype":"신변잡화 - 기타잡화","category":"other"}]},{"lat":"37.52615147","long":"127.17336497","imageIndex":17,"items":[{"name":"주식회사 영진플로링","tel":"02-478-0481","addr":"경기도 하남시 광암동 87-2번지","indutype":"건축자재 - 기타건축자재","category":"other"}]},{"lat":"37.515543264","long":"127.17581798","imageIndex":17,"items":[{"name":"주식회사디자인끌림","tel":"02-400-8818","addr":"경기도 하남시 광암동 248-1번지","indutype":"용역 서비스 - 종합용역","category":"other"}]},{"lat":"37.524512817","long":"127.17256937","imageIndex":17,"items":[{"name":"즐거운 캠핑","tel":"02-441-4484","addr":"경기도 하남시 광암동 409-4번지 1층","indutype":"레져용품 - 스포츠·레져용품","category":"other"}]},{"lat":"37.526682724","long":"127.17359244","imageIndex":17,"items":[{"name":"케이알우드주식회사","tel":"02-3427-4622","addr":"경기도 하남시 광암동 91번지","indutype":"건축자재 - 기타건축자재","category":"other"}]},{"lat":"37.532071119","long":"127.173254","imageIndex":17,"items":[{"name":"크로바","tel":"02-3427-0892","addr":"경기도 하남시 광암동 7-5번지","indutype":"건축자재 - 기타건축자재","category":"other"}]},{"lat":"37.523157473","long":"127.175236","imageIndex":17,"items":[{"name":"태평양송파대리점","tel":"02-414-3351","addr":"경기도 하남시 광암동 137-1번지","indutype":"기타 - 기타 전문점","category":"other"}]},{"lat":"37.524517564","long":"127.17551063","imageIndex":17,"items":[{"name":"파나윈커버","tel":"02-489-0100","addr":"경기도 하남시 광암동 119-1번지","indutype":"건축자재 - 기타건축자재","category":"other"}]},{"lat":"37.531295978","long":"127.17345588","imageIndex":17,"items":[{"name":"하나유통","tel":"02-426-0990","addr":"경기도 하남시 광암동 16-1번지","indutype":"유통업 영리 - 기타유통업","category":"other"}]},{"lat":"37.512902089","long":"127.1704506","imageIndex":17,"items":[{"name":"행복상사","tel":"02-498-8023","addr":"경기도 하남시 광암동 312-3번지","indutype":"유통업 영리 - 기타유통업","category":"other"}]}]