[{"lat":"37.304230414","long":"126.99772727","imageIndex":13,"items":[{"name":"21세기노래연습장","tel":"031-207-0449","addr":"경기도 수원시 장안구 파장동 461-40번지 할인백화점 지하층","indutype":"레저업소 - 노 래 방","category":"leisure"}]},{"lat":"37.308924035","long":"126.98895102","imageIndex":13,"items":[{"name":"K.S.M.P 무술학교(정자관)","tel":"031-248-0113","addr":"경기도 수원시 장안구 파장동 570-12번지 2층","indutype":"레저업소 - 헬스클럽","category":"leisure"}]},{"lat":"37.305401669","long":"126.99622701","imageIndex":13,"items":[{"name":"LEGEND PC방","tel":"","addr":"경기도 수원시 장안구 파장동 599-24번지 2층","indutype":"레저업소 - 기타레져업소","category":"leisure"},{"name":"주식회사 참스포츠씨엘키즈","tel":"031-241-6758","addr":"경기도 수원시 장안구 파장동 599-24번지 지하","indutype":"레저업소 - 수 영 장","category":"leisure"},{"name":"현피트니스","tel":"070-7786-8017","addr":"경기도 수원시 장안구 파장동 599-24번지 2층 202호","indutype":"레저업소 - 헬스클럽","category":"leisure"}]},{"lat":"37.308203657","long":"126.99339548","imageIndex":13,"items":[{"name":"OK당구장 파장점","tel":"031-268-1505","addr":"경기도 수원시 장안구 파장동 578번지","indutype":"레저업소 - 당 구 장","category":"leisure"}]},{"lat":"37.305203467","long":"126.99664437","imageIndex":13,"items":[{"name":"가비노래연습장","tel":"031-241-6784","addr":"경기도 수원시 장안구 파장동 599-23번지 지하층","indutype":"레저업소 - 노 래 방","category":"leisure"}]},{"lat":"37.309230356","long":"126.98872536","imageIndex":13,"items":[{"name":"가온요가 1호점","tel":"031-268-7778","addr":"경기도 수원시 장안구 파장동 570-8번지 4층 402호","indutype":"레저업소 - 헬스클럽","category":"leisure"}]},{"lat":"37.30561789","long":"126.99580964","imageIndex":13,"items":[{"name":"데일리요가","tel":"031-257-0129","addr":"경기도 수원시 장안구 파장동 591-6번지 2층","indutype":"레저업소 - 헬스클럽","category":"leisure"}]},{"lat":"37.306897018","long":"126.99161343","imageIndex":13,"items":[{"name":"럭셔리노래연습장","tel":"031-271-3347","addr":"경기도 수원시 장안구 파장동 572-40번지 2층","indutype":"레저업소 - 노 래 방","category":"leisure"}]},{"lat":"37.30614925","long":"126.99250464","imageIndex":13,"items":[{"name":"반 필라테스","tel":"02-0000-0000","addr":"경기도 수원시 장안구 파장동 581-1번지 5층 2호","indutype":"레저업소 - 헬스클럽","category":"leisure"}]},{"lat":"37.305617904","long":"126.99603524","imageIndex":13,"items":[{"name":"버디골프아카데미","tel":"070-8966-1143","addr":"경기도 수원시 장안구 파장동 599번지 지하1층","indutype":"레저업소 - 골프연습장","category":"leisure"}]},{"lat":"37.310374714","long":"126.98923276","imageIndex":13,"items":[{"name":"비에이티(BAT)","tel":"","addr":"경기도 수원시 장안구 파장동 564-17번지","indutype":"레저업소 - 헬스클럽","category":"leisure"}]},{"lat":"37.308789331","long":"126.99350821","imageIndex":13,"items":[{"name":"산울림노래연습장","tel":"031-269-1441","addr":"경기도 수원시 장안구 파장동 575-20번지 지하1층","indutype":"레저업소 - 노 래 방","category":"leisure"}]},{"lat":"37.305816038","long":"126.99461398","imageIndex":13,"items":[{"name":"세롬당구장","tel":"031-258-2355","addr":"경기도 수원시 장안구 파장동 590-9번지 2층","indutype":"레저업소 - 당 구 장","category":"leisure"}]},{"lat":"37.3034555","long":"126.99700545","imageIndex":13,"items":[{"name":"수노래연습장","tel":"031-245-7776","addr":"경기도 수원시 장안구 파장동 495-31번지 중앙빌딩 지층","indutype":"레저업소 - 노 래 방","category":"leisure"}]},{"lat":"37.309510265","long":"126.99512119","imageIndex":13,"items":[{"name":"스카이스크린골프연습장","tel":"031-268-3332","addr":"경기도 수원시 장안구 파장동 267-5번지 301호","indutype":"레저업소 - 스크린골프","category":"leisure"},{"name":"우리골프학교","tel":"031-268-3332","addr":"경기도 수원시 장안구 파장동 267-5번지 3층","indutype":"레저업소 - 스크린골프","category":"leisure"},{"name":"주식회사 우리골프","tel":"031-268-3337","addr":"경기도 수원시 장안구 파장동 267-5번지 세화빌딩 3층 301호","indutype":"레저업소 - 골프연습장","category":"leisure"}]},{"lat":"37.307735223","long":"126.99470401","imageIndex":13,"items":[{"name":"신나는노래연습장","tel":"031-253-6653","addr":"경기도 수원시 장안구 파장동 583-12번지 지층","indutype":"레저업소 - 노 래 방","category":"leisure"}]},{"lat":"37.308897483","long":"126.99389172","imageIndex":13,"items":[{"name":"쌍쌍노래연습장","tel":"031-257-2506","addr":"경기도 수원시 장안구 파장동 576-6번지 지하층","indutype":"레저업소 - 노 래 방","category":"leisure"}]},{"lat":"37.304257397","long":"126.9967234","imageIndex":13,"items":[{"name":"아이비스pc","tel":"070-7997-4037","addr":"경기도 수원시 장안구 파장동 495-24번지 2층","indutype":"레저업소 - 기타레져업소","category":"leisure"},{"name":"이레당구클럽","tel":"031-248-8010","addr":"경기도 수원시 장안구 파장동 495-24번지","indutype":"레저업소 - 당 구 장","category":"leisure"}]},{"lat":"37.307591081","long":"126.99503114","imageIndex":13,"items":[{"name":"에이스 노래연습장","tel":"031-246-3467","addr":"경기도 수원시 장안구 파장동 588번지 생수빌딩","indutype":"레저업소 - 노 래 방","category":"leisure"}]},{"lat":"37.306978246","long":"126.99314748","imageIndex":13,"items":[{"name":"연꽃노래연습장","tel":"031-271-7756","addr":"경기도 수원시 장안구 파장동 579-27번지 장수숯불갈비 B동 2층","indutype":"레저업소 - 노 래 방","category":"leisure"}]},{"lat":"37.307348012","long":"126.99930625","imageIndex":13,"items":[{"name":"용당구클럽","tel":"070-7576-2948","addr":"경기도 수원시 장안구 파장동 627-10번지 오토헬스프라자 2층","indutype":"레저업소 - 당 구 장","category":"leisure"}]},{"lat":"37.304789042","long":"126.99759188","imageIndex":13,"items":[{"name":"웰빙당구클럽","tel":"031-241-0793","addr":"경기도 수원시 장안구 파장동 600-18번지 3층","indutype":"레저업소 - 당 구 장","category":"leisure"}]},{"lat":"37.308681223","long":"126.99369998","imageIndex":13,"items":[{"name":"장안S복싱","tel":"031-254-6312","addr":"경기도 수원시 장안구 파장동 577번지 미광빌딩 지하층","indutype":"레저업소 - 헬스클럽","category":"leisure"}]},{"lat":"37.304680869","long":"126.99656546","imageIndex":13,"items":[{"name":"쟁반노래연습장","tel":"031-252-6658","addr":"경기도 수원시 장안구 파장동 495-43번지","indutype":"레저업소 - 노 래 방","category":"leisure"}]},{"lat":"37.308347882","long":"126.99419634","imageIndex":13,"items":[{"name":"제이에스(JS)골프클럽","tel":"031-269-7718","addr":"경기도 수원시 장안구 파장동 577-2번지 영림프라자 201호","indutype":"레저업소 - 골프연습장","category":"leisure"}]},{"lat":"37.304761978","long":"126.99689256","imageIndex":13,"items":[{"name":"짱 노래연습장","tel":"031-241-0709","addr":"경기도 수원시 장안구 파장동 501-14번지 순복음열림교회 지하1층","indutype":"레저업소 - 노 래 방","category":"leisure"}]},{"lat":"37.306978616","long":"127.00019737","imageIndex":13,"items":[{"name":"톱스타노래연습장","tel":"031-255-3205","addr":"경기도 수원시 장안구 파장동 627-6번지 지하","indutype":"레저업소 - 노 래 방","category":"leisure"}]},{"lat":"37.30365374","long":"126.99730998","imageIndex":13,"items":[{"name":"투투노래연습장","tel":"031-247-6001","addr":"경기도 수원시 장안구 파장동 501-34번지","indutype":"레저업소 - 노 래 방","category":"leisure"}]},{"lat":"37.304536774","long":"126.99800924","imageIndex":13,"items":[{"name":"판코리아 노래연습장","tel":"031-256-6177","addr":"경기도 수원시 장안구 파장동 600-15번지","indutype":"레저업소 - 노 래 방","category":"leisure"}]},{"lat":"37.305870116","long":"126.99486213","imageIndex":13,"items":[{"name":"팡팡노래연습장","tel":"031-254-1755","addr":"경기도 수원시 장안구 파장동 590-7번지","indutype":"레저업소 - 노 래 방","category":"leisure"}]},{"lat":"37.307095327","long":"126.99253835","imageIndex":13,"items":[{"name":"한성볼링센터","tel":"031-241-6642","addr":"경기도 수원시 장안구 파장동 580번지","indutype":"레저업소 - 볼 링 장","category":"leisure"}]},{"lat":"37.307284947","long":"126.99953185","imageIndex":13,"items":[{"name":"헬스원","tel":"031-253-0605","addr":"경기도 수원시 장안구 파장동 627-9번지 2층","indutype":"레저업소 - 헬스클럽","category":"leisure"}]}]