[{"lat":"37.260791458","long":"127.01458329","imageIndex":7,"items":[{"name":"21세기할인마트","tel":"031-238-0577","addr":"경기도 수원시 권선구 세류동 152-37번지 1층","indutype":"유통업 영리 - 슈퍼마켓","category":"mart"}]},{"lat":"37.256267747","long":"127.01914786","imageIndex":7,"items":[{"name":"365할인마트","tel":"031-235-5880","addr":"경기도 수원시 권선구 세류동 1083번지 1층","indutype":"유통업 영리 - 슈퍼마켓","category":"mart"}]},{"lat":"37.261792006","long":"127.00928509","imageIndex":7,"items":[{"name":"D.S마트","tel":"031-232-2956","addr":"경기도 수원시 권선구 세류동 220번지","indutype":"유통업 영리 - 슈퍼마켓","category":"mart"}]},{"lat":"37.255881107","long":"127.01150521","imageIndex":7,"items":[{"name":"S(에스)마트","tel":"031-237-1318","addr":"경기도 수원시 권선구 세류동 537번지","indutype":"유통업 영리 - 슈퍼마켓","category":"mart"}]},{"lat":"37.259548313","long":"127.01133654","imageIndex":7,"items":[{"name":"굿모닝마트","tel":"031-237-6539","addr":"경기도 수원시 권선구 세류동 475-2번지","indutype":"유통업 영리 - 슈퍼마켓","category":"mart"}]},{"lat":"37.250771926","long":"127.01528057","imageIndex":7,"items":[{"name":"기린슈퍼","tel":"031-233-2561","addr":"경기도 수원시 권선구 세류동 1132번지","indutype":"유통업 영리 - 슈퍼마켓","category":"mart"}]},{"lat":"37.25282614","long":"127.01653207","imageIndex":7,"items":[{"name":"남양마트","tel":"","addr":"경기도 수원시 권선구 세류동 1108-23번지 1층","indutype":"유통업 영리 - 슈퍼마켓","category":"mart"}]},{"lat":"37.251628251","long":"127.01136947","imageIndex":7,"items":[{"name":"노마진마트","tel":"031-237-5795","addr":"경기도 수원시 권선구 세류동 580-17번지 1층","indutype":"유통업 영리 - 슈퍼마켓","category":"mart"}]},{"lat":"37.253214142","long":"127.0102312","imageIndex":7,"items":[{"name":"늘푸른마트","tel":"031-232-6690","addr":"경기도 수원시 권선구 세류동 565-6번지","indutype":"유통업 영리 - 슈퍼마켓","category":"mart"}]},{"lat":"37.253015425","long":"127.01592343","imageIndex":7,"items":[{"name":"다농할인마트세류점","tel":"031-233-1079","addr":"경기도 수원시 권선구 세류동 1109-14번지","indutype":"유통업 영리 - 슈퍼마켓","category":"mart"}]},{"lat":"37.258881343","long":"127.01386154","imageIndex":7,"items":[{"name":"도솔마트","tel":"031-233-4733","addr":"경기도 수원시 권선구 세류동 521-11번지","indutype":"유통업 영리 - 슈퍼마켓","category":"mart"}]},{"lat":"37.245077357","long":"127.01573046","imageIndex":7,"items":[{"name":"동네슈퍼","tel":"031-225-7230","addr":"경기도 수원시 권선구 세류동 1158-44번지","indutype":"유통업 영리 - 슈퍼마켓","category":"mart"}]},{"lat":"37.262711215","long":"127.00467442","imageIndex":7,"items":[{"name":"두배로행복마트","tel":"031-222-8412","addr":"경기도 수원시 권선구 세류동 248-1번지","indutype":"유통업 영리 - 슈퍼마켓","category":"mart"}]},{"lat":"37.251438516","long":"127.01683615","imageIndex":7,"items":[{"name":"마마트 세류점","tel":"","addr":"경기도 수원시 권선구 세류동 1117-6번지","indutype":"유통업 영리 - 슈퍼마켓","category":"mart"}]},{"lat":"37.252375532","long":"127.01730973","imageIndex":7,"items":[{"name":"명성슈퍼","tel":"031-226-6667","addr":"경기도 수원시 권선구 세류동 1117-14번지","indutype":"유통업 영리 - 슈퍼마켓","category":"mart"}]},{"lat":"37.251519926","long":"127.01381539","imageIndex":7,"items":[{"name":"무지개슈퍼","tel":"031-237-0317","addr":"경기도 수원시 권선구 세류동 984-2번지","indutype":"유통업 영리 - 슈퍼마켓","category":"mart"}]},{"lat":"37.255124108","long":"127.0131734","imageIndex":7,"items":[{"name":"바로코사 세류1호점","tel":"070-4129-3931","addr":"경기도 수원시 권선구 세류동 1021-53번지","indutype":"유통업 영리 - 슈퍼마켓","category":"mart"}]},{"lat":"37.256069898","long":"127.01611558","imageIndex":7,"items":[{"name":"복이네중국식품","tel":"","addr":"경기도 수원시 권선구 세류동 876-11번지","indutype":"유통업 영리 - 슈퍼마켓","category":"mart"}]},{"lat":"37.264819289","long":"127.01197972","imageIndex":7,"items":[{"name":"삼부자마트","tel":"031-232-6087","addr":"경기도 수원시 권선구 세류동 97-24번지 1층","indutype":"유통업 영리 - 슈퍼마켓","category":"mart"}]},{"lat":"37.253321997","long":"127.01372547","imageIndex":7,"items":[{"name":"삼원슈퍼","tel":"031-234-1991","addr":"경기도 수원시 권선구 세류동 1005-39번지","indutype":"유통업 영리 - 슈퍼마켓","category":"mart"}]},{"lat":"37.2520967","long":"127.01250796","imageIndex":7,"items":[{"name":"새론할인마트","tel":"031-238-5775","addr":"경기도 수원시 권선구 세류동 980-18번지","indutype":"유통업 영리 - 슈퍼마켓","category":"mart"}]},{"lat":"37.25160145","long":"127.00706373","imageIndex":7,"items":[{"name":"새터공판장","tel":"031-239-1216","addr":"경기도 수원시 권선구 세류동 649-4번지","indutype":"유통업 영리 - 슈퍼마켓","category":"mart"}]},{"lat":"37.259917481","long":"127.0143577","imageIndex":7,"items":[{"name":"소라슈퍼","tel":"031-224-4174","addr":"경기도 수원시 권선구 세류동 515-2번지 소라연립 B동 101호","indutype":"유통업 영리 - 슈퍼마켓","category":"mart"}]},{"lat":"37.255213687","long":"127.01805423","imageIndex":7,"items":[{"name":"수원할인마트","tel":"031-235-4385","addr":"경기도 수원시 권선구 세류동 1094번지","indutype":"유통업 영리 - 슈퍼마켓","category":"mart"}]},{"lat":"37.259151759","long":"127.01264413","imageIndex":7,"items":[{"name":"순해중국식품","tel":"","addr":"경기도 수원시 권선구 세류동 524-1번지 102호","indutype":"유통업 영리 - 슈퍼마켓","category":"mart"}]},{"lat":"37.256268546","long":"127.01156162","imageIndex":7,"items":[{"name":"신곡슈퍼","tel":"031-34-3995","addr":"경기도 수원시 권선구 세류동 532-2번지","indutype":"유통업 영리 - 슈퍼마켓","category":"mart"}]},{"lat":"37.260602475","long":"127.01192285","imageIndex":7,"items":[{"name":"신세계유통","tel":"031-233-2476","addr":"경기도 수원시 권선구 세류동 482-2번지","indutype":"유통업 영리 - 슈퍼마켓","category":"mart"}]},{"lat":"37.264206659","long":"127.01101013","imageIndex":7,"items":[{"name":"싱싱할인마트","tel":"","addr":"경기도 수원시 권선구 세류동 83-32번지 2층","indutype":"유통업 영리 - 슈퍼마켓","category":"mart"}]},{"lat":"37.244960333","long":"127.01467101","imageIndex":7,"items":[{"name":"연이네중국식품","tel":"031-000-0000","addr":"경기도 수원시 권선구 세류동 1146-8번지 1호","indutype":"유통업 영리 - 슈퍼마켓","category":"mart"}]},{"lat":"37.246014321","long":"127.0166999","imageIndex":7,"items":[{"name":"우일마트","tel":"031-761-5518","addr":"경기도 수원시 권선구 세류동 1154번지","indutype":"유통업 영리 - 슈퍼마켓","category":"mart"}]},{"lat":"37.249267342","long":"127.01387142","imageIndex":7,"items":[{"name":"월드할인마트","tel":"031-225-5424","addr":"경기도 수원시 권선구 세류동 1140-5번지 1층","indutype":"유통업 영리 - 슈퍼마켓","category":"mart"}]},{"lat":"37.253348443","long":"127.01888798","imageIndex":7,"items":[{"name":"월드할인마트세류2점","tel":"031-237-4707","addr":"경기도 수원시 권선구 세류동 1103번지 1층","indutype":"유통업 영리 - 슈퍼마켓","category":"mart"}]},{"lat":"37.26135044","long":"127.01033344","imageIndex":7,"items":[{"name":"이마트24 수원세류중앙점","tel":"","addr":"경기도 수원시 권선구 세류동 343-3번지","indutype":"유통업 영리 - 슈퍼마켓","category":"mart"}]},{"lat":"37.249132019","long":"127.01556208","imageIndex":7,"items":[{"name":"조은 할인 마트","tel":"031-222-1588","addr":"경기도 수원시 권선구 세류동 1131-42번지","indutype":"유통업 영리 - 슈퍼마켓","category":"mart"}]},{"lat":"37.258710351","long":"127.01139281","imageIndex":7,"items":[{"name":"중국마트","tel":"","addr":"경기도 수원시 권선구 세류동 467-31번지 1층","indutype":"유통업 영리 - 슈퍼마켓","category":"mart"}]},{"lat":"37.253961895","long":"127.01173043","imageIndex":7,"items":[{"name":"중국슈퍼","tel":"001-0000-0000","addr":"경기도 수원시 권선구 세류동 1029-3번지","indutype":"유통업 영리 - 슈퍼마켓","category":"mart"}]},{"lat":"37.24349151","long":"127.01600068","imageIndex":7,"items":[{"name":"중앙슈퍼","tel":"031-233-1232","addr":"경기도 수원시 권선구 세류동 1165번지","indutype":"유통업 영리 - 슈퍼마켓","category":"mart"}]},{"lat":"37.24968188","long":"127.01317266","imageIndex":7,"items":[{"name":"진슈퍼","tel":"070-8185-3451","addr":"경기도 수원시 권선구 세류동 1139-22번지","indutype":"유통업 영리 - 슈퍼마켓","category":"mart"}]},{"lat":"37.257818373","long":"127.010784","imageIndex":7,"items":[{"name":"진현유통","tel":"031-238-1833","addr":"경기도 수원시 권선구 세류동 466번지","indutype":"유통업 영리 - 슈퍼마켓","category":"mart"}]},{"lat":"37.26162958","long":"127.01277973","imageIndex":7,"items":[{"name":"참사랑마트","tel":"031-238-6256","addr":"경기도 수원시 권선구 세류동 494-20번지","indutype":"유통업 영리 - 슈퍼마켓","category":"mart"}]},{"lat":"37.252655322","long":"127.01272219","imageIndex":7,"items":[{"name":"칠갑산 할인마트","tel":"031-235-2992","addr":"경기도 수원시 권선구 세류동 980-41번지","indutype":"유통업 영리 - 슈퍼마켓","category":"mart"}]},{"lat":"37.255097023","long":"127.01378209","imageIndex":7,"items":[{"name":"쿨마트","tel":"031-232-3681","addr":"경기도 수원시 권선구 세류동 1018-60번지","indutype":"유통업 영리 - 슈퍼마켓","category":"mart"}]},{"lat":"37.251628286","long":"127.01086225","imageIndex":7,"items":[{"name":"크로바하이퍼","tel":"031-238-7961","addr":"경기도 수원시 권선구 세류동 569-39","indutype":"유통업 영리 - 슈퍼마켓","category":"mart"}]},{"lat":"37.254907963","long":"127.01192217","imageIndex":7,"items":[{"name":"평안마트","tel":"031-232-4066","addr":"경기도 수원시 권선구 세류동 1024-4번지","indutype":"유통업 영리 - 슈퍼마켓","category":"mart"}]},{"lat":"37.26279232","long":"127.00355837","imageIndex":7,"items":[{"name":"평화슈퍼","tel":"031-232-3252","addr":"경기도 수원시 권선구 세류동 186-7번지","indutype":"유통업 영리 - 슈퍼마켓","category":"mart"}]},{"lat":"37.256321633","long":"127.02038782","imageIndex":7,"items":[{"name":"풀하우스 편의점","tel":"031-235-7055","addr":"경기도 수원시 권선구 세류동 1077번지 이원빌딩","indutype":"유통업 영리 - 슈퍼마켓","category":"mart"}]},{"lat":"37.255159603","long":"127.0182233","imageIndex":7,"items":[{"name":"하나유통","tel":"031-225-8581","addr":"경기도 수원시 권선구 세류동 1094-18번지","indutype":"유통업 영리 - 슈퍼마켓","category":"mart"}]},{"lat":"37.243960173","long":"127.01480609","imageIndex":7,"items":[{"name":"한국마트","tel":"031-232-7530","addr":"경기도 수원시 권선구 세류동 1159번지","indutype":"유통업 영리 - 슈퍼마켓","category":"mart"}]},{"lat":"37.259215188","long":"127.00613979","imageIndex":7,"items":[{"name":"한림마트","tel":"031-222-6893","addr":"경기도 수원시 권선구 세류동 219-21번지 1층","indutype":"유통업 영리 - 슈퍼마켓","category":"mart"}]},{"lat":"37.24849215","long":"127.01677925","imageIndex":7,"items":[{"name":"한아름슈퍼","tel":"031-236-6208","addr":"경기도 수원시 권선구 세류동 1150번지","indutype":"유통업 영리 - 슈퍼마켓","category":"mart"}]},{"lat":"37.252763577","long":"127.01097509","imageIndex":7,"items":[{"name":"할빈중국식품","tel":"031-237-4666","addr":"경기도 수원시 권선구 세류동 566-1번지 THE BEIGE 102호","indutype":"유통업 영리 - 슈퍼마켓","category":"mart"}]},{"lat":"37.252763774","long":"127.00723287","imageIndex":7,"items":[{"name":"햇빛구판장","tel":"031-233-7640","addr":"경기도 수원시 권선구 세류동 666-4번지","indutype":"유통업 영리 - 슈퍼마켓","category":"mart"}]},{"lat":"37.262017149","long":"127.0111339","imageIndex":7,"items":[{"name":"현대슈퍼","tel":"031-222-4790","addr":"경기도 수원시 권선구 세류동 342번지 심우연립 1동 101호","indutype":"유통업 영리 - 슈퍼마켓","category":"mart"}]},{"lat":"37.250682189","long":"127.01106504","imageIndex":7,"items":[{"name":"환영마트","tel":"031-235-2272","addr":"경기도 수원시 권선구 세류동 579-49번지","indutype":"유통업 영리 - 슈퍼마켓","category":"mart"}]}]