[{"lat":"37.27029689","long":"127.01830529","imageIndex":17,"items":[{"name":"광이나라","tel":"031-225-4848","addr":"경기도 수원시 팔달구 인계로 6 (매교동)","indutype":"건축자재 - 목재·석재·철물","category":"other"},{"name":"디자인아트","tel":"031-237-7355","addr":"경기도 수원시 팔달구 인계로 6 (매교동)","indutype":"용역 서비스 - 사무서비스","category":"other"},{"name":"주식회사 좋은사이","tel":"031-232-4266","addr":"경기도 수원시 팔달구 인계로 6, 2호 (매교동)","indutype":"서적문구 - 정기간행물","category":"other"}]},{"lat":"37.269458434","long":"127.02175504","imageIndex":17,"items":[{"name":"꽃뜰에꽃들이","tel":"031-233-0088","addr":"경기도 수원시 팔달구 인계로 38 연번지 106호(인계동)","indutype":"문화.취미 - 화원","category":"other"}]},{"lat":"37.270206735","long":"127.01869988","imageIndex":17,"items":[{"name":"블루켐시큐리티","tel":"031-8013-5101","addr":"경기도 수원시 팔달구 인계로 8-1 102호(매교동)","indutype":"전기제품 - 기타전기제품","category":"other"}]},{"lat":"37.270233796","long":"127.0184744","imageIndex":17,"items":[{"name":"수원종합아크릴","tel":"031-238-0762","addr":"경기도 수원시 팔달구 인계로 8 (매교동)","indutype":"기타 - 기타 전문점","category":"other"}]},{"lat":"37.269900244","long":"127.01972577","imageIndex":17,"items":[{"name":"수원화홍로타리클럽","tel":"031-246-0405","addr":"경기도 수원시 팔달구 인계로 20 2층(인계동)","indutype":"기타 - 비영리/대상","category":"other"}]},{"lat":"37.269710877","long":"127.02075169","imageIndex":17,"items":[{"name":"엘지리모델링","tel":"031-223-1114","addr":"경기도 수원시 팔달구 인계로 28 (인계동)","indutype":"건축자재 - 인테리어전문","category":"other"}]},{"lat":"37.269900192","long":"127.02008655","imageIndex":17,"items":[{"name":"태영사","tel":"031-239-3564","addr":"경기도 수원시 팔달구 인계로 22 (인계동)","indutype":"기타 - 기계공구","category":"other"}]}]