[{"lat":"37.43408629","long":"127.2134251","imageIndex":0,"items":[{"name":"Tofftoff","tel":"070-4024-7004","addr":"경기도 광주시 목현동 257-10번지","indutype":"자동차정비 유지 - 카인테리어","category":"car"}]},{"lat":"37.42924564","long":"127.2385047","imageIndex":0,"items":[{"name":"굿텀모터스","tel":"031-769-5805","addr":"경기도 광주시 목현동 3-2번지","indutype":"자동차정비 유지 - 자동차정비","category":"car"}]},{"lat":"37.43563839","long":"127.2268415","imageIndex":0,"items":[{"name":"덕양","tel":"031-764-7955","addr":"경기도 광주시 목현동 131-1번지","indutype":"자동차정비 유지 - 자동차시트·타이어","category":"car"},{"name":"성남내비게이션","tel":"031-769-2531","addr":"경기도 광주시 목현동 131-1번지","indutype":"자동차정비 유지 - 자동차부품","category":"car"}]},{"lat":"37.43130361","long":"127.2074856","imageIndex":0,"items":[{"name":"드림카서비스","tel":"031-797-4275","addr":"경기도 광주시 목현동 733번지","indutype":"자동차정비 유지 - 자동차정비","category":"car"}]},{"lat":"37.43047574","long":"127.2361133","imageIndex":0,"items":[{"name":"목현카클리닉","tel":"031-768-5631","addr":"경기도 광주시 목현동 35번지","indutype":"자동차정비 유지 - 자동차정비","category":"car"}]},{"lat":"37.42905715","long":"127.2381426","imageIndex":0,"items":[{"name":"목현현대서비스","tel":"031-765-7770","addr":"경기도 광주시 목현동 9-1번지","indutype":"자동차정비 유지 - 자동차부품","category":"car"}]},{"lat":"37.42877712","long":"127.2385032","imageIndex":0,"items":[{"name":"삐가뻔적 손세차","tel":"031-767-4252","addr":"경기도 광주시 목현동 11-2번지","indutype":"자동차정비 유지 - 세차장","category":"car"}]},{"lat":"37.43363776","long":"127.2123166","imageIndex":0,"items":[{"name":"삼민자동차정비공업사","tel":"031-763-9508","addr":"경기도 광주시 목현동 427번지","indutype":"자동차정비 유지 - 자동차정비","category":"car"}]},{"lat":"37.43221971","long":"127.2091716","imageIndex":0,"items":[{"name":"삼부자동차공업사","tel":"031-756-7158","addr":"경기도 광주시 목현동 393-2번지","indutype":"자동차정비 유지 - 자동차정비","category":"car"}]},{"lat":"37.43174664","long":"127.2358687","imageIndex":0,"items":[{"name":"성보자동차유리","tel":"031-744-0878","addr":"경기도 광주시 목현동 39-1번지 일부","indutype":"자동차정비 유지 - 자동차정비","category":"car"}]},{"lat":"37.43408361","long":"127.2149278","imageIndex":0,"items":[{"name":"세차박스","tel":"070-8243-4018","addr":"경기도 광주시 목현동 262-10번지 신우빌딩 106호","indutype":"자동차정비 유지 - 세차장","category":"car"}]},{"lat":"37.43335824","long":"127.2072878","imageIndex":0,"items":[{"name":"세차뱅크","tel":"031-764-7111","addr":"경기도 광주시 목현동 697번지","indutype":"자동차정비 유지 - 세차장","category":"car"}]},{"lat":"37.43293993","long":"127.2042813","imageIndex":0,"items":[{"name":"스팀닥터","tel":"031-1644-0591","addr":"경기도 광주시 목현동 652-19번지 모개미마을3차 316동 302호","indutype":"자동차정비 유지 - 세차장","category":"car"}]},{"lat":"37.43550002","long":"127.2285359","imageIndex":0,"items":[{"name":"스피드메이트잭슨카","tel":"031-765-2918","addr":"경기도 광주시 목현동 112-1번지","indutype":"자동차정비 유지 - 자동차정비","category":"car"}]},{"lat":"37.43357938","long":"127.2339762","imageIndex":0,"items":[{"name":"이배재자동차","tel":"031-798-9955","addr":"경기도 광주시 목현동 48번지","indutype":"자동차정비 유지 - 자동차정비","category":"car"}]},{"lat":"37.4326394","long":"127.235476","imageIndex":0,"items":[{"name":"한진모터스","tel":"031-762-9981","addr":"경기도 광주시 목현동 40-5번지","indutype":"자동차정비 유지 - 자동차정비","category":"car"}]},{"lat":"37.42905791","long":"127.2377584","imageIndex":0,"items":[{"name":"현대아이모터스","tel":"031-797-0430","addr":"경기도 광주시 목현동 9-2번지","indutype":"자동차정비 유지 - 자동차정비","category":"car"}]}]