[{"lat":"37.276072253","long":"127.01995265","imageIndex":8,"items":[{"name":"강원도약초","tel":"031-256-6482","addr":"경기도 수원시 팔달구 지동 415번지 팔달주차타워 20호","indutype":"약국 - 한약방","category":"medical"}]},{"lat":"37.275351325","long":"127.0206741","imageIndex":8,"items":[{"name":"경희척척의원.한의원","tel":"031-207-9716","addr":"경기도 수원시 팔달구 지동 423-2번지 외3필지 1층,2층","indutype":"의원 - 한의원","category":"medical"}]},{"lat":"37.275432312","long":"127.0213619","imageIndex":8,"items":[{"name":"국민약국","tel":"031-247-4310","addr":"경기도 수원시 팔달구 지동 380번지 110호","indutype":"약국 - 약국","category":"medical"},{"name":"동서의원","tel":"031-247-1002","addr":"경기도 수원시 팔달구 지동 380번지","indutype":"의원 - 의원","category":"medical"},{"name":"수원스마일치과","tel":"031-248-2275","addr":"경기도 수원시 팔달구 지동 380번지","indutype":"의원 - 치과의원","category":"medical"}]},{"lat":"37.27659385","long":"127.02586103","imageIndex":8,"items":[{"name":"김외과","tel":"031-244-3111","addr":"경기도 수원시 팔달구 지동 116-10번지","indutype":"의원 - 의원","category":"medical"}]},{"lat":"37.280234199","long":"127.02481348","imageIndex":8,"items":[{"name":"김이호치과","tel":"031-257-2028","addr":"경기도 수원시 팔달구 지동 135-4번지 지동프라자 3층","indutype":"의원 - 치과의원","category":"medical"}]},{"lat":"37.275567404","long":"127.02175656","imageIndex":8,"items":[{"name":"나눔약국","tel":"031-245-4786","addr":"경기도 수원시 팔달구 지동 373번지 쉐마메디컬타워 102,103호","indutype":"약국 - 약국","category":"medical"},{"name":"오케이내과외과의원","tel":"031-243-9100","addr":"경기도 수원시 팔달구 지동 373번지 실로암메디컬타워 2층","indutype":"의원 - 의원","category":"medical"},{"name":"장우영신경외과","tel":"031-253-8275","addr":"경기도 수원시 팔달구 지동 373번지 ,3,4층","indutype":"의원 - 의원","category":"medical"}]},{"lat":"37.275378401","long":"127.02036968","imageIndex":8,"items":[{"name":"대성의원","tel":"031-256-1100","addr":"경기도 수원시 팔달구 지동 424-3번지 대성빌딩 2층","indutype":"의원 - 의원","category":"medical"},{"name":"대성한의원","tel":"031-256-2100","addr":"경기도 수원시 팔달구 지동 424-3번지 대성빌딩 1층","indutype":"의원 - 한의원","category":"medical"}]},{"lat":"37.279927987","long":"127.02405791","imageIndex":8,"items":[{"name":"미소담은한의원","tel":"031-253-7575","addr":"경기도 수원시 팔달구 지동 134-26번지 2층","indutype":"의원 - 한의원","category":"medical"}]},{"lat":"37.275432439","long":"127.02052754","imageIndex":8,"items":[{"name":"배한익치과의원","tel":"031-246-9090","addr":"경기도 수원시 팔달구 지동 424-1번지","indutype":"의원 - 치과의원","category":"medical"}]},{"lat":"37.275378306","long":"127.02100108","imageIndex":8,"items":[{"name":"봄치과","tel":"031-241-1004","addr":"경기도 수원시 팔달구 지동 422번지 2층","indutype":"의원 - 치과의원","category":"medical"}]},{"lat":"37.275594462","long":"127.02158744","imageIndex":8,"items":[{"name":"생명나무한의원","tel":"031-257-0717","addr":"경기도 수원시 팔달구 지동 378-3번지 실로암메디칼타워 601호","indutype":"의원 - 한의원","category":"medical"}]},{"lat":"37.275405354","long":"127.02088834","imageIndex":8,"items":[{"name":"수원삼성한의원","tel":"031-251-5680","addr":"경기도 수원시 팔달구 지동 423-5번지","indutype":"의원 - 한의원","category":"medical"}]},{"lat":"37.275459286","long":"127.02172271","imageIndex":8,"items":[{"name":"연세스토리치과의원","tel":"031-308-2879","addr":"경기도 수원시 팔달구 지동 374-1번지 외 2필지","indutype":"의원 - 치과의원","category":"medical"}]},{"lat":"37.280900656","long":"127.0263923","imageIndex":8,"items":[{"name":"연세의원","tel":"031-247-2476","addr":"경기도 수원시 팔달구 지동 141-15번지","indutype":"의원 - 의원","category":"medical"}]},{"lat":"37.280540278","long":"127.02622305","imageIndex":8,"items":[{"name":"온누리새푸른약국","tel":"031-254-5497","addr":"경기도 수원시 팔달구 지동 138-46번지","indutype":"약국 - 약국","category":"medical"}]},{"lat":"37.281846969","long":"127.02517478","imageIndex":8,"items":[{"name":"으뜸약국","tel":"031-257-7253","addr":"경기도 수원시 팔달구 지동 146-14번지 1층 우측","indutype":"약국 - 약국","category":"medical"}]},{"lat":"37.281955073","long":"127.0252763","imageIndex":8,"items":[{"name":"이천우의원","tel":"031-251-6339","addr":"경기도 수원시 팔달구 지동 146-13번지","indutype":"의원 - 의원","category":"medical"}]},{"lat":"37.280593592","long":"127.02975242","imageIndex":8,"items":[{"name":"이화수약국","tel":"031-207-9777","addr":"경기도 수원시 팔달구 지동 481번지","indutype":"약국 - 약국","category":"medical"}]}]