[{"lat":"37.078091114","long":"126.94470729","imageIndex":17,"items":[{"name":"(주) 코코스","tel":"031-359-8682","addr":"경기도 화성시 양감면 신왕리 810-9","indutype":"문화.취미 - 애완동물","category":"other"}]},{"lat":"37.075678384","long":"126.93201299","imageIndex":17,"items":[{"name":"(주)에스에이치시스템팩","tel":"031-366-3867","addr":"경기도 화성시 양감면 신왕리 764-10번지","indutype":"유통업 영리 - 기타유통업","category":"other"}]},{"lat":"37.080036615","long":"126.94313134","imageIndex":17,"items":[{"name":"건아 T&S","tel":"031-352-9123","addr":"경기도 화성시 양감면 신왕리 701-1번지","indutype":"기타 - 기계공구","category":"other"},{"name":"대성모터","tel":"031-353-8584","addr":"경기도 화성시 양감면 신왕리 701-1","indutype":"수리서비스 - 기타수리서비스","category":"other"},{"name":"이마트24 화성신왕리점","tel":"","addr":"경기도 화성시 양감면 신왕리 701-1번지 1층","indutype":"유통업 영리 - 편 의 점","category":"other"}]},{"lat":"37.080873385","long":"126.94076897","imageIndex":17,"items":[{"name":"미래무역","tel":"031-8059-6264","addr":"경기도 화성시 양감면 신왕리 704-3번지","indutype":"의류 - 정장","category":"other"}]},{"lat":"37.079617262","long":"126.95201606","imageIndex":17,"items":[{"name":"부성창호","tel":"031-352-0151","addr":"경기도 화성시 양감면 신왕리 383-3번지","indutype":"건축자재 - 기타건축자재","category":"other"},{"name":"월드기계공업","tel":"","addr":"경기도 화성시 양감면 신왕리 383-3번지","indutype":"기타 - 기계공구","category":"other"}]},{"lat":"37.07603362","long":"126.95840592","imageIndex":17,"items":[{"name":"세림상사","tel":"031-8059-4156","addr":"경기도 화성시 양감면 신왕리 103-1","indutype":"의류 - 기타의류","category":"other"}]},{"lat":"37.080956914","long":"126.9456048","imageIndex":17,"items":[{"name":"세븐일레븐화성양감삼거리점","tel":"031-1577-0711","addr":"경기도 화성시 양감면 신왕리 632-3번지 103호","indutype":"유통업 영리 - 편 의 점","category":"other"}]},{"lat":"37.075620123","long":"126.96112756","imageIndex":17,"items":[{"name":"신영포장","tel":"031-352-1362","addr":"경기도 화성시 양감면 신왕리 109-13","indutype":"유통업 영리 - 기타유통업","category":"other"}]},{"lat":"37.082425022","long":"126.94434409","imageIndex":17,"items":[{"name":"알파화성양감점","tel":"031-352-2644","addr":"경기도 화성시 양감면 신왕리 667-2번지","indutype":"서적문구 - 문구용품","category":"other"},{"name":"화성정보OA","tel":"031-353-1992","addr":"경기도 화성시 양감면 신왕리 667-2번지","indutype":"사무통신 - 사무용 OA기기","category":"other"}]},{"lat":"37.082145904","long":"126.94477167","imageIndex":17,"items":[{"name":"양감문구","tel":"031-352-7421","addr":"경기도 화성시 양감면 신왕리 669-1번지","indutype":"서적문구 - 문구용품","category":"other"}]},{"lat":"37.083145939","long":"126.94448974","imageIndex":17,"items":[{"name":"에이디원인테리어","tel":"031-8059-5811","addr":"경기도 화성시 양감면 신왕리 644-1번지 101호","indutype":"건축자재 - 인테리어전문","category":"other"}]},{"lat":"37.0813711","long":"126.94498594","imageIndex":17,"items":[{"name":"우정광고","tel":"031-358-5585","addr":"경기도 화성시 양감면 신왕리 680-1번지","indutype":"용역 서비스 - 종합용역","category":"other"}]},{"lat":"37.076756096","long":"126.94181818","imageIndex":17,"items":[{"name":"월드켐","tel":"031-354-5364","addr":"경기도 화성시 양감면 신왕리 800-7","indutype":"유통업 영리 - 기타유통업","category":"other"}]},{"lat":"37.080234637","long":"126.94271508","imageIndex":17,"items":[{"name":"제이에스이엔지","tel":"031-353-2755","addr":"경기도 화성시 양감면 신왕리 704-34번지","indutype":"전기제품 - 냉열기기","category":"other"}]},{"lat":"37.077818285","long":"126.93979308","imageIndex":17,"items":[{"name":"주식회사 큰산(Kunsan INC.)","tel":"031-354-7217","addr":"경기도 화성시 양감면 신왕리 800-14번지","indutype":"문화.취미 - 화원","category":"other"}]},{"lat":"37.075983874","long":"126.93057327","imageIndex":17,"items":[{"name":"진성컨테이너","tel":"031-353-4226","addr":"경기도 화성시 양감면 신왕리 764-21","indutype":"건축자재 - 기타건축자재","category":"other"}]},{"lat":"37.070679025","long":"126.95262925","imageIndex":17,"items":[{"name":"청운산업","tel":"070-8877-0469","addr":"경기도 화성시 양감면 신왕리 1172-2번지","indutype":"서적문구 - 출판 및 인쇄물","category":"other"}]},{"lat":"37.08328983","long":"126.9439273","imageIndex":17,"items":[{"name":"평화종합건재","tel":"031-352-9349","addr":"경기도 화성시 양감면 신왕리 645번지","indutype":"기타 - 기계공구","category":"other"}]},{"lat":"37.080732532","long":"126.94746059","imageIndex":17,"items":[{"name":"피앤앤 시스템(PNN SYSTEM)","tel":"031-1661-9079","addr":"경기도 화성시 양감면 신왕리 605-3번지 A동 103호","indutype":"사무통신 - 컴퓨터","category":"other"}]},{"lat":"37.081507208","long":"126.94696519","imageIndex":17,"items":[{"name":"한빛정밀","tel":"031-366-3081","addr":"경기도 화성시 양감면 신왕리 640-8번지","indutype":"기타 - 기계공구","category":"other"}]},{"lat":"37.082479317","long":"126.9448164","imageIndex":17,"items":[{"name":"한진종합배관","tel":"031-8059-8994","addr":"경기도 화성시 양감면 신왕리 637-1번지 1층","indutype":"기타 - 기계공구","category":"other"}]},{"lat":"37.082226955","long":"126.94468163","imageIndex":17,"items":[{"name":"해림그래픽","tel":"031-353-7682","addr":"경기도 화성시 양감면 신왕리 668-8번지 1층","indutype":"서적문구 - 출판 및 인쇄물","category":"other"}]},{"lat":"37.080984146","long":"126.94602089","imageIndex":0,"items":[{"name":"3급매니저카센타","tel":"031-354-0883","addr":"경기도 화성시 양감면 신왕리 635-4번지","indutype":"자동차정비 유지 - 자동차정비","category":"car"}]},{"lat":"37.07609287","long":"126.9320126","imageIndex":0,"items":[{"name":"대신카클리닉","tel":"031-366-2238","addr":"경기도 화성시 양감면 신왕리 764-8","indutype":"자동차정비 유지 - 자동차정비","category":"car"}]},{"lat":"37.080036615","long":"126.94313134","imageIndex":0,"items":[{"name":"양감카센타","tel":"031-352-5244","addr":"경기도 화성시 양감면 신왕리 701-1번지 104호","indutype":"자동차정비 유지 - 자동차정비","category":"car"}]},{"lat":"37.083145939","long":"126.94448974","imageIndex":0,"items":[{"name":"유진루브텍","tel":"031-8059-0617","addr":"경기도 화성시 양감면 신왕리 644-1번지 104호","indutype":"자동차정비 유지 - 윤활유 전문 판매","category":"car"}]},{"lat":"37.082145904","long":"126.94477167","imageIndex":0,"items":[{"name":"카베스트샵","tel":"031-354-1925","addr":"경기도 화성시 양감면 신왕리 669-1","indutype":"자동차정비 유지 - 자동차부품","category":"car"}]},{"lat":"37.080289328","long":"126.94396336","imageIndex":4,"items":[{"name":"길림성","tel":"031-352-3205","addr":"경기도 화성시 양감면 신왕리 702-1번지 1층","indutype":"일반휴게음식 - 중국식","category":"restaurant"}]},{"lat":"37.080956914","long":"126.9456048","imageIndex":4,"items":[{"name":"김명자 낙지마당","tel":"031-354-7427","addr":"경기도 화성시 양감면 신왕리 632-3번지","indutype":"일반휴게음식 - 일반한식","category":"restaurant"},{"name":"커피베이 화성양감점","tel":"031-352-9087","addr":"경기도 화성시 양감면 신왕리 632-3번지","indutype":"일반휴게음식 - 서양음식","category":"restaurant"}]},{"lat":"37.083145939","long":"126.94448974","imageIndex":4,"items":[{"name":"뉴욕모퉁이","tel":"031-000-0000","addr":"경기도 화성시 양감면 신왕리 644-1번지","indutype":"일반휴게음식 - 서양음식","category":"restaurant"}]},{"lat":"37.083037674","long":"126.94420866","imageIndex":4,"items":[{"name":"또봉이통닭","tel":"031-8059-1404","addr":"경기도 화성시 양감면 신왕리 668-2번지 104호","indutype":"일반휴게음식 - 스넥","category":"restaurant"},{"name":"행운한식부페","tel":"031-8059-4581","addr":"경기도 화성시 양감면 신왕리 668-2번지","indutype":"일반휴게음식 - 일반한식","category":"restaurant"}]},{"lat":"37.083929322","long":"126.94340946","imageIndex":4,"items":[{"name":"미미향","tel":"031-8059-3108","addr":"경기도 화성시 양감면 신왕리 645-4번지 1동 1층","indutype":"일반휴게음식 - 중국식","category":"restaurant"}]},{"lat":"37.081254923","long":"126.94698787","imageIndex":4,"items":[{"name":"백제보신원","tel":"031-353-3352","addr":"경기도 화성시 양감면 신왕리 640-28번지","indutype":"일반휴게음식 - 일반한식","category":"restaurant"}]},{"lat":"37.080451265","long":"126.94345716","imageIndex":4,"items":[{"name":"병천토종순대","tel":"031-354-5956","addr":"경기도 화성시 양감면 신왕리 704-31번지","indutype":"일반휴게음식 - 일반한식","category":"restaurant"}]},{"lat":"37.082479317","long":"126.9448164","imageIndex":4,"items":[{"name":"서해안아구찜","tel":"031-356-3646","addr":"경기도 화성시 양감면 신왕리 637-1번지","indutype":"일반휴게음식 - 일반한식","category":"restaurant"}]},{"lat":"37.083596066","long":"126.94367964","imageIndex":4,"items":[{"name":"송탄참작부대찌개","tel":"031-353-7084","addr":"경기도 화성시 양감면 신왕리 645-8번지","indutype":"일반휴게음식 - 일반한식","category":"restaurant"}]},{"lat":"37.080036892","long":"126.9436824","imageIndex":4,"items":[{"name":"스프링투","tel":"","addr":"경기도 화성시 양감면 신왕리 700-1번지","indutype":"일반휴게음식 - 서양음식","category":"restaurant"},{"name":"해피홈","tel":"","addr":"경기도 화성시 양감면 신왕리 700-1번지","indutype":"일반휴게음식 - 서양음식","category":"restaurant"}]},{"lat":"37.080732532","long":"126.94746059","imageIndex":4,"items":[{"name":"양감반점","tel":"031-352-1272","addr":"경기도 화성시 양감면 신왕리 605-3","indutype":"일반휴게음식 - 중국식","category":"restaurant"},{"name":"해피윙","tel":"031-352-6542","addr":"경기도 화성시 양감면 신왕리 605-3번지","indutype":"일반휴게음식 - 일반한식","category":"restaurant"}]},{"lat":"37.075261931","long":"126.94499058","imageIndex":4,"items":[{"name":"올리비아델리","tel":"070-4102-7180","addr":"경기도 화성시 양감면 신왕리 859-5번지 1층 1호","indutype":"일반휴게음식 - 서양음식","category":"restaurant"}]},{"lat":"37.079316035","long":"126.94366047","imageIndex":4,"items":[{"name":"장군한식뷔페","tel":"070-8834-3332","addr":"경기도 화성시 양감면 신왕리 810-3번지 B층","indutype":"일반휴게음식 - 일반한식","category":"restaurant"}]},{"lat":"37.082010718","long":"126.94471554","imageIndex":4,"items":[{"name":"장충동비앤에프왕족발보쌈","tel":"031-354-6887","addr":"경기도 화성시 양감면 신왕리 679-1","indutype":"일반휴게음식 - 일반한식","category":"restaurant"}]},{"lat":"37.076896873","long":"126.95392964","imageIndex":4,"items":[{"name":"진주네옻닭,오리전문점","tel":"031-353-5522","addr":"경기도 화성시 양감면 신왕리 143-3번지","indutype":"일반휴게음식 - 일반한식","category":"restaurant"}]},{"lat":"37.076480412","long":"126.93215843","imageIndex":4,"items":[{"name":"큰집한식부페","tel":"031-366-0676","addr":"경기도 화성시 양감면 신왕리 770-5번지","indutype":"일반휴게음식 - 일반한식","category":"restaurant"}]},{"lat":"37.079540369","long":"126.94182719","imageIndex":4,"items":[{"name":"팔도강산한식뷔페","tel":"","addr":"경기도 화성시 양감면 신왕리 807-6번지","indutype":"일반휴게음식 - 일반한식","category":"restaurant"}]},{"lat":"37.08328983","long":"126.9439273","imageIndex":4,"items":[{"name":"한통식당","tel":"031-8059-3669","addr":"경기도 화성시 양감면 신왕리 645번지","indutype":"일반휴게음식 - 일반한식","category":"restaurant"}]},{"lat":"37.081398965","long":"126.94671785","imageIndex":4,"items":[{"name":"화성시니어클럽노노카페양감면사무소점","tel":"031-8059-4348","addr":"경기도 화성시 양감면 신왕리 1994번지 1층 일부","indutype":"일반휴게음식 - 서양음식","category":"restaurant"}]},{"lat":"37.082344027","long":"126.94454659","imageIndex":7,"items":[{"name":"다농식품","tel":"031-353-2922","addr":"경기도 화성시 양감면 신왕리 668-7번지 1층","indutype":"음료식품 - 농·축·수산품","category":"food"}]},{"lat":"37.069896316","long":"126.95557585","imageIndex":7,"items":[{"name":"다온농원","tel":"","addr":"경기도 화성시 양감면 신왕리 1921번지","indutype":"음료식품 - 농·축·수산품","category":"food"}]},{"lat":"37.08345197","long":"126.94382595","imageIndex":7,"items":[{"name":"명성정육점","tel":"031-352-6164","addr":"경기도 화성시 양감면 신왕리 645-1번지","indutype":"음료식품 - 정육점","category":"food"}]},{"lat":"37.078121024","long":"126.95090372","imageIndex":7,"items":[{"name":"아기농부","tel":"","addr":"경기도 화성시 양감면 신왕리 1811-9번지","indutype":"음료식품 - 농·축·수산품","category":"food"}]},{"lat":"37.082596211","long":"126.94432146","imageIndex":7,"items":[{"name":"장수건강원","tel":"031-352-6474","addr":"경기도 화성시 양감면 신왕리 668-18","indutype":"건강식품 - 기타건강식품","category":"food"}]},{"lat":"37.080984146","long":"126.94602089","imageIndex":13,"items":[{"name":"머리사랑","tel":"031-8059-0102","addr":"경기도 화성시 양감면 신왕리 635-4번지","indutype":"보건위생 - 미용원","category":"beauty"}]},{"lat":"37.082344027","long":"126.94454659","imageIndex":13,"items":[{"name":"선헤어샵","tel":"031-352-8759","addr":"경기도 화성시 양감면 신왕리 668-7번지","indutype":"보건위생 - 미용원","category":"beauty"}]},{"lat":"37.080956914","long":"126.9456048","imageIndex":8,"items":[{"name":"양감약국","tel":"031-352-7221","addr":"경기도 화성시 양감면 신왕리 632-3번지","indutype":"약국 - 약국","category":"medical"}]},{"lat":"37.080842578","long":"126.95173409","imageIndex":16,"items":[{"name":"양감초등학교병설유치원[아이행복]","tel":"031-352-7636","addr":"경기도 화성시 양감면 신왕리 475-1번지","indutype":"학원 - 유치원","category":"study"}]},{"lat":"37.07725742","long":"126.95423304","imageIndex":7,"items":[{"name":"에스마트(S마트)","tel":"031-352-5681","addr":"경기도 화성시 양감면 신왕리 144-2번지","indutype":"유통업 영리 - 슈퍼마켓","category":"mart"}]},{"lat":"37.079568077","long":"126.9431542","imageIndex":9,"items":[{"name":"충만주유소","tel":"031-352-8900","addr":"경기도 화성시 양감면 신왕리 698-1번지","indutype":"연료판매점 - SK주유소","category":"oil"}]},{"lat":"37.080956614","long":"126.94498625","imageIndex":13,"items":[{"name":"황진이노래연습장","tel":"031-352-6415","addr":"경기도 화성시 양감면 신왕리 681-5번지 지하1층","indutype":"레저업소 - 노 래 방","category":"leisure"}]}]