[{"lat":"37.234272591","long":"127.21068205","imageIndex":7,"items":[{"name":"경기얼음마트","tel":"031-336-2618","addr":"경기도 용인시 처인구 마평동 894번지","indutype":"유통업 영리 - 슈퍼마켓","category":"mart"}]},{"lat":"37.22716332","long":"127.21582324","imageIndex":7,"items":[{"name":"대명마트","tel":"031-337-2045","addr":"경기도 용인시 처인구 마평동 568-2번지","indutype":"유통업 영리 - 슈퍼마켓","category":"mart"}]},{"lat":"37.236466002","long":"127.21357301","imageIndex":7,"items":[{"name":"맥주 아이스크림 더하기 마평동점","tel":"070-997-9970","addr":"경기도 용인시 처인구 마평동 671-9번지 1층","indutype":"유통업 영리 - 슈퍼마켓","category":"mart"}]},{"lat":"37.2350208","long":"127.21048126","imageIndex":7,"items":[{"name":"미진슈퍼","tel":"031-335-7346","addr":"경기도 용인시 처인구 마평동 735-1번지","indutype":"유통업 영리 - 슈퍼마켓","category":"mart"}]},{"lat":"37.233882211","long":"127.21234877","imageIndex":7,"items":[{"name":"솔밭휴게소","tel":"031-321-3819","addr":"경기도 용인시 처인구 마평동 622-8번지 해담빌","indutype":"유통업 영리 - 슈퍼마켓","category":"mart"}]},{"lat":"37.229386189","long":"127.24534101","imageIndex":7,"items":[{"name":"신평마트","tel":"031-321-0930","addr":"경기도 용인시 처인구 마평동 39-3번지","indutype":"유통업 영리 - 슈퍼마켓","category":"mart"}]},{"lat":"37.233829522","long":"127.21157107","imageIndex":7,"items":[{"name":"엠(M)마트","tel":"031-333-6768","addr":"경기도 용인시 처인구 마평동 740-26번지","indutype":"유통업 영리 - 슈퍼마켓","category":"mart"}]},{"lat":"37.235325337","long":"127.21656742","imageIndex":7,"items":[{"name":"용마슈퍼","tel":"031-336-6383","addr":"경기도 용인시 처인구 마평동 923두보상가3동102","indutype":"유통업 영리 - 슈퍼마켓","category":"mart"}]},{"lat":"37.231690494","long":"127.21359352","imageIndex":7,"items":[{"name":"우리마트","tel":"031-333-5214","addr":"경기도 용인시 처인구 마평동 604-13번지","indutype":"유통업 영리 - 슈퍼마켓","category":"mart"}]},{"lat":"37.236240845","long":"127.21351603","imageIndex":7,"items":[{"name":"착한마트","tel":"031-336-3553","addr":"경기도 용인시 처인구 마평동 671-11번지","indutype":"유통업 영리 - 슈퍼마켓","category":"mart"}]}]