[{"lat":"37.952847211","long":"126.91871985","imageIndex":16,"items":[{"name":"멜로디피아노학원","tel":"031-959-4905","addr":"경기도 파주시 적성면 마지리 59-14번지","indutype":"학원 - 예·체능계학원","category":"study"},{"name":"예원어린이집[아이행복]","tel":"031-959-4906","addr":"경기도 파주시 적성면 마지리 59-14번지","indutype":"학원 - 유아원","category":"study"}]},{"lat":"37.952766169","long":"126.91877683","imageIndex":16,"items":[{"name":"신예원어린이집[아이행복]","tel":"031-959-4907","addr":"경기도 파주시 적성면 마지리 59-18번지","indutype":"학원 - 유아원","category":"study"}]},{"lat":"37.952901559","long":"126.91912939","imageIndex":16,"items":[{"name":"열린공부방","tel":"031-836-4243","addr":"경기도 파주시 적성면 마지리 59-16번지","indutype":"학원 - 보습학원","category":"study"}]},{"lat":"37.954126878","long":"126.91921902","imageIndex":16,"items":[{"name":"용인대감악태권도장","tel":"031-958-5577","addr":"경기도 파주시 적성면 마지리 62-18번지","indutype":"학원 - 예·체능계학원","category":"study"}]},{"lat":"37.95259501","long":"126.91879978","imageIndex":16,"items":[{"name":"윤선생영어교실  우리집앞공부방","tel":"070-7716-1914","addr":"경기도 파주시 적성면 마지리 60-1번지","indutype":"학원 - 보습학원","category":"study"}]},{"lat":"37.954594976","long":"126.91868372","imageIndex":16,"items":[{"name":"적성태권도장","tel":"031-959-3988","addr":"경기도 파주시 적성면 마지리 46-9번지","indutype":"학원 - 예·체능계학원","category":"study"}]},{"lat":"37.9531535","long":"126.91868536","imageIndex":16,"items":[{"name":"정솔학원","tel":"031-958-3935","addr":"경기도 파주시 적성면 마지리 59-8번지","indutype":"회원제형태 - 학원","category":"study"}]},{"lat":"37.947955944","long":"126.91977212","imageIndex":16,"items":[{"name":"행복어린이집[아이행복]","tel":"031-959-7767","addr":"경기도 파주시 적성면 마지리 73번지","indutype":"학원 - 유아원","category":"study"}]}]