[{"lat":"37.819619535","long":"127.10667703","imageIndex":0,"items":[{"name":"(주)대림지디에스","tel":"031-821-1468","addr":"경기도 양주시 율정동 106번지","indutype":"자동차정비 유지 - 윤활유 전문 판매","category":"car"}]},{"lat":"37.822223538","long":"127.10636266","imageIndex":0,"items":[{"name":"대동스프링","tel":"031-866-7180","addr":"경기도 양주시 율정동 139번지","indutype":"자동차정비 유지 - 자동차부품","category":"car"},{"name":"대동스프링","tel":"031-866-7180","addr":"경기도 양주시 율정동 139번지","indutype":"자동차정비 유지 - 자동차부품","category":"car"}]},{"lat":"37.839200056","long":"127.09194732","imageIndex":0,"items":[{"name":"북부렌탈","tel":"031-866-8331","addr":"경기도 양주시 율정동 596-4, 596-6번지 1층","indutype":"자동차판매 - 기타운송","category":"car"}]},{"lat":"37.839972965","long":"127.105365","imageIndex":0,"items":[{"name":"서진자동차정비공업사","tel":"031-865-0535","addr":"경기도 양주시 율정동 283-34번지","indutype":"자동차정비 유지 - 자동차정비","category":"car"}]},{"lat":"37.83908343","long":"127.09128828","imageIndex":0,"items":[{"name":"우리모터스","tel":"031-865-0000","addr":"경기도 양주시 율정동 596-6","indutype":"자동차정비 유지 - 자동차정비","category":"car"}]},{"lat":"37.81575456","long":"127.10659212","imageIndex":0,"items":[{"name":"워시존 양주점","tel":"031-857-1277","addr":"경기도 양주시 율정동 61-5번지 6번지","indutype":"자동차정비 유지 - 세차장","category":"car"}]},{"lat":"37.816784449","long":"127.10334548","imageIndex":0,"items":[{"name":"제일카센타","tel":"031-866-7623","addr":"경기도 양주시 율정동 69-1번지","indutype":"자동차정비 유지 - 자동차부품","category":"car"}]},{"lat":"37.813837014","long":"127.11483426","imageIndex":0,"items":[{"name":"주식회사 노바자동차","tel":"031-847-0884","addr":"경기도 양주시 율정동 617-1번지 C동","indutype":"자동차정비 유지 - 자동차정비","category":"car"}]},{"lat":"37.821532117","long":"127.103704","imageIndex":0,"items":[{"name":"투카","tel":"031-866-6696","addr":"경기도 양주시 율정동 131-2번지 1층,2층","indutype":"자동차정비 유지 - 카인테리어","category":"car"}]},{"lat":"37.817892899","long":"127.10300627","imageIndex":0,"items":[{"name":"회정모터스","tel":"031-861-8971","addr":"경기도 양주시 율정동 75-2번지","indutype":"자동차정비 유지 - 자동차정비","category":"car"}]},{"lat":"37.815840911","long":"127.11076019","imageIndex":7,"items":[{"name":"(주)맛있는세상","tel":"031-865-0437","addr":"경기도 양주시 율정동 55-1번지","indutype":"음료식품 - 제과점","category":"food"}]},{"lat":"37.83985969","long":"127.10084338","imageIndex":7,"items":[{"name":"(주)히든트랙브루잉","tel":"070-4286-9193","addr":"경기도 양주시 율정동 304-13번지 에이동 비동","indutype":"음료식품 - 주류 판매점","category":"food"}]},{"lat":"37.827783252","long":"127.10533679","imageIndex":7,"items":[{"name":"농업회사법인 주식회사 청운에프앤비(F&B)","tel":"031-868-7847","addr":"경기도 양주시 율정동 185-2번지 가동","indutype":"음료식품 - 정육점","category":"food"}]},{"lat":"37.830757369","long":"127.10417091","imageIndex":7,"items":[{"name":"어화조아","tel":"031-821-2826","addr":"경기도 양주시 율정동 229-1번지 1층","indutype":"음료식품 - 농·축·수산품","category":"food"}]},{"lat":"37.826560205","long":"127.10273401","imageIndex":7,"items":[{"name":"유진생수유통","tel":"031-861-1459","addr":"경기도 양주시 율정동 414-5번지","indutype":"음료식품 - 기타음료식품","category":"food"},{"name":"평화렌탈","tel":"031-865-5706","addr":"경기도 양주시 율정동 414-5번지","indutype":"음료식품 - 기타음료식품","category":"food"}]},{"lat":"37.816313971","long":"127.10565029","imageIndex":7,"items":[{"name":"유진푸드","tel":"031-847-7942","addr":"경기도 양주시 율정동 62-1번지","indutype":"음료식품 - 기타음료식품","category":"food"}]},{"lat":"37.838643295","long":"127.08950419","imageIndex":7,"items":[{"name":"율정제분소","tel":"031-866-5093","addr":"경기도 양주시 율정동 603-21번지","indutype":"음료식품 - 제과점","category":"food"}]},{"lat":"37.819397503","long":"127.10297423","imageIndex":7,"items":[{"name":"지평편의점","tel":"031-865-7489","addr":"경기도 양주시 율정동 121-2번지","indutype":"음료식품 - 기타음료식품","category":"food"}]},{"lat":"37.826952821","long":"127.10711892","imageIndex":17,"items":[{"name":"(주)신조로스타","tel":"031-865-0286","addr":"경기도 양주시 율정동 177-2번지","indutype":"주방용구 - 주방용구","category":"other"}]},{"lat":"37.826834515","long":"127.1084477","imageIndex":17,"items":[{"name":"(주)플러스비","tel":"031-868-9694","addr":"경기도 양주시 율정동 178-1번지","indutype":"직물 - 기타직물","category":"other"}]},{"lat":"37.840392779","long":"127.09898095","imageIndex":17,"items":[{"name":"거진기계","tel":"031-866-8250","addr":"경기도 양주시 율정동 309-7번지","indutype":"기타 - 기계공구","category":"other"}]},{"lat":"37.830277915","long":"127.10641934","imageIndex":17,"items":[{"name":"고려전기로개발","tel":"031-865-9590","addr":"경기도 양주시 율정동 221번지","indutype":"기타 - 기타 전문점","category":"other"}]},{"lat":"37.822584571","long":"127.10561355","imageIndex":17,"items":[{"name":"광성산업","tel":"031-866-4523","addr":"경기도 양주시 율정동 138번지","indutype":"가구 - 기타가구","category":"other"}]},{"lat":"37.838196146","long":"127.0969219","imageIndex":17,"items":[{"name":"기현","tel":"031-866-1135","addr":"경기도 양주시 율정동 572","indutype":"기타 - 기계공구","category":"other"}]},{"lat":"37.83091896","long":"127.10484132","imageIndex":17,"items":[{"name":"대원무역","tel":"031-866-5096","addr":"경기도 양주시 율정동 228-1번지","indutype":"직물 - 옷감·직물","category":"other"}]},{"lat":"37.819505258","long":"127.10339459","imageIndex":17,"items":[{"name":"동아기계","tel":"031-866-8560","addr":"경기도 양주시 율정동 121-27번지","indutype":"기타 - 기계공구","category":"other"},{"name":"주식회사정암에스피","tel":"031-865-0913","addr":"경기도 양주시 율정동 121-27번지","indutype":"기타 - 기타 전문점","category":"other"}]},{"lat":"37.826501907","long":"127.10761806","imageIndex":17,"items":[{"name":"미래스포츠","tel":"031-849-7852","addr":"경기도 양주시 율정동 165-15번지","indutype":"레져용품 - 스포츠·레져용품","category":"other"},{"name":"패논 티엔씨","tel":"031-865-5803","addr":"경기도 양주시 율정동 165-15번지 1층","indutype":"전기제품 - 기타전기제품","category":"other"},{"name":"현대스포츠","tel":"031-848-9018","addr":"경기도 양주시 율정동 165-15번지","indutype":"레져용품 - 스포츠·레져용품","category":"other"}]},{"lat":"37.816313971","long":"127.10565029","imageIndex":17,"items":[{"name":"베리따소파","tel":"","addr":"경기도 양주시 율정동 62-1번지 1층","indutype":"가구 - 일반가구","category":"other"}]},{"lat":"37.83572317","long":"127.09095484","imageIndex":17,"items":[{"name":"선우천막","tel":"031-866-8978","addr":"경기도 양주시 율정동 613-2번지 1 3","indutype":"직물 - 카페트,커튼,천막,지물","category":"other"}]},{"lat":"37.819613748","long":"127.1029518","imageIndex":17,"items":[{"name":"선일비니루","tel":"031-848-3731","addr":"경기도 양주시 율정동 121-7번지","indutype":"기타 - 기타 전문점","category":"other"}]},{"lat":"37.838724129","long":"127.08984509","imageIndex":17,"items":[{"name":"성지밧데리","tel":"031-866-6678","addr":"경기도 양주시 율정동 603-14번지","indutype":"수리서비스 - 기타수리서비스","category":"other"}]},{"lat":"37.815564991","long":"127.10701206","imageIndex":17,"items":[{"name":"신호가구","tel":"031-866-6187","addr":"경기도 양주시 율정동 60번지 1층 지상 1층","indutype":"주방용구 - 주방용구","category":"other"}]},{"lat":"37.81244804","long":"127.11642204","imageIndex":17,"items":[{"name":"아트도어 중문나라","tel":"031-829-0312","addr":"경기도 양주시 율정동 617-8번지 외1필지","indutype":"건축자재 - 기타건축자재","category":"other"}]},{"lat":"37.836500645","long":"127.09906678","imageIndex":17,"items":[{"name":"안국사","tel":"031-866-4440","addr":"경기도 양주시 율정동 326-1","indutype":"회원제형태 - 기타4","category":"other"}]},{"lat":"37.841083413","long":"127.10269678","imageIndex":17,"items":[{"name":"양주시청 양주시립회암사지박물관/문화비","tel":"031-8082-4173","addr":"경기도 양주시 율정동 299-1번지","indutype":"문화.취미 - 티켓","category":"other"},{"name":"양주시청/회암사지박물관","tel":"031-8082-4242","addr":"경기도 양주시 율정동 299-1번지 회암사지박물관","indutype":"문화.취미 - 티켓","category":"other"}]},{"lat":"37.837168089","long":"127.10870098","imageIndex":17,"items":[{"name":"양주콘테이너","tel":"031-866-1711","addr":"경기도 양주시 율정동 2-1번지","indutype":"기타 - 기타 전문점","category":"other"}]},{"lat":"37.82047531","long":"127.10681452","imageIndex":17,"items":[{"name":"어울림스포츠(제이앤에이치)","tel":"031-1899-3303","addr":"경기도 양주시 율정동 114번지","indutype":"레져용품 - 스포츠·레져용품","category":"other"}]},{"lat":"37.830478194","long":"127.10403422","imageIndex":17,"items":[{"name":"엠나인","tel":"031-862-2236","addr":"경기도 양주시 율정동 226-6번지","indutype":"신변잡화 - 기타잡화","category":"other"},{"name":"주식회사 와이제이홈데코","tel":"031-862-0740","addr":"경기도 양주시 율정동 226-6번지","indutype":"용역 서비스 - 기타용역서비스","category":"other"}]},{"lat":"37.819423434","long":"127.10425764","imageIndex":17,"items":[{"name":"영우포장산업","tel":"031-858-5300","addr":"경기도 양주시 율정동 120-5번지","indutype":"기타 - 기계공구","category":"other"}]},{"lat":"37.822314575","long":"127.1052838","imageIndex":17,"items":[{"name":"영진산업","tel":"031-866-1205","addr":"경기도 양주시 율정동 138-6번지","indutype":"신변잡화 - 기타잡화","category":"other"}]},{"lat":"37.839840625","long":"127.102093","imageIndex":17,"items":[{"name":"우드아이홈","tel":"031-844-7722","addr":"경기도 양주시 율정동 282-11번지","indutype":"가구 - 일반가구","category":"other"}]},{"lat":"37.838670523","long":"127.08923158","imageIndex":17,"items":[{"name":"율정포장","tel":"031-865-7462","addr":"경기도 양주시 율정동 603-1번지","indutype":"유통업 영리 - 기타유통업","category":"other"}]},{"lat":"37.82728526","long":"127.10814166","imageIndex":17,"items":[{"name":"으뜸도어(중문,현관)","tel":"031-861-0021","addr":"경기도 양주시 율정동 179-8번지 A동","indutype":"건축자재 - 기타건축자재","category":"other"}]},{"lat":"37.838948934","long":"127.09042474","imageIndex":17,"items":[{"name":"이마트24 양주IC점","tel":"031-111-1111","addr":"경기도 양주시 율정동 596-17번지 1층","indutype":"유통업 영리 - 편 의 점","category":"other"},{"name":"한국태양에너지기술(주)","tel":"031-1522-3837","addr":"경기도 양주시 율정동 596-17번지 4층","indutype":"용역 서비스 - 기타용역서비스","category":"other"}]},{"lat":"37.823008969","long":"127.10451242","imageIndex":17,"items":[{"name":"이지웨어","tel":"","addr":"경기도 양주시 율정동 137-4번지","indutype":"의류 - 정장","category":"other"}]},{"lat":"37.819423316","long":"127.10439393","imageIndex":17,"items":[{"name":"인테리어드림","tel":"031-852-3386","addr":"경기도 양주시 율정동 120-23번지","indutype":"건축자재 - 인테리어전문","category":"other"}]},{"lat":"37.832666508","long":"127.09419999","imageIndex":17,"items":[{"name":"재성섬유","tel":"031-858-6120","addr":"경기도 양주시 율정동 539-8번지","indutype":"유통업 영리 - 기타유통업","category":"other"}]},{"lat":"37.815840911","long":"127.11076019","imageIndex":17,"items":[{"name":"주식회사 코바","tel":"031-855-9376","addr":"경기도 양주시 율정동 55-1번지 외3필지","indutype":"주방용구 - 주방용구","category":"other"}]},{"lat":"37.821979098","long":"127.10770253","imageIndex":17,"items":[{"name":"진명","tel":"031-792-8393","addr":"경기도 양주시 율정동 142-1번지","indutype":"기타 - 기계공구","category":"other"}]},{"lat":"37.817507739","long":"127.11067176","imageIndex":17,"items":[{"name":"천보잡화","tel":"031-866-9120","addr":"경기도 양주시 율정동 44-3","indutype":"신변잡화 - 기타잡화","category":"other"}]},{"lat":"37.825618812","long":"127.1078099","imageIndex":17,"items":[{"name":"티비씨 코리아(TBC KOREA)","tel":"031-863-7499","addr":"경기도 양주시 율정동 164-3번지 1층","indutype":"문화.취미 - 애완동물","category":"other"}]},{"lat":"37.815447607","long":"127.10730717","imageIndex":17,"items":[{"name":"판다옥션","tel":"","addr":"경기도 양주시 율정동 58-8번지","indutype":"전기제품 - 가전제품","category":"other"}]},{"lat":"37.840004189","long":"127.10042323","imageIndex":17,"items":[{"name":"한누리24","tel":"070-7553-5251","addr":"경기도 양주시 율정동 304-14번지 1층","indutype":"유통업 영리 - 편 의 점","category":"other"}]},{"lat":"37.838561073","long":"127.09103773","imageIndex":17,"items":[{"name":"한빛종합기획","tel":"031-865-1263","addr":"경기도 양주시 율정동 598-3","indutype":"기타 - 기타 전문점","category":"other"}]},{"lat":"37.820286821","long":"127.10600787","imageIndex":17,"items":[{"name":"해송쇼파","tel":"031-847-8625","addr":"경기도 양주시 율정동 115번지","indutype":"가구 - 일반가구","category":"other"}]},{"lat":"37.836867407","long":"127.0908994","imageIndex":17,"items":[{"name":"현대배관","tel":"031-865-0293","addr":"경기도 양주시 율정동 611-5","indutype":"기타 - 기계공구","category":"other"}]},{"lat":"37.819089772","long":"127.10462062","imageIndex":4,"items":[{"name":"1004네","tel":"031-866-8848","addr":"경기도 양주시 율정동 120-22번지","indutype":"일반휴게음식 - 일반한식","category":"restaurant"}]},{"lat":"37.828668974","long":"127.10206669","imageIndex":4,"items":[{"name":"135부대찌개 묵은지김치찌개 솥뚜껑삼겹살","tel":"031-821-4987","addr":"경기도 양주시 율정동 406-14번지 나동 1층","indutype":"일반휴게음식 - 일반한식","category":"restaurant"},{"name":"406카페","tel":"031-866-4060","addr":"경기도 양주시 율정동 406-14번지 가동 101호","indutype":"일반휴게음식 - 서양음식","category":"restaurant"}]},{"lat":"37.819256653","long":"127.10948178","imageIndex":4,"items":[{"name":"26공격회관","tel":"031-889-1973","addr":"경기도 양주시 율정동 37-7번지","indutype":"일반휴게음식 - 일반한식","category":"restaurant"},{"name":"박경희푸드시스템","tel":"031-889-1973","addr":"경기도 양주시 율정동 37-7번지 복지회관 1층","indutype":"일반휴게음식 - 스넥","category":"restaurant"}]},{"lat":"37.823675047","long":"127.10522889","imageIndex":4,"items":[{"name":"가을섬","tel":"031-865-8383","addr":"경기도 양주시 율정동 158-3번지","indutype":"일반휴게음식 - 일반한식","category":"restaurant"}]},{"lat":"37.819423316","long":"127.10439393","imageIndex":4,"items":[{"name":"다드림식당","tel":"031-862-0096","addr":"경기도 양주시 율정동 120-23번지 1층","indutype":"일반휴게음식 - 일반한식","category":"restaurant"}]},{"lat":"37.840004048","long":"127.10059364","imageIndex":4,"items":[{"name":"댓돌","tel":"031-866-8367","addr":"경기도 양주시 율정동 304-10 1층","indutype":"일반휴게음식 - 일반한식","category":"restaurant"}]},{"lat":"37.819676505","long":"127.10331532","imageIndex":4,"items":[{"name":"덕현식당","tel":"031-847-7583","addr":"경기도 양주시 율정동 121-1 가동","indutype":"일반휴게음식 - 일반한식","category":"restaurant"}]},{"lat":"37.841083413","long":"127.10269678","imageIndex":4,"items":[{"name":"도이창카페 회암사지박물관점","tel":"031-705-1417","addr":"경기도 양주시 율정동 299-1번지 1층","indutype":"일반휴게음식 - 서양음식","category":"restaurant"}]},{"lat":"37.831611257","long":"127.106478","imageIndex":4,"items":[{"name":"두래안","tel":"031-857-5943","addr":"경기도 양주시 율정동 261-9번지","indutype":"일반휴게음식 - 일반한식","category":"restaurant"}]},{"lat":"37.819397503","long":"127.10297423","imageIndex":4,"items":[{"name":"맛있는순대국","tel":"031-866-3303","addr":"경기도 양주시 율정동 121-2번지","indutype":"일반휴게음식 - 일반한식","category":"restaurant"}]},{"lat":"37.823342327","long":"127.10450152","imageIndex":4,"items":[{"name":"맷돌집","tel":"031-863-3946","addr":"경기도 양주시 율정동 137-8번지","indutype":"일반휴게음식 - 일반한식","category":"restaurant"},{"name":"이본가설렁탕","tel":"","addr":"경기도 양주시 율정동 137-8번지","indutype":"일반휴게음식 - 일반한식","category":"restaurant"},{"name":"카페,다옴","tel":"","addr":"경기도 양주시 율정동 137-8번지 1층","indutype":"일반휴게음식 - 서양음식","category":"restaurant"}]},{"lat":"37.839976604","long":"127.10109346","imageIndex":4,"items":[{"name":"보양식당","tel":"031-865-2616","addr":"경기도 양주시 율정동 304-8번지","indutype":"일반휴게음식 - 일반한식","category":"restaurant"}]},{"lat":"37.827587518","long":"127.10245143","imageIndex":4,"items":[{"name":"상기리카페라네","tel":"031-111-1111","addr":"경기도 양주시 율정동 413-1번지 1층","indutype":"일반휴게음식 - 서양음식","category":"restaurant"}]},{"lat":"37.820334319","long":"127.10316857","imageIndex":4,"items":[{"name":"서울막창.곱창","tel":"031-855-3840","addr":"경기도 양주시 율정동 124-1번지 1층","indutype":"일반휴게음식 - 일반한식","category":"restaurant"},{"name":"장군조개해물","tel":"031-847-3359","addr":"경기도 양주시 율정동 124-1번지 1층","indutype":"일반휴게음식 - 일반한식","category":"restaurant"}]},{"lat":"37.815475387","long":"127.10645545","imageIndex":4,"items":[{"name":"양촌갈비","tel":"031-847-2486","addr":"경기도 양주시 율정동 61-4번지","indutype":"일반휴게음식 - 일반한식","category":"restaurant"}]},{"lat":"37.822171455","long":"127.10409103","imageIndex":4,"items":[{"name":"지우네 튀김","tel":"031-1111-111","addr":"경기도 양주시 율정동 산33번지","indutype":"일반휴게음식 - 일반한식","category":"restaurant"}]},{"lat":"37.819369113","long":"127.10456422","imageIndex":4,"items":[{"name":"참수물숯불갈비","tel":"031-865-0159","addr":"경기도 양주시 율정동 120-3번지","indutype":"일반휴게음식 - 일반한식","category":"restaurant"}]},{"lat":"37.839610221","long":"127.09742355","imageIndex":4,"items":[{"name":"천보농장가든","tel":"031-865-4883","addr":"경기도 양주시 율정동 311-5","indutype":"일반휴게음식 - 일반한식","category":"restaurant"}]},{"lat":"37.83978357","long":"127.10559195","imageIndex":4,"items":[{"name":"파주닭국수","tel":"031-866-1807","addr":"경기도 양주시 율정동 283-30번지","indutype":"일반휴게음식 - 일반한식","category":"restaurant"}]},{"lat":"37.827587518","long":"127.10245143","imageIndex":16,"items":[{"name":"수뮤직아카데미학원","tel":"031-858-3232","addr":"경기도 양주시 율정동 413-1번지 3층","indutype":"학원 - 예·체능계학원","category":"study"},{"name":"파머스어학매쓰피아수학전문학원","tel":"031-858-3232","addr":"경기도 양주시 율정동 413-1번지 1층","indutype":"학원 - 보습학원","category":"study"}]},{"lat":"37.824755404","long":"127.10611631","imageIndex":16,"items":[{"name":"양주팬텀 유소년축구클럽","tel":"070-7777-3387","addr":"경기도 양주시 율정동 160번지","indutype":"학원 - 예·체능계학원","category":"study"}]},{"lat":"37.839361924","long":"127.09234513","imageIndex":9,"items":[{"name":"옥정LPG충전소","tel":"031-863-5149","addr":"경기도 양주시 율정동 596-1번지 11","indutype":"연료판매점 - E1가스충전소","category":"oil"}]},{"lat":"37.823342327","long":"127.10450152","imageIndex":13,"items":[{"name":"율정스크린골프","tel":"031-846-5014","addr":"경기도 양주시 율정동 137-8번지 2층","indutype":"레저업소 - 스크린골프","category":"leisure"}]},{"lat":"37.839143784","long":"127.10572739","imageIndex":5,"items":[{"name":"카라모텔","tel":"031-866-6356","addr":"경기도 양주시 율정동 283-14번지","indutype":"숙박업 - 여관/기타숙박업","category":"hotel"}]}]