[{"lat":"36.964465428","long":"127.06348547","imageIndex":4,"items":[{"name":"21세기김밥천국","tel":"031-691-0078","addr":"경기도 평택시 팽성읍 객사리 111-8","indutype":"일반휴게음식 - 스넥","category":"restaurant"}]},{"lat":"36.966467674","long":"127.05972521","imageIndex":4,"items":[{"name":"2에이치파트너(2HPartner)","tel":"","addr":"경기도 평택시 팽성읍 객사리 164-57번지 1층","indutype":"일반휴게음식 - 서양음식","category":"restaurant"}]},{"lat":"36.964358873","long":"127.06031879","imageIndex":4,"items":[{"name":"59쌀피자","tel":"031-653-5945","addr":"경기도 평택시 팽성읍 객사리 126-3번지 안트빌딩 1층","indutype":"일반휴게음식 - 서양음식","category":"restaurant"},{"name":"투다리","tel":"031-651-5593","addr":"경기도 평택시 팽성읍 객사리 126-3번지 안트빌딩 1층","indutype":"일반휴게음식 - 주점","category":"restaurant"},{"name":"포천이동숯불갈비","tel":"031-651-2394","addr":"경기도 평택시 팽성읍 객사리 126-3번지","indutype":"일반휴게음식 - 일반한식","category":"restaurant"},{"name":"포천이동숯불갈비","tel":"031-652-1740","addr":"경기도 평택시 팽성읍 객사리 126-3번지","indutype":"음식점 - 한식","category":"restaurant"}]},{"lat":"36.96430525","long":"127.05939796","imageIndex":4,"items":[{"name":"69삼겹살","tel":"031-691-2307","addr":"경기도 평택시 팽성읍 객사리 135-6번지 외1필지","indutype":"일반휴게음식 - 일반한식","category":"restaurant"},{"name":"왕겨삼겹살","tel":"","addr":"경기도 평택시 팽성읍 객사리 135-6번지","indutype":"음식점 - 한식","category":"restaurant"}]},{"lat":"36.964465571","long":"127.06320474","imageIndex":4,"items":[{"name":"88핫도그(평택1호점)","tel":"031-000-0000","addr":"경기도 평택시 팽성읍 객사리 47-11번지 1층","indutype":"일반휴게음식 - 스넥","category":"restaurant"}]},{"lat":"36.964332795","long":"127.05830876","imageIndex":4,"items":[{"name":"BC800커피","tel":"031-657-3804","addr":"경기도 평택시 팽성읍 객사리 144-4번지 1층","indutype":"음식점 - 카페","category":"restaurant"},{"name":"비씨800(BC800)","tel":"031-618-0048","addr":"경기도 평택시 팽성읍 객사리 144-4번지","indutype":"일반휴게음식 - 서양음식","category":"restaurant"}]},{"lat":"36.966946193","long":"127.05770426","imageIndex":4,"items":[{"name":"강병진갈비탕","tel":"031-653-6008","addr":"경기도 평택시 팽성읍 객사리 222번지","indutype":"일반휴게음식 - 일반한식","category":"restaurant"},{"name":"무진장","tel":"031-647-0999","addr":"경기도 평택시 팽성읍 객사리 222번지","indutype":"음식점 - 한식","category":"restaurant"}]},{"lat":"36.964861532","long":"127.06420445","imageIndex":4,"items":[{"name":"강촌","tel":"031-691-6920","addr":"경기도 평택시 팽성읍 객사리 92-3번지","indutype":"일반휴게음식 - 일반한식","category":"restaurant"}]},{"lat":"36.96546816","long":"127.05828712","imageIndex":4,"items":[{"name":"게리꼬","tel":"070-7776-3424","addr":"경기도 평택시 팽성읍 객사리 154-3번지 행복한집 1층","indutype":"일반휴게음식 - 서양음식","category":"restaurant"}]},{"lat":"36.964278856","long":"127.05803922","imageIndex":4,"items":[{"name":"고기특별시팽성점","tel":"031-618-8891","addr":"경기도 평택시 팽성읍 객사리 144-5번지 1층","indutype":"일반휴게음식 - 일반한식","category":"restaurant"},{"name":"맘스터치 평택팽성점","tel":"031-691-8825","addr":"경기도 평택시 팽성읍 객사리 144-5번지 서은빌딩 1층","indutype":"일반휴게음식 - 서양음식","category":"restaurant"}]},{"lat":"36.964692259","long":"127.06034149","imageIndex":4,"items":[{"name":"국수나무 팽성점","tel":"","addr":"경기도 평택시 팽성읍 객사리 161-12번지 1층","indutype":"음식점 - 한식","category":"restaurant"},{"name":"국수나무 팽성점","tel":"031-618-1661","addr":"경기도 평택시 팽성읍 객사리 161-12번지 1층","indutype":"일반휴게음식 - 스넥","category":"restaurant"}]},{"lat":"36.964276459","long":"127.06298001","imageIndex":4,"items":[{"name":"꼬마김밥","tel":"031-652-9399","addr":"경기도 평택시 팽성읍 객사리 116-9번지","indutype":"일반휴게음식 - 일반한식","category":"restaurant"},{"name":"꼬마김밥","tel":"031-691-5872","addr":"경기도 평택시 팽성읍 객사리 116-9번지","indutype":"음식점 - 한식","category":"restaurant"},{"name":"쥬씨(팽성점)","tel":"031-655-6718","addr":"경기도 평택시 팽성읍 객사리 116-9번지","indutype":"일반휴게음식 - 서양음식","category":"restaurant"}]},{"lat":"36.964080698","long":"127.05787064","imageIndex":4,"items":[{"name":"낙원식당","tel":"031-655-5551","addr":"경기도 평택시 팽성읍 객사리 142-13번지","indutype":"음식점 - 한식","category":"restaurant"},{"name":"낙원식당","tel":"031-653-6030","addr":"경기도 평택시 팽성읍 객사리 142-13번지 1층","indutype":"일반휴게음식 - 일반한식","category":"restaurant"}]},{"lat":"36.965557356","long":"127.06020739","imageIndex":4,"items":[{"name":"놀부보쌈팽성점","tel":"031-111-1111","addr":"경기도 평택시 팽성읍 객사리 161-1번지","indutype":"일반휴게음식 - 일반한식","category":"restaurant"},{"name":"놀부보쌈팽성점","tel":"031-657-9998","addr":"경기도 평택시 팽성읍 객사리 161-1번지 1층","indutype":"음식점 - 한식","category":"restaurant"}]},{"lat":"36.966856112","long":"127.05764805","imageIndex":4,"items":[{"name":"능이백숙","tel":"031-654-4359","addr":"경기도 평택시 팽성읍 객사리 224-2번지 1층","indutype":"일반휴게음식 - 일반한식","category":"restaurant"}]},{"lat":"36.964112399","long":"127.06656195","imageIndex":4,"items":[{"name":"대양코다리","tel":"031-691-2031","addr":"경기도 평택시 팽성읍 객사리 101번지 1층","indutype":"일반휴게음식 - 일반한식","category":"restaurant"}]},{"lat":"36.964528192","long":"127.06409189","imageIndex":4,"items":[{"name":"뚱돼지돈","tel":"031-656-9016","addr":"경기도 평택시 팽성읍 객사리 111-3번지 1층","indutype":"일반휴게음식 - 일반한식","category":"restaurant"}]},{"lat":"36.964582949","long":"127.06273321","imageIndex":4,"items":[{"name":"뚱보식당","tel":"031-691-9656","addr":"경기도 평택시 팽성읍 객사리 47-28번지","indutype":"일반휴게음식 - 일반한식","category":"restaurant"},{"name":"뚱보식당","tel":"031-652-4998","addr":"경기도 평택시 팽성읍 객사리 47-28번지","indutype":"음식점 - 한식","category":"restaurant"},{"name":"은혜풀향기칼국수","tel":"031-654-3677","addr":"경기도 평택시 팽성읍 객사리 47-28번지 1층","indutype":"일반휴게음식 - 일반한식","category":"restaurant"},{"name":"은혜풀향기칼국수","tel":"031-691-9656","addr":"경기도 평택시 팽성읍 객사리 47-28번지","indutype":"음식점 - 한식","category":"restaurant"}]},{"lat":"36.964501699","long":"127.06303634","imageIndex":4,"items":[{"name":"롯데리아평택팽성점","tel":"031-618-5135","addr":"경기도 평택시 팽성읍 객사리 47-9번지","indutype":"음식점 - 햄버거","category":"restaurant"}]},{"lat":"36.964023832","long":"127.06361987","imageIndex":4,"items":[{"name":"막전","tel":"031-618-0021","addr":"경기도 평택시 팽성읍 객사리 112-21번지","indutype":"일반휴게음식 - 일반한식","category":"restaurant"}]},{"lat":"36.9657456","long":"127.06220635","imageIndex":4,"items":[{"name":"미가네","tel":"031-692-1406","addr":"경기도 평택시 팽성읍 객사리 174-19번지","indutype":"일반휴게음식 - 일반한식","category":"restaurant"},{"name":"미가네","tel":"","addr":"경기도 평택시 팽성읍 객사리 174-19번지","indutype":"음식점 - 한식","category":"restaurant"},{"name":"주당노가리호프","tel":"031-652-2588","addr":"경기도 평택시 팽성읍 객사리 174-19번지","indutype":"일반휴게음식 - 주점","category":"restaurant"}]},{"lat":"36.965827603","long":"127.06036481","imageIndex":4,"items":[{"name":"밥한술","tel":"031-656-2998","addr":"경기도 평택시 팽성읍 객사리 164-74번지 1층","indutype":"일반휴게음식 - 일반한식","category":"restaurant"}]},{"lat":"36.964194609","long":"127.06445096","imageIndex":4,"items":[{"name":"방일해장국","tel":"031-691-9185","addr":"경기도 평택시 팽성읍 객사리 109-5번지","indutype":"음식점 - 한식","category":"restaurant"},{"name":"방일해장국","tel":"031-691-0606","addr":"경기도 평택시 팽성읍 객사리 109-5번지 109-6 ,1층 상가전부","indutype":"일반휴게음식 - 일반한식","category":"restaurant"}]},{"lat":"36.965529275","long":"127.06234093","imageIndex":4,"items":[{"name":"빈스앤비노","tel":"031-652-4818","addr":"경기도 평택시 팽성읍 객사리 173-6번지 윤하빌딩 1층 101호","indutype":"일반휴게음식 - 서양음식","category":"restaurant"}]},{"lat":"36.964222269","long":"127.06322701","imageIndex":4,"items":[{"name":"빽다방 (평택팽성점)","tel":"031-692-8855","addr":"경기도 평택시 팽성읍 객사리 115-2번지 1층","indutype":"일반휴게음식 - 서양음식","category":"restaurant"}]},{"lat":"36.964690965","long":"127.06295788","imageIndex":4,"items":[{"name":"송죽원추어탕매기매운탕","tel":"","addr":"경기도 평택시 팽성읍 객사리 47-2번지","indutype":"음식점 - 한식","category":"restaurant"},{"name":"송죽원추어탕메기매운탕","tel":"031-652-4998","addr":"경기도 평택시 팽성읍 객사리 47-2번지 외필지","indutype":"일반휴게음식 - 일반한식","category":"restaurant"},{"name":"신행복한밥상","tel":"031-654-8900","addr":"경기도 평택시 팽성읍 객사리 47-2","indutype":"일반휴게음식 - 일반한식","category":"restaurant"}]},{"lat":"36.966243777","long":"127.05678295","imageIndex":4,"items":[{"name":"스시락","tel":"070-1111-1111","addr":"경기도 평택시 팽성읍 객사리 155-2번지","indutype":"일반휴게음식 - 일반한식","category":"restaurant"}]},{"lat":"36.963969894","long":"127.06337279","imageIndex":4,"items":[{"name":"싱싱스낵","tel":"031-656-4939","addr":"경기도 평택시 팽성읍 객사리 112-13번지 1층","indutype":"일반휴게음식 - 스넥","category":"restaurant"},{"name":"싱싱스낵","tel":"","addr":"경기도 평택시 팽성읍 객사리 112-13번지","indutype":"음식점 - 분식","category":"restaurant"}]},{"lat":"36.964582853","long":"127.06292411","imageIndex":4,"items":[{"name":"쌍용원","tel":"031-654-3677","addr":"경기도 평택시 팽성읍 객사리 47-14번지","indutype":"음식점 - 중식","category":"restaurant"}]},{"lat":"36.964384147","long":"127.06384474","imageIndex":4,"items":[{"name":"얌스 플러스","tel":"031-691-8778","addr":"경기도 평택시 팽성읍 객사리 111-24번지","indutype":"음식점 - 한식","category":"restaurant"},{"name":"얌스플러스","tel":"031-618-3988","addr":"경기도 평택시 팽성읍 객사리 111-24번지","indutype":"일반휴게음식 - 일반한식","category":"restaurant"}]},{"lat":"36.964194783","long":"127.06411409","imageIndex":4,"items":[{"name":"엄니순대국","tel":"031-656-2998","addr":"경기도 평택시 팽성읍 객사리 112-2번지","indutype":"음식점 - 한식","category":"restaurant"},{"name":"엄니순대국","tel":"031-652-2213","addr":"경기도 평택시 팽성읍 객사리 112-2번지","indutype":"일반휴게음식 - 일반한식","category":"restaurant"}]},{"lat":"36.964050933","long":"127.06348514","imageIndex":4,"items":[{"name":"와이블랙평택팽성점","tel":"031-618-5670","addr":"경기도 평택시 팽성읍 객사리 112-6번지 1층(상가)","indutype":"일반휴게음식 - 서양음식","category":"restaurant"},{"name":"카페루앤비 평택팽성점","tel":"031-656-4939","addr":"경기도 평택시 팽성읍 객사리 112-6번지","indutype":"음식점 - 커피","category":"restaurant"}]},{"lat":"36.966440914","long":"127.05915249","imageIndex":4,"items":[{"name":"요거프레소 평택팽성점","tel":"031-656-8775","addr":"경기도 평택시 팽성읍 객사리 164-11번지","indutype":"음식점 - 디저트","category":"restaurant"},{"name":"요거프레소 평택팽성점","tel":"031-653-6744","addr":"경기도 평택시 팽성읍 객사리 164-11번지","indutype":"일반휴게음식 - 서양음식","category":"restaurant"}]},{"lat":"36.964413629","long":"127.05887027","imageIndex":4,"items":[{"name":"우림각","tel":"031-691-6163","addr":"경기도 평택시 팽성읍 객사리 136-5번지","indutype":"일반휴게음식 - 중국식","category":"restaurant"},{"name":"우림각","tel":"031-653-7683","addr":"경기도 평택시 팽성읍 객사리 136-5번지","indutype":"음식점 - 중식","category":"restaurant"}]},{"lat":"36.964249788","long":"127.06226133","imageIndex":4,"items":[{"name":"우정분식","tel":"031-691-2779","addr":"경기도 평택시 팽성읍 객사리 119-1","indutype":"일반휴게음식 - 스넥","category":"restaurant"}]},{"lat":"36.964078279","long":"127.06286757","imageIndex":4,"items":[{"name":"우정분식","tel":"031-692-1881","addr":"경기도 평택시 팽성읍 객사리 115-12번지","indutype":"음식점 - 분식","category":"restaurant"}]},{"lat":"36.96654945","long":"127.05828791","imageIndex":4,"items":[{"name":"육장부대찌개","tel":"031-618-4758","addr":"경기도 평택시 팽성읍 객사리 223-11번지","indutype":"일반휴게음식 - 일반한식","category":"restaurant"}]},{"lat":"36.965277674","long":"127.06092585","imageIndex":4,"items":[{"name":"정석통바베큐족구이","tel":"031-691-9245","addr":"경기도 평택시 팽성읍 객사리 167-12번지 가동","indutype":"일반휴게음식 - 일반한식","category":"restaurant"}]},{"lat":"36.965052191","long":"127.06136362","imageIndex":4,"items":[{"name":"정원갈비","tel":"031-618-7925","addr":"경기도 평택시 팽성읍 객사리 168-12번지","indutype":"음식점 - 한식","category":"restaurant"}]},{"lat":"36.964555138","long":"127.06426035","imageIndex":4,"items":[{"name":"줄리앙와플팽성점","tel":"031-682-5892","addr":"경기도 평택시 팽성읍 객사리 111-1번지 1층","indutype":"일반휴게음식 - 서양음식","category":"restaurant"}]},{"lat":"36.963942936","long":"127.06322679","imageIndex":4,"items":[{"name":"즉석김밥전문점","tel":"031-691-8700","addr":"경기도 평택시 팽성읍 객사리 112-15번지","indutype":"일반휴게음식 - 스넥","category":"restaurant"},{"name":"즉석김밥전문점","tel":"031-691-7467","addr":"경기도 평택시 팽성읍 객사리 112-15번지","indutype":"음식점 - 분식","category":"restaurant"}]},{"lat":"36.964639135","long":"127.05836513","imageIndex":4,"items":[{"name":"참맛있는돈까스","tel":"031-654-1154","addr":"경기도 평택시 팽성읍 객사리 150-8번지","indutype":"일반휴게음식 - 일반한식","category":"restaurant"}]},{"lat":"36.963996685","long":"127.06384443","imageIndex":4,"items":[{"name":"최반장부대찌개","tel":"031-656-0203","addr":"경기도 평택시 팽성읍 객사리 112-29번지","indutype":"일반휴게음식 - 일반한식","category":"restaurant"}]},{"lat":"36.963996546","long":"127.06411393","imageIndex":4,"items":[{"name":"최반장부대찌개","tel":"031-618-5670","addr":"경기도 평택시 팽성읍 객사리 112-4번지","indutype":"음식점 - 한식","category":"restaurant"}]},{"lat":"36.9647731","long":"127.06086932","imageIndex":4,"items":[{"name":"최뿔따구","tel":"031-691-0288","addr":"경기도 평택시 팽성읍 객사리 124-8번지 B동","indutype":"일반휴게음식 - 일반한식","category":"restaurant"}]},{"lat":"36.965357606","long":"127.06326159","imageIndex":4,"items":[{"name":"카페 헤이즐","tel":"031-618-1209","addr":"경기도 평택시 팽성읍 객사리 44-3번지 1층","indutype":"음식점 - 카페","category":"restaurant"},{"name":"카페헤이즐","tel":"031-657-1273","addr":"경기도 평택시 팽성읍 객사리 44-3번지 1층","indutype":"일반휴게음식 - 서양음식","category":"restaurant"}]},{"lat":"36.964527235","long":"127.06592224","imageIndex":4,"items":[{"name":"칸타빌레커피앤펍","tel":"031-651-1078","addr":"경기도 평택시 팽성읍 객사리 102-5번지 1층","indutype":"일반휴게음식 - 서양음식","category":"restaurant"}]},{"lat":"36.969301468","long":"127.06862133","imageIndex":4,"items":[{"name":"컨테이너245","tel":"031-691-2277","addr":"경기도 평택시 팽성읍 객사리 19-29번지 1층","indutype":"음식점 - 카페","category":"restaurant"},{"name":"컨테이너245","tel":"031-658-0245","addr":"경기도 평택시 팽성읍 객사리 19-29번지 1층","indutype":"일반휴게음식 - 서양음식","category":"restaurant"}]},{"lat":"36.966917182","long":"127.06183668","imageIndex":4,"items":[{"name":"코브라독스","tel":"","addr":"경기도 평택시 팽성읍 객사리 176-20번지 1층 서해타워","indutype":"일반휴게음식 - 일반한식","category":"restaurant"}]},{"lat":"36.96427124","long":"127.05495122","imageIndex":4,"items":[{"name":"탐라도주막","tel":"031-618-9233","addr":"경기도 평택시 팽성읍 객사리 183-8번지 1층","indutype":"일반휴게음식 - 일반한식","category":"restaurant"}]},{"lat":"36.964744019","long":"127.06492302","imageIndex":4,"items":[{"name":"태가네동태탕","tel":"031-657-7742","addr":"경기도 평택시 팽성읍 객사리 92-2번지","indutype":"일반휴게음식 - 일반한식","category":"restaurant"}]},{"lat":"36.963998659","long":"127.05986935","imageIndex":4,"items":[{"name":"티버즈","tel":"031-618-6189","addr":"경기도 평택시 팽성읍 객사리 132-7번지","indutype":"음식점 - 카페","category":"restaurant"}]},{"lat":"36.964665053","long":"127.06070081","imageIndex":4,"items":[{"name":"파리바게뜨 평택송화점","tel":"031-691-0888","addr":"경기도 평택시 팽성읍 객사리 125-4번지","indutype":"음식점 - 제과점","category":"restaurant"}]},{"lat":"36.965439922","long":"127.06081368","imageIndex":4,"items":[{"name":"팽성자매네","tel":"031-651-2394","addr":"경기도 평택시 팽성읍 객사리 167-7번지 진송빌","indutype":"음식점 - 한식","category":"restaurant"},{"name":"팽성자매네","tel":"031-691-3155","addr":"경기도 평택시 팽성읍 객사리 167-7번지","indutype":"일반휴게음식 - 일반한식","category":"restaurant"}]},{"lat":"36.966359566","long":"127.05968021","imageIndex":4,"items":[{"name":"한끼식사","tel":"031-651-6163","addr":"경기도 평택시 팽성읍 객사리 164-2번지 101호","indutype":"일반휴게음식 - 일반한식","category":"restaurant"}]},{"lat":"36.964440148","long":"127.05994829","imageIndex":4,"items":[{"name":"황소부대찌개팽성점","tel":"031-691-4435","addr":"경기도 평택시 팽성읍 객사리 134-4","indutype":"일반휴게음식 - 일반한식","category":"restaurant"}]}]