[{"lat":"37.425803854","long":"126.99222829","imageIndex":16,"items":[{"name":"01 수학교습소","tel":"02-3418-1556","addr":"경기도 과천시 별양동 7-1번지 3층 301-9호","indutype":"학원 - 보습학원","category":"study"}]},{"lat":"37.428083503","long":"126.99350464","imageIndex":16,"items":[{"name":"강산국어학원","tel":"02-504-5210","addr":"경기도 과천시 별양동 1-7번지 백두상가 5층 501호","indutype":"학원 - 보습학원","category":"study"},{"name":"과천독서실","tel":"031-503-5150","addr":"경기도 과천시 별양동 1-7백두상가6층601~602호","indutype":"학원 - 독서실","category":"study"},{"name":"과천최강학원","tel":"02-3679-5224","addr":"경기도 과천시 별양동 1-7백두상가2층203,206","indutype":"학원 - 보습학원","category":"study"},{"name":"김성신수학교습소","tel":"02-1111-1111","addr":"경기도 과천시 별양동 1-7번지 백두빌딩 206호 일부","indutype":"학원 - 보습학원","category":"study"},{"name":"삼십일인의수학생각학원","tel":"02-503-7300","addr":"경기도 과천시 별양동 1-7번지 백두빌딩 3층 304,306호일부","indutype":"학원 - 보습학원","category":"study"},{"name":"임수학교습소","tel":"02-1111-1111","addr":"경기도 과천시 별양동 1-7번지 백두빌딩 206호","indutype":"학원 - 보습학원","category":"study"}]},{"lat":"37.423911882","long":"126.99388927","imageIndex":16,"items":[{"name":"공감영어학원","tel":"02-504-2772","addr":"경기도 과천시 별양동 15번지 2층 9호 일부, 10호 일부","indutype":"학원 - 보습학원","category":"study"},{"name":"과천비바체음악교습소","tel":"02-502-3003","addr":"경기도 과천시 별양동 15번지 동화나라유치원 3층 16호","indutype":"학원 - 예·체능계학원","category":"study"},{"name":"매쓰아카데미수학교습소","tel":"02-504-9080","addr":"경기도 과천시 별양동 15번지 동화나라유치원 3층 13호","indutype":"학원 - 보습학원","category":"study"},{"name":"에이매쓰수학학원","tel":"02-507-4984","addr":"경기도 과천시 별양동 15번지 11 2층 11호~12호","indutype":"학원 - 보습학원","category":"study"},{"name":"참예음음악학원","tel":"02-504-2911","addr":"경기도 과천시 별양동 15번지 3층","indutype":"학원 - 예·체능계학원","category":"study"}]},{"lat":"37.430444378","long":"126.99739097","imageIndex":16,"items":[{"name":"과천고등학교","tel":"02-3419-9195","addr":"경기도 과천시 별양동 5번지 과천고등학교","indutype":"학원 - 초중고교육기관","category":"study"},{"name":"과천고등학교_수업료","tel":"02-3419-9100","addr":"경기도 과천시 별양동 5번지 과천고등학교","indutype":"학원 - 초중고교육기관","category":"study"}]},{"lat":"37.423056048","long":"126.99564044","imageIndex":16,"items":[{"name":"과천문원중학교","tel":"02-507-4904","addr":"경기도 과천시 별양동 40번지 문원중학교","indutype":"학원 - 초중고교육기관","category":"study"}]},{"lat":"37.424353377","long":"126.99392311","imageIndex":16,"items":[{"name":"과천브레이니영어교습소","tel":"02-3679-0582","addr":"경기도 과천시 별양동 13번지 병원 상가 304호","indutype":"학원 - 보습학원","category":"study"},{"name":"글로벌영어학원","tel":"02-507-1577","addr":"경기도 과천시 별양동 13번지 병원 상가 301호","indutype":"학원 - 외국어학원","category":"study"},{"name":"리틀다빈치미술교습소","tel":"02-504-5045","addr":"경기도 과천시 별양동 13번지 3단지병원 3층 5호","indutype":"학원 - 예·체능계학원","category":"study"}]},{"lat":"37.427939294","long":"126.99291716","imageIndex":16,"items":[{"name":"과천실용음악학원","tel":"02-503-8222","addr":"경기도 과천시 별양동 1-11벽산상가510.513호","indutype":"학원 - 예·체능계학원","category":"study"},{"name":"수수학교습소","tel":"042-583-2142","addr":"경기도 과천시 별양동 1-11번지 벽산 상가 310호","indutype":"회원제형태 - 학원","category":"study"},{"name":"수학의 신","tel":"031-502-4152","addr":"경기도 과천시 별양동 1-11번지 벽산상가 306호, 318호","indutype":"학원 - 보습학원","category":"study"},{"name":"아이숲미술교습소","tel":"02-502-4471","addr":"경기도 과천시 별양동 1-11번지 벽산 상가 312호 311일부","indutype":"학원 - 예·체능계학원","category":"study"},{"name":"에스앤디스터디수학교습소","tel":"02-3418-7888","addr":"경기도 과천시 별양동 1-11번지 벽산상가 509호","indutype":"학원 - 보습학원","category":"study"},{"name":"올리브주니어영어교습소","tel":"02-507-7809","addr":"경기도 과천시 별양동 1-11번지 벽산 상가 507호 일부","indutype":"회원제형태 - 학원","category":"study"}]},{"lat":"37.463849453","long":"127.03432788","imageIndex":16,"items":[{"name":"과천실용음악학원","tel":"02-503-8222","addr":"경기도 과천시 별양동 1-11번지 벽산상가510호, 513호","indutype":"교육서비스업 - 음악학원","category":"study"}]},{"lat":"37.426750207","long":"126.99632925","imageIndex":16,"items":[{"name":"과천자유발도르프어린이집[아이행복]","tel":"02-503-4188","addr":"경기도 과천시 별양동 20-7번지","indutype":"학원 - 유아원","category":"study"}]},{"lat":"37.426885033","long":"126.99194569","imageIndex":16,"items":[{"name":"과천종합사회복지관","tel":"02-507-6319","addr":"경기도 과천시 별양동 1-17번지 과천타워 3층","indutype":"학원 - 기타 교육기관","category":"study"},{"name":"과천종합사회복지관","tel":"02-507-6319","addr":"경기도 과천시 별양동 1-17번지 과천타워 3층","indutype":"학원 - 기타 교육기관","category":"study"},{"name":"상상수학원","tel":"","addr":"경기도 과천시 별양동 1-17번지 과천타워 3층 308호","indutype":"학원 - 보습학원","category":"study"}]},{"lat":"37.427470731","long":"126.99244271","imageIndex":16,"items":[{"name":"과천한우리국어교습소","tel":"02-502-4011","addr":"경기도 과천시 별양동 1-14과천오피스텔3층B호일부","indutype":"학원 - 보습학원","category":"study"},{"name":"어센트교육학원","tel":"02-503-3087","addr":"경기도 과천시 별양동 1-14번지 과천오피스텔 3층 B호","indutype":"학원 - 보습학원","category":"study"},{"name":"조선생에듀학원","tel":"02-504-5001","addr":"경기도 과천시 별양동 1-14번지 과천오피스텔 3층 B호","indutype":"학원 - 보습학원","category":"study"},{"name":"즐거운스즈키음악학원","tel":"02-503-6336","addr":"경기도 과천시 별양동 1-14과천오피스텔3층C-1호,C-2호일부","indutype":"회원제형태 - 학원","category":"study"},{"name":"최진희언어교육원","tel":"02-502-0655","addr":"경기도 과천시 별양동 1-14번지 과천오피스텔 3층","indutype":"회원제형태 - 학원","category":"study"},{"name":"한토대","tel":"02-886-7114","addr":"경기도 과천시 별양동 1-14번지 과천오피스텔 4층 B-1호","indutype":"학원 - 기타 교육기관","category":"study"}]},{"lat":"37.427686932","long":"126.99200206","imageIndex":16,"items":[{"name":"관산서당국어교습소","tel":"02-507-2030","addr":"경기도 과천시 별양동 1-15번지 그레이스호텔 3층 342호","indutype":"학원 - 보습학원","category":"study"},{"name":"그레이스일등급영어교습소","tel":"02-501-1180","addr":"경기도 과천시 별양동 1-15번지 그레이스호텔 209호","indutype":"학원 - 보습학원","category":"study"},{"name":"지오엔터프라이즈(GlobalOutlookFnterprise","tel":"070-8823-3470","addr":"경기도 과천시 별양동 1-15번지 그레이스호텔 204호","indutype":"회원제형태 - 학원","category":"study"},{"name":"초암수학교습소","tel":"02-503-8877","addr":"경기도 과천시 별양동 1-15번지 에스트로쇼핑 3층 326호","indutype":"회원제형태 - 학원","category":"study"}]},{"lat":"37.424659801","long":"126.99508671","imageIndex":16,"items":[{"name":"그린나래아트미술교습소","tel":"02-503-7272","addr":"경기도 과천시 별양동 17번지 래미안슈르 상가동 301, 302호","indutype":"학원 - 예·체능계학원","category":"study"},{"name":"뉴조이음악학원","tel":"02-502-1515","addr":"경기도 과천시 별양동 17번지 래미안슈르 상가동 2001,2002호","indutype":"학원 - 예·체능계학원","category":"study"}]},{"lat":"37.428326791","long":"126.99371927","imageIndex":16,"items":[{"name":"더대치프라임수학관학원","tel":"070-8822-8829","addr":"경기도 과천시 별양동 1-5번지 신라상가501.502.503","indutype":"회원제형태 - 학원","category":"study"},{"name":"수학세상","tel":"02-507-0989","addr":"경기도 과천시 별양동 1-5번지 신라 상가 401호","indutype":"학원 - 보습학원","category":"study"},{"name":"아트댄스스튜디오 (Art Dance Studio)","tel":"070-4922-1261","addr":"경기도 과천시 별양동 1-5번지 신라 상가 304호","indutype":"학원 - 예·체능계학원","category":"study"},{"name":"작은숲 영어교습소","tel":"070-4254-0160","addr":"경기도 과천시 별양동 1-5번지 신라상가 2층 203호","indutype":"학원 - 외국어학원","category":"study"},{"name":"진영어교습소","tel":"02-3418-5001","addr":"경기도 과천시 별양동 1-5번지 신라 상가 4층 402호","indutype":"회원제형태 - 학원","category":"study"},{"name":"청계독서실","tel":"031-502-4003","addr":"경기도 과천시 별양동 1-5번지 신라 상가","indutype":"학원 - 독서실","category":"study"}]},{"lat":"37.428218636","long":"126.99327866","imageIndex":16,"items":[{"name":"더대치프라임학원","tel":"02-3678-8829","addr":"경기도 과천시 별양동 1-8번지 골든타워 502호","indutype":"학원 - 보습학원","category":"study"},{"name":"마르지않는샘학원","tel":"02-502-9951","addr":"경기도 과천시 별양동 1-8번지 골든타워 503호 501","indutype":"회원제형태 - 학원","category":"study"}]},{"lat":"37.427245524","long":"126.99295115","imageIndex":16,"items":[{"name":"디오수능영어교습소","tel":"070-3150-8734","addr":"경기도 과천시 별양동 1-13번지 제일쇼핑 3층 317호","indutype":"학원 - 외국어학원","category":"study"},{"name":"유유이학원","tel":"02-507-6620","addr":"경기도 과천시 별양동 1-13번지 제일쇼핑 3층","indutype":"학원 - 기타 교육기관","category":"study"},{"name":"이제이 수학교습소","tel":"031-423-2265","addr":"경기도 과천시 별양동 1-13번지 제일쇼핑 3층 302호","indutype":"학원 - 보습학원","category":"study"},{"name":"프랙탈수학학원","tel":"02-502-3434","addr":"경기도 과천시 별양동 1-13번지 제일쇼핑 6층 606호","indutype":"학원 - 보습학원","category":"study"},{"name":"회색뇌세포수학학원","tel":"02-504-7623","addr":"경기도 과천시 별양동 1-13번지 제일쇼핑 상가 6층 605호","indutype":"학원 - 보습학원","category":"study"}]},{"lat":"37.431804909","long":"126.99771853","imageIndex":16,"items":[{"name":"라온어린이집[아이행복]","tel":"02-507-5779","addr":"경기도 과천시 별양동 3번지 래미안센트럴스위트","indutype":"학원 - 유아원","category":"study"}]},{"lat":"37.426470739","long":"126.99394545","imageIndex":16,"items":[{"name":"라이브잉글리쉬","tel":"02-502-0823","addr":"경기도 과천시 별양동 7번지 삼호 상가 206호","indutype":"회원제형태 - 학원","category":"study"},{"name":"장샘기타교습소","tel":"02-848-1112","addr":"경기도 과천시 별양동 7번지 주공아파트 208호","indutype":"학원 - 예·체능계학원","category":"study"},{"name":"지엔지수학교습소","tel":"02-502-7320","addr":"경기도 과천시 별양동 7번지 복합상가 3층 304호","indutype":"회원제형태 - 학원","category":"study"}]},{"lat":"37.428606056","long":"126.99314303","imageIndex":16,"items":[{"name":"레핀미술학원","tel":"02-502-9707","addr":"경기도 과천시 별양동 1-3 제일상가3층5호~6호","indutype":"학원 - 예·체능계학원","category":"study"},{"name":"영신공학원","tel":"02-604-3814","addr":"경기도 과천시 별양동 1-3번지 제일상가빌딩 4층 407,408호","indutype":"학원 - 보습학원","category":"study"},{"name":"위너스수학교습소","tel":"070-4189-2468","addr":"경기도 과천시 별양동 1-3번지 제일상가 506호","indutype":"회원제형태 - 학원","category":"study"},{"name":"윤선생우리집앞영어교실별양영어교습소","tel":"02-567-0594","addr":"경기도 과천시 별양동 1-3번지 제일상가 4층 401호,402호","indutype":"학원 - 외국어학원","category":"study"},{"name":"지혜의숲학원","tel":"02-3679-5787","addr":"경기도 과천시 별양동 1-3번지 제일상가 508호~509호","indutype":"회원제형태 - 학원","category":"study"}]},{"lat":"37.424218245","long":"126.99417167","imageIndex":16,"items":[{"name":"마들렌피아노학원","tel":"02-502-4866","addr":"경기도 과천시 별양동 14번지 3층 3호","indutype":"학원 - 예·체능계학원","category":"study"},{"name":"어썸팩토리과천독서실","tel":"02-502-1007","addr":"경기도 과천시 별양동 14번지 2층","indutype":"학원 - 독서실","category":"study"}]},{"lat":"37.461128882","long":"127.0326087","imageIndex":16,"items":[{"name":"마르지않는샘수학학원","tel":"02-502-3999","addr":"경기도 과천시 별양동 1-8번지 골든타워 501,503호","indutype":"교육서비스업 - 학원","category":"study"}]},{"lat":"37.423632619","long":"126.99455584","imageIndex":16,"items":[{"name":"문원초등학교","tel":"02-507-5804","addr":"경기도 과천시 별양동 16번지 문원초등학교","indutype":"학원 - 초중고교육기관","category":"study"}]},{"lat":"37.424200315","long":"126.99550476","imageIndex":16,"items":[{"name":"봄내어린이집[아이행복]","tel":"02-3418-9970","addr":"경기도 과천시 별양동 17번지 래미안슈르 347동 102호","indutype":"학원 - 유아원","category":"study"}]},{"lat":"37.423803893","long":"126.99583242","imageIndex":16,"items":[{"name":"쇼팽음악학원","tel":"02-502-2708","addr":"경기도 과천시 별양동 1-4번지 상아빌딩 501호","indutype":"교육서비스업 - 음악학원","category":"study"}]},{"lat":"37.428470935","long":"126.99350459","imageIndex":16,"items":[{"name":"쇼팽음악학원","tel":"02-502-2708","addr":"경기도 과천시 별양동 1-4번지 상아빌딩 501호","indutype":"학원 - 예·체능계학원","category":"study"},{"name":"한수위수학학원","tel":"02-3678-8055","addr":"경기도 과천시 별양동 1-4번지 상아빌딩 604호","indutype":"학원 - 보습학원","category":"study"}]},{"lat":"37.423966153","long":"126.99731236","imageIndex":16,"items":[{"name":"시립 별양어린이집[아이행복]","tel":"02-507-5455","addr":"경기도 과천시 별양동 45번지 별양어린이집","indutype":"학원 - 유아원","category":"study"}]},{"lat":"37.447797006","long":"127.0167256","imageIndex":16,"items":[{"name":"어센트교육학원","tel":"02-503-3087","addr":"경기도 과천시 별양동 1-14번지 과천오피스텔 3층 B호","indutype":"서비스 - 보습학원","category":"study"}]},{"lat":"37.426326698","long":"126.99569661","imageIndex":16,"items":[{"name":"에덴동산어린이집[아이행복]","tel":"02-3679-3006","addr":"경기도 과천시 별양동 18-20번지 에덴동산어린이집 1층","indutype":"학원 - 유아원","category":"study"}]},{"lat":"37.426749933","long":"126.9924993","imageIndex":16,"items":[{"name":"에이매쓰수학학원","tel":"02-507-4984","addr":"경기도 과천시 별양동 15번지 2층11호~12호 11호","indutype":"서비스 - 학원","category":"study"},{"name":"조선생수학학원","tel":"02-504-5001","addr":"경기도 과천시 별양동 1-18번지 새서울프라자 511호","indutype":"학원 - 보습학원","category":"study"},{"name":"조선생수학학원","tel":"02-504-5001","addr":"경기도 과천시 별양동 1-18번지 새서울프라자 511호","indutype":"교육서비스업 - 보습학원","category":"study"},{"name":"종로학원하늘교육과천학원","tel":"02-507-4725","addr":"경기도 과천시 별양동 1-18 새서울쇼핑5층7호,12호,13호,13-1호","indutype":"학원 - 보습학원","category":"study"},{"name":"현대수학학원","tel":"02-507-5127","addr":"경기도 과천시 별양동 1-18번지 새서울프라자 5층 503호","indutype":"학원 - 보습학원","category":"study"}]},{"lat":"37.443770303","long":"126.99997777","imageIndex":16,"items":[{"name":"유유이학원","tel":"02-507-6620","addr":"경기도 과천시 별양동 1-13번지 제일쇼핑 3층","indutype":"교육서비스업 - 보습학원","category":"study"}]},{"lat":"37.459354971","long":"127.02805302","imageIndex":16,"items":[{"name":"작은숲 영어교습소","tel":"","addr":"경기도 과천시 별양동 1-5번지 신라상가 2층 203호","indutype":"교육서비스업 - 영어학원","category":"study"}]},{"lat":"37.433796229","long":"127.00131142","imageIndex":16,"items":[{"name":"조선생에듀학원","tel":"02-504-5001","addr":"경기도 과천시 별양동 1-14번지 과천오피스텔 3층B호","indutype":"교육서비스업 - 일반교과학원","category":"study"}]},{"lat":"37.450104174","long":"126.99594296","imageIndex":16,"items":[{"name":"즐거운스즈키음악학원","tel":"02-503-6336","addr":"경기도 과천시 별양동 1-14, 과천오피스텔3층C-1호,C-2호일부","indutype":"교육서비스업 - 음악학원","category":"study"}]},{"lat":"37.424020159","long":"126.9962504","imageIndex":16,"items":[{"name":"천사어린이집[아이행복]","tel":"02-503-2146","addr":"경기도 과천시 별양동 38-6번지","indutype":"학원 - 유아원","category":"study"}]},{"lat":"37.431075023","long":"126.99624978","imageIndex":16,"items":[{"name":"청계초등학교","tel":"031-502-3429","addr":"경기도 과천시 별양동 4번지 청계초등학교","indutype":"학원 - 초중고교육기관","category":"study"}]},{"lat":"37.429047731","long":"126.99569635","imageIndex":16,"items":[{"name":"코리아체육관","tel":"02-503-1383","addr":"경기도 과천시 별양동 6번지 5단지연아유치원 104호","indutype":"학원 - 예·체능계학원","category":"study"}]},{"lat":"37.425713662","long":"126.99125671","imageIndex":16,"items":[{"name":"코오롱어린이집[아이행복]","tel":"02-3677-5501","addr":"경기도 과천시 별양동 1-22번지","indutype":"학원 - 유아원","category":"study"}]},{"lat":"37.427966388","long":"126.99369672","imageIndex":16,"items":[{"name":"플랜비영어학원","tel":"031-000-0000","addr":"경기도 과천시 별양동 1-6번지 402호","indutype":"학원 - 외국어학원","category":"study"}]},{"lat":"37.420578027","long":"126.99225162","imageIndex":16,"items":[{"name":"회색뇌세포수학학원","tel":"02-504-7623","addr":"경기도 과천시 별양동 1-13번지 제일쇼핑 상가 6층 605호","indutype":"교육서비스업 - 학원","category":"study"}]}]