[{"lat":"37.775330599","long":"126.74676706","imageIndex":7,"items":[{"name":"(주)한국푸드닥터","tel":"02-2135-5541","addr":"경기도 파주시 검산동 114-42번지 인욱빌","indutype":"음료식품 - 기타음료식품","category":"food"}]},{"lat":"37.798692314","long":"126.73868175","imageIndex":7,"items":[{"name":"DMZ인삼농장","tel":"031-949-8456","addr":"경기도 파주시 검산동 448-2번지","indutype":"건강식품 - 인삼제품","category":"food"}]},{"lat":"37.773089563","long":"126.74371023","imageIndex":7,"items":[{"name":"KM유통","tel":"031-943-4450","addr":"경기도 파주시 검산동 276-13번지","indutype":"음료식품 - 정육점","category":"food"}]},{"lat":"37.7744508","long":"126.7482116","imageIndex":7,"items":[{"name":"디웰푸드(DwellFood)","tel":"031-944-2881","addr":"경기도 파주시 검산동 117-14번지","indutype":"음료식품 - 기타음료식품","category":"food"}]},{"lat":"37.774004918","long":"126.74207258","imageIndex":7,"items":[{"name":"심(  ) 참숯직화구이 정육점","tel":"031-945-9600","addr":"경기도 파주시 검산동 305-6번지","indutype":"음료식품 - 정육점","category":"food"}]},{"lat":"37.7742247","long":"126.74368357","imageIndex":7,"items":[{"name":"일품축산마트","tel":"031-944-8880","addr":"경기도 파주시 검산동 271번지","indutype":"음료식품 - 정육점","category":"food"}]},{"lat":"37.789310356","long":"126.73729607","imageIndex":7,"items":[{"name":"주식회사신안","tel":"031-211-6778","addr":"경기도 파주시 검산동 472-7번지","indutype":"음료식품 - 기타음료식품","category":"food"}]},{"lat":"37.786146192","long":"126.74457282","imageIndex":7,"items":[{"name":"청라푸드","tel":"070-8221-5032","addr":"경기도 파주시 검산동 352번지","indutype":"음료식품 - 농·축·수산품","category":"food"}]},{"lat":"37.774201999","long":"126.74565861","imageIndex":7,"items":[{"name":"헬스라이프","tel":"070-381-7647","addr":"경기도 파주시 검산동 117-8번지","indutype":"음료식품 - 농·축·수산품","category":"food"}]},{"lat":"37.77256025","long":"126.74473359","imageIndex":0,"items":[{"name":"24시자동관리(주)","tel":"031-949-7818","addr":"경기도 파주시 검산동 266-15번지","indutype":"자동차정비 유지 - 자동차부품","category":"car"},{"name":"검산자동차공업사","tel":"031-945-2770","addr":"경기도 파주시 검산동 266-15번지","indutype":"자동차정비 유지 - 자동차정비","category":"car"}]},{"lat":"37.772528645","long":"126.74676538","imageIndex":0,"items":[{"name":"DOC POWER","tel":"031-943-9478","addr":"경기도 파주시 검산동 135-13번지","indutype":"자동차정비 유지 - 자동차정비","category":"car"}]},{"lat":"37.775000272","long":"126.73995789","imageIndex":0,"items":[{"name":"스마일모터스","tel":"031-945-5926","addr":"경기도 파주시 검산동 298-4번지","indutype":"자동차정비 유지 - 자동차정비","category":"car"}]},{"lat":"37.774305622","long":"126.73554503","imageIndex":0,"items":[{"name":"주식회사유카스","tel":"031-942-7902","addr":"경기도 파주시 검산동 581-1번지","indutype":"자동차정비 유지 - 자동차정비","category":"car"}]},{"lat":"37.773089563","long":"126.74371023","imageIndex":4,"items":[{"name":"92(  )가좋아","tel":"031-946-2292","addr":"경기도 파주시 검산동 276-13번지","indutype":"일반휴게음식 - 일반한식","category":"restaurant"}]},{"lat":"37.773811065","long":"126.74404822","imageIndex":4,"items":[{"name":"고기로","tel":"031-946-5482","addr":"경기도 파주시 검산동 277-1번지","indutype":"일반휴게음식 - 일반한식","category":"restaurant"},{"name":"돈뼈락","tel":"031-949-1616","addr":"경기도 파주시 검산동 277-1번지","indutype":"일반휴게음식 - 일반한식","category":"restaurant"},{"name":"명가한정식뷔페","tel":"031-941-1671","addr":"경기도 파주시 검산동 277-1번지","indutype":"일반휴게음식 - 일반한식","category":"restaurant"}]},{"lat":"37.775086308","long":"126.74629118","imageIndex":4,"items":[{"name":"꼬꼬랑호프","tel":"031-945-5144","addr":"경기도 파주시 검산동 114-5번지","indutype":"일반휴게음식 - 주점","category":"restaurant"}]},{"lat":"37.773502222","long":"126.74290292","imageIndex":4,"items":[{"name":"데이앤","tel":"031-943-3352","addr":"경기도 파주시 검산동 274-1번지","indutype":"일반휴게음식 - 서양음식","category":"restaurant"}]},{"lat":"37.774784132","long":"126.74406753","imageIndex":4,"items":[{"name":"돼장군집","tel":"031-949-9290","addr":"경기도 파주시 검산동 309-5번지","indutype":"일반휴게음식 - 일반한식","category":"restaurant"},{"name":"호식이두마리치킨 금촌3동점","tel":"031-941-9992","addr":"경기도 파주시 검산동 309-5번지","indutype":"일반휴게음식 - 주점","category":"restaurant"}]},{"lat":"37.772500357","long":"126.74618662","imageIndex":4,"items":[{"name":"디스이즈 (this is)","tel":"070-7761-0907","addr":"경기도 파주시 검산동 135-7번지","indutype":"일반휴게음식 - 서양음식","category":"restaurant"},{"name":"산야초한방능이백숙","tel":"031-942-0809","addr":"경기도 파주시 검산동 135-7번지","indutype":"일반휴게음식 - 일반한식","category":"restaurant"}]},{"lat":"37.774199541","long":"126.74453493","imageIndex":4,"items":[{"name":"또봉이통닭 검산점","tel":"031-949-9282","addr":"경기도 파주시 검산동 310번지 유승아파트","indutype":"일반휴게음식 - 스넥","category":"restaurant"}]},{"lat":"37.775368187","long":"126.73929825","imageIndex":4,"items":[{"name":"소풍앤커피","tel":"","addr":"경기도 파주시 검산동 298-2번지","indutype":"일반휴게음식 - 서양음식","category":"restaurant"}]},{"lat":"37.774004918","long":"126.74207258","imageIndex":4,"items":[{"name":"심 참숯직화구이","tel":"031-945-9600","addr":"경기도 파주시 검산동 305-6번지","indutype":"일반휴게음식 - 일반한식","category":"restaurant"}]},{"lat":"37.77325278","long":"126.74418637","imageIndex":4,"items":[{"name":"안군비어&왕노가리 1000","tel":"","addr":"경기도 파주시 검산동 278-4번지","indutype":"일반휴게음식 - 일반한식","category":"restaurant"},{"name":"엉터리고기","tel":"031-943-0607","addr":"경기도 파주시 검산동 278-4번지","indutype":"일반휴게음식 - 일반한식","category":"restaurant"}]},{"lat":"37.774337839","long":"126.74187845","imageIndex":4,"items":[{"name":"어바웃레스트","tel":"070-8744-2008","addr":"경기도 파주시 검산동 305-36번지","indutype":"일반휴게음식 - 서양음식","category":"restaurant"}]},{"lat":"37.7742247","long":"126.74368357","imageIndex":4,"items":[{"name":"일품정육식당","tel":"031-944-8880","addr":"경기도 파주시 검산동 271번지","indutype":"일반휴게음식 - 일반한식","category":"restaurant"},{"name":"청궁","tel":"031-941-4399","addr":"경기도 파주시 검산동 271번지","indutype":"일반휴게음식 - 중국식","category":"restaurant"}]},{"lat":"37.77450617","long":"126.74059526","imageIndex":4,"items":[{"name":"헤이헤이","tel":"031-948-7890","addr":"경기도 파주시 검산동 296-8번지","indutype":"일반휴게음식 - 서양음식","category":"restaurant"}]},{"lat":"37.773286671","long":"126.74321013","imageIndex":4,"items":[{"name":"홈실가마솥추어탕","tel":"031-943-9920","addr":"경기도 파주시 검산동 275-1번지 상가좌측1,2,3","indutype":"일반휴게음식 - 일반한식","category":"restaurant"}]},{"lat":"37.77250803","long":"126.74557368","imageIndex":4,"items":[{"name":"황금오리","tel":"031-942-1440","addr":"경기도 파주시 검산동 135-10번지","indutype":"일반휴게음식 - 일반한식","category":"restaurant"}]},{"lat":"37.77525142","long":"126.73945757","imageIndex":4,"items":[{"name":"황실해물매운짬뽕짜장","tel":"031-944-7887","addr":"경기도 파주시 검산동 298-5번지","indutype":"일반휴게음식 - 중국식","category":"restaurant"}]},{"lat":"37.787257001","long":"126.74168544","imageIndex":17,"items":[{"name":"강호종합설비","tel":"031-949-0481","addr":"경기도 파주시 검산동 390-2번지","indutype":"용역 서비스 - 기타용역서비스","category":"other"}]},{"lat":"37.775170842","long":"126.73968487","imageIndex":17,"items":[{"name":"건영공구철물","tel":"031-944-8509","addr":"경기도 파주시 검산동 298-6번지","indutype":"기타 - 기계공구","category":"other"}]},{"lat":"37.775000272","long":"126.73995789","imageIndex":17,"items":[{"name":"검산상사","tel":"031-957-7834","addr":"경기도 파주시 검산동 298-4번지","indutype":"건축자재 - 페인트","category":"other"}]},{"lat":"37.791894232","long":"126.75721153","imageIndex":17,"items":[{"name":"골판지 공작소","tel":"031-945-6051","addr":"경기도 파주시 검산동 3-2번지","indutype":"유통업 영리 - 기타유통업","category":"other"}]},{"lat":"37.774679077","long":"126.745464","imageIndex":17,"items":[{"name":"나눔냉열(중고가전)","tel":"","addr":"경기도 파주시 검산동 310번지 유승아파트","indutype":"전기제품 - 냉열기기","category":"other"},{"name":"매일자판기","tel":"031-943-5317","addr":"경기도 파주시 검산동 310번지 유승아파트","indutype":"회원제형태 - 기타4","category":"other"},{"name":"엣지(edge)","tel":"","addr":"경기도 파주시 검산동 310번지 유승아파트","indutype":"신변잡화 - 액세서리","category":"other"}]},{"lat":"37.77355145","long":"126.74895246","imageIndex":17,"items":[{"name":"달리는 봉틀이","tel":"031-944-9606","addr":"경기도 파주시 검산동 130-8번지","indutype":"회원제형태 - 기타4","category":"other"}]},{"lat":"37.777505557","long":"126.74846219","imageIndex":17,"items":[{"name":"대영엔지니어링","tel":"031-938-6203","addr":"경기도 파주시 검산동 89-4번지","indutype":"기타 - 기타 전문점","category":"other"}]},{"lat":"37.774952687","long":"126.738823","imageIndex":17,"items":[{"name":"디에이치건설","tel":"031-000-0000","addr":"경기도 파주시 검산동 693-4번지","indutype":"건축자재 - 인테리어전문","category":"other"}]},{"lat":"37.792554674","long":"126.74173491","imageIndex":17,"items":[{"name":"보드타운","tel":"031-943-7852","addr":"경기도 파주시 검산동 412-5번지","indutype":"사무통신 - 기타 사무용품","category":"other"}]},{"lat":"37.77450617","long":"126.74059526","imageIndex":17,"items":[{"name":"삼양ENG","tel":"031-941-9958","addr":"경기도 파주시 검산동 296-8번지 왼쪽으로 4칸","indutype":"건축자재 - 보일러·펌프·샷시","category":"other"}]},{"lat":"37.777423025","long":"126.74779277","imageIndex":17,"items":[{"name":"삼정하이텍","tel":"031-946-3134","addr":"경기도 파주시 검산동 99-2번지","indutype":"기타 - 기계공구","category":"other"}]},{"lat":"37.786333919","long":"126.74390238","imageIndex":17,"items":[{"name":"선호기계","tel":"031-945-6336","addr":"경기도 파주시 검산동 374-4번지","indutype":"기타 - 기계공구","category":"other"}]},{"lat":"37.774199541","long":"126.74453493","imageIndex":17,"items":[{"name":"세기14냉동에어컨","tel":"070-4245-2981","addr":"경기도 파주시 검산동 310번지 유승아파트","indutype":"용역 서비스 - 기타용역서비스","category":"other"}]},{"lat":"37.77189259","long":"126.74843603","imageIndex":17,"items":[{"name":"소림조경","tel":"031-945-6904","addr":"경기도 파주시 검산동 868번지","indutype":"회원제형태 - 기타4","category":"other"}]},{"lat":"37.772730408","long":"126.74426764","imageIndex":17,"items":[{"name":"수디자인인테리어","tel":"031-944-3404","addr":"경기도 파주시 검산동 279-1번지","indutype":"건축자재 - 인테리어전문","category":"other"},{"name":"한화건축리모델링","tel":"031-957-1104","addr":"경기도 파주시 검산동 279-1번지","indutype":"건축자재 - 건축용 요업제품","category":"other"}]},{"lat":"37.775408319","long":"126.74522311","imageIndex":17,"items":[{"name":"수현전기","tel":"070-8229-1873","addr":"경기도 파주시 검산동 310번지 유승아파트","indutype":"전기제품 - 기타전기제품","category":"other"},{"name":"콜밴써비스","tel":"031-976-1000","addr":"경기도 파주시 검산동 310번지 유승아파트","indutype":"여행 - 기타교통수단","category":"other"}]},{"lat":"37.77387508","long":"126.74862219","imageIndex":17,"items":[{"name":"스위티 공예공간","tel":"","addr":"경기도 파주시 검산동 130-8번지 성원포레스타운","indutype":"문화.취미 - 문화취미기타","category":"other"}]},{"lat":"37.789972096","long":"126.7390988","imageIndex":17,"items":[{"name":"신광코팅","tel":"02-1111-1111","addr":"경기도 파주시 검산동 471-1번지","indutype":"건축자재 - 기타건축자재","category":"other"}]},{"lat":"37.774390058","long":"126.74104969","imageIndex":17,"items":[{"name":"신성건재","tel":"031-949-7559","addr":"경기도 파주시 검산동 306-4번지","indutype":"기타 - 기계공구","category":"other"},{"name":"태성천막사","tel":"031-957-8228","addr":"경기도 파주시 검산동 306-4번지","indutype":"직물 - 카페트,커튼,천막,지물","category":"other"},{"name":"현대물산","tel":"031-943-8177","addr":"경기도 파주시 검산동 306-4번지","indutype":"신변잡화 - 기타잡화","category":"other"}]},{"lat":"37.773701604","long":"126.74343568","imageIndex":17,"items":[{"name":"신화메탈","tel":"031-944-3985","addr":"경기도 파주시 검산동 276-12번지","indutype":"건축자재 - 목재·석재·철물","category":"other"}]},{"lat":"37.78003351","long":"126.75092811","imageIndex":17,"items":[{"name":"씨오피 (COP)","tel":"","addr":"경기도 파주시 검산동 75-1번지","indutype":"신변잡화 - 기타잡화","category":"other"}]},{"lat":"37.793866182","long":"126.73999322","imageIndex":17,"items":[{"name":"씨유파주검산대박점","tel":"02-1577-8007","addr":"경기도 파주시 검산동 431번지","indutype":"유통업 영리 - 편 의 점","category":"other"},{"name":"우진장갑","tel":"031-957-4755","addr":"경기도 파주시 검산동 431번지","indutype":"의류 - 기타의류","category":"other"}]},{"lat":"37.77550084","long":"126.74633515","imageIndex":17,"items":[{"name":"씨유파주검산점","tel":"080-080-3663","addr":"경기도 파주시 검산동 105-3번지","indutype":"유통업 영리 - 편 의 점","category":"other"}]},{"lat":"37.772948039","long":"126.74905667","imageIndex":17,"items":[{"name":"우정보안공사","tel":"031-943-1314","addr":"경기도 파주시 검산동 130-8번지 성원포레스타운","indutype":"건축자재 - 목재·석재·철물","category":"other"}]},{"lat":"37.774723206","long":"126.74504388","imageIndex":17,"items":[{"name":"유승세탁소","tel":"031-947-2241","addr":"경기도 파주시 검산동 310번지 유승아파트","indutype":"수리서비스 - 세탁소","category":"other"}]},{"lat":"37.773307853","long":"126.74879439","imageIndex":17,"items":[{"name":"이마트24 파주성원포레점","tel":"","addr":"경기도 파주시 검산동 130-8번지 성원포레스타운","indutype":"유통업 영리 - 편 의 점","category":"other"},{"name":"이마트24 파주성원포레점","tel":"031-1111-1111","addr":"경기도 파주시 검산동 130-8번지 성원포레스타운","indutype":"유통업 영리 - 편 의 점","category":"other"}]},{"lat":"37.796611581","long":"126.73888217","imageIndex":17,"items":[{"name":"주식회사 연우컴퍼니","tel":"","addr":"경기도 파주시 검산동 449-16번지","indutype":"신변잡화 - 기타잡화","category":"other"}]},{"lat":"37.788673497","long":"126.73854713","imageIndex":17,"items":[{"name":"주식회사 자리하우스","tel":"031-949-0219","addr":"경기도 파주시 검산동 476-1번지","indutype":"신변잡화 - 기타잡화","category":"other"}]},{"lat":"37.79741457","long":"126.74345496","imageIndex":17,"items":[{"name":"주식회사다인디피에스","tel":"070-7510-2956","addr":"경기도 파주시 검산동 439-9번지","indutype":"용역 서비스 - 종합용역","category":"other"}]},{"lat":"37.773687935","long":"126.74957626","imageIndex":17,"items":[{"name":"파인골프","tel":"070-8070-7460","addr":"경기도 파주시 검산동 130-8번지 성원포레스타운","indutype":"레져용품 - 골프용품 전문점","category":"other"}]},{"lat":"37.774595682","long":"126.7444087","imageIndex":17,"items":[{"name":"파주 에어컨","tel":"02-1577-3913","addr":"경기도 파주시 검산동 310번지 유승아파트","indutype":"용역 서비스 - 기타용역서비스","category":"other"}]},{"lat":"37.773502222","long":"126.74290292","imageIndex":17,"items":[{"name":"펫마을","tel":"031-941-6100","addr":"경기도 파주시 검산동 274-1번지 (2동1~5호)","indutype":"문화.취미 - 애완동물","category":"other"}]},{"lat":"37.773307434","long":"126.74445859","imageIndex":7,"items":[{"name":"검산마트","tel":"031-941-9876","addr":"경기도 파주시 검산동 278-1번지","indutype":"유통업 영리 - 슈퍼마켓","category":"mart"}]},{"lat":"37.789395546","long":"126.73912355","imageIndex":7,"items":[{"name":"공단슈퍼","tel":"031-957-5531","addr":"경기도 파주시 검산동 475번지","indutype":"유통업 영리 - 슈퍼마켓","category":"mart"}]},{"lat":"37.773089563","long":"126.74371023","imageIndex":7,"items":[{"name":"모닝슈퍼","tel":"031-957-6678","addr":"경기도 파주시 검산동 276-13번지","indutype":"유통업 영리 - 슈퍼마켓","category":"mart"}]},{"lat":"37.773307853","long":"126.74879439","imageIndex":7,"items":[{"name":"성원홈마트","tel":"031-946-7890","addr":"경기도 파주시 검산동 130-8번지 성원포레스타운","indutype":"유통업 영리 - 슈퍼마켓","category":"mart"}]},{"lat":"37.774723206","long":"126.74504388","imageIndex":7,"items":[{"name":"유승할인마트","tel":"031-948-9262","addr":"경기도 파주시 검산동 310번지 유승아파트","indutype":"유통업 영리 - 슈퍼마켓","category":"mart"}]},{"lat":"37.773687935","long":"126.74957626","imageIndex":16,"items":[{"name":"기린어린이집[아이행복]","tel":"031-944-7644","addr":"경기도 파주시 검산동 130-8번지 성원포레스타운","indutype":"학원 - 유아원","category":"study"}]},{"lat":"37.77355145","long":"126.74895246","imageIndex":16,"items":[{"name":"꿀벌놀이방[아이행복]","tel":"031-946-4147","addr":"경기도 파주시 검산동 130-8번지 성원포레스타운","indutype":"학원 - 유아원","category":"study"}]},{"lat":"37.77541936","long":"126.74615382","imageIndex":16,"items":[{"name":"늘행복한어린이집","tel":"031-945-9793","addr":"경기도 파주시 검산동 106-2번지","indutype":"학원 - 유아원","category":"study"},{"name":"늘행복한어린이집[아이행복]","tel":"031-945-7973","addr":"경기도 파주시 검산동 106-2번지","indutype":"학원 - 유아원","category":"study"}]},{"lat":"37.774723206","long":"126.74504388","imageIndex":16,"items":[{"name":"맑은소리피아노교습소","tel":"031-947-8886","addr":"경기도 파주시 검산동 310번지 유승아파트","indutype":"학원 - 예·체능계학원","category":"study"},{"name":"새유승어린이집[아이행복]","tel":"031-946-4321","addr":"경기도 파주시 검산동 310번지 유승아파트","indutype":"학원 - 유아원","category":"study"},{"name":"유승어린이집[아이행복]","tel":"031-948-6671","addr":"경기도 파주시 검산동 310번지 유승아파트","indutype":"학원 - 유아원","category":"study"},{"name":"파스텔미술교습소","tel":"031-948-5357","addr":"경기도 파주시 검산동 310번지 유승아파트","indutype":"학원 - 예·체능계학원","category":"study"}]},{"lat":"37.773278586","long":"126.74363012","imageIndex":16,"items":[{"name":"메이데이영수학원","tel":"031-949-0599","addr":"경기도 파주시 검산동 276-9번지","indutype":"학원 - 보습학원","category":"study"}]},{"lat":"37.77361181","long":"126.7435722","imageIndex":16,"items":[{"name":"브니엘 어린이집[아이행복]","tel":"031-941-1865","addr":"경기도 파주시 검산동 276-1번지","indutype":"학원 - 유아원","category":"study"}]},{"lat":"37.773307853","long":"126.74879439","imageIndex":16,"items":[{"name":"성원어린이집[아이행복]","tel":"031-948-0505","addr":"경기도 파주시 검산동 130-8번지 성원포레스타운","indutype":"학원 - 유아원","category":"study"},{"name":"청아피아노학원","tel":"031-941-3580","addr":"경기도 파주시 검산동 130-8번지","indutype":"학원 - 예·체능계학원","category":"study"}]},{"lat":"37.775169134","long":"126.73492899","imageIndex":16,"items":[{"name":"숲이야기 어린이집[아이행복]","tel":"031-948-5122","addr":"경기도 파주시 검산동 583-9번지","indutype":"학원 - 유아원","category":"study"}]},{"lat":"37.773476044","long":"126.74328892","imageIndex":16,"items":[{"name":"해오름학원","tel":"070-4036-5950","addr":"경기도 파주시 검산동 276-16번지","indutype":"학원 - 보습학원","category":"study"}]},{"lat":"37.773307853","long":"126.74879439","imageIndex":13,"items":[{"name":"김현헤어샵","tel":"031-944-7761","addr":"경기도 파주시 검산동 130-8 성원포레스타운상가 101호","indutype":"보건위생 - 미용원","category":"beauty"}]},{"lat":"37.774723206","long":"126.74504388","imageIndex":13,"items":[{"name":"머리끄뎅이","tel":"031-948-2227","addr":"경기도 파주시 검산동 310번지 유승아파트","indutype":"보건위생 - 미용원","category":"beauty"},{"name":"타미나헤어샵","tel":"031-946-4247","addr":"경기도 파주시 검산동 310번지 유승아파트","indutype":"보건위생 - 미용원","category":"beauty"}]},{"lat":"37.772730408","long":"126.74426764","imageIndex":13,"items":[{"name":"미소헤어","tel":"031-941-1415","addr":"경기도 파주시 검산동 279-1번지","indutype":"보건위생 - 미용원","category":"beauty"}]},{"lat":"37.79166503","long":"126.74277117","imageIndex":9,"items":[{"name":"대성에너지","tel":"031-945-7188","addr":"경기도 파주시 검산동 410-5번지","indutype":"연료판매점 - LPG 취급점","category":"oil"},{"name":"현대에너지","tel":"031-957-7792","addr":"경기도 파주시 검산동 410-5번지","indutype":"연료판매점 - LPG 취급점","category":"oil"}]},{"lat":"37.77325278","long":"126.74418637","imageIndex":13,"items":[{"name":"우리노래연습장","tel":"031-944-3123","addr":"경기도 파주시 검산동 278-4번지","indutype":"레저업소 - 노 래 방","category":"leisure"}]},{"lat":"37.774004918","long":"126.74207258","imageIndex":13,"items":[{"name":"지에스 (GS)당구장","tel":"031-942-8553","addr":"경기도 파주시 검산동 305-6번지","indutype":"레저업소 - 당 구 장","category":"leisure"}]}]