[{"lat":"37.718657113","long":"126.97891638","imageIndex":17,"items":[{"name":"감성 디자인","tel":"","addr":"경기도 양주시 장흥면 울대리 380-3번지","indutype":"건축자재 - 인테리어전문","category":"other"}]},{"lat":"37.713711268","long":"126.98110682","imageIndex":17,"items":[{"name":"갤러리","tel":"070-7574-5390","addr":"경기도 양주시 장흥면 울대리 532번지 2층","indutype":"문화.취미 - 화랑","category":"other"}]},{"lat":"37.714567195","long":"126.98118596","imageIndex":17,"items":[{"name":"갤러리 퐁데자르","tel":"031-855-0536","addr":"경기도 양주시 장흥면 울대리 410-2번지","indutype":"문화.취미 - 화랑","category":"other"}]},{"lat":"37.713540086","long":"126.98110687","imageIndex":17,"items":[{"name":"뚜","tel":"","addr":"경기도 양주시 장흥면 울대리 532-6번지 1층","indutype":"문화.취미 - 화랑","category":"other"}]},{"lat":"37.717710797","long":"126.97744225","imageIndex":17,"items":[{"name":"미래개발","tel":"031-875-1033","addr":"경기도 양주시 장흥면 울대리 396-3번지 1층","indutype":"용역 서비스 - 기타용역서비스","category":"other"}]},{"lat":"37.72954285","long":"126.99473721","imageIndex":17,"items":[{"name":"백호 냉동 탑차","tel":"031-877-7225","addr":"경기도 양주시 장흥면 울대리 104-1번지","indutype":"기타 - 기계공구","category":"other"},{"name":"비타민캠핑","tel":"070-4139-1402","addr":"경기도 양주시 장흥면 울대리 104-1번지","indutype":"레져용품 - 스포츠·레져용품","category":"other"}]},{"lat":"37.719207128","long":"126.9811279","imageIndex":17,"items":[{"name":"송인목재","tel":"031-855-2368","addr":"경기도 양주시 장흥면 울대리 377-3 외3필지","indutype":"건축자재 - 목재·석재·철물","category":"other"}]},{"lat":"37.718071161","long":"126.97735139","imageIndex":17,"items":[{"name":"송추종합건재","tel":"031-826-4180","addr":"경기도 양주시 장흥면 울대리 396-2","indutype":"건축자재 - 기타건축자재","category":"other"}]},{"lat":"37.713350971","long":"126.98158325","imageIndex":17,"items":[{"name":"씨유송추둘레길점","tel":"070-4106-7892","addr":"경기도 양주시 장흥면 울대리 534-5번지","indutype":"유통업 영리 - 편 의 점","category":"other"}]},{"lat":"37.730101481","long":"126.99529299","imageIndex":17,"items":[{"name":"올클레버","tel":"031-852-8599","addr":"경기도 양주시 장흥면 울대리 75-4번지 1층","indutype":"전기제품 - 가전제품","category":"other"}]},{"lat":"37.714152624","long":"126.98049426","imageIndex":17,"items":[{"name":"주식회사 수진","tel":"031-855-1013","addr":"경기도 양주시 장흥면 울대리 509-1번지 2층","indutype":"용역 서비스 - 사무서비스","category":"other"}]},{"lat":"37.729101005","long":"126.99043805","imageIndex":17,"items":[{"name":"코코 농자재","tel":"031-000-0000","addr":"경기도 양주시 장흥면 울대리 197번지","indutype":"농업 - 기타농업관련","category":"other"}]},{"lat":"37.714432124","long":"126.98158294","imageIndex":17,"items":[{"name":"프랜즈(송추둘레길)","tel":"070-7430-8837","addr":"경기도 양주시 장흥면 울대리 410-21번지 1층","indutype":"유통업 영리 - 편 의 점","category":"other"}]}]