[{"lat":"37.278345282","long":"127.0458644","imageIndex":8,"items":[{"name":"(주)신바이오","tel":"031-892-2112","addr":"경기도 수원시 영통구 원천동 35-1 도병원빌딩비1층","indutype":"약국 - 제약회사","category":"medical"},{"name":"(주)신바이오","tel":"070-8286-2005","addr":"경기도 수원시 영통구 원천동 35-1번지 도병원빌딩 B동 1층","indutype":"약국 - 약국","category":"medical"}]},{"lat":"37.274046598","long":"127.04797036","imageIndex":8,"items":[{"name":"건강나누리약국","tel":"031-214-6985","addr":"경기도 수원시 영통구 원천동 78-66번지 1층","indutype":"약국 - 약국","category":"medical"}]},{"lat":"37.266373934","long":"127.05941994","imageIndex":8,"items":[{"name":"경희삼성한의원","tel":"031-214-7776","addr":"경기도 수원시 영통구 원천동 471번지 삼성테크노파크 204호","indutype":"의원 - 한의원","category":"medical"}]},{"lat":"37.273956632","long":"127.04760951","imageIndex":8,"items":[{"name":"공감+동물의료센터","tel":"031-214-0025","addr":"경기도 수원시 영통구 원천동 78-3번지 2층 201호 외3필지","indutype":"기타의료기관 - 동물병원","category":"medical"},{"name":"나눔이치과의원","tel":"031-217-2890","addr":"경기도 수원시 영통구 원천동 78-3번지 6층","indutype":"의원 - 치과의원","category":"medical"},{"name":"본약국","tel":"031-212-9566","addr":"경기도 수원시 영통구 원천동 78-3번지 1층","indutype":"약국 - 약국","category":"medical"},{"name":"에이플러스의원","tel":"031-000-0000","addr":"경기도 수원시 영통구 원천동 78-3번지 3층","indutype":"의원 - 의원","category":"medical"}]},{"lat":"37.282431188","long":"127.05741351","imageIndex":8,"items":[{"name":"광교약국","tel":"031-304-2019","addr":"경기도 수원시 영통구 원천동 589번지 광교중흥에스클래스 B2-28호,29호","indutype":"약국 - 약국","category":"medical"},{"name":"에스(S)클래스 동물병원","tel":"031-217-7801","addr":"경기도 수원시 영통구 원천동 589번지 광교중흥에스클래스 B1층 9,10호","indutype":"기타의료기관 - 동물병원","category":"medical"},{"name":"에스(S)클래스치과","tel":"031-217-2801","addr":"경기도 수원시 영통구 원천동 589번지 광교중흥에스클래스 2층 18,19호","indutype":"의원 - 치과의원","category":"medical"},{"name":"연세진내과","tel":"031-8067-8200","addr":"경기도 수원시 영통구 원천동 589번지 중흥S-클래스 B2동 24,25,26,27호","indutype":"의원 - 의원","category":"medical"}]},{"lat":"37.274516087","long":"127.04538867","imageIndex":8,"items":[{"name":"규치과","tel":"031-214-6822","addr":"경기도 수원시 영통구 원천동 79-4번지 수성빌딩 201호","indutype":"의원 - 치과의원","category":"medical"}]},{"lat":"37.280767148","long":"127.05080463","imageIndex":8,"items":[{"name":"동문솔약국","tel":"031-307-7579","addr":"경기도 수원시 영통구 원천동 556번지 광교두산위브 노인복지주택 근린생활시설 지하2층 106호","indutype":"약국 - 약국","category":"medical"},{"name":"아주사랑한의원","tel":"031-548-0369","addr":"경기도 수원시 영통구 원천동 556번지 광교두산위브 201,202호","indutype":"의원 - 한의원","category":"medical"}]},{"lat":"37.27457023","long":"127.0451632","imageIndex":8,"items":[{"name":"박정배치과의원","tel":"031-211-1223","addr":"경기도 수원시 영통구 원천동 79-6번지","indutype":"의원 - 치과의원","category":"medical"}]},{"lat":"37.270012028","long":"127.06358288","imageIndex":8,"items":[{"name":"사랑이꽃피는동산치과의원","tel":"031-212-2897","addr":"경기도 수원시 영통구 원천동 177-1번지 한국까르프 1층 3호","indutype":"의원 - 의원","category":"medical"}]},{"lat":"37.265461475","long":"127.06427819","imageIndex":8,"items":[{"name":"삼성치과의원","tel":"031-215-3377","addr":"경기도 수원시 영통구 원천동 332-2,231,232,233,230","indutype":"의원 - 치과의원","category":"medical"}]},{"lat":"37.274822327","long":"127.04569327","imageIndex":8,"items":[{"name":"세브란스의원","tel":"031-216-2196","addr":"경기도 수원시 영통구 원천동 456-7번지 주공2단지종합상가 205호","indutype":"의원 - 의원","category":"medical"}]},{"lat":"37.274930884","long":"127.04447562","imageIndex":8,"items":[{"name":"송이비인후과","tel":"031-215-8275","addr":"경기도 수원시 영통구 원천동 79-10번지 에스프라자 503호","indutype":"의원 - 의원","category":"medical"},{"name":"이플란트 치과의원","tel":"031-217-2835","addr":"경기도 수원시 영통구 원천동 79-10번지 504호 에스파라자","indutype":"의원 - 치과의원","category":"medical"},{"name":"청어람한의원","tel":"031-213-2552","addr":"경기도 수원시 영통구 원천동 79-10번지 예스프라자 207호","indutype":"의원 - 한의원","category":"medical"}]},{"lat":"37.27465147","long":"127.04474607","imageIndex":8,"items":[{"name":"수원종합동물병원","tel":"031-214-5527","addr":"경기도 수원시 영통구 원천동 79-9번지 2층","indutype":"기타의료기관 - 동물병원","category":"medical"}]},{"lat":"37.262408309","long":"127.06167161","imageIndex":8,"items":[{"name":"신성제약주식회사","tel":"031-251-6785","addr":"경기도 수원시 영통구 원천동 552번지 영통이노플렉스-1단지","indutype":"약국 - 제약회사","category":"medical"}]},{"lat":"37.274741649","long":"127.0445319","imageIndex":8,"items":[{"name":"아이사랑치과의원","tel":"031-212-2275","addr":"경기도 수원시 영통구 원천동 798-8예스프라자602","indutype":"의원 - 치과의원","category":"medical"}]},{"lat":"37.273932728","long":"127.06113938","imageIndex":8,"items":[{"name":"안녕동물병원","tel":"051-756-0075","addr":"경기도 수원시 영통구 원천동 593번지 광교아이파크 1층 154,155,156호 일부","indutype":"기타의료기관 - 동물병원","category":"medical"},{"name":"앨리소아청소년과의원","tel":"031-215-0175","addr":"경기도 수원시 영통구 원천동 593번지 210,211호","indutype":"의원 - 의원","category":"medical"},{"name":"팜프라자 앨리약국","tel":"031-212-7507","addr":"경기도 수원시 영통구 원천동 593번지 광교아이파크 A동 209호","indutype":"약국 - 약국","category":"medical"}]},{"lat":"37.273486313","long":"127.05210789","imageIndex":8,"items":[{"name":"연세산부인과의원","tel":"031-211-5151","addr":"경기도 수원시 영통구 원천동 96-7번지","indutype":"의원 - 의원","category":"medical"}]},{"lat":"37.266653584","long":"127.05872117","imageIndex":8,"items":[{"name":"연세소아청소년과의원","tel":"031-212-3375","addr":"경기도 수원시 영통구 원천동 465-6번지 선우빌딩 3층","indutype":"의원 - 의원","category":"medical"},{"name":"좋은나무치과의원","tel":"031-216-2230","addr":"경기도 수원시 영통구 원천동 550-3번지 301호","indutype":"의원 - 치과의원","category":"medical"}]},{"lat":"37.26665387","long":"127.05811239","imageIndex":8,"items":[{"name":"원천한의원","tel":"031-277-7887","addr":"경기도 수원시 영통구 원천동 550-1번지 훼미리타운 301호","indutype":"의원 - 한의원","category":"medical"},{"name":"이미지치과의원","tel":"031-212-7171","addr":"경기도 수원시 영통구 원천동 550-1번지 원천훼밀리타운 302,303호","indutype":"의원 - 치과의원","category":"medical"}]},{"lat":"37.266797615","long":"127.05900312","imageIndex":8,"items":[{"name":"하나로약국","tel":"031-213-3998","addr":"경기도 수원시 영통구 원천동 550-4번지 원천주공 종합상가 109호","indutype":"약국 - 약국","category":"medical"}]}]