[{"lat":"37.33581481","long":"127.09063873","imageIndex":17,"items":[{"name":"(TOP24h) 스터디카페","tel":"","addr":"경기도 용인시 수지구 동천동 946-4번지 대영프라자 5층 501호","indutype":"용역 서비스 - 사무서비스","category":"other"},{"name":"비커밍스튜디오","tel":"031-214-7997","addr":"경기도 용인시 수지구 동천동 946-4번지 대영프라자 107호","indutype":"문화.취미 - 애완동물","category":"other"},{"name":"색연필","tel":"031-266-8452","addr":"경기도 용인시 수지구 동천동 946-4번지 대영프라자 105호","indutype":"서적문구 - 문구용품","category":"other"},{"name":"쓰임","tel":"031-266-3387","addr":"경기도 용인시 수지구 동천동 946-4번지 대영프라자 103호","indutype":"의류 - 양품점","category":"other"},{"name":"에스엔와이통신","tel":"070-4258-4011","addr":"경기도 용인시 수지구 동천동 946-4번지 대영프라자 106호","indutype":"사무통신 - 통신기기","category":"other"},{"name":"플랜비","tel":"070-8884-8286","addr":"경기도 용인시 수지구 동천동 946-4번지 대영프라자 303호 대명프라자","indutype":"회원제형태 - 레져업소","category":"other"}]},{"lat":"37.338148792","long":"127.10163253","imageIndex":17,"items":[{"name":"(사)한국문화예술산업진흥회 경기남부지회","tel":"02-711-8400","addr":"경기도 용인시 수지구 동천동 899번지 분당수지U-TOWER B동 738호","indutype":"문화.취미 - 티켓","category":"other"},{"name":"(주)한젠","tel":"031-8002-5526","addr":"경기도 용인시 수지구 동천동 899번지 분당수지U-TOWER A동 1209호","indutype":"용역 서비스 - 소프트웨어","category":"other"},{"name":"GS25동천유타워점","tel":"","addr":"경기도 용인시 수지구 동천동 899번지 분당수지U-TOWER 1층 113호","indutype":"유통업 영리 - 편 의 점","category":"other"},{"name":"GS25동천지식센터점","tel":"","addr":"경기도 용인시 수지구 동천동 899번지 분당수지유타워 1층 129호","indutype":"유통업 영리 - 편 의 점","category":"other"},{"name":"NZ퀸비월드","tel":"032-662-4491","addr":"경기도 용인시 수지구 동천동 899번지 분당수지 U-TOWER B동 1928호","indutype":"신변잡화 - 기타잡화","category":"other"},{"name":"드림오피스 동천역점","tel":"031-8016-7880","addr":"경기도 용인시 수지구 동천동 899번지 에이동235호,235-1호","indutype":"서적문구 - 문구용품","category":"other"},{"name":"밀리언 골프","tel":"","addr":"경기도 용인시 수지구 동천동 899번지 분당수지U-TOWER B동 2028호","indutype":"레져용품 - 골프용품 전문점","category":"other"},{"name":"신안 C.T.L","tel":"031-263-2588","addr":"경기도 용인시 수지구 동천동 899번지 분당수지 U-TOWER B동 610호","indutype":"건축자재 - 인테리어전문","category":"other"},{"name":"씨유동천유타워점","tel":"031-898-6566","addr":"경기도 용인시 수지구 동천동 899번지 분당수지U-TOWER 139호","indutype":"유통업 영리 - 편 의 점","category":"other"},{"name":"엠앤에스","tel":"031-276-5311","addr":"경기도 용인시 수지구 동천동 899번지 분당수지 U-TOWER A동 1015호","indutype":"서적문구 - 과학기자재","category":"other"},{"name":"워시스토리 셀프빨래방 수지 유타워점","tel":"","addr":"경기도 용인시 수지구 동천동 899번지 분당수지 U-TOWER B동 100호","indutype":"수리서비스 - 세탁소","category":"other"},{"name":"유타워기획","tel":"031-525-3636","addr":"경기도 용인시 수지구 동천동 899번지 분당수지U-TOWER 17층 12호","indutype":"서적문구 - 출판 및 인쇄물","category":"other"},{"name":"주식회사 미스로사(MiS. ROSA Co.,Ltd.)","tel":"02-536-8669","addr":"경기도 용인시 수지구 동천동 899번지 분당수지U-TOWER B동 2529호","indutype":"문화.취미 - 애완동물","category":"other"},{"name":"주식회사 케이앤비유타워","tel":"031-229-1585","addr":"경기도 용인시 수지구 동천동 899번지 분당수지 U-TOWER 상가동 217호","indutype":"용역 서비스 - 소프트웨어","category":"other"},{"name":"주식회사제르니크","tel":"031-229-1521","addr":"경기도 용인시 수지구 동천동 899번지 분당수지U-TOWER A동 413호","indutype":"광학제품 - 기타광학제품","category":"other"},{"name":"카피맨","tel":"031-525-3535","addr":"경기도 용인시 수지구 동천동 899번지 분당수지U-TOWER 상가동 215호","indutype":"용역 서비스 - 사무서비스","category":"other"},{"name":"크린위드 동천유타워점","tel":"031-299-1999","addr":"경기도 용인시 수지구 동천동 899번지 분당수지유타워 A동 1층 133호","indutype":"수리서비스 - 세탁소","category":"other"},{"name":"향이머무는하루","tel":"031-716-5444","addr":"경기도 용인시 수지구 동천동 899번지 오피스동 1540호","indutype":"신변잡화 - 기타잡화","category":"other"}]},{"lat":"37.339314533","long":"127.09743616","imageIndex":17,"items":[{"name":"(주)금륜하이텍","tel":"02-512-2257","addr":"경기도 용인시 수지구 동천동 361-1번지","indutype":"서적문구 - 과학기자재","category":"other"}]},{"lat":"37.33645642","long":"127.08805538","imageIndex":17,"items":[{"name":"(주)나무산업","tel":"031-667-4887","addr":"경기도 용인시 수지구 동천동 419-1번지","indutype":"건축자재 - 인테리어전문","category":"other"},{"name":"수성유리","tel":"031-265-2297","addr":"경기도 용인시 수지구 동천동 419-1","indutype":"건축자재 - 유리","category":"other"},{"name":"승리성구사","tel":"031-264-0788","addr":"경기도 용인시 수지구 동천동 419-1","indutype":"가구 - 일반가구","category":"other"},{"name":"현대가구","tel":"031-263-6461","addr":"경기도 용인시 수지구 동천동 419-1번지","indutype":"가구 - 일반가구","category":"other"}]},{"lat":"37.338480519","long":"127.09237964","imageIndex":17,"items":[{"name":"(주)대민","tel":"031-263-1999","addr":"경기도 용인시 수지구 동천동 403번지 용인동천동우체국 102호","indutype":"건축자재 - 인테리어전문","category":"other"},{"name":"(주)대민아이디","tel":"031-263-1999","addr":"경기도 용인시 수지구 동천동 403번지 용인동천동우체국 101호","indutype":"용역 서비스 - 기타용역서비스","category":"other"}]},{"lat":"37.335884237","long":"127.09414818","imageIndex":17,"items":[{"name":"(주)디에스솔루텍","tel":"","addr":"경기도 용인시 수지구 동천동 869번지 수진마을우미이노스빌","indutype":"용역 서비스 - 소프트웨어","category":"other"}]},{"lat":"37.335482607","long":"127.10063604","imageIndex":17,"items":[{"name":"(주)모나미","tel":"031-270-5352","addr":"경기도 용인시 수지구 동천동 854-2번지","indutype":"서적문구 - 문구용품","category":"other"},{"name":"(주)모나미","tel":"031-270-5352","addr":"경기도 용인시 수지구 동천동 854-2번지","indutype":"서적문구 - 문구용품","category":"other"},{"name":"모나미교육법인모나르떼 (주)","tel":"070-8277-3215","addr":"경기도 용인시 수지구 동천동 854-2번지 4층","indutype":"서적문구 - 출판 및 인쇄물","category":"other"}]},{"lat":"37.337984701","long":"127.07994358","imageIndex":17,"items":[{"name":"(주)비존무역아르떼","tel":"031-272-5483","addr":"경기도 용인시 수지구 동천동 499-3번지","indutype":"가구 - 일반가구","category":"other"}]},{"lat":"37.338732243","long":"127.08040701","imageIndex":17,"items":[{"name":"(주)아이스온","tel":"031-276-6364","addr":"경기도 용인시 수지구 동천동 497-1번지","indutype":"레져용품 - 스포츠·레져용품","category":"other"},{"name":"RCDome lnc.","tel":"031-263-3035","addr":"경기도 용인시 수지구 동천동 497-1번지","indutype":"서적문구 - 과학기자재","category":"other"}]},{"lat":"37.341486252","long":"127.09710033","imageIndex":17,"items":[{"name":"(주)에스지스퀘어","tel":"031-263-3118","addr":"경기도 용인시 수지구 동천동 914번지 103호 동천마을동문굿모닝힐5차상가","indutype":"사무통신 - 통신기기","category":"other"},{"name":"동문세탁소","tel":"031-889-3222","addr":"경기도 용인시 수지구 동천동 914 동문굿모닝힐5차제상가동107","indutype":"수리서비스 - 세탁소","category":"other"},{"name":"드림디포 수지동천점","tel":"031-276-3730","addr":"경기도 용인시 수지구 동천동 914번지 상가동지층비1호","indutype":"서적문구 - 문구용품","category":"other"},{"name":"모든스튜디오","tel":"070-8883-7055","addr":"경기도 용인시 수지구 동천동 914번지 동천마을동문굿모닝힐5차아파트","indutype":"가구 - 기타가구","category":"other"},{"name":"조이모바일","tel":"031-263-3118","addr":"경기도 용인시 수지구 동천동 914번지 동천마을동문굿모닝힐5차 상가동 103호","indutype":"사무통신 - 통신기기","category":"other"}]},{"lat":"37.334178772","long":"127.09738459","imageIndex":17,"items":[{"name":"(주)엠플로","tel":"031-264-9078","addr":"경기도 용인시 수지구 동천동 886-1번지 태평빌딩 501호","indutype":"용역 서비스 - 소프트웨어","category":"other"},{"name":"EIN스포츠 (익스트리수지점)","tel":"","addr":"경기도 용인시 수지구 동천동 886-1번지 태평빌딩 1층 102호","indutype":"레져용품 - 스포츠·레져용품","category":"other"}]},{"lat":"37.346698314","long":"127.09168968","imageIndex":17,"items":[{"name":"(주)중용오토","tel":"00-1544-0018","addr":"경기도 용인시 수지구 동천동 117-9번지 118-1,118-13","indutype":"여행 - 렌터카","category":"other"},{"name":"주식회사 고렌트카","tel":"02-1544-0018","addr":"경기도 용인시 수지구 동천동 117-9번지 (118-1,118-13)","indutype":"여행 - 렌터카","category":"other"}]},{"lat":"37.341095651","long":"127.10099315","imageIndex":17,"items":[{"name":"(주)한국소음진동기술연구소/원격지","tel":"031-276-8830","addr":"경기도 용인시 수지구 동천동 181-2번지 신영프라자 601호","indutype":"기타 - 기타 전문점","category":"other"},{"name":"디어포레스트","tel":"070-8744-8718","addr":"경기도 용인시 수지구 동천동 181-2번지 신영프라자 403호","indutype":"신변잡화 - 기타잡화","category":"other"},{"name":"뷰티크","tel":"031-264-2265","addr":"경기도 용인시 수지구 동천동 181-2번지 신영프라자 107호","indutype":"신변잡화 - 액세서리","category":"other"}]},{"lat":"37.333287687","long":"127.09622125","imageIndex":17,"items":[{"name":"(주)행복대리점","tel":"031-266-7169","addr":"경기도 용인시 수지구 동천동 884-5번지 106호","indutype":"사무통신 - 통신기기","category":"other"},{"name":"우리텔레콤","tel":"031-266-7169","addr":"경기도 용인시 수지구 동천동 884-5번지 1층 102호","indutype":"사무통신 - 통신기기","category":"other"}]},{"lat":"37.332064675","long":"127.09316188","imageIndex":17,"items":[{"name":"(주)휴먼애드기획","tel":"02-1599-3987","addr":"경기도 용인시 수지구 동천동 282-8번지","indutype":"용역 서비스 - 종합용역","category":"other"}]},{"lat":"37.342324108","long":"127.09721423","imageIndex":17,"items":[{"name":"100프로골프(100PROGOLF)","tel":"050-5264-0196","addr":"경기도 용인시 수지구 동천동 914번지 동천마을동문굿모닝힐5차 510동 2101호","indutype":"회원제형태 - 레져업소","category":"other"}]},{"lat":"37.34772689","long":"127.06021446","imageIndex":17,"items":[{"name":"DECKshop 데크샵","tel":"031-266-9823","addr":"경기도 용인시 수지구 동천동 661-2번지 지하1층 2호","indutype":"문화.취미 - 화원","category":"other"}]},{"lat":"37.344122234","long":"127.06141925","imageIndex":17,"items":[{"name":"GS25동천손골점","tel":"","addr":"경기도 용인시 수지구 동천동 618-3번지 101호","indutype":"유통업 영리 - 편 의 점","category":"other"},{"name":"JUN","tel":"070-8800-0302","addr":"경기도 용인시 수지구 동천동 618-3번지","indutype":"의류 - 기타의류","category":"other"}]},{"lat":"37.345537528","long":"127.08963433","imageIndex":17,"items":[{"name":"GS25동천자이점","tel":"","addr":"경기도 용인시 수지구 동천동 105-3번지 동천자이아파트 상가동 104호","indutype":"유통업 영리 - 편 의 점","category":"other"},{"name":"디자인 두","tel":"031-000-0000","addr":"경기도 용인시 수지구 동천동 105-3번지 동천자이아파트","indutype":"건축자재 - 인테리어전문","category":"other"},{"name":"호담","tel":"","addr":"경기도 용인시 수지구 동천동 105-3번지 동천자이아파트","indutype":"문화.취미 - 문화취미기타","category":"other"}]},{"lat":"37.340176315","long":"127.10135306","imageIndex":17,"items":[{"name":"GS25동천필타운","tel":"","addr":"경기도 용인시 수지구 동천동 185-14번지 필하우스 103~104호","indutype":"유통업 영리 - 편 의 점","category":"other"},{"name":"진마트","tel":"031-605-5029","addr":"경기도 용인시 수지구 동천동 185-14번지 동천필하우스 104호 103","indutype":"유통업 영리 - 편 의 점","category":"other"}]},{"lat":"37.339010478","long":"127.09452435","imageIndex":17,"items":[{"name":"GS25동천현대점","tel":"02-2006-2118","addr":"경기도 용인시 수지구 동천동 351번지 윤창빌딩 101호","indutype":"유통업 영리 - 편 의 점","category":"other"},{"name":"한지사랑터","tel":"070-7727-8536","addr":"경기도 용인시 수지구 동천동 351번지 윤창빌딩 1층 103호","indutype":"문화.취미 - 문화취미기타","category":"other"}]},{"lat":"37.345670149","long":"127.09302017","imageIndex":17,"items":[{"name":"GS25수지고기리점","tel":"02-2006-2485","addr":"경기도 용인시 수지구 동천동 120-3번지","indutype":"유통업 영리 - 편 의 점","category":"other"},{"name":"노빌리타","tel":"031-766-6612","addr":"경기도 용인시 수지구 동천동 120-3번지 노빌리타 1동 101호","indutype":"가구 - 일반가구","category":"other"}]},{"lat":"37.337176777","long":"127.08868812","imageIndex":17,"items":[{"name":"GS25수지동천로점","tel":"","addr":"경기도 용인시 수지구 동천동 937번지 동천프라자 107~108호","indutype":"유통업 영리 - 편 의 점","category":"other"},{"name":"SHE끌림","tel":"070-4696-0972","addr":"경기도 용인시 수지구 동천동 937번지 동천프라자 106호","indutype":"신변잡화 - 액세서리","category":"other"},{"name":"봄강아지","tel":"031-262-9786","addr":"경기도 용인시 수지구 동천동 937번지","indutype":"문화.취미 - 애완동물","category":"other"},{"name":"블루밍","tel":"031-262-3485","addr":"경기도 용인시 수지구 동천동 937번지 동천프라자 201호","indutype":"회원제형태 - 기타4","category":"other"},{"name":"삼성세탁","tel":"031-261-1990","addr":"경기도 용인시 수지구 동천동 937번지 동천프라자 101호","indutype":"수리서비스 - 세탁소","category":"other"}]},{"lat":"37.335650605","long":"127.09332415","imageIndex":17,"items":[{"name":"GS25수지수진점","tel":"","addr":"경기도 용인시 수지구 동천동 873-4번지 에덴파크I","indutype":"유통업 영리 - 편 의 점","category":"other"},{"name":"함스케어연구소(HAMs CARE연구소)","tel":"031-266-6119","addr":"경기도 용인시 수지구 동천동 873-4번지 에텐파크1상가동301","indutype":"회원제형태 - 레져업소","category":"other"}]},{"lat":"37.335532421","long":"127.09468939","imageIndex":17,"items":[{"name":"GS25수지우미점","tel":"","addr":"경기도 용인시 수지구 동천동 869번지 수진마을우미이노스빌 101호","indutype":"유통업 영리 - 편 의 점","category":"other"}]},{"lat":"37.340259684","long":"127.09857711","imageIndex":17,"items":[{"name":"GS25수지제일점","tel":"","addr":"경기도 용인시 수지구 동천동 371-5번지 동천코아프라자 111호","indutype":"유통업 영리 - 편 의 점","category":"other"},{"name":"다부짐휘트니스","tel":"031-265-7822","addr":"경기도 용인시 수지구 동천동 371-5번지 동천코아프라자 501동 504호","indutype":"회원제형태 - 레져업소","category":"other"},{"name":"스마트플러스통신","tel":"031-8005-6462","addr":"경기도 용인시 수지구 동천동 371-5번지 동천코아프라자 107호","indutype":"사무통신 - 통신기기","category":"other"},{"name":"엠제스트","tel":"","addr":"경기도 용인시 수지구 동천동 371-5번지 동천코아프라자 2층 202호","indutype":"의류 - 정장","category":"other"},{"name":"우리마음 상담센타","tel":"031-262-2881","addr":"경기도 용인시 수지구 동천동 371-5번지 동천코아프라자 205호","indutype":"회원제형태 - 기타4","category":"other"}]},{"lat":"37.333287428","long":"127.09654848","imageIndex":17,"items":[{"name":"GS25수지초입점","tel":"","addr":"경기도 용인시 수지구 동천동 884-7번지","indutype":"유통업 영리 - 편 의 점","category":"other"}]},{"lat":"37.351452308","long":"127.0838286","imageIndex":17,"items":[{"name":"IGA 수지동천점","tel":"031-000-0000","addr":"경기도 용인시 수지구 동천동 48-9번지 전원그린빌라","indutype":"유통업 영리 - 편 의 점","category":"other"}]},{"lat":"37.337507565","long":"127.09218666","imageIndex":17,"items":[{"name":"J스크린골프","tel":"031-262-0754","addr":"경기도 용인시 수지구 동천동 942-1번지 대성프라자 5층","indutype":"회원제형태 - 레져업소","category":"other"},{"name":"대성쇼파","tel":"031-262-8064","addr":"경기도 용인시 수지구 동천동 942-1번지","indutype":"가구 - 일반가구","category":"other"},{"name":"랑이이야기","tel":"031-266-8867","addr":"경기도 용인시 수지구 동천동 942-1번지 103호","indutype":"의류 - 정장","category":"other"}]},{"lat":"37.33586727","long":"127.09277149","imageIndex":17,"items":[{"name":"M스튜디오","tel":"031-261-4114","addr":"경기도 용인시 수지구 동천동 873-1번지 동천타워II 301호","indutype":"광학제품 - 사진관","category":"other"},{"name":"라인","tel":"031-264-8096","addr":"경기도 용인시 수지구 동천동 873-1번지 동천타워 104호","indutype":"의류 - 정장","category":"other"},{"name":"마인 인테리어","tel":"031-263-7922","addr":"경기도 용인시 수지구 동천동 873-1번지 동천타워ll 1동 105호","indutype":"건축자재 - 인테리어전문","category":"other"},{"name":"엠원아트","tel":"070-4922-1261","addr":"경기도 용인시 수지구 동천동 873-1번지 동천타워 301호","indutype":"광학제품 - 사진관","category":"other"}]},{"lat":"37.344257083","long":"127.06202877","imageIndex":17,"items":[{"name":"SUM음향","tel":"031-264-3935","addr":"경기도 용인시 수지구 동천동 606-6번지 제2동","indutype":"전기제품 - 가전제품","category":"other"},{"name":"주식회사 에스유엠(SUM)","tel":"031-264-3935","addr":"경기도 용인시 수지구 동천동 606-6번지 2동 1층","indutype":"전기제품 - 가전제품","category":"other"}]},{"lat":"37.335866892","long":"127.09326799","imageIndex":17,"items":[{"name":"She's (쉬즈)","tel":"031-898-2668","addr":"경기도 용인시 수지구 동천동 873-3번지 동천타워 102호","indutype":"의류 - 정장","category":"other"},{"name":"가윤공방","tel":"031-111-1111","addr":"경기도 용인시 수지구 동천동 873-3번지 동천타워 2충 202호","indutype":"문화.취미 - 문화취미기타","category":"other"},{"name":"토즈멤버십라운지 용인동천센터","tel":"031-265-0979","addr":"경기도 용인시 수지구 동천동 873-3번지 동천타워 5층","indutype":"용역 서비스 - 사무서비스","category":"other"},{"name":"황금당","tel":"031-266-1338","addr":"경기도 용인시 수지구 동천동 873-3번지 동천타워 107호","indutype":"신변잡화 - 액세서리","category":"other"}]},{"lat":"37.343505882","long":"127.09538749","imageIndex":17,"items":[{"name":"Talento&Box","tel":"031-897-7363","addr":"경기도 용인시 수지구 동천동 152-2번지","indutype":"직물 - 침구·수예점","category":"other"},{"name":"용인 크레이지스토어","tel":"031-000-0000","addr":"경기도 용인시 수지구 동천동 152-2번지","indutype":"서적문구 - 완구점","category":"other"},{"name":"창고아울렛","tel":"070-7738-7778","addr":"경기도 용인시 수지구 동천동 152-2번지 가동","indutype":"신변잡화 - 기타잡화","category":"other"}]},{"lat":"37.350840787","long":"127.08210113","imageIndex":17,"items":[{"name":"가람유통","tel":"031-438-0702","addr":"경기도 용인시 수지구 동천동 45-2번지","indutype":"유통업 영리 - 기타유통업","category":"other"},{"name":"민경유통","tel":"031-754-5601","addr":"경기도 용인시 수지구 동천동 45-2","indutype":"유통업 영리 - 기타유통업","category":"other"}]},{"lat":"37.341590957","long":"127.10129849","imageIndex":17,"items":[{"name":"가족이 행복한 요양원","tel":"031-265-0625","addr":"경기도 용인시 수지구 동천동 180-5번지 하나프라자 403호","indutype":"기타의료기관 - 기타의료기관 및 기타","category":"other"},{"name":"씨유수지동천점","tel":"031-898-6568","addr":"경기도 용인시 수지구 동천동 180-5번지 하나프라자 106, 107호","indutype":"유통업 영리 - 편 의 점","category":"other"}]},{"lat":"37.338218581","long":"127.09322567","imageIndex":17,"items":[{"name":"감성스냅담율","tel":"070-4184-9881","addr":"경기도 용인시 수지구 동천동 858번지 동천마을동문굿모닝힐3차아파트","indutype":"광학제품 - 사진관","category":"other"},{"name":"공간치유","tel":"","addr":"경기도 용인시 수지구 동천동 858번지 동천마을동문굿모닝힐3차아파트","indutype":"용역 서비스 - 사무서비스","category":"other"}]},{"lat":"37.333512064","long":"127.09732734","imageIndex":17,"items":[{"name":"강아지마을","tel":"031-264-3424","addr":"경기도 용인시 수지구 동천동 887번지 수지하우비 109호 동천동","indutype":"문화.취미 - 애완동물","category":"other"},{"name":"경인세무회계사무소","tel":"031-898-3458","addr":"경기도 용인시 수지구 동천동 887번지 209호,210호,수지하우비","indutype":"용역 서비스 - 법률회계서비스(개인)","category":"other"},{"name":"버블토리","tel":"070-4233-3898","addr":"경기도 용인시 수지구 동천동 887번지 수지하우비 312호","indutype":"신변잡화 - 기타잡화","category":"other"},{"name":"스크린골프","tel":"031-898-1718","addr":"경기도 용인시 수지구 동천동 887외2필지수지하우비5층508","indutype":"회원제형태 - 레져업소","category":"other"},{"name":"주식회사 제이콜로","tel":"070-4286-6574","addr":"경기도 용인시 수지구 동천동 887번지 412호","indutype":"레져용품 - 스포츠·레져용품","category":"other"},{"name":"태강법무사사무소","tel":"031-262-3135","addr":"경기도 용인시 수지구 동천동 887번지 수지하우비 411호","indutype":"용역 서비스 - 법률회계서비스(개인)","category":"other"},{"name":"화인갤러리","tel":"031-898-2360","addr":"경기도 용인시 수지구 동천동 887번지 외2필지수지하우비제비101~04호","indutype":"가구 - 일반가구","category":"other"}]},{"lat":"37.341676224","long":"127.06946357","imageIndex":17,"items":[{"name":"갤러리와츠","tel":"031-261-8701","addr":"경기도 용인시 수지구 동천동 581-1번지","indutype":"건축자재 - 조명기구","category":"other"},{"name":"안도 (ANDO)","tel":"031-266-1500","addr":"경기도 용인시 수지구 동천동 581-1번지 2층,3층","indutype":"가구 - 기타가구","category":"other"}]},{"lat":"37.338459454","long":"127.09631792","imageIndex":17,"items":[{"name":"경문산업","tel":"02-581-3664","addr":"경기도 용인시 수지구 동천동 862번지 동천마을현대2차홈타운 205동 101호","indutype":"용역 서비스 - 종합용역","category":"other"}]},{"lat":"37.336518037","long":"127.09005276","imageIndex":17,"items":[{"name":"골드존","tel":"031-263-5084","addr":"경기도 용인시 수지구 동천동 938번지 한빛마을래미안이스트팰리스2단지 상가동 21호","indutype":"사무통신 - 통신기기","category":"other"},{"name":"씨유수지이스트팰리스점","tel":"080-080-3663","addr":"경기도 용인시 수지구 동천동 938번지 한빛레미안이스트팰리스2단지 상가동 1층 2블럭 28호","indutype":"유통업 영리 - 편 의 점","category":"other"},{"name":"이유엠(eum)","tel":"031-896-2330","addr":"경기도 용인시 수지구 동천동 938번지 한빛마을래미안이스트팰리스2단지 상가동2블럭22호","indutype":"의류 - 정장","category":"other"}]},{"lat":"37.333914873","long":"127.08898907","imageIndex":17,"items":[{"name":"공간","tel":"","addr":"경기도 용인시 수지구 동천동 932번지 한빛마을래미안이스트팰리스3단지 상가동 제지2층 4호","indutype":"의류 - 정장","category":"other"},{"name":"스튜디오109(studio109)","tel":"070-4942-8233","addr":"경기도 용인시 수지구 동천동 932번지 한빛마을래미안이스트팰리스상가동3블럭 111호","indutype":"의류 - 정장","category":"other"},{"name":"우영트레이딩","tel":"031-276-1235","addr":"경기도 용인시 수지구 동천동 932번지 한빛마을래미안이스트팰리스3단지 310호","indutype":"신변잡화 - 기타잡화","category":"other"},{"name":"크리스","tel":"031-272-6090","addr":"경기도 용인시 수지구 동천동 932번지 한빛마을래미안이스트팰리스3단지 상가 9호","indutype":"의류 - 정장","category":"other"},{"name":"크린토피아 용인이스트팰리스점","tel":"031-889-1577","addr":"경기도 용인시 수지구 동천동 932번지 한빛마을래미안이스트팰리스3단지 13호","indutype":"수리서비스 - 세탁소","category":"other"},{"name":"희우리빙","tel":"031-262-9547","addr":"경기도 용인시 수지구 동천동 932번지 한빛마을래미안이스트팰리스3단지 상가 304호","indutype":"신변잡화 - 기타잡화","category":"other"}]},{"lat":"37.33784048","long":"127.09279641","imageIndex":17,"items":[{"name":"굿데이재가지원센터","tel":"070-3765-9883","addr":"경기도 용인시 수지구 동천동 344-2번지 상록제일프라자 701호","indutype":"용역 서비스 - 종합용역","category":"other"},{"name":"용인동천 작심스페이스","tel":"062-512-1000","addr":"경기도 용인시 수지구 동천동 344-2번지 상록제일프라자 603호 일부","indutype":"용역 서비스 - 사무서비스","category":"other"},{"name":"유폴 24시애견셀프목욕 동천점","tel":"031-000-0000","addr":"경기도 용인시 수지구 동천동 344-2번지 상록제일프라자 1층 105호","indutype":"문화.취미 - 애완동물","category":"other"}]},{"lat":"37.339424252","long":"127.09541634","imageIndex":17,"items":[{"name":"굿모닝플라워","tel":"031-896-8877","addr":"경기도 용인시 수지구 동천동 387-6(주)내고향마트상가내","indutype":"문화.취미 - 화원","category":"other"},{"name":"노송가구수지점","tel":"031-262-6145","addr":"경기도 용인시 수지구 동천동 387-6","indutype":"가구 - 일반가구","category":"other"},{"name":"대진침대","tel":"031-272-7002","addr":"경기도 용인시 수지구 동천동 387-6번지","indutype":"가구 - 일반가구","category":"other"},{"name":"미스터퍼니처","tel":"031-262-5658","addr":"경기도 용인시 수지구 동천동 387-6번지","indutype":"가구 - 일반가구","category":"other"}]},{"lat":"37.339115362","long":"127.07288055","imageIndex":17,"items":[{"name":"굿핸드굿마인드","tel":"031-263-3007","addr":"경기도 용인시 수지구 동천동 550-13번지","indutype":"가구 - 일반가구","category":"other"}]},{"lat":"37.336447483","long":"127.08795381","imageIndex":17,"items":[{"name":"그랜드마스가든","tel":"031-276-7565","addr":"경기도 용인시 수지구 동천동 935번지 한빛마을래미안이스트팰리스1단지 상가동 6호","indutype":"문화.취미 - 화원","category":"other"},{"name":"리움","tel":"031-276-2785","addr":"경기도 용인시 수지구 동천동 935번지 한빛마을래미안이스트팰리스1단지 상가동 지하1층 4호","indutype":"의류 - 정장","category":"other"},{"name":"미누디자인","tel":"031-261-7879","addr":"경기도 용인시 수지구 동천동 935번지 한빛마을래미안이스트팰리스1단지 상가동 103호","indutype":"건축자재 - 인테리어전문","category":"other"},{"name":"에스뿌와","tel":"050-5365-8572","addr":"경기도 용인시 수지구 동천동 935번지 한빛마을래미안이스트팰리스1단지 상가동 1층 제1블록12호","indutype":"의류 - 정장","category":"other"},{"name":"유니스컴퍼니","tel":"070-8253-8556","addr":"경기도 용인시 수지구 동천동 935번지 한빛마을래미안이스트팰리스1단지 상가동 1호","indutype":"의류 - 정장","category":"other"}]},{"lat":"37.338064086","long":"127.09494073","imageIndex":17,"items":[{"name":"그린(grin)코스메틱","tel":"031-246-4664","addr":"경기도 용인시 수지구 동천동 862번지 동천마을현대2차홈타운 207동 1201호","indutype":"회원제형태 - 기타1","category":"other"},{"name":"그린(grin)코스메틱","tel":"031-246-4664","addr":"경기도 용인시 수지구 동천동 862번지 동천마을현대2차홈타운 207동 1201호","indutype":"회원제형태 - 기타1","category":"other"}]},{"lat":"37.334422046","long":"127.09738489","imageIndex":17,"items":[{"name":"글로벌라이프숲리더센타","tel":"070-7100-2245","addr":"경기도 용인시 수지구 동천동 886번지","indutype":"서적문구 - 일반서적","category":"other"},{"name":"스킨앤바디","tel":"031-264-7756","addr":"경기도 용인시 수지구 동천동 886번지 동천메디파크빌딩 402호","indutype":"회원제형태 - 기타4","category":"other"}]},{"lat":"37.338071624","long":"127.09681396","imageIndex":17,"items":[{"name":"깨봄 KKAEBOM","tel":"031-0000-0000","addr":"경기도 용인시 수지구 동천동 862번지 동천마을현대2차홈타운 209동 7층 706호","indutype":"문화.취미 - 애완동물","category":"other"},{"name":"루미에르","tel":"070-8031-4038","addr":"경기도 용인시 수지구 동천동 862번지 동천마을현대2차홈타운 209동 1102호","indutype":"신변잡화 - 액세서리","category":"other"},{"name":"루트원","tel":"031-896-7718","addr":"경기도 용인시 수지구 동천동 862번지 동천마을현대2차홈타운 209동 2503호","indutype":"사무통신 - 컴퓨터","category":"other"}]},{"lat":"37.331616434","long":"127.09013737","imageIndex":17,"items":[{"name":"나무 리무진","tel":"","addr":"경기도 용인시 수지구 동천동 930번지 동천파크자이 106동 704호","indutype":"용역 서비스 - 종합용역","category":"other"}]},{"lat":"37.337894858","long":"127.09237895","imageIndex":17,"items":[{"name":"나무(NAMU)","tel":"031-896-6625","addr":"경기도 용인시 수지구 동천동 941-1번지 112호","indutype":"의류 - 정장","category":"other"},{"name":"주식회사 에스알리테일","tel":"031-1111-1111","addr":"경기도 용인시 수지구 동천동 941-1번지 203,301-1,301-2호","indutype":"신변잡화 - 기타잡화","category":"other"}]},{"lat":"37.339873141","long":"127.07130139","imageIndex":17,"items":[{"name":"나무기획","tel":"031-702-8006","addr":"경기도 용인시 수지구 동천동 561번지 3층","indutype":"용역 서비스 - 사무서비스","category":"other"}]},{"lat":"37.343781556","long":"127.08824422","imageIndex":17,"items":[{"name":"나오미디어텍","tel":"02-717-7530","addr":"경기도 용인시 수지구 동천동 135-43번지","indutype":"전기제품 - 가전제품","category":"other"}]},{"lat":"37.338434297","long":"127.09391429","imageIndex":17,"items":[{"name":"남서울인테리어","tel":"031-263-7361","addr":"경기도 용인시 수지구 동천동 858번지 동천마을동문굿모닝힐3차아파트","indutype":"회원제형태 - 기타4","category":"other"},{"name":"신원F/S","tel":"031-272-9083","addr":"경기도 용인시 수지구 동천동 858번지 동천마을동문굿모닝힐3차아파트","indutype":"회원제형태 - 기타4","category":"other"}]},{"lat":"37.342991745","long":"127.09609783","imageIndex":17,"items":[{"name":"남영골프","tel":"031-896-6060","addr":"경기도 용인시 수지구 동천동 167-3번지 남영골프1층샵","indutype":"레져용품 - 스포츠·레져용품","category":"other"},{"name":"본골프","tel":"031-276-2111","addr":"경기도 용인시 수지구 동천동 167-3번지 3층","indutype":"회원제형태 - 레져업소","category":"other"},{"name":"본골프","tel":"031-276-2111","addr":"경기도 용인시 수지구 동천동 167-3번지 남영골프랜드 3층","indutype":"회원제형태 - 레져업소","category":"other"}]},{"lat":"37.337731781","long":"127.09355234","imageIndex":17,"items":[{"name":"네츄럴휴수지점","tel":"031-266-2717","addr":"경기도 용인시 수지구 동천동 336-3번지 신세계프라자 103호","indutype":"회원제형태 - 기타4","category":"other"},{"name":"씨드바이북","tel":"031-264-3991","addr":"경기도 용인시 수지구 동천동 336-3번지 신세계프라자 302호","indutype":"서적문구 - 일반서적","category":"other"},{"name":"이마트24 수지써니벨리점","tel":"","addr":"경기도 용인시 수지구 동천동 336-3번지 신세계프라자 101호","indutype":"유통업 영리 - 편 의 점","category":"other"},{"name":"이마트24 수지써니벨리점","tel":"","addr":"경기도 용인시 수지구 동천동 336-3번지 신세계프라자 101호","indutype":"유통업 영리 - 편 의 점","category":"other"},{"name":"크린에이드","tel":"031-261-6005","addr":"경기도 용인시 수지구 동천동 336-3번지 신세계프라자 105호","indutype":"수리서비스 - 세탁소","category":"other"}]},{"lat":"37.331812433","long":"127.09310517","imageIndex":17,"items":[{"name":"다솔게임프라자","tel":"031-261-5464","addr":"경기도 용인시 수지구 동천동 282-9번지","indutype":"서적문구 - 완구점","category":"other"}]},{"lat":"37.334866866","long":"127.09313139","imageIndex":17,"items":[{"name":"다우리","tel":"031-265-1311","addr":"경기도 용인시 수지구 동천동 877번지","indutype":"용역 서비스 - 정보서비스","category":"other"}]},{"lat":"37.332752978","long":"127.08841228","imageIndex":17,"items":[{"name":"닥스에이치알(주)","tel":"02-3479-9997","addr":"경기도 용인시 수지구 동천동 932번지 래미안이스트펠리스 303동 1603호","indutype":"회원제형태 - 기타4","category":"other"}]},{"lat":"37.33687007","long":"127.08918428","imageIndex":17,"items":[{"name":"대성산업","tel":"031-262-8997","addr":"경기도 용인시 수지구 동천동 420-1","indutype":"가구 - 일반가구","category":"other"}]},{"lat":"37.341177153","long":"127.10049672","imageIndex":17,"items":[{"name":"대영사","tel":"031-266-3950","addr":"경기도 용인시 수지구 동천동 180-12번지 생명수교회 1층 101호","indutype":"서적문구 - 문구용품","category":"other"},{"name":"동천세탁","tel":"031-272-2708","addr":"경기도 용인시 수지구 동천동 180-12번지 생명수교회 1층 4호","indutype":"수리서비스 - 세탁소","category":"other"},{"name":"유정종합설비","tel":"031-276-1603","addr":"경기도 용인시 수지구 동천동 180-12번지","indutype":"건축자재 - 목재·석재·철물","category":"other"}]},{"lat":"37.340484352","long":"127.09929963","imageIndex":17,"items":[{"name":"대진신발","tel":"031-262-5839","addr":"경기도 용인시 수지구 동천동 768-3번지","indutype":"신변잡화 - 신발","category":"other"},{"name":"우리옷방","tel":"031-266-5737","addr":"경기도 용인시 수지구 동천동 768-3번지","indutype":"의류 - 기타의류","category":"other"}]},{"lat":"37.338980009","long":"127.07321897","imageIndex":17,"items":[{"name":"도도유통","tel":"02-1111-1111","addr":"경기도 용인시 수지구 동천동 550-7번지 1층","indutype":"신변잡화 - 기타잡화","category":"other"}]},{"lat":"37.334371598","long":"127.09274714","imageIndex":17,"items":[{"name":"도배365","tel":"070-4227-2355","addr":"경기도 용인시 수지구 동천동 876-3번지 지하1층 102호","indutype":"회원제형태 - 기타4","category":"other"}]},{"lat":"37.335926699","long":"127.08540301","imageIndex":17,"items":[{"name":"도자생각","tel":"031-263-0020","addr":"경기도 용인시 수지구 동천동 923번지 한빛마을 래미안 이스트팰리스4단지 상가동 1층 5호","indutype":"문화.취미 - 문화취미기타","category":"other"},{"name":"씨유수지래미안점","tel":"031-898-4085","addr":"경기도 용인시 수지구 동천동 923번지 한빛마을 래미안 이스트팰리스 4단지 상가동 지4층 4블록-4호","indutype":"유통업 영리 - 편 의 점","category":"other"}]},{"lat":"37.350035679","long":"127.08675022","imageIndex":17,"items":[{"name":"동안상사","tel":"031-262-8587","addr":"경기도 용인시 수지구 동천동 65-1번지","indutype":"건축자재 - 목재·석재·철물","category":"other"}]},{"lat":"37.33470451","long":"127.09335687","imageIndex":17,"items":[{"name":"동천옷수선","tel":"031-263-1667","addr":"경기도 용인시 수지구 동천동 878-1번지 영광빌 102호","indutype":"수리서비스 - 세탁소","category":"other"},{"name":"인앤아웃인테리어","tel":"031-265-3449","addr":"경기도 용인시 수지구 동천동 878-1번지 영광빌 1동","indutype":"건축자재 - 인테리어전문","category":"other"}]},{"lat":"37.33714726","long":"127.0791641","imageIndex":17,"items":[{"name":"동천자연식물원","tel":"031-261-4055","addr":"경기도 용인시 수지구 동천동 500번지","indutype":"문화.취미 - 티켓","category":"other"},{"name":"동천자연식물원","tel":"031-261-4055","addr":"경기도 용인시 수지구 동천동 500번지","indutype":"문화.취미 - 티켓","category":"other"}]},{"lat":"37.351065326","long":"127.08316229","imageIndex":17,"items":[{"name":"동천철물건재","tel":"031-263-6564","addr":"경기도 용인시 수지구 동천동 47-1번지","indutype":"기타 - 기계공구","category":"other"}]},{"lat":"37.344375366","long":"127.08942986","imageIndex":17,"items":[{"name":"드파밀리에 (De Familie)","tel":"","addr":"경기도 용인시 수지구 동천동 135-15번지 삼성쉐르빌 104동 204호","indutype":"문화.취미 - 애완동물","category":"other"}]},{"lat":"37.340981674","long":"127.09711099","imageIndex":17,"items":[{"name":"디엠사이언스","tel":"","addr":"경기도 용인시 수지구 동천동 914번지 동천마을동문굿모닝힐5차 507동 2004호","indutype":"사무통신 - 기타 사무용품","category":"other"},{"name":"수리하우징","tel":"","addr":"경기도 용인시 수지구 동천동 914번지 동천마을동문굿모닝힐5차 507동 503호","indutype":"건축자재 - 기타건축자재","category":"other"}]},{"lat":"37.343895719","long":"127.06391314","imageIndex":17,"items":[{"name":"디큐브바스","tel":"031-897-7111","addr":"경기도 용인시 수지구 동천동 611-9번지","indutype":"건축자재 - 건축용 요업제품","category":"other"}]},{"lat":"37.340842766","long":"127.10171505","imageIndex":17,"items":[{"name":"라데코르(ladecor)","tel":"070-7788-9603","addr":"경기도 용인시 수지구 동천동 185-8번지","indutype":"건축자재 - 인테리어전문","category":"other"}]},{"lat":"37.336242728","long":"127.08443291","imageIndex":17,"items":[{"name":"라온제나","tel":"031-272-3327","addr":"경기도 용인시 수지구 동천동 923번지 한빛마을래미안이스트팰리스4단지","indutype":"신변잡화 - 기타잡화","category":"other"}]},{"lat":"37.337950346","long":"127.09047194","imageIndex":17,"items":[{"name":"라이프로제","tel":"031-263-7307","addr":"경기도 용인시 수지구 동천동 411번지 손프라자 408호","indutype":"가구 - 기타가구","category":"other"},{"name":"매티아","tel":"031-263-1625","addr":"경기도 용인시 수지구 동천동 411번지 B01호","indutype":"가구 - 일반가구","category":"other"}]},{"lat":"37.340573193","long":"127.10083448","imageIndex":17,"items":[{"name":"로사네아트","tel":"070-4046-2721","addr":"경기도 용인시 수지구 동천동 911번지 동천마을영풍아파트","indutype":"문화.취미 - 문화취미기타","category":"other"},{"name":"에이치(H)골프","tel":"031-323-6016","addr":"경기도 용인시 수지구 동천동 911번지 동천마을영풍아파트","indutype":"회원제형태 - 기타4","category":"other"}]},{"lat":"37.336839393","long":"127.09404777","imageIndex":17,"items":[{"name":"록인","tel":"031-264-9847","addr":"경기도 용인시 수지구 동천동 864번지 수진마을써니벨리아파트","indutype":"회원제형태 - 사무서비스","category":"other"},{"name":"주식회사 지앤지웨이브","tel":"070-8808-2782","addr":"경기도 용인시 수지구 동천동 864번지 수진마을써니벨리아파트","indutype":"회원제형태 - 기타1","category":"other"}]},{"lat":"37.338677811","long":"127.08097118","imageIndex":17,"items":[{"name":"루디아","tel":"070-4222-3111","addr":"경기도 용인시 수지구 동천동 497-10번지 외1필지,지하2층","indutype":"신변잡화 - 제화","category":"other"}]},{"lat":"37.339844969","long":"127.09888127","imageIndex":17,"items":[{"name":"리더스잉글리쉬(Leaders English)","tel":"","addr":"경기도 용인시 수지구 동천동 859번지 동천마을현대홈타운아파트","indutype":"용역 서비스 - 사무서비스","category":"other"},{"name":"오씨에이 발명테크","tel":"031-896-2430","addr":"경기도 용인시 수지구 동천동 859번지 동천마을현대1차홈타운 104동 2201호","indutype":"회원제형태 - 기타4","category":"other"}]},{"lat":"37.335829212","long":"127.09538936","imageIndex":17,"items":[{"name":"마이씨스터(My Sister)","tel":"031-224-5780","addr":"경기도 용인시 수지구 동천동 869번지 수진마을우미이노스빌","indutype":"서적문구 - 문구용품","category":"other"}]},{"lat":"37.333927391","long":"127.09624461","imageIndex":17,"items":[{"name":"마이컬렉션","tel":"031-276-1880","addr":"경기도 용인시 수지구 동천동 882-5번지 풍미식당 101호","indutype":"주방용구 - 주방용식기","category":"other"}]},{"lat":"37.341681601","long":"127.10064407","imageIndex":17,"items":[{"name":"막내딸네","tel":"031-8001-0724","addr":"경기도 용인시 수지구 동천동 176-1번지 용인수지2차풍림아파트","indutype":"문화.취미 - 민예·공예품","category":"other"}]},{"lat":"37.337416701","long":"127.09319086","imageIndex":17,"items":[{"name":"만드는즐거움","tel":"070-8235-2153","addr":"경기도 용인시 수지구 동천동 864번지","indutype":"회원제형태 - 기타4","category":"other"}]},{"lat":"37.33812011","long":"127.07954876","imageIndex":17,"items":[{"name":"맘마펫","tel":"031-272-4546","addr":"경기도 용인시 수지구 동천동 503번지","indutype":"문화.취미 - 애완동물","category":"other"}]},{"lat":"37.335867458","long":"127.09252324","imageIndex":17,"items":[{"name":"명품수선","tel":"031-276-7711","addr":"경기도 용인시 수지구 동천동 873번지 1층","indutype":"수리서비스 - 세탁소","category":"other"},{"name":"천일정보통신","tel":"031-896-2200","addr":"경기도 용인시 수지구 동천동 873번지 101호","indutype":"사무통신 - 통신기기","category":"other"}]},{"lat":"37.33545467","long":"127.09027722","imageIndex":17,"items":[{"name":"무브먼트사이언스","tel":"031-896-8848","addr":"경기도 용인시 수지구 동천동 946-7번지 4층","indutype":"레져용품 - 스포츠·레져용품","category":"other"}]},{"lat":"37.338450764","long":"127.09591167","imageIndex":17,"items":[{"name":"미담인테리어","tel":"031-263-7383","addr":"경기도 용인시 수지구 동천동 862번지 단지내상가 105호","indutype":"건축자재 - 인테리어전문","category":"other"},{"name":"플러스크리닝","tel":"031-265-2966","addr":"경기도 용인시 수지구 동천동 862번지 현대2차홈타운 상가동 104호","indutype":"수리서비스 - 세탁소","category":"other"}]},{"lat":"37.335119004","long":"127.09332352","imageIndex":17,"items":[{"name":"미소패션","tel":"031-276-8825","addr":"경기도 용인시 수지구 동천동 875-5번지 노블레스빌 104호","indutype":"수리서비스 - 세탁소","category":"other"}]},{"lat":"37.337459352","long":"127.09628283","imageIndex":17,"items":[{"name":"미애클","tel":"031-265-7909","addr":"경기도 용인시 수지구 동천동 868번지 수진마을2단지","indutype":"직물 - 침구·수예점","category":"other"}]},{"lat":"37.347393967","long":"127.08916246","imageIndex":17,"items":[{"name":"민들레","tel":"","addr":"경기도 용인시 수지구 동천동 87-14번지 1층 103호","indutype":"의류 - 정장","category":"other"}]},{"lat":"37.336407623","long":"127.09311066","imageIndex":17,"items":[{"name":"바이한스","tel":"070-8743-1913","addr":"경기도 용인시 수지구 동천동 864번지 수진마을써니벨리아파트","indutype":"의류 - 아동의류","category":"other"}]},{"lat":"37.338261556","long":"127.08363389","imageIndex":17,"items":[{"name":"반석플라워","tel":"031-262-5540","addr":"경기도 용인시 수지구 동천동 485-6번지","indutype":"문화.취미 - 화원","category":"other"},{"name":"주식회사에스디에이","tel":"031-272-7401","addr":"경기도 용인시 수지구 동천동 485-6번지","indutype":"용역 서비스 - 종합용역","category":"other"}]},{"lat":"37.333540327","long":"127.09577021","imageIndex":17,"items":[{"name":"별별엔터테인먼트","tel":"031-264-4946","addr":"경기도 용인시 수지구 동천동 883-13번지","indutype":"신변잡화 - 기타잡화","category":"other"}]},{"lat":"37.3388176781","long":"127.0734670758","imageIndex":17,"items":[{"name":"부광목재","tel":"031-264-3370","addr":"경기도 용인시 수지구 동천동 550-6번지","indutype":"건축자재 - 목재·석재·철물","category":"other"}]},{"lat":"37.338119175","long":"127.09360922","imageIndex":17,"items":[{"name":"부산데이터복구센터 DB30","tel":"051-804-3090","addr":"경기도 용인시 수지구 동천동 858번지 동천마을동문굿모닝힐3차아파트 2층 202호","indutype":"사무통신 - 컴퓨터","category":"other"}]},{"lat":"37.34778099","long":"127.0601355","imageIndex":17,"items":[{"name":"살롱 피아체레(Salon Piacere)","tel":"","addr":"경기도 용인시 수지구 동천동 659번지 지하1층","indutype":"용역 서비스 - 사무서비스","category":"other"}]},{"lat":"37.339700697","long":"127.09901651","imageIndex":17,"items":[{"name":"샘물SW","tel":"031-111-1111","addr":"경기도 용인시 수지구 동천동 859번지 동천마을현대홈타운아파트 1층 105호","indutype":"의류 - 정장","category":"other"},{"name":"예가인테리어","tel":"031-261-0489","addr":"경기도 용인시 수지구 동천동 859번지 동천마을현대1차홈타운 단지내상가102호","indutype":"건축자재 - 인테리어전문","category":"other"}]},{"lat":"37.339230501","long":"127.10104714","imageIndex":17,"items":[{"name":"샤인스톤(Shine Stone)","tel":"031-000-0000","addr":"경기도 용인시 수지구 동천동 325-14번지 분당수지유타워 상가1층 16-1호","indutype":"신변잡화 - 액세서리","category":"other"}]},{"lat":"37.335119554","long":"127.09260134","imageIndex":17,"items":[{"name":"세븐일레븐용인동천타운점","tel":"","addr":"경기도 용인시 수지구 동천동 875-9번지 1층","indutype":"유통업 영리 - 편 의 점","category":"other"}]},{"lat":"37.335534542","long":"127.0919135","imageIndex":17,"items":[{"name":"세현경기북부센터점","tel":"","addr":"경기도 용인시 수지구 동천동 949-5번지 202호","indutype":"주방용구 - 주방용구","category":"other"}]},{"lat":"37.336945155","long":"127.09706081","imageIndex":17,"items":[{"name":"솔로몬옵틱","tel":"031-896-5273","addr":"경기도 용인시 수지구 동천동 868번지 수진마을2단지","indutype":"회원제형태 - 기타2","category":"other"}]},{"lat":"37.333953517","long":"127.09738431","imageIndex":17,"items":[{"name":"송정세무회계","tel":"","addr":"경기도 용인시 수지구 동천동 886-2번지 IVY타워 202호","indutype":"용역 서비스 - 법률회계서비스(개인)","category":"other"},{"name":"아이비","tel":"031-263-8602","addr":"경기도 용인시 수지구 동천동 886-2번지","indutype":"유통업 영리 - 편 의 점","category":"other"},{"name":"아이비스크린골프존","tel":"031-276-0755","addr":"경기도 용인시 수지구 동천동 886-2번지 아이비타워 5층","indutype":"회원제형태 - 레져업소","category":"other"}]},{"lat":"37.335816011","long":"127.10060262","imageIndex":17,"items":[{"name":"수지 오마이가구","tel":"031-896-8965","addr":"경기도 용인시 수지구 동천동 854-1번지 금풍화성 B동","indutype":"가구 - 일반가구","category":"other"}]},{"lat":"37.340039104","long":"127.06441783","imageIndex":17,"items":[{"name":"수지남영","tel":"070-2001-7634","addr":"경기도 용인시 수지구 동천동 597-20번지","indutype":"회원제형태 - 레져업소","category":"other"},{"name":"올리커머스","tel":"031-1544-0453","addr":"경기도 용인시 수지구 동천동 597-20번지","indutype":"서적문구 - 완구점","category":"other"}]},{"lat":"37.334533317","long":"127.09335667","imageIndex":17,"items":[{"name":"수지드레스룸","tel":"031-282-7987","addr":"경기도 용인시 수지구 동천동 878-2번지 102호","indutype":"의류 - 정장","category":"other"}]},{"lat":"37.333172996","long":"127.09307294","imageIndex":17,"items":[{"name":"수지신용협동조합","tel":"031-892-2600","addr":"경기도 용인시 수지구 동천동 282번지 4층","indutype":"문화.취미 - 문화취미기타","category":"other"},{"name":"포레스트21","tel":"","addr":"경기도 용인시 수지구 동천동 282번지 1층 107-1호","indutype":"서적문구 - 완구점","category":"other"}]},{"lat":"37.340366647","long":"127.09999913","imageIndex":17,"items":[{"name":"수지조명","tel":"031-263-9988","addr":"경기도 용인시 수지구 동천동 325-10번지","indutype":"건축자재 - 조명기구","category":"other"}]},{"lat":"37.339091377","long":"127.09477271","imageIndex":17,"items":[{"name":"시작스터디룸 동천","tel":"031-263-0028","addr":"경기도 용인시 수지구 동천동 351-3번지 4층 상가동","indutype":"용역 서비스 - 사무서비스","category":"other"}]},{"lat":"37.334199941","long":"127.09335627","imageIndex":17,"items":[{"name":"씨유수지동천현우점","tel":"070-4404-1835","addr":"경기도 용인시 수지구 동천동 878-4번지","indutype":"유통업 영리 - 편 의 점","category":"other"}]},{"lat":"37.33328806","long":"127.09574733","imageIndex":17,"items":[{"name":"아뜰리에 셀먼","tel":"","addr":"경기도 용인시 수지구 동천동 884-2번지 행복부동산 101호","indutype":"문화.취미 - 화원","category":"other"}]},{"lat":"37.338467649","long":"127.09734482","imageIndex":17,"items":[{"name":"아베크메무아","tel":"","addr":"경기도 용인시 수지구 동천동 862번지 동천마을현대2차홈타운 206동 1405호","indutype":"신변잡화 - 가방","category":"other"}]},{"lat":"37.335895076","long":"127.09174467","imageIndex":17,"items":[{"name":"알리르마리","tel":"031-263-1068","addr":"경기도 용인시 수지구 동천동 948번지","indutype":"기타의료기관 - 산후조리원","category":"other"}]},{"lat":"37.342484063","long":"127.09996801","imageIndex":17,"items":[{"name":"앙리안","tel":"031-272-1622","addr":"경기도 용인시 수지구 동천동 177-12번지 행림마을진로아파트","indutype":"회원제형태 - 기타4","category":"other"}]},{"lat":"37.341467283","long":"127.09828523","imageIndex":17,"items":[{"name":"애딕토","tel":"031-8017-4096","addr":"경기도 용인시 수지구 동천동 914번지 동천마을동문굿모닝힐5차 513동 1804호","indutype":"회원제형태 - 기타4","category":"other"}]},{"lat":"37.333731411","long":"127.0933557","imageIndex":17,"items":[{"name":"에코인테리어","tel":"031-276-8288","addr":"경기도 용인시 수지구 동천동 879-5번지 B02호","indutype":"건축자재 - 인테리어전문","category":"other"},{"name":"착한옷가게","tel":"031-261-7436","addr":"경기도 용인시 수지구 동천동 879-5번지 1층 B03호","indutype":"의류 - 정장","category":"other"}]},{"lat":"37.343620194","long":"127.05605834","imageIndex":17,"items":[{"name":"엠와이갤러리(M.Y Gallery)","tel":"070-7769-8118","addr":"경기도 용인시 수지구 동천동 714-51번지","indutype":"문화.취미 - 화랑","category":"other"}]},{"lat":"37.335883756","long":"127.0947688","imageIndex":17,"items":[{"name":"오브주(objoo)","tel":"031-000-0000","addr":"경기도 용인시 수지구 동천동 869번지 수진마을우미이노스빌","indutype":"신변잡화 - 가방","category":"other"}]},{"lat":"37.340067381","long":"127.10232341","imageIndex":17,"items":[{"name":"올컴닷컴","tel":"031-1666-9109","addr":"경기도 용인시 수지구 동천동 186-10번지 1층","indutype":"수리서비스 - 사무·통신기기수리","category":"other"}]},{"lat":"37.335479764","long":"127.0928613","imageIndex":17,"items":[{"name":"옷짓는공방","tel":"031-265-1312","addr":"경기도 용인시 수지구 동천동 874-5번지 1층","indutype":"문화.취미 - 문화취미기타","category":"other"}]},{"lat":"37.337120043","long":"127.09229904","imageIndex":17,"items":[{"name":"용인대에이스복싱클럽","tel":"031-896-5093","addr":"경기도 용인시 수지구 동천동 942-3 2층","indutype":"회원제형태 - 레져업소","category":"other"}]},{"lat":"37.336565488","long":"127.09860628","imageIndex":17,"items":[{"name":"용인시청역 지역주택조합추진위원회","tel":"031-893-3562","addr":"경기도 용인시 수지구 동천동 903번지","indutype":"건축자재 - 부동산 분양","category":"other"}]},{"lat":"37.333924256","long":"127.10013753","imageIndex":17,"items":[{"name":"우림건설(주)","tel":"031-896-1191","addr":"경기도 용인시 수지구 동천동 853-1번지","indutype":"건축자재 - 부동산 분양","category":"other"},{"name":"제이케이아이앤디(주)","tel":"031-265-4880","addr":"경기도 용인시 수지구 동천동 853-1번지 한국물류센터 305호","indutype":"건축자재 - 부동산 분양","category":"other"}]},{"lat":"37.334866995","long":"127.09296213","imageIndex":17,"items":[{"name":"우주소년","tel":"070-4799-2201","addr":"경기도 용인시 수지구 동천동 877-9번지 101호","indutype":"서적문구 - 일반서적","category":"other"}]},{"lat":"37.342311262","long":"127.10190882","imageIndex":17,"items":[{"name":"이브자리동천점","tel":"031-266-2333","addr":"경기도 용인시 수지구 동천동 177-28번지","indutype":"직물 - 침구·수예점","category":"other"},{"name":"흙표흙침대 용인점","tel":"031-276-7575","addr":"경기도 용인시 수지구 동천동 177-28번지","indutype":"가구 - 일반가구","category":"other"}]},{"lat":"37.345673023","long":"127.05927619","imageIndex":17,"items":[{"name":"이승석목갤러리(주)","tel":"031-265-0910","addr":"경기도 용인시 수지구 동천동 686-11번지","indutype":"가구 - 일반가구","category":"other"}]},{"lat":"37.343643718","long":"127.06335995","imageIndex":17,"items":[{"name":"인테리어하우스","tel":"031-265-9477","addr":"경기도 용인시 수지구 동천동 606-1 609-1,608","indutype":"가구 - 일반가구","category":"other"}]},{"lat":"37.336318656","long":"127.09160975","imageIndex":17,"items":[{"name":"제이니테이블","tel":"031-263-3366","addr":"경기도 용인시 수지구 동천동 944번지 115호","indutype":"문화.취미 - 화원","category":"other"}]},{"lat":"37.341413829","long":"127.09752907","imageIndex":17,"items":[{"name":"주식회사 미우(MIU CO.,LTD)","tel":"070-7533-6080","addr":"경기도 용인시 수지구 동천동 914번지 동천마을동문굿모닝힐5차 508동 1601호","indutype":"용역 서비스 - 사무서비스","category":"other"}]},{"lat":"37.344088324","long":"127.08765773","imageIndex":17,"items":[{"name":"주식회사 원더보이즈","tel":"070-4130-8414","addr":"경기도 용인시 수지구 동천동 135-34번지","indutype":"서적문구 - 완구점","category":"other"}]},{"lat":"37.3376706","long":"127.07799105","imageIndex":17,"items":[{"name":"주식회사 제이에이치엔씨","tel":"031-701-1174","addr":"경기도 용인시 수지구 동천동 509-1번지 (동천동1,2,3층)","indutype":"회원제형태 - 기타3","category":"other"}]},{"lat":"37.340256727","long":"127.10216568","imageIndex":17,"items":[{"name":"주식회사 크리에이티브마린웍스","tel":"070-4247-6730","addr":"경기도 용인시 수지구 동천동 186-20번지 누리빌 702호","indutype":"레져용품 - 스포츠·레져용품","category":"other"}]},{"lat":"37.335254449","long":"127.09294002","imageIndex":17,"items":[{"name":"주식회사월든","tel":"031-265-0367","addr":"경기도 용인시 수지구 동천동 875-2번지 갈비마을","indutype":"가구 - 일반가구","category":"other"}]},{"lat":"37.344762022","long":"127.06128432","imageIndex":17,"items":[{"name":"주식회사페어웨이","tel":"031-263-7151","addr":"경기도 용인시 수지구 동천동 645-5번지 동호인주택 104동 102호","indutype":"회원제형태 - 기타4","category":"other"}]},{"lat":"37.334006098","long":"127.087432","imageIndex":17,"items":[{"name":"주한미디어","tel":"02-469-2990","addr":"경기도 용인시 수지구 동천동 932번지 한빛마을래미안이스트팰리스3단지","indutype":"서적문구 - 출판 및 인쇄물","category":"other"}]},{"lat":"37.340213826","long":"127.09957012","imageIndex":17,"items":[{"name":"천우테크","tel":"031-263-1291","addr":"경기도 용인시 수지구 동천동 859번지 동천마을현대1차홈타운 106동 302호","indutype":"건축자재 - 페인트","category":"other"}]},{"lat":"37.342315409","long":"127.07041208","imageIndex":17,"items":[{"name":"청광향","tel":"02-6854-4563","addr":"경기도 용인시 수지구 동천동 581-28번지 1층","indutype":"문화.취미 - 문화취미기타","category":"other"}]},{"lat":"37.341060347","long":"127.10010159","imageIndex":17,"items":[{"name":"케이엔씨 산업개발 (주)","tel":"031-264-7886","addr":"경기도 용인시 수지구 동천동 180-18번지 301호","indutype":"건축자재 - 부동산 분양","category":"other"}]},{"lat":"37.340646874","long":"127.09888229","imageIndex":17,"items":[{"name":"퀼트하야","tel":"031-261-8030","addr":"경기도 용인시 수지구 동천동 174-26번지 영재빌딩 303호","indutype":"문화.취미 - 문화취미기타","category":"other"},{"name":"플랜에이독서실 용인동천센터","tel":"031-272-0979","addr":"경기도 용인시 수지구 동천동 174-26번지 영재빌딩 2층","indutype":"용역 서비스 - 사무서비스","category":"other"}]},{"lat":"37.337924663","long":"127.07513634","imageIndex":17,"items":[{"name":"크리웍스","tel":"","addr":"경기도 용인시 수지구 동천동 535-2번지 2층","indutype":"광학제품 - 사진관","category":"other"}]},{"lat":"37.340197935","long":"127.07055689","imageIndex":17,"items":[{"name":"클레프(CLEF)","tel":"070-8264-7166","addr":"경기도 용인시 수지구 동천동 563-11번지 2층","indutype":"의류 - 정장","category":"other"},{"name":"플런","tel":"070-0000-0000","addr":"경기도 용인시 수지구 동천동 563-11번지 2층","indutype":"의류 - 정장","category":"other"}]},{"lat":"37.343282823","long":"127.06430763","imageIndex":17,"items":[{"name":"토이랄라","tel":"031-889-3407","addr":"경기도 용인시 수지구 동천동 610-2번지","indutype":"서적문구 - 완구점","category":"other"}]},{"lat":"37.349955097","long":"127.08602781","imageIndex":17,"items":[{"name":"토이빌리지수지점","tel":"031-266-1945","addr":"경기도 용인시 수지구 동천동 67-1번지 1층","indutype":"서적문구 - 완구점","category":"other"}]},{"lat":"37.334536238","long":"127.08945242","imageIndex":17,"items":[{"name":"토토리 홈밀","tel":"","addr":"경기도 용인시 수지구 동천동 932번지 한빛마을래미안이스트팰리스3단지","indutype":"문화.취미 - 문화취미기타","category":"other"}]},{"lat":"37.345316028","long":"127.08435244","imageIndex":17,"items":[{"name":"티핑포인트(Tipping Point)","tel":"031-276-1208","addr":"경기도 용인시 수지구 동천동 11-3번지","indutype":"신변잡화 - 가방","category":"other"}]},{"lat":"37.333957002","long":"127.0929159","imageIndex":17,"items":[{"name":"판교7벤처밸리휘트니스","tel":"031-622-3599","addr":"경기도 용인시 수지구 동천동 879-1번지 그린하우스 404호","indutype":"회원제형태 - 레져업소","category":"other"}]},{"lat":"37.340477177","long":"127.09702008","imageIndex":17,"items":[{"name":"프라임 애견","tel":"031-261-8087","addr":"경기도 용인시 수지구 동천동 382번지 102호","indutype":"문화.취미 - 애완동물","category":"other"}]},{"lat":"37.335360018","long":"127.09623509","imageIndex":17,"items":[{"name":"플리즈미","tel":"070-8650-5500","addr":"경기도 용인시 수지구 동천동 870번지 수진마을신명스카이뷰 503동 204호","indutype":"의류 - 정장","category":"other"}]},{"lat":"37.341894427","long":"127.0658864","imageIndex":17,"items":[{"name":"필드스톤(주)","tel":"031-263-3009","addr":"경기도 용인시 수지구 동천동 595-11번지","indutype":"서적문구 - 정기간행물","category":"other"}]},{"lat":"37.332704398","long":"127.09316265","imageIndex":17,"items":[{"name":"하나문고","tel":"031-272-4411","addr":"경기도 용인시 수지구 동천동 283-2번지 한영빌딩 2층","indutype":"서적문구 - 일반서적","category":"other"}]},{"lat":"37.339243339","long":"127.09631889","imageIndex":17,"items":[{"name":"하비누아주(Ravie Nuage)","tel":"","addr":"경기도 용인시 수지구 동천동 862번지 동천마을현대2차홈타운 201동 9층 2호","indutype":"문화.취미 - 문화취미기타","category":"other"}]},{"lat":"37.344393869","long":"127.05866582","imageIndex":17,"items":[{"name":"하빛정원카페","tel":"","addr":"경기도 용인시 수지구 동천동 716-4번지 1층","indutype":"의류 - 정장","category":"other"}]},{"lat":"37.336867133","long":"127.09312249","imageIndex":17,"items":[{"name":"한우리독서토론논술 동천문화원","tel":"031-276-5599","addr":"경기도 용인시 수지구 동천동 864번지 수진마을써니벨리 103동 1202호","indutype":"서적문구 - 일반서적","category":"other"}]},{"lat":"37.347393047","long":"127.09041519","imageIndex":4,"items":[{"name":"(주)산간고","tel":"031-263-6823","addr":"경기도 용인시 수지구 동천동 115-3번지","indutype":"일반휴게음식 - 일반한식","category":"restaurant"}]},{"lat":"37.340259684","long":"127.09857711","imageIndex":4,"items":[{"name":"(주)정명아이엠씨","tel":"031-261-0026","addr":"경기도 용인시 수지구 동천동 371-5번지 동천코아프라자 B03호","indutype":"일반휴게음식 - 일반한식","category":"restaurant"},{"name":"곰돌이치킨","tel":"031-263-7592","addr":"경기도 용인시 수지구 동천동 371-5번지 동천코아프라자 103호","indutype":"일반휴게음식 - 스넥","category":"restaurant"},{"name":"국수나무","tel":"031-261-5557","addr":"경기도 용인시 수지구 동천동 371-5번지 동천코아프라자 1층 104호","indutype":"일반휴게음식 - 스넥","category":"restaurant"},{"name":"먹고살빼면돼지","tel":"","addr":"경기도 용인시 수지구 동천동 371-5번지 동천코아프라자 104호","indutype":"일반휴게음식 - 일반한식","category":"restaurant"},{"name":"수 숯불직화꼬치(동천동점)","tel":"031-272-8293","addr":"경기도 용인시 수지구 동천동 371-5번지 동천코아프라자 112호","indutype":"일반휴게음식 - 일반한식","category":"restaurant"},{"name":"주박사고기주점","tel":"031-265-2292","addr":"경기도 용인시 수지구 동천동 371-5번지 동천코아프라자 101호","indutype":"일반휴게음식 - 일반한식","category":"restaurant"},{"name":"주식회사 남문떡볶이 동천점","tel":"031-261-9833","addr":"경기도 용인시 수지구 동천동 371-5번지 동천코아프라자 113호","indutype":"일반휴게음식 - 스넥","category":"restaurant"},{"name":"훌랄라 참숯바베큐 치킨","tel":"031-266-9279","addr":"경기도 용인시 수지구 동천동 371-5번지 동천코아프라자 1층 102호","indutype":"일반휴게음식 - 스넥","category":"restaurant"}]},{"lat":"37.338148792","long":"127.10163253","imageIndex":4,"items":[{"name":"9미&짝태와노가리","tel":"031-525-3232","addr":"경기도 용인시 수지구 동천동 899번지 분당수지 U-TOWER A동 231호","indutype":"일반휴게음식 - 일반한식","category":"restaurant"},{"name":"구팔한우용인동천점","tel":"031-525-3040","addr":"경기도 용인시 수지구 동천동 899번지 분당수지U-TOWER A동 232호","indutype":"일반휴게음식 - 일반한식","category":"restaurant"},{"name":"꽃소","tel":"031-425-2062","addr":"경기도 용인시 수지구 동천동 899번지 제이에동 1층 121호","indutype":"일반휴게음식 - 일반한식","category":"restaurant"},{"name":"내복곰 과자점","tel":"070-8224-7014","addr":"경기도 용인시 수지구 동천동 899번지 분당수지 U-TOWER 1층 120호","indutype":"일반휴게음식 - 서양음식","category":"restaurant"},{"name":"더테라스","tel":"031-299-2242","addr":"경기도 용인시 수지구 동천동 899번지 분당수지 U-TOWER A동 1층 121호","indutype":"일반휴게음식 - 서양음식","category":"restaurant"},{"name":"동천화경김밥","tel":"031-299-2282","addr":"경기도 용인시 수지구 동천동 899번지 분당수지U-TOWER A동 2층 221호","indutype":"일반휴게음식 - 일반한식","category":"restaurant"},{"name":"매머드익스프레스 동천역점","tel":"","addr":"경기도 용인시 수지구 동천동 899번지 분당수지U-TOWER 138호","indutype":"일반휴게음식 - 서양음식","category":"restaurant"},{"name":"모모스시","tel":"031-525-3390","addr":"경기도 용인시 수지구 동천동 899번지 분당수지UTOWER A동 222호","indutype":"일반휴게음식 - 일식·회집","category":"restaurant"},{"name":"바른치킨 동천역점","tel":"031-525-3388","addr":"경기도 용인시 수지구 동천동 899번지 분당수지U-TOWER A동 131호","indutype":"일반휴게음식 - 일반한식","category":"restaurant"},{"name":"바름","tel":"031-525-3838","addr":"경기도 용인시 수지구 동천동 899번지 분당수지U-TOWER B동 207호","indutype":"일반휴게음식 - 일반한식","category":"restaurant"},{"name":"별당키친(kitchen)","tel":"031-229-1572","addr":"경기도 용인시 수지구 동천동 899번지 분당수지 U-TOWER A동 122호","indutype":"일반휴게음식 - 일반한식","category":"restaurant"},{"name":"부산이가돼지국밥","tel":"031-525-3335","addr":"경기도 용인시 수지구 동천동 899번지 분당수지U-TOWER A동 2층 223호","indutype":"일반휴게음식 - 일반한식","category":"restaurant"},{"name":"비비큐치킨앤비어 용인동천점","tel":"031-299-2292","addr":"경기도 용인시 수지구 동천동 899번지 분당수지U-TOWER B동 A-125호","indutype":"일반휴게음식 - 스넥","category":"restaurant"},{"name":"사계애김밥","tel":"","addr":"경기도 용인시 수지구 동천동 899번지 분당수지 U-TOWER 113호","indutype":"일반휴게음식 - 스넥","category":"restaurant"},{"name":"속타는불짬뽕","tel":"031-525-3313","addr":"경기도 용인시 수지구 동천동 899번지 분당수지 U-TOWER B동 245호","indutype":"일반휴게음식 - 중국식","category":"restaurant"},{"name":"수내닭꼬치","tel":"031-299-2279","addr":"경기도 용인시 수지구 동천동 899번지 분당수지U-TOWER A동 130호","indutype":"일반휴게음식 - 일반한식","category":"restaurant"},{"name":"써브웨이 용인동천점","tel":"031-525-3336","addr":"경기도 용인시 수지구 동천동 899번지 분당수지 U-TOWER B동 111호","indutype":"일반휴게음식 - 스넥","category":"restaurant"},{"name":"아리가또맘마","tel":"031-525-3337","addr":"경기도 용인시 수지구 동천동 899번지 분당수지 U-TOWER A동 224호","indutype":"일반휴게음식 - 일반한식","category":"restaurant"},{"name":"안덕희의 포커리","tel":"031-218-4747","addr":"경기도 용인시 수지구 동천동 899번지 분당수지 U-TOWER B동 208호","indutype":"일반휴게음식 - 일반한식","category":"restaurant"},{"name":"이가네흑돼지","tel":"031-525-3323","addr":"경기도 용인시 수지구 동천동 899번지 분당수지 U-TOWER A동 1층 136호","indutype":"일반휴게음식 - 일반한식","category":"restaurant"},{"name":"작약대구탕","tel":"031-588-1411","addr":"경기도 용인시 수지구 동천동 899번지 분당수지U-TOWER B동 112호","indutype":"일반휴게음식 - 일반한식","category":"restaurant"},{"name":"재희네김밥","tel":"031-299-2233","addr":"경기도 용인시 수지구 동천동 899번지 분당수지유타워 A동 114호","indutype":"일반휴게음식 - 스넥","category":"restaurant"},{"name":"전이랑 술이랑","tel":"031-000-0000","addr":"경기도 용인시 수지구 동천동 899번지 분당수지U-TOWER A동 1층 127호","indutype":"일반휴게음식 - 일반한식","category":"restaurant"},{"name":"제이엔키친수지동천역점","tel":"031-299-2255","addr":"경기도 용인시 수지구 동천동 899번지 분당수지 U-TOWER 2층 42호","indutype":"일반휴게음식 - 일반한식","category":"restaurant"},{"name":"주식회사 쥬씨동천","tel":"031-229-1572","addr":"경기도 용인시 수지구 동천동 899번지","indutype":"일반휴게음식 - 서양음식","category":"restaurant"},{"name":"카페 솔티브라운","tel":"031-299-2283","addr":"경기도 용인시 수지구 동천동 899번지 분당수지 U-TOWER A동 230호","indutype":"일반휴게음식 - 일반한식","category":"restaurant"},{"name":"카페피콜로(cafe piccolo)","tel":"031-889-5667","addr":"경기도 용인시 수지구 동천동 899번지 유타워 A동 2층 238-1호","indutype":"일반휴게음식 - 서양음식","category":"restaurant"},{"name":"커피 자루","tel":"031-266-6488","addr":"경기도 용인시 수지구 동천동 899번지 분당수지 U-TOWER B동 1층 08호","indutype":"일반휴게음식 - 서양음식","category":"restaurant"},{"name":"컴포즈커피","tel":"070-5612-4327","addr":"경기도 용인시 수지구 동천동 899번지 분당수지 U-TOWER A동 137호","indutype":"일반휴게음식 - 서양음식","category":"restaurant"},{"name":"킹콩부대찌개 동천유타워점","tel":"031-525-3331","addr":"경기도 용인시 수지구 동천동 899번지 분당수지 U-TOWER 2층 233호","indutype":"일반휴게음식 - 일반한식","category":"restaurant"},{"name":"테라스","tel":"031-722-5959","addr":"경기도 용인시 수지구 동천동 899번지 분당수지 U-TOWER 117호","indutype":"일반휴게음식 - 서양음식","category":"restaurant"},{"name":"토속상황삼계탕","tel":"031-262-5284","addr":"경기도 용인시 수지구 동천동 899번지 분당수지 U-TOWER A동 2층 239호","indutype":"일반휴게음식 - 일반한식","category":"restaurant"},{"name":"투썸플레이스 수지동천역점","tel":"031-525-3434","addr":"경기도 용인시 수지구 동천동 899번지 분당수지유타워 A동 A104호","indutype":"일반휴게음식 - 서양음식","category":"restaurant"},{"name":"프라빈커피 동천역점","tel":"031-299-2227","addr":"경기도 용인시 수지구 동천동 899번지 분당수지 U-TOWER A동 229호","indutype":"일반휴게음식 - 서양음식","category":"restaurant"},{"name":"한솥도시락 동천역U타워점","tel":"031-525-3322","addr":"경기도 용인시 수지구 동천동 899번지 분당수지유타워 B동 213호","indutype":"일반휴게음식 - 스넥","category":"restaurant"},{"name":"할매순대국수지동천역점","tel":"031-525-3883","addr":"경기도 용인시 수지구 동천동 899번지 분당수지 U-TOWER 2층 218호","indutype":"일반휴게음식 - 일반한식","category":"restaurant"},{"name":"현미마을cafe","tel":"031-525-3090","addr":"경기도 용인시 수지구 동천동 899번지 분당수지U-TOWER 1층 13호","indutype":"일반휴게음식 - 서양음식","category":"restaurant"},{"name":"화경김밥","tel":"031-299-2282","addr":"경기도 용인시 수지구 동천동 899번지 분당수지U-TOWER A동 221호","indutype":"일반휴게음식 - 스넥","category":"restaurant"},{"name":"화덕1979","tel":"031-525-3338","addr":"경기도 용인시 수지구 동천동 899번지 분당수지 U-TOWER B동 2층 244호","indutype":"일반휴게음식 - 일반한식","category":"restaurant"}]},{"lat":"37.332812692","long":"127.09293711","imageIndex":4,"items":[{"name":"BHC치킨","tel":"031-266-9482","addr":"경기도 용인시 수지구 동천동 282-4번지 한영빌딩 B동 103호","indutype":"일반휴게음식 - 주점","category":"restaurant"},{"name":"이삭토스트수지중학교점","tel":"031-261-2624","addr":"경기도 용인시 수지구 동천동 282-4번지 1층","indutype":"일반휴게음식 - 스넥","category":"restaurant"}]},{"lat":"37.34128398","long":"127.10205418","imageIndex":4,"items":[{"name":"IBK수지IT센터구내식당자치운영위원회","tel":"031-229-2311","addr":"경기도 용인시 수지구 동천동 185-3번지 IBK수지IT센터 B1","indutype":"일반휴게음식 - 위탁급식업","category":"restaurant"},{"name":"카페레드체리","tel":"031-266-4570","addr":"경기도 용인시 수지구 동천동 185-3번지 1층 일부","indutype":"일반휴게음식 - 서양음식","category":"restaurant"}]},{"lat":"37.344122234","long":"127.06141925","imageIndex":4,"items":[{"name":"LEALALA (레아라라)","tel":"","addr":"경기도 용인시 수지구 동천동 618-3번지 B동 103호","indutype":"일반휴게음식 - 서양음식","category":"restaurant"},{"name":"대가","tel":"031-266-1316","addr":"경기도 용인시 수지구 동천동 618-3번지 A동 1층","indutype":"일반휴게음식 - 일반한식","category":"restaurant"}]},{"lat":"37.33784048","long":"127.09279641","imageIndex":4,"items":[{"name":"감지국수","tel":"000-0000-0000","addr":"경기도 용인시 수지구 동천동 344-2번지 동천동제일프라자 107호","indutype":"일반휴게음식 - 일반한식","category":"restaurant"},{"name":"누나홀닭","tel":"031-261-2575","addr":"경기도 용인시 수지구 동천동 344-2번지 동천동제일프라자 109,110호","indutype":"일반휴게음식 - 주점","category":"restaurant"},{"name":"동아찜닭","tel":"031-262-7477","addr":"경기도 용인시 수지구 동천동 344-2번지 상록제일프라자 103호","indutype":"일반휴게음식 - 일반한식","category":"restaurant"},{"name":"마실","tel":"031-261-2577","addr":"경기도 용인시 수지구 동천동 344-2번지 상록제일프라자 104호","indutype":"일반휴게음식 - 일반한식","category":"restaurant"},{"name":"카스토","tel":"070-2265-3398","addr":"경기도 용인시 수지구 동천동 344-2번지 상록제일프라자 1층 106호","indutype":"일반휴게음식 - 일식·회집","category":"restaurant"}]},{"lat":"37.346337304","long":"127.09249054","imageIndex":4,"items":[{"name":"감치래","tel":"031-265-8008","addr":"경기도 용인시 수지구 동천동 119번지 가동 1층","indutype":"일반휴게음식 - 일반한식","category":"restaurant"},{"name":"수지골남원추어탕","tel":"031-261-1007","addr":"경기도 용인시 수지구 동천동 119번지 나동 209호","indutype":"일반휴게음식 - 일반한식","category":"restaurant"},{"name":"황소고집","tel":"031-266-8329","addr":"경기도 용인시 수지구 동천동 119번지 가동 1층","indutype":"일반휴게음식 - 일반한식","category":"restaurant"}]},{"lat":"37.340288669","long":"127.09612835","imageIndex":4,"items":[{"name":"감탄","tel":"031-276-6252","addr":"경기도 용인시 수지구 동천동 174-9번지 외7필지 센트럴 상가 107호","indutype":"일반휴게음식 - 스넥","category":"restaurant"},{"name":"갸또바닐라","tel":"","addr":"경기도 용인시 수지구 동천동 174-9번지 센트럴 101호","indutype":"일반휴게음식 - 서양음식","category":"restaurant"},{"name":"김가네(동천점)","tel":"031-262-0281","addr":"경기도 용인시 수지구 동천동 174-9번지 동천센트럴 상가 110호","indutype":"일반휴게음식 - 일반한식","category":"restaurant"},{"name":"피자스쿨 용인동천점","tel":"031-262-4566","addr":"경기도 용인시 수지구 동천동 174-9번지 센트럴 상가 111호","indutype":"일반휴게음식 - 서양음식","category":"restaurant"}]},{"lat":"37.333287687","long":"127.09622125","imageIndex":4,"items":[{"name":"감탄(수지동천점)","tel":"031-264-2261","addr":"경기도 용인시 수지구 동천동 884-5번지 104호","indutype":"일반휴게음식 - 스넥","category":"restaurant"}]},{"lat":"37.340925416","long":"127.09983058","imageIndex":4,"items":[{"name":"강원도막국수","tel":"031-262-5811","addr":"경기도 용인시 수지구 동천동 180-14번지","indutype":"일반휴게음식 - 일반한식","category":"restaurant"},{"name":"머내콩나물국밥","tel":"031-262-7722","addr":"경기도 용인시 수지구 동천동 180-14번지 외1필지","indutype":"일반휴게음식 - 일반한식","category":"restaurant"},{"name":"산막골감자탕","tel":"031-262-9945","addr":"경기도 용인시 수지구 동천동 180-14번지 중앙빌딩 1층 102호","indutype":"일반휴게음식 - 일반한식","category":"restaurant"}]},{"lat":"37.333540566","long":"127.09546555","imageIndex":4,"items":[{"name":"고가네아구찜","tel":"031-262-3536","addr":"경기도 용인시 수지구 동천동 883-15번지","indutype":"일반휴게음식 - 일반한식","category":"restaurant"}]},{"lat":"37.336318656","long":"127.09160975","imageIndex":4,"items":[{"name":"고봉민김밥  용인동천점","tel":"031-897-0066","addr":"경기도 용인시 수지구 동천동 944번지 훼미리프라자 114호","indutype":"일반휴게음식 - 스넥","category":"restaurant"},{"name":"맘스터치(수지동천점)","tel":"031-265-8866","addr":"경기도 용인시 수지구 동천동 944번지 훼미리프라자 104,105호","indutype":"일반휴게음식 - 서양음식","category":"restaurant"}]},{"lat":"37.337731781","long":"127.09355234","imageIndex":4,"items":[{"name":"골드식당","tel":"070-2547-6800","addr":"경기도 용인시 수지구 동천동 336-3번지 외1필지 신세계프라자 101호","indutype":"일반휴게음식 - 일반한식","category":"restaurant"},{"name":"플러터커피","tel":"031-266-8786","addr":"경기도 용인시 수지구 동천동 336-3번지 신세계프라자 104호","indutype":"일반휴게음식 - 서양음식","category":"restaurant"}]},{"lat":"37.333287802","long":"127.09607456","imageIndex":4,"items":[{"name":"공가포차","tel":"031-261-2115","addr":"경기도 용인시 수지구 동천동 884-4번지 1층 5호","indutype":"일반휴게음식 - 일반한식","category":"restaurant"},{"name":"두엄마김밥","tel":"031-264-7676","addr":"경기도 용인시 수지구 동천동 884-4번지 1층 103호","indutype":"일반휴게음식 - 일반한식","category":"restaurant"},{"name":"오닭꼬치(동천점)","tel":"031-000-0000","addr":"경기도 용인시 수지구 동천동 884-4번지 102호 101호,102호","indutype":"일반휴게음식 - 일반한식","category":"restaurant"}]},{"lat":"37.344225249","long":"127.05291014","imageIndex":4,"items":[{"name":"광교산장","tel":"031-262-6329","addr":"경기도 용인시 수지구 동천동 731번지","indutype":"일반휴게음식 - 일반한식","category":"restaurant"}]},{"lat":"37.34070007","long":"127.09994314","imageIndex":4,"items":[{"name":"구이랑찌개랑","tel":"031-261-6672","addr":"경기도 용인시 수지구 동천동 196번지 202호","indutype":"일반휴게음식 - 일반한식","category":"restaurant"},{"name":"김밥나라","tel":"031-265-6544","addr":"경기도 용인시 수지구 동천동 196번지 1층","indutype":"일반휴게음식 - 일반한식","category":"restaurant"},{"name":"쏭스핫도그 & 커피 (SSONG'SHOTDOG&COFFEE)","tel":"031-276-1654","addr":"경기도 용인시 수지구 동천동 196번지 1층","indutype":"일반휴게음식 - 스넥","category":"restaurant"},{"name":"이레호두수지점","tel":"031-897-0250","addr":"경기도 용인시 수지구 동천동 196번지 1층","indutype":"일반휴게음식 - 스넥","category":"restaurant"}]},{"lat":"37.333287927","long":"127.09591659","imageIndex":4,"items":[{"name":"국선생 수지동천점","tel":"031-262-9455","addr":"경기도 용인시 수지구 동천동 884-3번지 104호","indutype":"일반휴게음식 - 스넥","category":"restaurant"},{"name":"찹쌀미친꽈배기","tel":"031-000-0000","addr":"경기도 용인시 수지구 동천동 884-3번지 1층 102호","indutype":"일반휴게음식 - 서양음식","category":"restaurant"},{"name":"커피마마","tel":"031-266-6996","addr":"경기도 용인시 수지구 동천동 884-3번지 103호","indutype":"일반휴게음식 - 서양음식","category":"restaurant"}]},{"lat":"37.339010478","long":"127.09452435","imageIndex":4,"items":[{"name":"굴다리족발명인","tel":"031-265-1133","addr":"경기도 용인시 수지구 동천동 351번지 윤창빌딩 1층 109호","indutype":"일반휴게음식 - 일반한식","category":"restaurant"},{"name":"봉이치킨 동천점","tel":"031-264-8292","addr":"경기도 용인시 수지구 동천동 351번지 윤창빌딩 105,106호","indutype":"일반휴게음식 - 스넥","category":"restaurant"},{"name":"브릿지 커피 로스터스","tel":"","addr":"경기도 용인시 수지구 동천동 351번지 윤창빌딩 102호","indutype":"일반휴게음식 - 서양음식","category":"restaurant"}]},{"lat":"37.334199941","long":"127.09335627","imageIndex":4,"items":[{"name":"굽네치킨","tel":"031-266-9254","addr":"경기도 용인시 수지구 동천동 878-4번지 TEN마트 102호","indutype":"일반휴게음식 - 스넥","category":"restaurant"}]},{"lat":"37.336518037","long":"127.09005276","imageIndex":4,"items":[{"name":"김밥만(동천점)","tel":"031-261-2080","addr":"경기도 용인시 수지구 동천동 938번지 제1층제2블럭-6호","indutype":"일반휴게음식 - 스넥","category":"restaurant"},{"name":"끼니","tel":"031-264-7357","addr":"경기도 용인시 수지구 동천동 938번지 한빛마을래미안이스트팰리스2단지","indutype":"일반휴게음식 - 스넥","category":"restaurant"},{"name":"본죽 동천래미안점","tel":"031-262-6288","addr":"경기도 용인시 수지구 동천동 938번지 한빛마을래미안이스트팰리스상가동 2블럭 14호","indutype":"일반휴게음식 - 일반한식","category":"restaurant"},{"name":"카페트윈스(주)트윈월드","tel":"031-897-5151","addr":"경기도 용인시 수지구 동천동 938번지 한빛마을래미안이스트팰리스2단지 상가 221호","indutype":"일반휴게음식 - 서양음식","category":"restaurant"},{"name":"하나시","tel":"031-266-9355","addr":"경기도 용인시 수지구 동천동 938번지 한빛마을래미안이스트팰리스2단지상가30","indutype":"일반휴게음식 - 주점","category":"restaurant"}]},{"lat":"37.347141863","long":"127.08891389","imageIndex":4,"items":[{"name":"까페2","tel":"","addr":"경기도 용인시 수지구 동천동 88-1번지 2층","indutype":"일반휴게음식 - 서양음식","category":"restaurant"},{"name":"대치정육식당","tel":"","addr":"경기도 용인시 수지구 동천동 88-1번지 지하1층","indutype":"일반휴게음식 - 일반한식","category":"restaurant"}]},{"lat":"37.333512064","long":"127.09732734","imageIndex":4,"items":[{"name":"노가리&치킨89","tel":"031-898-2269","addr":"경기도 용인시 수지구 동천동 887번지 106호","indutype":"일반휴게음식 - 일반한식","category":"restaurant"},{"name":"노빌리타 동천점","tel":"031-1111-1117","addr":"경기도 용인시 수지구 동천동 887번지 수지하우스 B상가 116호","indutype":"일반휴게음식 - 서양음식","category":"restaurant"},{"name":"본죽","tel":"031-889-6288","addr":"경기도 용인시 수지구 동천동 887번지 하우비 상가 111호","indutype":"일반휴게음식 - 일반한식","category":"restaurant"},{"name":"우리집","tel":"031-898-2269","addr":"경기도 용인시 수지구 동천동 887번지 108호","indutype":"일반휴게음식 - 일반한식","category":"restaurant"},{"name":"치어스","tel":"031-898-0388","addr":"경기도 용인시 수지구 동천동 887번지 수지하우스B 123동 124호","indutype":"일반휴게음식 - 주점","category":"restaurant"},{"name":"현경","tel":"031-897-5522","addr":"경기도 용인시 수지구 동천동 887번지 204,205호","indutype":"일반휴게음식 - 중국식","category":"restaurant"},{"name":"호치킨 동천점","tel":"031-266-5727","addr":"경기도 용인시 수지구 동천동 887번지 102호","indutype":"일반휴게음식 - 스넥","category":"restaurant"},{"name":"화성옥","tel":"031-265-3965","addr":"경기도 용인시 수지구 동천동 887번지 수지하우비 114,115호","indutype":"일반휴게음식 - 일반한식","category":"restaurant"},{"name":"황금무지개","tel":"031-898-0020","addr":"경기도 용인시 수지구 동천동 887번지 수지하우비 125호","indutype":"일반휴게음식 - 일식·회집","category":"restaurant"},{"name":"황금어장","tel":"031-266-9494","addr":"경기도 용인시 수지구 동천동 887번지 101호","indutype":"일반휴게음식 - 일반한식","category":"restaurant"}]},{"lat":"37.346003774","long":"127.09269328","imageIndex":4,"items":[{"name":"노란황태","tel":"","addr":"경기도 용인시 수지구 동천동 120-1번지","indutype":"일반휴게음식 - 일반한식","category":"restaurant"}]},{"lat":"37.34670296","long":"127.08526808","imageIndex":4,"items":[{"name":"누리다(NURIDA)","tel":"070-7555-0021","addr":"경기도 용인시 수지구 동천동 16-3번지 1층","indutype":"일반휴게음식 - 일반한식","category":"restaurant"}]},{"lat":"37.341590957","long":"127.10129849","imageIndex":4,"items":[{"name":"뉴(NEW) 마시왕","tel":"031-266-4391","addr":"경기도 용인시 수지구 동천동 180-5번지 하나프라자 1층 111호","indutype":"일반휴게음식 - 일반한식","category":"restaurant"},{"name":"동천한식부페50","tel":"031-261-6955","addr":"경기도 용인시 수지구 동천동 180-5번지 하나프라자 B01호","indutype":"일반휴게음식 - 일반한식","category":"restaurant"},{"name":"브릿지커피(Bridge Coffee)","tel":"070-4202-5353","addr":"경기도 용인시 수지구 동천동 180-5번지 하나프라자 104호","indutype":"일반휴게음식 - 서양음식","category":"restaurant"},{"name":"수지누들","tel":"070-7539-9547","addr":"경기도 용인시 수지구 동천동 180-5번지 하나프라자 103호","indutype":"일반휴게음식 - 스넥","category":"restaurant"},{"name":"수지큐","tel":"070-4492-0991","addr":"경기도 용인시 수지구 동천동 180-5번지 하나프라자 201호","indutype":"일반휴게음식 - 일반한식","category":"restaurant"},{"name":"스시엔참치","tel":"","addr":"경기도 용인시 수지구 동천동 180-5번지 하나프라자 108호","indutype":"일반휴게음식 - 일식·회집","category":"restaurant"},{"name":"오븐에 꾸운 꼬꼬닭 (동천점)","tel":"031-264-5292","addr":"경기도 용인시 수지구 동천동 180-5번지 하나프라자 105호","indutype":"일반휴게음식 - 스넥","category":"restaurant"},{"name":"주점그집","tel":"","addr":"경기도 용인시 수지구 동천동 180-5번지 하나프라자 102호","indutype":"일반휴게음식 - 주점","category":"restaurant"},{"name":"트럭1805","tel":"031-262-1805","addr":"경기도 용인시 수지구 동천동 180-5번지 하나프라자 202-1,202-2호","indutype":"일반휴게음식 - 일반한식","category":"restaurant"}]},{"lat":"37.336447483","long":"127.08795381","imageIndex":4,"items":[{"name":"닐리이탈리안비스트로(수지동천점)","tel":"031-266-2123","addr":"경기도 용인시 수지구 동천동 935번지 래미안이스트팰리스1단지 상가 118호","indutype":"일반휴게음식 - 서양음식","category":"restaurant"},{"name":"마이에마스 이스트팰리스","tel":"","addr":"경기도 용인시 수지구 동천동 935번지 한빛마을래미아이스트밸리1단지 상가동 1층 8호","indutype":"일반휴게음식 - 서양음식","category":"restaurant"},{"name":"몽까이","tel":"031-898-1001","addr":"경기도 용인시 수지구 동천동 935번지 한빛마을래미안이스트팰리스1단지 블럭 상가 7호","indutype":"일반휴게음식 - 일반한식","category":"restaurant"},{"name":"스타","tel":"031-264-4998","addr":"경기도 용인시 수지구 동천동 935번지 한빛마을래미안이스트팰리스1단지 10호 일부 상가동","indutype":"일반휴게음식 - 주점","category":"restaurant"},{"name":"아기상차림","tel":"031-262-9039","addr":"경기도 용인시 수지구 동천동 935번지 한빛마을래미안이스트팰리스1단지 상가동 13호","indutype":"일반휴게음식 - 일반한식","category":"restaurant"},{"name":"제이삼공 (J&30)","tel":"","addr":"경기도 용인시 수지구 동천동 935번지 한빛마을래미안이스트팰리스1단지","indutype":"일반휴게음식 - 일반한식","category":"restaurant"},{"name":"천석꾼PUB","tel":"031-266-3441","addr":"경기도 용인시 수지구 동천동 935번지 한빛마을이스트팰리스상가1블럭20호","indutype":"일반휴게음식 - 일반한식","category":"restaurant"}]},{"lat":"37.341394314","long":"127.09937978","imageIndex":4,"items":[{"name":"다다","tel":"031-265-6333","addr":"경기도 용인시 수지구 동천동 969번지 동천파크뷰 203,204호","indutype":"일반휴게음식 - 일반한식","category":"restaurant"},{"name":"동천","tel":"031-263-4476","addr":"경기도 용인시 수지구 동천동 969번지 동천파크뷰 2층 202호","indutype":"일반휴게음식 - 서양음식","category":"restaurant"},{"name":"동천/주식회사 텐미니츠미디어","tel":"031-263-4476","addr":"경기도 용인시 수지구 동천동 969번지 동천파크뷰 2층 202호","indutype":"일반휴게음식 - 일반한식","category":"restaurant"}]},{"lat":"37.347087909","long":"127.08876711","imageIndex":4,"items":[{"name":"대치정육식당","tel":"031-263-2001","addr":"경기도 용인시 수지구 동천동 88-13번지","indutype":"일반휴게음식 - 일반한식","category":"restaurant"}]},{"lat":"37.335926699","long":"127.08540301","imageIndex":4,"items":[{"name":"더블제이 베이커스(Double J Bakers)","tel":"031-898-1906","addr":"경기도 용인시 수지구 동천동 923번지 이스트팰리스4단지 상가동 6호","indutype":"일반휴게음식 - 서양음식","category":"restaurant"},{"name":"피노쇼콜라","tel":"031-265-2777","addr":"경기도 용인시 수지구 동천동 923번지 한빛마을래미안이스트팰리스4단지 상가동 4블록-1호","indutype":"일반휴게음식 - 서양음식","category":"restaurant"}]},{"lat":"37.343447737","long":"127.05880054","imageIndex":4,"items":[{"name":"도자기숲&","tel":"031-262-6938","addr":"경기도 용인시 수지구 동천동 722-3번지","indutype":"일반휴게음식 - 스넥","category":"restaurant"}]},{"lat":"37.34437099","long":"127.09521927","imageIndex":4,"items":[{"name":"도토리묵마을","tel":"","addr":"경기도 용인시 수지구 동천동 148-4번지","indutype":"일반휴게음식 - 일반한식","category":"restaurant"}]},{"lat":"37.337318437","long":"127.09207359","imageIndex":4,"items":[{"name":"독산동부추곱창구이","tel":"031-263-2266","addr":"경기도 용인시 수지구 동천동 942-5번지 남영프라자 103호","indutype":"일반휴게음식 - 일반한식","category":"restaurant"},{"name":"한양매운갈비찜","tel":"031-276-4086","addr":"경기도 용인시 수지구 동천동 942-5번지 102호","indutype":"일반휴게음식 - 일반한식","category":"restaurant"}]},{"lat":"37.337507565","long":"127.09218666","imageIndex":4,"items":[{"name":"돈독","tel":"031-266-5509","addr":"경기도 용인시 수지구 동천동 942-1번지 106동 110호","indutype":"일반휴게음식 - 일반한식","category":"restaurant"},{"name":"빠른돼지삼형제수지점","tel":"031-276-3939","addr":"경기도 용인시 수지구 동천동 942-1번지 1층 105호","indutype":"일반휴게음식 - 일반한식","category":"restaurant"},{"name":"시골향기","tel":"031-276-8010","addr":"경기도 용인시 수지구 동천동 942-1번지 1층 105호","indutype":"일반휴게음식 - 일반한식","category":"restaurant"},{"name":"싱싱오징어바다","tel":"02-1234-1234","addr":"경기도 용인시 수지구 동천동 942-1번지 1층 101,102,103호","indutype":"일반휴게음식 - 일반한식","category":"restaurant"}]},{"lat":"37.347926229","long":"127.08824891","imageIndex":4,"items":[{"name":"돈지돈지","tel":"031-889-5566","addr":"경기도 용인시 수지구 동천동 89-1번지","indutype":"일반휴게음식 - 일반한식","category":"restaurant"}]},{"lat":"37.338673299","long":"127.07382805","imageIndex":4,"items":[{"name":"동천옥","tel":"031-263-2350","addr":"경기도 용인시 수지구 동천동 550-1번지 102호","indutype":"일반휴게음식 - 일반한식","category":"restaurant"}]},{"lat":"37.335119554","long":"127.09260134","imageIndex":4,"items":[{"name":"동천옹심이칼국수","tel":"031-261-4092","addr":"경기도 용인시 수지구 동천동 875-9번지","indutype":"일반휴게음식 - 일반한식","category":"restaurant"}]},{"lat":"37.331732018","long":"127.09221367","imageIndex":4,"items":[{"name":"동천포스코현장식당","tel":"031-272-8035","addr":"경기도 용인시 수지구 동천동 282-11번지 ,1,2층","indutype":"일반휴게음식 - 일반한식","category":"restaurant"}]},{"lat":"37.341590543","long":"127.10179503","imageIndex":4,"items":[{"name":"동천포차","tel":"031-262-8983","addr":"경기도 용인시 수지구 동천동 185-2번지 1층 일부","indutype":"일반휴게음식 - 주점","category":"restaurant"}]},{"lat":"37.340122853","long":"127.10063077","imageIndex":4,"items":[{"name":"두거리 우신탕 수지점","tel":"031-711-3357","addr":"경기도 용인시 수지구 동천동 325-8번지 동천동상가 101호","indutype":"일반휴게음식 - 일반한식","category":"restaurant"}]},{"lat":"37.33354046","long":"127.09560095","imageIndex":4,"items":[{"name":"또래오래수지점","tel":"031-262-9393","addr":"경기도 용인시 수지구 동천동 883-14번지 101호","indutype":"일반휴게음식 - 일반한식","category":"restaurant"}]},{"lat":"37.339314533","long":"127.09743616","imageIndex":4,"items":[{"name":"락앤웍","tel":"031-261-5955","addr":"경기도 용인시 수지구 동천동 361-1번지 2층","indutype":"일반휴게음식 - 중국식","category":"restaurant"},{"name":"왔쏘","tel":"031-363-9090","addr":"경기도 용인시 수지구 동천동 361-1번지 함춘빌딩 1층","indutype":"일반휴게음식 - 일반한식","category":"restaurant"}]},{"lat":"37.341923664","long":"127.10210016","imageIndex":4,"items":[{"name":"레드웍","tel":"031-263-9388","addr":"경기도 용인시 수지구 동천동 185-1번지 K2빌딩 102호","indutype":"일반휴게음식 - 중국식","category":"restaurant"}]},{"lat":"37.335263167","long":"127.09332369","imageIndex":4,"items":[{"name":"롯데리아용인동천점","tel":"031-896-8004","addr":"경기도 용인시 수지구 동천동 875-4번지 1층","indutype":"일반휴게음식 - 서양음식","category":"restaurant"}]},{"lat":"37.335479918","long":"127.09265819","imageIndex":4,"items":[{"name":"마을공유지 파지사유","tel":"031-264-8746","addr":"경기도 용인시 수지구 동천동 874-6번지 1층","indutype":"일반휴게음식 - 서양음식","category":"restaurant"}]},{"lat":"37.340477177","long":"127.09702008","imageIndex":4,"items":[{"name":"막창의 품격","tel":"031-262-4893","addr":"경기도 용인시 수지구 동천동 382번지 외1필지 1층 101호","indutype":"일반휴게음식 - 일반한식","category":"restaurant"}]},{"lat":"37.333287562","long":"127.09637922","imageIndex":4,"items":[{"name":"맘스 닭강정","tel":"031-893-9552","addr":"경기도 용인시 수지구 동천동 884-6번지 웰빙부동산 1층 101호","indutype":"일반휴게음식 - 일반한식","category":"restaurant"},{"name":"불티꼼장어","tel":"031-261-1629","addr":"경기도 용인시 수지구 동천동 884-6번지 렉스빌 105호","indutype":"일반휴게음식 - 일반한식","category":"restaurant"}]},{"lat":"37.337176777","long":"127.08868812","imageIndex":4,"items":[{"name":"맛가득한집","tel":"031-276-8161","addr":"경기도 용인시 수지구 동천동 937번지 동천프라자 2층","indutype":"일반휴게음식 - 일반한식","category":"restaurant"},{"name":"오쎄오쎄","tel":"031-897-5270","addr":"경기도 용인시 수지구 동천동 937번지 동천프라자 114호","indutype":"일반휴게음식 - 서양음식","category":"restaurant"},{"name":"유락정","tel":"031-266-2206","addr":"경기도 용인시 수지구 동천동 937번지 동천프라자 103호","indutype":"일반휴게음식 - 일반한식","category":"restaurant"},{"name":"이스트","tel":"031-262-7988","addr":"경기도 용인시 수지구 동천동 937번지 3층 309호","indutype":"일반휴게음식 - 일반한식","category":"restaurant"},{"name":"코코블럭","tel":"031-276-4646","addr":"경기도 용인시 수지구 동천동 937번지 동천프라자 303,304호","indutype":"일반휴게음식 - 서양음식","category":"restaurant"},{"name":"헤이즈더커피바","tel":"031-506-4734","addr":"경기도 용인시 수지구 동천동 937번지 111,112호","indutype":"일반휴게음식 - 서양음식","category":"restaurant"}]},{"lat":"37.333540327","long":"127.09577021","imageIndex":4,"items":[{"name":"맛소문 솥뚜껑삼겹살","tel":"031-266-0870","addr":"경기도 용인시 수지구 동천동 883-13번지","indutype":"일반휴게음식 - 일반한식","category":"restaurant"},{"name":"아재불닭발그리고오돌뼈","tel":"031-262-9293","addr":"경기도 용인시 수지구 동천동 883-13번지 102호","indutype":"일반휴게음식 - 일반한식","category":"restaurant"}]},{"lat":"37.340450344","long":"127.09677178","imageIndex":4,"items":[{"name":"매반생면 수지동천점","tel":"031-261-5689","addr":"경기도 용인시 수지구 동천동 174-14번지 빌프라자 102호","indutype":"일반휴게음식 - 일반한식","category":"restaurant"},{"name":"불닭발땡초동대문엽기떡볶이 수지동천점","tel":"031-276-8292","addr":"경기도 용인시 수지구 동천동 174-14번지 빌프라자 101호","indutype":"일반휴게음식 - 일반한식","category":"restaurant"},{"name":"청년다방 용인동천점","tel":"031-896-9990","addr":"경기도 용인시 수지구 동천동 174-14번지 빌프라자 1층 104호","indutype":"일반휴게음식 - 일반한식","category":"restaurant"},{"name":"커피마마(용인동천점)","tel":"031-896-4882","addr":"경기도 용인시 수지구 동천동 174-14번지 빌프라자","indutype":"일반휴게음식 - 서양음식","category":"restaurant"}]},{"lat":"37.341095651","long":"127.10099315","imageIndex":4,"items":[{"name":"맥주생각","tel":"031-265-2156","addr":"경기도 용인시 수지구 동천동 181-2번지 신영프라자 107호","indutype":"일반휴게음식 - 일반한식","category":"restaurant"},{"name":"박대와막창","tel":"070-1111-1111","addr":"경기도 용인시 수지구 동천동 181-2번지 신영프라자 108호","indutype":"일반휴게음식 - 일반한식","category":"restaurant"},{"name":"캡틴 차이나","tel":"031-276-0952","addr":"경기도 용인시 수지구 동천동 181-2번지 신영프라자 1층 105호,106호","indutype":"일반휴게음식 - 중국식","category":"restaurant"},{"name":"커피에반하다 수지점","tel":"031-265-6900","addr":"경기도 용인시 수지구 동천동 181-2번지 신영프라자 10호","indutype":"일반휴게음식 - 서양음식","category":"restaurant"}]},{"lat":"37.340536023","long":"127.10218861","imageIndex":4,"items":[{"name":"머내 포차식당","tel":"031-265-8292","addr":"경기도 용인시 수지구 동천동 186-22번지","indutype":"일반휴게음식 - 일반한식","category":"restaurant"}]},{"lat":"37.335895076","long":"127.09174467","imageIndex":4,"items":[{"name":"메콩타이(동천점)","tel":"031-263-9797","addr":"경기도 용인시 수지구 동천동 948번지","indutype":"일반휴게음식 - 서양음식","category":"restaurant"}]},{"lat":"37.337950346","long":"127.09047194","imageIndex":4,"items":[{"name":"명륜진사갈비 용인수지동천점","tel":"031-264-2345","addr":"경기도 용인시 수지구 동천동 411번지 준프라자 1층 101호","indutype":"일반휴게음식 - 일반한식","category":"restaurant"},{"name":"수타5짬뽕","tel":"031-263-1491","addr":"경기도 용인시 수지구 동천동 411번지 102호","indutype":"일반휴게음식 - 중국식","category":"restaurant"},{"name":"이화돈까스","tel":"070-2800-9465","addr":"경기도 용인시 수지구 동천동 411번지 준프라자 1층 103호","indutype":"일반휴게음식 - 일반한식","category":"restaurant"}]},{"lat":"37.333540194","long":"127.09593946","imageIndex":4,"items":[{"name":"모두의만족","tel":"031-262-5357","addr":"경기도 용인시 수지구 동천동 883-12번지 1층 101,102호","indutype":"일반휴게음식 - 일반한식","category":"restaurant"},{"name":"수지왕족발&보쌈","tel":"031-262-5357","addr":"경기도 용인시 수지구 동천동 883-12번지 돈조이식당 101호","indutype":"일반휴게음식 - 일반한식","category":"restaurant"}]},{"lat":"37.335866892","long":"127.09326799","imageIndex":4,"items":[{"name":"미소야","tel":"031-896-0517","addr":"경기도 용인시 수지구 동천동 873-3번지 동천타워1차 104호","indutype":"일반휴게음식 - 일식·회집","category":"restaurant"},{"name":"신통치킨동천점","tel":"031-262-9291","addr":"경기도 용인시 수지구 동천동 873-3번지 동천타워 111호","indutype":"일반휴게음식 - 스넥","category":"restaurant"},{"name":"커피에반하다(동천점)","tel":"031-266-1561","addr":"경기도 용인시 수지구 동천동 873-3번지 동천타워 106호","indutype":"일반휴게음식 - 서양음식","category":"restaurant"}]},{"lat":"37.335650605","long":"127.09332415","imageIndex":4,"items":[{"name":"반달덮밥","tel":"031-266-1515","addr":"경기도 용인시 수지구 동천동 873-4번지 에덴파크 107호","indutype":"일반휴게음식 - 일반한식","category":"restaurant"},{"name":"일품족발","tel":"031-262-8864","addr":"경기도 용인시 수지구 동천동 873-4번지 에덴파크 102호","indutype":"일반휴게음식 - 일반한식","category":"restaurant"},{"name":"행복식당","tel":"031-266-7532","addr":"경기도 용인시 수지구 동천동 873-4번지 에덴파크 106호","indutype":"일반휴게음식 - 일반한식","category":"restaurant"}]},{"lat":"37.333539713","long":"127.09654879","imageIndex":4,"items":[{"name":"방죽골,웰스토리","tel":"031-263-2212","addr":"경기도 용인시 수지구 동천동 883-8번지 103호","indutype":"일반휴게음식 - 일반한식","category":"restaurant"},{"name":"훌랄라참숯불바베큐","tel":"031-896-7892","addr":"경기도 용인시 수지구 동천동 883-8번지 1층","indutype":"일반휴게음식 - 주점","category":"restaurant"}]},{"lat":"37.347286793","long":"127.05724594","imageIndex":4,"items":[{"name":"베이커리 푸드카페","tel":"031-266-2600","addr":"경기도 용인시 수지구 동천동 689-41번지 지하1층","indutype":"일반휴게음식 - 서양음식","category":"restaurant"},{"name":"산들애푸드","tel":"031-266-2600","addr":"경기도 용인시 수지구 동천동 689-41번지 1층","indutype":"일반휴게음식 - 일반한식","category":"restaurant"}]},{"lat":"37.340477399","long":"127.07029759","imageIndex":4,"items":[{"name":"벨로치노","tel":"031-889-5689","addr":"경기도 용인시 수지구 동천동 563-2번지","indutype":"일반휴게음식 - 서양음식","category":"restaurant"}]},{"lat":"37.339896112","long":"127.10241347","imageIndex":4,"items":[{"name":"본점원조뼈다귀","tel":"031-261-1259","addr":"경기도 용인시 수지구 동천동 186-12번지","indutype":"일반휴게음식 - 일반한식","category":"restaurant"}]},{"lat":"37.347284699","long":"127.09071979","imageIndex":4,"items":[{"name":"봉덕칼국수","tel":"031-898-0300","addr":"경기도 용인시 수지구 동천동 115-10 외2필지 가","indutype":"일반휴게음식 - 일반한식","category":"restaurant"}]},{"lat":"37.332479229","long":"127.09304954","imageIndex":4,"items":[{"name":"브라우니70 수지동천점","tel":"031-889-5300","addr":"경기도 용인시 수지구 동천동 282-5번지 거성빌딩 서원 C동 1호","indutype":"일반휴게음식 - 서양음식","category":"restaurant"},{"name":"소나무한식부페(5호점)","tel":"031-466-0696","addr":"경기도 용인시 수지구 동천동 282-5번지 서원 C동 지하1층","indutype":"일반휴게음식 - 일반한식","category":"restaurant"}]},{"lat":"37.340176315","long":"127.10135306","imageIndex":4,"items":[{"name":"비마이도로시","tel":"031-263-2862","addr":"경기도 용인시 수지구 동천동 185-14번지 필하우스","indutype":"일반휴게음식 - 일반한식","category":"restaurant"},{"name":"펀펀비어","tel":"031-261-7837","addr":"경기도 용인시 수지구 동천동 185-14번지 필하우스 111호","indutype":"일반휴게음식 - 주점","category":"restaurant"}]},{"lat":"37.345537528","long":"127.08963433","imageIndex":4,"items":[{"name":"빈스버블","tel":"070-8524-4747","addr":"경기도 용인시 수지구 동천동 105-3번지 A동 지1층 124호","indutype":"일반휴게음식 - 서양음식","category":"restaurant"},{"name":"테이블128","tel":"031-000-0000","addr":"경기도 용인시 수지구 동천동 105-3번지 동천자이아파트 상가 A동 125호","indutype":"일반휴게음식 - 서양음식","category":"restaurant"}]},{"lat":"37.333914873","long":"127.08898907","imageIndex":4,"items":[{"name":"빠세빠세(동천점)","tel":"031-629-9090","addr":"경기도 용인시 수지구 동천동 932번지 이스트팰리스3단지3블럭 상가동 12호","indutype":"일반휴게음식 - 주점","category":"restaurant"},{"name":"정초밥","tel":"","addr":"경기도 용인시 수지구 동천동 932번지 한빛마을래미안이스트팰리스3단지 11호","indutype":"일반휴게음식 - 일식·회집","category":"restaurant"},{"name":"카페 드 페르미에","tel":"031-111-1111","addr":"경기도 용인시 수지구 동천동 932번지 한빛마을래미안이스트팰리스3단지 상가동 지2층 14호","indutype":"일반휴게음식 - 서양음식","category":"restaurant"}]},{"lat":"37.340538053","long":"127.0997398","imageIndex":4,"items":[{"name":"샐러디 동천점","tel":"","addr":"경기도 용인시 수지구 동천동 201-1번지","indutype":"일반휴게음식 - 서양음식","category":"restaurant"},{"name":"손골","tel":"031-263-5454","addr":"경기도 용인시 수지구 동천동 201-1번지 1층","indutype":"일반휴게음식 - 일반한식","category":"restaurant"}]},{"lat":"37.341486252","long":"127.09710033","imageIndex":4,"items":[{"name":"시골숯불생고기","tel":"031-276-7666","addr":"경기도 용인시 수지구 동천동 914번지 동천마을동문굿모닝힐5차 101호","indutype":"일반휴게음식 - 일반한식","category":"restaurant"}]},{"lat":"37.342813656","long":"127.06552604","imageIndex":4,"items":[{"name":"시골정육식당","tel":"031-272-7665","addr":"경기도 용인시 수지구 동천동 596번지 1층","indutype":"일반휴게음식 - 일반한식","category":"restaurant"}]},{"lat":"37.333172996","long":"127.09307294","imageIndex":4,"items":[{"name":"시아북까페","tel":"031-263-1981","addr":"경기도 용인시 수지구 동천동 282번지 3층 301호","indutype":"일반휴게음식 - 서양음식","category":"restaurant"},{"name":"토마토김밥","tel":"031-747-8874","addr":"경기도 용인시 수지구 동천동 282번지 1층 107호","indutype":"일반휴게음식 - 스넥","category":"restaurant"},{"name":"프리파라프리미엄키즈카페/주식회사 에이치","tel":"031-263-9700","addr":"경기도 용인시 수지구 동천동 282번지 201~204호,209,210호","indutype":"일반휴게음식 - 서양음식","category":"restaurant"},{"name":"하루","tel":"031-261-0729","addr":"경기도 용인시 수지구 동천동 282번지 101,102,103호","indutype":"일반휴게음식 - 서양음식","category":"restaurant"}]},{"lat":"37.346950539","long":"127.09176898","imageIndex":4,"items":[{"name":"쌈에담다","tel":"031-276-4955","addr":"경기도 용인시 수지구 동천동 115-11번지 1층","indutype":"일반휴게음식 - 일반한식","category":"restaurant"}]},{"lat":"37.340671365","long":"127.10196309","imageIndex":4,"items":[{"name":"아구네","tel":"031-263-7700","addr":"경기도 용인시 수지구 동천동 185-10번지 민심","indutype":"일반휴게음식 - 일반한식","category":"restaurant"}]},{"lat":"37.332064675","long":"127.09316188","imageIndex":4,"items":[{"name":"아마스빈 수지고점","tel":"031-264-3303","addr":"경기도 용인시 수지구 동천동 282-8번지 부광빌딩 A동 101호","indutype":"일반휴게음식 - 서양음식","category":"restaurant"}]},{"lat":"37.334512418","long":"127.09704649","imageIndex":4,"items":[{"name":"아키타","tel":"031-261-5182","addr":"경기도 용인시 수지구 동천동 885번지 청해참치 102호","indutype":"일반휴게음식 - 일식·회집","category":"restaurant"}]},{"lat":"37.335479644","long":"127.09301928","imageIndex":4,"items":[{"name":"어장","tel":"031-276-1122","addr":"경기도 용인시 수지구 동천동 874-4번지 1층","indutype":"일반휴게음식 - 일반한식","category":"restaurant"}]},{"lat":"37.334395438","long":"127.09685452","imageIndex":4,"items":[{"name":"어제그집","tel":"031-272-0909","addr":"경기도 용인시 수지구 동천동 885-7번지 1층","indutype":"일반휴게음식 - 일반한식","category":"restaurant"}]},{"lat":"37.347727564","long":"127.08885812","imageIndex":4,"items":[{"name":"연안식당 용인동천점","tel":"031-263-8822","addr":"경기도 용인시 수지구 동천동 84번지","indutype":"일반휴게음식 - 일반한식","category":"restaurant"}]},{"lat":"37.333477688","long":"127.09521722","imageIndex":4,"items":[{"name":"열혈분식용인","tel":"031-276-0111","addr":"경기도 용인시 수지구 동천동 881-4번지 에메랄드빌딩 104호","indutype":"일반휴게음식 - 일반한식","category":"restaurant"},{"name":"투다리동천점","tel":"031-261-2240","addr":"경기도 용인시 수지구 동천동 881-4번지 1층일부","indutype":"일반휴게음식 - 주점","category":"restaurant"}]},{"lat":"37.348366353","long":"127.06074538","imageIndex":4,"items":[{"name":"예송원","tel":"031-263-6688","addr":"경기도 용인시 수지구 동천동 673번지","indutype":"일반휴게음식 - 서양음식","category":"restaurant"}]},{"lat":"37.348618583","long":"127.06085844","imageIndex":4,"items":[{"name":"예송원 테이블","tel":"","addr":"경기도 용인시 수지구 동천동 673-1번지 1,2층","indutype":"일반휴게음식 - 서양음식","category":"restaurant"}]},{"lat":"37.343455787","long":"127.06079804","imageIndex":4,"items":[{"name":"오월다방","tel":"070-8804-2009","addr":"경기도 용인시 수지구 동천동 620번지","indutype":"일반휴게음식 - 서양음식","category":"restaurant"}]},{"lat":"37.343392616","long":"127.06100113","imageIndex":4,"items":[{"name":"오월식당","tel":"070-8865-2009","addr":"경기도 용인시 수지구 동천동 620-3번지","indutype":"일반휴게음식 - 일반한식","category":"restaurant"}]},{"lat":"37.338677811","long":"127.08097118","imageIndex":4,"items":[{"name":"와인비&그린비","tel":"031-262-7977","addr":"경기도 용인시 수지구 동천동 497-10번지 지하2층 101호","indutype":"일반휴게음식 - 서양음식","category":"restaurant"}]},{"lat":"37.340366536","long":"127.10013455","imageIndex":4,"items":[{"name":"왈순아지매","tel":"031-276-8890","addr":"경기도 용인시 수지구 동천동 325-9번지 1층","indutype":"일반휴게음식 - 스넥","category":"restaurant"}]},{"lat":"37.339707107","long":"127.10216495","imageIndex":4,"items":[{"name":"우리수산 수지점","tel":"031-276-0966","addr":"경기도 용인시 수지구 동천동 190번지","indutype":"일반휴게음식 - 일반한식","category":"restaurant"}]},{"lat":"37.334866995","long":"127.09296213","imageIndex":4,"items":[{"name":"우주소년/(주)이터널션샤인","tel":"031-276-3408","addr":"경기도 용인시 수지구 동천동 877-9번지 101호","indutype":"일반휴게음식 - 서양음식","category":"restaurant"}]},{"lat":"37.339424252","long":"127.09541634","imageIndex":4,"items":[{"name":"우촌","tel":"031-896-5671","addr":"경기도 용인시 수지구 동천동 387-6번지 2층 5호","indutype":"일반휴게음식 - 일반한식","category":"restaurant"},{"name":"탑스타치킨용인동천점","tel":"031-262-9998","addr":"경기도 용인시 수지구 동천동 387-6번지","indutype":"일반휴게음식 - 스넥","category":"restaurant"}]},{"lat":"37.339115362","long":"127.07288055","imageIndex":4,"items":[{"name":"유한회사 굿핸드굿마인드","tel":"031-263-3007","addr":"경기도 용인시 수지구 동천동 550-13번지","indutype":"일반휴게음식 - 서양음식","category":"restaurant"}]},{"lat":"37.339226529","long":"127.09477288","imageIndex":4,"items":[{"name":"율곡설렁탕","tel":"031-272-6390","addr":"경기도 용인시 수지구 동천동 350번지","indutype":"일반휴게음식 - 일반한식","category":"restaurant"}]},{"lat":"37.341060347","long":"127.10010159","imageIndex":4,"items":[{"name":"이디야커피 수지동천점","tel":"031-261-6668","addr":"경기도 용인시 수지구 동천동 180-18번지 노블레스 101호","indutype":"일반휴게음식 - 서양음식","category":"restaurant"}]},{"lat":"37.333288298","long":"127.09544267","imageIndex":4,"items":[{"name":"이디야커피 수지동천중앙점","tel":"031-261-7579","addr":"경기도 용인시 수지구 동천동 884번지 1층","indutype":"일반휴게음식 - 서양음식","category":"restaurant"},{"name":"창고","tel":"031-265-2586","addr":"경기도 용인시 수지구 동천동 884번지 이디아커피 103호","indutype":"일반휴게음식 - 일반한식","category":"restaurant"}]},{"lat":"37.341564823","long":"127.10021509","imageIndex":4,"items":[{"name":"이리식당","tel":"031-262-5244","addr":"경기도 용인시 수지구 동천동 176-1번지 수지2차풍림ATKDRK 105동 102호","indutype":"일반휴게음식 - 일반한식","category":"restaurant"}]},{"lat":"37.335650837","long":"127.09301948","imageIndex":4,"items":[{"name":"입큰이 생고기","tel":"031-896-3337","addr":"경기도 용인시 수지구 동천동 874-3번지 1층 102호","indutype":"일반휴게음식 - 일반한식","category":"restaurant"}]},{"lat":"37.33328806","long":"127.09574733","imageIndex":4,"items":[{"name":"잉꼬식당","tel":"031-896-2420","addr":"경기도 용인시 수지구 동천동 884-2번지 행복부동산 104호","indutype":"일반휴게음식 - 일반한식","category":"restaurant"}]},{"lat":"37.335679783","long":"127.09046931","imageIndex":4,"items":[{"name":"전주콩뿌리콩나물국밥","tel":"031-263-9204","addr":"경기도 용인시 수지구 동천동 946-5번지","indutype":"일반휴게음식 - 일반한식","category":"restaurant"}]},{"lat":"37.34275884","long":"127.06693665","imageIndex":4,"items":[{"name":"제이원","tel":"031-261-5753","addr":"경기도 용인시 수지구 동천동 591번지","indutype":"일반휴게음식 - 일반한식","category":"restaurant"}]},{"lat":"37.347176376","long":"127.09099052","imageIndex":4,"items":[{"name":"주식회사 함관령","tel":"031-898-3336","addr":"경기도 용인시 수지구 동천동 115-16번지","indutype":"일반휴게음식 - 일반한식","category":"restaurant"}]},{"lat":"37.343310908","long":"127.09113271","imageIndex":4,"items":[{"name":"주식회사목양나눔공동체/숲","tel":"031-261-7054","addr":"경기도 용인시 수지구 동천동 142-8번지","indutype":"일반휴게음식 - 스넥","category":"restaurant"}]},{"lat":"37.340646874","long":"127.09888229","imageIndex":4,"items":[{"name":"죽이야기 동천점","tel":"031-276-6288","addr":"경기도 용인시 수지구 동천동 174-26번지 영재빌딩 104호","indutype":"일반휴게음식 - 일반한식","category":"restaurant"},{"name":"치킨마루(수지동문점)","tel":"031-265-9919","addr":"경기도 용인시 수지구 동천동 174-26번지","indutype":"일반휴게음식 - 스넥","category":"restaurant"}]},{"lat":"37.334371306","long":"127.09313079","imageIndex":4,"items":[{"name":"준스키친","tel":"031-308-0268","addr":"경기도 용인시 수지구 동천동 877-3번지 지하1층 101호","indutype":"일반휴게음식 - 일반한식","category":"restaurant"}]},{"lat":"37.34261521","long":"127.06594343","imageIndex":4,"items":[{"name":"진안고원","tel":"070-6510-8383","addr":"경기도 용인시 수지구 동천동 596-7번지","indutype":"일반휴게음식 - 일반한식","category":"restaurant"}]},{"lat":"37.33714726","long":"127.0791641","imageIndex":4,"items":[{"name":"채플힐 위드 블랙빈스","tel":"031-261-2375","addr":"경기도 용인시 수지구 동천동 500번지 4동 1층","indutype":"일반휴게음식 - 서양음식","category":"restaurant"}]},{"lat":"37.343226417","long":"127.095579","imageIndex":4,"items":[{"name":"청솔유황오리진흙구이","tel":"031-272-5296","addr":"경기도 용인시 수지구 동천동 152-3번지 2층","indutype":"일반휴게음식 - 일반한식","category":"restaurant"}]},{"lat":"37.34353709","long":"127.08988031","imageIndex":4,"items":[{"name":"최덕휴갤러리","tel":"031-262-2422","addr":"경기도 용인시 수지구 동천동 135-67번지","indutype":"일반휴게음식 - 일반한식","category":"restaurant"}]},{"lat":"37.347565283","long":"127.08899337","imageIndex":4,"items":[{"name":"추연 남원추어탕","tel":"031-263-5977","addr":"경기도 용인시 수지구 동천동 87-13번지","indutype":"일반휴게음식 - 일반한식","category":"restaurant"}]},{"lat":"37.347393967","long":"127.08916246","imageIndex":4,"items":[{"name":"추연카페","tel":"031-263-5977","addr":"경기도 용인시 수지구 동천동 87-14번지 1층 일부","indutype":"일반휴게음식 - 서양음식","category":"restaurant"}]},{"lat":"37.344954413","long":"127.05444545","imageIndex":4,"items":[{"name":"카페703","tel":"","addr":"경기도 용인시 수지구 동천동 703-14번지 B동 1층","indutype":"일반휴게음식 - 서양음식","category":"restaurant"}]},{"lat":"37.338087271","long":"127.07443686","imageIndex":4,"items":[{"name":"카페다작","tel":"","addr":"경기도 용인시 수지구 동천동 534번지","indutype":"일반휴게음식 - 스넥","category":"restaurant"}]},{"lat":"37.339091377","long":"127.09477271","imageIndex":4,"items":[{"name":"카페드퓨어메이","tel":"031-752-4232","addr":"경기도 용인시 수지구 동천동 351-3번지 1층","indutype":"일반휴게음식 - 서양음식","category":"restaurant"}]},{"lat":"37.337480866","long":"127.09174653","imageIndex":4,"items":[{"name":"카페온","tel":"","addr":"경기도 용인시 수지구 동천동 941-11번지 1층 102호","indutype":"일반휴게음식 - 서양음식","category":"restaurant"}]},{"lat":"37.337202086","long":"127.07796802","imageIndex":4,"items":[{"name":"카페토다의숲","tel":"02-1577-0000","addr":"경기도 용인시 수지구 동천동 513번지 4동 1,2층","indutype":"일반휴게음식 - 서양음식","category":"restaurant"},{"name":"키즈카페 채플힐","tel":"031-276-5522","addr":"경기도 용인시 수지구 동천동 513번지","indutype":"일반휴게음식 - 서양음식","category":"restaurant"}]},{"lat":"37.34778099","long":"127.0601355","imageIndex":4,"items":[{"name":"카페피아체레(CAFE PIACERE)","tel":"031-272-9823","addr":"경기도 용인시 수지구 동천동 659번지","indutype":"일반휴게음식 - 서양음식","category":"restaurant"}]},{"lat":"37.333953517","long":"127.09738431","imageIndex":4,"items":[{"name":"커피에반하다 초입마을점","tel":"","addr":"경기도 용인시 수지구 동천동 886-2번지 IVY타워 101호","indutype":"일반휴게음식 - 서양음식","category":"restaurant"}]},{"lat":"37.333288192","long":"127.09557807","imageIndex":4,"items":[{"name":"탕화쿵푸마라탕","tel":"070-3698-1413","addr":"경기도 용인시 수지구 동천동 884-1번지 102호","indutype":"일반휴게음식 - 중국식","category":"restaurant"},{"name":"형제수산","tel":"031-889-5846","addr":"경기도 용인시 수지구 동천동 884-1번지 103호,104호","indutype":"일반휴게음식 - 일반한식","category":"restaurant"}]},{"lat":"37.335562734","long":"127.09035633","imageIndex":4,"items":[{"name":"투썸플레이스용인동천점","tel":"031-261-2525","addr":"경기도 용인시 수지구 동천동 946-6번지 유진빌딩1층지하1층","indutype":"일반휴게음식 - 서양음식","category":"restaurant"},{"name":"해피블럭카페","tel":"031-8031-7955","addr":"경기도 용인시 수지구 동천동 946-6번지 1동 2층","indutype":"일반휴게음식 - 일반한식","category":"restaurant"}]},{"lat":"37.33545467","long":"127.09027722","imageIndex":4,"items":[{"name":"파파존스수지점","tel":"031-272-5151","addr":"경기도 용인시 수지구 동천동 946-7번지","indutype":"일반휴게음식 - 서양음식","category":"restaurant"}]},{"lat":"37.341177153","long":"127.10049672","imageIndex":4,"items":[{"name":"팥이랑밀이랑","tel":"031-264-9488","addr":"경기도 용인시 수지구 동천동 180-12번지","indutype":"일반휴게음식 - 일반한식","category":"restaurant"}]},{"lat":"37.334422046","long":"127.09738489","imageIndex":4,"items":[{"name":"프롬어스(From Us)","tel":"","addr":"경기도 용인시 수지구 동천동 886번지 동천메디파크 1층 102호","indutype":"일반휴게음식 - 서양음식","category":"restaurant"}]},{"lat":"37.335119004","long":"127.09332352","imageIndex":4,"items":[{"name":"피플하우스","tel":"031-262-2544","addr":"경기도 용인시 수지구 동천동 875-5번지 노블레스빌 101동 102호","indutype":"일반휴게음식 - 스넥","category":"restaurant"}]},{"lat":"37.333674866","long":"127.09654896","imageIndex":4,"items":[{"name":"한수라","tel":"031-262-8289","addr":"경기도 용인시 수지구 동천동 883-7번지","indutype":"일반휴게음식 - 일반한식","category":"restaurant"}]},{"lat":"37.333927151","long":"127.09654927","imageIndex":4,"items":[{"name":"행운목","tel":"031-261-7254","addr":"경기도 용인시 수지구 동천동 882-7번지 마크빌 102호","indutype":"일반휴게음식 - 일반한식","category":"restaurant"}]},{"lat":"37.349396022","long":"127.08665922","imageIndex":4,"items":[{"name":"헤이젠","tel":"031-262-3133","addr":"경기도 용인시 수지구 동천동 74-9번지","indutype":"일반휴게음식 - 일반한식","category":"restaurant"}]},{"lat":"37.342991745","long":"127.09609783","imageIndex":4,"items":[{"name":"홍칼보쌈명가","tel":"031-264-9424","addr":"경기도 용인시 수지구 동천동 167-3번지","indutype":"일반휴게음식 - 일반한식","category":"restaurant"}]},{"lat":"37.344506274","long":"127.09505016","imageIndex":4,"items":[{"name":"황금코다리 동천점","tel":"","addr":"경기도 용인시 수지구 동천동 148-3번지 1층","indutype":"일반휴게음식 - 일반한식","category":"restaurant"}]},{"lat":"37.342730094","long":"127.09654892","imageIndex":4,"items":[{"name":"휴","tel":"031-896-4127","addr":"경기도 용인시 수지구 동천동 171-2번지 2층","indutype":"일반휴게음식 - 일반한식","category":"restaurant"}]},{"lat":"37.334700355","long":"127.09863776","imageIndex":8,"items":[{"name":"(주)삼성메디팜","tel":"031-231-2935","addr":"경기도 용인시 수지구 동천동 851-1번지","indutype":"약국 - 제약회사","category":"medical"},{"name":"(주)신덕팜","tel":"031-212-5711","addr":"경기도 용인시 수지구 동천동 851-1번지","indutype":"약국 - 제약회사","category":"medical"},{"name":"(주)신덕팜","tel":"031-212-5711","addr":"경기도 용인시 수지구 동천동 851-1번지","indutype":"약국 - 제약회사","category":"medical"},{"name":"(주)신덕팜","tel":"031-212-5711","addr":"경기도 용인시 수지구 동천동 851-1번지","indutype":"약국 - 제약회사","category":"medical"},{"name":"(주)엠스팜코리아","tel":"031-897-7495","addr":"경기도 용인시 수지구 동천동 851-1번지","indutype":"약국 - 제약회사","category":"medical"},{"name":"헬스탑 주식회사","tel":"031-265-6347","addr":"경기도 용인시 수지구 동천동 851-1번지 그랜드백화점물류센타","indutype":"약국 - 제약회사","category":"medical"}]},{"lat":"37.33553831","long":"127.09862754","imageIndex":8,"items":[{"name":"(주)서울지오팜","tel":"031-270-3200","addr":"경기도 용인시 수지구 동천동 851번지","indutype":"약국 - 제약회사","category":"medical"},{"name":"(주)서울지오팜","tel":"031-270-3235","addr":"경기도 용인시 수지구 동천동 851번지","indutype":"약국 - 약국","category":"medical"},{"name":"(주)서울지오팜","tel":"031-270-3200","addr":"경기도 용인시 수지구 동천동 851번지","indutype":"약국 - 제약회사","category":"medical"},{"name":"(주)위드팜","tel":"031-270-3300","addr":"경기도 용인시 수지구 동천동 851번지","indutype":"약국 - 약국","category":"medical"}]},{"lat":"37.33784048","long":"127.09279641","imageIndex":8,"items":[{"name":"강남동물병원","tel":"031-897-7582","addr":"경기도 용인시 수지구 동천동 344-2 제일프라자101호~102호","indutype":"기타의료기관 - 동물병원","category":"medical"}]},{"lat":"37.340288669","long":"127.09612835","imageIndex":8,"items":[{"name":"경희맑은솔한의원","tel":"031-263-6777","addr":"경기도 용인시 수지구 동천동 174-9번지 센트럴상가 203호","indutype":"의원 - 한의원","category":"medical"},{"name":"우리이비인후과의원","tel":"031-262-5885","addr":"경기도 용인시 수지구 동천동 174-9번지 센트럴 상가 301동 302호","indutype":"의원 - 의원","category":"medical"},{"name":"천명약국","tel":"031-896-7871","addr":"경기도 용인시 수지구 동천동 174-9번지 외7필지 센트럴 상가 108호","indutype":"약국 - 약국","category":"medical"}]},{"lat":"37.335895076","long":"127.09174467","imageIndex":8,"items":[{"name":"기운생동한의원","tel":"031-262-1275","addr":"경기도 용인시 수지구 동천동 948번지 송란아트프라자 401,402호","indutype":"의원 - 한의원","category":"medical"},{"name":"삼성코랄이비인후과의원","tel":"031-526-7007","addr":"경기도 용인시 수지구 동천동 948번지 407호","indutype":"의원 - 의원","category":"medical"},{"name":"수지드림약국","tel":"031-266-0996","addr":"경기도 용인시 수지구 동천동 948번지 110호,111호","indutype":"약국 - 약국","category":"medical"},{"name":"수지속편한내과","tel":"031-264-5088","addr":"경기도 용인시 수지구 동천동 948번지 송란아트프라자308~310호 308호","indutype":"의원 - 의원","category":"medical"},{"name":"이랑사랑치과의원","tel":"031-265-2879","addr":"경기도 용인시 수지구 동천동 948번지 송림빌딩 403호~404호","indutype":"의원 - 치과의원","category":"medical"},{"name":"피터소아청소년과의원","tel":"031-261-7383","addr":"경기도 용인시 수지구 동천동 948번지 송란아트프라자 306호","indutype":"의원 - 의원","category":"medical"}]},{"lat":"37.336318656","long":"127.09160975","imageIndex":8,"items":[{"name":"나무한의원","tel":"031-896-3388","addr":"경기도 용인시 수지구 동천동 944번지 훼미리프라자 301호","indutype":"의원 - 한의원","category":"medical"},{"name":"다온가정의학과","tel":"031-261-2330","addr":"경기도 용인시 수지구 동천동 944번지 훼미리프라자 302호","indutype":"의원 - 의원","category":"medical"},{"name":"동천이안소아청소년과의원","tel":"031-896-0777","addr":"경기도 용인시 수지구 동천동 944번지 동천훼미리프라자 303호","indutype":"의원 - 의원","category":"medical"},{"name":"수인치과의원","tel":"031-896-9075","addr":"경기도 용인시 수지구 동천동 944번지 훼미리프라자 304호","indutype":"의원 - 치과의원","category":"medical"},{"name":"친절한해든약국","tel":"031-264-5543","addr":"경기도 용인시 수지구 동천동 944번지 훼미리프라자 111호,112호","indutype":"약국 - 약국","category":"medical"}]},{"lat":"37.347781164","long":"127.0894902","imageIndex":8,"items":[{"name":"남상천한의원","tel":"031-276-9913","addr":"경기도 용인시 수지구 동천동 85번지","indutype":"의원 - 한의원","category":"medical"}]},{"lat":"37.340646874","long":"127.09888229","imageIndex":8,"items":[{"name":"대추나무한의원","tel":"031-266-7573","addr":"경기도 용인시 수지구 동천동 174-26번지 외2필지 영재빌딩 4층","indutype":"의원 - 한의원","category":"medical"},{"name":"수지메디칼약국","tel":"031-276-8576","addr":"경기도 용인시 수지구 동천동 174-26번지 영재빌딩 105호","indutype":"약국 - 약국","category":"medical"},{"name":"편한내과의원","tel":"031-261-7580","addr":"경기도 용인시 수지구 동천동 174-26번지 영재빌딩 301호 외2필지","indutype":"의원 - 의원","category":"medical"}]},{"lat":"37.335866892","long":"127.09326799","imageIndex":8,"items":[{"name":"동천경희한의원","tel":"031-264-8175","addr":"경기도 용인시 수지구 동천동 873-3번지 동천타워 404호","indutype":"의원 - 한의원","category":"medical"},{"name":"삼성굿모닝의원","tel":"031-869-0037","addr":"경기도 용인시 수지구 동천동 873-3번지 동천타워 3층 304호","indutype":"의원 - 의원","category":"medical"},{"name":"행복치과의원","tel":"031-896-8275","addr":"경기도 용인시 수지구 동천동 873-3번지 동천타워 301호","indutype":"의원 - 치과의원","category":"medical"}]},{"lat":"37.340367495","long":"127.09896093","imageIndex":8,"items":[{"name":"동천뉴욕치과의원","tel":"031-263-1075","addr":"경기도 용인시 수지구 동천동 768-2번지","indutype":"의원 - 치과의원","category":"medical"}]},{"lat":"37.33581481","long":"127.09063873","imageIndex":8,"items":[{"name":"동천동물병원","tel":"031-265-1175","addr":"경기도 용인시 수지구 동천동 946-4번지 대영프라자","indutype":"기타의료기관 - 동물병원","category":"medical"},{"name":"태인당 한의원","tel":"031-265-3375","addr":"경기도 용인시 수지구 동천동 946-4번지 대영프라자 3층 301호","indutype":"의원 - 한의원","category":"medical"}]},{"lat":"37.335650605","long":"127.09332415","imageIndex":8,"items":[{"name":"동천서울이비인후과의원","tel":"031-896-7519","addr":"경기도 용인시 수지구 동천동 873-4번지 에덴파크 201호","indutype":"의원 - 의원","category":"medical"},{"name":"동천연세소아과의원","tel":"031-276-3188","addr":"경기도 용인시 수지구 동천동 873-4번지 에덴파크빌딩 303호","indutype":"의원 - 의원","category":"medical"},{"name":"윤진약국","tel":"031-276-8358","addr":"경기도 용인시 수지구 동천동 873-4번지 에덴파크 상가동 1층 104호","indutype":"약국 - 약국","category":"medical"}]},{"lat":"37.33597504","long":"127.09323427","imageIndex":8,"items":[{"name":"동천약국","tel":"031-263-3559","addr":"경기도 용인시 수지구 동천동 873-3번지 동천타워 1동 108호","indutype":"약국 - 약국","category":"medical"}]},{"lat":"37.340259684","long":"127.09857711","imageIndex":8,"items":[{"name":"린한의원","tel":"031-266-7550","addr":"경기도 용인시 수지구 동천동 371-5번지 코아프라자 3층 301호","indutype":"의원 - 한의원","category":"medical"},{"name":"린한의원","tel":"031-266-7550","addr":"경기도 용인시 수지구 동천동 371-5번지 동천코아프라자 3층 301호","indutype":"의원 - 한의원","category":"medical"},{"name":"정인석마취.통증의학과의원","tel":"031-898-1897","addr":"경기도 용인시 수지구 동천동 371-5번지 동천코아프라자 206호","indutype":"의원 - 의원","category":"medical"},{"name":"프라임치과","tel":"031-265-2275","addr":"경기도 용인시 수지구 동천동 371-5번지 동천코아프라자 3층 304호","indutype":"의원 - 치과의원","category":"medical"}]},{"lat":"37.333172996","long":"127.09307294","imageIndex":8,"items":[{"name":"매일봄약국","tel":"031-272-7418","addr":"경기도 용인시 수지구 동천동 282번지 1층 104호","indutype":"약국 - 약국","category":"medical"},{"name":"수지사랑내과의원","tel":"031-000-0000","addr":"경기도 용인시 수지구 동천동 282번지 208호","indutype":"의원 - 의원","category":"medical"},{"name":"페리오치과의원","tel":"031-266-7528","addr":"경기도 용인시 수지구 동천동 282번지 307호","indutype":"의원 - 치과의원","category":"medical"},{"name":"화인한의원","tel":"031-526-7577","addr":"경기도 용인시 수지구 동천동 282번지 외2필지","indutype":"의원 - 한의원","category":"medical"}]},{"lat":"37.339010478","long":"127.09452435","imageIndex":8,"items":[{"name":"바로새움정형외과의원","tel":"031-548-1350","addr":"경기도 용인시 수지구 동천동 351번지 윤창빌딩 2층,3층","indutype":"의원 - 의원","category":"medical"},{"name":"바른약국","tel":"070-4230-1311","addr":"경기도 용인시 수지구 동천동 351번지 윤창빌딩 104호","indutype":"약국 - 약국","category":"medical"}]},{"lat":"37.338148792","long":"127.10163253","imageIndex":8,"items":[{"name":"빛마취통증의학과의원","tel":"031-299-2211","addr":"경기도 용인시 수지구 동천동 899번지 분당수지 U-TOWER A동 228호","indutype":"의원 - 의원","category":"medical"},{"name":"선데이치과의원","tel":"031-299-2200","addr":"경기도 용인시 수지구 동천동 899번지 225-227호","indutype":"의원 - 치과의원","category":"medical"},{"name":"유타워온누리약국","tel":"031-525-3223","addr":"경기도 용인시 수지구 동천동 899번지 분단수지 U-TOWER A동 2층 41호","indutype":"약국 - 약국","category":"medical"},{"name":"의료법인 마리아 의료재단 수지마리아의원","tel":"031-8019-5548","addr":"경기도 용인시 수지구 동천동 899번지 분당수지유타워 301호","indutype":"의원 - 의원","category":"medical"},{"name":"이모든치과","tel":"031-229-1528","addr":"경기도 용인시 수지구 동천동 899번지 분당 수지 U-TOWER 상가동 2층 9,10호","indutype":"의원 - 치과의원","category":"medical"}]},{"lat":"37.335867081","long":"127.09301974","imageIndex":8,"items":[{"name":"새봄의원","tel":"031-265-8842","addr":"경기도 용인시 수지구 동천동 873-2 외1필지 동천타워 302호 303호","indutype":"의원 - 의원","category":"medical"}]},{"lat":"37.33545467","long":"127.09027722","imageIndex":8,"items":[{"name":"서울바로치과의원","tel":"031-263-8575","addr":"경기도 용인시 수지구 동천동 946-7번지 2층","indutype":"의원 - 치과의원","category":"medical"}]},{"lat":"37.333620474","long":"127.09696639","imageIndex":8,"items":[{"name":"선한의원","tel":"031-898-1075","addr":"경기도 용인시 수지구 동천동 887-1수지하우비상가407~408호","indutype":"의원 - 한의원","category":"medical"}]},{"lat":"37.341095651","long":"127.10099315","imageIndex":8,"items":[{"name":"신영프라자약국","tel":"031-276-9185","addr":"경기도 용인시 수지구 동천동 181-2번지 신영프라자 1층 102호","indutype":"약국 - 약국","category":"medical"}]},{"lat":"37.340261372","long":"127.09646686","imageIndex":8,"items":[{"name":"에이스동물병원","tel":"031-266-2900","addr":"경기도 용인시 수지구 동천동 174-15번지 외 1필지 1층","indutype":"기타의료기관 - 동물병원","category":"medical"}]},{"lat":"37.334178772","long":"127.09738459","imageIndex":8,"items":[{"name":"에이피(AP)동물병원","tel":"031-263-0085","addr":"경기도 용인시 수지구 동천동 886-1번지 태평빌딩","indutype":"기타의료기관 - 동물병원","category":"medical"}]},{"lat":"37.337176777","long":"127.08868812","imageIndex":8,"items":[{"name":"염광플러스약국","tel":"031-264-5413","addr":"경기도 용인시 수지구 동천동 937번지 동천프라자 404호 404호~408호","indutype":"약국 - 약국","category":"medical"},{"name":"염광피부과의원","tel":"031-262-6155","addr":"경기도 용인시 수지구 동천동 937번지 동천프라자 5층","indutype":"의원 - 의원","category":"medical"}]},{"lat":"37.334260133","long":"127.09704618","imageIndex":8,"items":[{"name":"영재한의원","tel":"031-266-1361","addr":"경기도 용인시 수지구 동천동 885-2번지","indutype":"의원 - 한의원","category":"medical"}]},{"lat":"37.340817755","long":"127.0992662","imageIndex":8,"items":[{"name":"으뜸가정의학과의원","tel":"031-272-8275","addr":"경기도 용인시 수지구 동천동 200번지 3층","indutype":"의원 - 의원","category":"medical"},{"name":"흰돌치과","tel":"031-272-2275","addr":"경기도 용인시 수지구 동천동 200번지 3층","indutype":"의원 - 치과의원","category":"medical"}]},{"lat":"37.336565488","long":"127.09860628","imageIndex":8,"items":[{"name":"주식회사건화약품","tel":"02-3402-0142","addr":"경기도 용인시 수지구 동천동 903번지","indutype":"약국 - 약국","category":"medical"},{"name":"주식회사건화약품","tel":"031-276-0142","addr":"경기도 용인시 수지구 동천동 903번지","indutype":"약국 - 제약회사","category":"medical"},{"name":"주식회사건화약품","tel":"031-276-0142","addr":"경기도 용인시 수지구 동천동 903번지","indutype":"약국 - 제약회사","category":"medical"}]},{"lat":"37.340619301","long":"127.09954807","imageIndex":8,"items":[{"name":"중앙약국","tel":"031-262-5203","addr":"경기도 용인시 수지구 동천동 768-1번지","indutype":"약국 - 약국","category":"medical"}]},{"lat":"37.332199871","long":"127.09310563","imageIndex":8,"items":[{"name":"청한약국","tel":"031-266-2949","addr":"경기도 용인시 수지구 동천동 282-7번지 정원빌딩 1층","indutype":"약국 - 약국","category":"medical"}]},{"lat":"37.337698328","long":"127.07688521","imageIndex":8,"items":[{"name":"클럽제이의원","tel":"031-263-4793","addr":"경기도 용인시 수지구 동천동 511-1번지 ,1,2층","indutype":"의원 - 의원","category":"medical"}]},{"lat":"37.336318656","long":"127.09160975","imageIndex":7,"items":[{"name":"(주)선우엠티 앵거스박고기공장 수지점","tel":"031-264-2299","addr":"경기도 용인시 수지구 동천동 944번지 1층 101-103호","indutype":"음료식품 - 정육점","category":"food"}]},{"lat":"37.338148792","long":"127.10163253","imageIndex":7,"items":[{"name":"(주)씨드앤너츠","tel":"070-4801-3294","addr":"경기도 용인시 수지구 동천동 899번지 분당수지유타워 A동 2204호","indutype":"음료식품 - 농·축·수산품","category":"food"},{"name":"메티에(metier)","tel":"","addr":"경기도 용인시 수지구 동천동 899번지 분당수지 U-TOWER A동 1층 140호","indutype":"음료식품 - 제과점","category":"food"},{"name":"사르르","tel":"031-276-3838","addr":"경기도 용인시 수지구 동천동 899번지 분당수지 U-TOWER A동 598호","indutype":"음료식품 - 제과점","category":"food"},{"name":"우주라이프(life)","tel":"031-1600-2215","addr":"경기도 용인시 수지구 동천동 899번지 25.24호","indutype":"음료식품 - 농·축·수산품","category":"food"},{"name":"파리바게뜨 동천역유타워점","tel":"031-525-3331","addr":"경기도 용인시 수지구 동천동 899번지 분당수지 U-TOWER A동 1층 141호","indutype":"음료식품 - 제과점","category":"food"}]},{"lat":"37.337256786","long":"127.10163136","imageIndex":7,"items":[{"name":"(주)휴먼에코푸드","tel":"031-261-0117","addr":"경기도 용인시 수지구 동천동 900 1층","indutype":"음료식품 - 기타음료식품","category":"food"}]},{"lat":"37.333540087","long":"127.09607487","imageIndex":7,"items":[{"name":"1253타르트","tel":"031-1111-1111","addr":"경기도 용인시 수지구 동천동 883-11번지 1층 일부","indutype":"음료식품 - 제과점","category":"food"}]},{"lat":"37.333288298","long":"127.09544267","imageIndex":7,"items":[{"name":"Home&인테리어","tel":"031-261-2744","addr":"경기도 용인시 수지구 동천동 884번지","indutype":"음료식품 - 기타음료식품","category":"food"}]},{"lat":"37.333287687","long":"127.09622125","imageIndex":7,"items":[{"name":"국가대표 푸줏간","tel":"031-261-5697","addr":"경기도 용인시 수지구 동천동 884-5번지 1층 103호","indutype":"음료식품 - 정육점","category":"food"},{"name":"황금시루","tel":"031-272-8600","addr":"경기도 용인시 수지구 동천동 884-5번지 1층 101호","indutype":"음료식품 - 제과점","category":"food"}]},{"lat":"37.333914873","long":"127.08898907","imageIndex":7,"items":[{"name":"그린테이블","tel":"070-4113-8743","addr":"경기도 용인시 수지구 동천동 932번지 한빛마을래미안이스트팰리스3단지상가동제지2층제3블럭5호","indutype":"음료식품 - 기타음료식품","category":"food"},{"name":"윤호손수호두파이","tel":"031-272-5282","addr":"경기도 용인시 수지구 동천동 932번지 래미안이스트팰리스3단지 상가동 8호","indutype":"음료식품 - 제과점","category":"food"}]},{"lat":"37.347087909","long":"127.08876711","imageIndex":7,"items":[{"name":"대치정육점","tel":"031-000-0000","addr":"경기도 용인시 수지구 동천동 88-13번지 1층","indutype":"음료식품 - 정육점","category":"food"}]},{"lat":"37.335650605","long":"127.09332415","imageIndex":7,"items":[{"name":"도담도담식빵 용인동천점","tel":"070-8838-7879","addr":"경기도 용인시 수지구 동천동 873-4번지 에덴파크 103호","indutype":"음료식품 - 제과점","category":"food"},{"name":"새맛찬반찬","tel":"031-264-3863","addr":"경기도 용인시 수지구 동천동 873-4번지 에덴파크 101호","indutype":"음료식품 - 기타음료식품","category":"food"}]},{"lat":"37.340484352","long":"127.09929963","imageIndex":7,"items":[{"name":"동산떡집","tel":"031-266-8196","addr":"경기도 용인시 수지구 동천동 768-3번지 신동천부동산 4호","indutype":"음료식품 - 기타음료식품","category":"food"},{"name":"동산떡집","tel":"031-266-1077","addr":"경기도 용인시 수지구 동천동 768-3번지","indutype":"음료식품 - 제과점","category":"food"}]},{"lat":"37.336564264","long":"127.10010708","imageIndex":7,"items":[{"name":"동성식품","tel":"031-732-3287","addr":"경기도 용인시 수지구 동천동 902번지","indutype":"음료식품 - 기타음료식품","category":"food"}]},{"lat":"37.341590957","long":"127.10129849","imageIndex":7,"items":[{"name":"동천떡방앗간","tel":"031-266-9874","addr":"경기도 용인시 수지구 동천동 180-5번지 하나프라자 103호","indutype":"음료식품 - 제과점","category":"food"}]},{"lat":"37.336920779","long":"127.0936642","imageIndex":7,"items":[{"name":"동천점핑다이어트","tel":"031-263-1311","addr":"경기도 용인시 수지구 동천동 864번지 301동 지하1층 101호102호","indutype":"건강식품 - 기타건강식품","category":"food"}]},{"lat":"37.33581481","long":"127.09063873","imageIndex":7,"items":[{"name":"동천축산","tel":"031-276-0120","addr":"경기도 용인시 수지구 동천동 946-4번지 대영프라자","indutype":"음료식품 - 정육점","category":"food"},{"name":"주식회사 엘이로드","tel":"031-265-9966","addr":"경기도 용인시 수지구 동천동 946-4번지 대영프라자 501호","indutype":"음료식품 - 기타음료식품","category":"food"}]},{"lat":"37.340450344","long":"127.09677178","imageIndex":7,"items":[{"name":"뚜레쥬르","tel":"031-272-0034","addr":"경기도 용인시 수지구 동천동 174-14번지 105,106호","indutype":"음료식품 - 제과점","category":"food"}]},{"lat":"37.341177153","long":"127.10049672","imageIndex":7,"items":[{"name":"막내딸집 건어물 용인수지점","tel":"031-8001-0724","addr":"경기도 용인시 수지구 동천동 180-12번지 생명수교회 1층 7호","indutype":"음료식품 - 농·축·수산품","category":"food"}]},{"lat":"37.336518037","long":"127.09005276","imageIndex":7,"items":[{"name":"목우촌","tel":"031-261-1676","addr":"경기도 용인시 수지구 동천동 938번지 한빛마을래미안이스트팰리스2단지 상가동 22호","indutype":"음료식품 - 정육점","category":"food"},{"name":"서민반찬 수지동천가족점","tel":"031-262-0949","addr":"경기도 용인시 수지구 동천동 938번지 한빛마을래미안이스트팰리스2단지 상가동 13호","indutype":"음료식품 - 기타음료식품","category":"food"},{"name":"파리바게트 이스트팰리스","tel":"","addr":"경기도 용인시 수지구 동천동 938번지 한빛마을래미안이스트팰리스2단지 상가동 1층 3호,4호","indutype":"음료식품 - 제과점","category":"food"}]},{"lat":"37.335867458","long":"127.09252324","imageIndex":7,"items":[{"name":"미래축산","tel":"031-896-5522","addr":"경기도 용인시 수지구 동천동 873번지 1층","indutype":"음료식품 - 정육점","category":"food"}]},{"lat":"37.341394314","long":"127.09937978","imageIndex":7,"items":[{"name":"미성수산","tel":"032-264-8181","addr":"경기도 용인시 수지구 동천동 969번지 101호-106호","indutype":"음료식품 - 농·축·수산품","category":"food"},{"name":"우리동네 생선가게","tel":"031-1111-1111","addr":"경기도 용인시 수지구 동천동 969번지 동천파크뷰 101동 106호","indutype":"음료식품 - 농·축·수산품","category":"food"},{"name":"태성축산","tel":"","addr":"경기도 용인시 수지구 동천동 969번지 동천파크뷰 101동 106호","indutype":"음료식품 - 정육점","category":"food"}]},{"lat":"37.340288669","long":"127.09612835","imageIndex":7,"items":[{"name":"배가당 종로떡집","tel":"031-261-2261","addr":"경기도 용인시 수지구 동천동 174-9번지 센트럴 상가 105호","indutype":"음료식품 - 제과점","category":"food"}]},{"lat":"37.333512064","long":"127.09732734","imageIndex":7,"items":[{"name":"베스킨라빈스 용인동천점","tel":"02-0000-0000","addr":"경기도 용인시 수지구 동천동 887번지 101호","indutype":"음료식품 - 제과점","category":"food"},{"name":"스마일점핑 다이어트","tel":"031-266-6577","addr":"경기도 용인시 수지구 동천동 887번지 수지하우비 4층 401호","indutype":"건강식품 - 기타건강식품","category":"food"}]},{"lat":"37.340646874","long":"127.09888229","imageIndex":7,"items":[{"name":"베스킨라빈스용인동천2호점","tel":"031-262-3181","addr":"경기도 용인시 수지구 동천동 174-26번지 영재빌딩 101호","indutype":"음료식품 - 제과점","category":"food"}]},{"lat":"37.34070007","long":"127.09994314","imageIndex":7,"items":[{"name":"브레드스토리","tel":"031-264-9393","addr":"경기도 용인시 수지구 동천동 196번지 1","indutype":"음료식품 - 제과점","category":"food"},{"name":"파워점핑다이어트","tel":"031-265-5979","addr":"경기도 용인시 수지구 동천동 196번지 2층 일부","indutype":"건강식품 - 기타건강식품","category":"food"}]},{"lat":"37.335895076","long":"127.09174467","imageIndex":7,"items":[{"name":"블럭제빵소(수지동천점)","tel":"031-272-6662","addr":"경기도 용인시 수지구 동천동 948번지 113호","indutype":"음료식품 - 제과점","category":"food"}]},{"lat":"37.347095032","long":"127.091329","imageIndex":7,"items":[{"name":"상모수산","tel":"031-272-2863","addr":"경기도 용인시 수지구 동천동 115-2","indutype":"음료식품 - 농·축·수산품","category":"food"}]},{"lat":"37.340259684","long":"127.09857711","imageIndex":7,"items":[{"name":"소담두부","tel":"","addr":"경기도 용인시 수지구 동천동 371-5번지 동천코아프라자 105호","indutype":"음료식품 - 기타음료식품","category":"food"},{"name":"주박사고기주점","tel":"031-265-2292","addr":"경기도 용인시 수지구 동천동 371-5번지","indutype":"음료식품 - 정육점","category":"food"}]},{"lat":"37.335866892","long":"127.09326799","imageIndex":7,"items":[{"name":"수지복떡방","tel":"031-266-9407","addr":"경기도 용인시 수지구 동천동 873-3번지 동천타워1 103호","indutype":"음료식품 - 제과점","category":"food"}]},{"lat":"37.342813656","long":"127.06552604","imageIndex":7,"items":[{"name":"시골정육점","tel":"031-272-7665","addr":"경기도 용인시 수지구 동천동 596번지","indutype":"음료식품 - 정육점","category":"food"}]},{"lat":"37.333287562","long":"127.09637922","imageIndex":7,"items":[{"name":"신개념푸줏간","tel":"070-7778-3197","addr":"경기도 용인시 수지구 동천동 884-6번지 웰빙부동산 103호","indutype":"음료식품 - 정육점","category":"food"},{"name":"아이스비어","tel":"031-427-8068","addr":"경기도 용인시 수지구 동천동 884-6번지 웰빙부동산 1층 102호","indutype":"음료식품 - 기타음료식품","category":"food"}]},{"lat":"37.33231702","long":"127.0930832","imageIndex":7,"items":[{"name":"아싸비어 용인수지점","tel":"","addr":"경기도 용인시 수지구 동천동 282-6번지 트리플에이 1층 101호","indutype":"음료식품 - 기타음료식품","category":"food"}]},{"lat":"37.341033769","long":"127.0995486","imageIndex":7,"items":[{"name":"에이스마트","tel":"031-276-6296","addr":"경기도 용인시 수지구 동천동 198번지 상가 1층","indutype":"음료식품 - 농·축·수산품","category":"food"}]},{"lat":"37.340311138","long":"127.10174821","imageIndex":7,"items":[{"name":"엠지푸드","tel":"070-4123-5858","addr":"경기도 용인시 수지구 동천동 185-11번지 루채스타 505호","indutype":"음료식품 - 농·축·수산품","category":"food"}]},{"lat":"37.33328806","long":"127.09574733","imageIndex":7,"items":[{"name":"오레시피 용인수지동천점","tel":"031-0000-0000","addr":"경기도 용인시 수지구 동천동 884-2번지 행복부동산 1층 102호","indutype":"음료식품 - 기타음료식품","category":"food"}]},{"lat":"37.338677811","long":"127.08097118","imageIndex":7,"items":[{"name":"와인비","tel":"","addr":"경기도 용인시 수지구 동천동 497-10번지 지하2층 101호","indutype":"음료식품 - 주류 판매점","category":"food"}]},{"lat":"37.341414762","long":"127.09635544","imageIndex":7,"items":[{"name":"요거트맨","tel":"","addr":"경기도 용인시 수지구 동천동 914번지 동천마을동문굿모닝힐5차아파트","indutype":"음료식품 - 기타음료식품","category":"food"}]},{"lat":"37.343399596","long":"127.06499612","imageIndex":7,"items":[{"name":"우일상사","tel":"031-265-2336","addr":"경기도 용인시 수지구 동천동 594-2번지","indutype":"음료식품 - 농·축·수산품","category":"food"}]},{"lat":"37.351065608","long":"127.08274469","imageIndex":7,"items":[{"name":"이화상사","tel":"070-8796-4539","addr":"경기도 용인시 수지구 동천동 46-1번지 코스빌 B101호","indutype":"음료식품 - 농·축·수산품","category":"food"}]},{"lat":"37.339873141","long":"127.07130139","imageIndex":7,"items":[{"name":"주식회사 더블유스타일","tel":"031-263-0435","addr":"경기도 용인시 수지구 동천동 561번지 4층","indutype":"음료식품 - 기타음료식품","category":"food"}]},{"lat":"37.342311262","long":"127.10190882","imageIndex":7,"items":[{"name":"주식회사 시제이블록체인","tel":"","addr":"경기도 용인시 수지구 동천동 177-28번지","indutype":"건강식품 - 기타건강식품","category":"food"},{"name":"파이앤커피","tel":"070-8171-7200","addr":"경기도 용인시 수지구 동천동 177-28번지 3층","indutype":"음료식품 - 기타음료식품","category":"food"}]},{"lat":"37.34261521","long":"127.06594343","imageIndex":7,"items":[{"name":"진안고원2","tel":"031-266-1008","addr":"경기도 용인시 수지구 동천동 596-7번지","indutype":"음료식품 - 정육점","category":"food"}]},{"lat":"37.336447483","long":"127.08795381","imageIndex":7,"items":[{"name":"천석꾼","tel":"031-265-3441","addr":"경기도 용인시 수지구 동천동 935번지 한빛마을래미안이스트팰리스1단지 상가동 21호","indutype":"음료식품 - 기타음료식품","category":"food"},{"name":"해뜨래누룽지","tel":"031-111-1111","addr":"경기도 용인시 수지구 동천동 935번지 한빛마을래미안이스트팰리스1단지 상가동 19호","indutype":"음료식품 - 기타음료식품","category":"food"}]},{"lat":"37.340261372","long":"127.09646686","imageIndex":7,"items":[{"name":"천지양(수지1호점)","tel":"031-896-0389","addr":"경기도 용인시 수지구 동천동 174-15번지","indutype":"건강식품 - 홍삼제품","category":"food"}]},{"lat":"37.340367495","long":"127.09896093","imageIndex":7,"items":[{"name":"파리바게뜨(수지동문점)","tel":"031-896-8246","addr":"경기도 용인시 수지구 동천동 768-2번지 1층","indutype":"음료식품 - 제과점","category":"food"},{"name":"파리바게트(수지동문점)","tel":"031-896-0424","addr":"경기도 용인시 수지구 동천동 768-2번지","indutype":"음료식품 - 제과점","category":"food"}]},{"lat":"37.333287428","long":"127.09654848","imageIndex":7,"items":[{"name":"파비바게뜨동천점","tel":"031-265-4526","addr":"경기도 용인시 수지구 동천동 884-7번지 103호","indutype":"음료식품 - 제과점","category":"food"}]},{"lat":"37.335119004","long":"127.09332352","imageIndex":7,"items":[{"name":"팩토리디종(Factory DI JON)","tel":"031-262-0826","addr":"경기도 용인시 수지구 동천동 875-5번지 노블레스빌 102호 101호,102호","indutype":"음료식품 - 제과점","category":"food"}]},{"lat":"37.340122853","long":"127.10063077","imageIndex":7,"items":[{"name":"해피쿠키","tel":"031-272-2007","addr":"경기도 용인시 수지구 동천동 325-8 103호 104호","indutype":"음료식품 - 제과점","category":"food"}]},{"lat":"37.341894427","long":"127.0658864","imageIndex":7,"items":[{"name":"희립","tel":"031-897-9657","addr":"경기도 용인시 수지구 동천동 595-11번지","indutype":"음료식품 - 기타음료식품","category":"food"}]},{"lat":"37.339476934","long":"127.08507964","imageIndex":13,"items":[{"name":"(주)엘림코리아웰니스레어","tel":"031-265-2020","addr":"경기도 용인시 수지구 동천동 483-5번지","indutype":"보건위생 - 미용재료","category":"beauty"}]},{"lat":"37.336518037","long":"127.09005276","imageIndex":13,"items":[{"name":"salon.수","tel":"031-757-7383","addr":"경기도 용인시 수지구 동천동 938번지 한빛마을래미안이스트팰리스2단지 상가동 2블럭12호","indutype":"보건위생 - 미용원","category":"beauty"},{"name":"아이벨르팜므 동천래미안점","tel":"031-266-9009","addr":"경기도 용인시 수지구 동천동 938번지 한빛마을래미안이스트팰리스2단지 15,16호","indutype":"보건위생 - 미용원","category":"beauty"}]},{"lat":"37.335650605","long":"127.09332415","imageIndex":13,"items":[{"name":"가위소리","tel":"031-896-7531","addr":"경기도 용인시 수지구 동천동 873-4번지 에덴파크 105호","indutype":"보건위생 - 미용원","category":"beauty"},{"name":"자이미용실","tel":"031-262-1550","addr":"경기도 용인시 수지구 동천동 873-4번지 에덴파크 상가동 202호","indutype":"보건위생 - 미용원","category":"beauty"}]},{"lat":"37.333953517","long":"127.09738431","imageIndex":13,"items":[{"name":"그라지아 에스테틱(grazia)","tel":"070-4843-4348","addr":"경기도 용인시 수지구 동천동 886-2번지 IVY타워 301호","indutype":"보건위생 - 피부미용실","category":"beauty"}]},{"lat":"37.335866892","long":"127.09326799","imageIndex":13,"items":[{"name":"글라스스토리(동천점)","tel":"031-262-8221","addr":"경기도 용인시 수지구 동천동 873-3번지 동천타워1차 110호","indutype":"보건위생 - 안경","category":"beauty"},{"name":"머리못하는집","tel":"031-262-5834","addr":"경기도 용인시 수지구 동천동 873-3번지 동천타워 101호","indutype":"보건위생 - 미용원","category":"beauty"},{"name":"보노헤어","tel":"031-261-8446","addr":"경기도 용인시 수지구 동천동 873-3번지 동천타워 2층 206호","indutype":"보건위생 - 미용원","category":"beauty"},{"name":"뷰티콜라겐","tel":"031-333-8132","addr":"경기도 용인시 수지구 동천동 873-3번지 동천타워 205호","indutype":"보건위생 - 화장품","category":"beauty"}]},{"lat":"37.333914873","long":"127.08898907","imageIndex":13,"items":[{"name":"김하경헤어살롱","tel":"031-272-9948","addr":"경기도 용인시 수지구 동천동 932번지 한빛마을래미안이스트팰리스3단지 상가동 지하2층 1호","indutype":"보건위생 - 미용원","category":"beauty"},{"name":"네일파크","tel":"031-896-4179","addr":"경기도 용인시 수지구 동천동 932번지 한빛마을래미안이스트팰리스3단지 상가동 10호","indutype":"보건위생 - 피부미용실","category":"beauty"},{"name":"라운지","tel":"031-272-7203","addr":"경기도 용인시 수지구 동천동 932번지 한빛마을래미안이스트팰리스3단지 상가동 3블럭3호","indutype":"보건위생 - 화장품","category":"beauty"},{"name":"와이(Y)에스테틱","tel":"031-719-5145","addr":"경기도 용인시 수지구 동천동 932번지 한빛마을래미안이스트팰리스3단지 제지2층 3블럭 6호","indutype":"보건위생 - 피부미용실","category":"beauty"}]},{"lat":"37.340450344","long":"127.09677178","imageIndex":13,"items":[{"name":"나무네일샵","tel":"031-896-6625","addr":"경기도 용인시 수지구 동천동 174-14번지 빌프라자 107호","indutype":"보건위생 - 피부미용실","category":"beauty"}]},{"lat":"37.341177153","long":"127.10049672","imageIndex":13,"items":[{"name":"나이스헤어샵","tel":"031-263-6621","addr":"경기도 용인시 수지구 동천동 180-12번지 생명수교회 105호","indutype":"보건위생 - 미용원","category":"beauty"}]},{"lat":"37.34070007","long":"127.09994314","imageIndex":13,"items":[{"name":"남성클럽","tel":"031-276-5006","addr":"경기도 용인시 수지구 동천동 196번지","indutype":"보건위생 - 미용원","category":"beauty"},{"name":"하나안경콘텍트","tel":"031-719-3320","addr":"경기도 용인시 수지구 동천동 196번지 수지빌딩 1층 5","indutype":"보건위생 - 안경","category":"beauty"}]},{"lat":"37.342648626","long":"127.09702279","imageIndex":13,"items":[{"name":"남영스파랜드스포츠마사지실","tel":"031-276-9600","addr":"경기도 용인시 수지구 동천동 171-1남영스파랜드(내)","indutype":"보건위생 - 피부미용실","category":"beauty"}]},{"lat":"37.334866693","long":"127.09335707","imageIndex":13,"items":[{"name":"더헤어 디자인살롱","tel":"031-000-0000","addr":"경기도 용인시 수지구 동천동 878번지","indutype":"보건위생 - 미용원","category":"beauty"}]},{"lat":"37.338148792","long":"127.10163253","imageIndex":13,"items":[{"name":"더헤어샵","tel":"","addr":"경기도 용인시 수지구 동천동 899번지 분당수지U-TOWER A동 135호","indutype":"보건위생 - 미용원","category":"beauty"},{"name":"레드헤어","tel":"031-229-1688","addr":"경기도 용인시 수지구 동천동 899번지 분당수지유타워 A동 1층 115호","indutype":"보건위생 - 미용원","category":"beauty"},{"name":"마드레심리상담연구소","tel":"031-229-1503","addr":"경기도 용인시 수지구 동천동 899번지 분당수지U-TOWER B동 28층 41호","indutype":"보건위생 - 기타대인서비스","category":"beauty"},{"name":"비롬헤어2호점","tel":"031-229-1500","addr":"경기도 용인시 수지구 동천동 899번지 B동 1층 124,124-1호","indutype":"보건위생 - 미용원","category":"beauty"},{"name":"아이원안경원","tel":"031-525-3332","addr":"경기도 용인시 수지구 동천동 899번지 분당수지 U-TOWER B동 101,102호","indutype":"보건위생 - 안경","category":"beauty"},{"name":"앙포레모리노헤어","tel":"031-299-1919","addr":"경기도 용인시 수지구 동천동 899번지 분당수지U-TOWER B동 212호","indutype":"보건위생 - 미용원","category":"beauty"},{"name":"오푸스","tel":"031-229-1595","addr":"경기도 용인시 수지구 동천동 899번지 분당수지 U-TOWER 2층 237호","indutype":"보건위생 - 의료용품","category":"beauty"},{"name":"우진","tel":"070-4032-2037","addr":"경기도 용인시 수지구 동천동 899번지 분당수지 U-TOWER 5층 33호","indutype":"보건위생 - 기타대인서비스","category":"beauty"},{"name":"이든부띠끄","tel":"031-895-5899","addr":"경기도 용인시 수지구 동천동 899번지 분당수지U-TOWER A동 1층 119호","indutype":"보건위생 - 피부미용실","category":"beauty"},{"name":"이지원헤어","tel":"031-525-3737","addr":"경기도 용인시 수지구 동천동 899번지 분당수지U-TOWER A동 237-1호","indutype":"보건위생 - 미용원","category":"beauty"},{"name":"피스메이커 상담센터","tel":"031-218-4778","addr":"경기도 용인시 수지구 동천동 899번지 분당수지유타워 529호","indutype":"보건위생 - 기타대인서비스","category":"beauty"},{"name":"한올심리상담센터","tel":"02-6340-0002","addr":"경기도 용인시 수지구 동천동 899번지 분당수지유타워 A동 1813호","indutype":"보건위생 - 기타대인서비스","category":"beauty"}]},{"lat":"37.340646874","long":"127.09888229","imageIndex":13,"items":[{"name":"동네미용실","tel":"031-266-8770","addr":"경기도 용인시 수지구 동천동 174-26번지 영재빌딩 103호","indutype":"보건위생 - 미용원","category":"beauty"},{"name":"휴크리닉헤어","tel":"031-263-3346","addr":"경기도 용인시 수지구 동천동 174-26번지 외2필지영재빌딩 201호","indutype":"보건위생 - 미용원","category":"beauty"}]},{"lat":"37.335895076","long":"127.09174467","imageIndex":13,"items":[{"name":"동천하우스","tel":"031-262-2599","addr":"경기도 용인시 수지구 동천동 948번지 307호","indutype":"보건위생 - 화장품","category":"beauty"},{"name":"아뜰리에","tel":"031-896-7822","addr":"경기도 용인시 수지구 동천동 948번지 1층 112호","indutype":"보건위생 - 피부미용실","category":"beauty"},{"name":"아뜰리에","tel":"031-896-7822","addr":"경기도 용인시 수지구 동천동 948번지 112호","indutype":"보건위생 - 화장품","category":"beauty"}]},{"lat":"37.344782511","long":"127.05604787","imageIndex":13,"items":[{"name":"디.디.에프","tel":"031-264-9662","addr":"경기도 용인시 수지구 동천동 703-2 SM루빌 B-5호","indutype":"보건위생 - 화장품","category":"beauty"}]},{"lat":"37.341394314","long":"127.09937978","imageIndex":13,"items":[{"name":"라쁠뤼벨 본점","tel":"031-276-8836","addr":"경기도 용인시 수지구 동천동 969번지 동천파크뷰 107호","indutype":"보건위생 - 미용원","category":"beauty"}]},{"lat":"37.334371134","long":"127.09335647","imageIndex":13,"items":[{"name":"레오","tel":"031-263-7310","addr":"경기도 용인시 수지구 동천동 878-3번지 1층","indutype":"보건위생 - 미용원","category":"beauty"},{"name":"엘샤론","tel":"031-272-7216","addr":"경기도 용인시 수지구 동천동 878-3번지 103호","indutype":"보건위생 - 화장품","category":"beauty"}]},{"lat":"37.340288669","long":"127.09612835","imageIndex":13,"items":[{"name":"루카스안경","tel":"031-308-8234","addr":"경기도 용인시 수지구 동천동 174-9번지 센트럴 상가 106호","indutype":"보건위생 - 안경","category":"beauty"},{"name":"뷰티호텔","tel":"","addr":"경기도 용인시 수지구 동천동 174-9번지 센트럴 상가 204호","indutype":"보건위생 - 화장품","category":"beauty"},{"name":"이윤정헤어샵","tel":"031-263-8286","addr":"경기도 용인시 수지구 동천동 174-9번지 센트럴상가 102호","indutype":"보건위생 - 미용원","category":"beauty"},{"name":"조윤정헤어갤러리","tel":"031-261-5218","addr":"경기도 용인시 수지구 동천동 174-9번지 센트럴 201호","indutype":"보건위생 - 미용원","category":"beauty"}]},{"lat":"37.336318656","long":"127.09160975","imageIndex":13,"items":[{"name":"리안헤어","tel":"031-272-2209","addr":"경기도 용인시 수지구 동천동 944번지 206호","indutype":"보건위생 - 미용원","category":"beauty"},{"name":"보다안경","tel":"031-896-3456","addr":"경기도 용인시 수지구 동천동 944번지 동천훼미리프라자 115호","indutype":"보건위생 - 안경","category":"beauty"},{"name":"이안아동발달연구소","tel":"031-898-3366","addr":"경기도 용인시 수지구 동천동 944번지 훼미리프라자","indutype":"보건위생 - 기타대인서비스","category":"beauty"}]},{"lat":"37.337176777","long":"127.08868812","imageIndex":13,"items":[{"name":"린네일","tel":"031-261-2241","addr":"경기도 용인시 수지구 동천동 937번지 동천프라자 2층 206호","indutype":"보건위생 - 피부미용실","category":"beauty"},{"name":"지앤비에헤어포인트","tel":"031-263-5477","addr":"경기도 용인시 수지구 동천동 937번지 204호","indutype":"보건위생 - 미용원","category":"beauty"},{"name":"퀸즈헤나","tel":"031-263-0334","addr":"경기도 용인시 수지구 동천동 937번지 105호","indutype":"보건위생 - 미용원","category":"beauty"}]},{"lat":"37.33597504","long":"127.09323427","imageIndex":13,"items":[{"name":"모유육아상담실","tel":"031-266-5553","addr":"경기도 용인시 수지구 동천동 873-3번지 동천타워1동 204호","indutype":"보건위생 - 기타대인서비스","category":"beauty"}]},{"lat":"37.336447483","long":"127.08795381","imageIndex":13,"items":[{"name":"바나헤어","tel":"031-265-7704","addr":"경기도 용인시 수지구 동천동 935번지 래미안이스트팰리스상가1동1블럭9호","indutype":"보건위생 - 미용원","category":"beauty"},{"name":"안시윤헤어","tel":"031-261-3860","addr":"경기도 용인시 수지구 동천동 935번지 한빛마을래미안이스트팰리스1단지 상가동 11호","indutype":"보건위생 - 미용원","category":"beauty"},{"name":"퀸헤어","tel":"031-263-5917","addr":"경기도 용인시 수지구 동천동 935번지 한빛마을래미안이스트팰리스1단지 상가동 1층 1블럭-3호","indutype":"보건위생 - 미용원","category":"beauty"}]},{"lat":"37.340259684","long":"127.09857711","imageIndex":13,"items":[{"name":"바디힐링","tel":"031-896-2289","addr":"경기도 용인시 수지구 동천동 371-5번지 동천코아프라자 404호","indutype":"보건위생 - 피부미용실","category":"beauty"},{"name":"주메디얼테라피","tel":"031-896-8231","addr":"경기도 용인시 수지구 동천동 371-5번지 동천코아프라자 402호","indutype":"보건위생 - 화장품","category":"beauty"}]},{"lat":"37.333287802","long":"127.09607456","imageIndex":13,"items":[{"name":"베스트헤어","tel":"031-261-0434","addr":"경기도 용인시 수지구 동천동 884-4번지 104호","indutype":"보건위생 - 미용원","category":"beauty"}]},{"lat":"37.33470451","long":"127.09335687","imageIndex":13,"items":[{"name":"부에나헤어솝","tel":"031-265-8705","addr":"경기도 용인시 수지구 동천동 878-1번지 영광빌 101호","indutype":"보건위생 - 미용원","category":"beauty"}]},{"lat":"37.333172996","long":"127.09307294","imageIndex":13,"items":[{"name":"살롱드 제이 헤어","tel":"031-9833-3635","addr":"경기도 용인시 수지구 동천동 282번지 309호","indutype":"보건위생 - 미용원","category":"beauty"}]},{"lat":"37.33784048","long":"127.09279641","imageIndex":13,"items":[{"name":"수아르헤어","tel":"031-262-0020","addr":"경기도 용인시 수지구 동천동 344-2번지 동천동제일프라자 108호","indutype":"보건위생 - 미용원","category":"beauty"}]},{"lat":"37.333512064","long":"127.09732734","imageIndex":13,"items":[{"name":"수지가온 ABA 연구소","tel":"070-4686-9412","addr":"경기도 용인시 수지구 동천동 887번지 수지하우비 414호","indutype":"보건위생 - 기타대인서비스","category":"beauty"},{"name":"아쿠아스킨","tel":"031-898-1075","addr":"경기도 용인시 수지구 동천동 887번지 수지하우비 408호","indutype":"보건위생 - 화장품","category":"beauty"},{"name":"안경사랑","tel":"031-263-1555","addr":"경기도 용인시 수지구 동천동 887번지 수지하우비 1층 103호","indutype":"보건위생 - 안경","category":"beauty"},{"name":"헤어카페","tel":"031-898-1292","addr":"경기도 용인시 수지구 동천동 887번지 외2필지 수지하우비 110호","indutype":"보건위생 - 미용원","category":"beauty"}]},{"lat":"37.337731781","long":"127.09355234","imageIndex":13,"items":[{"name":"수헤어클래식","tel":"032-266-8786","addr":"경기도 용인시 수지구 동천동 336-3번지 외1필지 106","indutype":"보건위생 - 미용원","category":"beauty"}]},{"lat":"37.340261372","long":"127.09646686","imageIndex":13,"items":[{"name":"스타뷰티팜","tel":"","addr":"경기도 용인시 수지구 동천동 174-15번지 2층","indutype":"보건위생 - 피부미용실","category":"beauty"}]},{"lat":"37.340538053","long":"127.0997398","imageIndex":13,"items":[{"name":"아띠스킨케어","tel":"031-264-0131","addr":"경기도 용인시 수지구 동천동 201-1번지 5층","indutype":"보건위생 - 화장품","category":"beauty"}]},{"lat":"37.33328806","long":"127.09574733","imageIndex":13,"items":[{"name":"아름다울미","tel":"031-896-0053","addr":"경기도 용인시 수지구 동천동 884-2번지 1층","indutype":"보건위생 - 미용원","category":"beauty"}]},{"lat":"37.345537528","long":"127.08963433","imageIndex":13,"items":[{"name":"아이포인트","tel":"031-276-1588","addr":"경기도 용인시 수지구 동천동 105-3번지 동천자이아파트","indutype":"보건위생 - 안경","category":"beauty"}]},{"lat":"37.332064675","long":"127.09316188","imageIndex":13,"items":[{"name":"에스네일(SNAIL)","tel":"031-263-4779","addr":"경기도 용인시 수지구 동천동 282-8번지 다온빌 A동 102호","indutype":"보건위생 - 화장품","category":"beauty"}]},{"lat":"37.333287927","long":"127.09591659","imageIndex":13,"items":[{"name":"예쁘다헤어(동천점)","tel":"","addr":"경기도 용인시 수지구 동천동 884-3번지 1층 101호","indutype":"보건위생 - 미용원","category":"beauty"}]},{"lat":"37.335650983","long":"127.09282765","imageIndex":13,"items":[{"name":"제이봄헤어","tel":"031-261-1811","addr":"경기도 용인시 수지구 동천동 874-2번지 두부하우스 1층 102호","indutype":"보건위생 - 미용원","category":"beauty"}]},{"lat":"37.341486252","long":"127.09710033","imageIndex":13,"items":[{"name":"조은미용실","tel":"031-261-3939","addr":"경기도 용인시 수지구 동천동 914 동문굿모닝힐5차상가-207","indutype":"보건위생 - 미용원","category":"beauty"}]},{"lat":"37.349396022","long":"127.08665922","imageIndex":13,"items":[{"name":"주식회사 헤이젠","tel":"070-7123-3333","addr":"경기도 용인시 수지구 동천동 74-9번지","indutype":"보건위생 - 화장품","category":"beauty"}]},{"lat":"37.334512418","long":"127.09704649","imageIndex":13,"items":[{"name":"지니미장원","tel":"070-8868-1389","addr":"경기도 용인시 수지구 동천동 885번지 청해참치 1층 103호","indutype":"보건위생 - 미용원","category":"beauty"}]},{"lat":"37.336920779","long":"127.0936642","imageIndex":13,"items":[{"name":"지앤비헤어포인트","tel":"031-263-5477","addr":"경기도 용인시 수지구 동천동 864 써니밸리상가 202","indutype":"보건위생 - 미용원","category":"beauty"}]},{"lat":"37.332812692","long":"127.09293711","imageIndex":13,"items":[{"name":"태후사랑","tel":"031-261-7120","addr":"경기도 용인시 수지구 동천동 282-4번지","indutype":"보건위생 - 미용재료","category":"beauty"}]},{"lat":"37.33581481","long":"127.09063873","imageIndex":13,"items":[{"name":"해리헤어","tel":"031-896-0096","addr":"경기도 용인시 수지구 동천동 946-4번지 대영프라자 104호","indutype":"보건위생 - 미용원","category":"beauty"}]},{"lat":"37.341590543","long":"127.10179503","imageIndex":13,"items":[{"name":"헤어가넷","tel":"031-265-2070","addr":"경기도 용인시 수지구 동천동 185-2번지 1층 일부호","indutype":"보건위생 - 미용원","category":"beauty"}]},{"lat":"37.340952585","long":"127.09966134","imageIndex":13,"items":[{"name":"헤어진","tel":"031-261-9988","addr":"경기도 용인시 수지구 동천동 199-2번지 2층","indutype":"보건위생 - 미용원","category":"beauty"}]},{"lat":"37.334422046","long":"127.09738489","imageIndex":16,"items":[{"name":"(주)한국프로젝트평생교육원","tel":"031-889-2477","addr":"경기도 용인시 수지구 동천동 886번지 동천메디파크빌딩","indutype":"회원제형태 - 학원","category":"study"},{"name":"동천리딩비영어독서학원","tel":"031-266-0087","addr":"경기도 용인시 수지구 동천동 886번지 2층","indutype":"학원 - 외국어학원","category":"study"}]},{"lat":"37.335650605","long":"127.09332415","imageIndex":16,"items":[{"name":"ELIS영어학원","tel":"031-265-4505","addr":"경기도 용인시 수지구 동천동 873-4번지 외1필지 에덴파크 401호","indutype":"학원 - 외국어학원","category":"study"},{"name":"동천홍익미술교습소","tel":"031-264-8208","addr":"경기도 용인시 수지구 동천동 873-4번지 에덴파크 402호","indutype":"학원 - 예·체능계학원","category":"study"},{"name":"모짤테움음악학원","tel":"031-264-5558","addr":"경기도 용인시 수지구 동천동 873-4번지 에덴파크 504호","indutype":"학원 - 예·체능계학원","category":"study"},{"name":"바나나앤디미술교습소","tel":"031-272-0950","addr":"경기도 용인시 수지구 동천동 873-4번지 에덴파크 상가동 203호","indutype":"학원 - 예·체능계학원","category":"study"},{"name":"예일영어학원","tel":"031-265-0535","addr":"경기도 용인시 수지구 동천동 873-4번지","indutype":"학원 - 외국어학원","category":"study"},{"name":"지킴이태권도","tel":"031-264-3611","addr":"경기도 용인시 수지구 동천동 873-4번지 에덴파크 상가 3층 302호","indutype":"학원 - 예·체능계학원","category":"study"}]},{"lat":"37.337176777","long":"127.08868812","imageIndex":16,"items":[{"name":"GL영어학원","tel":"031-265-1010","addr":"경기도 용인시 수지구 동천동 937번지 동천프라자 402호","indutype":"회원제형태 - 학원","category":"study"},{"name":"나현정발레학원","tel":"031-266-8830","addr":"경기도 용인시 수지구 동천동 937번지 동천프라자 4층 일부","indutype":"학원 - 예·체능계학원","category":"study"},{"name":"용인대마스터태권도장","tel":"","addr":"경기도 용인시 수지구 동천동 937번지 동천프라자 2층","indutype":"학원 - 예·체능계학원","category":"study"},{"name":"이화생각하는미술학원","tel":"070-8690-5051","addr":"경기도 용인시 수지구 동천동 937번지 동천프라자 205호","indutype":"학원 - 예·체능계학원","category":"study"},{"name":"전공음악학원","tel":"031-262-1788","addr":"경기도 용인시 수지구 동천동 937번지 동천프라자 401호","indutype":"학원 - 예·체능계학원","category":"study"},{"name":"진수학교습소","tel":"","addr":"경기도 용인시 수지구 동천동 937번지 동천프라자 110호","indutype":"학원 - 보습학원","category":"study"}]},{"lat":"37.337816403","long":"127.07536192","imageIndex":16,"items":[{"name":"SCG축구교실","tel":"031-265-0770","addr":"경기도 용인시 수지구 동천동 536-5번지","indutype":"학원 - 예·체능계학원","category":"study"}]},{"lat":"37.332479229","long":"127.09304954","imageIndex":16,"items":[{"name":"감성더하기 음악학원","tel":"","addr":"경기도 용인시 수지구 동천동 282-5번지 서원 C동 3층","indutype":"학원 - 예·체능계학원","category":"study"},{"name":"상상미술교습소","tel":"031-898-1189","addr":"경기도 용인시 수지구 동천동 282-5번지 서원 C동 3층","indutype":"학원 - 예·체능계학원","category":"study"}]},{"lat":"37.340817755","long":"127.0992662","imageIndex":16,"items":[{"name":"경희대무경태권도장","tel":"031-262-8008","addr":"경기도 용인시 수지구 동천동 200번지 2층","indutype":"학원 - 예·체능계학원","category":"study"}]},{"lat":"37.340646874","long":"127.09888229","imageIndex":16,"items":[{"name":"공간미술교습소","tel":"031-265-9691","addr":"경기도 용인시 수지구 동천동 174-26번지 영재빌딩 3층 303호","indutype":"학원 - 예·체능계학원","category":"study"},{"name":"예인음악학원","tel":"031-269-1229","addr":"경기도 용인시 수지구 동천동 174-26번지 영재빌딩 502호","indutype":"학원 - 예·체능계학원","category":"study"},{"name":"인뎁스학원","tel":"031-272-9209","addr":"경기도 용인시 수지구 동천동 174-26번지 영재빌딩 5층","indutype":"학원 - 보습학원","category":"study"},{"name":"플랜에이용인동천독서실","tel":"031-272-0979","addr":"경기도 용인시 수지구 동천동 174-26번지 영재빌딩 2층","indutype":"학원 - 독서실","category":"study"}]},{"lat":"37.340423251","long":"127.09685074","imageIndex":16,"items":[{"name":"공터영어바른수학수지동천센터학원","tel":"031-263-8883","addr":"경기도 용인시 수지구 동천동 382번지 ,2,3층","indutype":"학원 - 보습학원","category":"study"}]},{"lat":"37.340367495","long":"127.09896093","imageIndex":16,"items":[{"name":"관인아인음악학원","tel":"031-264-1941","addr":"경기도 용인시 수지구 동천동 768-2번지 명문빌딩 3층","indutype":"회원제형태 - 학원","category":"study"},{"name":"윤선생IGSE용인동문학원","tel":"031-263-0567","addr":"경기도 용인시 수지구 동천동 768-2번지 5층","indutype":"학원 - 보습학원","category":"study"},{"name":"폴쌤의까르릉영어학원","tel":"031-265-3257","addr":"경기도 용인시 수지구 동천동 768-2번지 4층","indutype":"회원제형태 - 학원","category":"study"}]},{"lat":"37.33581481","long":"127.09063873","imageIndex":16,"items":[{"name":"국가대표 태권도","tel":"031-264-4526","addr":"경기도 용인시 수지구 동천동 946-4번지 대영프라자 401호","indutype":"학원 - 예·체능계학원","category":"study"},{"name":"리스영어학원","tel":"031-261-0360","addr":"경기도 용인시 수지구 동천동 946-4번지 대영프라자 503호","indutype":"학원 - 보습학원","category":"study"},{"name":"발도르프음악학원","tel":"070-8879-2202","addr":"경기도 용인시 수지구 동천동 946-4번지 대영프라자 403호","indutype":"학원 - 예·체능계학원","category":"study"},{"name":"별수학학원","tel":"031-302-3101","addr":"경기도 용인시 수지구 동천동 946-4번지 대영프라자","indutype":"학원 - 보습학원","category":"study"},{"name":"아이미술창작소미술학원","tel":"031-262-1325","addr":"경기도 용인시 수지구 동천동 946-4번지 대영프라자 402호","indutype":"학원 - 예·체능계학원","category":"study"},{"name":"프리덤아트스페이스(Freedom Art Space)","tel":"","addr":"경기도 용인시 수지구 동천동 946-4번지 대영프라자 202호","indutype":"학원 - 예·체능계학원","category":"study"}]},{"lat":"37.344839799","long":"127.09485871","imageIndex":16,"items":[{"name":"국가대표히어로즈태권도","tel":"031-262-8253","addr":"경기도 용인시 수지구 동천동 148번지 201호","indutype":"학원 - 예·체능계학원","category":"study"}]},{"lat":"37.333512064","long":"127.09732734","imageIndex":16,"items":[{"name":"국선도","tel":"031-897-0201","addr":"경기도 용인시 수지구 동천동 887번지 수지하우비 상가 214호","indutype":"회원제형태 - 학원","category":"study"},{"name":"동천디지탈한빛독서실","tel":"031-898-4046","addr":"경기도 용인시 수지구 동천동 887번지 수지하우비 513호,514호","indutype":"학원 - 독서실","category":"study"},{"name":"재능학원","tel":"031-261-0385","addr":"경기도 용인시 수지구 동천동 887번지 203호","indutype":"학원 - 보습학원","category":"study"}]},{"lat":"37.333953517","long":"127.09738431","imageIndex":16,"items":[{"name":"기찬수학전문학원","tel":"031-893-5332","addr":"경기도 용인시 수지구 동천동 886-2번지 IVY타워402,403호","indutype":"회원제형태 - 학원","category":"study"},{"name":"서일어학원","tel":"031-309-0594","addr":"경기도 용인시 수지구 동천동 886-2번지 IVY타워 아이비타워 3층 302호 303호","indutype":"회원제형태 - 학원","category":"study"}]},{"lat":"37.342311262","long":"127.10190882","imageIndex":16,"items":[{"name":"내가하는미술교습소","tel":"031-274-8994","addr":"경기도 용인시 수지구 동천동 177-28번지 남서울비젼교육관 208호","indutype":"학원 - 예·체능계학원","category":"study"}]},{"lat":"37.335895675","long":"127.09094349","imageIndex":16,"items":[{"name":"댄스발레캣(CAT)스튜디오학원","tel":"031-272-1237","addr":"경기도 용인시 수지구 동천동 946-2번지 4층 전체","indutype":"학원 - 예·체능계학원","category":"study"},{"name":"연세J피아노음악학원","tel":"031-372-9757","addr":"경기도 용인시 수지구 동천동 946-2번지 401호","indutype":"학원 - 예·체능계학원","category":"study"}]},{"lat":"37.34070007","long":"127.09994314","imageIndex":16,"items":[{"name":"도담검도관","tel":"031-896-7044","addr":"경기도 용인시 수지구 동천동 196번지 지하1층","indutype":"회원제형태 - 학원","category":"study"}]},{"lat":"37.33784048","long":"127.09279641","imageIndex":16,"items":[{"name":"독한영어학원","tel":"031-306-3340","addr":"경기도 용인시 수지구 동천동 344-2번지 동천동제일프라자 301호","indutype":"학원 - 보습학원","category":"study"},{"name":"동천펜탑독서실","tel":"031-8019-8209","addr":"경기도 용인시 수지구 동천동 344-2번지 상록제일프라자 203호","indutype":"학원 - 독서실","category":"study"},{"name":"동천피아노슐레학원","tel":"031-262-4080","addr":"경기도 용인시 수지구 동천동 344-2번지 상록제일프라자 401호","indutype":"학원 - 예·체능계학원","category":"study"},{"name":"동천한솔플러스수학학원","tel":"031-262-1897","addr":"경기도 용인시 수지구 동천동 344-2번지 동천제일프라자 601호 에이플렛학원","indutype":"회원제형태 - 학원","category":"study"},{"name":"동천한우리독서논술학원","tel":"031-276-5599","addr":"경기도 용인시 수지구 동천동 344-2번지 외3필지동천동제일프라자 302호","indutype":"학원 - 기타 교육기관","category":"study"},{"name":"수지탑에듀학원","tel":"031-272-3115","addr":"경기도 용인시 수지구 동천동 344-2번지 동천동제일프라자 502호","indutype":"학원 - 보습학원","category":"study"},{"name":"아뜰리에해솔미술교습소","tel":"031-262-0791","addr":"경기도 용인시 수지구 동천동 344-2번지 동천동제일프라자 111호","indutype":"학원 - 예·체능계학원","category":"study"},{"name":"엠베스트SE동천학원","tel":"031-548-2323","addr":"경기도 용인시 수지구 동천동 344-2번지 상록제일프라자 202호","indutype":"학원 - 보습학원","category":"study"},{"name":"올리브미술학원","tel":"031-263-9777","addr":"경기도 용인시 수지구 동천동 344-2번지 제일프라자 501호","indutype":"회원제형태 - 학원","category":"study"},{"name":"와이비엠(YBM)잉글루학원","tel":"031-263-9333","addr":"경기도 용인시 수지구 동천동 344-2번지 상록제일프라자 2층 201호","indutype":"학원 - 외국어학원","category":"study"},{"name":"용인동천작심독서실","tel":"031-262-0910","addr":"경기도 용인시 수지구 동천동 344-2번지 동천동제일프라자 6층 603호","indutype":"학원 - 독서실","category":"study"},{"name":"윌리스어학원","tel":"031-266-5084","addr":"경기도 용인시 수지구 동천동 344-2번지 동천제일프라자 403호","indutype":"회원제형태 - 학원","category":"study"},{"name":"윤선생영어교실동천센터","tel":"031-264-0542","addr":"경기도 용인시 수지구 동천동 344-2번지 동천동제일프라자 602호","indutype":"학원 - 학습지 교육","category":"study"},{"name":"윤선생영어숲동천학원","tel":"031-264-0542","addr":"경기도 용인시 수지구 동천동 344-2번지 제일프라자 6층 602호","indutype":"학원 - 보습학원","category":"study"},{"name":"제니스이지영어학원","tel":"070-8810-8164","addr":"경기도 용인시 수지구 동천동 344-2번지 상록제일프라자 303호","indutype":"학원 - 보습학원","category":"study"},{"name":"카이텍수학학원","tel":"031-263-0705","addr":"경기도 용인시 수지구 동천동 344-2번지 동천동제일프라자 402호","indutype":"학원 - 보습학원","category":"study"},{"name":"크리아트동천미술교습소","tel":"031-262-0307","addr":"경기도 용인시 수지구 동천동 344-2번지 동천동제일프라자 303-1호","indutype":"학원 - 예·체능계학원","category":"study"}]},{"lat":"37.338867956","long":"127.0923801","imageIndex":16,"items":[{"name":"동원외국어학원","tel":"031-262-8273","addr":"경기도 용인시 수지구 동천동 402-11번지 2층 동원교회","indutype":"학원 - 외국어학원","category":"study"}]},{"lat":"37.335895076","long":"127.09174467","imageIndex":16,"items":[{"name":"동천 힘 수학학원","tel":"070-4763-5713","addr":"경기도 용인시 수지구 동천동 948번지 406호","indutype":"학원 - 보습학원","category":"study"},{"name":"스터디더집중영어교습소","tel":"032-265-0900","addr":"경기도 용인시 수지구 동천동 948번지 송란빌딩 305호","indutype":"학원 - 외국어학원","category":"study"}]},{"lat":"37.340259684","long":"127.09857711","imageIndex":16,"items":[{"name":"동천비바체음악학원","tel":"031-272-5123","addr":"경기도 용인시 수지구 동천동 371-5번지 동천코아프라자 302호","indutype":"학원 - 예·체능계학원","category":"study"},{"name":"엠앤씨영어수학전문학원","tel":"031-264-9007","addr":"경기도 용인시 수지구 동천동 371-5번지 동천코아프라자 2층 204호","indutype":"학원 - 보습학원","category":"study"}]},{"lat":"37.335866892","long":"127.09326799","imageIndex":16,"items":[{"name":"디딤돌청명학원","tel":"031-264-3070","addr":"경기도 용인시 수지구 동천동 873-3번지 동천타워 402호","indutype":"학원 - 기타 교육기관","category":"study"},{"name":"리안영어학원","tel":"031-306-4001","addr":"경기도 용인시 수지구 동천동 873-3번지 동천타워 401호","indutype":"학원 - 보습학원","category":"study"},{"name":"삼성영어에이블학원","tel":"031-261-3105","addr":"경기도 용인시 수지구 동천동 873-3번지 동천타워 501호","indutype":"학원 - 보습학원","category":"study"},{"name":"이챕터스동천학원","tel":"031-263-0593","addr":"경기도 용인시 수지구 동천동 873-3번지 동천타워1동천타워 403호","indutype":"회원제형태 - 학원","category":"study"},{"name":"큐이디(QED)수학교습소","tel":"031-266-4669","addr":"경기도 용인시 수지구 동천동 873-3번지 외1필지 동천타워 2층 203호","indutype":"학원 - 보습학원","category":"study"},{"name":"토즈스터디센터동천독서실","tel":"031-265-0979","addr":"경기도 용인시 수지구 동천동 873-3번지 동천타워 502,503호,504호일부","indutype":"학원 - 독서실","category":"study"}]},{"lat":"37.337731781","long":"127.09355234","imageIndex":16,"items":[{"name":"라라무용학원","tel":"031-264-5512","addr":"경기도 용인시 수지구 동천동 336-3번지 신세계프라자 201호","indutype":"학원 - 예·체능계학원","category":"study"},{"name":"슈만음악학원","tel":"031-265-1394","addr":"경기도 용인시 수지구 동천동 336-3번지 신세계프라자 2층 202호","indutype":"학원 - 예·체능계학원","category":"study"},{"name":"용인대꿈나무태권도","tel":"031-272-1771","addr":"경기도 용인시 수지구 동천동 336-3번지 신세계프라자 301호","indutype":"학원 - 예·체능계학원","category":"study"}]},{"lat":"37.334178772","long":"127.09738459","imageIndex":16,"items":[{"name":"라리 리듬스쿨","tel":"031-262-8882","addr":"경기도 용인시 수지구 동천동 886-1번지 태평빌딩 2층","indutype":"학원 - 예·체능계학원","category":"study"},{"name":"스와트체대입시","tel":"031-889-4747","addr":"경기도 용인시 수지구 동천동 886-1번지 태평빌딩 지하1층 비101호","indutype":"학원 - 예·체능계학원","category":"study"}]},{"lat":"37.335539954","long":"127.09657384","imageIndex":16,"items":[{"name":"라엘음악학원","tel":"031-302-1155","addr":"경기도 용인시 수지구 동천동 870번지 506동 301호 302호 신명스카이뷰상가동","indutype":"학원 - 예·체능계학원","category":"study"}]},{"lat":"37.336447483","long":"127.08795381","imageIndex":16,"items":[{"name":"로미아트랩미술교습소(Romys art lab)","tel":"070-1111-1111","addr":"경기도 용인시 수지구 동천동 935번지 한빛마을래미안이스트팰리스1단지 상가동 B122호","indutype":"학원 - 예·체능계학원","category":"study"},{"name":"미코수학교습소","tel":"","addr":"경기도 용인시 수지구 동천동 935번지 한빛마을래미안이스트팰리스1단지 25호 상가동","indutype":"학원 - 보습학원","category":"study"}]},{"lat":"37.341088381","long":"127.09887157","imageIndex":16,"items":[{"name":"리스트 피아노 교실","tel":"031-892-7011","addr":"경기도 용인시 수지구 동천동 914번지 동천마을동문굿모닝힐5차아파트","indutype":"학원 - 예·체능계학원","category":"study"}]},{"lat":"37.340288669","long":"127.09612835","imageIndex":16,"items":[{"name":"리스트음악학원","tel":"031-892-7011","addr":"경기도 용인시 수지구 동천동 174-9번지 센트럴 205호","indutype":"학원 - 예·체능계학원","category":"study"},{"name":"이화해법수학학원","tel":"031-265-9872","addr":"경기도 용인시 수지구 동천동 174-9번지 상가동 3층 303호 센트럴 상가","indutype":"학원 - 보습학원","category":"study"}]},{"lat":"37.338450764","long":"127.09591167","imageIndex":16,"items":[{"name":"리틀피아니스트교습소","tel":"031-266-7773","addr":"경기도 용인시 수지구 동천동 862번지 동천마을현대2차홈타운 상가 206호","indutype":"학원 - 예·체능계학원","category":"study"},{"name":"모네뜰미술교습소","tel":"031-307-1379","addr":"경기도 용인시 수지구 동천동 862 동천마을현대홈타운상가205호","indutype":"학원 - 예·체능계학원","category":"study"},{"name":"현대태권도체육관","tel":"031-263-7707","addr":"경기도 용인시 수지구 동천동 862번지 동천마을현대2차홈타운 상가동 201호","indutype":"학원 - 예·체능계학원","category":"study"}]},{"lat":"37.339226529","long":"127.09477288","imageIndex":16,"items":[{"name":"맥미술학원","tel":"031-274-7782","addr":"경기도 용인시 수지구 동천동 350번지 2층","indutype":"학원 - 예·체능계학원","category":"study"}]},{"lat":"37.335926699","long":"127.08540301","imageIndex":16,"items":[{"name":"문화미술교습소","tel":"031-235-8695","addr":"경기도 용인시 수지구 동천동 923번지 한빛마을래미안이스트팰리스4단지 상가동 4블럭-2호","indutype":"학원 - 예·체능계학원","category":"study"}]},{"lat":"37.335532421","long":"127.09468939","imageIndex":16,"items":[{"name":"뮤엠손곡영어교습소","tel":"031-265-2007","addr":"경기도 용인시 수지구 동천동 869번지 수진마을우미이노스빌 상가동 105호","indutype":"학원 - 외국어학원","category":"study"},{"name":"한양피아노교습소","tel":"031-264-4145","addr":"경기도 용인시 수지구 동천동 869번지 수진마을우미이노스빌 상가 104호","indutype":"학원 - 예·체능계학원","category":"study"}]},{"lat":"37.345537528","long":"127.08963433","imageIndex":16,"items":[{"name":"뮤엠영어 동천자이","tel":"070-8628-8024","addr":"경기도 용인시 수지구 동천동 105-3번지 동천자이아파트","indutype":"학원 - 기타 교육기관","category":"study"}]},{"lat":"37.343282823","long":"127.06430763","imageIndex":16,"items":[{"name":"바른야구","tel":"031-272-5989","addr":"경기도 용인시 수지구 동천동 610-2번지 2층","indutype":"학원 - 예·체능계학원","category":"study"}]},{"lat":"37.333927764","long":"127.09577068","imageIndex":16,"items":[{"name":"분더바움학원","tel":"031-265-8449","addr":"경기도 용인시 수지구 동천동 882-2번지 뉴월드빌딩","indutype":"학원 - 보습학원","category":"study"}]},{"lat":"37.341060347","long":"127.10010159","imageIndex":16,"items":[{"name":"사회적협동조합 사다리","tel":"","addr":"경기도 용인시 수지구 동천동 180-18번지 302호","indutype":"학원 - 기타 교육기관","category":"study"}]},{"lat":"37.33231702","long":"127.0930832","imageIndex":16,"items":[{"name":"선후합기도체육관","tel":"031-896-2525","addr":"경기도 용인시 수지구 동천동 282-6번지 4층","indutype":"학원 - 예·체능계학원","category":"study"},{"name":"수지유도관","tel":"031-266-1685","addr":"경기도 용인시 수지구 동천동 282-6번지 2층","indutype":"학원 - 예·체능계학원","category":"study"}]},{"lat":"37.339700697","long":"127.09901651","imageIndex":16,"items":[{"name":"성원칸타빌레음악학원","tel":"031-261-7555","addr":"경기도 용인시 수지구 동천동 859번지 현대1차홈타운 상가 202호","indutype":"회원제형태 - 학원","category":"study"}]},{"lat":"37.336595323","long":"127.09507435","imageIndex":16,"items":[{"name":"손곡태권도","tel":"031-265-8607","addr":"경기도 용인시 수지구 동천동 867번지 2층","indutype":"학원 - 예·체능계학원","category":"study"}]},{"lat":"37.337562998","long":"127.07716719","imageIndex":16,"items":[{"name":"수지채플힐킨더어학원","tel":"031-261-4762","addr":"경기도 용인시 수지구 동천동 513번지 ,1,2층","indutype":"학원 - 외국어학원","category":"study"}]},{"lat":"37.33586727","long":"127.09277149","imageIndex":16,"items":[{"name":"스프링아이동천어학원","tel":"031-272-7733","addr":"경기도 용인시 수지구 동천동 873-1번지 동천타워 501호,502호","indutype":"학원 - 외국어학원","category":"study"},{"name":"행복한어학원","tel":"031-263-0562","addr":"경기도 용인시 수지구 동천동 873-1동천타DNJ501~502호","indutype":"회원제형태 - 학원","category":"study"}]},{"lat":"37.339091377","long":"127.09477271","imageIndex":16,"items":[{"name":"시작용인동천독서실","tel":"031-263-0028","addr":"경기도 용인시 수지구 동천동 351-3번지 주건축물제1동 2층, 3층","indutype":"학원 - 독서실","category":"study"}]},{"lat":"37.335562734","long":"127.09035633","imageIndex":16,"items":[{"name":"아티즈뮤직슐레학원","tel":"031-262-2211","addr":"경기도 용인시 수지구 동천동 946-6번지 유진빌딩 402호","indutype":"회원제형태 - 학원","category":"study"}]},{"lat":"37.335103448","long":"127.09003984","imageIndex":16,"items":[{"name":"애플트리스쿨","tel":"031-266-1231","addr":"경기도 용인시 수지구 동천동 932","indutype":"회원제형태 - 학원","category":"study"}]},{"lat":"37.337950346","long":"127.09047194","imageIndex":16,"items":[{"name":"앤설리번잉글리쉬학원","tel":"031-263-6363","addr":"경기도 용인시 수지구 동천동 411번지 준프라자 201호","indutype":"학원 - 외국어학원","category":"study"}]},{"lat":"37.340260754","long":"127.07099705","imageIndex":16,"items":[{"name":"엔에스펜싱클럽(NS fencing club)","tel":"031-276-4674","addr":"경기도 용인시 수지구 동천동 561-1번지 상가 101,102호","indutype":"학원 - 예·체능계학원","category":"study"}]},{"lat":"37.336318656","long":"127.09160975","imageIndex":16,"items":[{"name":"용인동천와이즈리더영어독서전문학원","tel":"031-276-0512","addr":"경기도 용인시 수지구 동천동 944번지","indutype":"회원제형태 - 학원","category":"study"},{"name":"최상위권수학영어학원","tel":"031-896-8094","addr":"경기도 용인시 수지구 동천동 944번지 동천동,훼미리프라자 302호","indutype":"학원 - 보습학원","category":"study"}]},{"lat":"37.339065485","long":"127.09329439","imageIndex":16,"items":[{"name":"이제마독서실","tel":"031-272-5300","addr":"경기도 용인시 수지구 동천동 348-2번지","indutype":"학원 - 독서실","category":"study"}]},{"lat":"37.332064675","long":"127.09316188","imageIndex":16,"items":[{"name":"제우스학원","tel":"031-272-1220","addr":"경기도 용인시 수지구 동천동 282-8번지","indutype":"학원 - 보습학원","category":"study"}]},{"lat":"37.340952585","long":"127.09966134","imageIndex":16,"items":[{"name":"조이기타드럼음악교습소","tel":"031-262-6646","addr":"경기도 용인시 수지구 동천동 199-2번지 3층","indutype":"학원 - 예·체능계학원","category":"study"}]},{"lat":"37.338148792","long":"127.10163253","imageIndex":16,"items":[{"name":"주식회사교컴","tel":"02-854-0251","addr":"경기도 용인시 수지구 동천동 899번지 분당수지U-TOWER A동 2103호","indutype":"회원제형태 - 학원","category":"study"},{"name":"한올인재개발원","tel":"","addr":"경기도 용인시 수지구 동천동 899번지 지식산업센터 1813호","indutype":"학원 - 기타 교육기관","category":"study"}]},{"lat":"37.339503756","long":"127.07124463","imageIndex":16,"items":[{"name":"주식회사아뜰리에영어키즈어학원","tel":"031-897-0057","addr":"경기도 용인시 수지구 동천동 556-18번지 101호","indutype":"학원 - 외국어학원","category":"study"}]},{"lat":"37.332812692","long":"127.09293711","imageIndex":16,"items":[{"name":"지식과수원","tel":"031-262-0910","addr":"경기도 용인시 수지구 동천동 282-4번지 3층","indutype":"학원 - 기타 교육기관","category":"study"},{"name":"퍼스트학원","tel":"031-263-1975","addr":"경기도 용인시 수지구 동천동 282-4번지","indutype":"학원 - 보습학원","category":"study"}]},{"lat":"37.339314533","long":"127.09743616","imageIndex":16,"items":[{"name":"코넷수학학원","tel":"031-276-4881","addr":"경기도 용인시 수지구 동천동 361-1번지 3층","indutype":"학원 - 보습학원","category":"study"}]},{"lat":"37.342816037","long":"127.06085398","imageIndex":16,"items":[{"name":"클럽에스제이(Club SJ)","tel":"031-896-0222","addr":"경기도 용인시 수지구 동천동 621번지","indutype":"학원 - 기타 교육기관","category":"study"}]},{"lat":"37.335889289","long":"127.08734384","imageIndex":16,"items":[{"name":"팩토수학공부방","tel":"031-667-8428","addr":"경기도 용인시 수지구 동천동 935번지 한빛마을래미안이스트팰리스1단지","indutype":"학원 - 기타 교육기관","category":"study"}]},{"lat":"37.341095651","long":"127.10099315","imageIndex":16,"items":[{"name":"플라톤체대입시 용인캠퍼스","tel":"031-261-7045","addr":"경기도 용인시 수지구 동천동 181-2번지 신영프라자 제지 1층 제비 01호","indutype":"학원 - 예·체능계학원","category":"study"}]},{"lat":"37.335373462","long":"127.0904351","imageIndex":16,"items":[{"name":"플래뮤수지점미술학원","tel":"031-262-8520","addr":"경기도 용인시 수지구 동천동 946-8번지 5층","indutype":"학원 - 예·체능계학원","category":"study"}]},{"lat":"37.335650983","long":"127.09282765","imageIndex":16,"items":[{"name":"피오미술교습소","tel":"","addr":"경기도 용인시 수지구 동천동 874-2번지 두부하우스 101호","indutype":"학원 - 예·체능계학원","category":"study"}]},{"lat":"37.340927099","long":"127.09775416","imageIndex":16,"items":[{"name":"홍익모라니미술","tel":"031-272-0032","addr":"경기도 용인시 수지구 동천동 914번지 동천마을동문굿모닝힐5차 512동 101호","indutype":"학원 - 보습학원","category":"study"}]},{"lat":"37.337894858","long":"127.09237895","imageIndex":7,"items":[{"name":"All Market","tel":"031-262-0707","addr":"경기도 용인시 수지구 동천동 941-1번지 1층 101, 102호","indutype":"유통업 영리 - 슈퍼마켓","category":"mart"},{"name":"Bon Market","tel":"031-896-7557","addr":"경기도 용인시 수지구 동천동 941-1,-2,-3,-4","indutype":"유통업 영리 - 슈퍼마켓","category":"mart"},{"name":"주식회사건명","tel":"031-264-3535","addr":"경기도 용인시 수지구 동천동 941-1번지 지스케어빌딩 202호","indutype":"유통업 영리 - 슈퍼마켓","category":"mart"}]},{"lat":"37.347393967","long":"127.08916246","imageIndex":7,"items":[{"name":"뱅가온","tel":"031-897-4959","addr":"경기도 용인시 수지구 동천동 87-14번지 104호","indutype":"유통업 영리 - 슈퍼마켓","category":"mart"}]},{"lat":"37.340288669","long":"127.09612835","imageIndex":7,"items":[{"name":"아이스비어","tel":"02-1234-1234","addr":"경기도 용인시 수지구 동천동 174-9번지","indutype":"유통업 영리 - 슈퍼마켓","category":"mart"}]},{"lat":"37.341033769","long":"127.0995486","imageIndex":7,"items":[{"name":"에이스마트","tel":"031-276-6296","addr":"경기도 용인시 수지구 동천동 198번지 상가 1층","indutype":"유통업 영리 - 슈퍼마켓","category":"mart"}]},{"lat":"37.3401771","long":"127.10040514","imageIndex":7,"items":[{"name":"우리마트","tel":"031-276-3800","addr":"경기도 용인시 수지구 동천동 325-11번지","indutype":"유통업 영리 - 슈퍼마켓","category":"mart"}]},{"lat":"37.339676014","long":"127.09608245","imageIndex":7,"items":[{"name":"이시돌마트","tel":"031-266-5562","addr":"경기도 용인시 수지구 동천동 355-3번지","indutype":"유통업 영리 - 슈퍼마켓","category":"mart"}]},{"lat":"37.341394314","long":"127.09937978","imageIndex":7,"items":[{"name":"주식회사 농수산식자재마트 용인점","tel":"031-261-8181","addr":"경기도 용인시 수지구 동천동 969번지 동천파크뷰 101동 106호","indutype":"유통업 영리 - 슈퍼마켓","category":"mart"}]},{"lat":"37.336518037","long":"127.09005276","imageIndex":7,"items":[{"name":"총각네야채가게수지동천점","tel":"031-264-5289","addr":"경기도 용인시 수지구 동천동 938번지 한빛마을래미안이스트팰리스2단지제상가동제2블럭24호","indutype":"유통업 영리 - 슈퍼마켓","category":"mart"}]},{"lat":"37.339981312","long":"127.09740314","imageIndex":7,"items":[{"name":"케어마트(CAREMART)","tel":"053-324-7202","addr":"경기도 용인시 수지구 동천동 913 영남네오빌아트상가 케어마트","indutype":"유통업 영리 - 슈퍼마켓","category":"mart"}]},{"lat":"37.335650605","long":"127.09332415","imageIndex":7,"items":[{"name":"한겨레초록마을동천점","tel":"031-264-6290","addr":"경기도 용인시 수지구 동천동 873-4,5에덴파크1층102","indutype":"유통업 영리 - 슈퍼마켓","category":"mart"}]},{"lat":"37.337950767","long":"127.0766372","imageIndex":0,"items":[{"name":"NEW FACES","tel":"070-8111-6949","addr":"경기도 용인시 수지구 동천동 509-2번지 1","indutype":"자동차정비 유지 - 자동차부품","category":"car"}]},{"lat":"37.334395286","long":"127.09704634","imageIndex":0,"items":[{"name":"닥터모터스(Dr Motors)","tel":"031-262-8251","addr":"경기도 용인시 수지구 동천동 885-1번지 1층 101호","indutype":"자동차정비 유지 - 자동차정비","category":"car"}]},{"lat":"37.338678555","long":"127.09262814","imageIndex":0,"items":[{"name":"동문현대공업사유한회사","tel":"031-264-1671","addr":"경기도 용인시 수지구 동천동 403-2번지 1층","indutype":"자동차정비 유지 - 자동차정비","category":"car"}]},{"lat":"37.335507077","long":"127.09248896","imageIndex":0,"items":[{"name":"동인카센터","tel":"031-272-8297","addr":"경기도 용인시 수지구 동천동 874-7","indutype":"자동차정비 유지 - 자동차정비","category":"car"}]},{"lat":"37.337480866","long":"127.09174653","imageIndex":0,"items":[{"name":"동천현대자동차공업사","tel":"031-261-3942","addr":"경기도 용인시 수지구 동천동 941-11번지 1층 101호","indutype":"자동차정비 유지 - 자동차정비","category":"car"}]},{"lat":"37.344643684","long":"127.09210482","imageIndex":0,"items":[{"name":"디에스디삼호 (주)","tel":"031-231-3522","addr":"경기도 용인시 수지구 동천동 143-1번지 지하1층","indutype":"자동차정비 유지 - 주차장","category":"car"}]},{"lat":"37.347701364","long":"127.05702052","imageIndex":0,"items":[{"name":"디퍼런트팩토리 (different factory)","tel":"02-1111-1111","addr":"경기도 용인시 수지구 동천동 680-1번지 1층","indutype":"자동차정비 유지 - 자동차부품","category":"car"}]},{"lat":"37.338148792","long":"127.10163253","imageIndex":0,"items":[{"name":"로얄라인","tel":"02-1522-9310","addr":"경기도 용인시 수지구 동천동 899번지 분당수지 U-TOWER B동 2919호","indutype":"자동차정비 유지 - 세차장","category":"car"},{"name":"브라이트 카 워시","tel":"031-525-3131","addr":"경기도 용인시 수지구 동천동 899번지 B101호","indutype":"자동차정비 유지 - 세차장","category":"car"},{"name":"스팀닥터/(주)더카원(THE CAR ONE)","tel":"031-525-3131","addr":"경기도 용인시 수지구 동천동 899번지 분당수지 U-TOWER B101호호","indutype":"자동차정비 유지 - 세차장","category":"car"}]},{"lat":"37.335254595","long":"127.09274819","imageIndex":0,"items":[{"name":"마일레 오토서비스","tel":"031-262-1600","addr":"경기도 용인시 수지구 동천동 875-1번지 지하1층","indutype":"자동차정비 유지 - 자동차정비","category":"car"}]},{"lat":"37.342991745","long":"127.09609783","imageIndex":0,"items":[{"name":"맥가이버","tel":"031-276-7774","addr":"경기도 용인시 수지구 동천동 167-3번지 남영골프랜드주차장내","indutype":"자동차정비 유지 - 자동차정비","category":"car"}]},{"lat":"37.333623375","long":"127.09324274","imageIndex":0,"items":[{"name":"모든카센터","tel":"031-261-3498","addr":"경기도 용인시 수지구 동천동 850번지","indutype":"자동차정비 유지 - 자동차정비","category":"car"}]},{"lat":"37.344338399","long":"127.06157741","imageIndex":0,"items":[{"name":"베론","tel":"031-266-2797","addr":"경기도 용인시 수지구 동천동 618-2번지 B동 2층","indutype":"자동차정비 유지 - 자동차부품","category":"car"}]},{"lat":"37.35070368","long":"127.08496772","imageIndex":0,"items":[{"name":"브레인 모터스","tel":"","addr":"경기도 용인시 수지구 동천동 54-2번지","indutype":"자동차정비 유지 - 자동차시트·타이어","category":"car"}]},{"lat":"37.333955333","long":"127.0950824","imageIndex":0,"items":[{"name":"수리수리모터스","tel":"031-266-6848","addr":"경기도 용인시 수지구 동천동 881-8번지","indutype":"자동차정비 유지 - 자동차정비","category":"car"}]},{"lat":"37.335254749","long":"127.09254508","imageIndex":0,"items":[{"name":"스카이오토","tel":"031-263-5455","addr":"경기도 용인시 수지구 동천동 875번지","indutype":"자동차정비 유지 - 자동차정비","category":"car"}]},{"lat":"37.334152164","long":"127.09685421","imageIndex":0,"items":[{"name":"쌈빡스타일","tel":"031-261-2214","addr":"경기도 용인시 수지구 동천동 885-5번지","indutype":"자동차정비 유지 - 카인테리어","category":"car"}]},{"lat":"37.333955228","long":"127.09521781","imageIndex":0,"items":[{"name":"에덴 인베스트 코리아(EDEN INVEST KOREA)","tel":"031-896-9312","addr":"경기도 용인시 수지구 동천동 881번지 수정빌딩 B01호","indutype":"자동차정비 유지 - 자동차부품","category":"car"}]},{"lat":"37.335650837","long":"127.09301948","imageIndex":0,"items":[{"name":"에반엠","tel":"031-458-7623","addr":"경기도 용인시 수지구 동천동 874-3번지 101호","indutype":"자동차정비 유지 - 카인테리어","category":"car"}]},{"lat":"37.339243339","long":"127.09631889","imageIndex":0,"items":[{"name":"오티앤","tel":"031-000-0000","addr":"경기도 용인시 수지구 동천동 862번지 동천마을현대2차홈타운 201동 801호","indutype":"자동차정비 유지 - 자동차부품","category":"car"}]},{"lat":"37.344338656","long":"127.06105829","imageIndex":0,"items":[{"name":"웨이브테크","tel":"031-261-3744","addr":"경기도 용인시 수지구 동천동 618-6번지","indutype":"자동차정비 유지 - 자동차부품","category":"car"}]},{"lat":"37.33784048","long":"127.09279641","imageIndex":0,"items":[{"name":"이카툴코리아(ecartoolkorea)","tel":"031-261-0758","addr":"경기도 용인시 수지구 동천동 344-2번지 동천동제일프라자 203호","indutype":"자동차정비 유지 - 자동차부품","category":"car"},{"name":"주식회사선자동차코리아","tel":"031-263-8220","addr":"경기도 용인시 수지구 동천동 344-2번지 동천동제일프라자 303호","indutype":"자동차정비 유지 - 자동차부품","category":"car"}]},{"lat":"37.345282325","long":"127.09352756","imageIndex":0,"items":[{"name":"전진카센타","tel":"031-262-4289","addr":"경기도 용인시 수지구 동천동 145번지","indutype":"자동차정비 유지 - 자동차정비","category":"car"}]},{"lat":"37.339699254","long":"127.10077692","imageIndex":0,"items":[{"name":"제일카세차장","tel":"031-263-1005","addr":"경기도 용인시 수지구 동천동 325-470번지 라온우스","indutype":"자동차정비 유지 - 세차장","category":"car"}]},{"lat":"37.347979668","long":"127.0891067","imageIndex":0,"items":[{"name":"주성차병원","tel":"031-261-8955","addr":"경기도 용인시 수지구 동천동 83-3번지","indutype":"자동차정비 유지 - 자동차정비","category":"car"}]},{"lat":"37.337507565","long":"127.09218666","imageIndex":0,"items":[{"name":"주식회사 에스피엠","tel":"02-406-9595","addr":"경기도 용인시 수지구 동천동 942-1번지 대성프라자 105호","indutype":"자동차정비 유지 - 주차장","category":"car"}]},{"lat":"37.333512064","long":"127.09732734","imageIndex":0,"items":[{"name":"주식회사어제스트","tel":"031-786-0991","addr":"경기도 용인시 수지구 동천동 887번지 309호","indutype":"자동차정비 유지 - 카인테리어","category":"car"}]},{"lat":"37.339230986","long":"127.10046034","imageIndex":0,"items":[{"name":"주식회사파렌(fahren)","tel":"031-276-5807","addr":"경기도 용인시 수지구 동천동 325-35번지","indutype":"자동차정비 유지 - 자동차정비","category":"car"}]},{"lat":"37.334200113","long":"127.09313059","imageIndex":0,"items":[{"name":"케이디씨(KDC)자동차외형복원수지점","tel":"031-262-4965","addr":"경기도 용인시 수지구 동천동 877-4번지 지층 1호","indutype":"자동차정비 유지 - 카인테리어","category":"car"}]},{"lat":"37.333674866","long":"127.09654896","imageIndex":0,"items":[{"name":"클럽오렌지","tel":"031-261-4666","addr":"경기도 용인시 수지구 동천동 883-7번지 1층","indutype":"자동차정비 유지 - 카인테리어","category":"car"}]},{"lat":"37.33395385","long":"127.09696681","imageIndex":0,"items":[{"name":"탑셀프세차장","tel":"031-266-2322","addr":"경기도 용인시 수지구 동천동 885-4번지","indutype":"자동차정비 유지 - 세차장","category":"car"}]},{"lat":"37.339177055","long":"127.10030229","imageIndex":0,"items":[{"name":"퍼팩션(Perfaction)","tel":"031-265-4111","addr":"경기도 용인시 수지구 동천동 325-62번지 1층","indutype":"자동차정비 유지 - 카인테리어","category":"car"}]},{"lat":"37.338449271","long":"127.08580073","imageIndex":0,"items":[{"name":"핸들샵","tel":"031-276-2797","addr":"경기도 용인시 수지구 동천동 479-4,2층202","indutype":"자동차정비 유지 - 자동차부품","category":"car"}]},{"lat":"37.334867158","long":"127.09274773","imageIndex":0,"items":[{"name":"현대카클리닉","tel":"031-896-2599","addr":"경기도 용인시 수지구 동천동 876번지","indutype":"자동차정비 유지 - 자동차정비","category":"car"}]},{"lat":"37.336920779","long":"127.0936642","imageIndex":13,"items":[{"name":"Y.M파워댄스","tel":"070-4649-1101","addr":"경기도 용인시 수지구 동천동 864번지","indutype":"레저업소 - 헬스클럽","category":"leisure"}]},{"lat":"37.344839799","long":"127.09485871","imageIndex":13,"items":[{"name":"k-스크린 골프 클럽","tel":"031-276-0070","addr":"경기도 용인시 수지구 동천동 148번지 외3필지","indutype":"레저업소 - 스크린골프","category":"leisure"}]},{"lat":"37.337176777","long":"127.08868812","imageIndex":13,"items":[{"name":"나비필라테스","tel":"031-261-2337","addr":"경기도 용인시 수지구 동천동 937번지 202호","indutype":"레저업소 - 헬스클럽","category":"leisure"}]},{"lat":"37.339435443","long":"127.0925839","imageIndex":13,"items":[{"name":"노건골프스쿨","tel":"","addr":"경기도 용인시 수지구 동천동 400-1번지 동문그린아파트","indutype":"레저업소 - 골프연습장","category":"leisure"}]},{"lat":"37.335373462","long":"127.0904351","imageIndex":13,"items":[{"name":"더리얼피티 (THE REAL PT)","tel":"031-893-2525","addr":"경기도 용인시 수지구 동천동 946-8번지 2층","indutype":"레저업소 - 헬스클럽","category":"leisure"}]},{"lat":"37.340925416","long":"127.09983058","imageIndex":13,"items":[{"name":"동천당구장","tel":"031-265-9990","addr":"경기도 용인시 수지구 동천동 180-14번지 중앙빌딩 3층","indutype":"레저업소 - 당 구 장","category":"leisure"}]},{"lat":"37.340450344","long":"127.09677178","imageIndex":13,"items":[{"name":"동천허리우드 당구클럽","tel":"031-264-7766","addr":"경기도 용인시 수지구 동천동 174-14번지 빌프라자 3층 301호","indutype":"레저업소 - 당 구 장","category":"leisure"},{"name":"퍼플팝 PC방","tel":"070-5221-0906","addr":"경기도 용인시 수지구 동천동 174-14번지 빌프라자 201,202호","indutype":"레저업소 - 기타레져업소","category":"leisure"}]},{"lat":"37.339010478","long":"127.09452435","imageIndex":13,"items":[{"name":"마리나키즈","tel":"031-276-5533","addr":"경기도 용인시 수지구 동천동 351번지 윤창빌딩 지하1층","indutype":"레저업소 - 수 영 장","category":"leisure"}]},{"lat":"37.341095651","long":"127.10099315","imageIndex":13,"items":[{"name":"바른 필라테스","tel":"031-897-7585","addr":"경기도 용인시 수지구 동천동 181-2번지 신영프라자 204호","indutype":"레저업소 - 헬스클럽","category":"leisure"},{"name":"청안명상센타","tel":"031-266-2503","addr":"경기도 용인시 수지구 동천동 181-2번지 신영프라자 503호","indutype":"레저업소 - 헬스클럽","category":"leisure"}]},{"lat":"37.337816403","long":"127.07536192","imageIndex":13,"items":[{"name":"송종국에프시 (FC)","tel":"031-265-0770","addr":"경기도 용인시 수지구 동천동 536-5번지 외1필지","indutype":"레저업소 - 기타레져업소","category":"leisure"},{"name":"주식회사송종국축구교실","tel":"031-265-0770","addr":"경기도 용인시 수지구 동천동 536-5번지","indutype":"레저업소 - 기타레져업소","category":"leisure"}]},{"lat":"37.337507565","long":"127.09218666","imageIndex":13,"items":[{"name":"수성당구클럽","tel":"031-805-4959","addr":"경기도 용인시 수지구 동천동 942-1번지 대성프라자 201동 202호","indutype":"레저업소 - 당 구 장","category":"leisure"}]},{"lat":"37.337758578","long":"127.09385705","imageIndex":13,"items":[{"name":"수지레크리에이션스포츠센터","tel":"031-276-7772","addr":"경기도 용인시 수지구 동천동 336-2번지","indutype":"레저업소 - 기타레져업소","category":"leisure"}]},{"lat":"37.33109315","long":"127.09107329","imageIndex":13,"items":[{"name":"수지스포츠프라자","tel":"031-261-7722","addr":"경기도 용인시 수지구 동천동 462-4번지","indutype":"레저업소 - 헬스클럽","category":"leisure"},{"name":"에스제이아쿠아주식회사","tel":"031-261-7722","addr":"경기도 용인시 수지구 동천동 462-4번지 수지스포츠프라자 1층","indutype":"레저업소 - 수 영 장","category":"leisure"}]},{"lat":"37.333953517","long":"127.09738431","imageIndex":13,"items":[{"name":"스틸시리즈PC","tel":"070-4646-5685","addr":"경기도 용인시 수지구 동천동 886-2번지 IVY타워 401호","indutype":"레저업소 - 기타레져업소","category":"leisure"}]},{"lat":"37.335895076","long":"127.09174467","imageIndex":13,"items":[{"name":"식스팩 휘트니스","tel":"031-261-9679","addr":"경기도 용인시 수지구 동천동 948번지 B01호,B02호","indutype":"레저업소 - 헬스클럽","category":"leisure"}]},{"lat":"37.337318437","long":"127.09207359","imageIndex":13,"items":[{"name":"싱싱노래연습장","tel":"031-272-1137","addr":"경기도 용인시 수지구 동천동 942-5번지 401호 , 402호 403호","indutype":"레저업소 - 노 래 방","category":"leisure"}]},{"lat":"37.342730094","long":"127.09654892","imageIndex":13,"items":[{"name":"씨앤케이주식회사","tel":"031-272-0925","addr":"경기도 용인시 수지구 동천동 171-2번지 3층","indutype":"레저업소 - 볼 링 장","category":"leisure"}]},{"lat":"37.340259684","long":"127.09857711","imageIndex":13,"items":[{"name":"아이비스PC방","tel":"","addr":"경기도 용인시 수지구 동천동 371-5번지 동천코아프라자 비01호,비02호","indutype":"레저업소 - 기타레져업소","category":"leisure"},{"name":"코아당구장","tel":"031-896-0049","addr":"경기도 용인시 수지구 동천동 371-5번지 동천코아프라자 403호","indutype":"레저업소 - 당 구 장","category":"leisure"}]},{"lat":"37.333512064","long":"127.09732734","imageIndex":13,"items":[{"name":"앨바트로 휘트니스","tel":"031-897-4774","addr":"경기도 용인시 수지구 동천동 887번지 수지하우비 3층 301,302호","indutype":"레저업소 - 헬스클럽","category":"leisure"},{"name":"앨바트로복싱","tel":"031-897-4774","addr":"경기도 용인시 수지구 동천동 887번지 202호","indutype":"레저업소 - 헬스클럽","category":"leisure"},{"name":"힐링당구클럽","tel":"031-898-3949","addr":"경기도 용인시 수지구 동천동 887번지 3층 313~314호","indutype":"레저업소 - 당 구 장","category":"leisure"}]},{"lat":"37.333172996","long":"127.09307294","imageIndex":13,"items":[{"name":"요가온스토리","tel":"","addr":"경기도 용인시 수지구 동천동 282번지 클래스업 107동 304호","indutype":"레저업소 - 헬스클럽","category":"leisure"}]},{"lat":"37.338145196","long":"127.08249404","imageIndex":13,"items":[{"name":"위(WE)스포츠클럽","tel":"031-261-6111","addr":"경기도 용인시 수지구 동천동 487번지","indutype":"레저업소 - 기타레져업소","category":"leisure"}]},{"lat":"37.338148792","long":"127.10163253","imageIndex":13,"items":[{"name":"유승","tel":"031-111-1111","addr":"경기도 용인시 수지구 동천동 899번지 분당수지유타워 B동 2316호","indutype":"레저업소 - 골프연습장","category":"leisure"},{"name":"유타워피트니스","tel":"031-708-0127","addr":"경기도 용인시 수지구 동천동 899번지 분당수지U-TOWER 211호","indutype":"레저업소 - 헬스클럽","category":"leisure"}]},{"lat":"37.340288669","long":"127.09612835","imageIndex":13,"items":[{"name":"윤짐","tel":"031-263-0851","addr":"경기도 용인시 수지구 동천동 174-9번지 센트럴 202호","indutype":"레저업소 - 헬스클럽","category":"leisure"}]},{"lat":"37.340538053","long":"127.0997398","imageIndex":13,"items":[{"name":"잇츠코인노래연습장","tel":"","addr":"경기도 용인시 수지구 동천동 201-1번지 4층","indutype":"레저업소 - 노 래 방","category":"leisure"}]},{"lat":"37.338732243","long":"127.08040701","imageIndex":13,"items":[{"name":"주식회사 아이스온","tel":"031-276-6364","addr":"경기도 용인시 수지구 동천동 497-1번지","indutype":"레저업소 - 기타레져업소","category":"leisure"}]},{"lat":"37.34070007","long":"127.09994314","imageIndex":13,"items":[{"name":"즐거운노래연습장","tel":"031-265-2309","addr":"경기도 용인시 수지구 동천동 196번지","indutype":"레저업소 - 노 래 방","category":"leisure"}]},{"lat":"37.341590957","long":"127.10129849","imageIndex":13,"items":[{"name":"채플린노래연습장","tel":"031-261-4542","addr":"경기도 용인시 수지구 동천동 180-5번지 하나프라자 305호","indutype":"레저업소 - 노 래 방","category":"leisure"}]},{"lat":"37.337950346","long":"127.09047194","imageIndex":13,"items":[{"name":"크로스핏메이트","tel":"031-263-3563","addr":"경기도 용인시 수지구 동천동 411번지 지층 B02호","indutype":"레저업소 - 헬스클럽","category":"leisure"}]},{"lat":"37.337120213","long":"127.09207335","imageIndex":13,"items":[{"name":"키즈팡팡(용인동천점)","tel":"031-265-6711","addr":"경기도 용인시 수지구 동천동 942-4번지","indutype":"레저업소 - 기타레져업소","category":"leisure"}]},{"lat":"37.339148808","long":"127.10176925","imageIndex":13,"items":[{"name":"트리필라테스 동천점","tel":"","addr":"경기도 용인시 수지구 동천동 325-2번지 주건축물 제1동 2층 3층","indutype":"레저업소 - 헬스클럽","category":"leisure"}]},{"lat":"37.339424252","long":"127.09541634","imageIndex":13,"items":[{"name":"프라임스크린골프","tel":"031-265-0795","addr":"경기도 용인시 수지구 동천동 387-6번지","indutype":"레저업소 - 스크린골프","category":"leisure"}]},{"lat":"37.33581481","long":"127.09063873","imageIndex":13,"items":[{"name":"플랜비","tel":"070-8888-1240","addr":"경기도 용인시 수지구 동천동 946-4번지 대영프라자 302호","indutype":"레저업소 - 헬스클럽","category":"leisure"}]},{"lat":"37.335562734","long":"127.09035633","imageIndex":13,"items":[{"name":"필라테스엠플러스","tel":"031-264-6888","addr":"경기도 용인시 수지구 동천동 946-6번지 5층","indutype":"레저업소 - 헬스클럽","category":"leisure"}]},{"lat":"37.335650605","long":"127.09332415","imageIndex":13,"items":[{"name":"하움 필라테스","tel":"","addr":"경기도 용인시 수지구 동천동 873-4번지 에덴파크1 4층 403호","indutype":"레저업소 - 헬스클럽","category":"leisure"}]},{"lat":"37.348233295","long":"127.0872448","imageIndex":13,"items":[{"name":"한국키즈골프 주식회사","tel":"031-276-9433","addr":"경기도 용인시 수지구 동천동 79번지","indutype":"레저업소 - 스크린골프","category":"leisure"}]},{"lat":"37.340484352","long":"127.09929963","imageIndex":13,"items":[{"name":"휠노래연습장","tel":"031-263-8952","addr":"경기도 용인시 수지구 동천동 768-3번지","indutype":"레저업소 - 노 래 방","category":"leisure"}]}]