[{"lat":"37.632588038","long":"127.3164644","imageIndex":17,"items":[{"name":"(주) 경미","tel":"031-595-8712","addr":"경기도 남양주시 화도읍 창현리 213번지","indutype":"가구 - 일반가구","category":"other"}]},{"lat":"37.638142316","long":"127.31141206","imageIndex":17,"items":[{"name":"(주)고랄","tel":"02-1588-2052","addr":"경기도 남양주시 화도읍 창현리 152-20번지 주 1동","indutype":"레져용품 - 스포츠·레져용품","category":"other"}]},{"lat":"37.637948092","long":"127.32010108","imageIndex":17,"items":[{"name":"(주)금성세라믹스","tel":"031-511-6330","addr":"경기도 남양주시 화도읍 창현리 45-1","indutype":"건축자재 - 기타건축자재","category":"other"}]},{"lat":"37.640639912","long":"127.30013766","imageIndex":17,"items":[{"name":"(주)저스틴데이비스코리아","tel":"031-518-0049","addr":"경기도 남양주시 화도읍 창현리 712-3번지 3층","indutype":"신변잡화 - 기타잡화","category":"other"}]},{"lat":"37.651309207","long":"127.30649192","imageIndex":17,"items":[{"name":"GS25마석궁전점","tel":"","addr":"경기도 남양주시 화도읍 창현리 469-20번지","indutype":"유통업 영리 - 편 의 점","category":"other"}]},{"lat":"37.652505582","long":"127.30372048","imageIndex":17,"items":[{"name":"GS25창현사랑점","tel":"","addr":"경기도 남양주시 화도읍 창현리 495-1번지","indutype":"유통업 영리 - 편 의 점","category":"other"},{"name":"영24시편의점","tel":"070-8659-9774","addr":"경기도 남양주시 화도읍 창현리 495-1번지","indutype":"유통업 영리 - 편 의 점","category":"other"},{"name":"해피실버노인복지센타","tel":"031-515-5655","addr":"경기도 남양주시 화도읍 창현리 495-1번지 2층 삼중빌딩","indutype":"기타의료기관 - 기타의료기관 및 기타","category":"other"}]},{"lat":"37.648533831","long":"127.30312657","imageIndex":17,"items":[{"name":"GS25창현은하점","tel":"02-2006-2485","addr":"경기도 남양주시 화도읍 창현리 745 창현두산@1층101호","indutype":"유통업 영리 - 편 의 점","category":"other"}]},{"lat":"37.652337463","long":"127.30604283","imageIndex":17,"items":[{"name":"OHOO","tel":"031-595-6662","addr":"경기도 남양주시 화도읍 창현리 488-7번지 1층","indutype":"의류 - 정장","category":"other"}]},{"lat":"37.650138662","long":"127.3062152","imageIndex":17,"items":[{"name":"OMYPUPPY","tel":"031-555-5879","addr":"경기도 남양주시 화도읍 창현리 472-7번지 2-1호오마이퍼피","indutype":"의류 - 정장","category":"other"}]},{"lat":"37.65164329","long":"127.30620998","imageIndex":17,"items":[{"name":"TERRI","tel":"031-521-5944","addr":"경기도 남양주시 화도읍 창현리 488-16번지","indutype":"신변잡화 - 제화","category":"other"},{"name":"마석전자담배","tel":"031-513-3440","addr":"경기도 남양주시 화도읍 창현리 488-16번지","indutype":"기타 - 기타 전문점","category":"other"},{"name":"밀레오레","tel":"","addr":"경기도 남양주시 화도읍 창현리 488-16번지 1층","indutype":"의류 - 정장","category":"other"},{"name":"신데렐라","tel":"031-593-9977","addr":"경기도 남양주시 화도읍 창현리 488-16번지 상가 1층","indutype":"신변잡화 - 신발","category":"other"}]},{"lat":"37.646585911","long":"127.3073565","imageIndex":17,"items":[{"name":"가나공구","tel":"031-594-0034","addr":"경기도 남양주시 화도읍 창현리 431-3번지","indutype":"기타 - 기계공구","category":"other"},{"name":"가나엔지니어링","tel":"031-511-7334","addr":"경기도 남양주시 화도읍 창현리 431-3번지","indutype":"농업 - 농기계","category":"other"},{"name":"가나종합기계","tel":"","addr":"경기도 남양주시 화도읍 창현리 431-3번지 2동","indutype":"기타 - 기계공구","category":"other"}]},{"lat":"37.639588694","long":"127.30254674","imageIndex":17,"items":[{"name":"가온엔지니어링","tel":"02-1111-1111","addr":"경기도 남양주시 화도읍 창현리 682-1번지 예림빌 1층 상가","indutype":"수리서비스 - 기타수리서비스","category":"other"}]},{"lat":"37.636532369","long":"127.3171834","imageIndex":17,"items":[{"name":"가한애드텍","tel":"031-595-4510","addr":"경기도 남양주시 화도읍 창현리 174-37번지 다동","indutype":"건축자재 - 인테리어전문","category":"other"}]},{"lat":"37.647500689","long":"127.30549061","imageIndex":17,"items":[{"name":"건2 모바일","tel":"070-7745-5000","addr":"경기도 남양주시 화도읍 창현리 552-1번지 102호","indutype":"사무통신 - 통신기기","category":"other"},{"name":"헤어 토크","tel":"031-593-3854","addr":"경기도 남양주시 화도읍 창현리 552-1번지 103호 일부","indutype":"의류 - 정장","category":"other"}]},{"lat":"37.647003212","long":"127.30624777","imageIndex":17,"items":[{"name":"경기냉동","tel":"","addr":"경기도 남양주시 화도읍 창현리 551-48번지 누리하우스 104동 402호","indutype":"수리서비스 - 가정용품수리","category":"other"}]},{"lat":"37.636223568","long":"127.3214646","imageIndex":17,"items":[{"name":"경남산업","tel":"031-593-1613","addr":"경기도 남양주시 화도읍 창현리 56-5번지","indutype":"건축자재 - 기타건축자재","category":"other"}]},{"lat":"37.649418303","long":"127.30605363","imageIndex":17,"items":[{"name":"그린오피스 남양주점","tel":"031-511-7979","addr":"경기도 남양주시 화도읍 창현리 465-6 덕양빌딩","indutype":"서적문구 - 문구용품","category":"other"},{"name":"미치코런던","tel":"031-515-7227","addr":"경기도 남양주시 화도읍 창현리 465-6번지 덕양빌딩 102호","indutype":"의류 - 단체복","category":"other"},{"name":"스쿨룩스학생복","tel":"031-595-5419","addr":"경기도 남양주시 화도읍 창현리 465-6번지 다삼빌딩 지하층","indutype":"의류 - 맞춤복점","category":"other"}]},{"lat":"37.652391084","long":"127.30621302","imageIndex":17,"items":[{"name":"금당은당","tel":"031-593-2177","addr":"경기도 남양주시 화도읍 창현리 488-2","indutype":"신변잡화 - 귀금속","category":"other"},{"name":"뉴라이프신발","tel":"070-4922-1261","addr":"경기도 남양주시 화도읍 창현리 488-2번지","indutype":"신변잡화 - 신발","category":"other"},{"name":"스피드정보통신","tel":"031-594-8055","addr":"경기도 남양주시 화도읍 창현리 488-2번지","indutype":"사무통신 - 통신기기","category":"other"}]},{"lat":"37.650581499","long":"127.30568441","imageIndex":17,"items":[{"name":"깍개","tel":"031-511-1131","addr":"경기도 남양주시 화도읍 창현리 736-1번지 아이티타워 1층 101호","indutype":"문화.취미 - 애완동물","category":"other"}]},{"lat":"37.6380301","long":"127.31638531","imageIndex":17,"items":[{"name":"남양주시호남향우회연합회","tel":"031-592-4137","addr":"경기도 남양주시 화도읍 창현리 64-24번지","indutype":"기타 - 비영리/비대상","category":"other"}]},{"lat":"37.652365176","long":"127.30224678","imageIndex":17,"items":[{"name":"남양주큰사랑실버요양원","tel":"031-591-2448","addr":"경기도 남양주시 화도읍 창현리 503-12번지 오성주택","indutype":"기타의료기관 - 기타의료기관 및 기타","category":"other"},{"name":"남양주큰사랑실버요양원","tel":"031-591-2448","addr":"경기도 남양주시 화도읍 창현리 503-12번지 오성주택","indutype":"기타의료기관 - 기타의료기관 및 기타","category":"other"}]},{"lat":"37.651084026","long":"127.30646834","imageIndex":17,"items":[{"name":"남양주타올총판","tel":"031-594-4996","addr":"경기도 남양주시 화도읍 창현리 469-6","indutype":"직물 - 옷감·직물","category":"other"},{"name":"다모아","tel":"031-512-3540","addr":"경기도 남양주시 화도읍 창현리 469-6번지","indutype":"직물 - 침구·수예점","category":"other"}]},{"lat":"37.65113887","long":"127.30616261","imageIndex":17,"items":[{"name":"남양주화도댄스스포츠","tel":"031-515-1031","addr":"경기도 남양주시 화도읍 창현리 487-2","indutype":"회원제형태 - 레져업소","category":"other"}]},{"lat":"37.64991483","long":"127.30213496","imageIndex":17,"items":[{"name":"노팅힐","tel":"031-515-7737","addr":"경기도 남양주시 화도읍 창현리 720-6번지 1층","indutype":"의류 - 정장","category":"other"}]},{"lat":"37.652556803","long":"127.30483121","imageIndex":17,"items":[{"name":"니즈스타일","tel":"031-593-1341","addr":"경기도 남양주시 화도읍 창현리 493-1번지","indutype":"의류 - 정장","category":"other"}]},{"lat":"37.649283247","long":"127.30601908","imageIndex":17,"items":[{"name":"다미철물점","tel":"031-593-0109","addr":"경기도 남양주시 화도읍 창현리 462-11번지 102호","indutype":"건축자재 - 목재·석재·철물","category":"other"}]},{"lat":"37.649860083","long":"127.3024067","imageIndex":17,"items":[{"name":"다우공조","tel":"031-743-3398","addr":"경기도 남양주시 화도읍 창현리 726-1번지 에이스빌","indutype":"용역 서비스 - 기타용역서비스","category":"other"}]},{"lat":"37.651219752","long":"127.30624226","imageIndex":17,"items":[{"name":"대복통신","tel":"","addr":"경기도 남양주시 화도읍 창현리 489-2번지 1층","indutype":"사무통신 - 통신기기","category":"other"}]},{"lat":"37.633973158","long":"127.32071861","imageIndex":17,"items":[{"name":"대원정사","tel":"031-594-7779","addr":"경기도 남양주시 화도읍 창현리 225번지","indutype":"기타 - 비영리/대상","category":"other"}]},{"lat":"37.650615761","long":"127.30637578","imageIndex":17,"items":[{"name":"도배공장","tel":"031-593-7027","addr":"경기도 남양주시 화도읍 창현리 469번지","indutype":"직물 - 카페트,커튼,천막,지물","category":"other"}]},{"lat":"37.650476924","long":"127.30430154","imageIndex":17,"items":[{"name":"돈쩨쩨(DONTZEZE)","tel":"031-559-5022","addr":"경기도 남양주시 화도읍 창현리 731-2번지 지하1층","indutype":"회원제형태 - 사무서비스","category":"other"},{"name":"비앤비","tel":"031-511-3848","addr":"경기도 남양주시 화도읍 창현리 731-2번지 소정빌딩","indutype":"의류 - 정장","category":"other"}]},{"lat":"37.65203268","long":"127.30544101","imageIndex":17,"items":[{"name":"동창중기","tel":"031-594-2922","addr":"경기도 남양주시 화도읍 창현리 491-14","indutype":"기타 - 기계공구","category":"other"}]},{"lat":"37.645834962","long":"127.30507594","imageIndex":17,"items":[{"name":"두리서창현점","tel":"031-592-1030","addr":"경기도 남양주시 화도읍 창현리 562번지","indutype":"사무통신 - 통신기기","category":"other"}]},{"lat":"37.648568224","long":"127.30377259","imageIndex":17,"items":[{"name":"두산건설중기","tel":"031-511-7300","addr":"경기도 남양주시 화도읍 창현리 745번지 참현두산2차아파트 209동 801호","indutype":"기타 - 기계공구","category":"other"}]},{"lat":"37.636032151","long":"127.31893734","imageIndex":17,"items":[{"name":"두손레져기계","tel":"02-454-4213","addr":"경기도 남양주시 화도읍 창현리 64-10번지 1","indutype":"수리서비스 - 기타수리서비스","category":"other"}]},{"lat":"37.634307058","long":"127.32384686","imageIndex":17,"items":[{"name":"두연테크","tel":"02-326-0297","addr":"경기도 남양주시 화도읍 창현리 25번지","indutype":"신변잡화 - 가방","category":"other"}]},{"lat":"37.64150647","long":"127.30305297","imageIndex":17,"items":[{"name":"디에스트레이드","tel":"","addr":"경기도 남양주시 화도읍 창현리 697-2번지 401호","indutype":"서적문구 - 문구용품","category":"other"}]},{"lat":"37.651387123","long":"127.30421457","imageIndex":17,"items":[{"name":"라인","tel":"","addr":"경기도 남양주시 화도읍 창현리 496번지 미리내빌딩 1층","indutype":"의류 - 정장","category":"other"}]},{"lat":"37.650614553","long":"127.30332758","imageIndex":17,"items":[{"name":"레드(Red)","tel":"070-7809-7789","addr":"경기도 남양주시 화도읍 창현리 733-7","indutype":"의류 - 정장","category":"other"}]},{"lat":"37.649779629","long":"127.30215708","imageIndex":17,"items":[{"name":"리우컴퍼니","tel":"","addr":"경기도 남양주시 화도읍 창현리 720-7번지 1층 2호","indutype":"주방용구 - 주방용구","category":"other"},{"name":"지아이엠코리아","tel":"070-4352-2753","addr":"경기도 남양주시 화도읍 창현리 720-7번지","indutype":"용역 서비스 - 종합용역","category":"other"}]},{"lat":"37.650728497","long":"127.30457452","imageIndex":17,"items":[{"name":"리콘바이크","tel":"070-7718-9776","addr":"경기도 남양주시 화도읍 창현리 735-3번지","indutype":"레져용품 - 스포츠·레져용품","category":"other"},{"name":"세븐일레븐화도창현농협점","tel":"031-1577-0711","addr":"경기도 남양주시 화도읍 창현리 735-3번지","indutype":"유통업 영리 - 편 의 점","category":"other"}]},{"lat":"37.650415708","long":"127.30357608","imageIndex":17,"items":[{"name":"리프톤","tel":"031-591-2231","addr":"경기도 남양주시 화도읍 창현리 732-4번지 블루빌 202호","indutype":"기타 - 기계공구","category":"other"}]},{"lat":"37.64794916","long":"127.30627428","imageIndex":17,"items":[{"name":"마더코아","tel":"031-595-8266","addr":"경기도 남양주시 화도읍 창현리 551-1번지 3층","indutype":"주방용구 - 주방용구","category":"other"},{"name":"세원상사","tel":"031-592-7072","addr":"경기도 남양주시 화도읍 창현리 551-1번지 웰스포 3층 수영복매장","indutype":"레져용품 - 스포츠·레져용품","category":"other"},{"name":"웰스포편의점","tel":"031-567-5600","addr":"경기도 남양주시 화도읍 창현리 551-1번지 5층","indutype":"유통업 영리 - 편 의 점","category":"other"},{"name":"지디알(GDR)골프아카데미마석","tel":"031-511-1110","addr":"경기도 남양주시 화도읍 창현리 551-1번지 웰스포빌딩 3동 3층","indutype":"레져용품 - 골프용품 전문점","category":"other"},{"name":"피오레","tel":"031-581-7030","addr":"경기도 남양주시 화도읍 창현리 551-1번지 웰스포빌딩","indutype":"신변잡화 - 액세서리","category":"other"}]},{"lat":"37.646528061","long":"127.30532803","imageIndex":17,"items":[{"name":"마석스크린골프","tel":"031-595-0752","addr":"경기도 남양주시 화도읍 창현리 555-4번지 2층","indutype":"회원제형태 - 레져업소","category":"other"}]},{"lat":"37.652614361","long":"127.30346029","imageIndex":17,"items":[{"name":"마석전기","tel":"031-594-2976","addr":"경기도 남양주시 화도읍 창현리 498-1번지","indutype":"전기제품 - 기타전기제품","category":"other"}]},{"lat":"37.643089154","long":"127.3042377","imageIndex":17,"items":[{"name":"맘스아동복","tel":"031-593-2084","addr":"경기도 남양주시 화도읍 창현리 648번지","indutype":"의류 - 아동의류","category":"other"}]},{"lat":"37.651192082","long":"127.30649144","imageIndex":17,"items":[{"name":"맵시나","tel":"031-591-5436","addr":"경기도 남양주시 화도읍 창현리 469-21번지 101호","indutype":"의류 - 정장","category":"other"},{"name":"주식회사성하트레이딩","tel":"031-592-2210","addr":"경기도 남양주시 화도읍 창현리 469-21번지","indutype":"주방용구 - 주방용식기","category":"other"},{"name":"현만물사","tel":"031-594-7807","addr":"경기도 남양주시 화도읍 창현리 469-21번지","indutype":"수리서비스 - 가정용품수리","category":"other"}]},{"lat":"37.652219902","long":"127.30621233","imageIndex":17,"items":[{"name":"명동의류","tel":"031-511-0105","addr":"경기도 남양주시 화도읍 창현리 488-3번지 1층","indutype":"의류 - 정장","category":"other"}]},{"lat":"37.652447756","long":"127.30165786","imageIndex":17,"items":[{"name":"무한컴퍼니 주식회사","tel":"02-1544-7393","addr":"경기도 남양주시 화도읍 창현리 503-9번지 마석프라자 307호","indutype":"회원제형태 - 사무서비스","category":"other"},{"name":"웰케어요양센터","tel":"031-559-5030","addr":"경기도 남양주시 화도읍 창현리 503-9번지 마석프라자 3층 304호","indutype":"기타의료기관 - 기타의료기관 및 기타","category":"other"},{"name":"웰케어주야간보호센터","tel":"031-593-5882","addr":"경기도 남양주시 화도읍 창현리 503-9번지 205,304호","indutype":"기타의료기관 - 기타의료기관 및 기타","category":"other"},{"name":"천마타일","tel":"031-511-9192","addr":"경기도 남양주시 화도읍 창현리 503-9번지 마석프라자 지하2층 8.9호","indutype":"건축자재 - 건축용 요업제품","category":"other"},{"name":"행복한침구","tel":"031-573-2790","addr":"경기도 남양주시 화도읍 창현리 503-9번지 마석프라자 111호","indutype":"직물 - 침구·수예점","category":"other"},{"name":"화도사랑채주야간보호센터","tel":"031-595-5035","addr":"경기도 남양주시 화도읍 창현리 503-9번지 마석프라자 301호","indutype":"기타의료기관 - 기타의료기관 및 기타","category":"other"}]},{"lat":"37.640838347","long":"127.30360545","imageIndex":17,"items":[{"name":"미르펫","tel":"031-559-6468","addr":"경기도 남양주시 화도읍 창현리 676-7번지 외4필지 101호","indutype":"문화.취미 - 애완동물","category":"other"},{"name":"신대륙공인중개사사무소","tel":"031-559-2255","addr":"경기도 남양주시 화도읍 창현리 676-7번지","indutype":"용역 서비스 - 부동산 중개·임대","category":"other"}]},{"lat":"37.638947576","long":"127.32032059","imageIndex":17,"items":[{"name":"미성헬스뱅크","tel":"031-527-9967","addr":"경기도 남양주시 화도읍 창현리 86-7번지","indutype":"레져용품 - 스포츠·레져용품","category":"other"}]},{"lat":"37.652608722","long":"127.30213444","imageIndex":17,"items":[{"name":"민트휴","tel":"031-000-0000","addr":"경기도 남양주시 화도읍 창현리 503-10번지 오성주택 102호","indutype":"문화.취미 - 문화취미기타","category":"other"}]},{"lat":"37.651777646","long":"127.30651649","imageIndex":17,"items":[{"name":"벨","tel":"031-594-3306","addr":"경기도 남양주시 화도읍 창현리 488-17번지","indutype":"의류 - 정장","category":"other"}]},{"lat":"37.651858645","long":"127.30655081","imageIndex":17,"items":[{"name":"복권판매점","tel":"031-577-7778","addr":"경기도 남양주시 화도읍 창현리 488-14번지 441-1외2필지 103호","indutype":"건축자재 - 조명기구","category":"other"}]},{"lat":"37.652474236","long":"127.3054088","imageIndex":17,"items":[{"name":"브이원커머스","tel":"031-594-5455","addr":"경기도 남양주시 화도읍 창현리 491-4번지 상가 1층","indutype":"의류 - 내의판매","category":"other"}]},{"lat":"37.64962003","long":"127.30818475","imageIndex":17,"items":[{"name":"브이티브이","tel":"","addr":"경기도 남양주시 화도읍 창현리 438-14번지 삼우M타운빌리지 104동 1층 102호","indutype":"용역 서비스 - 종합용역","category":"other"}]},{"lat":"37.638279776","long":"127.3139618","imageIndex":17,"items":[{"name":"삼성주물공업사","tel":"031-593-7800","addr":"경기도 남양주시 화도읍 창현리 153-2","indutype":"건축자재 - 목재·석재·철물","category":"other"}]},{"lat":"37.645555596","long":"127.30859869","imageIndex":17,"items":[{"name":"삼우산업","tel":"031-593-5011","addr":"경기도 남양주시 화도읍 창현리 396번지","indutype":"가구 - 일반가구","category":"other"}]},{"lat":"37.642669736","long":"127.30966324","imageIndex":17,"items":[{"name":"상일에스피","tel":"031-592-8120","addr":"경기도 남양주시 화도읍 창현리 383-3번지","indutype":"용역 서비스 - 종합용역","category":"other"},{"name":"현대벽난로","tel":"","addr":"경기도 남양주시 화도읍 창현리 383-3번지 1층 2호","indutype":"전기제품 - 냉열기기","category":"other"}]},{"lat":"37.639195461","long":"127.3152119","imageIndex":17,"items":[{"name":"성진기계","tel":"031-593-2375","addr":"경기도 남양주시 화도읍 창현리 156-7번지","indutype":"기타 - 기계공구","category":"other"}]},{"lat":"37.652696255","long":"127.30314333","imageIndex":17,"items":[{"name":"세븐일레븐남양주창현점","tel":"","addr":"경기도 남양주시 화도읍 창현리 501번지 광원아파트 A동 105호","indutype":"유통업 영리 - 편 의 점","category":"other"}]},{"lat":"37.649030892","long":"127.30605205","imageIndex":17,"items":[{"name":"세븐일레븐마석중학교점","tel":"","addr":"경기도 남양주시 화도읍 창현리 462-3번지 보람아트 104호","indutype":"유통업 영리 - 편 의 점","category":"other"},{"name":"창조브라인드","tel":"031-594-4363","addr":"경기도 남양주시 화도읍 창현리 462-3 보람아트프라자지하1호","indutype":"직물 - 카페트,커튼,천막,지물","category":"other"}]},{"lat":"37.652556106","long":"127.30510317","imageIndex":17,"items":[{"name":"송라문구","tel":"031-594-2580","addr":"경기도 남양주시 화도읍 창현리 493-5번지","indutype":"서적문구 - 문구용품","category":"other"}]},{"lat":"37.648805943","long":"127.30593782","imageIndex":17,"items":[{"name":"슈나애견미용카페","tel":"031-594-5906","addr":"경기도 남양주시 화도읍 창현리 547-2번지 2층","indutype":"문화.취미 - 애완동물","category":"other"}]},{"lat":"37.652588314","long":"127.3030749","imageIndex":17,"items":[{"name":"승진설비","tel":"031-594-1937","addr":"경기도 남양주시 화도읍 창현리 501번지 광원아파트","indutype":"건축자재 - 목재·석재·철물","category":"other"},{"name":"파크세탁소","tel":"031-593-1122","addr":"경기도 남양주시 화도읍 창현리 501번지 광원아파트 104호","indutype":"수리서비스 - 세탁소","category":"other"}]},{"lat":"37.64653203","long":"127.30377571","imageIndex":17,"items":[{"name":"신명세탁소","tel":"031-594-7471","addr":"경기도 남양주시 화도읍 창현리 749 신명상가2층 206","indutype":"수리서비스 - 세탁소","category":"other"},{"name":"신명인테리어","tel":"031-593-0819","addr":"경기도 남양주시 화도읍 창현리 749번지 신명상가 27호","indutype":"건축자재 - 인테리어전문","category":"other"}]},{"lat":"37.642644532","long":"127.30896066","imageIndex":17,"items":[{"name":"신성가설재","tel":"031-594-1509","addr":"경기도 남양주시 화도읍 창현리 382-6번지 외 1필지","indutype":"건축자재 - 기타건축자재","category":"other"}]},{"lat":"37.641811469","long":"127.30357539","imageIndex":17,"items":[{"name":"신안광고","tel":"031-593-6893","addr":"경기도 남양주시 화도읍 창현리 642-1","indutype":"유통업 영리 - 기타유통업","category":"other"}]},{"lat":"37.652030614","long":"127.30624555","imageIndex":17,"items":[{"name":"쌍둥이의류","tel":"031-593-0668","addr":"경기도 남양주시 화도읍 창현리 488-5","indutype":"의류 - 정장","category":"other"},{"name":"토탈의류직매장","tel":"031-559-0656","addr":"경기도 남양주시 화도읍 창현리 488-5번지","indutype":"의류 - 정장","category":"other"}]},{"lat":"37.646860718","long":"127.30560132","imageIndex":17,"items":[{"name":"씨유창현햇살점","tel":"080-080-3663","addr":"경기도 남양주시 화도읍 창현리 553-1번지 101호","indutype":"유통업 영리 - 편 의 점","category":"other"},{"name":"온실 플라워 스튜디오","tel":"031-595-9864","addr":"경기도 남양주시 화도읍 창현리 553-1번지 106(재윤상가)","indutype":"문화.취미 - 화원","category":"other"},{"name":"이쁘개","tel":"031-593-1004","addr":"경기도 남양주시 화도읍 창현리 553-1번지 재윤상사 108-2호","indutype":"문화.취미 - 애완동물","category":"other"}]},{"lat":"37.636424883","long":"127.31010207","imageIndex":17,"items":[{"name":"씨유화도보경점","tel":"031-511-7839","addr":"경기도 남양주시 화도읍 창현리 320-5번지 1동","indutype":"유통업 영리 - 편 의 점","category":"other"},{"name":"포스넷","tel":"031-559-4891","addr":"경기도 남양주시 화도읍 창현리 320-5번지 2동 2층","indutype":"사무통신 - 통신기기","category":"other"}]},{"lat":"37.649866614","long":"127.30338123","imageIndex":17,"items":[{"name":"씨유화도창현점","tel":"031-511-3565","addr":"경기도 남양주시 화도읍 창현리 727-8번지 1층","indutype":"유통업 영리 - 편 의 점","category":"other"}]},{"lat":"37.641078916","long":"127.30466012","imageIndex":17,"items":[{"name":"아스트로켐시스","tel":"070-4274-7608","addr":"경기도 남양주시 화도읍 창현리 777번지 이안남양주 104동 1203호","indutype":"서적문구 - 과학기자재","category":"other"}]},{"lat":"37.635811198","long":"127.31049607","imageIndex":17,"items":[{"name":"아이엘전기제어","tel":"031-577-1034","addr":"경기도 남양주시 화도읍 창현리 319번지","indutype":"전기제품 - 기타전기제품","category":"other"}]},{"lat":"37.650447924","long":"127.30507197","imageIndex":17,"items":[{"name":"알파오메가 마석점","tel":"031-595-8433","addr":"경기도 남양주시 화도읍 창현리 737-3번지","indutype":"신변잡화 - 기타잡화","category":"other"}]},{"lat":"37.640528134","long":"127.30158746","imageIndex":17,"items":[{"name":"에너지 원","tel":"031-513-1196","addr":"경기도 남양주시 화도읍 창현리 774번지 창현대주피오레 101동 402호","indutype":"기타 - 기계공구","category":"other"}]},{"lat":"37.6409222","long":"127.3025181","imageIndex":17,"items":[{"name":"엔엠테크","tel":"","addr":"경기도 남양주시 화도읍 창현리 703번지 한성빌라 403호","indutype":"전기제품 - 기타전기제품","category":"other"}]},{"lat":"37.639282118","long":"127.31988015","imageIndex":17,"items":[{"name":"엘엔에스(L&S furniture)","tel":"031-594-5256","addr":"경기도 남양주시 화도읍 창현리 92번지","indutype":"가구 - 일반가구","category":"other"}]},{"lat":"37.642504861","long":"127.30371414","imageIndex":17,"items":[{"name":"예경무늬목","tel":"031-593-9948","addr":"경기도 남양주시 화도읍 창현리 646-7번지","indutype":"건축자재 - 목재·석재·철물","category":"other"}]},{"lat":"37.648499967","long":"127.30580061","imageIndex":17,"items":[{"name":"오늘도 예쁘다","tel":"031-511-8654","addr":"경기도 남양주시 화도읍 창현리 547-15번지 창현빌딩 105호","indutype":"의류 - 정장","category":"other"},{"name":"초코파이","tel":"070-5208-1044","addr":"경기도 남양주시 화도읍 창현리 547-15번지 창현빌딩 105호","indutype":"의류 - 아동의류","category":"other"}]},{"lat":"37.652531772","long":"127.30404921","imageIndex":17,"items":[{"name":"옥성광고","tel":"031-594-9351","addr":"경기도 남양주시 화도읍 창현리 494-3","indutype":"용역 서비스 - 종합용역","category":"other"}]},{"lat":"37.639975736","long":"127.30621919","imageIndex":17,"items":[{"name":"용성자동문","tel":"070-4242-1017","addr":"경기도 남양주시 화도읍 창현리 663-12번지 대양하이빌 104동 102호","indutype":"회원제형태 - 기타4","category":"other"}]},{"lat":"37.641777046","long":"127.30294075","imageIndex":17,"items":[{"name":"이마트24 화도중앙점","tel":"","addr":"경기도 남양주시 화도읍 창현리 699-2번지 넝쿨가든 101호","indutype":"유통업 영리 - 편 의 점","category":"other"}]},{"lat":"37.649699913","long":"127.30864967","imageIndex":17,"items":[{"name":"이비자(IBIZA)","tel":"031-595-6331","addr":"경기도 남양주시 화도읍 창현리 438-15번지 삼우M타운빌리지 107동 401호","indutype":"수리서비스 - 기타수리서비스","category":"other"}]},{"lat":"37.65194874","long":"127.30655118","imageIndex":17,"items":[{"name":"자연으로","tel":"031-592-2999","addr":"경기도 남양주시 화도읍 창현리 488-13번지","indutype":"의류 - 정장","category":"other"}]},{"lat":"37.648256708","long":"127.30579962","imageIndex":17,"items":[{"name":"자전거리(LEE)","tel":"031-595-8048","addr":"경기도 남양주시 화도읍 창현리 547-1번지","indutype":"레져용품 - 스포츠·레져용품","category":"other"},{"name":"행복한하우징","tel":"031-594-2181","addr":"경기도 남양주시 화도읍 창현리 547-1번지 1층","indutype":"건축자재 - 인테리어전문","category":"other"},{"name":"힐링실내테니스아카데미","tel":"031-853-5411","addr":"경기도 남양주시 화도읍 창현리 547-1번지 지하1층","indutype":"레져용품 - 스포츠·레져용품","category":"other"}]},{"lat":"37.647725056","long":"127.30583145","imageIndex":17,"items":[{"name":"제이제이다이어트복싱","tel":"031-594-5582","addr":"경기도 남양주시 화도읍 창현리 551-2번지 2층","indutype":"회원제형태 - 레져업소","category":"other"}]},{"lat":"37.64600095","long":"127.31057208","imageIndex":17,"items":[{"name":"주노디자인","tel":"031-511-4253","addr":"경기도 남양주시 화도읍 창현리 399","indutype":"가구 - 일반가구","category":"other"}]},{"lat":"37.63689568","long":"127.30922031","imageIndex":17,"items":[{"name":"주식회사 피스티스","tel":"031-511-2915","addr":"경기도 남양주시 화도읍 창현리 326-1번지 1호","indutype":"사무통신 - 컴퓨터","category":"other"}]},{"lat":"37.650336523","long":"127.30635198","imageIndex":17,"items":[{"name":"줄리앤줄리아","tel":"031-593-1056","addr":"경기도 남양주시 화도읍 창현리 469-3번지 1층","indutype":"의류 - 정장","category":"other"}]},{"lat":"37.65247252","long":"127.30607737","imageIndex":17,"items":[{"name":"지오유통","tel":"031-593-3111","addr":"경기도 남양주시 화도읍 창현리 488-6번지","indutype":"전기제품 - 가전제품","category":"other"}]},{"lat":"37.639505908","long":"127.30321487","imageIndex":17,"items":[{"name":"크린에이드","tel":"031-594-8281","addr":"경기도 남양주시 화도읍 창현리 680-2번지 1층 102호","indutype":"수리서비스 - 세탁소","category":"other"}]},{"lat":"37.641254288","long":"127.30301796","imageIndex":17,"items":[{"name":"크린토피아 창현이안점","tel":"031-511-0311","addr":"경기도 남양주시 화도읍 창현리 696-1번지 장흥빌딩 1층 103호","indutype":"수리서비스 - 세탁소","category":"other"}]},{"lat":"37.650055238","long":"127.30360862","imageIndex":17,"items":[{"name":"펫츠헬스(수제명가)","tel":"","addr":"경기도 남양주시 화도읍 창현리 727-3번지 1층","indutype":"문화.취미 - 애완동물","category":"other"}]},{"lat":"37.652530556","long":"127.30452515","imageIndex":17,"items":[{"name":"푸드독","tel":"","addr":"경기도 남양주시 화도읍 창현리 494-18번지 102호","indutype":"문화.취미 - 애완동물","category":"other"}]},{"lat":"37.652557962","long":"127.30437794","imageIndex":17,"items":[{"name":"하은맘","tel":"031-511-9967","addr":"경기도 남양주시 화도읍 창현리 494-4번지 1층","indutype":"의류 - 정장","category":"other"}]},{"lat":"37.633557566","long":"127.32446673","imageIndex":17,"items":[{"name":"한솔화학","tel":"031-594-3100","addr":"경기도 남양주시 화도읍 창현리 23-1번지","indutype":"건축자재 - 기타건축자재","category":"other"}]},{"lat":"37.650220667","long":"127.30232882","imageIndex":17,"items":[{"name":"해뜸스튜디오","tel":"","addr":"경기도 남양주시 화도읍 창현리 725-1번지 2동 202층","indutype":"광학제품 - 사진관","category":"other"}]},{"lat":"37.651498408","long":"127.30649269","imageIndex":17,"items":[{"name":"핸드폰가게화도점","tel":"031-592-6018","addr":"경기도 남양주시 화도읍 창현리 488-20번지","indutype":"사무통신 - 통신기기","category":"other"}]},{"lat":"37.650446413","long":"127.3056612","imageIndex":17,"items":[{"name":"핸드폰나라","tel":"031-595-2788","addr":"경기도 남양주시 화도읍 창현리 736-2번지 4호","indutype":"사무통신 - 통신기기","category":"other"}]},{"lat":"37.651195574","long":"127.30513166","imageIndex":17,"items":[{"name":"행복재활용센터","tel":"070-8150-8670","addr":"경기도 남양주시 화도읍 창현리 482-7번지","indutype":"전기제품 - 가전제품","category":"other"}]},{"lat":"37.633340256","long":"127.32154292","imageIndex":17,"items":[{"name":"헤세드LED조명","tel":"031-593-7667","addr":"경기도 남양주시 화도읍 창현리 258번지","indutype":"건축자재 - 조명기구","category":"other"}]},{"lat":"37.651086326","long":"127.30557315","imageIndex":17,"items":[{"name":"화도천막","tel":"031-595-1107","addr":"경기도 남양주시 화도읍 창현리 484-9번지","indutype":"직물 - 카페트,커튼,천막,지물","category":"other"}]},{"lat":"37.65028197","long":"127.30654439","imageIndex":17,"items":[{"name":"화도특수여객","tel":"031-593-5600","addr":"경기도 남양주시 화도읍 창현리 468-4번지 2층","indutype":"용역 서비스 - 가례서비스업","category":"other"}]},{"lat":"37.649755612","long":"127.30096719","imageIndex":17,"items":[{"name":"화도프로테크","tel":"070-5142-1743","addr":"경기도 남양주시 화도읍 창현리 529-5번지","indutype":"레져용품 - 스포츠·레져용품","category":"other"}]},{"lat":"37.643366004","long":"127.30869169","imageIndex":17,"items":[{"name":"환모형","tel":"031-595-0244","addr":"경기도 남양주시 화도읍 창현리 382-2","indutype":"용역 서비스 - 사무서비스","category":"other"}]},{"lat":"37.639531523","long":"127.30377013","imageIndex":17,"items":[{"name":"희망대박통신","tel":"031-559-0008","addr":"경기도 남양주시 화도읍 창현리 679-2 1층 698","indutype":"사무통신 - 통신기기","category":"other"}]}]