[{"lat":"37.115947138","long":"126.95051783","imageIndex":17,"items":[{"name":"(주)그린펫푸드","tel":"031-352-2533","addr":"경기도 화성시 향남읍 백토리 237번지","indutype":"문화.취미 - 애완동물","category":"other"},{"name":"주식회사 마루","tel":"031-353-1003","addr":"경기도 화성시 향남읍 백토리 237번지 외2필지","indutype":"전기제품 - 기타전기제품","category":"other"}]},{"lat":"37.123807182","long":"126.9381008","imageIndex":17,"items":[{"name":"(주)나이스조명","tel":"031-1899-1823","addr":"경기도 화성시 향남읍 백토리 449-4번지","indutype":"건축자재 - 조명기구","category":"other"}]},{"lat":"37.115532106","long":"126.94929171","imageIndex":17,"items":[{"name":"(주)송경","tel":"031-354-8293","addr":"경기도 화성시 향남읍 백토리 276-1번지","indutype":"기타 - 기계공구","category":"other"}]},{"lat":"37.11992419","long":"126.93909429","imageIndex":17,"items":[{"name":"까로텍","tel":"031-353-4332","addr":"경기도 화성시 향남읍 백토리 516","indutype":"전기제품 - 기타전기제품","category":"other"}]},{"lat":"37.113532956","long":"126.95198213","imageIndex":17,"items":[{"name":"나노특수용접","tel":"070-7576-1088","addr":"경기도 화성시 향남읍 백토리 217-4번지","indutype":"기타 - 기계공구","category":"other"}]},{"lat":"37.118307079","long":"126.94870467","imageIndex":17,"items":[{"name":"넘버원유통","tel":"070-8865-1513","addr":"경기도 화성시 향남읍 백토리 323-4번지","indutype":"유통업 영리 - 기타유통업","category":"other"}]},{"lat":"37.120228603","long":"126.95395801","imageIndex":17,"items":[{"name":"네추럴프로","tel":"070-4104-7982","addr":"경기도 화성시 향남읍 백토리 125번지","indutype":"문화.취미 - 애완동물","category":"other"}]},{"lat":"37.119224702","long":"126.94562099","imageIndex":17,"items":[{"name":"다원테크","tel":"031-359-9790","addr":"경기도 화성시 향남읍 백토리 364-3번지","indutype":"기타 - 기계공구","category":"other"}]},{"lat":"37.118229471","long":"126.95696352","imageIndex":17,"items":[{"name":"달빛여울","tel":"031-354-0286","addr":"경기도 화성시 향남읍 백토리 176번지","indutype":"사무통신 - 기타 사무용품","category":"other"}]},{"lat":"37.124113434","long":"126.93790925","imageIndex":17,"items":[{"name":"대한상사","tel":"031-354-0304","addr":"경기도 화성시 향남읍 백토리 449-5번지 가동","indutype":"신변잡화 - 기타잡화","category":"other"}]},{"lat":"37.118611829","long":"126.94529515","imageIndex":17,"items":[{"name":"비에스테크","tel":"031-353-8484","addr":"경기도 화성시 향남읍 백토리 363-6번지","indutype":"기타 - 기계공구","category":"other"},{"name":"에어콤프레샤","tel":"070-8778-8786","addr":"경기도 화성시 향남읍 백토리 363-6번지","indutype":"기타 - 기계공구","category":"other"}]},{"lat":"37.118583598","long":"126.94287603","imageIndex":17,"items":[{"name":"싸이(PSY)냉난방/개별화물","tel":"","addr":"경기도 화성시 향남읍 백토리 557-3번지","indutype":"용역 서비스 - 기타용역서비스","category":"other"}]},{"lat":"37.125033406","long":"126.93957387","imageIndex":17,"items":[{"name":"주식회사에이원씨엔에스","tel":"031-366-4221","addr":"경기도 화성시 향남읍 백토리 441-4번지","indutype":"기타 - 기계공구","category":"other"}]},{"lat":"37.11925216","long":"126.94650987","imageIndex":17,"items":[{"name":"태성천막공업","tel":"031-353-6933","addr":"경기도 화성시 향남읍 백토리 387번지","indutype":"직물 - 카페트,커튼,천막,지물","category":"other"}]},{"lat":"37.115309941","long":"126.95665024","imageIndex":0,"items":[{"name":"(주)셀텍","tel":"031-352-2059","addr":"경기도 화성시 향남읍 백토리 187-5","indutype":"자동차정비 유지 - 윤활유 전문 판매","category":"car"}]},{"lat":"37.116838995","long":"126.95010091","imageIndex":0,"items":[{"name":"119정비모터스","tel":"031-354-9977","addr":"경기도 화성시 향남읍 백토리 243번지","indutype":"자동차정비 유지 - 자동차정비","category":"car"}]},{"lat":"37.125281907","long":"126.95024133","imageIndex":0,"items":[{"name":"동진","tel":"031-354-8811","addr":"경기도 화성시 향남읍 백토리 57-1","indutype":"자동차정비 유지 - 카인테리어","category":"car"}]},{"lat":"37.118478","long":"126.94809695","imageIndex":7,"items":[{"name":"그린식자재유통","tel":"031-366-3060","addr":"경기도 화성시 향남읍 백토리 325","indutype":"음료식품 - 기타음료식품","category":"food"}]},{"lat":"37.118307079","long":"126.94870467","imageIndex":7,"items":[{"name":"삼다수화성","tel":"070-4132-7009","addr":"경기도 화성시 향남읍 백토리 323-4번지","indutype":"음료식품 - 기타음료식품","category":"food"}]},{"lat":"37.124113434","long":"126.93790925","imageIndex":7,"items":[{"name":"주식회사 케이엔유통","tel":"031-354-0304","addr":"경기도 화성시 향남읍 백토리 449-5번지","indutype":"음료식품 - 기타음료식품","category":"food"}]},{"lat":"37.113612357","long":"126.94817921","imageIndex":7,"items":[{"name":"하이즈F&G","tel":"031-406-7680","addr":"경기도 화성시 향남읍 백토리 226-48번지","indutype":"음료식품 - 미곡상","category":"food"}]},{"lat":"37.116334391","long":"126.9500675","imageIndex":4,"items":[{"name":"만석한식뷔페","tel":"031-8059-7857","addr":"경기도 화성시 향남읍 백토리 238-4번지 1층","indutype":"일반휴게음식 - 일반한식","category":"restaurant"}]},{"lat":"37.115036313","long":"126.94881951","imageIndex":4,"items":[{"name":"백토한식부페","tel":"031-353-9366","addr":"경기도 화성시 향남읍 백토리 279번지","indutype":"일반휴게음식 - 일반한식","category":"restaurant"}]},{"lat":"37.125254624","long":"126.94967871","imageIndex":4,"items":[{"name":"양평해장국","tel":"031-353-2202","addr":"경기도 화성시 향남읍 백토리 58","indutype":"일반휴게음식 - 일반한식","category":"restaurant"},{"name":"해나밥집","tel":"031-354-6319","addr":"경기도 화성시 향남읍 백토리 58번지 1층","indutype":"일반휴게음식 - 일반한식","category":"restaurant"}]},{"lat":"37.121695251","long":"126.9491861","imageIndex":4,"items":[{"name":"우리식당","tel":"031-352-0534","addr":"경기도 화성시 향남읍 백토리 405-22번지","indutype":"일반휴게음식 - 일반한식","category":"restaurant"}]},{"lat":"37.120866105","long":"126.94879286","imageIndex":4,"items":[{"name":"청솔한식부페","tel":"031-366-5324","addr":"경기도 화성시 향남읍 백토리 404번지","indutype":"일반휴게음식 - 일반한식","category":"restaurant"}]},{"lat":"37.1178634","long":"126.94415929","imageIndex":4,"items":[{"name":"투더리 삼겹살","tel":"031-353-3762","addr":"경기도 화성시 향남읍 백토리 345-16번지 101호","indutype":"일반휴게음식 - 일반한식","category":"restaurant"}]},{"lat":"37.124896713","long":"126.9367608","imageIndex":4,"items":[{"name":"행복나루","tel":"031-8059-5290","addr":"경기도 화성시 향남읍 백토리 443-2번지","indutype":"일반휴게음식 - 일반한식","category":"restaurant"}]},{"lat":"37.116334391","long":"126.9500675","imageIndex":7,"items":[{"name":"예스마트","tel":"031-353-1244","addr":"경기도 화성시 향남읍 백토리 238-4번지","indutype":"유통업 영리 - 슈퍼마켓","category":"mart"}]},{"lat":"37.1178634","long":"126.94415929","imageIndex":7,"items":[{"name":"원(할인)마트","tel":"031-354-5849","addr":"경기도 화성시 향남읍 백토리 345-16번지 102호","indutype":"유통업 영리 - 슈퍼마켓","category":"mart"}]},{"lat":"37.118529785","long":"126.94337115","imageIndex":16,"items":[{"name":"햇님이놀러온어린이집[아이행복]","tel":"031-8059-1177","addr":"경기도 화성시 향남읍 백토리 575-10","indutype":"학원 - 유아원","category":"study"}]},{"lat":"37.11975509","long":"126.94312264","imageIndex":16,"items":[{"name":"향남초등학교병설유치원[아이행복]","tel":"031-352-3972","addr":"경기도 화성시 향남읍 백토리 551번지 향남초등학교","indutype":"학원 - 유치원","category":"study"}]}]