[{"lat":"37.260856405","long":"127.21384383","imageIndex":16,"items":[{"name":"르프랑미술교습소","tel":"031-338-9788","addr":"경기도 용인시 처인구 유방동 247-1번지 태권빌딩 2동 1층","indutype":"학원 - 예·체능계학원","category":"study"}]},{"lat":"37.264601799","long":"127.21545511","imageIndex":16,"items":[{"name":"비바영어학원","tel":"031-335-0509","addr":"경기도 용인시 처인구 유방동 1007-20번지 유정레포츠 상가 2층 204호","indutype":"학원 - 외국어학원","category":"study"},{"name":"우리나라태권도","tel":"031-323-4565","addr":"경기도 용인시 처인구 유방동 1007-20번지 인정레포츠센터 303호","indutype":"학원 - 예·체능계학원","category":"study"},{"name":"최고스터디학원","tel":"031-336-0582","addr":"경기도 용인시 처인구 유방동 1007-20번지 (304,305,306)","indutype":"회원제형태 - 학원","category":"study"},{"name":"프린스해법에듀수학교습소","tel":"070-8946-5662","addr":"경기도 용인시 처인구 유방동 1007-20번지 인정레포츠센터 122호","indutype":"학원 - 보습학원","category":"study"},{"name":"햇님나라음악학원","tel":"031-321-5789","addr":"경기도 용인시 처인구 유방동 1007-20번지","indutype":"학원 - 예·체능계학원","category":"study"}]},{"lat":"37.260135485","long":"127.21389819","imageIndex":16,"items":[{"name":"비타러닝실로암학원","tel":"031-321-7889","addr":"경기도 용인시 처인구 유방동 246-3번지 2층","indutype":"학원 - 보습학원","category":"study"}]},{"lat":"37.260890331","long":"127.21502758","imageIndex":16,"items":[{"name":"셀파우등생교실","tel":"070-8940-0177","addr":"경기도 용인시 처인구 유방동 284-1번지 웰튼빌 3동 201호","indutype":"회원제형태 - 학원","category":"study"}]},{"lat":"37.259160729","long":"127.21481983","imageIndex":16,"items":[{"name":"소리샘음악교습소","tel":"031-322-3312","addr":"경기도 용인시 처인구 유방동 290-5번지 SR프리스틴 가동 101호","indutype":"학원 - 예·체능계학원","category":"study"}]},{"lat":"37.257967098","long":"127.21215617","imageIndex":16,"items":[{"name":"에스앤앰 운동연구소(S&M exercise lab)","tel":"","addr":"경기도 용인시 처인구 유방동 346-1번지 덕산빌라 302호","indutype":"학원 - 기타 교육기관","category":"study"}]},{"lat":"37.257964158","long":"127.21381322","imageIndex":16,"items":[{"name":"연세영어수학전문학원","tel":"031-335-6786","addr":"경기도 용인시 처인구 유방동 326-1","indutype":"학원 - 보습학원","category":"study"},{"name":"타이곤태권도","tel":"031-322-7798","addr":"경기도 용인시 처인구 유방동 326-1번지 2층","indutype":"학원 - 예·체능계학원","category":"study"}]},{"lat":"37.249442045","long":"127.21289904","imageIndex":16,"items":[{"name":"용인인테리어기술학원","tel":"031-336-2151","addr":"경기도 용인시 처인구 유방동 499-1번지 용호빌딩 C동 2층","indutype":"학원 - 기능학원","category":"study"}]},{"lat":"37.257046196","long":"127.21320195","imageIndex":16,"items":[{"name":"유림뮤즈음악학원","tel":"031-338-5558","addr":"경기도 용인시 처인구 유방동 329-6번지 203호","indutype":"학원 - 예·체능계학원","category":"study"}]},{"lat":"37.259218205","long":"127.21290363","imageIndex":16,"items":[{"name":"잉글리쉬무무유림학습관학원","tel":"031-322-1486","addr":"경기도 용인시 처인구 유방동 309-3번지 일부 4층","indutype":"학원 - 보습학원","category":"study"}]},{"lat":"37.258908402","long":"127.21484166","imageIndex":16,"items":[{"name":"참자람보습학원","tel":"031-334-9096","addr":"경기도 용인시 처인구 유방동 315-1번지 수정빌딩 2층","indutype":"학원 - 보습학원","category":"study"}]},{"lat":"37.258162383","long":"127.21381377","imageIndex":16,"items":[{"name":"탑영어교습소","tel":"","addr":"경기도 용인시 처인구 유방동 312-2번지 1층","indutype":"학원 - 외국어학원","category":"study"}]},{"lat":"37.258938347","long":"127.21320721","imageIndex":16,"items":[{"name":"피아노로여는세상학원","tel":"031-321-9974","addr":"경기도 용인시 처인구 유방동 310-1번지 2층","indutype":"학원 - 예·체능계학원","category":"study"}]},{"lat":"37.254161714","long":"127.21387025","imageIndex":16,"items":[{"name":"하얀세상 주식회사","tel":"031-322-0509","addr":"경기도 용인시 처인구 유방동 468-15번지 111호","indutype":"학원 - 기타 교육기관","category":"study"}]}]