[{"lat":"37.656751869","long":"127.28811011","imageIndex":4,"items":[{"name":"(주)천마산강장어","tel":"031-593-0592","addr":"경기도 남양주시 화도읍 묵현리 293번지","indutype":"일반휴게음식 - 일반한식","category":"restaurant"}]},{"lat":"37.653975159","long":"127.2735491","imageIndex":4,"items":[{"name":"(주)커피빈코리아 남양주화도DT점","tel":"031-591-2406","addr":"경기도 남양주시 화도읍 묵현리 411-4번지","indutype":"일반휴게음식 - 서양음식","category":"restaurant"}]},{"lat":"37.655251001","long":"127.27508359","imageIndex":4,"items":[{"name":"3시30분","tel":"031-592-5756","addr":"경기도 남양주시 화도읍 묵현리 422-5번지 108호 107호,108호","indutype":"일반휴게음식 - 일반한식","category":"restaurant"},{"name":"치킨플러스(묵현점)","tel":"031-559-1253","addr":"경기도 남양주시 화도읍 묵현리 422-5번지 1층 103호","indutype":"일반휴게음식 - 스넥","category":"restaurant"},{"name":"퀸차이","tel":"031-559-7774","addr":"경기도 남양주시 화도읍 묵현리 422-5번지","indutype":"일반휴게음식 - 중국식","category":"restaurant"}]},{"lat":"37.653611647","long":"127.27490763","imageIndex":4,"items":[{"name":"Analog gadget (아날로그가제트)","tel":"031-000-0000","addr":"경기도 남양주시 화도읍 묵현리 411-21번지 4층","indutype":"일반휴게음식 - 일반한식","category":"restaurant"},{"name":"고기왕궁","tel":"031-592-8858","addr":"경기도 남양주시 화도읍 묵현리 411-21번지 3층","indutype":"일반휴게음식 - 일반한식","category":"restaurant"},{"name":"남양수원갈비","tel":"031-592-8858","addr":"경기도 남양주시 화도읍 묵현리 411-21번지 3층","indutype":"일반휴게음식 - 일반한식","category":"restaurant"}]},{"lat":"37.656973813","long":"127.28947086","imageIndex":4,"items":[{"name":"New(뉴)코끼리호프","tel":"070-8867-6736","addr":"경기도 남양주시 화도읍 묵현리 289-8번지 2층","indutype":"일반휴게음식 - 주점","category":"restaurant"}]},{"lat":"37.663833116","long":"127.29560602","imageIndex":4,"items":[{"name":"THE SWEET(더스윗)","tel":"031-528-6263","addr":"경기도 남양주시 화도읍 묵현리 120번지","indutype":"일반휴게음식 - 서양음식","category":"restaurant"},{"name":"어느오후","tel":"031-559-6623","addr":"경기도 남양주시 화도읍 묵현리 120번지","indutype":"일반휴게음식 - 일반한식","category":"restaurant"}]},{"lat":"37.663663964","long":"127.29840474","imageIndex":4,"items":[{"name":"가정식포차","tel":"","addr":"경기도 남양주시 화도읍 묵현리 126-21번지 파인힐하우스 A동 101호","indutype":"일반휴게음식 - 일반한식","category":"restaurant"}]},{"lat":"37.656726426","long":"127.27601824","imageIndex":4,"items":[{"name":"간이역 홍제동 우동국수","tel":"031-592-0048","addr":"경기도 남양주시 화도읍 묵현리 403-2번지 1층 102호","indutype":"일반휴게음식 - 일반한식","category":"restaurant"},{"name":"신통치킨","tel":"031-593-1666","addr":"경기도 남양주시 화도읍 묵현리 403-2번지 1층","indutype":"일반휴게음식 - 스넥","category":"restaurant"},{"name":"청춘곱창","tel":"031-594-2347","addr":"경기도 남양주시 화도읍 묵현리 403-2번지 1층","indutype":"일반휴게음식 - 일반한식","category":"restaurant"}]},{"lat":"37.654610561","long":"127.27540988","imageIndex":4,"items":[{"name":"거네스","tel":"031-592-2767","addr":"경기도 남양주시 화도읍 묵현리 390번지 1동 3층","indutype":"일반휴게음식 - 서양음식","category":"restaurant"}]},{"lat":"37.658530254","long":"127.28666632","imageIndex":4,"items":[{"name":"고구맘 천마산역점","tel":"031-595-0698","addr":"경기도 남양주시 화도읍 묵현리 327-3번지","indutype":"일반휴게음식 - 일반한식","category":"restaurant"}]},{"lat":"37.656585795","long":"127.28971868","imageIndex":4,"items":[{"name":"고엔","tel":"","addr":"경기도 남양주시 화도읍 묵현리 241-43번지 나동 202, 203호","indutype":"일반휴게음식 - 일식·회집","category":"restaurant"},{"name":"제주뒷고기","tel":"031-594-9931","addr":"경기도 남양주시 화도읍 묵현리 241-43번지 3동 201호 (외 3필지)","indutype":"일반휴게음식 - 일반한식","category":"restaurant"}]},{"lat":"37.658806428","long":"127.27263735","imageIndex":4,"items":[{"name":"골목지짐이","tel":"","addr":"경기도 남양주시 화도읍 묵현리 573-6번지 예스그린빌라 1층 105호","indutype":"일반휴게음식 - 일반한식","category":"restaurant"}]},{"lat":"37.657253271","long":"127.27416163","imageIndex":4,"items":[{"name":"공릉동멸치국수","tel":"031-591-9280","addr":"경기도 남양주시 화도읍 묵현리 457-2번지","indutype":"일반휴게음식 - 스넥","category":"restaurant"},{"name":"돼지나라","tel":"031-511-4525","addr":"경기도 남양주시 화도읍 묵현리 457-2번지","indutype":"일반휴게음식 - 서양음식","category":"restaurant"},{"name":"분식왕","tel":"031-594-1741","addr":"경기도 남양주시 화도읍 묵현리 457-2번지","indutype":"일반휴게음식 - 일반한식","category":"restaurant"}]},{"lat":"37.669412502","long":"127.30182786","imageIndex":4,"items":[{"name":"구쯔커피(goods coffee)","tel":"031-559-0332","addr":"경기도 남양주시 화도읍 묵현리 18-8번지 1층","indutype":"일반휴게음식 - 서양음식","category":"restaurant"}]},{"lat":"37.657748303","long":"127.27437875","imageIndex":4,"items":[{"name":"기가찬곱창","tel":"031-591-5688","addr":"경기도 남양주시 화도읍 묵현리 437번지","indutype":"일반휴게음식 - 일반한식","category":"restaurant"},{"name":"더비어","tel":"031-559-9479","addr":"경기도 남양주시 화도읍 묵현리 437번지","indutype":"일반휴게음식 - 주점","category":"restaurant"},{"name":"우리밀차돌짬뽕","tel":"031-595-7615","addr":"경기도 남양주시 화도읍 묵현리 437번지 1층 일부(106호)","indutype":"일반휴게음식 - 중국식","category":"restaurant"}]},{"lat":"37.657005067","long":"127.27630257","imageIndex":4,"items":[{"name":"김밥나라","tel":"031-592-1181","addr":"경기도 남양주시 화도읍 묵현리 466-1번지","indutype":"일반휴게음식 - 일반한식","category":"restaurant"},{"name":"네네치킨 천마산점","tel":"031-559-9233","addr":"경기도 남양주시 화도읍 묵현리 466-1번지","indutype":"일반휴게음식 - 스넥","category":"restaurant"},{"name":"산오징어물회냉면","tel":"031-593-0805","addr":"경기도 남양주시 화도읍 묵현리 466-1 산오징어물회냉면","indutype":"일반휴게음식 - 일반한식","category":"restaurant"}]},{"lat":"37.656917984","long":"127.27499901","imageIndex":4,"items":[{"name":"김밥천국","tel":"031-573-3010","addr":"경기도 남양주시 화도읍 묵현리 435-1번지","indutype":"일반휴게음식 - 일반한식","category":"restaurant"},{"name":"봉구스밥버거 묵현","tel":"031-595-0081","addr":"경기도 남양주시 화도읍 묵현리 435-1번지","indutype":"일반휴게음식 - 일반한식","category":"restaurant"},{"name":"처음처럼","tel":"031-591-8466","addr":"경기도 남양주시 화도읍 묵현리 435-1번지","indutype":"일반휴게음식 - 일반한식","category":"restaurant"}]},{"lat":"37.664114828","long":"127.30182928","imageIndex":4,"items":[{"name":"까사드331","tel":"031-559-8754","addr":"경기도 남양주시 화도읍 묵현리 33-1번지 외5필지","indutype":"일반휴게음식 - 일반한식","category":"restaurant"}]},{"lat":"37.658524196","long":"127.27391693","imageIndex":4,"items":[{"name":"깡돈","tel":"031-591-9595","addr":"경기도 남양주시 화도읍 묵현리 454번지 천마주택 1층 104호","indutype":"일반휴게음식 - 일반한식","category":"restaurant"},{"name":"홍콩반점","tel":"031-559-2211","addr":"경기도 남양주시 화도읍 묵현리 454번지 천마주택","indutype":"일반휴게음식 - 중국식","category":"restaurant"}]},{"lat":"37.657920314","long":"127.28927051","imageIndex":4,"items":[{"name":"깻잎치킨 마석점","tel":"","addr":"경기도 남양주시 화도읍 묵현리 298-1번지 1층","indutype":"일반휴게음식 - 스넥","category":"restaurant"},{"name":"동네집밥","tel":"070-8823-4111","addr":"경기도 남양주시 화도읍 묵현리 298-1번지 101호","indutype":"일반휴게음식 - 일반한식","category":"restaurant"}]},{"lat":"37.657335763","long":"127.28882629","imageIndex":4,"items":[{"name":"남대문황금족발","tel":"031-593-7787","addr":"경기도 남양주시 화도읍 묵현리 290-19번지","indutype":"일반휴게음식 - 일반한식","category":"restaurant"},{"name":"천금닭갈비","tel":"031-591-5785","addr":"경기도 남양주시 화도읍 묵현리 290-19번지 3,4호","indutype":"일반휴게음식 - 일반한식","category":"restaurant"}]},{"lat":"37.661857451","long":"127.29299161","imageIndex":4,"items":[{"name":"논골추어탕","tel":"031-591-5988","addr":"경기도 남양주시 화도읍 묵현리 224-2","indutype":"일반휴게음식 - 일반한식","category":"restaurant"}]},{"lat":"37.656358265","long":"127.2906584","imageIndex":4,"items":[{"name":"높은음자리","tel":"031-566-7080","addr":"경기도 남양주시 화도읍 묵현리 241-11","indutype":"일반휴게음식 - 주점","category":"restaurant"}]},{"lat":"37.656837342","long":"127.27480607","imageIndex":4,"items":[{"name":"대원식당 묵현점","tel":"031-511-8012","addr":"경기도 남양주시 화도읍 묵현리 435-3번지 1층","indutype":"일반휴게음식 - 일반한식","category":"restaurant"}]},{"lat":"37.658136601","long":"127.27399485","imageIndex":4,"items":[{"name":"더치페이","tel":"031-593-0662","addr":"경기도 남양주시 화도읍 묵현리 455-5번지 모던빌 107호","indutype":"일반휴게음식 - 주점","category":"restaurant"},{"name":"영산포홍어집","tel":"031-511-9838","addr":"경기도 남양주시 화도읍 묵현리 455-5번지 모던빌 104호","indutype":"일반휴게음식 - 일반한식","category":"restaurant"},{"name":"찰솥밥집","tel":"031-511-1151","addr":"경기도 남양주시 화도읍 묵현리 455-5번지 모던빌 108호","indutype":"일반휴게음식 - 일반한식","category":"restaurant"}]},{"lat":"37.66589017","long":"127.30165506","imageIndex":4,"items":[{"name":"동네치킨","tel":"031-592-5388","addr":"경기도 남양주시 화도읍 묵현리 25-3번지","indutype":"일반휴게음식 - 스넥","category":"restaurant"},{"name":"송라갈비","tel":"031-593-5539","addr":"경기도 남양주시 화도읍 묵현리 25-3번지 1층","indutype":"일반휴게음식 - 일반한식","category":"restaurant"}]},{"lat":"37.658748589","long":"127.28952301","imageIndex":4,"items":[{"name":"동의명가칼국수(남양주점)","tel":"031-511-5850","addr":"경기도 남양주시 화도읍 묵현리 299-1번지 1층","indutype":"일반휴게음식 - 일반한식","category":"restaurant"}]},{"lat":"37.657580037","long":"127.28840792","imageIndex":4,"items":[{"name":"땡초우동in포차","tel":"031-511-9211","addr":"경기도 남양주시 화도읍 묵현리 297-3번지 주2동 1층 102호","indutype":"일반휴게음식 - 일반한식","category":"restaurant"},{"name":"천마산토종순대국","tel":"031-593-3912","addr":"경기도 남양주시 화도읍 묵현리 297-3번지","indutype":"일반휴게음식 - 일반한식","category":"restaurant"}]},{"lat":"37.656360142","long":"127.2898878","imageIndex":4,"items":[{"name":"락","tel":"031-594-4755","addr":"경기도 남양주시 화도읍 묵현리 241-3번지 3층","indutype":"일반휴게음식 - 주점","category":"restaurant"},{"name":"추오정남원추어탕","tel":"031-595-0074","addr":"경기도 남양주시 화도읍 묵현리 241-3번지 1층","indutype":"일반휴게음식 - 일반한식","category":"restaurant"}]},{"lat":"37.664193738","long":"127.29185601","imageIndex":4,"items":[{"name":"로히 메르시","tel":"031-591-3399","addr":"경기도 남양주시 화도읍 묵현리 196-2번지 지하1층","indutype":"일반휴게음식 - 일반한식","category":"restaurant"}]},{"lat":"37.665891718","long":"127.30104303","imageIndex":4,"items":[{"name":"류차이(마석점)","tel":"031-594-4149","addr":"경기도 남양주시 화도읍 묵현리 25-6번지","indutype":"일반휴게음식 - 중국식","category":"restaurant"}]},{"lat":"37.664612533","long":"127.30096992","imageIndex":4,"items":[{"name":"마루벌돌구이","tel":"031-511-9226","addr":"경기도 남양주시 화도읍 묵현리 142-4번지 1층","indutype":"일반휴게음식 - 일반한식","category":"restaurant"}]},{"lat":"37.670835809","long":"127.30191291","imageIndex":4,"items":[{"name":"마석아바이순대","tel":"031-593-9978","addr":"경기도 남양주시 화도읍 묵현리 18번지 1층","indutype":"일반휴게음식 - 일반한식","category":"restaurant"},{"name":"서정가든","tel":"031-592-3308","addr":"경기도 남양주시 화도읍 묵현리 18번지 1층","indutype":"일반휴게음식 - 일반한식","category":"restaurant"}]},{"lat":"37.664774117","long":"127.30474469","imageIndex":4,"items":[{"name":"마석한우곰탕","tel":"031-511-5505","addr":"경기도 남양주시 화도읍 묵현리 50-2번지 해마루빌딩 1층 107,108호","indutype":"일반휴게음식 - 일반한식","category":"restaurant"},{"name":"요기밥","tel":"031-559-6682","addr":"경기도 남양주시 화도읍 묵현리 50-2번지 해마루빌딩 106호","indutype":"일반휴게음식 - 스넥","category":"restaurant"}]},{"lat":"37.658226762","long":"127.29290949","imageIndex":4,"items":[{"name":"마스터통삼겹 남양주마석점","tel":"031-594-0079","addr":"경기도 남양주시 화도읍 묵현리 265-1번지 필상빌딩 1층 일부","indutype":"일반휴게음식 - 일반한식","category":"restaurant"},{"name":"호식이두마리치킨","tel":"031-595-5116","addr":"경기도 남양주시 화도읍 묵현리 265-1번지","indutype":"일반휴게음식 - 스넥","category":"restaurant"}]},{"lat":"37.658108964","long":"127.28949789","imageIndex":4,"items":[{"name":"막사모","tel":"031-595-7135","addr":"경기도 남양주시 화도읍 묵현리 299-8번지","indutype":"일반휴게음식 - 일반한식","category":"restaurant"}]},{"lat":"37.65830338","long":"127.28358295","imageIndex":4,"items":[{"name":"만옥이보신탕","tel":"031-593-9079","addr":"경기도 남양주시 화도읍 묵현리 356-3번지","indutype":"일반휴게음식 - 일반한식","category":"restaurant"}]},{"lat":"37.656831537","long":"127.27341215","imageIndex":4,"items":[{"name":"맘스터치 천마산점","tel":"031-511-1633","addr":"경기도 남양주시 화도읍 묵현리 458-1번지 1동 2층","indutype":"일반휴게음식 - 일반한식","category":"restaurant"}]},{"lat":"37.656829611","long":"127.27425075","imageIndex":4,"items":[{"name":"맛집아구찜탕","tel":"031-595-7123","addr":"경기도 남양주시 화도읍 묵현리 458-4번지 1층","indutype":"일반휴게음식 - 일반한식","category":"restaurant"},{"name":"신국민닭발","tel":"031-593-1001","addr":"경기도 남양주시 화도읍 묵현리 458-4번지 1층","indutype":"일반휴게음식 - 일반한식","category":"restaurant"},{"name":"오꾸꼬","tel":"031-511-3393","addr":"경기도 남양주시 화도읍 묵현리 458-4번지","indutype":"일반휴게음식 - 스넥","category":"restaurant"},{"name":"월광","tel":"031-821-8299","addr":"경기도 남양주시 화도읍 묵현리 458-4번지","indutype":"일반휴게음식 - 일반한식","category":"restaurant"},{"name":"이디야커피점","tel":"031-595-8911","addr":"경기도 남양주시 화도읍 묵현리 458-4번지 1층","indutype":"일반휴게음식 - 서양음식","category":"restaurant"}]},{"lat":"37.657004042","long":"127.27674454","imageIndex":4,"items":[{"name":"메밀향천호동족발","tel":"031-595-8872","addr":"경기도 남양주시 화도읍 묵현리 470-4","indutype":"일반휴게음식 - 일반한식","category":"restaurant"}]},{"lat":"37.657227044","long":"127.28907519","imageIndex":4,"items":[{"name":"못말리는파닭","tel":"031-595-9285","addr":"경기도 남양주시 화도읍 묵현리 290-20번지 106호","indutype":"일반휴게음식 - 스넥","category":"restaurant"},{"name":"천마산생고기","tel":"031-511-5213","addr":"경기도 남양주시 화도읍 묵현리 290-20번지","indutype":"일반휴게음식 - 일반한식","category":"restaurant"},{"name":"커피디자인하다","tel":"031-593-2339","addr":"경기도 남양주시 화도읍 묵현리 290-20번지","indutype":"일반휴게음식 - 서양음식","category":"restaurant"}]},{"lat":"37.657197651","long":"127.28254752","imageIndex":4,"items":[{"name":"묵현곰탕","tel":"031-559-1640","addr":"경기도 남양주시 화도읍 묵현리 369-1번지 한림주택 102호","indutype":"일반휴게음식 - 일반한식","category":"restaurant"}]},{"lat":"37.656725244","long":"127.2765282","imageIndex":4,"items":[{"name":"묵현돼지부속","tel":"031-591-9258","addr":"경기도 남양주시 화도읍 묵현리 400-10번지 1층 8호","indutype":"일반휴게음식 - 일반한식","category":"restaurant"},{"name":"박가감자탕","tel":"031-592-9295","addr":"경기도 남양주시 화도읍 묵현리 400-10번지 1층","indutype":"일반휴게음식 - 일반한식","category":"restaurant"},{"name":"장원떡볶이","tel":"031-593-7116","addr":"경기도 남양주시 화도읍 묵현리 400-10번지","indutype":"일반휴게음식 - 스넥","category":"restaurant"}]},{"lat":"37.65727774","long":"127.27527231","imageIndex":4,"items":[{"name":"묵현식당","tel":"031-511-9772","addr":"경기도 남양주시 화도읍 묵현리 436-11번지 조은맨션 101호","indutype":"일반휴게음식 - 일반한식","category":"restaurant"}]},{"lat":"37.658808705","long":"127.28701869","imageIndex":4,"items":[{"name":"미당","tel":"031-594-5128","addr":"경기도 남양주시 화도읍 묵현리 327-1번지","indutype":"일반휴게음식 - 일반한식","category":"restaurant"},{"name":"이모네","tel":"031-528-6263","addr":"경기도 남양주시 화도읍 묵현리 327-1번지","indutype":"일반휴게음식 - 일반한식","category":"restaurant"}]},{"lat":"37.660445314","long":"127.29202281","imageIndex":4,"items":[{"name":"미소가솥뚜껑생삼겹살","tel":"031-591-4242","addr":"경기도 남양주시 화도읍 묵현리 627번지 한림미소가 301동 101호 102호","indutype":"일반휴게음식 - 일반한식","category":"restaurant"}]},{"lat":"37.659392524","long":"127.28776889","imageIndex":4,"items":[{"name":"바나바커피","tel":"070-4124-1700","addr":"경기도 남양주시 화도읍 묵현리 339-4번지 1층","indutype":"일반휴게음식 - 서양음식","category":"restaurant"}]},{"lat":"37.656198627","long":"127.27438444","imageIndex":4,"items":[{"name":"박씨아저씨","tel":"031-511-1555","addr":"경기도 남양주시 화도읍 묵현리 406-9번지","indutype":"일반휴게음식 - 일반한식","category":"restaurant"},{"name":"천마참숯갈매기살1","tel":"031-559-9294","addr":"경기도 남양주시 화도읍 묵현리 406-9번지 102호 103","indutype":"일반휴게음식 - 일반한식","category":"restaurant"}]},{"lat":"37.655886291","long":"127.28837877","imageIndex":4,"items":[{"name":"박정일코다리조림","tel":"031-512-5322","addr":"경기도 남양주시 화도읍 묵현리 286-9번지","indutype":"일반휴게음식 - 일반한식","category":"restaurant"}]},{"lat":"37.655782508","long":"127.29030487","imageIndex":4,"items":[{"name":"방일해장국","tel":"031-593-6247","addr":"경기도 남양주시 화도읍 묵현리 284-4번지","indutype":"일반휴게음식 - 일반한식","category":"restaurant"}]},{"lat":"37.651421252","long":"127.26744338","imageIndex":4,"items":[{"name":"백봉갈비","tel":"031-511-5000","addr":"경기도 남양주시 화도읍 묵현리 산203-2번지","indutype":"일반휴게음식 - 일반한식","category":"restaurant"}]},{"lat":"37.667413215","long":"127.30149115","imageIndex":4,"items":[{"name":"별미지교 주식회사","tel":"070-4121-7573","addr":"경기도 남양주시 화도읍 묵현리 23번지","indutype":"일반휴게음식 - 일반한식","category":"restaurant"}]},{"lat":"37.662944788","long":"127.29776722","imageIndex":4,"items":[{"name":"봄밀 과자점","tel":"","addr":"경기도 남양주시 화도읍 묵현리 96-1번지 202호","indutype":"일반휴게음식 - 서양음식","category":"restaurant"}]},{"lat":"37.657109442","long":"127.27791218","imageIndex":4,"items":[{"name":"봉구비어 묵현점","tel":"031-515-0047","addr":"경기도 남양주시 화도읍 묵현리 479-2번지","indutype":"일반휴게음식 - 주점","category":"restaurant"},{"name":"빠삭이와 매콤이","tel":"","addr":"경기도 남양주시 화도읍 묵현리 479-2번지","indutype":"일반휴게음식 - 스넥","category":"restaurant"},{"name":"천마뒷고기","tel":"","addr":"경기도 남양주시 화도읍 묵현리 479-2번지 1층","indutype":"일반휴게음식 - 일반한식","category":"restaurant"}]},{"lat":"37.665690897","long":"127.30207361","imageIndex":4,"items":[{"name":"부어치킨 (묵현점)","tel":"031-593-0000","addr":"경기도 남양주시 화도읍 묵현리 31-10번지 1층","indutype":"일반휴게음식 - 스넥","category":"restaurant"}]},{"lat":"37.654723085","long":"127.27349516","imageIndex":4,"items":[{"name":"뷰티카페.달","tel":"","addr":"경기도 남양주시 화도읍 묵현리 412-1번지 상가동 101호","indutype":"일반휴게음식 - 서양음식","category":"restaurant"}]},{"lat":"37.661279597","long":"127.30071859","imageIndex":4,"items":[{"name":"브로어스","tel":"070-1111-1111","addr":"경기도 남양주시 화도읍 묵현리 84번지 202호","indutype":"일반휴게음식 - 서양음식","category":"restaurant"}]},{"lat":"37.656334292","long":"127.27415828","imageIndex":4,"items":[{"name":"산마루","tel":"031-595-9369","addr":"경기도 남양주시 화도읍 묵현리 406-2번지 103호","indutype":"일반휴게음식 - 일반한식","category":"restaurant"}]},{"lat":"37.657442586","long":"127.28935933","imageIndex":4,"items":[{"name":"산수유집","tel":"031-594-2881","addr":"경기도 남양주시 화도읍 묵현리 290-9번지 1층","indutype":"일반휴게음식 - 일반한식","category":"restaurant"}]},{"lat":"37.661778536","long":"127.29210731","imageIndex":4,"items":[{"name":"산오리","tel":"031-593-3307","addr":"경기도 남양주시 화도읍 묵현리 222번지 1층","indutype":"일반휴게음식 - 일반한식","category":"restaurant"}]},{"lat":"37.663556711","long":"127.29443758","imageIndex":4,"items":[{"name":"삼겹살친구백숙","tel":"031-594-0110","addr":"경기도 남양주시 화도읍 묵현리 202번지","indutype":"일반휴게음식 - 일반한식","category":"restaurant"}]},{"lat":"37.663581365","long":"127.2917403","imageIndex":4,"items":[{"name":"석화","tel":"031-591-8287","addr":"경기도 남양주시 화도읍 묵현리 211번지","indutype":"일반휴게음식 - 일반한식","category":"restaurant"}]},{"lat":"37.657747964","long":"127.27452607","imageIndex":4,"items":[{"name":"선비골갈비","tel":"031-593-4575","addr":"경기도 남양주시 화도읍 묵현리 437-3외 1필지","indutype":"일반휴게음식 - 일반한식","category":"restaurant"}]},{"lat":"37.656832149","long":"127.27704989","imageIndex":4,"items":[{"name":"선한떡볶이","tel":"","addr":"경기도 남양주시 화도읍 묵현리 473-5번지 1층 일부","indutype":"일반휴게음식 - 스넥","category":"restaurant"}]},{"lat":"37.662781069","long":"127.30195993","imageIndex":4,"items":[{"name":"소띠돈띠 횡성생고기","tel":"031-559-8952","addr":"경기도 남양주시 화도읍 묵현리 74-8번지","indutype":"일반휴게음식 - 일반한식","category":"restaurant"},{"name":"진우네옛날통닭 마석3호점","tel":"031-511-1452","addr":"경기도 남양주시 화도읍 묵현리 74-8번지","indutype":"일반휴게음식 - 스넥","category":"restaurant"}]},{"lat":"37.658386394","long":"127.29394139","imageIndex":4,"items":[{"name":"술주전자","tel":"070-7552-1158","addr":"경기도 남양주시 화도읍 묵현리 260-21번지","indutype":"일반휴게음식 - 일반한식","category":"restaurant"}]},{"lat":"37.659307795","long":"127.27402177","imageIndex":4,"items":[{"name":"술한잔해요","tel":"031-592-5022","addr":"경기도 남양주시 화도읍 묵현리 445-1번지","indutype":"일반휴게음식 - 주점","category":"restaurant"}]},{"lat":"37.672360345","long":"127.30115959","imageIndex":4,"items":[{"name":"스카이뷰","tel":"","addr":"경기도 남양주시 화도읍 묵현리 168-3번지","indutype":"일반휴게음식 - 주점","category":"restaurant"}]},{"lat":"37.658528161","long":"127.29124474","imageIndex":4,"items":[{"name":"신의주순대국","tel":"031-529-5354","addr":"경기도 남양주시 화도읍 묵현리 239-4번지 1층 일부호","indutype":"일반휴게음식 - 일반한식","category":"restaurant"},{"name":"아지트","tel":"031-594-1810","addr":"경기도 남양주시 화도읍 묵현리 239-4번지 리라 상가 102호","indutype":"일반휴게음식 - 주점","category":"restaurant"}]},{"lat":"37.652637339","long":"127.27152717","imageIndex":4,"items":[{"name":"실버플레이트","tel":"070-8692-0027","addr":"경기도 남양주시 화도읍 묵현리 604-10번지","indutype":"일반휴게음식 - 서양음식","category":"restaurant"}]},{"lat":"37.65653132","long":"127.278556","imageIndex":4,"items":[{"name":"아메리","tel":"031-593-3149","addr":"경기도 남양주시 화도읍 묵현리 478-5번지 도시그린아파트 102호","indutype":"일반휴게음식 - 서양음식","category":"restaurant"}]},{"lat":"37.658388237","long":"127.29319344","imageIndex":4,"items":[{"name":"아주싸고맛있는족발","tel":"070-1111-1111","addr":"경기도 남양주시 화도읍 묵현리 260번지 1층 일부","indutype":"일반휴게음식 - 일반한식","category":"restaurant"},{"name":"호프마차","tel":"031-511-4890","addr":"경기도 남양주시 화도읍 묵현리 260번지","indutype":"일반휴게음식 - 주점","category":"restaurant"},{"name":"호프마차2","tel":"070-8158-0180","addr":"경기도 남양주시 화도읍 묵현리 260번지","indutype":"일반휴게음식 - 주점","category":"restaurant"}]},{"lat":"37.671440023","long":"127.30168864","imageIndex":4,"items":[{"name":"안동종가집갈비","tel":"031-559-3315","addr":"경기도 남양주시 화도읍 묵현리 163-10번지","indutype":"일반휴게음식 - 일반한식","category":"restaurant"}]},{"lat":"37.663278144","long":"127.30134992","imageIndex":4,"items":[{"name":"야호","tel":"031-511-9294","addr":"경기도 남양주시 화도읍 묵현리 73번지 1층","indutype":"일반휴게음식 - 일반한식","category":"restaurant"}]},{"lat":"37.666330575","long":"127.30207618","imageIndex":4,"items":[{"name":"여보갈비","tel":"031-511-5333","addr":"경기도 남양주시 화도읍 묵현리 24-11번지 삼청장미9차아파트","indutype":"일반휴게음식 - 일반한식","category":"restaurant"}]},{"lat":"37.656976039","long":"127.27716374","imageIndex":4,"items":[{"name":"영진수산","tel":"031-591-1651","addr":"경기도 남양주시 화도읍 묵현리 473-1번지","indutype":"일반휴게음식 - 일반한식","category":"restaurant"},{"name":"해마루곱창","tel":"031-594-6855","addr":"경기도 남양주시 화도읍 묵현리 473-1번지","indutype":"일반휴게음식 - 일반한식","category":"restaurant"}]},{"lat":"37.656309812","long":"127.27304762","imageIndex":4,"items":[{"name":"영희네칼국수","tel":"031-593-0407","addr":"경기도 남양주시 화도읍 묵현리 427-6번지","indutype":"일반휴게음식 - 일반한식","category":"restaurant"},{"name":"우가네사또왕족발","tel":"031-511-4828","addr":"경기도 남양주시 화도읍 묵현리 427-6번지 1층","indutype":"일반휴게음식 - 일반한식","category":"restaurant"}]},{"lat":"37.657471426","long":"127.27332381","imageIndex":4,"items":[{"name":"오구쌀PIZZA","tel":"031-511-8858","addr":"경기도 남양주시 화도읍 묵현리 456-2번지","indutype":"일반휴게음식 - 서양음식","category":"restaurant"}]},{"lat":"37.656469966","long":"127.28166086","imageIndex":4,"items":[{"name":"오렌지","tel":"031-559-3170","addr":"경기도 남양주시 화도읍 묵현리 368-2번지 1층","indutype":"일반휴게음식 - 서양음식","category":"restaurant"}]},{"lat":"37.659858246","long":"127.29260984","imageIndex":4,"items":[{"name":"오리사냥","tel":"031-595-2616","addr":"경기도 남양주시 화도읍 묵현리 250-1","indutype":"일반휴게음식 - 일반한식","category":"restaurant"}]},{"lat":"37.653527523","long":"127.27622183","imageIndex":4,"items":[{"name":"옥이네식당","tel":"031-592-8334","addr":"경기도 남양주시 화도읍 묵현리 388-9번지 도시한아름빌라타운 110호 1층 103","indutype":"일반휴게음식 - 일반한식","category":"restaurant"}]},{"lat":"37.657362291","long":"127.27766379","imageIndex":4,"items":[{"name":"와글와글","tel":"031-511-4506","addr":"경기도 남양주시 화도읍 묵현리 481-3번지 한솔빌리지 101호","indutype":"일반휴게음식 - 일반한식","category":"restaurant"}]},{"lat":"37.663503664","long":"127.29765609","imageIndex":4,"items":[{"name":"우리커피&차","tel":"070-4217-9095","addr":"경기도 남양주시 화도읍 묵현리 124-8번지 1층","indutype":"일반휴게음식 - 서양음식","category":"restaurant"},{"name":"카페밸런스","tel":"","addr":"경기도 남양주시 화도읍 묵현리 124-8번지 1층","indutype":"일반휴게음식 - 서양음식","category":"restaurant"}]},{"lat":"37.664081742","long":"127.30066179","imageIndex":4,"items":[{"name":"육공구","tel":"031-593-6098","addr":"경기도 남양주시 화도읍 묵현리 74-58번지 씨엘타운 1층 102호","indutype":"일반휴게음식 - 일반한식","category":"restaurant"}]},{"lat":"37.656109235","long":"127.27407814","imageIndex":4,"items":[{"name":"육설도 마석점","tel":"031-592-0022","addr":"경기도 남양주시 화도읍 묵현리 406-3번지 101호","indutype":"일반휴게음식 - 일반한식","category":"restaurant"},{"name":"죽이야기 마석점","tel":"031-558-6233","addr":"경기도 남양주시 화도읍 묵현리 406-3번지 1층","indutype":"일반휴게음식 - 일반한식","category":"restaurant"}]},{"lat":"37.654386864","long":"127.27474047","imageIndex":4,"items":[{"name":"윤식당","tel":"031-559-0013","addr":"경기도 남양주시 화도읍 묵현리 390-3번지 104호","indutype":"일반휴게음식 - 일반한식","category":"restaurant"},{"name":"청춘다방","tel":"031-592-7766","addr":"경기도 남양주시 화도읍 묵현리 390-3번지 1층 101호","indutype":"일반휴게음식 - 일반한식","category":"restaurant"}]},{"lat":"37.669912095","long":"127.30022036","imageIndex":4,"items":[{"name":"이포천서리막국수","tel":"031-559-9017","addr":"경기도 남양주시 화도읍 묵현리 162-2번지","indutype":"일반휴게음식 - 일반한식","category":"restaurant"}]},{"lat":"37.657165319","long":"127.27713044","imageIndex":4,"items":[{"name":"일산부속구이","tel":"031-591-0703","addr":"경기도 남양주시 화도읍 묵현리 471-2번지 2호","indutype":"일반휴게음식 - 일반한식","category":"restaurant"}]},{"lat":"37.65753173","long":"127.2822428","imageIndex":4,"items":[{"name":"조선","tel":"031-000-0000","addr":"경기도 남양주시 화도읍 묵현리 359-2번지 나동 1층","indutype":"일반휴게음식 - 일반한식","category":"restaurant"}]},{"lat":"37.663277284","long":"127.30168992","imageIndex":4,"items":[{"name":"좋은날","tel":"031-512-8228","addr":"경기도 남양주시 화도읍 묵현리 74-7번지","indutype":"일반휴게음식 - 일반한식","category":"restaurant"}]},{"lat":"37.655668964","long":"127.28883123","imageIndex":4,"items":[{"name":"주막세시봉","tel":"031-594-8585","addr":"경기도 남양주시 화도읍 묵현리 286-2번지 지층","indutype":"일반휴게음식 - 주점","category":"restaurant"}]},{"lat":"37.663663517","long":"127.30215614","imageIndex":4,"items":[{"name":"직화별미볶음","tel":"031-559-0709","addr":"경기도 남양주시 화도읍 묵현리 36번지 2층","indutype":"일반휴게음식 - 일반한식","category":"restaurant"},{"name":"한방전주콩나물국밥","tel":"031-595-1955","addr":"경기도 남양주시 화도읍 묵현리 36번지","indutype":"일반휴게음식 - 일반한식","category":"restaurant"}]},{"lat":"37.666502676","long":"127.30171418","imageIndex":4,"items":[{"name":"진아168(JINA168)","tel":"","addr":"경기도 남양주시 화도읍 묵현리 24번지 1층","indutype":"일반휴게음식 - 서양음식","category":"restaurant"}]},{"lat":"37.656863168","long":"127.27532746","imageIndex":4,"items":[{"name":"진우네옛날통닭","tel":"031-591-4451","addr":"경기도 남양주시 화도읍 묵현리 435-6번지 동명빌딩 1층 105호","indutype":"일반휴게음식 - 스넥","category":"restaurant"},{"name":"통큰할매순대국(천마산점)","tel":"","addr":"경기도 남양주시 화도읍 묵현리 435-6번지 동명상가 104호 103호,104호","indutype":"일반휴게음식 - 일반한식","category":"restaurant"}]},{"lat":"37.665475357","long":"127.30180073","imageIndex":4,"items":[{"name":"착한낙지(마석점)","tel":"031-591-0966","addr":"경기도 남양주시 화도읍 묵현리 31-5번지","indutype":"일반휴게음식 - 일반한식","category":"restaurant"}]},{"lat":"37.670025036","long":"127.30187565","imageIndex":4,"items":[{"name":"참장어","tel":"031-595-7318","addr":"경기도 남양주시 화도읍 묵현리 18-4번지 1층","indutype":"일반휴게음식 - 일반한식","category":"restaurant"}]},{"lat":"37.659446186","long":"127.27260566","imageIndex":4,"items":[{"name":"천마","tel":"031-511-9358","addr":"경기도 남양주시 화도읍 묵현리 571번지 세원빌리지 108호","indutype":"일반휴게음식 - 일반한식","category":"restaurant"}]},{"lat":"37.656779302","long":"127.2765284","imageIndex":4,"items":[{"name":"천마산풍류마을","tel":"031-559-0913","addr":"경기도 남양주시 화도읍 묵현리 400-5","indutype":"일반휴게음식 - 일반한식","category":"restaurant"}]},{"lat":"37.658691308","long":"127.28713157","imageIndex":4,"items":[{"name":"천마아구","tel":"031-593-2281","addr":"경기도 남양주시 화도읍 묵현리 327-9번지 103호","indutype":"일반휴게음식 - 일반한식","category":"restaurant"}]},{"lat":"37.662836305","long":"127.29791412","imageIndex":4,"items":[{"name":"천마짬뽕","tel":"031-511-6584","addr":"경기도 남양주시 화도읍 묵현리 96-7번지 바우빌라 101호","indutype":"일반휴게음식 - 일반한식","category":"restaurant"}]},{"lat":"37.663053582","long":"127.29749565","imageIndex":4,"items":[{"name":"청풍주막","tel":"031-511-8819","addr":"경기도 남양주시 화도읍 묵현리 93번지 2층","indutype":"일반휴게음식 - 주점","category":"restaurant"}]},{"lat":"37.671226117","long":"127.30076967","imageIndex":4,"items":[{"name":"최고집칼국수","tel":"031-591-5001","addr":"경기도 남양주시 화도읍 묵현리 169-18번지 외1필지","indutype":"일반휴게음식 - 일반한식","category":"restaurant"}]},{"lat":"37.663582168","long":"127.29868776","imageIndex":4,"items":[{"name":"카페제이","tel":"031-1899-3272","addr":"경기도 남양주시 화도읍 묵현리 92-8번지 1층 101호","indutype":"일반휴게음식 - 서양음식","category":"restaurant"}]},{"lat":"37.656779278","long":"127.29165728","imageIndex":4,"items":[{"name":"커피마마(천마산우리집)","tel":"031-592-2356","addr":"경기도 남양주시 화도읍 묵현리 241-1번지 1층","indutype":"일반휴게음식 - 서양음식","category":"restaurant"}]},{"lat":"37.656414936","long":"127.27435123","imageIndex":4,"items":[{"name":"컬투치킨천마사랑점","tel":"035-559-3394","addr":"경기도 남양주시 화도읍 묵현리 406-1번지 해성빌딩","indutype":"일반휴게음식 - 스넥","category":"restaurant"}]},{"lat":"37.655886775","long":"127.29188047","imageIndex":4,"items":[{"name":"코코스","tel":"031-111-1111","addr":"경기도 남양주시 화도읍 묵현리 280-2번지","indutype":"일반휴게음식 - 주점","category":"restaurant"}]},{"lat":"37.670280257","long":"127.30070922","imageIndex":4,"items":[{"name":"파도회","tel":"031-511-7661","addr":"경기도 남양주시 화도읍 묵현리 162번지","indutype":"일반휴게음식 - 일반한식","category":"restaurant"},{"name":"화개옥","tel":"031-559-7766","addr":"경기도 남양주시 화도읍 묵현리 162번지 1층 일부","indutype":"일반휴게음식 - 일반한식","category":"restaurant"}]},{"lat":"37.667857775","long":"127.30026884","imageIndex":4,"items":[{"name":"페리카나치킨(마석점)","tel":"031-595-8686","addr":"경기도 남양주시 화도읍 묵현리 147-3번지 삼진상가 2층 210호","indutype":"일반휴게음식 - 스넥","category":"restaurant"}]},{"lat":"37.656607462","long":"127.28066412","imageIndex":4,"items":[{"name":"푸른통돼지바베큐","tel":"","addr":"경기도 남양주시 화도읍 묵현리 367-8번지 1층","indutype":"일반휴게음식 - 일반한식","category":"restaurant"}]},{"lat":"37.670918732","long":"127.30118783","imageIndex":4,"items":[{"name":"하씨네해물집","tel":"031-511-1583","addr":"경기도 남양주시 화도읍 묵현리 166-4번지 1층","indutype":"일반휴게음식 - 일반한식","category":"restaurant"}]},{"lat":"37.665162402","long":"127.30085878","imageIndex":4,"items":[{"name":"홍익돈까스","tel":"031-593-3460","addr":"경기도 남양주시 화도읍 묵현리 143-1번지 1층","indutype":"일반휴게음식 - 일반한식","category":"restaurant"}]},{"lat":"37.664334867","long":"127.30032279","imageIndex":4,"items":[{"name":"화도돼지","tel":"031-559-0017","addr":"경기도 남양주시 화도읍 묵현리 74-31번지","indutype":"일반휴게음식 - 일반한식","category":"restaurant"}]},{"lat":"37.67097147","long":"127.30170943","imageIndex":4,"items":[{"name":"황재코다리냉면","tel":"031-559-3360","addr":"경기도 남양주시 화도읍 묵현리 163-11번지","indutype":"일반휴게음식 - 일반한식","category":"restaurant"}]},{"lat":"37.656308122","long":"127.289049","imageIndex":4,"items":[{"name":"흥주선비국밥 마석 직영점","tel":"031-595-9987","addr":"경기도 남양주시 화도읍 묵현리 288번지 이조빌딩 104 ,105,106호","indutype":"일반휴게음식 - 일반한식","category":"restaurant"}]}]