[{"lat":"37.719241149","long":"127.20085719","imageIndex":13,"items":[{"name":"190네일","tel":"","addr":"경기도 남양주시 진접읍 금곡리 1036-2번지 1층 102호","indutype":"보건위생 - 피부미용실","category":"beauty"},{"name":"190피부#","tel":"070-7848-9306","addr":"경기도 남양주시 진접읍 금곡리 1036-2번지 1층 102호","indutype":"보건위생 - 피부미용실","category":"beauty"}]},{"lat":"37.711433044","long":"127.18778311","imageIndex":13,"items":[{"name":"JC보건산업","tel":"031-572-1441","addr":"경기도 남양주시 진접읍 금곡리 1083-4번지 리첸타워 4층 406호","indutype":"보건위생 - 의료용품","category":"beauty"},{"name":"골드 스웨디시 테라피","tel":"","addr":"경기도 남양주시 진접읍 금곡리 1083-4번지 리첸타워 605,606호","indutype":"보건위생 - 화장품","category":"beauty"},{"name":"배배뷰티","tel":"","addr":"경기도 남양주시 진접읍 금곡리 1083-4번지 리첸타워 604호","indutype":"보건위생 - 미용재료","category":"beauty"},{"name":"하트케어","tel":"","addr":"경기도 남양주시 진접읍 금곡리 1083-4번지 리첸타워 505호","indutype":"보건위생 - 의료용품","category":"beauty"},{"name":"현스킨케어","tel":"031-624-4208","addr":"경기도 남양주시 진접읍 금곡리 1083-4번지 리첸타워 203호","indutype":"보건위생 - 피부미용실","category":"beauty"}]},{"lat":"37.721604644","long":"127.20441364","imageIndex":13,"items":[{"name":"Yes헤어","tel":"070-8868-1269","addr":"경기도 남양주시 진접읍 금곡리 1017-5번지 1층 101호","indutype":"보건위생 - 미용원","category":"beauty"}]},{"lat":"37.712182327","long":"127.18683233","imageIndex":13,"items":[{"name":"곰아저씨 아동발달센터","tel":"031-572-5575","addr":"경기도 남양주시 진접읍 금곡리 1081-1번지 화성프라자 501호","indutype":"보건위생 - 기타대인서비스","category":"beauty"},{"name":"빠리에서온에스테틱","tel":"031-571-7874","addr":"경기도 남양주시 진접읍 금곡리 1081-1번지 화성프라자 303호","indutype":"보건위생 - 피부미용실","category":"beauty"},{"name":"아이코드안경원","tel":"031-528-8008","addr":"경기도 남양주시 진접읍 금곡리 1081-1번지 화성프라자 106호","indutype":"보건위생 - 안경","category":"beauty"},{"name":"폭탄머리","tel":"031-529-2589","addr":"경기도 남양주시 진접읍 금곡리 1081-1번지 화성프라자 203호","indutype":"보건위생 - 미용원","category":"beauty"}]},{"lat":"37.718545524","long":"127.20197818","imageIndex":13,"items":[{"name":"그리다뷰티","tel":"031-526-6263","addr":"경기도 남양주시 진접읍 금곡리 1039-2번지 102호","indutype":"보건위생 - 미용재료","category":"beauty"}]},{"lat":"37.712523076","long":"127.1878652","imageIndex":13,"items":[{"name":"금곡타운나이스가이","tel":"031-574-6231","addr":"경기도 남양주시 진접읍 금곡리 1082번지 랜드타워 107호","indutype":"보건위생 - 미용원","category":"beauty"},{"name":"아이마트 안경","tel":"031-575-8007","addr":"경기도 남양주시 진접읍 금곡리 1082번지 랜드타워 108,109,110호","indutype":"보건위생 - 안경","category":"beauty"}]},{"lat":"37.721103025","long":"127.20269959","imageIndex":13,"items":[{"name":"기노전문점","tel":"031-573-2987","addr":"경기도 남양주시 진접읍 금곡리 1021번지 진접메기컬센터 601호","indutype":"보건위생 - 화장품","category":"beauty"}]},{"lat":"37.719959408","long":"127.19694606","imageIndex":13,"items":[{"name":"기쁜심리발달센터","tel":"031-527-9929","addr":"경기도 남양주시 진접읍 금곡리 974-1번지 302호","indutype":"보건위생 - 기타대인서비스","category":"beauty"},{"name":"손톱물감","tel":"","addr":"경기도 남양주시 진접읍 금곡리 974-1번지 금화프라자 303-1호","indutype":"보건위생 - 피부미용실","category":"beauty"},{"name":"헤어573","tel":"031-529-4188","addr":"경기도 남양주시 진접읍 금곡리 974-1번지","indutype":"보건위생 - 미용원","category":"beauty"}]},{"lat":"37.718545811","long":"127.20180806","imageIndex":13,"items":[{"name":"꽃길","tel":"","addr":"경기도 남양주시 진접읍 금곡리 1039-5번지 1층 일부","indutype":"보건위생 - 미용원","category":"beauty"},{"name":"꽃길","tel":"","addr":"경기도 남양주시 진접읍 금곡리 1039-5번지 1층 일부","indutype":"보건위생 - 피부미용실","category":"beauty"}]},{"lat":"37.71582846","long":"127.18858794","imageIndex":13,"items":[{"name":"끌림헤어","tel":"031-573-2045","addr":"경기도 남양주시 진접읍 금곡리 967번지 한솔빌딩 103호","indutype":"보건위생 - 미용원","category":"beauty"}]},{"lat":"37.714488066","long":"127.19847421","imageIndex":13,"items":[{"name":"나이스가이","tel":"031-572-8277","addr":"경기도 남양주시 진접읍 금곡리 1096번지 으뜸프라자 111호","indutype":"보건위생 - 미용원","category":"beauty"},{"name":"아우라헤어","tel":"031-574-7708","addr":"경기도 남양주시 진접읍 금곡리 1096번지 으뜸빌딩 201호","indutype":"보건위생 - 미용원","category":"beauty"},{"name":"코끼리아동청소년발달센터","tel":"031-571-2711","addr":"경기도 남양주시 진접읍 금곡리 1096번지 으뜸프라자 701호","indutype":"보건위생 - 기타대인서비스","category":"beauty"}]},{"lat":"37.711921457","long":"127.18657084","imageIndex":13,"items":[{"name":"남현석헤어진접본점","tel":"031-566-2326","addr":"경기도 남양주시 진접읍 금곡리 1081-2번지 래일스타 303호","indutype":"보건위생 - 미용원","category":"beauty"},{"name":"라륀느","tel":"031-573-8566","addr":"경기도 남양주시 진접읍 금곡리 1081-2번지 5층 502호 래일스타","indutype":"보건위생 - 미용원","category":"beauty"},{"name":"설렘헤어","tel":"031-573-0510","addr":"경기도 남양주시 진접읍 금곡리 1081-2번지 107호 래일스타","indutype":"보건위생 - 미용원","category":"beauty"},{"name":"티이티제이","tel":"031-574-3467","addr":"경기도 남양주시 진접읍 금곡리 1081-2번지 래일스타 405호","indutype":"보건위생 - 화장품","category":"beauty"},{"name":"티티제이","tel":"031-574-3467","addr":"경기도 남양주시 진접읍 금곡리 1081-2번지 래일스타 405호","indutype":"보건위생 - 화장품","category":"beauty"}]},{"lat":"37.714714356","long":"127.19783969","imageIndex":13,"items":[{"name":"내일do네일","tel":"031-528-2262","addr":"경기도 남양주시 진접읍 금곡리 1094-2번지 진원메디컬프라자 402호","indutype":"보건위생 - 피부미용실","category":"beauty"},{"name":"안경박사진접점","tel":"031-574-1771","addr":"경기도 남양주시 진접읍 금곡리 1094-2번지 104호","indutype":"보건위생 - 안경","category":"beauty"},{"name":"이유미스킨케어","tel":"031-528-2262","addr":"경기도 남양주시 진접읍 금곡리 1094-2번지 진원메디칼프라자 402호 이유미스킨케어","indutype":"보건위생 - 피부미용실","category":"beauty"}]},{"lat":"37.718690538","long":"127.20146818","imageIndex":13,"items":[{"name":"네일샤베트","tel":"031-575-6240","addr":"경기도 남양주시 진접읍 금곡리 1037-12번지 1층 101호","indutype":"보건위생 - 피부미용실","category":"beauty"}]},{"lat":"37.724715524","long":"127.20814253","imageIndex":13,"items":[{"name":"도도헤어","tel":"","addr":"경기도 남양주시 진접읍 금곡리 1002-1번지 주건축물제 1동 1층 일부","indutype":"보건위생 - 미용원","category":"beauty"}]},{"lat":"37.720491086","long":"127.20227829","imageIndex":13,"items":[{"name":"도로시네일","tel":"","addr":"경기도 남양주시 진접읍 금곡리 1021-3번지 삼성프라자 107호","indutype":"보건위생 - 피부미용실","category":"beauty"}]},{"lat":"37.711714466","long":"127.1864229","imageIndex":13,"items":[{"name":"두두헤어","tel":"031-574-0519","addr":"경기도 남양주시 진접읍 금곡리 1081-3번지 센터프라자 504호","indutype":"보건위생 - 미용원","category":"beauty"},{"name":"청아보청기","tel":"031-540-9056","addr":"경기도 남양주시 진접읍 금곡리 1081-3번지 4층","indutype":"보건위생 - 의료용품","category":"beauty"},{"name":"킹덤타이","tel":"031-571-0990","addr":"경기도 남양주시 진접읍 금곡리 1081-3번지 센타프라자 2층 202호","indutype":"보건위생 - 화장품","category":"beauty"}]},{"lat":"37.714849556","long":"127.19780602","imageIndex":13,"items":[{"name":"디투미용실","tel":"031-574-2657","addr":"경기도 남양주시 진접읍 금곡리 1094-1번지 폴리프라자 2층 203호 2","indutype":"보건위생 - 미용원","category":"beauty"},{"name":"얀스킨앤바디","tel":"031-529-1019","addr":"경기도 남양주시 진접읍 금곡리 1094-1번지 폴리프라자II 2층 202호","indutype":"보건위생 - 피부미용실","category":"beauty"}]},{"lat":"37.718130509","long":"127.19691861","imageIndex":13,"items":[{"name":"러블리헤어","tel":"031-573-0098","addr":"경기도 남양주시 진접읍 금곡리 1076-1번지 102호","indutype":"보건위생 - 미용원","category":"beauty"}]},{"lat":"37.720959774","long":"127.20216612","imageIndex":13,"items":[{"name":"르뽀렙","tel":"031-572-8121","addr":"경기도 남양주시 진접읍 금곡리 1022번지 113호","indutype":"보건위생 - 미용원","category":"beauty"}]},{"lat":"37.719715267","long":"127.202866","imageIndex":13,"items":[{"name":"리즈네일","tel":"031-000-0000","addr":"경기도 남양주시 진접읍 금곡리 1042-2번지 단우타워 1층 일부 101호","indutype":"보건위생 - 피부미용실","category":"beauty"},{"name":"해밀24시불가마사우나/(주)플랜비","tel":"031-574-8887","addr":"경기도 남양주시 진접읍 금곡리 1042-2번지","indutype":"보건위생 - 사우나","category":"beauty"}]},{"lat":"37.711551817","long":"127.1867287","imageIndex":13,"items":[{"name":"리즈헤어","tel":"031-527-9717","addr":"경기도 남양주시 진접읍 금곡리 1081-4번지 폴리프라자 1층 111호","indutype":"보건위생 - 미용원","category":"beauty"},{"name":"블랙컷트(Black cut)","tel":"","addr":"경기도 남양주시 진접읍 금곡리 1081-4번지 101호","indutype":"보건위생 - 미용원","category":"beauty"},{"name":"숙명심리발달센터","tel":"031-572-7567","addr":"경기도 남양주시 진접읍 금곡리 1081-4번지 폴리프라자 704,705호","indutype":"보건위생 - 기타대인서비스","category":"beauty"},{"name":"올바른뷰티","tel":"031-573-1529","addr":"경기도 남양주시 진접읍 금곡리 1081-4번지 폴리프라자 4층 407호 1","indutype":"보건위생 - 피부미용실","category":"beauty"},{"name":"코끼리체형관리","tel":"031-572-0889","addr":"경기도 남양주시 진접읍 금곡리 1081-4번지 4층 404호 ,405,406호","indutype":"보건위생 - 피부미용실","category":"beauty"},{"name":"페이스오프","tel":"031-527-3522","addr":"경기도 남양주시 진접읍 금곡리 1081-4번지 폴리프라자 302,303호","indutype":"보건위생 - 피부미용실","category":"beauty"},{"name":"헤어살롱 아르떼","tel":"031-575-8050","addr":"경기도 남양주시 진접읍 금곡리 1081-4번지 폴리프라자 501호,502호","indutype":"보건위생 - 미용원","category":"beauty"}]},{"lat":"37.719742993","long":"127.19705892","imageIndex":13,"items":[{"name":"머리생각","tel":"070-8863-0222","addr":"경기도 남양주시 진접읍 금곡리 974-2번지 304호","indutype":"보건위생 - 미용원","category":"beauty"},{"name":"민's 뷰티","tel":"031-529-5633","addr":"경기도 남양주시 진접읍 금곡리 974-2번지 제일프라자 204호","indutype":"보건위생 - 미용원","category":"beauty"},{"name":"스킨라이트","tel":"","addr":"경기도 남양주시 진접읍 금곡리 974-2번지 1층 102호","indutype":"보건위생 - 화장품","category":"beauty"},{"name":"헤어디바채","tel":"031-528-9151","addr":"경기도 남양주시 진접읍 금곡리 974-2번지 제일프라자 102호","indutype":"보건위생 - 미용원","category":"beauty"}]},{"lat":"37.720410575","long":"127.19652757","imageIndex":13,"items":[{"name":"머리염색오땡큐헤어","tel":"031-575-0788","addr":"경기도 남양주시 진접읍 금곡리 973-5번지 1층","indutype":"보건위생 - 미용원","category":"beauty"}]},{"lat":"37.715128026","long":"127.19830577","imageIndex":13,"items":[{"name":"뮤즈헤어","tel":"031-529-8088","addr":"경기도 남양주시 진접읍 금곡리 1095번지 110호(외1필지호평프라자)","indutype":"보건위생 - 미용원","category":"beauty"},{"name":"진아헤어","tel":"031-573-6412","addr":"경기도 남양주시 진접읍 금곡리 1095번지 호평프라자 204호","indutype":"보건위생 - 미용원","category":"beauty"}]},{"lat":"37.718655282","long":"127.20100307","imageIndex":13,"items":[{"name":"뮨(MuNe)","tel":"031-572-0307","addr":"경기도 남양주시 진접읍 금곡리 1040-1번지 1층 103호","indutype":"보건위생 - 미용원","category":"beauty"}]},{"lat":"37.714794522","long":"127.19839562","imageIndex":13,"items":[{"name":"민헤어","tel":"031-528-6598","addr":"경기도 남양주시 진접읍 금곡리 1095-2번지 폴리프라자Ⅲ 201호","indutype":"보건위생 - 미용원","category":"beauty"},{"name":"핑거네일&스킨업","tel":"02-831-3025","addr":"경기도 남양주시 진접읍 금곡리 1095-2번지 폴리프라자III 401호","indutype":"보건위생 - 화장품","category":"beauty"},{"name":"헤어뱅크","tel":"031-529-8595","addr":"경기도 남양주시 진접읍 금곡리 1095-2번지 502호 폴리프라자III","indutype":"보건위생 - 미용원","category":"beauty"}]},{"lat":"37.717688854","long":"127.19703087","imageIndex":13,"items":[{"name":"바람난머리","tel":"031-573-8978","addr":"경기도 남양주시 진접읍 금곡리 1076-3번지 아트프라자 106호","indutype":"보건위생 - 미용원","category":"beauty"}]},{"lat":"37.719995428","long":"127.20235635","imageIndex":13,"items":[{"name":"베도베네안경원 진접점","tel":"031-529-0090","addr":"경기도 남양주시 진접읍 금곡리 1042번지 엠타워 107호","indutype":"보건위생 - 안경","category":"beauty"},{"name":"아디오스 남양주 진접점","tel":"031-575-1080","addr":"경기도 남양주시 진접읍 금곡리 1042번지 엠타워 707호","indutype":"보건위생 - 피부미용실","category":"beauty"},{"name":"클럽밸런스5진접점","tel":"031-529-0555","addr":"경기도 남양주시 진접읍 금곡리 1042번지 엠타워 501호","indutype":"보건위생 - 의료용품","category":"beauty"},{"name":"헤어 1380","tel":"031-529-7856","addr":"경기도 남양주시 진접읍 금곡리 1042번지 엠타워 2층 208,209호","indutype":"보건위생 - 미용원","category":"beauty"}]},{"lat":"37.713799806","long":"127.18953553","imageIndex":13,"items":[{"name":"보톡스헤어","tel":"070-7574-8657","addr":"경기도 남양주시 진접읍 금곡리 1080번지 신안인스빌 상가동 106호","indutype":"보건위생 - 미용원","category":"beauty"}]},{"lat":"37.718877803","long":"127.20261422","imageIndex":13,"items":[{"name":"뷰티퀸","tel":"031-575-3882","addr":"경기도 남양주시 진접읍 금곡리 1045번지 102호","indutype":"보건위생 - 화장품","category":"beauty"}]},{"lat":"37.72116028","long":"127.19536127","imageIndex":13,"items":[{"name":"비너스뷰티","tel":"031-528-1003","addr":"경기도 남양주시 진접읍 금곡리 973번지 진접프라자 4층 402호","indutype":"보건위생 - 피부미용실","category":"beauty"},{"name":"펠리스헤어","tel":"031-572-5114","addr":"경기도 남양주시 진접읍 금곡리 973번지 진접프라자 1층 105호","indutype":"보건위생 - 미용원","category":"beauty"}]},{"lat":"37.72156632","long":"127.19498802","imageIndex":13,"items":[{"name":"쁘띠헤어","tel":"031-574-8674","addr":"경기도 남양주시 진접읍 금곡리 972-2번지 반도프라자 110호","indutype":"보건위생 - 미용원","category":"beauty"}]},{"lat":"37.719852195","long":"127.20181155","imageIndex":13,"items":[{"name":"사주타로","tel":"031-574-4914","addr":"경기도 남양주시 진접읍 금곡리 1035-8번지 102호","indutype":"보건위생 - 기타대인서비스","category":"beauty"}]},{"lat":"37.721712661","long":"127.20447065","imageIndex":13,"items":[{"name":"살롱드아무르","tel":"031-575-9727","addr":"경기도 남양주시 진접읍 금곡리 1017-6번지 101호","indutype":"보건위생 - 미용원","category":"beauty"}]},{"lat":"37.723815064","long":"127.20785647","imageIndex":13,"items":[{"name":"샤벨라헤어","tel":"031-527-2553","addr":"경기도 남양주시 진접읍 금곡리 1117번지 신안인스빌 상가동 206호","indutype":"보건위생 - 미용원","category":"beauty"}]},{"lat":"37.720271431","long":"127.19345348","imageIndex":13,"items":[{"name":"소문난미용실","tel":"031-575-7064","addr":"경기도 남양주시 진접읍 금곡리 971번지 해밀마을5단지반도유보라메이플타운 상가동 103-1호","indutype":"보건위생 - 미용원","category":"beauty"}]},{"lat":"37.721015757","long":"127.19558774","imageIndex":13,"items":[{"name":"씨엔씨 안경콘택트","tel":"031-528-0801","addr":"경기도 남양주시 진접읍 금곡리 973-1번지 신세계프라자 108호","indutype":"보건위생 - 안경","category":"beauty"},{"name":"안경기업","tel":"031-575-8279","addr":"경기도 남양주시 진접읍 금곡리 973-1번지 101, 102호","indutype":"보건위생 - 안경","category":"beauty"},{"name":"원더패션","tel":"070-5484-9927","addr":"경기도 남양주시 진접읍 금곡리 973-1번지 신세계프라자 108호","indutype":"보건위생 - 화장품","category":"beauty"}]},{"lat":"37.715020831","long":"127.19774976","imageIndex":13,"items":[{"name":"아가도시네헤어","tel":"031-527-1149","addr":"경기도 남양주시 진접읍 금곡리 1094번지 중앙프라자 202호","indutype":"보건위생 - 미용원","category":"beauty"},{"name":"우아네일","tel":"","addr":"경기도 남양주시 진접읍 금곡리 1094번지 105호","indutype":"보건위생 - 피부미용실","category":"beauty"}]},{"lat":"37.713078773","long":"127.20075006","imageIndex":13,"items":[{"name":"에이치(H)","tel":"031-571-5600","addr":"경기도 남양주시 진접읍 금곡리 1107번지 부영사랑으로 상가동 지1층 비02호","indutype":"보건위생 - 피부미용실","category":"beauty"}]},{"lat":"37.711190088","long":"127.18758971","imageIndex":13,"items":[{"name":"엘블라썸(Lblossom)","tel":"070-4101-4582","addr":"경기도 남양주시 진접읍 금곡리 1083-5번지 해밀빌딩 1층 104호","indutype":"보건위생 - 미용원","category":"beauty"},{"name":"진접의료기","tel":"031-572-7258","addr":"경기도 남양주시 진접읍 금곡리 1083-5번지 해밀빌딩 106호","indutype":"보건위생 - 의료용품","category":"beauty"}]},{"lat":"37.721406666","long":"127.204277","imageIndex":13,"items":[{"name":"영 style","tel":"","addr":"경기도 남양주시 진접읍 금곡리 1017-3번지 102호","indutype":"보건위생 - 미용원","category":"beauty"}]},{"lat":"37.725525214","long":"127.208814","imageIndex":13,"items":[{"name":"오즈헤어","tel":"031-573-2188","addr":"경기도 남양주시 진접읍 금곡리 995번지 휴먼시아 상가 101호","indutype":"보건위생 - 미용원","category":"beauty"}]},{"lat":"37.720744654","long":"127.1960861","imageIndex":13,"items":[{"name":"인포유","tel":"031-856-2000","addr":"경기도 남양주시 진접읍 금곡리 973-3번지 703호","indutype":"보건위생 - 미용원","category":"beauty"}]},{"lat":"37.718462614","long":"127.20305544","imageIndex":13,"items":[{"name":"제나헤어","tel":"031-573-7229","addr":"경기도 남양주시 진접읍 금곡리 1044-3번지 1층 101호","indutype":"보건위생 - 미용원","category":"beauty"}]},{"lat":"37.720157805","long":"127.19683316","imageIndex":13,"items":[{"name":"제이헤어","tel":"031-572-4821","addr":"경기도 남양주시 진접읍 금곡리 974번지 104호","indutype":"보건위생 - 미용원","category":"beauty"}]},{"lat":"37.713877593","long":"127.2129213","imageIndex":13,"items":[{"name":"주식회사 지에이치엘","tel":"031-571-8990","addr":"경기도 남양주시 진접읍 금곡리 110번지","indutype":"보건위생 - 의료용품","category":"beauty"}]},{"lat":"37.719214387","long":"127.20069833","imageIndex":13,"items":[{"name":"지연헤어","tel":"031-529-5523","addr":"경기도 남양주시 진접읍 금곡리 1036-5번지 101호","indutype":"보건위생 - 미용원","category":"beauty"}]},{"lat":"37.714218606","long":"127.19797448","imageIndex":13,"items":[{"name":"진접안경원","tel":"031-529-2282","addr":"경기도 남양주시 진접읍 금곡리 1097 진접두손지젤프라자1층12호","indutype":"보건위생 - 안경","category":"beauty"}]},{"lat":"37.719492997","long":"127.20110738","imageIndex":13,"items":[{"name":"청춘관리","tel":"","addr":"경기도 남양주시 진접읍 금곡리 1037번지 101호","indutype":"보건위생 - 피부미용실","category":"beauty"}]},{"lat":"37.716185384","long":"127.2070302","imageIndex":13,"items":[{"name":"초당뷰티","tel":"031-571-3534","addr":"경기도 남양주시 진접읍 금곡리 750-3번지","indutype":"보건위생 - 피부미용실","category":"beauty"}]},{"lat":"37.73332247","long":"127.21167163","imageIndex":13,"items":[{"name":"칼라발라","tel":"031-528-3076","addr":"경기도 남양주시 진접읍 금곡리 379번지 2층 일부","indutype":"보건위생 - 피부미용실","category":"beauty"}]},{"lat":"37.719910734","long":"127.20447711","imageIndex":13,"items":[{"name":"크림피부네일","tel":"031-573-4640","addr":"경기도 남양주시 진접읍 금곡리 1058-1번지 1층 일부호","indutype":"보건위생 - 피부미용실","category":"beauty"}]},{"lat":"37.719740328","long":"127.20402296","imageIndex":13,"items":[{"name":"팜므헤어","tel":"031-575-2582","addr":"경기도 남양주시 진접읍 금곡리 1057-1번지 101호","indutype":"보건위생 - 미용원","category":"beauty"}]},{"lat":"37.719739514","long":"127.20449933","imageIndex":13,"items":[{"name":"헤어21","tel":"031-529-5328","addr":"경기도 남양주시 진접읍 금곡리 1058-2번지 102호","indutype":"보건위생 - 미용원","category":"beauty"}]},{"lat":"37.721992809","long":"127.20397234","imageIndex":13,"items":[{"name":"헤어아떼","tel":"031-572-7857","addr":"경기도 남양주시 진접읍 금곡리 1014-6번지","indutype":"보건위생 - 미용원","category":"beauty"}]},{"lat":"37.718246385","long":"127.20305486","imageIndex":13,"items":[{"name":"힐링아로마","tel":"031-527-5877","addr":"경기도 남양주시 진접읍 금곡리 1044-4번지 301호","indutype":"보건위생 - 피부미용실","category":"beauty"}]}]