[{"lat":"37.41497134","long":"127.2570644","imageIndex":7,"items":[{"name":"경안쌀직판장송정마트","tel":"031-765-3136","addr":"경기도 광주시 송정동 594번지 2층","indutype":"유통업 영리 - 슈퍼마켓","category":"mart"}]},{"lat":"37.4184728","long":"127.2748118","imageIndex":7,"items":[{"name":"금강홈마트","tel":"031-768-0078","addr":"경기도 광주시 송정동 574번지 송정금강펜테리움2단지 상가 215동 101호","indutype":"유통업 영리 - 슈퍼마켓","category":"mart"}]},{"lat":"37.41669886","long":"127.2539751","imageIndex":7,"items":[{"name":"만물상회","tel":"031-761-7895","addr":"경기도 광주시 송정동 118-48.49","indutype":"유통업 영리 - 슈퍼마켓","category":"mart"}]},{"lat":"37.42814211","long":"127.257945","imageIndex":7,"items":[{"name":"미래슈퍼","tel":"031-762-1152","addr":"경기도 광주시 송정동 298-5번지","indutype":"유통업 영리 - 슈퍼마켓","category":"mart"}]},{"lat":"37.42680849","long":"127.2580083","imageIndex":7,"items":[{"name":"삼성홈마트","tel":"031-762-6668","addr":"경기도 광주시 송정동 302-20번지 경기빌딩 1층","indutype":"유통업 영리 - 슈퍼마켓","category":"mart"}]},{"lat":"37.4234739","long":"127.258415","imageIndex":7,"items":[{"name":"영진상사","tel":"031-766-7900","addr":"경기도 광주시 송정동 227번지 3층","indutype":"유통업 영리 - 슈퍼마켓","category":"mart"}]},{"lat":"37.41780987","long":"127.2568933","imageIndex":7,"items":[{"name":"초코마트 구시청점","tel":"031-762-2005","addr":"경기도 광주시 송정동 130-9번지 1층","indutype":"유통업 영리 - 슈퍼마켓","category":"mart"}]},{"lat":"37.4296431","long":"127.2596448","imageIndex":7,"items":[{"name":"코사마트(밀목점)","tel":"031-767-1153","addr":"경기도 광주시 송정동 406-1번지","indutype":"유통업 영리 - 슈퍼마켓","category":"mart"}]},{"lat":"37.41783588","long":"127.2573678","imageIndex":7,"items":[{"name":"현대마트","tel":"031-767-8700","addr":"경기도 광주시 송정동 130-14번지 순흥빌딩 101호","indutype":"유통업 영리 - 슈퍼마켓","category":"mart"}]},{"lat":"37.41608303","long":"127.2554528","imageIndex":7,"items":[{"name":"현대슈퍼","tel":"031-765-3644","addr":"경기도 광주시 송정동 113-47번지","indutype":"유통업 영리 - 슈퍼마켓","category":"mart"}]}]