[{"lat":"37.685383056","long":"127.21131045","imageIndex":13,"items":[{"name":"B필라테스앤요가","tel":"031-512-9685","addr":"경기도 남양주시 오남읍 오남리 265-2번지","indutype":"레저업소 - 헬스클럽","category":"leisure"},{"name":"남양주복싱태권도","tel":"031-573-0405","addr":"경기도 남양주시 오남읍 오남리 265-2번지 3층","indutype":"레저업소 - 헬스클럽","category":"leisure"}]},{"lat":"37.694442096","long":"127.21392093","imageIndex":13,"items":[{"name":"KING 당구클럽","tel":"031-512-2626","addr":"경기도 남양주시 오남읍 오남리 134-10번지 오남프라자 4층","indutype":"레저업소 - 당 구 장","category":"leisure"}]},{"lat":"37.687608383","long":"127.21133935","imageIndex":13,"items":[{"name":"가족노래방","tel":"031-574-7539","addr":"경기도 남양주시 오남읍 오남리 245-3번지","indutype":"레저업소 - 노 래 방","category":"leisure"}]},{"lat":"37.678664952","long":"127.20955727","imageIndex":13,"items":[{"name":"고향당구장","tel":"031-575-0240","addr":"경기도 남양주시 오남읍 오남리 476-2번지 2층","indutype":"레저업소 - 당 구 장","category":"leisure"}]},{"lat":"37.692827185","long":"127.21514085","imageIndex":13,"items":[{"name":"골프존파크 오남스타점","tel":"031-572-2552","addr":"경기도 남양주시 오남읍 오남리 185-4번지","indutype":"레저업소 - 스크린골프","category":"leisure"}]},{"lat":"37.679611654","long":"127.20916314","imageIndex":13,"items":[{"name":"국가대표송기석퍼스널트레이닝","tel":"031-572-9682","addr":"경기도 남양주시 오남읍 오남리 496-1번지 2층","indutype":"레저업소 - 헬스클럽","category":"leisure"},{"name":"짱 퍼스널 트레이닝 스튜디오","tel":"031-572-9682","addr":"경기도 남양주시 오남읍 오남리 496-1번지 강남상가 205호","indutype":"레저업소 - 헬스클럽","category":"leisure"},{"name":"키다리 당구클럽","tel":"","addr":"경기도 남양주시 오남읍 오남리 496-1번지 201호","indutype":"레저업소 - 당 구 장","category":"leisure"}]},{"lat":"37.681664829","long":"127.20974698","imageIndex":13,"items":[{"name":"김상춘 당구아카데미","tel":"031-111-1111","addr":"경기도 남양주시 오남읍 오남리 490-1번지 2층","indutype":"레저업소 - 당 구 장","category":"leisure"}]},{"lat":"37.690359743","long":"127.21447624","imageIndex":13,"items":[{"name":"꼬꼬마마","tel":"031-575-0780","addr":"경기도 남양주시 오남읍 오남리 203-18번지 한샘마트 지하1층 04호","indutype":"레저업소 - 기타레져업소","category":"leisure"},{"name":"럭키락 볼링센터","tel":"031-573-0039","addr":"경기도 남양주시 오남읍 오남리 203-18번지 한샘마트 206동 210호","indutype":"레저업소 - 볼 링 장","category":"leisure"}]},{"lat":"37.689192161","long":"127.21242084","imageIndex":13,"items":[{"name":"놀PC방","tel":"","addr":"경기도 남양주시 오남읍 오남리 683-27번지 대웅프라자 4층","indutype":"레저업소 - 기타레져업소","category":"leisure"},{"name":"앵콜 노래연습장","tel":"031-528-1236","addr":"경기도 남양주시 오남읍 오남리 683-27번지 310,311호","indutype":"레저업소 - 노 래 방","category":"leisure"}]},{"lat":"37.682079112","long":"127.20983882","imageIndex":13,"items":[{"name":"데빌김(DEVIL KIM)","tel":"031-529-2344","addr":"경기도 남양주시 오남읍 오남리 525번지 2층","indutype":"레저업소 - 헬스클럽","category":"leisure"}]},{"lat":"37.690857177","long":"127.21341191","imageIndex":13,"items":[{"name":"레몬당구장","tel":"031-574-2636","addr":"경기도 남양주시 오남읍 오남리 205-19번지 2층","indutype":"레저업소 - 당 구 장","category":"leisure"}]},{"lat":"37.68266338","long":"127.21061132","imageIndex":13,"items":[{"name":"로얄당구장","tel":"031-575-4941","addr":"경기도 남양주시 오남읍 오남리 344-1번지 상일빌딩 지하1층","indutype":"레저업소 - 당 구 장","category":"leisure"}]},{"lat":"37.679025733","long":"127.20933156","imageIndex":13,"items":[{"name":"로웰PC Cafe","tel":"","addr":"경기도 남양주시 오남읍 오남리 476-10번지 3층","indutype":"레저업소 - 기타레져업소","category":"leisure"}]},{"lat":"37.678635632","long":"127.21086081","imageIndex":13,"items":[{"name":"바른피티 퍼스널트레이닝센터","tel":"","addr":"경기도 남양주시 오남읍 오남리 414번지 104호","indutype":"레저업소 - 헬스클럽","category":"leisure"}]},{"lat":"37.689803198","long":"127.21332957","imageIndex":13,"items":[{"name":"별당구클럽","tel":"","addr":"경기도 남양주시 오남읍 오남리 202-3번지 2층","indutype":"레저업소 - 당 구 장","category":"leisure"}]},{"lat":"37.679578026","long":"127.20778006","imageIndex":13,"items":[{"name":"브레이브힐","tel":"031-529-9682","addr":"경기도 남양주시 오남읍 오남리 500번지 2층 201,202호","indutype":"레저업소 - 헬스클럽","category":"leisure"}]},{"lat":"37.696917589","long":"127.19952789","imageIndex":13,"items":[{"name":"비요가(VI YOGA)","tel":"031-000-0000","addr":"경기도 남양주시 오남읍 오남리 891번지 오남아이파크 107동 102호","indutype":"레저업소 - 헬스클럽","category":"leisure"}]},{"lat":"37.679576863","long":"127.20844888","imageIndex":13,"items":[{"name":"세븐노래연습장","tel":"02-575-1195","addr":"경기도 남양주시 오남읍 오남리 499번지 금명빌딩 지층 1호","indutype":"레저업소 - 노 래 방","category":"leisure"}]},{"lat":"37.685158493","long":"127.20575478","imageIndex":13,"items":[{"name":"스타락볼링센타","tel":"031-575-0834","addr":"경기도 남양주시 오남읍 오남리 572-1번지 외1필지","indutype":"레저업소 - 볼 링 장","category":"leisure"}]},{"lat":"37.687356956","long":"127.21086249","imageIndex":13,"items":[{"name":"신나라 노래연습장","tel":"031-936-4833","addr":"경기도 남양주시 오남읍 오남리 243번지 201호","indutype":"레저업소 - 노 래 방","category":"leisure"}]},{"lat":"37.678548759","long":"127.20902417","imageIndex":13,"items":[{"name":"아이스윔","tel":"031-572-7889","addr":"경기도 남양주시 오남읍 오남리 475-8번지 신명프라자 지하2층","indutype":"레저업소 - 수 영 장","category":"leisure"}]},{"lat":"37.69429977","long":"127.20777521","imageIndex":13,"items":[{"name":"오남 T-up 스크린골프","tel":"031-573-8375","addr":"경기도 남양주시 오남읍 오남리 744번지 한국아파트 201,202호","indutype":"레저업소 - 스크린골프","category":"leisure"}]},{"lat":"37.693466926","long":"127.21510866","imageIndex":13,"items":[{"name":"카스파영 에어로빅 교육관 B.F댄스","tel":"031-514-7085","addr":"경기도 남양주시 오남읍 오남리 129-16번지 3층","indutype":"레저업소 - 헬스클럽","category":"leisure"}]},{"lat":"37.689220377","long":"127.21175201","imageIndex":13,"items":[{"name":"캥거루점프팡팡키즈카페","tel":"031-529-3880","addr":"경기도 남양주시 오남읍 오남리 683-7번지 진주상가 202호","indutype":"레저업소 - 기타레져업소","category":"leisure"}]},{"lat":"37.680133278","long":"127.20969738","imageIndex":13,"items":[{"name":"탈렌트노래연습장","tel":"031-528-6194","addr":"경기도 남양주시 오남읍 오남리 495-1","indutype":"레저업소 - 노 래 방","category":"leisure"}]},{"lat":"37.685798737","long":"127.21060873","imageIndex":13,"items":[{"name":"탑스타 PC 오남점","tel":"070-8991-0745","addr":"경기도 남양주시 오남읍 오남리 602-11번지 2층","indutype":"레저업소 - 기타레져업소","category":"leisure"},{"name":"토마토 노래연습장","tel":"031-529-0474","addr":"경기도 남양주시 오남읍 오남리 602-11번지","indutype":"레저업소 - 노 래 방","category":"leisure"}]},{"lat":"37.685690722","long":"127.21055174","imageIndex":13,"items":[{"name":"한양당구클럽","tel":"031-575-1602","addr":"경기도 남양주시 오남읍 오남리 602-10번지","indutype":"레저업소 - 당 구 장","category":"leisure"}]}]