[{"lat":"37.651113908","long":"127.30182249","imageIndex":13,"items":[{"name":"4U(포유)","tel":"","addr":"경기도 남양주시 화도읍 창현리 718-3번지 2층","indutype":"레저업소 - 기타레져업소","category":"leisure"}]},{"lat":"37.651309207","long":"127.30649192","imageIndex":13,"items":[{"name":"LA노래연습장","tel":"031-593-5718","addr":"경기도 남양주시 화도읍 창현리 469-20번지 2층","indutype":"레저업소 - 노 래 방","category":"leisure"}]},{"lat":"37.635811198","long":"127.31049607","imageIndex":13,"items":[{"name":"골프존 파크","tel":"031-595-3398","addr":"경기도 남양주시 화도읍 창현리 319번지","indutype":"레저업소 - 스크린골프","category":"leisure"}]},{"lat":"37.636424883","long":"127.31010207","imageIndex":13,"items":[{"name":"근당구장","tel":"031-593-3949","addr":"경기도 남양주시 화도읍 창현리 320-5번지","indutype":"레저업소 - 당 구 장","category":"leisure"},{"name":"창현당구장","tel":"031-553-3949","addr":"경기도 남양주시 화도읍 창현리 320-5번지 1동 2층","indutype":"레저업소 - 당 구 장","category":"leisure"}]},{"lat":"37.652275822","long":"127.30548732","imageIndex":13,"items":[{"name":"렙업PC방","tel":"070-8816-1183","addr":"경기도 남양주시 화도읍 창현리 491-2번지 5층","indutype":"레저업소 - 기타레져업소","category":"leisure"}]},{"lat":"37.652614361","long":"127.30346029","imageIndex":13,"items":[{"name":"마석탁구장","tel":"031-559-4507","addr":"경기도 남양주시 화도읍 창현리 498-1번지 지하층","indutype":"레저업소 - 기타레져업소","category":"leisure"}]},{"lat":"37.652365278","long":"127.30573698","imageIndex":13,"items":[{"name":"뮤젠노래연습장","tel":"031-1111-1111","addr":"경기도 남양주시 화도읍 창현리 489-1번지","indutype":"레저업소 - 노 래 방","category":"leisure"}]},{"lat":"37.650333002","long":"127.30421031","imageIndex":13,"items":[{"name":"수영당구클럽","tel":"070-4332-9171","addr":"경기도 남양주시 화도읍 창현리 731-3번지 3층 청일빌딩","indutype":"레저업소 - 당 구 장","category":"leisure"},{"name":"왕자와공주","tel":"070-4159-6720","addr":"경기도 남양주시 화도읍 창현리 731-3번지","indutype":"레저업소 - 기타레져업소","category":"leisure"}]},{"lat":"37.652391084","long":"127.30621302","imageIndex":13,"items":[{"name":"아이센스PC 마석점","tel":"070-8816-1183","addr":"경기도 남양주시 화도읍 창현리 488-2번지 지하1층","indutype":"레저업소 - 기타레져업소","category":"leisure"}]},{"lat":"37.64794916","long":"127.30627428","imageIndex":13,"items":[{"name":"웰스크린골프","tel":"031-559-6530","addr":"경기도 남양주시 화도읍 창현리 551-1번지 웰스포빌딩","indutype":"레저업소 - 스크린골프","category":"leisure"},{"name":"웰스포볼링센터","tel":"031-567-5600","addr":"경기도 남양주시 화도읍 창현리 551-1번지 5층","indutype":"레저업소 - 볼 링 장","category":"leisure"}]},{"lat":"37.650026648","long":"127.3042204","imageIndex":13,"items":[{"name":"인더슬라임","tel":"","addr":"경기도 남양주시 화도읍 창현리 729번지 대광프라자 2층 203호","indutype":"레저업소 - 기타레져업소","category":"leisure"}]},{"lat":"37.640114065","long":"127.30143851","imageIndex":13,"items":[{"name":"제이빌리어드","tel":"031-000-0000","addr":"경기도 남양주시 화도읍 창현리 774번지 창현대주피오레","indutype":"레저업소 - 당 구 장","category":"leisure"}]},{"lat":"37.652531772","long":"127.30404921","imageIndex":13,"items":[{"name":"중앙당구프라자","tel":"031-594-9351","addr":"경기도 남양주시 화도읍 창현리 494-3","indutype":"레저업소 - 당 구 장","category":"leisure"}]},{"lat":"37.64611362","long":"127.30532635","imageIndex":13,"items":[{"name":"퀘스트 짐(QUEST GYM)","tel":"031-000-0000","addr":"경기도 남양주시 화도읍 창현리 555번지 3층","indutype":"레저업소 - 헬스클럽","category":"leisure"}]},{"lat":"37.652530556","long":"127.30452515","imageIndex":13,"items":[{"name":"킹스노래연습장","tel":"031-511-6268","addr":"경기도 남양주시 화도읍 창현리 494-18번지 지하1층","indutype":"레저업소 - 노 래 방","category":"leisure"}]},{"lat":"37.651643785","long":"127.30601735","imageIndex":13,"items":[{"name":"탑 피씨(TOP PC)","tel":"070-9381-2170","addr":"경기도 남양주시 화도읍 창현리 489-4번지 3층 금용빌딩","indutype":"레저업소 - 기타레져업소","category":"leisure"}]},{"lat":"37.641777046","long":"127.30294075","imageIndex":13,"items":[{"name":"필2노래연습장","tel":"031-511-7228","addr":"경기도 남양주시 화도읍 창현리 699-2번지 넝쿨가든 2층 202호","indutype":"레저업소 - 노 래 방","category":"leisure"},{"name":"필노래연습장","tel":"070-8953-0280","addr":"경기도 남양주시 화도읍 창현리 699-2번지 203 2층","indutype":"레저업소 - 노 래 방","category":"leisure"}]},{"lat":"37.649030892","long":"127.30605205","imageIndex":13,"items":[{"name":"핏걸 창현점","tel":"031-511-9879","addr":"경기도 남양주시 화도읍 창현리 462-3번지 201,202호","indutype":"레저업소 - 헬스클럽","category":"leisure"}]},{"lat":"37.639671998","long":"127.3052096","imageIndex":13,"items":[{"name":"현대당구장","tel":"","addr":"경기도 남양주시 화도읍 창현리 산46번지 상가동 지층","indutype":"레저업소 - 당 구 장","category":"leisure"}]}]