[{"lat":"37.599434149","long":"127.6059977","imageIndex":4,"items":[{"name":"계수나무집","tel":"031-000-0000","addr":"경기도 양평군 단월면 산음리 595-4번지","indutype":"일반휴게음식 - 일반한식","category":"restaurant"}]},{"lat":"37.599596812","long":"127.59701932","imageIndex":4,"items":[{"name":"산음캠핑","tel":"031-772-3054","addr":"경기도 양평군 단월면 산음리 685-1번지","indutype":"일반휴게음식 - 일반한식","category":"restaurant"}]},{"lat":"37.606072818","long":"127.60274449","imageIndex":7,"items":[{"name":"농업회사법인양평착한떡마을(주)","tel":"031-111-1111","addr":"경기도 양평군 단월면 산음리 219-1번지","indutype":"음료식품 - 기타음료식품","category":"food"},{"name":"토종벌의꿈","tel":"031-774-5714","addr":"경기도 양평군 단월면 산음리 219-1","indutype":"건강식품 - 기타건강식품","category":"food"}]},{"lat":"37.592568421","long":"127.58635413","imageIndex":7,"items":[{"name":"에프에프","tel":"031-848-1783","addr":"경기도 양평군 단월면 산음리 855-1번지","indutype":"음료식품 - 기타음료식품","category":"food"}]},{"lat":"37.610649874","long":"127.59915713","imageIndex":16,"items":[{"name":"산음2리 새마을회","tel":"031-000-0000","addr":"경기도 양평군 단월면 산음리 333-4번지","indutype":"학원 - 기타 교육기관","category":"study"}]},{"lat":"37.597871188","long":"127.59796809","imageIndex":13,"items":[{"name":"산음달빛 영농조합법인","tel":"031-775-5418","addr":"경기도 양평군 단월면 산음리 684-1번지","indutype":"레저업소 - 기타레져업소","category":"leisure"}]},{"lat":"37.599596812","long":"127.59701932","imageIndex":5,"items":[{"name":"산음오토캠핑장","tel":"031-772-3054","addr":"경기도 양평군 단월면 산음리 685-1","indutype":"숙박업 - 여관/기타숙박업","category":"hotel"}]},{"lat":"37.587571078","long":"127.58208074","imageIndex":5,"items":[{"name":"산음펜션","tel":"031-7717-7825","addr":"경기도 양평군 단월면 산음리 965번지","indutype":"숙박업 - 여관/기타숙박업","category":"hotel"}]},{"lat":"37.590874332","long":"127.58640884","imageIndex":5,"items":[{"name":"아띠울","tel":"031-774-4264","addr":"경기도 양평군 단월면 산음리 859-1번지","indutype":"숙박업 - 여관/기타숙박업","category":"hotel"}]},{"lat":"37.595601277","long":"127.61024689","imageIndex":5,"items":[{"name":"양평포레스트펜션","tel":"031-771-4471","addr":"경기도 양평군 단월면 산음리 604-5번지","indutype":"숙박업 - 여관/기타숙박업","category":"hotel"}]},{"lat":"37.595873012","long":"127.60996602","imageIndex":5,"items":[{"name":"포레스트펜션","tel":"031-771-4471","addr":"경기도 양평군 단월면 산음리 604-3번지","indutype":"숙박업 - 여관/기타숙박업","category":"hotel"}]},{"lat":"37.590874332","long":"127.58640884","imageIndex":7,"items":[{"name":"아띠슈퍼","tel":"031-774-4264","addr":"경기도 양평군 단월면 산음리 859-1번지","indutype":"유통업 영리 - 슈퍼마켓","category":"mart"}]},{"lat":"37.595652749","long":"127.59119053","imageIndex":17,"items":[{"name":"지에스탑","tel":"031-796-3313","addr":"경기도 양평군 단월면 산음리 744-1번지 1층","indutype":"직물 - 카페트,커튼,천막,지물","category":"other"}]},{"lat":"37.605759171","long":"127.60063559","imageIndex":17,"items":[{"name":"참사랑통합힐링센터","tel":"031-771-2504","addr":"경기도 양평군 단월면 산음리 231-1번지","indutype":"회원제형태 - 기타4","category":"other"}]},{"lat":"37.610237673","long":"127.59513335","imageIndex":17,"items":[{"name":"행복한 정원 인테리어","tel":"070-7420-3774","addr":"경기도 양평군 단월면 산음리 421번지","indutype":"가구 - 기타가구","category":"other"}]}]