[{"lat":"37.624865287","long":"127.15161445","imageIndex":7,"items":[{"name":"(주)다산제일유통","tel":"031-556-6668","addr":"경기도 남양주시 다산동 6061-1번지","indutype":"유통업 영리 - 슈퍼마켓","category":"mart"}]},{"lat":"37.623361361","long":"127.1580681","imageIndex":7,"items":[{"name":"다산할인MART/에스에이치유통 주식회사","tel":"031-111-1111","addr":"경기도 남양주시 다산동 6092번지 힐스테이트다산근린생활시설 113동 117호","indutype":"유통업 영리 - 슈퍼마켓","category":"mart"}]},{"lat":"37.61630505","long":"127.15934464","imageIndex":7,"items":[{"name":"동원할인마트","tel":"031-554-1244","addr":"경기도 남양주시 다산동 3396번지","indutype":"유통업 영리 - 슈퍼마켓","category":"mart"}]},{"lat":"37.605782616","long":"127.15862046","imageIndex":7,"items":[{"name":"베스트올 편의점","tel":"1111-1111-1111","addr":"경기도 남양주시 다산동 617번지","indutype":"유통업 영리 - 슈퍼마켓","category":"mart"}]},{"lat":"37.607308317","long":"127.15629069","imageIndex":7,"items":[{"name":"복원슈퍼","tel":"","addr":"경기도 남양주시 다산동 4045-6번지","indutype":"유통업 영리 - 슈퍼마켓","category":"mart"}]},{"lat":"37.611591805","long":"127.16020684","imageIndex":7,"items":[{"name":"부영하나마트","tel":"031-558-3211","addr":"경기도 남양주시 다산동 4002-1번지 부영E그린타운 603동상가 104호","indutype":"유통업 영리 - 슈퍼마켓","category":"mart"}]},{"lat":"37.601644531","long":"127.17353708","imageIndex":7,"items":[{"name":"빅마트/(주)벼리유통","tel":"031-557-8882","addr":"경기도 남양주시 다산동 6217번지","indutype":"유통업 영리 - 슈퍼마켓","category":"mart"}]},{"lat":"37.60859107","long":"127.16717685","imageIndex":7,"items":[{"name":"새싹상회","tel":"031-566-2878","addr":"경기도 남양주시 다산동 3096-23번지","indutype":"유통업 영리 - 슈퍼마켓","category":"mart"}]},{"lat":"37.607617135","long":"127.16780891","imageIndex":7,"items":[{"name":"오케이마트","tel":"031-565-8049","addr":"경기도 남양주시 다산동 3718번지 한화꿈에그린상가 103호","indutype":"유통업 영리 - 슈퍼마켓","category":"mart"},{"name":"한화마트","tel":"031-551-8762","addr":"경기도 남양주시 다산동 3718번지 상가2동 지층 104,105호","indutype":"유통업 영리 - 슈퍼마켓","category":"mart"}]},{"lat":"37.611226265","long":"127.15728407","imageIndex":7,"items":[{"name":"월드할인마트","tel":"031-558-5886","addr":"경기도 남양주시 다산동 4002-10번지 부영그린타운 상가 104호","indutype":"유통업 영리 - 슈퍼마켓","category":"mart"}]},{"lat":"37.614806396","long":"127.16161806","imageIndex":7,"items":[{"name":"장원수퍼","tel":"031-562-4906","addr":"경기도 남양주시 다산동 3391-58번지 3,4호","indutype":"유통업 영리 - 슈퍼마켓","category":"mart"}]},{"lat":"37.628111742","long":"127.15634476","imageIndex":7,"items":[{"name":"초록마을 다산신도시점","tel":"031-523-8874","addr":"경기도 남양주시 다산동 6030-1번지 다산진건지구 근생1-1-2 1층 101호","indutype":"유통업 영리 - 슈퍼마켓","category":"mart"}]},{"lat":"37.610006306","long":"127.15312511","imageIndex":7,"items":[{"name":"크로바마트(도농점)","tel":"031-563-8603","addr":"경기도 남양주시 다산동 4340-18번지","indutype":"유통업 영리 - 슈퍼마켓","category":"mart"}]},{"lat":"37.598417935","long":"127.16140206","imageIndex":7,"items":[{"name":"한국유통","tel":"031-566-0038","addr":"경기도 남양주시 다산동 685-4번지","indutype":"유통업 영리 - 슈퍼마켓","category":"mart"}]},{"lat":"37.625367686","long":"127.14606485","imageIndex":7,"items":[{"name":"한양마트","tel":"031-373-8846","addr":"경기도 남양주시 다산동 6024번지 다산한양수자인리버팰리스 123동 101호","indutype":"유통업 영리 - 슈퍼마켓","category":"mart"}]},{"lat":"37.623306878","long":"127.15139612","imageIndex":7,"items":[{"name":"행운마트","tel":"","addr":"경기도 남양주시 다산동 6085번지 다산역리더스타워 다산진건지구상업3블럭 8-1로트 1층 104호","indutype":"유통업 영리 - 슈퍼마켓","category":"mart"}]},{"lat":"37.608533935","long":"127.1560667","imageIndex":7,"items":[{"name":"흥부네슈퍼","tel":"031-516-8803","addr":"경기도 남양주시 다산동 4043-7번지","indutype":"유통업 영리 - 슈퍼마켓","category":"mart"}]}]