[{"lat":"37.513756107","long":"126.77035313","imageIndex":4,"items":[{"name":"92오갈매기","tel":"032-677-9250","addr":"경기도 부천시 약대동 100-1번지 1층","indutype":"일반휴게음식 - 일반한식","category":"restaurant"},{"name":"다리다리춘천참숯불닭갈비","tel":"032-678-9393","addr":"경기도 부천시 약대동 100-1번지 1층","indutype":"일반휴게음식 - 일반한식","category":"restaurant"},{"name":"씨앤비어","tel":"031-682-7775","addr":"경기도 부천시 약대동 100-1번지 1층","indutype":"일반휴게음식 - 주점","category":"restaurant"}]},{"lat":"37.516866413","long":"126.76230113","imageIndex":4,"items":[{"name":"가람설렁탕","tel":"032-321-6266","addr":"경기도 부천시 약대동 192번지 부천테크노파크2단지 200동 201호","indutype":"일반휴게음식 - 일반한식","category":"restaurant"},{"name":"까페 인","tel":"032-234-1849","addr":"경기도 부천시 약대동 192번지 부천테크노파트200동109호전부,110호일부","indutype":"일반휴게음식 - 서양음식","category":"restaurant"},{"name":"리노커피","tel":"","addr":"경기도 부천시 약대동 192번지 부천테크노파크2단지 200동 103호","indutype":"일반휴게음식 - 서양음식","category":"restaurant"},{"name":"맛조은돼지불백","tel":"032-567-2509","addr":"경기도 부천시 약대동 192번지 부천테크노파크2단지 200동 105호","indutype":"일반휴게음식 - 일반한식","category":"restaurant"},{"name":"명일가","tel":"032-326-4832","addr":"경기도 부천시 약대동 192번지 부천테크노파크2단지 B층 B10호 09","indutype":"일반휴게음식 - 일반한식","category":"restaurant"},{"name":"순대상회","tel":"032-321-9388","addr":"경기도 부천시 약대동 192번지 부천테크노파크2단지 200동 106호","indutype":"일반휴게음식 - 일반한식","category":"restaurant"},{"name":"오백국수","tel":"032-321-0530","addr":"경기도 부천시 약대동 192번지 부천테크노파크2단지 200동 102호","indutype":"일반휴게음식 - 일반한식","category":"restaurant"},{"name":"이조반점","tel":"032-321-1383","addr":"경기도 부천시 약대동 192번지 부천테크노파크2단지 200동 202호","indutype":"일반휴게음식 - 일반한식","category":"restaurant"}]},{"lat":"37.513895068","long":"126.77229817","imageIndex":4,"items":[{"name":"가평집","tel":"032-678-2526","addr":"경기도 부천시 약대동 117번지 횟집 1층","indutype":"일반휴게음식 - 일반한식","category":"restaurant"}]},{"lat":"37.513865759","long":"126.77113324","imageIndex":4,"items":[{"name":"갈비마을","tel":"032-246-9292","addr":"경기도 부천시 약대동 95번지 1층","indutype":"일반휴게음식 - 일반한식","category":"restaurant"}]},{"lat":"37.516064499","long":"126.76674901","imageIndex":4,"items":[{"name":"고스트1번지스테이크피자","tel":"032-329-8834","addr":"경기도 부천시 약대동 216-1번지 부천아이파크","indutype":"일반휴게음식 - 서양음식","category":"restaurant"},{"name":"너나들이","tel":"","addr":"경기도 부천시 약대동 216-1번지 부천아이파크","indutype":"일반휴게음식 - 서양음식","category":"restaurant"},{"name":"니트(neat)","tel":"","addr":"경기도 부천시 약대동 216-1번지 부천아이파크","indutype":"일반휴게음식 - 일반한식","category":"restaurant"},{"name":"브리제","tel":"","addr":"경기도 부천시 약대동 216-1번지 부천아이파크","indutype":"일반휴게음식 - 서양음식","category":"restaurant"},{"name":"언니네","tel":"032-682-3994","addr":"경기도 부천시 약대동 216-1번지 부천아이파크","indutype":"일반휴게음식 - 스넥","category":"restaurant"},{"name":"오토바이탄어부","tel":"032-325-4588","addr":"경기도 부천시 약대동 216-1번지 부천아이파크","indutype":"일반휴게음식 - 일반한식","category":"restaurant"},{"name":"처갓집양념치킨 약대점","tel":"032-321-9288","addr":"경기도 부천시 약대동 216-1번지 부천아이파크","indutype":"일반휴게음식 - 스넥","category":"restaurant"}]},{"lat":"37.513396959","long":"126.77098765","imageIndex":4,"items":[{"name":"군산아구찜","tel":"032-671-5516","addr":"경기도 부천시 약대동 124-1번지 나동 1층","indutype":"일반휴게음식 - 일반한식","category":"restaurant"}]},{"lat":"37.513876364","long":"126.77194759","imageIndex":4,"items":[{"name":"굽네치킨 신흥약대동점","tel":"032-678-9294","addr":"경기도 부천시 약대동 118번지 파인센트럴빌 A동 101호","indutype":"일반휴게음식 - 스넥","category":"restaurant"}]},{"lat":"37.513592882","long":"126.76982203","imageIndex":4,"items":[{"name":"꼼서방 전부인","tel":"032-684-9292","addr":"경기도 부천시 약대동 106번지 1층","indutype":"일반휴게음식 - 일반한식","category":"restaurant"}]},{"lat":"37.512312547","long":"126.76935096","imageIndex":4,"items":[{"name":"다니엘장례식장내식당","tel":"032-678-4242","addr":"경기도 부천시 약대동 138-7번지 지하,107","indutype":"일반휴게음식 - 일반한식","category":"restaurant"},{"name":"천사커피","tel":"","addr":"경기도 부천시 약대동 138-7번지 다니엘종합병원 1층 120호","indutype":"일반휴게음식 - 서양음식","category":"restaurant"}]},{"lat":"37.513483893","long":"126.76938125","imageIndex":4,"items":[{"name":"대동식당","tel":"032-681-8667","addr":"경기도 부천시 약대동 109-3번지","indutype":"일반휴게음식 - 일반한식","category":"restaurant"}]},{"lat":"37.516232441","long":"126.76513097","imageIndex":4,"items":[{"name":"더가츠","tel":"032-329-0996","addr":"경기도 부천시 약대동 182-9번지 1층 일부","indutype":"일반휴게음식 - 서양음식","category":"restaurant"},{"name":"더시리즈","tel":"032-322-0551","addr":"경기도 부천시 약대동 182-9번지 2층","indutype":"일반휴게음식 - 일반한식","category":"restaurant"}]},{"lat":"37.513315181","long":"126.77063727","imageIndex":4,"items":[{"name":"두리아숯불닭바베큐","tel":"032-682-3017","addr":"경기도 부천시 약대동 126-2번지 1층","indutype":"일반휴게음식 - 주점","category":"restaurant"},{"name":"어랑활어전문점","tel":"032-675-6441","addr":"경기도 부천시 약대동 126-2번지 1층","indutype":"일반휴게음식 - 일식·회집","category":"restaurant"}]},{"lat":"37.509535518","long":"126.77293364","imageIndex":4,"items":[{"name":"라이프오브자메이카(life of jamaica)","tel":"","addr":"경기도 부천시 약대동 209번지 부천위브트레지움2단지아파트","indutype":"일반휴게음식 - 일반한식","category":"restaurant"}]},{"lat":"37.513371238","long":"126.77165507","imageIndex":4,"items":[{"name":"마을카페달토 협동조합","tel":"032-673-2933","addr":"경기도 부천시 약대동 121번지 호수빌딩","indutype":"일반휴게음식 - 서양음식","category":"restaurant"}]},{"lat":"37.515872002","long":"126.7651095","imageIndex":4,"items":[{"name":"마인츠쿡(Mainz cook)","tel":"032-322-0729","addr":"경기도 부천시 약대동 182-18번지","indutype":"일반휴게음식 - 일반한식","category":"restaurant"}]},{"lat":"37.510756861","long":"126.77551998","imageIndex":4,"items":[{"name":"명가식당","tel":"032-677-4805","addr":"경기도 부천시 약대동 176-3번지 2층","indutype":"일반휴게음식 - 일반한식","category":"restaurant"},{"name":"송주불냉면 약대점","tel":"032-684-4687","addr":"경기도 부천시 약대동 176-3번지 2층 일부","indutype":"일반휴게음식 - 일반한식","category":"restaurant"},{"name":"형제민물장어","tel":"032-311-9925","addr":"경기도 부천시 약대동 176-3번지","indutype":"일반휴게음식 - 일반한식","category":"restaurant"}]},{"lat":"37.513729567","long":"126.77060205","imageIndex":4,"items":[{"name":"밥이랑술이랑","tel":"032-673-7103","addr":"경기도 부천시 약대동 99-3번지 1층","indutype":"일반휴게음식 - 일반한식","category":"restaurant"},{"name":"삽다리곱창","tel":"032-679-8588","addr":"경기도 부천시 약대동 99-3번지","indutype":"일반휴게음식 - 일반한식","category":"restaurant"}]},{"lat":"37.511151707","long":"126.77007845","imageIndex":4,"items":[{"name":"별주부해물찜칼국수","tel":"032-679-1211","addr":"경기도 부천시 약대동 144-4번지 2층","indutype":"일반휴게음식 - 일반한식","category":"restaurant"}]},{"lat":"37.515177174","long":"126.76458008","imageIndex":4,"items":[{"name":"본래순대 약대점","tel":"032-327-7988","addr":"경기도 부천시 약대동 182-36번지 1층","indutype":"일반휴게음식 - 일반한식","category":"restaurant"}]},{"lat":"37.514034387","long":"126.76983197","imageIndex":4,"items":[{"name":"본죽","tel":"032-671-6288","addr":"경기도 부천시 약대동 104번지 1층","indutype":"일반휴게음식 - 일반한식","category":"restaurant"},{"name":"피자스쿨(약대점)","tel":"032-679-9333","addr":"경기도 부천시 약대동 104번지 1층","indutype":"일반휴게음식 - 서양음식","category":"restaurant"}]},{"lat":"37.514701114","long":"126.76982989","imageIndex":4,"items":[{"name":"부어치킨","tel":"032-673-3392","addr":"경기도 부천시 약대동 93-1번지","indutype":"일반휴게음식 - 스넥","category":"restaurant"},{"name":"최고야왕만두","tel":"032-682-7938","addr":"경기도 부천시 약대동 93-1번지 1층","indutype":"일반휴게음식 - 일반한식","category":"restaurant"},{"name":"크레마D","tel":"","addr":"경기도 부천시 약대동 93-1번지 1층","indutype":"일반휴게음식 - 칵테일바","category":"restaurant"}]},{"lat":"37.513177581","long":"126.77399699","imageIndex":4,"items":[{"name":"비니치킨","tel":"032-673-7145","addr":"경기도 부천시 약대동 170-6번지 1층","indutype":"일반휴게음식 - 스넥","category":"restaurant"},{"name":"지니쿡","tel":"","addr":"경기도 부천시 약대동 170-6번지 1층 일부","indutype":"일반휴게음식 - 일반한식","category":"restaurant"}]},{"lat":"37.51317921","long":"126.77021919","imageIndex":4,"items":[{"name":"사계절호프","tel":"","addr":"경기도 부천시 약대동 128-5번지 ,1,2층","indutype":"일반휴게음식 - 일반한식","category":"restaurant"}]},{"lat":"37.512895616","long":"126.77262926","imageIndex":4,"items":[{"name":"삼대떡볶이 약대점","tel":"","addr":"경기도 부천시 약대동 169-62번지","indutype":"일반휴게음식 - 스넥","category":"restaurant"}]},{"lat":"37.512870015","long":"126.76877238","imageIndex":4,"items":[{"name":"삼복냉면  돈까스","tel":"032-672-7982","addr":"경기도 부천시 약대동 139-3번지 1층","indutype":"일반휴게음식 - 서양음식","category":"restaurant"}]},{"lat":"37.514843237","long":"126.76880015","imageIndex":4,"items":[{"name":"삼학도","tel":"032-679-6989","addr":"경기도 부천시 약대동 84-12번지","indutype":"일반휴게음식 - 일반한식","category":"restaurant"}]},{"lat":"37.512755793","long":"126.77024313","imageIndex":4,"items":[{"name":"생고기대학교약대점/킴스에프앤비 주식회사","tel":"032-678-1676","addr":"경기도 부천시 약대동 135번지 승화빌딩","indutype":"일반휴게음식 - 일반한식","category":"restaurant"},{"name":"역전치킨","tel":"032-674-1611","addr":"경기도 부천시 약대동 135번지 승화빌딩 1층 지상 1층 일부","indutype":"일반휴게음식 - 스넥","category":"restaurant"}]},{"lat":"37.513011069","long":"126.76721106","imageIndex":4,"items":[{"name":"쌍둥이네","tel":"032-676-5543","addr":"경기도 부천시 약대동 62-8번지","indutype":"일반휴게음식 - 일반한식","category":"restaurant"}]},{"lat":"37.512367921","long":"126.77463286","imageIndex":4,"items":[{"name":"써니치킨","tel":"032-673-9100","addr":"경기도 부천시 약대동 169-115번지 일부","indutype":"일반휴게음식 - 스넥","category":"restaurant"},{"name":"유스포힐링스파","tel":"032-673-9100","addr":"경기도 부천시 약대동 169-115번지 지하2층 유스포힐링사우나","indutype":"일반휴게음식 - 일반한식","category":"restaurant"}]},{"lat":"37.514844937","long":"126.76965978","imageIndex":4,"items":[{"name":"약대동점오구피자","tel":"032-672-5989","addr":"경기도 부천시 약대동 92-2번지 1층","indutype":"일반휴게음식 - 서양음식","category":"restaurant"}]},{"lat":"37.510262385","long":"126.77607568","imageIndex":4,"items":[{"name":"억조식당","tel":"032-676-2815","addr":"경기도 부천시 약대동 177-84번지","indutype":"일반휴게음식 - 일반한식","category":"restaurant"},{"name":"행운밥상","tel":"032-682-7272","addr":"경기도 부천시 약대동 177-84번지 1층","indutype":"일반휴게음식 - 일반한식","category":"restaurant"}]},{"lat":"37.514814995","long":"126.76818944","imageIndex":4,"items":[{"name":"여의주다방","tel":"032-675-9945","addr":"경기도 부천시 약대동 82-6번지","indutype":"일반휴게음식 - 스넥","category":"restaurant"},{"name":"행복까페(cafe)하늘","tel":"070-8248-3754","addr":"경기도 부천시 약대동 82-6번지 1층","indutype":"일반휴게음식 - 서양음식","category":"restaurant"}]},{"lat":"37.510980231","long":"126.7745466","imageIndex":4,"items":[{"name":"예그리나","tel":"032-671-8939","addr":"경기도 부천시 약대동 169-11번지 1층","indutype":"일반휴게음식 - 일반한식","category":"restaurant"}]},{"lat":"37.510760394","long":"126.77269237","imageIndex":4,"items":[{"name":"옥스카페","tel":"","addr":"경기도 부천시 약대동 175번지","indutype":"일반휴게음식 - 서양음식","category":"restaurant"}]},{"lat":"37.51469881","long":"126.76866487","imageIndex":4,"items":[{"name":"인동주마을","tel":"032-682-7880","addr":"경기도 부천시 약대동 84-8번지","indutype":"일반휴게음식 - 일반한식","category":"restaurant"}]},{"lat":"37.513422306","long":"126.76560363","imageIndex":4,"items":[{"name":"인생술집","tel":"032-323-1008","addr":"경기도 부천시 약대동 217-1번지 부천아이파크 1층 102호","indutype":"일반휴게음식 - 주점","category":"restaurant"},{"name":"카페지향","tel":"032-329-5500","addr":"경기도 부천시 약대동 217-1번지 부천아이파크","indutype":"일반휴게음식 - 서양음식","category":"restaurant"},{"name":"휘게랩","tel":"","addr":"경기도 부천시 약대동 217-1번지 부천아이파크 215동 102호","indutype":"일반휴게음식 - 서양음식","category":"restaurant"}]},{"lat":"37.513784227","long":"126.77090728","imageIndex":4,"items":[{"name":"장수추어탕","tel":"032-683-7148","addr":"경기도 부천시 약대동 96-1번지 1층","indutype":"일반휴게음식 - 일반한식","category":"restaurant"}]},{"lat":"37.51339451","long":"126.76974347","imageIndex":4,"items":[{"name":"제주돈가돈","tel":"032-674-5755","addr":"경기도 부천시 약대동 136번지","indutype":"일반휴게음식 - 일반한식","category":"restaurant"}]},{"lat":"37.512815508","long":"126.76854634","imageIndex":4,"items":[{"name":"채가당오리와곱창","tel":"032-677-4522","addr":"경기도 부천시 약대동 139-5번지 (1층,1호,2호)","indutype":"일반휴게음식 - 일반한식","category":"restaurant"}]},{"lat":"37.512816486","long":"126.77363615","imageIndex":4,"items":[{"name":"청계천공구상가노가리호프","tel":"032-677-0424","addr":"경기도 부천시 약대동 169-57번지 1층","indutype":"일반휴게음식 - 주점","category":"restaurant"}]},{"lat":"37.514727474","long":"126.76949048","imageIndex":4,"items":[{"name":"최가네 숯불구이","tel":"","addr":"경기도 부천시 약대동 91-3번지 1층","indutype":"일반휴게음식 - 일반한식","category":"restaurant"}]},{"lat":"37.511422158","long":"126.77015678","imageIndex":4,"items":[{"name":"치코디카페","tel":"032-676-0422","addr":"경기도 부천시 약대동 144-3번지 수향빌딩 2층","indutype":"일반휴게음식 - 일반한식","category":"restaurant"}]},{"lat":"37.516285885","long":"126.7648254","imageIndex":4,"items":[{"name":"카카오데이(cacao-day)","tel":"","addr":"경기도 부천시 약대동 182번지","indutype":"일반휴게음식 - 서양음식","category":"restaurant"}]},{"lat":"37.513096975","long":"126.77424608","imageIndex":4,"items":[{"name":"카페세모","tel":"032-679-3952","addr":"경기도 부천시 약대동 170-14번지 1층","indutype":"일반휴게음식 - 서양음식","category":"restaurant"}]},{"lat":"37.513177402","long":"126.76930303","imageIndex":4,"items":[{"name":"카페아델라","tel":"070-7753-8906","addr":"경기도 부천시 약대동 137-1번지 SJ성진힐스","indutype":"일반휴게음식 - 서양음식","category":"restaurant"}]},{"lat":"37.516088397","long":"126.76518799","imageIndex":4,"items":[{"name":"커피야","tel":"070-8880-1009","addr":"경기도 부천시 약대동 182-10번지 1층,약대동","indutype":"일반휴게음식 - 서양음식","category":"restaurant"}]},{"lat":"37.515177402","long":"126.76469319","imageIndex":4,"items":[{"name":"커피에반하다","tel":"070-8990-5893","addr":"경기도 부천시 약대동 182-48번지 1층","indutype":"일반휴게음식 - 서양음식","category":"restaurant"}]},{"lat":"37.512978738","long":"126.76907743","imageIndex":4,"items":[{"name":"커피에반하다 부천수도로점","tel":"","addr":"경기도 부천시 약대동 137-9번지 1층","indutype":"일반휴게음식 - 서양음식","category":"restaurant"}]},{"lat":"37.513954212","long":"126.77029596","imageIndex":4,"items":[{"name":"코코넷","tel":"032-678-4440","addr":"경기도 부천시 약대동 98-3번지","indutype":"일반휴게음식 - 칵테일바","category":"restaurant"}]},{"lat":"37.511093163","long":"126.77238596","imageIndex":4,"items":[{"name":"토주메기탕","tel":"032-683-8900","addr":"경기도 부천시 약대동 156-3번지 1층 일부","indutype":"일반휴게음식 - 일반한식","category":"restaurant"}]},{"lat":"37.515754692","long":"126.76501938","imageIndex":4,"items":[{"name":"포비스타 (4Vista)","tel":"032-322-8484","addr":"경기도 부천시 약대동 182-20번지 1층","indutype":"일반휴게음식 - 일반한식","category":"restaurant"}]},{"lat":"37.513697573","long":"126.76809115","imageIndex":4,"items":[{"name":"피자나라치킨 약대점","tel":"032-684-6635","addr":"경기도 부천시 약대동 50번지 삼호아트빌 가동 102호","indutype":"일반휴게음식 - 일반한식","category":"restaurant"}]},{"lat":"37.511426571","long":"126.77240756","imageIndex":4,"items":[{"name":"피자예스","tel":"032-676-4645","addr":"경기도 부천시 약대동 156-1번지 1층","indutype":"일반휴게음식 - 서양음식","category":"restaurant"}]},{"lat":"37.514480844","long":"126.76779461","imageIndex":4,"items":[{"name":"하리보양집","tel":"032-679-0066","addr":"경기도 부천시 약대동 80-19번지 1층","indutype":"일반휴게음식 - 일반한식","category":"restaurant"}]},{"lat":"37.510535897","long":"126.77307761","imageIndex":4,"items":[{"name":"행복한김밥","tel":"032-677-9897","addr":"경기도 부천시 약대동 175-17번지","indutype":"일반휴게음식 - 스넥","category":"restaurant"}]},{"lat":"37.515177949","long":"126.76496465","imageIndex":4,"items":[{"name":"현대설렁탕","tel":"","addr":"경기도 부천시 약대동 182-59번지 1층","indutype":"일반휴게음식 - 일반한식","category":"restaurant"}]},{"lat":"37.50967707","long":"126.77624711","imageIndex":4,"items":[{"name":"호남식당","tel":"032-684-9534","addr":"경기도 부천시 약대동 177-20번지","indutype":"일반휴게음식 - 일반한식","category":"restaurant"}]},{"lat":"37.513678924","long":"126.7677745","imageIndex":4,"items":[{"name":"호식이두마리치킨 약대점","tel":"032-672-9993","addr":"경기도 부천시 약대동 51번지 홍성아트빌 102호","indutype":"일반휴게음식 - 스넥","category":"restaurant"}]}]