[{"lat":"37.056296464","long":"127.05689154","imageIndex":13,"items":[{"name":"24시노래연습장","tel":"031-667-1222","addr":"경기도 평택시 이충동 463-34.2층","indutype":"레저업소 - 노 래 방","category":"leisure"}]},{"lat":"37.051962594","long":"127.05637134","imageIndex":13,"items":[{"name":"Dr.스크린골프","tel":"031-662-9955","addr":"경기도 평택시 이충동 609-2번지 금강프라자 501,502,503,507호","indutype":"레저업소 - 스크린골프","category":"leisure"},{"name":"점핑하이 점핑WK","tel":"","addr":"경기도 평택시 이충동 609-2번지 금강프라자","indutype":"레저업소 - 헬스클럽","category":"leisure"}]},{"lat":"37.058295228","long":"127.07659054","imageIndex":13,"items":[{"name":"깨비블럭 이충장안점","tel":"031-611-2582","addr":"경기도 평택시 이충동 22번지 이충빌딩 401호","indutype":"레저업소 - 기타레져업소","category":"leisure"},{"name":"운동공간인핏","tel":"031-613-8584","addr":"경기도 평택시 이충동 22번지 이충빌딩 2층 202호","indutype":"레저업소 - 헬스클럽","category":"leisure"}]},{"lat":"37.059959737","long":"127.06514661","imageIndex":13,"items":[{"name":"노리터pc카페","tel":"041-631-5456","addr":"경기도 평택시 이충동 664-2번지 예림프라자 401호","indutype":"레저업소 - 기타레져업소","category":"leisure"},{"name":"마이필라테스","tel":"03-111-1111","addr":"경기도 평택시 이충동 664-2번지 예림프라자 202호,203호","indutype":"레저업소 - 헬스클럽","category":"leisure"}]},{"lat":"37.060181283","long":"127.07187022","imageIndex":13,"items":[{"name":"더마스터즈","tel":"031-611-0900","addr":"경기도 평택시 이충동 191-1번지 2층 2호","indutype":"레저업소 - 골프연습장","category":"leisure"}]},{"lat":"37.055296383","long":"127.05667722","imageIndex":13,"items":[{"name":"드림복싱클럽","tel":"031-668-8687","addr":"경기도 평택시 이충동 492-4번지 3층","indutype":"레저업소 - 헬스클럽","category":"leisure"}]},{"lat":"37.05204297","long":"127.05794527","imageIndex":13,"items":[{"name":"디와이비 짐(DYB GYM)","tel":"","addr":"경기도 평택시 이충동 610-4번지 5층","indutype":"레저업소 - 헬스클럽","category":"leisure"},{"name":"장당당구클럽","tel":"031-611-3904","addr":"경기도 평택시 이충동 610-4번지","indutype":"레저업소 - 당 구 장","category":"leisure"},{"name":"킹노래연습장","tel":"031-667-7355","addr":"경기도 평택시 이충동 610-4번지 2층","indutype":"레저업소 - 노 래 방","category":"leisure"},{"name":"피케이 PK스피닝","tel":"031-665-5524","addr":"경기도 평택시 이충동 610-4번지 5층 501호","indutype":"레저업소 - 헬스클럽","category":"leisure"}]},{"lat":"37.060121649","long":"127.06567517","imageIndex":13,"items":[{"name":"럭셔리명품노래연습장","tel":"031-666-5554","addr":"경기도 평택시 이충동 664-5번지 이충동월프라자 302호","indutype":"레저업소 - 노 래 방","category":"leisure"},{"name":"사이버월PC방","tel":"02-504-9413","addr":"경기도 평택시 이충동 664-5 501,502 호","indutype":"레저업소 - 기타레져업소","category":"leisure"},{"name":"어썸 당구클럽","tel":"02-1111-1111","addr":"경기도 평택시 이충동 664-5번지 이충동월프라자 401,402호","indutype":"레저업소 - 당 구 장","category":"leisure"}]},{"lat":"37.059733677","long":"127.06664176","imageIndex":13,"items":[{"name":"방방타운평택이충점","tel":"031-664-2014","addr":"경기도 평택시 이충동 668-3번지 뜨란프라자 101호","indutype":"레저업소 - 기타레져업소","category":"leisure"},{"name":"송탄종합격투기멀티짐","tel":"031-663-1225","addr":"경기도 평택시 이충동 668-3번지 뜨란프라자 404호","indutype":"레저업소 - 헬스클럽","category":"leisure"}]},{"lat":"37.056295366","long":"127.05925249","imageIndex":13,"items":[{"name":"서정당구클럽","tel":"031-668-7977","addr":"경기도 평택시 이충동 472-4번지","indutype":"레저업소 - 당 구 장","category":"leisure"}]},{"lat":"37.061370845","long":"127.07159021","imageIndex":13,"items":[{"name":"송탄스크린골프","tel":"031-664-5445","addr":"경기도 평택시 이충동 180번지 103호~107호","indutype":"레저업소 - 스크린골프","category":"leisure"}]},{"lat":"37.057124718","long":"127.05845487","imageIndex":13,"items":[{"name":"스타디움 당구클럽","tel":"031-657-3289","addr":"경기도 평택시 이충동 452번지 3층","indutype":"레저업소 - 당 구 장","category":"leisure"}]},{"lat":"37.059707499","long":"127.06503397","imageIndex":13,"items":[{"name":"쎈PC방","tel":"02-222-2222","addr":"경기도 평택시 이충동 664-1번지 명성빌딩","indutype":"레저업소 - 기타레져업소","category":"leisure"},{"name":"이충당구클럽","tel":"031-664-9374","addr":"경기도 평택시 이충동 664-1번지 3층","indutype":"레저업소 - 당 구 장","category":"leisure"},{"name":"피피짐 2호","tel":"031-611-9698","addr":"경기도 평택시 이충동 664-1번지 명성빌딩 208동 211호","indutype":"레저업소 - 헬스클럽","category":"leisure"}]},{"lat":"37.059427922","long":"127.06550596","imageIndex":13,"items":[{"name":"씨제이(CJ)휘트니스클럽","tel":"031-665-3555","addr":"경기도 평택시 이충동 665-1번지 베스트대우프라자 201호","indutype":"레저업소 - 헬스클럽","category":"leisure"}]},{"lat":"37.052016244","long":"127.05728197","imageIndex":13,"items":[{"name":"위너스 핫 기구필라테스","tel":"031-668-7331","addr":"경기도 평택시 이충동 610-1번지 5층","indutype":"레저업소 - 헬스클럽","category":"leisure"}]},{"lat":"37.054954454","long":"127.05562019","imageIndex":13,"items":[{"name":"이게PC방","tel":"","addr":"경기도 평택시 이충동 495-7번지 지하","indutype":"레저업소 - 기타레져업소","category":"leisure"}]},{"lat":"37.057655753","long":"127.05970321","imageIndex":13,"items":[{"name":"이글이글 스크린골프","tel":"031-666-7953","addr":"경기도 평택시 이충동 444-5번지 1층","indutype":"레저업소 - 스크린골프","category":"leisure"}]},{"lat":"37.056898797","long":"127.05983755","imageIndex":13,"items":[{"name":"제이비 휘트니스","tel":"031-665-9555","addr":"경기도 평택시 이충동 445-3번지 3층","indutype":"레저업소 - 헬스클럽","category":"leisure"}]},{"lat":"37.056990403","long":"127.0566222","imageIndex":13,"items":[{"name":"중앙노래연습장","tel":"031-665-6684","addr":"경기도 평택시 이충동 463-7번지 지층","indutype":"레저업소 - 노 래 방","category":"leisure"}]},{"lat":"37.05117862","long":"127.0564832","imageIndex":13,"items":[{"name":"케이 필라테스 스튜디오(K pilates studio)","tel":"031-611-0102","addr":"경기도 평택시 이충동 611-4번지 이충프라자 203호","indutype":"레저업소 - 헬스클럽","category":"leisure"}]},{"lat":"37.05595798","long":"127.06711079","imageIndex":13,"items":[{"name":"크로스핏 디 짐 (CrossFit D Gym)","tel":"031-611-0706","addr":"경기도 평택시 이충동 370-10번지","indutype":"레저업소 - 헬스클럽","category":"leisure"}]},{"lat":"37.056818135","long":"127.05892684","imageIndex":13,"items":[{"name":"태광당구클럽","tel":"031-665-8899","addr":"경기도 평택시 이충동 451-7번지 5층","indutype":"레저업소 - 당 구 장","category":"leisure"}]},{"lat":"37.060238404","long":"127.06639483","imageIndex":13,"items":[{"name":"투엑스 휘트니스","tel":"031-668-1411","addr":"경기도 평택시 이충동 664-8번지 406,501,502,503호","indutype":"레저업소 - 헬스클럽","category":"leisure"}]},{"lat":"37.054656594","long":"127.05675547","imageIndex":13,"items":[{"name":"푸른","tel":"031-681-1152","addr":"경기도 평택시 이충동 489번지 3층","indutype":"레저업소 - 헬스클럽","category":"leisure"}]},{"lat":"37.056990505","long":"127.05639735","imageIndex":13,"items":[{"name":"한큐당구장","tel":"031-611-0420","addr":"경기도 평택시 이충동 463-8번지","indutype":"레저업소 - 당 구 장","category":"leisure"}]},{"lat":"37.060040672","long":"127.06545024","imageIndex":13,"items":[{"name":"해피로PC방 평택이충점","tel":"02-222-2222","addr":"경기도 평택시 이충동 664-4번지 402호","indutype":"레저업소 - 기타레져업소","category":"leisure"}]}]