[{"lat":"37.3482869339","long":"126.9742606503","imageIndex":8,"items":[{"name":"고천약국","tel":"031-452-4005","addr":"경기도 의왕시 고천동 294-5번지","indutype":"약국 - 약국","category":"medical"}]},{"lat":"37.3477011353","long":"126.9736965767","imageIndex":8,"items":[{"name":"권기운내과의원","tel":"031-456-8885","addr":"경기도 의왕시 고천동 283-4번지 창덕빌딩 2층","indutype":"의원 - 의원","category":"medical"},{"name":"뉴욕보강치과","tel":"031-459-3994","addr":"경기도 의왕시 고천동 283-4번지","indutype":"의원 - 치과의원","category":"medical"},{"name":"류이비인후과의원","tel":"031-453-0505","addr":"경기도 의왕시 고천동 283-4창덕빌딩3","indutype":"의원 - 의원","category":"medical"},{"name":"효성온누리약국","tel":"031-455-9955","addr":"경기도 의왕시 고천동 283-4번지","indutype":"약국 - 약국","category":"medical"}]},{"lat":"37.3481698805","long":"126.9745879884","imageIndex":8,"items":[{"name":"박일윤치과의원","tel":"031-456-2875","addr":"경기도 의왕시 고천동 280-2번지 2층","indutype":"의원 - 치과의원","category":"medical"}]},{"lat":"37.3478364774","long":"126.9744752542","imageIndex":8,"items":[{"name":"밝은미래소아청소년과의원","tel":"031-453-9027","addr":"경기도 의왕시 고천동 279-3번지 외 5필지 한국빌딩 2층 202호","indutype":"의원 - 의원","category":"medical"},{"name":"이레약국","tel":"031-455-7473","addr":"경기도 의왕시 고천동 279-3번지 한국빌딩 2층","indutype":"약국 - 약국","category":"medical"}]},{"lat":"37.3485301727","long":"126.9741138394","imageIndex":8,"items":[{"name":"신촌약국","tel":"031-454-8338","addr":"경기도 의왕시 고천동 294-3번지","indutype":"약국 - 약국","category":"medical"}]}]