[{"lat":"37.177523888","long":"127.0570903","imageIndex":0,"items":[{"name":"1급이변자동차공업사","tel":"031-376-7113","addr":"경기도 오산시 내삼미동 493-7번지","indutype":"자동차정비 유지 - 자동차정비","category":"car"},{"name":"이변자동차부품","tel":"031-378-2906","addr":"경기도 오산시 내삼미동 493-7번지 5층","indutype":"자동차정비 유지 - 자동차부품","category":"car"}]},{"lat":"37.179470694","long":"127.05586426","imageIndex":0,"items":[{"name":"Midas자동차용품점","tel":"031-377-1117","addr":"경기도 오산시 내삼미동 535-2번지 2동","indutype":"자동차정비 유지 - 카인테리어","category":"car"},{"name":"탑앤존 오산점","tel":"070-7529-8843","addr":"경기도 오산시 내삼미동 535-2번지 1동1층(좌)호 (2동 )","indutype":"자동차정비 유지 - 세차장","category":"car"}]},{"lat":"37.17455909","long":"127.05788765","imageIndex":0,"items":[{"name":"공임나라","tel":"031-376-7790","addr":"경기도 오산시 내삼미동 856-18번지","indutype":"자동차정비 유지 - 자동차부품","category":"car"},{"name":"아우디 팩토리 (Audi Factory)","tel":"","addr":"경기도 오산시 내삼미동 856-18번지","indutype":"자동차정비 유지 - 자동차부품","category":"car"},{"name":"아우디 팩토리(Audi Factory)","tel":"","addr":"경기도 오산시 내삼미동 856-18번지","indutype":"자동차정비 유지 - 자동차부품","category":"car"}]},{"lat":"37.180003552","long":"127.05300436","imageIndex":0,"items":[{"name":"굿모닝카서비스","tel":"031-375-1996","addr":"경기도 오산시 내삼미동 568-5번지","indutype":"자동차정비 유지 - 자동차정비","category":"car"}]},{"lat":"37.177361576","long":"127.05736044","imageIndex":0,"items":[{"name":"금호자동차매매상사","tel":"031-372-3111","addr":"경기도 오산시 내삼미동 493-14번지","indutype":"자동차판매 - 중고자동차판매","category":"car"},{"name":"다우자동차매매상사","tel":"031-377-2345","addr":"경기도 오산시 내삼미동 493-14번지","indutype":"자동차판매 - 중고자동차판매","category":"car"},{"name":"오산중고차매매상사","tel":"031-375-1121","addr":"경기도 오산시 내삼미동 493-14번지","indutype":"자동차판매 - 중고자동차판매","category":"car"},{"name":"오토빌리지(주)","tel":"031-378-9062","addr":"경기도 오산시 내삼미동 493-14번지 1호","indutype":"자동차판매 - 중고자동차판매","category":"car"}]},{"lat":"37.177252673","long":"127.05902692","imageIndex":0,"items":[{"name":"김영호0타이어","tel":"031-376-8002","addr":"경기도 오산시 내삼미동 462-17번지","indutype":"자동차정비 유지 - 자동차시트·타이어","category":"car"}]},{"lat":"37.177082061","long":"127.05777688","imageIndex":0,"items":[{"name":"대우남부부품센타","tel":"031-378-8866","addr":"경기도 오산시 내삼미동 493-17번지","indutype":"자동차정비 유지 - 중장비수리","category":"car"}]},{"lat":"37.175445133","long":"127.06955391","imageIndex":0,"items":[{"name":"루키윤활유","tel":"070-8237-0048","addr":"경기도 오산시 내삼미동 143번지","indutype":"자동차정비 유지 - 윤활유 전문 판매","category":"car"}]},{"lat":"37.175888915","long":"127.06538799","imageIndex":0,"items":[{"name":"명인부품판매","tel":"031-374-0505","addr":"경기도 오산시 내삼미동 123번지 1층","indutype":"자동차정비 유지 - 자동차부품","category":"car"}]},{"lat":"37.181328401","long":"127.05225074","imageIndex":0,"items":[{"name":"삼화부분정비공업사","tel":"031-373-5387","addr":"경기도 오산시 내삼미동 573-1번지","indutype":"자동차정비 유지 - 자동차정비","category":"car"}]},{"lat":"37.180001959","long":"127.05664164","imageIndex":0,"items":[{"name":"서남자동차정비","tel":"031-376-3338","addr":"경기도 오산시 내삼미동 500-3번지","indutype":"자동차정비 유지 - 자동차정비","category":"car"},{"name":"오산드림모터스","tel":"031-376-3338","addr":"경기도 오산시 내삼미동 500-3번지 오산드림모터스","indutype":"자동차정비 유지 - 자동차정비","category":"car"}]},{"lat":"37.175415704","long":"127.05652578","imageIndex":0,"items":[{"name":"서진세차","tel":"","addr":"경기도 오산시 내삼미동 857-6번지 1층","indutype":"자동차정비 유지 - 세차장","category":"car"},{"name":"프로모터스","tel":"031-378-8922","addr":"경기도 오산시 내삼미동 857-6번지","indutype":"자동차정비 유지 - 자동차정비","category":"car"}]},{"lat":"37.175388947","long":"127.05591771","imageIndex":0,"items":[{"name":"세교카세차","tel":"031-373-4972","addr":"경기도 오산시 내삼미동 857-10","indutype":"자동차정비 유지 - 세차장","category":"car"}]},{"lat":"37.175995861","long":"127.06758384","imageIndex":0,"items":[{"name":"셀세모 스팀세차(SSL)","tel":"031-111-1111","addr":"경기도 오산시 내삼미동 132-1번지","indutype":"자동차정비 유지 - 세차장","category":"car"},{"name":"셀세모 오산점","tel":"031-375-5335","addr":"경기도 오산시 내삼미동 132-1번지","indutype":"자동차정비 유지 - 세차장","category":"car"}]},{"lat":"37.177884759","long":"127.05608837","imageIndex":0,"items":[{"name":"셀프세차 시실리","tel":"031-376-9392","addr":"경기도 오산시 내삼미동 487번지","indutype":"자동차정비 유지 - 세차장","category":"car"}]},{"lat":"37.174974688","long":"127.05542198","imageIndex":0,"items":[{"name":"솔라가드 노블레스 오산점","tel":"02-1111-1111","addr":"경기도 오산시 내삼미동 884-2번지 상가 1층","indutype":"자동차정비 유지 - 카인테리어","category":"car"}]},{"lat":"37.17683508","long":"127.06525364","imageIndex":0,"items":[{"name":"신이수상사","tel":"031-377-5153","addr":"경기도 오산시 내삼미동 219-2번지","indutype":"자동차정비 유지 - 자동차부품","category":"car"}]},{"lat":"37.174495494","long":"127.05900236","imageIndex":0,"items":[{"name":"쌍용자동차세교서비스프라자","tel":"031-376-5584","addr":"경기도 오산시 내삼미동 864-1번지","indutype":"자동차정비 유지 - 자동차정비","category":"car"}]},{"lat":"37.181550734","long":"127.05883866","imageIndex":0,"items":[{"name":"제이엠알앤디(JM R&D)","tel":"031-372-0772","addr":"경기도 오산시 내삼미동 418번지","indutype":"자동차정비 유지 - 자동차부품","category":"car"}]},{"lat":"37.174776323","long":"127.05572586","imageIndex":0,"items":[{"name":"카카오토(CArCArauto)","tel":"031-373-8748","addr":"경기도 오산시 내삼미동 858-11번지 상가 1층","indutype":"자동차정비 유지 - 가타자동차서비스","category":"car"}]},{"lat":"37.174612958","long":"127.05830432","imageIndex":0,"items":[{"name":"패션카","tel":"031-372-4374","addr":"경기도 오산시 내삼미동 855","indutype":"자동차정비 유지 - 주차장","category":"car"}]},{"lat":"37.173864907","long":"127.05869787","imageIndex":0,"items":[{"name":"현대상사","tel":"031-372-8500","addr":"경기도 오산시 내삼미동 863-2번지","indutype":"자동차정비 유지 - 자동차부품","category":"car"}]},{"lat":"37.174694272","long":"127.05783145","imageIndex":0,"items":[{"name":"협신오토","tel":"070-4023-2037","addr":"경기도 오산시 내삼미동 856-17번지 토인빌 406호","indutype":"자동차정비 유지 - 자동차부품","category":"car"}]}]