[{"lat":"36.986129798","long":"126.86857759","imageIndex":13,"items":[{"name":"(주)구일일인명구급대","tel":"031-111-1111","addr":"경기도 평택시 포승읍 도곡리 842-1번지 1층","indutype":"보건위생 - 기타대인서비스","category":"beauty"},{"name":"사회복지법인대한구조봉사회(평택시지부)","tel":"041-664-9112","addr":"경기도 평택시 포승읍 도곡리 842-1","indutype":"보건위생 - 기타대인서비스","category":"beauty"}]},{"lat":"36.987822198","long":"126.84527836","imageIndex":13,"items":[{"name":"1001안경원","tel":"031-682-0922","addr":"경기도 평택시 포승읍 도곡리 1144-2번지 1층","indutype":"보건위생 - 안경","category":"beauty"}]},{"lat":"36.990771594","long":"126.84747394","imageIndex":13,"items":[{"name":"가온헤어","tel":"031-681-1614","addr":"경기도 평택시 포승읍 도곡리 1109번지 포승삼부르네상스2단지 1층 117호","indutype":"보건위생 - 미용원","category":"beauty"},{"name":"권오숙헤어아트","tel":"031-684-4510","addr":"경기도 평택시 포승읍 도곡리 1109번지 포승삼부르네상스2단지 상가 114호","indutype":"보건위생 - 미용원","category":"beauty"},{"name":"라임스킨케어","tel":"031-684-1253","addr":"경기도 평택시 포승읍 도곡리 1109번지 포승삼부르네상스2단지 상가동 106호","indutype":"보건위생 - 화장품","category":"beauty"},{"name":"투웨니세븐<Twenty Seven>","tel":"","addr":"경기도 평택시 포승읍 도곡리 1109번지 삼부르네상스2단지 113호","indutype":"보건위생 - 화장품","category":"beauty"},{"name":"힐링&뷰티 샵","tel":"","addr":"경기도 평택시 포승읍 도곡리 1109번지 포승삼부르네상스2단지 상가동 205호","indutype":"보건위생 - 화장품","category":"beauty"}]},{"lat":"36.990405154","long":"126.84294782","imageIndex":13,"items":[{"name":"고운헤어","tel":"031-681-3459","addr":"경기도 평택시 포승읍 도곡리 1117-1번지 메트로카운티 1층 104호","indutype":"보건위생 - 미용원","category":"beauty"}]},{"lat":"36.988270243","long":"126.84341283","imageIndex":13,"items":[{"name":"공공칠","tel":"031-111-1111","addr":"경기도 평택시 포승읍 도곡리 1120-8번지 301호","indutype":"보건위생 - 화장품","category":"beauty"}]},{"lat":"36.989604652","long":"126.84402785","imageIndex":13,"items":[{"name":"귀족건강관리샵","tel":"031-683-9868","addr":"경기도 평택시 포승읍 도곡리 1130-10번지 성훈빌딩 201호","indutype":"보건위생 - 피부미용실","category":"beauty"}]},{"lat":"36.990597354","long":"126.84517154","imageIndex":13,"items":[{"name":"그라찌아","tel":"031-682-0986","addr":"경기도 평택시 포승읍 도곡리 1133-18번지 광원빌 101호","indutype":"보건위생 - 미용원","category":"beauty"}]},{"lat":"36.990156739","long":"126.84585766","imageIndex":13,"items":[{"name":"까까머리","tel":"031-682-0306","addr":"경기도 평택시 포승읍 도곡리 1138-1번지 신포승빌딩 101호","indutype":"보건위생 - 미용원","category":"beauty"}]},{"lat":"36.98768744","long":"126.84558192","imageIndex":13,"items":[{"name":"꽃일다헤어","tel":"031-683-0324","addr":"경기도 평택시 포승읍 도곡리 1144-21번지","indutype":"보건위생 - 미용원","category":"beauty"}]},{"lat":"36.986798338","long":"126.84783022","imageIndex":13,"items":[{"name":"네일클리닉","tel":"031-5868-6888","addr":"경기도 평택시 포승읍 도곡리 1155-1번지","indutype":"보건위생 - 피부미용실","category":"beauty"}]},{"lat":"36.990631568","long":"126.84380105","imageIndex":13,"items":[{"name":"노웨어(Nowhere)","tel":"070-5022-4846","addr":"경기도 평택시 포승읍 도곡리 1132-9번지","indutype":"보건위생 - 미용원","category":"beauty"}]},{"lat":"36.989405377","long":"126.8432532","imageIndex":13,"items":[{"name":"니하오","tel":"031-683-7544","addr":"경기도 평택시 포승읍 도곡리 1117-5번지 204호","indutype":"보건위생 - 화장품","category":"beauty"}]},{"lat":"36.984738052","long":"126.87299425","imageIndex":13,"items":[{"name":"달님유통","tel":"031-681-7877","addr":"경기도 평택시 포승읍 도곡리 895-3번지 102호","indutype":"보건위생 - 화장품","category":"beauty"}]},{"lat":"36.989209216","long":"126.84480373","imageIndex":13,"items":[{"name":"더 (The)끌림헤어","tel":"031-682-5572","addr":"경기도 평택시 포승읍 도곡리 1140-9번지 102호","indutype":"보건위생 - 미용원","category":"beauty"}]},{"lat":"36.987047979","long":"126.84580788","imageIndex":13,"items":[{"name":"더페이스샵 포승점","tel":"031-683-3045","addr":"경기도 평택시 포승읍 도곡리 1144-9번지 101호","indutype":"보건위생 - 화장품","category":"beauty"},{"name":"럭스헤어","tel":"","addr":"경기도 평택시 포승읍 도곡리 1144-9번지 1층 102호","indutype":"보건위생 - 미용원","category":"beauty"}]},{"lat":"36.989238643","long":"126.84661214","imageIndex":13,"items":[{"name":"레인보우헤어살롱","tel":"","addr":"경기도 평택시 포승읍 도곡리 1138-13번지 동서빌 1층","indutype":"서비스업 - 미용","category":"beauty"},{"name":"무지개헤어살롱","tel":"031-682-7445","addr":"경기도 평택시 포승읍 도곡리 1138-13번지","indutype":"보건위생 - 미용원","category":"beauty"}]},{"lat":"36.985937214","long":"126.84396808","imageIndex":13,"items":[{"name":"리버스","tel":"031-682-6552","addr":"경기도 평택시 포승읍 도곡리 1124-6번지 2층","indutype":"보건위생 - 미용재료","category":"beauty"}]},{"lat":"36.9890493","long":"126.84652266","imageIndex":13,"items":[{"name":"리한헤어(2호점)","tel":"031-681-6824","addr":"경기도 평택시 포승읍 도곡리 1138-9번지 101호","indutype":"보건위생 - 미용원","category":"beauty"}]},{"lat":"36.988158084","long":"126.84716474","imageIndex":13,"items":[{"name":"머리나라","tel":"031-686-6742","addr":"경기도 평택시 포승읍 도곡리 1152-1번지 1층","indutype":"보건위생 - 미용원","category":"beauty"}]},{"lat":"36.989099753","long":"126.84380424","imageIndex":13,"items":[{"name":"메이커헤어","tel":"031-683-2476","addr":"경기도 평택시 포승읍 도곡리 1121-10번지 104호","indutype":"보건위생 - 미용원","category":"beauty"}]},{"lat":"36.986408844","long":"126.84628095","imageIndex":13,"items":[{"name":"명품","tel":"","addr":"경기도 평택시 포승읍 도곡리 1156-2번지 2층","indutype":"보건위생 - 미용재료","category":"beauty"}]},{"lat":"36.990048878","long":"126.84606007","imageIndex":13,"items":[{"name":"모모헤어스튜디오","tel":"031-682-6233","addr":"경기도 평택시 포승읍 도곡리 1138-19번지","indutype":"서비스업 - 미용","category":"beauty"},{"name":"모모헤어스튜디오","tel":"031-683-9096","addr":"경기도 평택시 포승읍 도곡리 1138-19번지 1층","indutype":"보건위생 - 미용원","category":"beauty"}]},{"lat":"36.987273068","long":"126.84567263","imageIndex":13,"items":[{"name":"보떼","tel":"031-682-6869","addr":"경기도 평택시 포승읍 도곡리 1144-7번지","indutype":"보건위생 - 화장품","category":"beauty"}]},{"lat":"36.985766251","long":"126.87389108","imageIndex":13,"items":[{"name":"산신암","tel":"031-681-6117","addr":"경기도 평택시 포승읍 도곡리 905-2번지","indutype":"보건위생 - 기타대인서비스","category":"beauty"}]},{"lat":"36.990183042","long":"126.84530719","imageIndex":13,"items":[{"name":"설렘","tel":"070-8966-6992","addr":"경기도 평택시 포승읍 도곡리 1136-7번지 지하아트빌 101호","indutype":"보건위생 - 미용원","category":"beauty"}]},{"lat":"36.986543886","long":"126.84619082","imageIndex":13,"items":[{"name":"션아로마테라피","tel":"031-684-9199","addr":"경기도 평택시 포승읍 도곡리 1156-1번지 2층","indutype":"보건위생 - 기타대인서비스","category":"beauty"}]},{"lat":"36.987939263","long":"126.84522196","imageIndex":13,"items":[{"name":"수","tel":"070-4241-7888","addr":"경기도 평택시 포승읍 도곡리 1144-1","indutype":"보건위생 - 화장품","category":"beauty"}]},{"lat":"36.990432851","long":"126.84344201","imageIndex":13,"items":[{"name":"수미용재료","tel":"","addr":"경기도 평택시 포승읍 도곡리 1130-3번지 캐슬빌딩 2층","indutype":"보건위생 - 미용재료","category":"beauty"}]},{"lat":"36.988050074","long":"126.84725482","imageIndex":13,"items":[{"name":"수자인헤어","tel":"031-681-5558","addr":"경기도 평택시 포승읍 도곡리 1152-2번지 떼부자빌 102호","indutype":"보건위생 - 미용원","category":"beauty"}]},{"lat":"36.990694905","long":"126.85087768","imageIndex":13,"items":[{"name":"스피드대리운전","tel":"070-8170-0530","addr":"경기도 평택시 포승읍 도곡리 1113번지 모아미래도1차 103동 4층 7호","indutype":"보건위생 - 기타대인서비스","category":"beauty"}]},{"lat":"36.989271857","long":"126.84447785","imageIndex":13,"items":[{"name":"아우라쿤","tel":"031-681-9796","addr":"경기도 평택시 포승읍 도곡리 1143-22번지 1층","indutype":"보건위생 - 미용원","category":"beauty"}]},{"lat":"36.987518546","long":"126.84733453","imageIndex":13,"items":[{"name":"약손스킨","tel":"031-684-5884","addr":"경기도 평택시 포승읍 도곡리 1150-1번지 남양빌딩 202호","indutype":"보건위생 - 화장품","category":"beauty"}]},{"lat":"36.984992097","long":"126.8447226","imageIndex":13,"items":[{"name":"에스텍틱관리실","tel":"031-4466-2984","addr":"경기도 평택시 포승읍 도곡리 1126-3번지 포승프라자 5층","indutype":"보건위생 - 피부미용실","category":"beauty"},{"name":"전통불한증막스파렉스사우나","tel":"031-683-2337","addr":"경기도 평택시 포승읍 도곡리 1126-3번지 포승프라자 5,6층","indutype":"보건위생 - 사우나","category":"beauty"}]},{"lat":"36.990408964","long":"126.84580097","imageIndex":13,"items":[{"name":"엣지맘뷰티","tel":"","addr":"경기도 평택시 포승읍 도곡리 1137-10번지 세경빌딩 2층 202호","indutype":"보건위생 - 화장품","category":"beauty"}]},{"lat":"36.98938271","long":"126.84653321","imageIndex":13,"items":[{"name":"영헤어","tel":"031-684-9393","addr":"경기도 평택시 포승읍 도곡리 1138-14번지 1층","indutype":"보건위생 - 미용원","category":"beauty"}]},{"lat":"36.989799294","long":"126.84136526","imageIndex":13,"items":[{"name":"오늘도 예쁨","tel":"","addr":"경기도 평택시 포승읍 도곡리 1117-11번지 111호","indutype":"보건위생 - 피부미용실","category":"beauty"}]},{"lat":"36.989181525","long":"126.84430954","imageIndex":13,"items":[{"name":"오즈헤어라인","tel":"031-684-7760","addr":"경기도 평택시 포승읍 도곡리 1143-3번지 거기빌딩 102호","indutype":"보건위생 - 미용원","category":"beauty"}]},{"lat":"36.988712188","long":"126.84372642","imageIndex":13,"items":[{"name":"와포","tel":"031-684-5858","addr":"경기도 평택시 포승읍 도곡리 1121-2번지 카라타워 4층 401, 404호","indutype":"보건위생 - 화장품","category":"beauty"}]},{"lat":"36.988821228","long":"126.85130825","imageIndex":13,"items":[{"name":"우와미용실","tel":"031-683-8557","addr":"경기도 평택시 포승읍 도곡리 1114번지 포승삼부르네상스1단지 상가동 108호","indutype":"보건위생 - 미용원","category":"beauty"}]},{"lat":"36.990270696","long":"126.85032811","imageIndex":13,"items":[{"name":"이정숙의 예쁜머리방","tel":"031-686-6865","addr":"경기도 평택시 포승읍 도곡리 1113번지 모아1단지 상가 105호","indutype":"보건위생 - 미용원","category":"beauty"}]},{"lat":"36.987993506","long":"126.84535664","imageIndex":13,"items":[{"name":"쟈스민","tel":"031-618-9019","addr":"경기도 평택시 포승읍 도곡리 1144-24번지 2층","indutype":"보건위생 - 기타대인서비스","category":"beauty"},{"name":"한빛재료상사","tel":"031-683-9793","addr":"경기도 평택시 포승읍 도곡리 1144-24번지 201호","indutype":"보건위생 - 미용재료","category":"beauty"}]},{"lat":"36.988740406","long":"126.84461374","imageIndex":13,"items":[{"name":"제이","tel":"031-684-8624","addr":"경기도 평택시 포승읍 도곡리 1143-7번지","indutype":"보건위생 - 화장품","category":"beauty"},{"name":"헤어메이트유진","tel":"031-684-1216","addr":"경기도 평택시 포승읍 도곡리 1143-7번지 2층","indutype":"보건위생 - 미용원","category":"beauty"}]},{"lat":"36.987854327","long":"126.84916475","imageIndex":13,"items":[{"name":"짱스헤어","tel":"","addr":"경기도 평택시 포승읍 도곡리 1115번지 모아미래도2차 상가동 103호","indutype":"서비스업 - 미용","category":"beauty"},{"name":"짱스헤어","tel":"031-0000-0000","addr":"경기도 평택시 포승읍 도곡리 1115번지 모아미래도2차 상가동 103호","indutype":"보건위생 - 미용원","category":"beauty"}]},{"lat":"36.989487918","long":"126.84433137","imageIndex":13,"items":[{"name":"차차&김여사대리운전","tel":"031-682-4440","addr":"경기도 평택시 포승읍 도곡리 1143-24번지 송정빌 201호","indutype":"보건위생 - 기타대인서비스","category":"beauty"}]},{"lat":"36.988991293","long":"126.84355735","imageIndex":13,"items":[{"name":"콩스타일","tel":"031-684-7770","addr":"경기도 평택시 포승읍 도곡리 1121-1번지 카임하우스 101호","indutype":"보건위생 - 미용원","category":"beauty"}]},{"lat":"36.987156033","long":"126.8457515","imageIndex":13,"items":[{"name":"투데이안경원(포승점)","tel":"031-681-3999","addr":"경기도 평택시 포승읍 도곡리 1144-8","indutype":"보건위생 - 안경","category":"beauty"}]},{"lat":"36.988488661","long":"126.84502987","imageIndex":13,"items":[{"name":"트레비앙 헤어","tel":"031-683-9985","addr":"경기도 평택시 포승읍 도곡리 1143-15번지","indutype":"보건위생 - 미용원","category":"beauty"}]},{"lat":"36.987519164","long":"126.8478063","imageIndex":13,"items":[{"name":"포맨남성컷트전문점","tel":"031-684-5579","addr":"경기도 평택시 포승읍 도곡리 1152-8번지 스타빌 1층","indutype":"보건위생 - 미용원","category":"beauty"}]},{"lat":"36.989847714","long":"126.84385885","imageIndex":13,"items":[{"name":"포승아로마샵","tel":"031-682-4495","addr":"경기도 평택시 포승읍 도곡리 1130-8번지","indutype":"보건위생 - 화장품","category":"beauty"}]},{"lat":"36.989849497","long":"126.84519555","imageIndex":13,"items":[{"name":"행복","tel":"","addr":"경기도 평택시 포승읍 도곡리 1139-4번지","indutype":"보건위생 - 미용재료","category":"beauty"}]},{"lat":"36.987603497","long":"126.84344792","imageIndex":13,"items":[{"name":"헤아","tel":"031-616-6522","addr":"경기도 평택시 포승읍 도곡리 1120-5번지 스마트빌듀오2차 108호","indutype":"보건위생 - 미용원","category":"beauty"}]},{"lat":"36.988436366","long":"126.84636666","imageIndex":13,"items":[{"name":"헤어샵 the MIDAS by Jin(더미다스바이진)","tel":"031-682-2225","addr":"경기도 평택시 포승읍 도곡리 1145-3번지 102호","indutype":"보건위생 - 미용원","category":"beauty"}]},{"lat":"36.986765428","long":"126.84339351","imageIndex":13,"items":[{"name":"황제아로마","tel":"031-684-8110","addr":"경기도 평택시 포승읍 도곡리 1124-2번지 2층","indutype":"보건위생 - 화장품","category":"beauty"}]},{"lat":"36.987489101","long":"126.8455037","imageIndex":13,"items":[{"name":"힐링","tel":"031-000-0000","addr":"경기도 평택시 포승읍 도곡리 1144-5번지 2층","indutype":"보건위생 - 미용재료","category":"beauty"}]},{"lat":"36.990180778","long":"126.84361103","imageIndex":13,"items":[{"name":"힐링","tel":"","addr":"경기도 평택시 포승읍 도곡리 1130-5번지","indutype":"보건위생 - 미용재료","category":"beauty"}]}]