[{"lat":"37.839279654","long":"127.08137089","imageIndex":0,"items":[{"name":"달려라타이어","tel":"031-865-8255","addr":"경기도 양주시 회암동 566-72번지 다동","indutype":"자동차정비 유지 - 자동차시트·타이어","category":"car"},{"name":"동그리타이어","tel":"031-858-1156","addr":"경기도 양주시 회암동 566-72","indutype":"자동차정비 유지 - 자동차시트·타이어","category":"car"}]},{"lat":"37.838200928","long":"127.07767767","imageIndex":0,"items":[{"name":"맥스카","tel":"031-859-1888","addr":"경기도 양주시 회암동 607-9번지","indutype":"자동차정비 유지 - 자동차정비","category":"car"},{"name":"맥스카","tel":"031-859-2357","addr":"경기도 양주시 회암동 607-9번지","indutype":"자동차정비 유지 - 자동차부품","category":"car"}]},{"lat":"37.849664334","long":"127.09789087","imageIndex":0,"items":[{"name":"명성오토","tel":"031-865-1882","addr":"경기도 양주시 회암동 171-5번지","indutype":"자동차정비 유지 - 자동차부품","category":"car"}]},{"lat":"37.841753471","long":"127.08683805","imageIndex":0,"items":[{"name":"에스카공업사","tel":"031-866-1280","addr":"경기도 양주시 회암동 404-18번지","indutype":"자동차정비 유지 - 자동차정비","category":"car"}]},{"lat":"37.839225839","long":"127.0810073","imageIndex":0,"items":[{"name":"원메이드","tel":"031-858-1156","addr":"경기도 양주시 회암동 566-9번지 1동","indutype":"자동차정비 유지 - 자동차정비","category":"car"}]},{"lat":"37.839027685","long":"127.08092757","imageIndex":0,"items":[{"name":"주식회사대한자동차옥정점","tel":"031-859-5559","addr":"경기도 양주시 회암동 566-73번지","indutype":"자동차정비 유지 - 자동차정비","category":"car"},{"name":"카샵","tel":"031-859-5559","addr":"경기도 양주시 회암동 566-73번지","indutype":"자동차정비 유지 - 자동차부품","category":"car"}]},{"lat":"37.849277396","long":"127.09731091","imageIndex":0,"items":[{"name":"중앙사","tel":"031-842-2866","addr":"경기도 양주시 회암동 244-8번지","indutype":"자동차정비 유지 - 자동차정비","category":"car"}]},{"lat":"37.838284527","long":"127.08728852","imageIndex":0,"items":[{"name":"타이어플러스","tel":"031-959-8163","addr":"경기도 양주시 회암동 361번지","indutype":"자동차정비 유지 - 자동차정비","category":"car"}]},{"lat":"37.847809907","long":"127.09600244","imageIndex":0,"items":[{"name":"태원ENG","tel":"02-1111-1111","addr":"경기도 양주시 회암동 242-3번지","indutype":"자동차정비 유지 - 자동차정비","category":"car"}]},{"lat":"37.844443103","long":"127.07976307","imageIndex":0,"items":[{"name":"한우상사","tel":"031-857-0308","addr":"경기도 양주시 회암동 632-1번지","indutype":"자동차정비 유지 - 자동차부품","category":"car"}]},{"lat":"37.84208648","long":"127.09906267","imageIndex":0,"items":[{"name":"회암자동차정비","tel":"031-868-2216","addr":"경기도 양주시 회암동 64-8","indutype":"자동차정비 유지 - 자동차정비","category":"car"}]}]