[{"lat":"37.771030423","long":"126.79078555","imageIndex":0,"items":[{"name":"MIRACLE.J","tel":"031-947-5817","addr":"경기도 파주시 월롱면 영태리 494-12번지","indutype":"자동차정비 유지 - 자동차부품","category":"car"}]},{"lat":"37.771897893","long":"126.7872305","imageIndex":0,"items":[{"name":"가람","tel":"031-946-7678","addr":"경기도 파주시 월롱면 영태리 511-4번지","indutype":"자동차정비 유지 - 자동차부품","category":"car"}]},{"lat":"37.772453978","long":"126.79081554","imageIndex":0,"items":[{"name":"경기중고차","tel":"031-942-4989","addr":"경기도 파주시 월롱면 영태리 188-12번지","indutype":"자동차판매 - 중고자동차판매","category":"car"},{"name":"류민자동차매매상사","tel":"031-948-7722","addr":"경기도 파주시 월롱면 영태리 188-12번지","indutype":"자동차판매 - 중고자동차판매","category":"car"},{"name":"성창자동차매매상사","tel":"031-944-8000","addr":"경기도 파주시 월롱면 영태리 188-12번지","indutype":"자동차판매 - 중고자동차판매","category":"car"},{"name":"싸이버모터스 (주)","tel":"031-754-2523","addr":"경기도 파주시 월롱면 영태리 188-12번지","indutype":"자동차판매 - 중고자동차판매","category":"car"},{"name":"차조아","tel":"031-941-6511","addr":"경기도 파주시 월롱면 영태리 188-12번지","indutype":"자동차판매 - 중고자동차판매","category":"car"}]},{"lat":"37.772557013","long":"126.78801175","imageIndex":0,"items":[{"name":"금성지게차","tel":"031-946-1452","addr":"경기도 파주시 월롱면 영태리 515-4번지","indutype":"자동차판매 - 기타운송","category":"car"},{"name":"오산리자동차용품","tel":"031-947-8682","addr":"경기도 파주시 월롱면 영태리 515-4번지","indutype":"자동차정비 유지 - 자동차부품","category":"car"}]},{"lat":"37.773170668","long":"126.78856614","imageIndex":0,"items":[{"name":"대우파주바로코너","tel":"031-943-0955","addr":"경기도 파주시 월롱면 영태리 514-9번지","indutype":"자동차정비 유지 - 자동차정비","category":"car"}]},{"lat":"37.780120037","long":"126.81126007","imageIndex":0,"items":[{"name":"두인F.L(에프.엘)","tel":"031-947-5969","addr":"경기도 파주시 월롱면 영태리 7번지","indutype":"자동차판매 - 기타운송","category":"car"}]},{"lat":"37.765005728","long":"126.79737383","imageIndex":0,"items":[{"name":"레트로커스텀","tel":"","addr":"경기도 파주시 월롱면 영태리 415번지","indutype":"자동차정비 유지 - 자동차부품","category":"car"}]},{"lat":"37.777279656","long":"126.78892886","imageIndex":0,"items":[{"name":"문영자동차공업사","tel":"031-945-3058","addr":"경기도 파주시 월롱면 영태리 580-5번지","indutype":"자동차정비 유지 - 자동차부품","category":"car"}]},{"lat":"37.778396476","long":"126.78873267","imageIndex":0,"items":[{"name":"성실자동차공업사","tel":"031-946-7870","addr":"경기도 파주시 월롱면 영태리 577-5번지","indutype":"자동차정비 유지 - 자동차정비","category":"car"}]},{"lat":"37.776640644","long":"126.78929392","imageIndex":0,"items":[{"name":"영태리자동차부분공업","tel":"031-944-5680","addr":"경기도 파주시 월롱면 영태리 588-1번지","indutype":"자동차정비 유지 - 자동차정비","category":"car"},{"name":"파주지회","tel":"031-941-1201","addr":"경기도 파주시 월롱면 영태리 588-1번지","indutype":"자동차정비 유지 - 자동차시트·타이어","category":"car"}]},{"lat":"37.774396469","long":"126.78884636","imageIndex":0,"items":[{"name":"카페이스","tel":"031-949-0959","addr":"경기도 파주시 월롱면 영태리 527-9번지","indutype":"자동차정비 유지 - 카인테리어","category":"car"}]},{"lat":"37.767091203","long":"126.79467827","imageIndex":0,"items":[{"name":"통일로세차장","tel":"031-944-4417","addr":"경기도 파주시 월롱면 영태리 381-1","indutype":"자동차정비 유지 - 세차장","category":"car"}]},{"lat":"37.767116563","long":"126.79373621","imageIndex":0,"items":[{"name":"파주오토","tel":"031-946-5858","addr":"경기도 파주시 월롱면 영태리 382번지","indutype":"자동차정비 유지 - 자동차정비","category":"car"}]},{"lat":"37.778613918","long":"126.78940176","imageIndex":0,"items":[{"name":"한양1급자동차정비","tel":"031-948-0028","addr":"경기도 파주시 월롱면 영태리 577-15번지","indutype":"자동차정비 유지 - 자동차정비","category":"car"}]}]