[{"lat":"37.35737282","long":"127.3293009","imageIndex":17,"items":[{"name":"GS25곤지암신대리점","tel":"","addr":"경기도 광주시 곤지암읍 신대리 277-15번지","indutype":"유통업 영리 - 편 의 점","category":"other"},{"name":"신한공인중개사사무소","tel":"031-767-4904","addr":"경기도 광주시 곤지암읍 신대리 277-15번지","indutype":"용역 서비스 - 부동산 중개·임대","category":"other"}]},{"lat":"37.35831306","long":"127.3281423","imageIndex":17,"items":[{"name":"곤지암 연세장례식장","tel":"031-763-4441","addr":"경기도 광주시 곤지암읍 신대리 277-35번지","indutype":"용역 서비스 - 가례서비스업","category":"other"}]},{"lat":"37.35231538","long":"127.3367507","imageIndex":17,"items":[{"name":"광명토탈세라믹","tel":"031-797-1340","addr":"경기도 광주시 곤지암읍 신대리 70-28, 1층","indutype":"건축자재 - 건축용 요업제품","category":"other"}]},{"lat":"37.35795151","long":"127.3285584","imageIndex":17,"items":[{"name":"광주리종합주방","tel":"031-762-3990","addr":"경기도 광주시 곤지암읍 신대리 277-10번지","indutype":"주방용구 - 주방용구","category":"other"},{"name":"한영공구도매유통","tel":"031-761-5475","addr":"경기도 광주시 곤지암읍 신대리 277-10번지","indutype":"기타 - 기계공구","category":"other"}]},{"lat":"37.35364551","long":"127.3379417","imageIndex":17,"items":[{"name":"드림디포 곤지암(현대종합문구)","tel":"031-761-8008","addr":"경기도 광주시 곤지암읍 신대리 54번지","indutype":"서적문구 - 문구용품","category":"other"},{"name":"슬로우바바","tel":"031-797-1797","addr":"경기도 광주시 곤지암읍 신대리 54번지","indutype":"건축자재 - 조명기구","category":"other"}]},{"lat":"37.35765319","long":"127.3289183","imageIndex":17,"items":[{"name":"디에스티","tel":"031-797-4464","addr":"경기도 광주시 곤지암읍 신대리 277-9번지","indutype":"가구 - 일반가구","category":"other"}]},{"lat":"37.35695214","long":"127.3347734","imageIndex":17,"items":[{"name":"리틀퍼니","tel":"070-4250-0508","addr":"경기도 광주시 곤지암읍 신대리 102-7번지 2층 203호","indutype":"문화.취미 - 티켓","category":"other"}]},{"lat":"37.35714564","long":"127.3299997","imageIndex":17,"items":[{"name":"바로출력","tel":"031-761-3503","addr":"경기도 광주시 곤지암읍 신대리 277-5번지","indutype":"용역 서비스 - 종합용역","category":"other"}]},{"lat":"37.35578531","long":"127.3363823","imageIndex":17,"items":[{"name":"백담도예연구소","tel":"031-762-8001","addr":"경기도 광주시 곤지암읍 신대리 95번지","indutype":"문화.취미 - 민예·공예품","category":"other"}]},{"lat":"37.35215243","long":"127.3370208","imageIndex":17,"items":[{"name":"세무사정선교사무소","tel":"031-763-1551","addr":"경기도 광주시 곤지암읍 신대리 70-4번지","indutype":"용역 서비스 - 법률회계서비스(개인)","category":"other"}]},{"lat":"37.35750595","long":"127.3332746","imageIndex":17,"items":[{"name":"세븐일레븐경기광주신대리점","tel":"031-1577-0711","addr":"경기도 광주시 곤지암읍 신대리 119-14번지","indutype":"유통업 영리 - 편 의 점","category":"other"}]},{"lat":"37.35723278","long":"127.3343005","imageIndex":17,"items":[{"name":"씨유곤지암청솔점","tel":"031-898-6568","addr":"경기도 광주시 곤지암읍 신대리 111-1번지 대성빌라 101호","indutype":"유통업 영리 - 편 의 점","category":"other"}]},{"lat":"37.37017245","long":"127.3338833","imageIndex":17,"items":[{"name":"우정도예","tel":"031-764-6933","addr":"경기도 광주시 곤지암읍 신대리 195번지","indutype":"문화.취미 - 민예·공예품","category":"other"}]},{"lat":"37.35301026","long":"127.3363587","imageIndex":17,"items":[{"name":"주식회사 아이엔에스","tel":"031-792-8620","addr":"경기도 광주시 곤지암읍 신대리 72-3번지 201호","indutype":"건축자재 - 인테리어전문","category":"other"},{"name":"태성종합골프","tel":"","addr":"경기도 광주시 곤지암읍 신대리 72-3번지 102호","indutype":"레져용품 - 스포츠·레져용품","category":"other"}]},{"lat":"37.36450996","long":"127.3321426","imageIndex":17,"items":[{"name":"태준철강","tel":"031-763-1874","addr":"경기도 광주시 곤지암읍 신대리 165-15번지","indutype":"건축자재 - 기타건축자재","category":"other"}]},{"lat":"37.35958937","long":"127.3325275","imageIndex":17,"items":[{"name":"태창종합광고","tel":"02-486-5600","addr":"경기도 광주시 곤지암읍 신대리 135-1번지","indutype":"건축자재 - 인테리어전문","category":"other"}]},{"lat":"37.35737282","long":"127.3293009","imageIndex":7,"items":[{"name":"경진건강원","tel":"031-763-3168","addr":"경기도 광주시 곤지암읍 신대리 277-15번지","indutype":"건강식품 - 기타건강식품","category":"food"}]},{"lat":"37.35814756","long":"127.3390001","imageIndex":7,"items":[{"name":"믿음청과","tel":"031-638-9824","addr":"경기도 광주시 곤지암읍 신대리 12-5번지","indutype":"음료식품 - 농·축·수산품","category":"food"}]},{"lat":"37.35837308","long":"127.3324996","imageIndex":7,"items":[{"name":"제이티(JT)","tel":"","addr":"경기도 광주시 곤지암읍 신대리 133-1번지","indutype":"음료식품 - 기타음료식품","category":"food"}]},{"lat":"37.35345937","long":"127.3400289","imageIndex":7,"items":[{"name":"평창회수산","tel":"031-767-3988","addr":"경기도 광주시 곤지암읍 신대리 48-5번지","indutype":"음료식품 - 농·축·수산품","category":"food"}]},{"lat":"37.35359114","long":"127.3412146","imageIndex":7,"items":[{"name":"한솔유통","tel":"031-708-9098","addr":"경기도 광주시 곤지암읍 신대리 44-3번지","indutype":"음료식품 - 기타음료식품","category":"food"}]},{"lat":"37.3537903","long":"127.3408882","imageIndex":4,"items":[{"name":"더문","tel":"031-762-6162","addr":"경기도 광주시 곤지암읍 신대리 45-3번지 1층","indutype":"일반휴게음식 - 서양음식","category":"restaurant"}]},{"lat":"37.35612603","long":"127.3369707","imageIndex":4,"items":[{"name":"로프트1010","tel":"031-762-7593","addr":"경기도 광주시 곤지암읍 신대리 12-9번지","indutype":"일반휴게음식 - 서양음식","category":"restaurant"}]},{"lat":"37.35765319","long":"127.3289183","imageIndex":4,"items":[{"name":"사슴목장보리밥집","tel":"031-761-6288","addr":"경기도 광주시 곤지암읍 신대리 277-9번지","indutype":"일반휴게음식 - 일반한식","category":"restaurant"},{"name":"소반","tel":"","addr":"경기도 광주시 곤지암읍 신대리 277-9번지 1층","indutype":"일반휴게음식 - 일반한식","category":"restaurant"}]},{"lat":"37.35345937","long":"127.3400289","imageIndex":4,"items":[{"name":"소문난평창송어회","tel":"031-767-3988","addr":"경기도 광주시 곤지암읍 신대리 48-5번지","indutype":"일반휴게음식 - 일반한식","category":"restaurant"}]},{"lat":"37.35353643","long":"127.3382798","imageIndex":4,"items":[{"name":"일화갈비","tel":"","addr":"경기도 광주시 곤지암읍 신대리 56-1번지 1층","indutype":"일반휴게음식 - 일반한식","category":"restaurant"}]},{"lat":"37.35606554","long":"127.3360562","imageIndex":4,"items":[{"name":"자기랑도기랑","tel":"031-762-8001","addr":"경기도 광주시 곤지암읍 신대리 97번지","indutype":"일반휴게음식 - 일반한식","category":"restaurant"}]},{"lat":"37.35364551","long":"127.3379417","imageIndex":4,"items":[{"name":"장원가마솥 설렁탕 해장국","tel":"031-798-9292","addr":"경기도 광주시 곤지암읍 신대리 54","indutype":"일반휴게음식 - 일반한식","category":"restaurant"}]},{"lat":"37.35262305","long":"127.336278","imageIndex":4,"items":[{"name":"전곡양평해장국","tel":"031-797-4716","addr":"경기도 광주시 곤지암읍 신대리 70-1번지","indutype":"일반휴게음식 - 일반한식","category":"restaurant"}]},{"lat":"37.35347939","long":"127.3393292","imageIndex":4,"items":[{"name":"착한밥집","tel":"031-764-1955","addr":"경기도 광주시 곤지암읍 신대리 51번지 1층","indutype":"일반휴게음식 - 일반한식","category":"restaurant"}]},{"lat":"37.35215243","long":"127.3370208","imageIndex":4,"items":[{"name":"착한장소","tel":"031-797-7171","addr":"경기도 광주시 곤지암읍 신대리 70-4번지","indutype":"일반휴게음식 - 일반한식","category":"restaurant"}]},{"lat":"37.35176114","long":"127.3383848","imageIndex":4,"items":[{"name":"청호수산","tel":"031-763-1188","addr":"경기도 광주시 곤지암읍 신대리 69-10번지","indutype":"일반휴게음식 - 일식·회집","category":"restaurant"}]},{"lat":"37.35750595","long":"127.3332746","imageIndex":4,"items":[{"name":"초가삼겹살","tel":"031-761-3250","addr":"경기도 광주시 곤지암읍 신대리 119-14번지","indutype":"일반휴게음식 - 일반한식","category":"restaurant"}]},{"lat":"37.35737282","long":"127.3293009","imageIndex":4,"items":[{"name":"카페in","tel":"070-9148-1164","addr":"경기도 광주시 곤지암읍 신대리 277-15번지 1층","indutype":"일반휴게음식 - 서양음식","category":"restaurant"}]},{"lat":"37.35772981","long":"127.3337722","imageIndex":4,"items":[{"name":"프렌드호프","tel":"031-769-6974","addr":"경기도 광주시 곤지암읍 신대리 114-2","indutype":"일반휴게음식 - 주점","category":"restaurant"}]},{"lat":"37.35676331","long":"127.3346371","imageIndex":7,"items":[{"name":"신대리슈퍼","tel":"031-769-3852","addr":"경기도 광주시 곤지암읍 신대리 102-14번지 1층","indutype":"유통업 영리 - 슈퍼마켓","category":"mart"}]},{"lat":"37.35837308","long":"127.3324996","imageIndex":7,"items":[{"name":"제이티마트(JT-MART)","tel":"","addr":"경기도 광주시 곤지암읍 신대리 133-1번지 1층","indutype":"유통업 영리 - 슈퍼마켓","category":"mart"}]},{"lat":"37.35723278","long":"127.3343005","imageIndex":7,"items":[{"name":"청솔마트","tel":"031-764-1887","addr":"경기도 광주시 곤지암읍 신대리 111-1번지 대성빌라 101호","indutype":"유통업 영리 - 슈퍼마켓","category":"mart"}]},{"lat":"37.35347939","long":"127.3393292","imageIndex":0,"items":[{"name":"이레스팀세차","tel":"031-764-3359","addr":"경기도 광주시 곤지암읍 신대리 51번지 1층 5,6호","indutype":"자동차정비 유지 - 세차장","category":"car"}]},{"lat":"37.36972894","long":"127.3346039","imageIndex":0,"items":[{"name":"주식회사 제일산업","tel":"031-763-2564","addr":"경기도 광주시 곤지암읍 신대리 182-2번지","indutype":"자동차판매 - 기타운송","category":"car"}]}]