[{"lat":"37.250240853","long":"127.00805553","imageIndex":0,"items":[{"name":"(주)1급가족자동차정비공업사","tel":"031-226-6100","addr":"경기도 수원시 권선구 세류동 635-11번지","indutype":"자동차정비 유지 - 자동차정비","category":"car"},{"name":"가족자동차공업사","tel":"031-239-4972","addr":"경기도 수원시 권선구 세류동 635-11번지","indutype":"자동차정비 유지 - 자동차정비","category":"car"}]},{"lat":"37.260017129","long":"127.00509145","imageIndex":0,"items":[{"name":"Doberman Car Detailing","tel":"","addr":"경기도 수원시 권선구 세류동 218-95번지","indutype":"자동차정비 유지 - 카인테리어","category":"car"}]},{"lat":"37.265990597","long":"127.01236317","imageIndex":0,"items":[{"name":"KAC금강자동차유리","tel":"031-235-8257","addr":"경기도 수원시 권선구 세류동 97-115번지","indutype":"자동차정비 유지 - 자동차부품","category":"car"}]},{"lat":"37.254709968","long":"127.00805584","imageIndex":0,"items":[{"name":"경기시공","tel":"031-225-0931","addr":"경기도 수원시 권선구 세류동 553-10번지 101호","indutype":"자동차판매 - 기타운송","category":"car"}]},{"lat":"37.249042154","long":"127.01309367","imageIndex":0,"items":[{"name":"경기카공업사","tel":"031-235-5959","addr":"경기도 수원시 권선구 세류동 1141-2번지","indutype":"자동차정비 유지 - 세차장","category":"car"}]},{"lat":"37.264178642","long":"127.02019799","imageIndex":0,"items":[{"name":"경원사","tel":"031-224-4411","addr":"경기도 수원시 권선구 세류동 806-2번지","indutype":"자동차정비 유지 - 자동차정비","category":"car"},{"name":"남경사","tel":"031-224-4411","addr":"경기도 수원시 권선구 세류동 806-2번지","indutype":"자동차정비 유지 - 자동차정비","category":"car"}]},{"lat":"37.261935669","long":"127.0155304","imageIndex":0,"items":[{"name":"공임나라 수원권선점","tel":"031-235-2255","addr":"경기도 수원시 권선구 세류동 155-8번지","indutype":"자동차정비 유지 - 자동차정비","category":"car"}]},{"lat":"37.264070582","long":"127.0197583","imageIndex":0,"items":[{"name":"광운오토바이","tel":"031-236-7714","addr":"경기도 수원시 권선구 세류동 820-10번지","indutype":"자동차판매 - 이륜차판매","category":"car"},{"name":"알곡충장광택","tel":"070-3061-7061","addr":"경기도 수원시 권선구 세류동 820-10번지","indutype":"자동차정비 유지 - 카인테리어","category":"car"}]},{"lat":"37.252069137","long":"127.01767037","imageIndex":0,"items":[{"name":"그린광택","tel":"031-232-3167","addr":"경기도 수원시 권선구 세류동 1118-23번지 1층 9,10호","indutype":"자동차정비 유지 - 카인테리어","category":"car"},{"name":"세느카세차장","tel":"031-232-3167","addr":"경기도 수원시 권선구 세류동 1118-23번지 1층 9호,10호","indutype":"자동차정비 유지 - 세차장","category":"car"}]},{"lat":"37.252241174","long":"127.00727793","imageIndex":0,"items":[{"name":"김위현의튜닝","tel":"031-234-0691","addr":"경기도 수원시 권선구 세류동 660-4번지","indutype":"자동차정비 유지 - 카인테리어","category":"car"}]},{"lat":"37.25979155","long":"127.01188894","imageIndex":0,"items":[{"name":"네비랜드","tel":"070-8221-5545","addr":"경기도 수원시 권선구 세류동 478-9번지","indutype":"자동차정비 유지 - 자동차부품","category":"car"}]},{"lat":"37.262765236","long":"127.00647814","imageIndex":0,"items":[{"name":"다나세차","tel":"","addr":"경기도 수원시 권선구 세류동 1270번지 LH수원센트럴타운2단지 203동 901호","indutype":"자동차정비 유지 - 세차장","category":"car"}]},{"lat":"37.262070861","long":"127.01516969","imageIndex":0,"items":[{"name":"대기공업사","tel":"031-232-5882","addr":"경기도 수원시 권선구 세류동 147-32번지 1층","indutype":"자동차정비 유지 - 자동차정비","category":"car"}]},{"lat":"37.258431304","long":"127.0056663","imageIndex":0,"items":[{"name":"대성라이닝","tel":"031-233-3727","addr":"경기도 수원시 권선구 세류동 212-14번지 1층","indutype":"자동차정비 유지 - 자동차정비","category":"car"}]},{"lat":"37.249627907","long":"127.01209061","imageIndex":0,"items":[{"name":"대양카프라자","tel":"031-221-6624","addr":"경기도 수원시 권선구 세류동 586-24번지","indutype":"자동차정비 유지 - 카인테리어","category":"car"}]},{"lat":"37.261935732","long":"127.01492166","imageIndex":0,"items":[{"name":"대영자동차공업사","tel":"031-237-8211","addr":"경기도 수원시 권선구 세류동 147-39번지","indutype":"자동차정비 유지 - 자동차정비","category":"car"}]},{"lat":"37.255321401","long":"127.02097374","imageIndex":0,"items":[{"name":"대우자동차서수원영업","tel":"031-233-3030","addr":"경기도 수원시 권선구 세류동 1079-4번지","indutype":"자동차판매 - 국산신차판매","category":"car"}]},{"lat":"37.260016487","long":"127.01541736","imageIndex":0,"items":[{"name":"도영특수","tel":"070-8650-5500","addr":"경기도 수원시 권선구 세류동 158-31번지 502호","indutype":"자동차정비 유지 - 자동차정비","category":"car"}]},{"lat":"37.253907052","long":"127.01911353","imageIndex":0,"items":[{"name":"두산수원중기부품센터","tel":"031-243-8746","addr":"경기도 수원시 권선구 세류동 1098-8번지","indutype":"자동차정비 유지 - 자동차부품","category":"car"}]},{"lat":"37.262791794","long":"127.01406503","imageIndex":0,"items":[{"name":"마이더스칼라매치그린서비스","tel":"031-232-7045","addr":"경기도 수원시 권선구 세류동 145-5번지","indutype":"자동차정비 유지 - 가타자동차서비스","category":"car"}]},{"lat":"37.252187076","long":"127.00816838","imageIndex":0,"items":[{"name":"메가셀","tel":"031-232-0775","addr":"경기도 수원시 권선구 세류동 654-6번지","indutype":"자동차정비 유지 - 자동차부품","category":"car"}]},{"lat":"37.255069463","long":"127.01850509","imageIndex":0,"items":[{"name":"미라클카센타","tel":"031-239-8512","addr":"경기도 수원시 권선구 세류동 1095번지","indutype":"자동차정비 유지 - 자동차정비","category":"car"}]},{"lat":"37.244626662","long":"127.01728572","imageIndex":0,"items":[{"name":"미스터K카센타","tel":"031-235-5604","addr":"경기도 수원시 권선구 세류동 1227번지","indutype":"자동차정비 유지 - 자동차정비","category":"car"}]},{"lat":"37.253187095","long":"127.01047917","imageIndex":0,"items":[{"name":"민디테일링샵(#)","tel":"02-1234-1234","addr":"경기도 수원시 권선구 세류동 565-22번지 101호","indutype":"자동차정비 유지 - 세차장","category":"car"}]},{"lat":"37.254520599","long":"127.0108062","imageIndex":0,"items":[{"name":"민수카센타","tel":"031-236-4917","addr":"경기도 수원시 권선구 세류동 544-17번지","indutype":"자동차정비 유지 - 자동차정비","category":"car"}]},{"lat":"37.252852979","long":"127.01811012","imageIndex":0,"items":[{"name":"베스트카공업사","tel":"031-238-2400","addr":"경기도 수원시 권선구 세류동 1104-40번지","indutype":"자동차정비 유지 - 자동차정비","category":"car"}]},{"lat":"37.258295957","long":"127.01019787","imageIndex":0,"items":[{"name":"봉 빳데리","tel":"","addr":"경기도 수원시 권선구 세류동 468-2번지","indutype":"자동차정비 유지 - 자동차부품","category":"car"}]},{"lat":"37.255322678","long":"127.00784171","imageIndex":0,"items":[{"name":"삼인(주)흠집제거전문점","tel":"031-233-1654","addr":"경기도 수원시 권선구 세류동 439-1번지","indutype":"자동차정비 유지 - 자동차정비","category":"car"}]},{"lat":"37.25804353","long":"127.01217054","imageIndex":0,"items":[{"name":"서수원판매","tel":"031-225-2370","addr":"경기도 수원시 권선구 세류동 526-1번지","indutype":"자동차정비 유지 - 자동차시트·타이어","category":"car"},{"name":"한국타이어수원점","tel":"031-224-6665","addr":"경기도 수원시 권선구 세류동 526-1번지","indutype":"자동차정비 유지 - 자동차시트·타이어","category":"car"}]},{"lat":"37.253457217","long":"127.01298155","imageIndex":0,"items":[{"name":"서울자동차공업사","tel":"031-234-4474","addr":"경기도 수원시 권선구 세류동 1003-6번지","indutype":"자동차정비 유지 - 자동차정비","category":"car"}]},{"lat":"37.263540176","long":"127.00272415","imageIndex":0,"items":[{"name":"세덴","tel":"031-224-7196","addr":"경기도 수원시 권선구 세류동 179-1번지","indutype":"자동차정비 유지 - 카인테리어","category":"car"}]},{"lat":"37.259215209","long":"127.00528306","imageIndex":0,"items":[{"name":"세류점 현대자동차","tel":"031-237-0286","addr":"경기도 수원시 권선구 세류동 213-1번지","indutype":"자동차정비 유지 - 자동차정비","category":"car"}]},{"lat":"37.254763915","long":"127.01023135","imageIndex":0,"items":[{"name":"세류점기아오토큐","tel":"031-239-0777","addr":"경기도 수원시 권선구 세류동 540-4번지","indutype":"자동차정비 유지 - 자동차정비","category":"car"}]},{"lat":"37.25929607","long":"127.01067142","imageIndex":0,"items":[{"name":"세류차병원","tel":"031-235-6639","addr":"경기도 수원시 권선구 세류동 473-14번지","indutype":"자동차정비 유지 - 자동차정비","category":"car"}]},{"lat":"37.241689472","long":"127.01575243","imageIndex":0,"items":[{"name":"세류카","tel":"031-236-2667","addr":"경기도 수원시 권선구 세류동 1174-33번지","indutype":"자동차정비 유지 - 자동차시트·타이어","category":"car"}]},{"lat":"37.250654532","long":"127.01755738","imageIndex":0,"items":[{"name":"세진 디테일링 권선점","tel":"031-225-5699","addr":"경기도 수원시 권선구 세류동 1123번지 1123-3번지(2필지)","indutype":"자동차정비 유지 - 세차장","category":"car"}]},{"lat":"37.258350241","long":"127.00370487","imageIndex":0,"items":[{"name":"소명모터스","tel":"031-296-9477","addr":"경기도 수원시 권선구 세류동 363-1번지","indutype":"자동차정비 유지 - 자동차부품","category":"car"}]},{"lat":"37.256295637","long":"127.01069366","imageIndex":0,"items":[{"name":"송림산업","tel":"031-232-2192","addr":"경기도 수원시 권선구 세류동 460-24번지","indutype":"자동차정비 유지 - 자동차부품","category":"car"}]},{"lat":"37.255880232","long":"127.01966629","imageIndex":0,"items":[{"name":"수오토 서비스","tel":"031-226-6522","addr":"경기도 수원시 권선구 세류동 1082-15번지","indutype":"자동차정비 유지 - 자동차정비","category":"car"}]},{"lat":"37.254881072","long":"127.00983684","imageIndex":0,"items":[{"name":"수원밧데리할인매장","tel":"031-239-3333","addr":"경기도 수원시 권선구 세류동 528-21번지 광민빌딩 104호","indutype":"자동차정비 유지 - 자동차부품","category":"car"}]},{"lat":"37.250546991","long":"127.01167368","imageIndex":0,"items":[{"name":"수원중고휠","tel":"031-226-9622","addr":"경기도 수원시 권선구 세류동 582-3번지 1층","indutype":"자동차정비 유지 - 자동차시트·타이어","category":"car"}]},{"lat":"37.262458292","long":"127.01528248","imageIndex":0,"items":[{"name":"스파이썬팅수원점","tel":"031-225-6543","addr":"경기도 수원시 권선구 세류동 147-12번지","indutype":"자동차정비 유지 - 카인테리어","category":"car"}]},{"lat":"37.261881793","long":"127.01364779","imageIndex":0,"items":[{"name":"스피드메이트(세류점)","tel":"031-898-8282","addr":"경기도 수원시 권선구 세류동 148-9번지","indutype":"자동차정비 유지 - 자동차정비","category":"car"}]},{"lat":"37.265936512","long":"127.012645","imageIndex":0,"items":[{"name":"시동상사","tel":"031-232-5000","addr":"경기도 수원시 권선구 세류동 97-3번지","indutype":"자동차정비 유지 - 자동차부품","category":"car"}]},{"lat":"37.253403326","long":"127.01072718","imageIndex":0,"items":[{"name":"신정카센타","tel":"031-223-6800","addr":"경기도 수원시 권선구 세류동 544-37번지","indutype":"자동차정비 유지 - 세차장","category":"car"}]},{"lat":"37.251294538","long":"127.0151454","imageIndex":0,"items":[{"name":"엘지경정비","tel":"031-236-7910","addr":"경기도 수원시 권선구 세류동 1126-6번지","indutype":"자동차정비 유지 - 카인테리어","category":"car"}]},{"lat":"37.26462972","long":"127.01577887","imageIndex":0,"items":[{"name":"오토플러스","tel":"031-267-1961","addr":"경기도 수원시 권선구 세류동 135-1번지","indutype":"자동차정비 유지 - 자동차부품","category":"car"}]},{"lat":"37.257818635","long":"127.00253253","imageIndex":0,"items":[{"name":"우리동네","tel":"031-292-7472","addr":"경기도 수원시 권선구 세류동 363-5번지","indutype":"자동차정비 유지 - 세차장","category":"car"}]},{"lat":"37.265657227","long":"127.01222784","imageIndex":0,"items":[{"name":"월드출장세차","tel":"031-221-4292","addr":"경기도 수원시 권선구 세류동 97-92번지 2층 202호","indutype":"자동차정비 유지 - 세차장","category":"car"},{"name":"월드출장세차","tel":"031-221-4292","addr":"경기도 수원시 권선구 세류동 97-92번지 2층 202호","indutype":"자동차정비 유지 - 세차장","category":"car"}]},{"lat":"37.263350398","long":"127.01442586","imageIndex":0,"items":[{"name":"유달중고타이어전문점","tel":"031-238-6221","addr":"경기도 수원시 권선구 세류동 145-16번지","indutype":"자동차정비 유지 - 자동차시트·타이어","category":"car"}]},{"lat":"37.241238928","long":"127.01600029","imageIndex":0,"items":[{"name":"유달타이어","tel":"031-237-5221","addr":"경기도 수원시 권선구 세류동 1178-25번지","indutype":"자동차정비 유지 - 자동차시트·타이어","category":"car"}]},{"lat":"37.26226897","long":"127.01625194","imageIndex":0,"items":[{"name":"은성카서비스","tel":"031-224-2700","addr":"경기도 수원시 권선구 세류동 138-12번지","indutype":"자동차정비 유지 - 자동차정비","category":"car"}]},{"lat":"37.259548594","long":"127.00505762","imageIndex":0,"items":[{"name":"이지유업","tel":"","addr":"경기도 수원시 권선구 세류동 213번지","indutype":"자동차정비 유지 - 자동차부품","category":"car"}]},{"lat":"37.261738112","long":"127.0039191","imageIndex":0,"items":[{"name":"자동차외형복원카스킨(Car-skin)","tel":"031-222-7234","addr":"경기도 수원시 권선구 세류동 195-5번지","indutype":"자동차정비 유지 - 카인테리어","category":"car"}]},{"lat":"37.262242124","long":"127.0145046","imageIndex":0,"items":[{"name":"정원영타이어","tel":"031-221-4640","addr":"경기도 수원시 권선구 세류동 147-45번지","indutype":"자동차정비 유지 - 자동차시트·타이어","category":"car"}]},{"lat":"37.254492667","long":"127.01950818","imageIndex":0,"items":[{"name":"정원차바닥","tel":"031-222-0035","addr":"경기도 수원시 권선구 세류동 1098-1번지","indutype":"자동차정비 유지 - 자동차부품","category":"car"}]},{"lat":"37.260989778","long":"127.0135913","imageIndex":0,"items":[{"name":"지엠대우수원바로코너","tel":"031-258-9797","addr":"경기도 수원시 권선구 세류동 167-3번지","indutype":"자동차정비 유지 - 자동차정비","category":"car"}]},{"lat":"37.254069214","long":"127.01928265","imageIndex":0,"items":[{"name":"카포인트","tel":"031-234-0709","addr":"경기도 수원시 권선구 세류동 1098-5번지 101호","indutype":"자동차정비 유지 - 자동차부품","category":"car"}]},{"lat":"37.264459038","long":"127.00955588","imageIndex":0,"items":[{"name":"캠핑팩토리","tel":"031-252-7508","addr":"경기도 수원시 권선구 세류동 1260번지 LH수원센트럴타운1단지 109동 304호","indutype":"자동차정비 유지 - 자동차부품","category":"car"}]},{"lat":"37.254627661","long":"127.02061287","imageIndex":0,"items":[{"name":"타이어월드 세류점","tel":"031-234-1070","addr":"경기도 수원시 권선구 세류동 1079-2번지","indutype":"자동차정비 유지 - 자동차시트·타이어","category":"car"}]},{"lat":"37.243022844","long":"127.01711636","imageIndex":0,"items":[{"name":"토바3000","tel":"031-657-6765","addr":"경기도 수원시 권선구 세류동 1171번지","indutype":"자동차정비 유지 - 자동차부품","category":"car"}]},{"lat":"37.254907222","long":"127.01892212","imageIndex":0,"items":[{"name":"토탈카서비스","tel":"031-239-3325","addr":"경기도 수원시 권선구 세류동 1096번지","indutype":"자동차정비 유지 - 자동차정비","category":"car"}]},{"lat":"37.256159342","long":"127.02108666","imageIndex":0,"items":[{"name":"티티바이크(tt bike)","tel":"031-224-5542","addr":"경기도 수원시 권선구 세류동 1077-3번지 101호102호","indutype":"자동차판매 - 이륜차판매","category":"car"}]},{"lat":"37.261431258","long":"127.01386191","imageIndex":0,"items":[{"name":"팔로우틴팅","tel":"","addr":"경기도 수원시 권선구 세류동 149-3번지 1층","indutype":"자동차정비 유지 - 자동차부품","category":"car"}]},{"lat":"37.242905942","long":"127.01503133","imageIndex":0,"items":[{"name":"프리라이더","tel":"031-234-8085","addr":"경기도 수원시 권선구 세류동 1167-54번지 상가 1층","indutype":"자동차판매 - 이륜차판매","category":"car"}]},{"lat":"37.252681724","long":"127.01856095","imageIndex":0,"items":[{"name":"한마음카서비스","tel":"031-236-5171","addr":"경기도 수원시 권선구 세류동 1103-7번지","indutype":"자동차정비 유지 - 자동차정비","category":"car"}]},{"lat":"37.250987803","long":"127.01842535","imageIndex":0,"items":[{"name":"한솔자동차정비","tel":"031-233-6987","addr":"경기도 수원시 권선구 세류동 1120-7번지","indutype":"자동차정비 유지 - 자동차정비","category":"car"}]},{"lat":"37.25418728","long":"127.00981423","imageIndex":0,"items":[{"name":"한일카센터","tel":"031-34-8667","addr":"경기도 수원시 권선구 세류동 542-3번지","indutype":"자동차정비 유지 - 자동차정비","category":"car"}]},{"lat":"37.252375824","long":"127.01467216","imageIndex":0,"items":[{"name":"한타수원총판(주)","tel":"031-232-6266","addr":"경기도 수원시 권선구 세류동 1125번지","indutype":"자동차정비 유지 - 자동차시트·타이어","category":"car"}]},{"lat":"37.262242225","long":"127.01342238","imageIndex":0,"items":[{"name":"현대,대우,기아,카랜드","tel":"031-236-1170","addr":"경기도 수원시 권선구 세류동 174-18번지","indutype":"자동차정비 유지 - 카인테리어","category":"car"}]},{"lat":"37.251735971","long":"127.01583303","imageIndex":0,"items":[{"name":"현대카써비스","tel":"031-223-9323","addr":"경기도 수원시 권선구 세류동 1125-3번지","indutype":"자동차정비 유지 - 자동차정비","category":"car"}]},{"lat":"37.258629232","long":"127.01175353","imageIndex":0,"items":[{"name":"혜성자동차용품점","tel":"031-226-1882","addr":"경기도 수원시 권선구 세류동 467-20번지","indutype":"자동차정비 유지 - 자동차부품","category":"car"}]}]