[{"lat":"37.285705113","long":"126.99383809","imageIndex":13,"items":[{"name":"(주)월드무역","tel":"031-258-1291","addr":"경기도 수원시 팔달구 화서동 648번지 화서주공프라자 3층 302호","indutype":"보건위생 - 화장품","category":"beauty"}]},{"lat":"37.279848782","long":"127.0040321","imageIndex":13,"items":[{"name":"A&J헤어샵","tel":"031-254-9468","addr":"경기도 수원시 팔달구 화서동 71-82번지","indutype":"보건위생 - 미용원","category":"beauty"},{"name":"에이앤제이헤어샵","tel":"031-254-9468","addr":"경기도 수원시 팔달구 화서동 71-82번지 1층","indutype":"보건위생 - 미용원","category":"beauty"}]},{"lat":"37.279037863","long":"127.00278049","imageIndex":13,"items":[{"name":"BON HAIR","tel":"031-254-5065","addr":"경기도 수원시 팔달구 화서동 71-50번지","indutype":"보건위생 - 미용원","category":"beauty"}]},{"lat":"37.280398297","long":"126.9976387","imageIndex":13,"items":[{"name":"MJ컬러앤미","tel":"031-252-6584","addr":"경기도 수원시 팔달구 화서동 125-8번지 1층","indutype":"보건위생 - 미용원","category":"beauty"}]},{"lat":"37.280767648","long":"126.99625173","imageIndex":13,"items":[{"name":"가이아헤어","tel":"031-258-6183","addr":"경기도 수원시 팔달구 화서동 203-9번지 1층","indutype":"보건위생 - 미용원","category":"beauty"}]},{"lat":"37.284848798","long":"126.9901395","imageIndex":13,"items":[{"name":"강남골반교정센터","tel":"031-207-9371","addr":"경기도 수원시 팔달구 화서동 644-1번지 풍성프라자 3층 301호","indutype":"보건위생 - 기타대인서비스","category":"beauty"},{"name":"아모레 카운셀러","tel":"031-246-3380","addr":"경기도 수원시 팔달구 화서동 644-1번지 풍성프라자 404호","indutype":"보건위생 - 화장품","category":"beauty"},{"name":"아모레 카운셀러","tel":"031-246-3380","addr":"경기도 수원시 팔달구 화서동 644-1번지 풍성프라자 404호","indutype":"보건위생 - 화장품","category":"beauty"},{"name":"아모레 카운셀러","tel":"031-246-3380","addr":"경기도 수원시 팔달구 화서동 644-1번지 풍성프라자 404호","indutype":"보건위생 - 화장품","category":"beauty"},{"name":"아모레 카운셀러","tel":"031-246-3380","addr":"경기도 수원시 팔달구 화서동 644-1번지 풍성프라자 404호","indutype":"보건위생 - 화장품","category":"beauty"},{"name":"아모레 카운셀러","tel":"031-246-3380","addr":"경기도 수원시 팔달구 화서동 644-1번지 풍성프라자 404호","indutype":"보건위생 - 화장품","category":"beauty"},{"name":"아모레 카운셀러","tel":"031-246-3380","addr":"경기도 수원시 팔달구 화서동 644-1번지 풍성프라자 404호","indutype":"보건위생 - 화장품","category":"beauty"},{"name":"아모레 카운셀러","tel":"031-246-3380","addr":"경기도 수원시 팔달구 화서동 644-1번지 풍성프라자 404호","indutype":"보건위생 - 화장품","category":"beauty"},{"name":"아모레 카운셀러","tel":"031-246-3380","addr":"경기도 수원시 팔달구 화서동 644-1번지 풍성프라자 404호","indutype":"보건위생 - 화장품","category":"beauty"},{"name":"아모레 카운셀러","tel":"031-246-3380","addr":"경기도 수원시 팔달구 화서동 644-1번지 풍성프라자 404호","indutype":"보건위생 - 화장품","category":"beauty"},{"name":"아모레 카운셀러","tel":"031-246-3380","addr":"경기도 수원시 팔달구 화서동 644-1번지 풍성프라자 404호","indutype":"보건위생 - 화장품","category":"beauty"},{"name":"아모레 카운셀러","tel":"031-246-3380","addr":"경기도 수원시 팔달구 화서동 644-1번지 풍성프라자 404호","indutype":"보건위생 - 화장품","category":"beauty"},{"name":"아모레 카운셀러","tel":"031-246-3380","addr":"경기도 수원시 팔달구 화서동 644-1번지 풍성프라자 4층 404호","indutype":"보건위생 - 화장품","category":"beauty"},{"name":"아모레카운셀러","tel":"031-246-3380","addr":"경기도 수원시 팔달구 화서동 644-1번지 풍성프라자 404호","indutype":"보건위생 - 화장품","category":"beauty"},{"name":"아모레카운셀러","tel":"031-269-2177","addr":"경기도 수원시 팔달구 화서동 644-1번지 풍성프라자 404호","indutype":"보건위생 - 화장품","category":"beauty"},{"name":"아모레카운셀러","tel":"031-246-3380","addr":"경기도 수원시 팔달구 화서동 644-1번지 풍성프라자 404호","indutype":"보건위생 - 화장품","category":"beauty"},{"name":"아모레카운셀러","tel":"031-246-3380","addr":"경기도 수원시 팔달구 화서동 644-1번지 풍성프라자 404호","indutype":"보건위생 - 화장품","category":"beauty"},{"name":"아모레카운셀러","tel":"031-246-3380","addr":"경기도 수원시 팔달구 화서동 644-1번지 풍성프라자 4층 4호","indutype":"보건위생 - 화장품","category":"beauty"},{"name":"아모레카운셀러","tel":"031-246-3380","addr":"경기도 수원시 팔달구 화서동 644-1번지 풍성프라자 404호","indutype":"보건위생 - 화장품","category":"beauty"},{"name":"아모레카운셀러","tel":"031-246-3380","addr":"경기도 수원시 팔달구 화서동 644-1번지 풍성프라자 404호","indutype":"보건위생 - 화장품","category":"beauty"},{"name":"아모레카운셀러","tel":"031-246-3380","addr":"경기도 수원시 팔달구 화서동 644-1번지 풍성프라자 404호","indutype":"보건위생 - 화장품","category":"beauty"},{"name":"아모레퍼시픽 수원화서특약점","tel":"031-246-3380","addr":"경기도 수원시 팔달구 화서동 644-1번지 풍성프라자 404호","indutype":"보건위생 - 화장품","category":"beauty"},{"name":"아모레퍼시픽뷰레이터","tel":"031-252-1616","addr":"경기도 수원시 팔달구 화서동 644-1번지 풍성프라자 304호","indutype":"보건위생 - 화장품","category":"beauty"},{"name":"아이하우스 안경원화서역점","tel":"031-253-0075","addr":"경기도 수원시 팔달구 화서동 644-1번지","indutype":"보건위생 - 안경","category":"beauty"},{"name":"엠비뷰티","tel":"031-254-8111","addr":"경기도 수원시 팔달구 화서동 644-1번지 풍성프라자 8층 801호","indutype":"보건위생 - 피부미용실","category":"beauty"}]},{"lat":"37.280515327","long":"126.99567668","imageIndex":13,"items":[{"name":"갤러리헤어","tel":"031-244-8922","addr":"경기도 수원시 팔달구 화서동 202-22번지","indutype":"보건위생 - 미용원","category":"beauty"}]},{"lat":"37.279794725","long":"127.00253242","imageIndex":13,"items":[{"name":"경미용실","tel":"00-0000-0000","addr":"경기도 수원시 팔달구 화서동 71-106번지 1층","indutype":"보건위생 - 미용원","category":"beauty"}]},{"lat":"37.278407077","long":"126.99892425","imageIndex":13,"items":[{"name":"공감","tel":"031-251-9710","addr":"경기도 수원시 팔달구 화서동 175-5번지 1층","indutype":"보건위생 - 미용원","category":"beauty"}]},{"lat":"37.278875661","long":"127.00092001","imageIndex":13,"items":[{"name":"국제미용실","tel":"031-243-7314","addr":"경기도 수원시 팔달구 화서동 107-7번지","indutype":"보건위생 - 미용원","category":"beauty"},{"name":"수원화서지사(마임)","tel":"031-258-3603","addr":"경기도 수원시 팔달구 화서동 107-7번지 2층","indutype":"보건위생 - 화장품","category":"beauty"}]},{"lat":"37.280010966","long":"127.00408848","imageIndex":13,"items":[{"name":"궁","tel":"031-291-8607","addr":"경기도 수원시 팔달구 화서동 71-14번지 2층","indutype":"보건위생 - 미용재료","category":"beauty"}]},{"lat":"37.286433025","long":"126.97973078","imageIndex":13,"items":[{"name":"권헤어","tel":"031-000-0000","addr":"경기도 수원시 팔달구 화서동 722-5번지 1층","indutype":"보건위생 - 미용원","category":"beauty"}]},{"lat":"37.280038","long":"127.00203629","imageIndex":13,"items":[{"name":"김민정헤어갤러리","tel":"031-258-0031","addr":"경기도 수원시 팔달구 화서동 71-129번지 1층","indutype":"보건위생 - 미용원","category":"beauty"}]},{"lat":"37.279821739","long":"127.00492289","imageIndex":13,"items":[{"name":"김정문알로에화서지사","tel":"031-8031-7557","addr":"경기도 수원시 팔달구 화서동 71-142번지 2층","indutype":"보건위생 - 화장품","category":"beauty"}]},{"lat":"37.278488226","long":"127.00133722","imageIndex":13,"items":[{"name":"김해영토탈샵","tel":"031-258-2777","addr":"경기도 수원시 팔달구 화서동 108-4번지","indutype":"보건위생 - 미용원","category":"beauty"}]},{"lat":"37.279371243","long":"127.00278049","imageIndex":13,"items":[{"name":"깍지","tel":"070-4282-2468","addr":"경기도 수원시 팔달구 화서동 71-92번지 102호","indutype":"보건위생 - 화장품","category":"beauty"}]},{"lat":"37.277875419","long":"126.99759377","imageIndex":13,"items":[{"name":"꽃보다 아름다운헤어","tel":"","addr":"경기도 수원시 팔달구 화서동 184-127번지 아름빌아트 1층","indutype":"보건위생 - 미용원","category":"beauty"}]},{"lat":"37.285065659","long":"127.00700919","imageIndex":13,"items":[{"name":"나진코스메틱","tel":"031-255-1846","addr":"경기도 수원시 팔달구 화서동 33-6번지","indutype":"보건위생 - 화장품","category":"beauty"}]},{"lat":"37.278461202","long":"127.0020363","imageIndex":13,"items":[{"name":"네이처리퍼블릭","tel":"031-255-2908","addr":"경기도 수원시 팔달구 화서동 97-1번지 나-34","indutype":"보건위생 - 화장품","category":"beauty"},{"name":"민정이네","tel":"031-248-1454","addr":"경기도 수원시 팔달구 화서동 97-1번지","indutype":"보건위생 - 화장품","category":"beauty"},{"name":"에뛰드하우스 화서점","tel":"070-4220-0185","addr":"경기도 수원시 팔달구 화서동 97-1번지 나동 1층 동쪽에서 6번째,7번째 상가","indutype":"보건위생 - 화장품","category":"beauty"},{"name":"힐링숲","tel":"031-256-8875","addr":"경기도 수원시 팔달구 화서동 97-1번지 화서상가 나-2호","indutype":"보건위생 - 의료용품","category":"beauty"}]},{"lat":"37.284623557","long":"126.99028613","imageIndex":13,"items":[{"name":"네일톡톡","tel":"031-212-3790","addr":"경기도 수원시 팔달구 화서동 644-8번지 화서프라자 110호","indutype":"보건위생 - 피부미용실","category":"beauty"},{"name":"리리에스테틱","tel":"031-252-2023","addr":"경기도 수원시 팔달구 화서동 644-8번지 화서프라자 505호","indutype":"보건위생 - 화장품","category":"beauty"},{"name":"수원아동발달센터","tel":"031-241-3599","addr":"경기도 수원시 팔달구 화서동 644-8번지 화서프라자 501호,502호","indutype":"보건위생 - 기타대인서비스","category":"beauty"},{"name":"아모레퍼시픽 경기지사","tel":"031-252-1616","addr":"경기도 수원시 팔달구 화서동 644-8번지 화서프라자 505호","indutype":"보건위생 - 화장품","category":"beauty"},{"name":"아모레퍼시픽경기지사","tel":"031-252-1616","addr":"경기도 수원시 팔달구 화서동 644-8번지 화서프라자 505동 506호","indutype":"보건위생 - 화장품","category":"beauty"},{"name":"아모레퍼시픽북수원지사","tel":"031-252-1616","addr":"경기도 수원시 팔달구 화서동 644-8번지 화서프라자 505호 리리코스 북수원지사","indutype":"보건위생 - 화장품","category":"beauty"},{"name":"아모레퍼시픽북수원지사","tel":"031-252-1616","addr":"경기도 수원시 팔달구 화서동 644-8번지 화서프라자 505호 리리코스 북수원지사","indutype":"보건위생 - 화장품","category":"beauty"},{"name":"아모레퍼시픽뷰레이터","tel":"031-252-1616","addr":"경기도 수원시 팔달구 화서동 644-8번지 화서프라자 5층 505호 아모레퍼시픽경기지사","indutype":"보건위생 - 화장품","category":"beauty"},{"name":"아모레퍼시픽뷰레이터","tel":"031-252-1616","addr":"경기도 수원시 팔달구 화서동 644-8번지 화서프라자 5층 505호","indutype":"보건위생 - 화장품","category":"beauty"},{"name":"아모레퍼시픽뷰레이터","tel":"031-252-1616","addr":"경기도 수원시 팔달구 화서동 644-8번지 화서프라자 5동 505호","indutype":"보건위생 - 화장품","category":"beauty"},{"name":"아모레퍼시픽뷰레이터","tel":"031-252-1616","addr":"경기도 수원시 팔달구 화서동 644-8번지 화서프라자 5층 505호","indutype":"보건위생 - 화장품","category":"beauty"},{"name":"주식회사 오조","tel":"031-305-5400","addr":"경기도 수원시 팔달구 화서동 644-8번지 화서프라자 3층 301호","indutype":"보건위생 - 의료용품","category":"beauty"},{"name":"커트클럽","tel":"031-252-1222","addr":"경기도 수원시 팔달구 화서동 644-8번지 화서프라자 114호, 118호","indutype":"보건위생 - 미용원","category":"beauty"},{"name":"퍼플","tel":"031-254-5650","addr":"경기도 수원시 팔달구 화서동 644-8번지 화서프라자 113호,119호","indutype":"보건위생 - 화장품","category":"beauty"}]},{"lat":"37.277902518","long":"126.99945422","imageIndex":13,"items":[{"name":"뉴탈렌트미용실","tel":"031-254-7647","addr":"경기도 수원시 팔달구 화서동 180-7번지","indutype":"보건위생 - 미용원","category":"beauty"}]},{"lat":"37.284488489","long":"126.99112061","imageIndex":13,"items":[{"name":"뉴한솔헤어샵","tel":"031-243-7344","addr":"경기도 수원시 팔달구 화서동 649번지 4단지 상가 102호","indutype":"보건위생 - 미용원","category":"beauty"},{"name":"뷰티피아헤어콜렉션","tel":"031-253-4068","addr":"경기도 수원시 팔달구 화서동 649번지 화서주공상가4단지 207호","indutype":"보건위생 - 미용원","category":"beauty"}]},{"lat":"37.278875667","long":"127.00128083","imageIndex":13,"items":[{"name":"늘본헤어살롱","tel":"031-255-8587","addr":"경기도 수원시 팔달구 화서동 107-9번지 2층","indutype":"보건위생 - 미용원","category":"beauty"},{"name":"핑크화장품","tel":"031-227-8024","addr":"경기도 수원시 팔달구 화서동 107-9번지 1층","indutype":"보건위생 - 화장품","category":"beauty"}]},{"lat":"37.279100929","long":"127.00408847","imageIndex":13,"items":[{"name":"다비치화서점","tel":"031-254-6177","addr":"경기도 수원시 팔달구 화서동 71-8번지 외1필지(71-149)제1층","indutype":"보건위생 - 안경","category":"beauty"}]},{"lat":"37.276902308","long":"126.99756001","imageIndex":13,"items":[{"name":"다스모아","tel":"031-224-4900","addr":"경기도 수원시 팔달구 화서동 184-282번지 2층","indutype":"보건위생 - 화장품","category":"beauty"}]},{"lat":"37.277767414","long":"127.00245351","imageIndex":13,"items":[{"name":"더올헤어샵","tel":"031-227-8988","addr":"경기도 수원시 팔달구 화서동 96-1번지 1층","indutype":"보건위생 - 미용원","category":"beauty"}]},{"lat":"37.279344142","long":"126.99883399","imageIndex":13,"items":[{"name":"더클리퍼","tel":"","addr":"경기도 수원시 팔달구 화서동 134-15번지 1층","indutype":"보건위생 - 미용원","category":"beauty"},{"name":"더클리퍼","tel":"","addr":"경기도 수원시 팔달구 화서동 134-15번지 1층","indutype":"보건위생 - 미용원","category":"beauty"}]},{"lat":"37.285541248","long":"126.98098276","imageIndex":13,"items":[{"name":"드림안경마트화서점","tel":"031-296-3001","addr":"경기도 수원시 팔달구 화서동 725-5번지 금융빌딩 101호","indutype":"보건위생 - 안경","category":"beauty"},{"name":"컷트클럽","tel":"031-298-3662","addr":"경기도 수원시 팔달구 화서동 725-5번지 금용빌딩 101호","indutype":"보건위생 - 미용원","category":"beauty"}]},{"lat":"37.278569307","long":"127.00061558","imageIndex":13,"items":[{"name":"디샵","tel":"031-295-9903","addr":"경기도 수원시 팔달구 화서동 108-2번지 1층","indutype":"보건위생 - 미용원","category":"beauty"}]},{"lat":"37.284731706","long":"126.99053419","imageIndex":13,"items":[{"name":"디알에이치 뷰티","tel":"070-8826-0212","addr":"경기도 수원시 팔달구 화서동 644-7번지 외1필지 아트프라자 6층 6호","indutype":"보건위생 - 화장품","category":"beauty"},{"name":"아모레카운셀러","tel":"031-269-2177","addr":"경기도 수원시 팔달구 화서동 644-7번지 아트프라자 701호","indutype":"보건위생 - 화장품","category":"beauty"},{"name":"아이요나(eye.yona)","tel":"031-212-9080","addr":"경기도 수원시 팔달구 화서동 644-7번지 아트프라자 1층 14호","indutype":"보건위생 - 안경","category":"beauty"},{"name":"코노미네일(konomi nail)","tel":"031-111-1111","addr":"경기도 수원시 팔달구 화서동 644-7번지 아트프라자 1층 9호","indutype":"보건위생 - 피부미용실","category":"beauty"},{"name":"포낙보청기 서수원센터","tel":"031-207-2003","addr":"경기도 수원시 팔달구 화서동 644-7번지 아트프라자 5층 513호","indutype":"보건위생 - 의료용품","category":"beauty"}]},{"lat":"37.285234959","long":"126.98130986","imageIndex":13,"items":[{"name":"레드헤어","tel":"031-292-5044","addr":"경기도 수원시 팔달구 화서동 726-6번지 1층 102호","indutype":"보건위생 - 미용원","category":"beauty"}]},{"lat":"37.27770426","long":"126.99847327","imageIndex":13,"items":[{"name":"로니네일","tel":"070-5025-0555","addr":"경기도 수원시 팔달구 화서동 184-222번지 1층","indutype":"보건위생 - 피부미용실","category":"beauty"}]},{"lat":"37.285128195","long":"126.99089498","imageIndex":13,"items":[{"name":"로즈헤어테라피","tel":"031-246-3379","addr":"경기도 수원시 팔달구 화서동 644-4번지 정자프라자 104호","indutype":"보건위생 - 미용원","category":"beauty"}]},{"lat":"37.286730401","long":"126.97992239","imageIndex":13,"items":[{"name":"로지네일","tel":"070-4090-5040","addr":"경기도 수원시 팔달구 화서동 723-4번지 1층 101호","indutype":"보건위생 - 피부미용실","category":"beauty"},{"name":"준헤어","tel":"031-296-1567","addr":"경기도 수원시 팔달구 화서동 723-4번지","indutype":"보건위생 - 미용원","category":"beauty"}]},{"lat":"37.285342959","long":"126.98064451","imageIndex":13,"items":[{"name":"리안","tel":"031-298-4077","addr":"경기도 수원시 팔달구 화서동 725-3번지 리더스빌딩 103호","indutype":"보건위생 - 미용원","category":"beauty"}]},{"lat":"37.27929014","long":"127.0013372","imageIndex":13,"items":[{"name":"린헤어","tel":"","addr":"경기도 수원시 팔달구 화서동 106-8번지","indutype":"보건위생 - 미용원","category":"beauty"}]},{"lat":"37.278569312","long":"127.00092002","imageIndex":13,"items":[{"name":"마르페메디칼","tel":"031-252-3790","addr":"경기도 수원시 팔달구 화서동 108-10번지","indutype":"보건위생 - 의료용품","category":"beauty"}]},{"lat":"37.279542362","long":"126.9986423","imageIndex":13,"items":[{"name":"마음수련","tel":"070-9144-3326","addr":"경기도 수원시 팔달구 화서동 134-1번지 3층","indutype":"보건위생 - 기타대인서비스","category":"beauty"}]},{"lat":"37.280236227","long":"127.00350214","imageIndex":13,"items":[{"name":"머리깍기","tel":"031-258-2824","addr":"경기도 수원시 팔달구 화서동 71-27번지","indutype":"보건위생 - 미용원","category":"beauty"}]},{"lat":"37.279956907","long":"127.00375021","imageIndex":13,"items":[{"name":"머리반장","tel":"031-207-3337","addr":"경기도 수원시 팔달구 화서동 71-20번지 1층","indutype":"보건위생 - 미용원","category":"beauty"},{"name":"시티헤드보그","tel":"031-245-0181","addr":"경기도 수원시 팔달구 화서동 71-20번지 우측점포 1층","indutype":"보건위생 - 미용원","category":"beauty"},{"name":"현우화장품","tel":"031-245-8053","addr":"경기도 수원시 팔달구 화서동 71-20번지","indutype":"보건위생 - 화장품","category":"beauty"}]},{"lat":"37.288452698","long":"126.98836839","imageIndex":13,"items":[{"name":"머리하는곳","tel":"031-271-5956","addr":"경기도 수원시 팔달구 화서동 675-7번지 1층","indutype":"보건위생 - 미용원","category":"beauty"}]},{"lat":"37.285847428","long":"126.98009181","imageIndex":13,"items":[{"name":"모즈헤어","tel":"031-296-6589","addr":"경기도 수원시 팔달구 화서동 722-10번지 1층","indutype":"보건위생 - 미용원","category":"beauty"}]},{"lat":"37.279983916","long":"127.0004464","imageIndex":13,"items":[{"name":"목화미용실","tel":"031-251-4736","addr":"경기도 수원시 팔달구 화서동 105-15 신안상떼빌1층101","indutype":"보건위생 - 미용원","category":"beauty"}]},{"lat":"37.278542212","long":"126.99837174","imageIndex":13,"items":[{"name":"문희미용실","tel":"031-242-2054","addr":"경기도 수원시 팔달구 화서동 174-8번지","indutype":"보건위생 - 미용원","category":"beauty"},{"name":"블랙블링","tel":"","addr":"경기도 수원시 팔달구 화서동 174-8번지","indutype":"보건위생 - 피부미용실","category":"beauty"}]},{"lat":"37.283065121","long":"126.99403011","imageIndex":13,"items":[{"name":"뮤즈헤어","tel":"031-244-3711","addr":"경기도 수원시 팔달구 화서동 275-1번지","indutype":"보건위생 - 미용원","category":"beauty"}]},{"lat":"37.279542428","long":"127.00137102","imageIndex":13,"items":[{"name":"미다듬","tel":"031-241-6218","addr":"경기도 수원시 팔달구 화서동 106-14번지 1층","indutype":"보건위생 - 미용원","category":"beauty"}]},{"lat":"37.285730533","long":"126.98136611","imageIndex":13,"items":[{"name":"미사랑","tel":"031-294-2428","addr":"경기도 수원시 팔달구 화서동 727번지 서수원프라자 3층 301호","indutype":"보건위생 - 화장품","category":"beauty"},{"name":"투모로샵(tomorrow#)","tel":"031-291-2938","addr":"경기도 수원시 팔달구 화서동 727번지 서수원프라자 1층 102호","indutype":"보건위생 - 피부미용실","category":"beauty"}]},{"lat":"37.278875678","long":"127.00281432","imageIndex":13,"items":[{"name":"미소화장품","tel":"031-246-2661","addr":"경기도 수원시 팔달구 화서동 71-101번지 코너점포","indutype":"보건위생 - 화장품","category":"beauty"},{"name":"힐링스킨","tel":"031-246-8777","addr":"경기도 수원시 팔달구 화서동 71-101번지 3층","indutype":"보건위생 - 화장품","category":"beauty"}]},{"lat":"37.278542268","long":"127.00023221","imageIndex":13,"items":[{"name":"미스터컷","tel":"031-254-8438","addr":"경기도 수원시 팔달구 화서동 114-1번지 1층","indutype":"보건위생 - 미용원","category":"beauty"}]},{"lat":"37.284902952","long":"126.99103033","imageIndex":13,"items":[{"name":"미앤미헤어클래식","tel":"031-242-4812","addr":"경기도 수원시 팔달구 화서동 644-5번지 그린프라자 203-1호","indutype":"보건위생 - 미용원","category":"beauty"},{"name":"뷰림헤어케어살롱","tel":"031-243-4812","addr":"경기도 수원시 팔달구 화서동 644-5번지 그린프라자 108호","indutype":"보건위생 - 미용원","category":"beauty"},{"name":"열린미용실","tel":"031-244-0025","addr":"경기도 수원시 팔달구 화서동 644-5그린프라자301-1호","indutype":"보건위생 - 미용원","category":"beauty"},{"name":"옻안타는 천연염색 화서점","tel":"031-891-5552","addr":"경기도 수원시 팔달구 화서동 644-5번지 그린프라자 209-2호","indutype":"보건위생 - 미용원","category":"beauty"},{"name":"해피베이비산후도우미","tel":"031-254-2353","addr":"경기도 수원시 팔달구 화서동 644-5번지 그린프라자 304호","indutype":"보건위생 - 기타대인서비스","category":"beauty"},{"name":"호성메디칼","tel":"","addr":"경기도 수원시 팔달구 화서동 644-5번지 그린프라자 210호","indutype":"보건위생 - 의료용품","category":"beauty"}]},{"lat":"37.279317174","long":"127.00158527","imageIndex":13,"items":[{"name":"미인네일","tel":"031-207-1821","addr":"경기도 수원시 팔달구 화서동 99-3번지 1층","indutype":"보건위생 - 피부미용실","category":"beauty"},{"name":"제이앤제이헤어스파(J&J hair spa)","tel":"031-258-7793","addr":"경기도 수원시 팔달구 화서동 99-3번지 1층","indutype":"보건위생 - 미용원","category":"beauty"}]},{"lat":"37.281515536","long":"126.99691695","imageIndex":13,"items":[{"name":"바싸헤어샵","tel":"031-247-2063","addr":"경기도 수원시 팔달구 화서동 211-4번지","indutype":"보건위생 - 미용원","category":"beauty"}]},{"lat":"37.279677374","long":"126.99569932","imageIndex":13,"items":[{"name":"박정주헤어샵","tel":"031-246-2242","addr":"경기도 수원시 팔달구 화서동 190-13번지","indutype":"보건위생 - 미용원","category":"beauty"}]},{"lat":"37.277983583","long":"126.99858601","imageIndex":13,"items":[{"name":"백설공주","tel":"031-256-9416","addr":"경기도 수원시 팔달구 화서동 175-17번지","indutype":"보건위생 - 피부미용실","category":"beauty"},{"name":"슈가헤어","tel":"031-246-1257","addr":"경기도 수원시 팔달구 화서동 175-17번지 1층","indutype":"보건위생 - 미용원","category":"beauty"}]},{"lat":"37.284596917","long":"126.99475162","imageIndex":13,"items":[{"name":"벗헤어","tel":"031-254-5955","addr":"경기도 수원시 팔달구 화서동 761번지 수원화서역동문굿모닝힐 상가 203호","indutype":"보건위생 - 미용원","category":"beauty"}]},{"lat":"37.280236226","long":"127.00367128","imageIndex":13,"items":[{"name":"보니","tel":"","addr":"경기도 수원시 팔달구 화서동 71-26번지 1층 101호","indutype":"보건위생 - 화장품","category":"beauty"}]},{"lat":"37.28073164","long":"126.99687191","imageIndex":13,"items":[{"name":"보보헤어","tel":"031-258-9122","addr":"경기도 수원시 팔달구 화서동 206-4번지 1층","indutype":"보건위생 - 미용원","category":"beauty"}]},{"lat":"37.281821908","long":"126.99739052","imageIndex":13,"items":[{"name":"본느헤어","tel":"031-241-1100","addr":"경기도 수원시 팔달구 화서동 211-12번지 외2필지 102호","indutype":"보건위생 - 미용원","category":"beauty"}]},{"lat":"37.278515267","long":"127.00317514","imageIndex":13,"items":[{"name":"뷰티마스터반달","tel":"031-235-2587","addr":"경기도 수원시 팔달구 화서동 71-53번지 화서프라자 3층 301호","indutype":"보건위생 - 피부미용실","category":"beauty"},{"name":"호박헤어","tel":"031-258-5542","addr":"경기도 수원시 팔달구 화서동 71-53번지 화서프라자 1층 101호","indutype":"보건위생 - 미용원","category":"beauty"}]},{"lat":"37.28831841","long":"127.00050252","imageIndex":13,"items":[{"name":"쁘니피부나라","tel":"031-244-2443","addr":"경기도 수원시 팔달구 화서동 743번지 화서위브하늘채 상가 202동 202호","indutype":"보건위생 - 피부미용실","category":"beauty"},{"name":"원네일","tel":"031-242-2810","addr":"경기도 수원시 팔달구 화서동 743번지 화서위브하늘채 상가 202동 105호","indutype":"보건위생 - 피부미용실","category":"beauty"},{"name":"이나연 뷰티헤어","tel":"031-245-0110","addr":"경기도 수원시 팔달구 화서동 743번지 화서위브하늘채 203동 103호","indutype":"보건위생 - 미용원","category":"beauty"}]},{"lat":"37.277487951","long":"126.99703003","imageIndex":13,"items":[{"name":"쁨","tel":"070-5118-2236","addr":"경기도 수원시 팔달구 화서동 184-137번지 2층","indutype":"보건위생 - 화장품","category":"beauty"}]},{"lat":"37.280263259","long":"127.00297218","imageIndex":13,"items":[{"name":"서영에스테틱","tel":"","addr":"경기도 수원시 팔달구 화서동 71-194번지 2층","indutype":"보건위생 - 피부미용실","category":"beauty"}]},{"lat":"37.280875885","long":"126.99873243","imageIndex":13,"items":[{"name":"설렘Hair","tel":"","addr":"경기도 수원시 팔달구 화서동 119-4번지 2층","indutype":"보건위생 - 미용원","category":"beauty"},{"name":"에덴환경산업","tel":"031-257-2112","addr":"경기도 수원시 팔달구 화서동 119-4번지","indutype":"보건위생 - 기타대인서비스","category":"beauty"}]},{"lat":"37.278848579","long":"126.9988904","imageIndex":13,"items":[{"name":"성민아트","tel":"031-241-2131","addr":"경기도 수원시 팔달구 화서동 174-5번지 1층","indutype":"보건위생 - 미용재료","category":"beauty"}]},{"lat":"37.281371257","long":"126.99495494","imageIndex":13,"items":[{"name":"세은헤어샵","tel":"","addr":"경기도 수원시 팔달구 화서동 214-1번지 1층","indutype":"보건위생 - 미용원","category":"beauty"}]},{"lat":"37.282623913","long":"127.00583634","imageIndex":13,"items":[{"name":"세진옥매트","tel":"031-255-9510","addr":"경기도 수원시 팔달구 화서동 68-3번지","indutype":"보건위생 - 의료용품","category":"beauty"}]},{"lat":"37.286037628","long":"126.98595564","imageIndex":13,"items":[{"name":"손이예뻐♡","tel":"031-296-2777","addr":"경기도 수원시 팔달구 화서동 685-2번지 101호","indutype":"보건위생 - 피부미용실","category":"beauty"}]},{"lat":"37.280677505","long":"126.99556391","imageIndex":13,"items":[{"name":"수헤어샵","tel":"031-235-8429","addr":"경기도 수원시 팔달구 화서동 202-10번지 1층","indutype":"보건위생 - 미용원","category":"beauty"}]},{"lat":"37.28275894","long":"126.99666878","imageIndex":13,"items":[{"name":"스타","tel":"","addr":"경기도 수원시 팔달구 화서동 249-24번지 2층 호","indutype":"보건위생 - 화장품","category":"beauty"}]},{"lat":"37.281848838","long":"126.99552997","imageIndex":13,"items":[{"name":"신세대미용실","tel":"031-244-5842","addr":"경기도 수원시 팔달구 화서동 245-23번지","indutype":"보건위생 - 미용원","category":"beauty"}]},{"lat":"37.281155101","long":"126.99645467","imageIndex":13,"items":[{"name":"신치과기공소","tel":"031-242-2408","addr":"경기도 수원시 팔달구 화서동 212-2번지 도경빌딩 2층","indutype":"보건위생 - 의료용품","category":"beauty"}]},{"lat":"37.281317324","long":"126.99719887","imageIndex":13,"items":[{"name":"쎄쎄쎄아트","tel":"031-307-2274","addr":"경기도 수원시 팔달구 화서동 206-14번지","indutype":"보건위생 - 미용원","category":"beauty"},{"name":"아름다운 선택","tel":"031-298-9091","addr":"경기도 수원시 팔달구 화서동 206-14번지 1층 상가왼쪽","indutype":"보건위생 - 화장품","category":"beauty"}]},{"lat":"37.277487931","long":"126.99664666","imageIndex":13,"items":[{"name":"아름다운선택","tel":"031-244-8211","addr":"경기도 수원시 팔달구 화서동 184-51번지 뉴골든 101호","indutype":"보건위생 - 화장품","category":"beauty"}]},{"lat":"37.281398413","long":"126.99711993","imageIndex":13,"items":[{"name":"아이리스","tel":"031-252-7004","addr":"경기도 수원시 팔달구 화서동 206-9번지","indutype":"보건위생 - 화장품","category":"beauty"},{"name":"주니네일","tel":"031-246-0877","addr":"경기도 수원시 팔달구 화서동 206-9번지 1층","indutype":"보건위생 - 피부미용실","category":"beauty"}]},{"lat":"37.279767683","long":"127.00456206","imageIndex":13,"items":[{"name":"앵두손톱","tel":"031-246-0220","addr":"경기도 수원시 팔달구 화서동 71-4번지 201호","indutype":"보건위생 - 피부미용실","category":"beauty"}]},{"lat":"37.278515211","long":"126.99925124","imageIndex":13,"items":[{"name":"언니들의미장원","tel":"031-256-1130","addr":"경기도 수원시 팔달구 화서동 175-1번지 대화빌딩 1층","indutype":"보건위생 - 미용원","category":"beauty"}]},{"lat":"37.286874543","long":"126.97980958","imageIndex":13,"items":[{"name":"에스엠프로헤어","tel":"031-227-1224","addr":"경기도 수원시 팔달구 화서동 723-3번지 1층 102호","indutype":"보건위생 - 미용원","category":"beauty"}]},{"lat":"37.280848769","long":"126.99678169","imageIndex":13,"items":[{"name":"에이더블유헤어","tel":"","addr":"경기도 수원시 팔달구 화서동 206-5번지 4층","indutype":"보건위생 - 미용원","category":"beauty"}]},{"lat":"37.278127801","long":"127.00050284","imageIndex":13,"items":[{"name":"염색이야기","tel":"031-245-8055","addr":"경기도 수원시 팔달구 화서동 109-3번지","indutype":"보건위생 - 미용원","category":"beauty"},{"name":"휴플러스화서점","tel":"031-245-4560","addr":"경기도 수원시 팔달구 화서동 109-3번지","indutype":"보건위생 - 화장품","category":"beauty"}]},{"lat":"37.283290692","long":"127.00488915","imageIndex":13,"items":[{"name":"예쁜머리","tel":"070-4330-7214","addr":"경기도 수원시 팔달구 화서동 41-2번지 상가 1층 전체","indutype":"보건위생 - 미용원","category":"beauty"}]},{"lat":"37.279596469","long":"127.00019835","imageIndex":13,"items":[{"name":"예인화장품","tel":"031-243-1116","addr":"경기도 수원시 팔달구 화서동 116-11번지","indutype":"보건위생 - 화장품","category":"beauty"}]},{"lat":"37.278875658","long":"127.00075088","imageIndex":13,"items":[{"name":"온누리헬스케어","tel":"031-242-0030","addr":"경기도 수원시 팔달구 화서동 107-6번지 2층","indutype":"보건위생 - 의료용품","category":"beauty"}]},{"lat":"37.279434305","long":"127.00439292","imageIndex":13,"items":[{"name":"우리사우나","tel":"031-256-3048","addr":"경기도 수원시 팔달구 화서동 71-6","indutype":"보건위생 - 사우나","category":"beauty"}]},{"lat":"37.287984215","long":"126.98878573","imageIndex":13,"items":[{"name":"원더우먼","tel":"031-268-0122","addr":"경기도 수원시 팔달구 화서동 677-2번지 1층","indutype":"보건위생 - 미용원","category":"beauty"}]},{"lat":"37.278902672","long":"126.99995031","imageIndex":13,"items":[{"name":"월드헤어로드","tel":"031-243-9965","addr":"경기도 수원시 팔달구 화서동 115-4번지 보은빌딩 외2필지 1층 A03호","indutype":"보건위생 - 미용원","category":"beauty"}]},{"lat":"37.280263259","long":"127.00281432","imageIndex":13,"items":[{"name":"유선헤어샵","tel":"070-7647-2727","addr":"경기도 수원시 팔달구 화서동 71-31번지 1층","indutype":"보건위생 - 미용원","category":"beauty"}]},{"lat":"37.278983745","long":"126.99925121","imageIndex":13,"items":[{"name":"유성미용실피부관리","tel":"031-257-7005","addr":"경기도 수원시 팔달구 화서동 134-9번지","indutype":"보건위생 - 피부미용실","category":"beauty"}]},{"lat":"37.278154773","long":"126.99845069","imageIndex":13,"items":[{"name":"은하헤어","tel":"031-246-6656","addr":"경기도 수원시 팔달구 화서동 175-26번지 1층","indutype":"보건위생 - 미용원","category":"beauty"}]},{"lat":"37.280155031","long":"126.99789806","imageIndex":13,"items":[{"name":"이경선헤어트렌드","tel":"031-244-5771","addr":"경기도 수원시 팔달구 화서동 126-25번지 1층","indutype":"보건위생 - 미용원","category":"beauty"}]},{"lat":"37.278875675","long":"127.00209268","imageIndex":13,"items":[{"name":"이니스프리 수원화서점","tel":"031-241-9131","addr":"경기도 수원시 팔달구 화서동 98-14번지 1층","indutype":"보건위생 - 화장품","category":"beauty"}]},{"lat":"37.286315988","long":"126.98022699","imageIndex":13,"items":[{"name":"이솔","tel":"031-278-1387","addr":"경기도 수원시 팔달구 화서동 723-5번지 성보빌딩 103호","indutype":"보건위생 - 미용원","category":"beauty"},{"name":"피노키오안경","tel":"031-227-1003","addr":"경기도 수원시 팔달구 화서동 723-5번지","indutype":"보건위생 - 안경","category":"beauty"}]},{"lat":"37.281596511","long":"126.99492109","imageIndex":13,"items":[{"name":"이태리헤어클럽","tel":"031-252-4309","addr":"경기도 수원시 팔달구 화서동 244-22번지","indutype":"보건위생 - 미용원","category":"beauty"}]},{"lat":"37.2784071","long":"126.99966844","imageIndex":13,"items":[{"name":"장미화장품","tel":"031-252-5230","addr":"경기도 수원시 팔달구 화서동 114-15번지","indutype":"보건위생 - 화장품","category":"beauty"}]},{"lat":"37.278127816","long":"127.00137105","imageIndex":13,"items":[{"name":"정은자미용실","tel":"031-245-2676","addr":"경기도 수원시 팔달구 화서동 109-1번지 2층","indutype":"보건위생 - 미용원","category":"beauty"}]},{"lat":"37.282182159","long":"126.99463912","imageIndex":13,"items":[{"name":"정해수헤어아트","tel":"031-255-2607","addr":"경기도 수원시 팔달구 화서동 244-16번지 현대프라자 106호","indutype":"보건위생 - 미용원","category":"beauty"}]},{"lat":"37.279344212","long":"127.00311876","imageIndex":13,"items":[{"name":"제노헤어 Dream","tel":"031-241-7189","addr":"경기도 수원시 팔달구 화서동 71-90번지 1층 101호","indutype":"보건위생 - 미용원","category":"beauty"}]},{"lat":"37.289318554","long":"127.00078441","imageIndex":13,"items":[{"name":"제이네일","tel":"031-241-4117","addr":"경기도 수원시 팔달구 화서동 639번지 1층","indutype":"보건위생 - 화장품","category":"beauty"}]},{"lat":"37.282767797","long":"126.99423311","imageIndex":13,"items":[{"name":"제이스헤어","tel":"031-258-2880","addr":"경기도 수원시 팔달구 화서동 275-7번지","indutype":"보건위생 - 미용원","category":"beauty"}]},{"lat":"37.281461586","long":"127.00594905","imageIndex":13,"items":[{"name":"천왕사","tel":"031-253-7969","addr":"경기도 수원시 팔달구 화서동 67-1번지 화홍연립 306호","indutype":"보건위생 - 기타대인서비스","category":"beauty"}]},{"lat":"37.280569357","long":"126.99516926","imageIndex":13,"items":[{"name":"컷트클럽","tel":"031-247-7009","addr":"경기도 수원시 팔달구 화서동 219-20번지","indutype":"보건위생 - 미용원","category":"beauty"}]},{"lat":"37.285957726","long":"127.00511476","imageIndex":13,"items":[{"name":"토마토","tel":"031-253-0710","addr":"경기도 수원시 팔달구 화서동 16-18번지","indutype":"보건위생 - 화장품","category":"beauty"}]},{"lat":"37.27937119","long":"127.00642255","imageIndex":13,"items":[{"name":"티아라헤어샵","tel":"070-8222-8744","addr":"경기도 수원시 팔달구 화서동 61-2번지","indutype":"보건위생 - 미용원","category":"beauty"}]},{"lat":"37.278956765","long":"127.00181079","imageIndex":13,"items":[{"name":"티파니안경","tel":"031-256-1816","addr":"경기도 수원시 팔달구 화서동 98-17번지 용진빌딩 2층","indutype":"보건위생 - 안경","category":"beauty"},{"name":"티파니안경테","tel":"031-242-5644","addr":"경기도 수원시 팔달구 화서동 98-17번지","indutype":"보건위생 - 안경","category":"beauty"}]},{"lat":"37.278181824","long":"126.99903702","imageIndex":13,"items":[{"name":"하나케어통합의학연구소 주식회사","tel":"070-7563-9239","addr":"경기도 수원시 팔달구 화서동 175-8번지","indutype":"보건위생 - 화장품","category":"beauty"}]},{"lat":"37.280010972","long":"127.00281432","imageIndex":13,"items":[{"name":"하늘미용실","tel":"031-251-0340","addr":"경기도 수원시 팔달구 화서동 71-36번지","indutype":"보건위생 - 미용원","category":"beauty"}]},{"lat":"37.27754206","long":"126.99808991","imageIndex":13,"items":[{"name":"한창헤어갤러리","tel":"031-255-9992","addr":"경기도 수원시 팔달구 화서동 184-221번지","indutype":"보건위생 - 미용원","category":"beauty"}]},{"lat":"37.280037774","long":"126.99553014","imageIndex":13,"items":[{"name":"해피팔달영광대리점","tel":"031-296-7041","addr":"경기도 수원시 팔달구 화서동 201-2번지 1층","indutype":"보건위생 - 화장품","category":"beauty"}]},{"lat":"37.280434455","long":"127.00281432","imageIndex":13,"items":[{"name":"헤라에스테틱","tel":"031-254-6492","addr":"경기도 수원시 팔달구 화서동 71-32번지 진흥빌딩 1층 102호","indutype":"보건위생 - 화장품","category":"beauty"}]},{"lat":"37.282929971","long":"126.9940865","imageIndex":13,"items":[{"name":"헤러베라","tel":"031-242-3827","addr":"경기도 수원시 팔달구 화서동 275-15번지 1층","indutype":"보건위생 - 미용원","category":"beauty"}]},{"lat":"37.285180873","long":"126.98117456","imageIndex":13,"items":[{"name":"헤어유(HAIR.U.)","tel":"031-297-6600","addr":"경기도 수원시 팔달구 화서동 726-7번지 101호","indutype":"보건위생 - 미용원","category":"beauty"}]},{"lat":"37.28354265","long":"126.99383835","imageIndex":13,"items":[{"name":"헤어코코","tel":"031-248-5177","addr":"경기도 수원시 팔달구 화서동 650-1번지","indutype":"보건위생 - 미용원","category":"beauty"}]},{"lat":"37.281794763","long":"126.99531573","imageIndex":13,"items":[{"name":"현주미용실","tel":"031-245-7253","addr":"경기도 수원시 팔달구 화서동 244-43번지","indutype":"보건위생 - 미용원","category":"beauty"}]},{"lat":"37.277821476","long":"127.00314131","imageIndex":13,"items":[{"name":"화보리헤어 36.5","tel":"031-253-7366","addr":"경기도 수원시 팔달구 화서동 93-19번지 1층","indutype":"보건위생 - 미용원","category":"beauty"}]},{"lat":"37.285595163","long":"126.98020465","imageIndex":13,"items":[{"name":"화서 썬 아동청소년발달센터","tel":"031-227-0082","addr":"경기도 수원시 팔달구 화서동 724-2번지 4층","indutype":"보건위생 - 기타대인서비스","category":"beauty"}]},{"lat":"37.281902288","long":"126.98878686","imageIndex":13,"items":[{"name":"휴먼사","tel":"031-893-8521","addr":"경기도 수원시 팔달구 화서동 436-3번지 농민회관 7층","indutype":"보건위생 - 화장품","category":"beauty"}]},{"lat":"37.27995678","long":"126.99733428","imageIndex":13,"items":[{"name":"힐링헤어","tel":"031-252-4845","addr":"경기도 수원시 팔달구 화서동 209-31번지","indutype":"보건위생 - 미용원","category":"beauty"}]}]