[{"lat":"37.774396469","long":"126.78884636","imageIndex":17,"items":[{"name":"(주)누리달","tel":"031-949-5894","addr":"경기도 파주시 월롱면 영태리 527-9번지","indutype":"가구 - 일반가구","category":"other"}]},{"lat":"37.76292468","long":"126.79745903","imageIndex":17,"items":[{"name":"(주)디자인핸즈","tel":"031-944-4993","addr":"경기도 파주시 월롱면 영태리 360-8","indutype":"용역 서비스 - 종합용역","category":"other"}]},{"lat":"37.768618777","long":"126.80812322","imageIndex":17,"items":[{"name":"(주)엘제이케이","tel":"031-997-8636","addr":"경기도 파주시 월롱면 영태리 232-1번지","indutype":"신변잡화 - 기타잡화","category":"other"}]},{"lat":"37.776811062","long":"126.78887345","imageIndex":17,"items":[{"name":"1004","tel":"070-8899-0406","addr":"경기도 파주시 월롱면 영태리 580-9번지","indutype":"유통업 영리 - 편 의 점","category":"other"},{"name":"현대프라자","tel":"031-946-5049","addr":"경기도 파주시 월롱면 영태리 580-9","indutype":"의류 - 정장","category":"other"}]},{"lat":"37.765308832","long":"126.80604367","imageIndex":17,"items":[{"name":"Backstage풀굿","tel":"031-947-0908","addr":"경기도 파주시 월롱면 영태리 283번지","indutype":"용역 서비스 - 기타용역서비스","category":"other"}]},{"lat":"37.771953572","long":"126.79312103","imageIndex":17,"items":[{"name":"DOKY","tel":"031-942-1216","addr":"경기도 파주시 월롱면 영태리 195-2번지","indutype":"의류 - 정장","category":"other"}]},{"lat":"37.782089602","long":"126.78831336","imageIndex":17,"items":[{"name":"GS25파주통일점","tel":"","addr":"경기도 파주시 월롱면 영태리 613-3번지","indutype":"유통업 영리 - 편 의 점","category":"other"}]},{"lat":"37.780008918","long":"126.7885918","imageIndex":17,"items":[{"name":"KORSA 스크린골프","tel":"031-942-0751","addr":"경기도 파주시 월롱면 영태리 618-2번지","indutype":"레져용품 - 골프용품 전문점","category":"other"}]},{"lat":"37.764780294","long":"126.79726097","imageIndex":17,"items":[{"name":"LS라이팅","tel":"031-957-9079","addr":"경기도 파주시 월롱면 영태리 342번지","indutype":"건축자재 - 조명기구","category":"other"},{"name":"하나로유통","tel":"031-948-9598","addr":"경기도 파주시 월롱면 영태리 342번지","indutype":"유통업 영리 - 기타유통업","category":"other"}]},{"lat":"37.77061967","long":"126.79795984","imageIndex":17,"items":[{"name":"MBM가구","tel":"031-944-8975","addr":"경기도 파주시 월롱면 영태리 460-2번지","indutype":"가구 - 일반가구","category":"other"}]},{"lat":"37.772169296","long":"126.78784262","imageIndex":17,"items":[{"name":"S&아크릴광고자재","tel":"031-943-9600","addr":"경기도 파주시 월롱면 영태리 515-2번지","indutype":"용역 서비스 - 종합용역","category":"other"}]},{"lat":"37.78319768","long":"126.78826475","imageIndex":17,"items":[{"name":"SC산업","tel":"031-946-0482","addr":"경기도 파주시 월롱면 영태리 781-3번지","indutype":"건축자재 - 기타건축자재","category":"other"},{"name":"선철가설","tel":"031-946-0482","addr":"경기도 파주시 월롱면 영태리 781-3","indutype":"건축자재 - 기타건축자재","category":"other"}]},{"lat":"37.79122903","long":"126.78548273","imageIndex":17,"items":[{"name":"거성에어컨","tel":"070-3337-7675","addr":"경기도 파주시 월롱면 영태리 815번지","indutype":"전기제품 - 가전제품","category":"other"}]},{"lat":"37.771036521","long":"126.78917384","imageIndex":17,"items":[{"name":"고릴라캠핑(파주)","tel":"031-946-6898","addr":"경기도 파주시 월롱면 영태리 505-7번지","indutype":"레져용품 - 스포츠·레져용품","category":"other"}]},{"lat":"37.768426363","long":"126.79567329","imageIndex":17,"items":[{"name":"국제상사","tel":"02-467-7233","addr":"경기도 파주시 월롱면 영태리 388-34번지","indutype":"의류 - 정장","category":"other"}]},{"lat":"37.780478765","long":"126.79436829","imageIndex":17,"items":[{"name":"깔끔이네","tel":"031-946-9421","addr":"경기도 파주시 월롱면 영태리 117-5번지","indutype":"신변잡화 - 기타잡화","category":"other"}]},{"lat":"37.781422803","long":"126.79326455","imageIndex":17,"items":[{"name":"다연테크 고양점","tel":"031-943-0305","addr":"경기도 파주시 월롱면 영태리 106-1번지","indutype":"전기제품 - 기타전기제품","category":"other"}]},{"lat":"37.772948803","long":"126.79042821","imageIndex":17,"items":[{"name":"대성천막차바닥","tel":"031-953-8811","addr":"경기도 파주시 월롱면 영태리 523-8번지","indutype":"직물 - 카페트,커튼,천막,지물","category":"other"}]},{"lat":"37.772673887","long":"126.78787521","imageIndex":17,"items":[{"name":"동서조경종묘주식회사","tel":"031-949-5764","addr":"경기도 파주시 월롱면 영태리 511-1번지","indutype":"용역 서비스 - 기타용역서비스","category":"other"},{"name":"제일ENG","tel":"031-948-0675","addr":"경기도 파주시 월롱면 영태리 511-1번지","indutype":"전기제품 - 기타전기제품","category":"other"}]},{"lat":"37.776640644","long":"126.78929392","imageIndex":17,"items":[{"name":"동양유압호스","tel":"031-941-8678","addr":"경기도 파주시 월롱면 영태리 588-1번지","indutype":"기타 - 기계공구","category":"other"}]},{"lat":"37.778313778","long":"126.79284198","imageIndex":17,"items":[{"name":"두영벤딩","tel":"031-944-5522","addr":"경기도 파주시 월롱면 영태리 141-5","indutype":"용역 서비스 - 기타용역서비스","category":"other"}]},{"lat":"37.764170116","long":"126.79868127","imageIndex":17,"items":[{"name":"랄라(lalla)","tel":"031-111-1111","addr":"경기도 파주시 월롱면 영태리 344-1번지","indutype":"의류 - 아동의류","category":"other"}]},{"lat":"37.773477155","long":"126.78865606","imageIndex":17,"items":[{"name":"범영포장","tel":"031-949-3846","addr":"경기도 파주시 월롱면 영태리 514-7","indutype":"신변잡화 - 기타잡화","category":"other"}]},{"lat":"37.770632541","long":"126.79502019","imageIndex":17,"items":[{"name":"베스트 락 시스템","tel":"","addr":"경기도 파주시 월롱면 영태리 476-11번지","indutype":"가구 - 일반가구","category":"other"}]},{"lat":"37.79161792","long":"126.78628766","imageIndex":17,"items":[{"name":"삼성CNC","tel":"031-944-7835","addr":"경기도 파주시 월롱면 영태리 812-19번지","indutype":"기타 - 기계공구","category":"other"}]},{"lat":"37.763232108","long":"126.79809371","imageIndex":17,"items":[{"name":"삼양코맥스","tel":"031-942-5455","addr":"경기도 파주시 월롱면 영태리 359번지","indutype":"건축자재 - 기타건축자재","category":"other"}]},{"lat":"37.78203222","long":"126.79145792","imageIndex":17,"items":[{"name":"새롬기업","tel":"031-5236-3153","addr":"경기도 파주시 월롱면 영태리 101-22번지","indutype":"전기제품 - 가전제품","category":"other"}]},{"lat":"37.772114534","long":"126.78745688","imageIndex":17,"items":[{"name":"성호동력","tel":"031-944-1088","addr":"경기도 파주시 월롱면 영태리 511-5번지","indutype":"기타 - 기계공구","category":"other"},{"name":"주안페인트상사","tel":"031-939-6588","addr":"경기도 파주시 월롱면 영태리 511-5번지","indutype":"건축자재 - 페인트","category":"other"},{"name":"효성ENG","tel":"031-945-8044","addr":"경기도 파주시 월롱면 영태리 511-5번지","indutype":"기타 - 기계공구","category":"other"}]},{"lat":"37.777171543","long":"126.78892917","imageIndex":17,"items":[{"name":"세기정보통신","tel":"070-8956-2781","addr":"경기도 파주시 월롱면 영태리 580-6번지","indutype":"전기제품 - 가전제품","category":"other"}]},{"lat":"37.774036194","long":"126.78890415","imageIndex":17,"items":[{"name":"세븐일레븐파주여고점","tel":"","addr":"경기도 파주시 월롱면 영태리 527-3번지","indutype":"유통업 영리 - 편 의 점","category":"other"}]},{"lat":"37.769256946","long":"126.79664704","imageIndex":17,"items":[{"name":"수진코리아","tel":"031-949-4581","addr":"경기도 파주시 월롱면 영태리 461-5번지","indutype":"문화.취미 - 애완동물","category":"other"}]},{"lat":"37.778479251","long":"126.79470309","imageIndex":17,"items":[{"name":"신성특수여객","tel":"031-949-4435","addr":"경기도 파주시 월롱면 영태리 154-1번지","indutype":"용역 서비스 - 가례서비스업","category":"other"}]},{"lat":"37.77156394","long":"126.78690232","imageIndex":17,"items":[{"name":"아주기계","tel":"031-949-6750","addr":"경기도 파주시 월롱면 영태리 510","indutype":"기타 - 기계공구","category":"other"},{"name":"한진모타","tel":"031-949-4382","addr":"경기도 파주시 월롱면 영태리 510번지","indutype":"수리서비스 - 기타수리서비스","category":"other"}]},{"lat":"37.766002735","long":"126.80082122","imageIndex":17,"items":[{"name":"우주디자인.이화디자인","tel":"031-111-1111","addr":"경기도 파주시 월롱면 영태리 434-8번지","indutype":"가구 - 일반가구","category":"other"}]},{"lat":"37.777675843","long":"126.79381997","imageIndex":17,"items":[{"name":"유성사","tel":"031-944-1869","addr":"경기도 파주시 월롱면 영태리 151-18","indutype":"수리서비스 - 세탁소","category":"other"}]},{"lat":"37.777389549","long":"126.79495587","imageIndex":17,"items":[{"name":"이화메디컬","tel":"02-2274-2801","addr":"경기도 파주시 월롱면 영태리 162-5번지","indutype":"서적문구 - 과학기자재","category":"other"}]},{"lat":"37.769227685","long":"126.80587439","imageIndex":17,"items":[{"name":"장원광고기획","tel":"031-941-7811","addr":"경기도 파주시 월롱면 영태리 975-14번지","indutype":"건축자재 - 인테리어전문","category":"other"}]},{"lat":"37.77947298","long":"126.80143158","imageIndex":17,"items":[{"name":"조인플라워","tel":"031-903-8456","addr":"경기도 파주시 월롱면 영태리 857번지","indutype":"문화.취미 - 화원","category":"other"}]},{"lat":"37.76914542","long":"126.79470656","imageIndex":17,"items":[{"name":"주식회사 경기수도건설","tel":"031-958-0002","addr":"경기도 파주시 월롱면 영태리 383-27번지","indutype":"용역 서비스 - 기타용역서비스","category":"other"}]},{"lat":"37.764342827","long":"126.79956601","imageIndex":17,"items":[{"name":"주식회사단련테크","tel":"031-946-0176","addr":"경기도 파주시 월롱면 영태리 348","indutype":"기타 - 기계공구","category":"other"}]},{"lat":"37.7828914","long":"126.78828833","imageIndex":17,"items":[{"name":"지케이","tel":"031-1599-7099","addr":"경기도 파주시 월롱면 영태리 767-5,767-2,768-1,769-4번지","indutype":"가구 - 기타가구","category":"other"}]},{"lat":"37.778923495","long":"126.7912057","imageIndex":17,"items":[{"name":"천지","tel":"031-941-0149","addr":"경기도 파주시 월롱면 영태리 134-10번지","indutype":"건축자재 - 기타건축자재","category":"other"},{"name":"크린아트피아","tel":"031-942-9233","addr":"경기도 파주시 월롱면 영태리 134-10번지","indutype":"용역 서비스 - 종합용역","category":"other"}]},{"lat":"37.780120037","long":"126.81126007","imageIndex":17,"items":[{"name":"철문지게차","tel":"031-949-1532","addr":"경기도 파주시 월롱면 영태리 7번지","indutype":"기타 - 기계공구","category":"other"}]},{"lat":"37.782030976","long":"126.79076547","imageIndex":17,"items":[{"name":"탑에어","tel":"031-941-4495","addr":"경기도 파주시 월롱면 영태리 100-16번지","indutype":"용역 서비스 - 기타용역서비스","category":"other"}]},{"lat":"37.771702334","long":"126.78868388","imageIndex":17,"items":[{"name":"파주금촌콘크리트","tel":"031-957-6942","addr":"경기도 파주시 월롱면 영태리 508번지","indutype":"건축자재 - 기타건축자재","category":"other"},{"name":"파주콘크리트산업","tel":"031-957-6942","addr":"경기도 파주시 월롱면 영태리 508번지","indutype":"건축자재 - 기타건축자재","category":"other"}]},{"lat":"37.772756729","long":"126.78883974","imageIndex":17,"items":[{"name":"파주보람장례식장","tel":"031-947-9444","addr":"경기도 파주시 월롱면 영태리 520-10번지","indutype":"용역 서비스 - 가례서비스업","category":"other"}]},{"lat":"37.771228529","long":"126.79072824","imageIndex":17,"items":[{"name":"하나로종합주방","tel":"031-945-5858","addr":"경기도 파주시 월롱면 영태리 494-5번지","indutype":"주방용구 - 주방용구","category":"other"}]},{"lat":"37.779169148","long":"126.79254443","imageIndex":17,"items":[{"name":"한진산업(주)","tel":"031-941-0124","addr":"경기도 파주시 월롱면 영태리 121-2번지","indutype":"신변잡화 - 기타잡화","category":"other"}]},{"lat":"37.771256476","long":"126.7912389","imageIndex":17,"items":[{"name":"화암인터내셔널 주식회사","tel":"031-945-1358","addr":"경기도 파주시 월롱면 영태리 493-6번지","indutype":"신변잡화 - 기타잡화","category":"other"}]},{"lat":"37.784146","long":"126.78954477","imageIndex":17,"items":[{"name":"화진농자재","tel":"031-945-1285","addr":"경기도 파주시 월롱면 영태리 780-1번지","indutype":"농업 - 농기계","category":"other"}]},{"lat":"37.771030423","long":"126.79078555","imageIndex":0,"items":[{"name":"MIRACLE.J","tel":"031-947-5817","addr":"경기도 파주시 월롱면 영태리 494-12번지","indutype":"자동차정비 유지 - 자동차부품","category":"car"}]},{"lat":"37.771897893","long":"126.7872305","imageIndex":0,"items":[{"name":"가람","tel":"031-946-7678","addr":"경기도 파주시 월롱면 영태리 511-4번지","indutype":"자동차정비 유지 - 자동차부품","category":"car"}]},{"lat":"37.772453978","long":"126.79081554","imageIndex":0,"items":[{"name":"경기중고차","tel":"031-942-4989","addr":"경기도 파주시 월롱면 영태리 188-12번지","indutype":"자동차판매 - 중고자동차판매","category":"car"},{"name":"류민자동차매매상사","tel":"031-948-7722","addr":"경기도 파주시 월롱면 영태리 188-12번지","indutype":"자동차판매 - 중고자동차판매","category":"car"},{"name":"성창자동차매매상사","tel":"031-944-8000","addr":"경기도 파주시 월롱면 영태리 188-12번지","indutype":"자동차판매 - 중고자동차판매","category":"car"},{"name":"싸이버모터스 (주)","tel":"031-754-2523","addr":"경기도 파주시 월롱면 영태리 188-12번지","indutype":"자동차판매 - 중고자동차판매","category":"car"},{"name":"차조아","tel":"031-941-6511","addr":"경기도 파주시 월롱면 영태리 188-12번지","indutype":"자동차판매 - 중고자동차판매","category":"car"}]},{"lat":"37.772557013","long":"126.78801175","imageIndex":0,"items":[{"name":"금성지게차","tel":"031-946-1452","addr":"경기도 파주시 월롱면 영태리 515-4번지","indutype":"자동차판매 - 기타운송","category":"car"},{"name":"오산리자동차용품","tel":"031-947-8682","addr":"경기도 파주시 월롱면 영태리 515-4번지","indutype":"자동차정비 유지 - 자동차부품","category":"car"}]},{"lat":"37.773170668","long":"126.78856614","imageIndex":0,"items":[{"name":"대우파주바로코너","tel":"031-943-0955","addr":"경기도 파주시 월롱면 영태리 514-9번지","indutype":"자동차정비 유지 - 자동차정비","category":"car"}]},{"lat":"37.780120037","long":"126.81126007","imageIndex":0,"items":[{"name":"두인F.L(에프.엘)","tel":"031-947-5969","addr":"경기도 파주시 월롱면 영태리 7번지","indutype":"자동차판매 - 기타운송","category":"car"}]},{"lat":"37.765005728","long":"126.79737383","imageIndex":0,"items":[{"name":"레트로커스텀","tel":"","addr":"경기도 파주시 월롱면 영태리 415번지","indutype":"자동차정비 유지 - 자동차부품","category":"car"}]},{"lat":"37.777279656","long":"126.78892886","imageIndex":0,"items":[{"name":"문영자동차공업사","tel":"031-945-3058","addr":"경기도 파주시 월롱면 영태리 580-5번지","indutype":"자동차정비 유지 - 자동차부품","category":"car"}]},{"lat":"37.778396476","long":"126.78873267","imageIndex":0,"items":[{"name":"성실자동차공업사","tel":"031-946-7870","addr":"경기도 파주시 월롱면 영태리 577-5번지","indutype":"자동차정비 유지 - 자동차정비","category":"car"}]},{"lat":"37.776640644","long":"126.78929392","imageIndex":0,"items":[{"name":"영태리자동차부분공업","tel":"031-944-5680","addr":"경기도 파주시 월롱면 영태리 588-1번지","indutype":"자동차정비 유지 - 자동차정비","category":"car"},{"name":"파주지회","tel":"031-941-1201","addr":"경기도 파주시 월롱면 영태리 588-1번지","indutype":"자동차정비 유지 - 자동차시트·타이어","category":"car"}]},{"lat":"37.774396469","long":"126.78884636","imageIndex":0,"items":[{"name":"카페이스","tel":"031-949-0959","addr":"경기도 파주시 월롱면 영태리 527-9번지","indutype":"자동차정비 유지 - 카인테리어","category":"car"}]},{"lat":"37.767091203","long":"126.79467827","imageIndex":0,"items":[{"name":"통일로세차장","tel":"031-944-4417","addr":"경기도 파주시 월롱면 영태리 381-1","indutype":"자동차정비 유지 - 세차장","category":"car"}]},{"lat":"37.767116563","long":"126.79373621","imageIndex":0,"items":[{"name":"파주오토","tel":"031-946-5858","addr":"경기도 파주시 월롱면 영태리 382번지","indutype":"자동차정비 유지 - 자동차정비","category":"car"}]},{"lat":"37.778613918","long":"126.78940176","imageIndex":0,"items":[{"name":"한양1급자동차정비","tel":"031-948-0028","addr":"경기도 파주시 월롱면 영태리 577-15번지","indutype":"자동차정비 유지 - 자동차정비","category":"car"}]},{"lat":"37.777172037","long":"126.78920159","imageIndex":4,"items":[{"name":"거기","tel":"070-4898-4894","addr":"경기도 파주시 월롱면 영태리 581-46번지","indutype":"일반휴게음식 - 일반한식","category":"restaurant"},{"name":"러브레터","tel":"031-943-8419","addr":"경기도 파주시 월롱면 영태리 581-46번지","indutype":"일반휴게음식 - 일반한식","category":"restaurant"}]},{"lat":"37.773646866","long":"126.78784969","imageIndex":4,"items":[{"name":"금촌사철탕","tel":"031-949-0055","addr":"경기도 파주시 월롱면 영태리 540-4번지","indutype":"일반휴게음식 - 일반한식","category":"restaurant"}]},{"lat":"37.777199436","long":"126.78940582","imageIndex":4,"items":[{"name":"돈누리부속","tel":"031-942-4334","addr":"경기도 파주시 월롱면 영태리 589-13번지","indutype":"일반휴게음식 - 일반한식","category":"restaurant"}]},{"lat":"37.777396779","long":"126.78892852","imageIndex":4,"items":[{"name":"방실식당","tel":"031-942-4402","addr":"경기도 파주시 월롱면 영태리 580-2","indutype":"일반휴게음식 - 일반한식","category":"restaurant"}]},{"lat":"37.771670094","long":"126.79078372","imageIndex":4,"items":[{"name":"봉림갈비탕국수","tel":"031-944-5584","addr":"경기도 파주시 월롱면 영태리 522-5번지","indutype":"일반휴게음식 - 일반한식","category":"restaurant"}]},{"lat":"37.777784494","long":"126.78909767","imageIndex":4,"items":[{"name":"사랑과평화","tel":"031-944-8005","addr":"경기도 파주시 월롱면 영태리 581-30번지","indutype":"일반휴게음식 - 일반한식","category":"restaurant"}]},{"lat":"37.76542391","long":"126.79437652","imageIndex":4,"items":[{"name":"샘곬","tel":"031-945-7646","addr":"경기도 파주시 월롱면 영태리 377-3번지","indutype":"일반휴게음식 - 일반한식","category":"restaurant"}]},{"lat":"37.776973891","long":"126.78923621","imageIndex":4,"items":[{"name":"술먹는포차","tel":"031-944-7287","addr":"경기도 파주시 월롱면 영태리 581-33번지","indutype":"일반휴게음식 - 일반한식","category":"restaurant"}]},{"lat":"37.782254903","long":"126.78028727","imageIndex":4,"items":[{"name":"약수정","tel":"031-945-0034","addr":"경기도 파주시 월롱면 영태리 683번지","indutype":"일반휴게음식 - 일반한식","category":"restaurant"}]},{"lat":"37.782893318","long":"126.78934404","imageIndex":4,"items":[{"name":"영태식당","tel":"","addr":"경기도 파주시 월롱면 영태리 612-10번지","indutype":"일반휴게음식 - 일반한식","category":"restaurant"}]},{"lat":"37.777171543","long":"126.78892917","imageIndex":4,"items":[{"name":"영태식당","tel":"031-957-7461","addr":"경기도 파주시 월롱면 영태리 580-6번지","indutype":"일반휴게음식 - 일반한식","category":"restaurant"}]},{"lat":"37.772673887","long":"126.78787521","imageIndex":4,"items":[{"name":"올삼","tel":"031-949-3012","addr":"경기도 파주시 월롱면 영태리 511-1번지","indutype":"일반휴게음식 - 일반한식","category":"restaurant"}]},{"lat":"37.789501515","long":"126.78187762","imageIndex":4,"items":[{"name":"월롱정","tel":"031-945-0143","addr":"경기도 파주시 월롱면 영태리 산131","indutype":"일반휴게음식 - 일반한식","category":"restaurant"}]},{"lat":"37.778199874","long":"126.78961862","imageIndex":4,"items":[{"name":"유명정육식당","tel":"031-945-9289","addr":"경기도 파주시 월롱면 영태리 581-10번지","indutype":"일반휴게음식 - 일반한식","category":"restaurant"}]},{"lat":"37.771561981","long":"126.79078403","imageIndex":4,"items":[{"name":"장원양재기갈비찜","tel":"031-957-1239","addr":"경기도 파주시 월롱면 영태리 494-1번지","indutype":"일반휴게음식 - 일반한식","category":"restaurant"}]},{"lat":"37.780008918","long":"126.7885918","imageIndex":4,"items":[{"name":"정들국수","tel":"031-942-0751","addr":"경기도 파주시 월롱면 영태리 618-2번지","indutype":"일반휴게음식 - 일반한식","category":"restaurant"}]},{"lat":"37.78386508","long":"126.78864878","imageIndex":4,"items":[{"name":"지푸라기제주본가","tel":"","addr":"경기도 파주시 월롱면 영태리 781-7번지","indutype":"일반휴게음식 - 일반한식","category":"restaurant"}]},{"lat":"37.767116563","long":"126.79373621","imageIndex":4,"items":[{"name":"통일로한식뷔페","tel":"031-948-8988","addr":"경기도 파주시 월롱면 영태리 382번지","indutype":"일반휴게음식 - 일반한식","category":"restaurant"}]},{"lat":"37.778063539","long":"126.78896065","imageIndex":4,"items":[{"name":"통일수산장어직판장","tel":"031-945-5656","addr":"경기도 파주시 월롱면 영태리 578-7번지","indutype":"일반휴게음식 - 일반한식","category":"restaurant"}]},{"lat":"37.777396779","long":"126.78892852","imageIndex":13,"items":[{"name":"거위당구장","tel":"070-8955-1237","addr":"경기도 파주시 월롱면 영태리 580-2번지","indutype":"레저업소 - 당 구 장","category":"leisure"}]},{"lat":"37.776947356","long":"126.78950871","imageIndex":13,"items":[{"name":"아싸 노래방","tel":"031-957-3283","addr":"경기도 파주시 월롱면 영태리 589-17번지","indutype":"레저업소 - 노 래 방","category":"leisure"}]},{"lat":"37.765976069","long":"126.79583901","imageIndex":7,"items":[{"name":"경안농장","tel":"031-947-9290","addr":"경기도 파주시 월롱면 영태리 374번지","indutype":"음료식품 - 농·축·수산품","category":"food"}]},{"lat":"37.784449043","long":"126.79273381","imageIndex":7,"items":[{"name":"디아이와이 쿡 (DIY Cook)","tel":"","addr":"경기도 파주시 월롱면 영태리 91번지","indutype":"음료식품 - 기타음료식품","category":"food"}]},{"lat":"37.777919882","long":"126.78923349","imageIndex":7,"items":[{"name":"삼표상회","tel":"031-941-4429","addr":"경기도 파주시 월롱면 영태리 581-15","indutype":"음료식품 - 기타음료식품","category":"food"}]},{"lat":"37.77375527","long":"126.78800828","imageIndex":7,"items":[{"name":"세미네","tel":"031-942-5555","addr":"경기도 파주시 월롱면 영태리 540-1","indutype":"음료식품 - 기타음료식품","category":"food"}]},{"lat":"37.767560236","long":"126.79498339","imageIndex":7,"items":[{"name":"신기상회","tel":"031-941-5205","addr":"경기도 파주시 월롱면 영태리 388-23번지","indutype":"음료식품 - 기타음료식품","category":"food"}]},{"lat":"37.778199874","long":"126.78961862","imageIndex":7,"items":[{"name":"유명정육점","tel":"031-958-9289","addr":"경기도 파주시 월롱면 영태리 581-10번지","indutype":"음료식품 - 정육점","category":"food"}]},{"lat":"37.774036194","long":"126.78890415","imageIndex":7,"items":[{"name":"조은도너츠","tel":"031-952-2270","addr":"경기도 파주시 월롱면 영태리 527-3번지","indutype":"음료식품 - 제과점","category":"food"}]},{"lat":"37.779778631","long":"126.79584593","imageIndex":7,"items":[{"name":"주식회사 에이치리빙 (HLiving Co.,Ltd.)","tel":"070-7913-0103","addr":"경기도 파주시 월롱면 영태리 158-8번지","indutype":"음료식품 - 기타음료식품","category":"food"}]},{"lat":"37.777757857","long":"126.78931341","imageIndex":7,"items":[{"name":"코스비에프앤비","tel":"070-8154-6333","addr":"경기도 파주시 월롱면 영태리 581-29번지","indutype":"음료식품 - 기타음료식품","category":"food"}]},{"lat":"37.773477155","long":"126.78865606","imageIndex":7,"items":[{"name":"크로바","tel":"070-2699-0807","addr":"경기도 파주시 월롱면 영태리 514-7번지","indutype":"음료식품 - 농·축·수산품","category":"food"}]},{"lat":"37.777784494","long":"126.78909767","imageIndex":5,"items":[{"name":"그린하이츠모텔","tel":"031-944-4868","addr":"경기도 파주시 월롱면 영태리 581-30번지","indutype":"숙박업 - 여관/기타숙박업","category":"hotel"}]},{"lat":"37.777613047","long":"126.7889506","imageIndex":5,"items":[{"name":"앰블링","tel":"031-944-3579","addr":"경기도 파주시 월롱면 영태리 580-1번지","indutype":"숙박업 - 여관/기타숙박업","category":"hotel"}]},{"lat":"37.779564224","long":"126.79179413","imageIndex":7,"items":[{"name":"대림슈퍼","tel":"031-957-1207","addr":"경기도 파주시 월롱면 영태리 123-11번지","indutype":"유통업 영리 - 슈퍼마켓","category":"mart"}]},{"lat":"37.777172037","long":"126.78920159","imageIndex":7,"items":[{"name":"영미슈퍼","tel":"031-942-8419","addr":"경기도 파주시 월롱면 영태리 581-46번지 1층","indutype":"유통업 영리 - 슈퍼마켓","category":"mart"}]},{"lat":"37.776811618","long":"126.78917992","imageIndex":7,"items":[{"name":"팜스마트","tel":"031-957-5997","addr":"경기도 파주시 월롱면 영태리 581-50","indutype":"유통업 영리 - 슈퍼마켓","category":"mart"}]},{"lat":"37.778226646","long":"126.79451083","imageIndex":16,"items":[{"name":"뮤직아이파주지사","tel":"","addr":"경기도 파주시 월롱면 영태리 154-3번지","indutype":"학원 - 기타 교육기관","category":"study"}]},{"lat":"37.772701256","long":"126.79306217","imageIndex":16,"items":[{"name":"천지개벽","tel":"","addr":"경기도 파주시 월롱면 영태리 199-10번지","indutype":"학원 - 기타 교육기관","category":"study"}]},{"lat":"37.773644561","long":"126.78658981","imageIndex":16,"items":[{"name":"파주생태교육원","tel":"031-942-7695","addr":"경기도 파주시 월롱면 영태리 538-2번지","indutype":"학원 - 기타 교육기관","category":"study"}]},{"lat":"37.777922037","long":"126.79042533","imageIndex":16,"items":[{"name":"현교습","tel":"031-945-9284","addr":"경기도 파주시 월롱면 영태리 581-18번지 영태주택","indutype":"회원제형태 - 학원","category":"study"}]},{"lat":"37.777919882","long":"126.78923349","imageIndex":9,"items":[{"name":"삼천리연탄","tel":"031-941-3384","addr":"경기도 파주시 월롱면 영태리 581-15","indutype":"연료판매점 - 기타연료","category":"oil"}]},{"lat":"37.778307432","long":"126.78931183","imageIndex":9,"items":[{"name":"서울가스","tel":"031-941-9929","addr":"경기도 파주시 월롱면 영태리 578-14번지","indutype":"연료판매점 - LPG 취급점","category":"oil"}]},{"lat":"37.782921702","long":"126.79009317","imageIndex":9,"items":[{"name":"영태석유","tel":"031-944-6341","addr":"경기도 파주시 월롱면 영태리 772-2번지","indutype":"연료판매점 - 유류판매","category":"oil"}]},{"lat":"37.778090815","long":"126.78909678","imageIndex":8,"items":[{"name":"영신당한약방","tel":"031-941-3487","addr":"경기도 파주시 월롱면 영태리 578-10번지","indutype":"약국 - 한약방","category":"medical"}]},{"lat":"37.777171543","long":"126.78892917","imageIndex":8,"items":[{"name":"태평양약국","tel":"031-945-1040","addr":"경기도 파주시 월롱면 영태리 580-6번지","indutype":"약국 - 약국","category":"medical"}]}]