[{"lat":"37.156198348","long":"127.17038068","imageIndex":17,"items":[{"name":"(주)나노렉스 용인대리점","tel":"031-8097-2667","addr":"경기도 용인시 처인구 남사면 아곡리 681번지 e편한세상용인한숲시티","indutype":"신변잡화 - 기타잡화","category":"other"},{"name":"TWORLD 한숲점/주식회사 양지","tel":"031-336-9925","addr":"경기도 용인시 처인구 남사면 아곡리 681번지 e편한세상용인한숲시티 근린생활시설동 1층 5-122호","indutype":"사무통신 - 통신기기","category":"other"},{"name":"다이소 용인아곡점","tel":"031-335-1989","addr":"경기도 용인시 처인구 남사면 아곡리 681번지 1층 104호, 105호, 106호, 107호, 108호","indutype":"신변잡화 - 기타잡화","category":"other"},{"name":"라라클로스","tel":"","addr":"경기도 용인시 처인구 남사면 아곡리 681번지 e편한세상용인한숲시티","indutype":"의류 - 정장","category":"other"},{"name":"삼천리자전거","tel":"","addr":"경기도 용인시 처인구 남사면 아곡리 681번지 e편한세상용인한숲시티 112호","indutype":"레져용품 - 스포츠·레져용품","category":"other"},{"name":"세븐일레븐용인한숲시티점","tel":"031-1577-0711","addr":"경기도 용인시 처인구 남사면 아곡리 681번지 e편한세상용인한숲시티 상가동 109호","indutype":"유통업 영리 - 편 의 점","category":"other"},{"name":"씨제이올리브네트웍스(주)용인한숲시티점","tel":"031-321-3165","addr":"경기도 용인시 처인구 남사면 아곡리 681번지 e편한세상용인한숲시티","indutype":"유통업 영리 - 편 의 점","category":"other"},{"name":"엠케이씨 유비라카","tel":"02-523-6118","addr":"경기도 용인시 처인구 남사면 아곡리 681번지 e편한세상용인한숲시티","indutype":"용역 서비스 - 보관및 창고업","category":"other"},{"name":"크린에이드 용인 한숲점","tel":"031-322-0707","addr":"경기도 용인시 처인구 남사면 아곡리 681번지 e편한세상용인한숲시티 1층 110호","indutype":"수리서비스 - 세탁소","category":"other"}]},{"lat":"37.117285634","long":"127.1228581","imageIndex":17,"items":[{"name":"(주)다이손","tel":"1666-8543-0000","addr":"경기도 용인시 처인구 남사면 봉명리 210-1번지","indutype":"주방용구 - 주방용구","category":"other"}]},{"lat":"37.147254445","long":"127.13152756","imageIndex":17,"items":[{"name":"(주)두윤테크","tel":"031-8003-8913","addr":"경기도 용인시 처인구 남사면 통삼리 641-1번지 라동","indutype":"사무통신 - 컴퓨터","category":"other"}]},{"lat":"37.147890661","long":"127.15713638","imageIndex":17,"items":[{"name":"(주)레인텍/원격지","tel":"031-321-7850","addr":"경기도 용인시 처인구 남사면 북리 20-8","indutype":"기타 - 기타 전문점","category":"other"}]},{"lat":"37.129538659","long":"127.13261166","imageIndex":17,"items":[{"name":"(주)마루테크","tel":"02-1111-1111","addr":"경기도 용인시 처인구 남사면 통삼리 495-2번지 1층","indutype":"전기제품 - 기타전기제품","category":"other"}]},{"lat":"37.138616964","long":"127.16532229","imageIndex":17,"items":[{"name":"(주)베스트시스템","tel":"031-526-1322","addr":"경기도 용인시 처인구 남사면 아곡리 559번지","indutype":"전기제품 - 가전제품","category":"other"}]},{"lat":"37.100037506","long":"127.14122313","imageIndex":17,"items":[{"name":"(주)세미글로벌즈","tel":"031-321-6298","addr":"경기도 용인시 처인구 남사면 원암리 401-6번지","indutype":"전기제품 - 기타전기제품","category":"other"}]},{"lat":"37.152924828","long":"127.17229839","imageIndex":17,"items":[{"name":"(주)이다글로벌 한숲시티점","tel":"070-7797-3393","addr":"경기도 용인시 처인구 남사면 아곡리 699번지 한숲스퀘어 102호 101호, 102호","indutype":"사무통신 - 통신기기","category":"other"}]},{"lat":"37.137169025","long":"127.14938273","imageIndex":17,"items":[{"name":"(주)전원","tel":"031-333-6866","addr":"경기도 용인시 처인구 남사면 봉무리 64번지","indutype":"건축자재 - 기타건축자재","category":"other"}]},{"lat":"37.110259427","long":"127.1728221","imageIndex":17,"items":[{"name":"21세기 식물나라","tel":"070-5103-8001","addr":"경기도 용인시 처인구 남사면 방아리 827-1번지","indutype":"문화.취미 - 화원","category":"other"},{"name":"그린그로우농업회사법인주식회사","tel":"031-339-2340","addr":"경기도 용인시 처인구 남사면 방아리 827-1번지","indutype":"문화.취미 - 화원","category":"other"},{"name":"시온꽃유통","tel":"031-339-9968","addr":"경기도 용인시 처인구 남사면 방아리 827-1번지","indutype":"문화.취미 - 화원","category":"other"}]},{"lat":"37.15453595","long":"127.17351775","imageIndex":17,"items":[{"name":"Bailey garden & flower","tel":"","addr":"경기도 용인시 처인구 남사면 완장리 954번지 e편한세상용인한숲시티 1층 127호","indutype":"문화.취미 - 화원","category":"other"},{"name":"주식회사 레드컴업","tel":"031-333-0344","addr":"경기도 용인시 처인구 남사면 완장리 954번지 e편한세상 용인 한숲시티","indutype":"사무통신 - 통신기기","category":"other"}]},{"lat":"37.114566917","long":"127.15241076","imageIndex":17,"items":[{"name":"GS25남사봉무로점","tel":"","addr":"경기도 용인시 처인구 남사면 봉무리 449-1번지","indutype":"유통업 영리 - 편 의 점","category":"other"},{"name":"맨호전기","tel":"031-334-1131","addr":"경기도 용인시 처인구 남사면 봉무리 449-1번지","indutype":"전기제품 - 기타전기제품","category":"other"}]},{"lat":"37.140225622","long":"127.15491484","imageIndex":17,"items":[{"name":"GS25북리공단점","tel":"","addr":"경기도 용인시 처인구 남사면 북리 116-7번지","indutype":"유통업 영리 - 편 의 점","category":"other"}]},{"lat":"37.146946245","long":"127.13321544","imageIndex":17,"items":[{"name":"GS25용인통삼점","tel":"","addr":"경기도 용인시 처인구 남사면 통삼리 620-8번지","indutype":"유통업 영리 - 편 의 점","category":"other"}]},{"lat":"37.159114375","long":"127.17274","imageIndex":17,"items":[{"name":"GS25용인한숲나점","tel":"","addr":"경기도 용인시 처인구 남사면 완장리 949번지 e편한세상용인한숲시티 상가동 107호","indutype":"유통업 영리 - 편 의 점","category":"other"},{"name":"깔끔이청소","tel":"","addr":"경기도 용인시 처인구 남사면 완장리 949번지 e편한세상용인한숲시티","indutype":"용역 서비스 - 종합용역","category":"other"},{"name":"나나사진관","tel":"","addr":"경기도 용인시 처인구 남사면 완장리 949번지 e편한세상용인한숲시티","indutype":"광학제품 - 사진관","category":"other"},{"name":"소리가공소","tel":"","addr":"경기도 용인시 처인구 남사면 완장리 949번지 e편한세상용인한숲시티","indutype":"용역 서비스 - 종합용역","category":"other"},{"name":"오너시스","tel":"","addr":"경기도 용인시 처인구 남사면 완장리 949번지 e편한세상용인한숲시티","indutype":"용역 서비스 - 종합용역","category":"other"},{"name":"참 좋은 데코","tel":"","addr":"경기도 용인시 처인구 남사면 완장리 949번지 e편한세상용인한숲시티","indutype":"건축자재 - 인테리어전문","category":"other"}]},{"lat":"37.153196089","long":"127.17163484","imageIndex":17,"items":[{"name":"GS25용인한숲점","tel":"","addr":"경기도 용인시 처인구 남사면 아곡리 698번지 처인프라자 105호","indutype":"유통업 영리 - 편 의 점","category":"other"},{"name":"남사문고","tel":"031-337-1557","addr":"경기도 용인시 처인구 남사면 아곡리 698번지 301호","indutype":"서적문구 - 일반서적","category":"other"},{"name":"신비하우스","tel":"031-000-0000","addr":"경기도 용인시 처인구 남사면 아곡리 698번지 1층 214-1호","indutype":"의류 - 내의판매","category":"other"}]},{"lat":"37.140786886","long":"127.15982318","imageIndex":17,"items":[{"name":"LIVART style shop","tel":"","addr":"경기도 용인시 처인구 남사면 북리 54-10번지 5층","indutype":"가구 - 일반가구","category":"other"}]},{"lat":"37.144863504","long":"127.1568601","imageIndex":17,"items":[{"name":"S마트","tel":"031-329-5522","addr":"경기도 용인시 처인구 남사면 북리31-6","indutype":"유통업 영리 - 복지매장","category":"other"}]},{"lat":"37.168895369","long":"127.16291003","imageIndex":17,"items":[{"name":"VIM project","tel":"070-7567-1070","addr":"경기도 용인시 처인구 남사면 완장리 407번지 1호지 완장낚시터","indutype":"회원제형태 - 기타4","category":"other"}]},{"lat":"37.139587908","long":"127.16691131","imageIndex":17,"items":[{"name":"강원전기","tel":"","addr":"경기도 용인시 처인구 남사면 아곡리 441-11번지","indutype":"전기제품 - 기타전기제품","category":"other"},{"name":"미니스톱 용인남곡점","tel":"031-1577-9621","addr":"경기도 용인시 처인구 남사면 아곡리 441-11번지","indutype":"유통업 영리 - 편 의 점","category":"other"},{"name":"이편한아울렛","tel":"031-334-4765","addr":"경기도 용인시 처인구 남사면 아곡리 441-11번지 나동","indutype":"의류 - 아동의류","category":"other"}]},{"lat":"37.103285527","long":"127.13755043","imageIndex":17,"items":[{"name":"거목농원","tel":"070-7864-6628","addr":"경기도 용인시 처인구 남사면 진목리 142-1","indutype":"문화.취미 - 화원","category":"other"},{"name":"혜민꽃농원","tel":"","addr":"경기도 용인시 처인구 남사면 진목리 142-1번지","indutype":"문화.취미 - 화원","category":"other"}]},{"lat":"37.139173421","long":"127.17945958","imageIndex":17,"items":[{"name":"건영팩","tel":"031-339-8526","addr":"경기도 용인시 처인구 남사면 창리 396-1번지","indutype":"건축자재 - 기타건축자재","category":"other"}]},{"lat":"37.145562444","long":"127.13786171","imageIndex":17,"items":[{"name":"경성과학","tel":"031-339-2281","addr":"경기도 용인시 처인구 남사면 북리 696-5","indutype":"서적문구 - 과학기자재","category":"other"}]},{"lat":"37.095370755","long":"127.14816615","imageIndex":17,"items":[{"name":"고구려농원","tel":"031-339-0774","addr":"경기도 용인시 처인구 남사면 원암리 318-1번지","indutype":"농업 - 비료,사료,종자","category":"other"}]},{"lat":"37.146557554","long":"127.14969349","imageIndex":17,"items":[{"name":"고려특수산업","tel":"031-323-4864","addr":"경기도 용인시 처인구 남사면 북리552-7","indutype":"건축자재 - 기타건축자재","category":"other"}]},{"lat":"37.150139738","long":"127.1378811","imageIndex":17,"items":[{"name":"관불사","tel":"031-322-9707","addr":"경기도 용인시 처인구 남사면 북리 744번지","indutype":"기타 - 비영리/대상","category":"other"}]},{"lat":"37.114783098","long":"127.15246744","imageIndex":17,"items":[{"name":"광명기계","tel":"031-333-3285","addr":"경기도 용인시 처인구 남사면 봉무리 451-5번지","indutype":"기타 - 기계공구","category":"other"},{"name":"광명기계/원격지","tel":"031-333-3285","addr":"경기도 용인시 처인구 남사면 봉무리451-5","indutype":"기타 - 기타 전문점","category":"other"}]},{"lat":"37.114089361","long":"127.15240982","imageIndex":17,"items":[{"name":"국제공구","tel":"031-322-0945","addr":"경기도 용인시 처인구 남사면 봉무리448-4","indutype":"기타 - 기계공구","category":"other"}]},{"lat":"37.096008658","long":"127.14219442","imageIndex":17,"items":[{"name":"금강종합상사","tel":"031-321-4285","addr":"경기도 용인시 처인구 남사면 원암리 373-6 제1호","indutype":"신변잡화 - 기타잡화","category":"other"},{"name":"남사종합툴링","tel":"031-332-8209","addr":"경기도 용인시 처인구 남사면 원암리373-6","indutype":"기타 - 기계공구","category":"other"},{"name":"명성모타","tel":"031-336-6378","addr":"경기도 용인시 처인구 남사면 원암리 373-6","indutype":"수리서비스 - 기타수리서비스","category":"other"},{"name":"미니스톱 용인원암점","tel":"031-1577-9621","addr":"경기도 용인시 처인구 남사면 원암리 373-6번지","indutype":"유통업 영리 - 편 의 점","category":"other"}]},{"lat":"37.108838975","long":"127.13491643","imageIndex":17,"items":[{"name":"기양종합에너지","tel":"031-321-5618","addr":"경기도 용인시 처인구 남사면 봉명리 75-1번지 1층","indutype":"기타 - 기계공구","category":"other"}]},{"lat":"37.139561793","long":"127.16624721","imageIndex":17,"items":[{"name":"까사알렉스","tel":"031-339-1108","addr":"경기도 용인시 처인구 남사면 아곡리 439-27번지","indutype":"가구 - 일반가구","category":"other"},{"name":"하이엔프라","tel":"031-333-3366","addr":"경기도 용인시 처인구 남사면 아곡리 439-27번지","indutype":"유통업 영리 - 기타유통업","category":"other"}]},{"lat":"37.15850787","long":"127.17468623","imageIndex":17,"items":[{"name":"깨끗한우리집","tel":"031-341-1212","addr":"경기도 용인시 처인구 남사면 완장리 952번지 e편한세상 용인 한숲시티","indutype":"용역 서비스 - 종합용역","category":"other"}]},{"lat":"37.111201605","long":"127.12474987","imageIndex":17,"items":[{"name":"꼬꼬다육","tel":"070-7425-4545","addr":"경기도 용인시 처인구 남사면 봉명리 732번지 F동 3호","indutype":"문화.취미 - 화원","category":"other"},{"name":"꽃사랑","tel":"","addr":"경기도 용인시 처인구 남사면 봉명리 732번지","indutype":"문화.취미 - 화원","category":"other"},{"name":"남촌원예","tel":"070-5031-0327","addr":"경기도 용인시 처인구 남사면 봉명리 732번지 D동 1,2호","indutype":"문화.취미 - 화원","category":"other"},{"name":"더 아침","tel":"031-336-7040","addr":"경기도 용인시 처인구 남사면 봉명리 732번지 G동","indutype":"문화.취미 - 화원","category":"other"},{"name":"애플다육","tel":"070-7425-4545","addr":"경기도 용인시 처인구 남사면 봉명리 732번지","indutype":"문화.취미 - 화원","category":"other"},{"name":"오케이 (OK)다육","tel":"070-7437-9586","addr":"경기도 용인시 처인구 남사면 봉명리 732번지","indutype":"문화.취미 - 화원","category":"other"},{"name":"풍년다육","tel":"03-111-1111","addr":"경기도 용인시 처인구 남사면 봉명리 732번지 F동 2호","indutype":"문화.취미 - 화원","category":"other"}]},{"lat":"37.098452334","long":"127.12413327","imageIndex":17,"items":[{"name":"남사가야다육","tel":"","addr":"경기도 용인시 처인구 남사면 진목리 869번지","indutype":"문화.취미 - 화원","category":"other"}]},{"lat":"37.139258243","long":"127.17693868","imageIndex":17,"items":[{"name":"남사건축소형기기임대","tel":"031-332-9336","addr":"경기도 용인시 처인구 남사면 창리 507-1번지","indutype":"수리서비스 - 기타수리서비스","category":"other"}]},{"lat":"37.098370974","long":"127.12439186","imageIndex":17,"items":[{"name":"남사꽃식물원","tel":"031-334-6797","addr":"경기도 용인시 처인구 남사면 진목리 869-2번지","indutype":"문화.취미 - 화원","category":"other"}]},{"lat":"37.114345154","long":"127.14960878","imageIndex":17,"items":[{"name":"남사농약종묘사","tel":"031-332-7161","addr":"경기도 용인시 처인구 남사면 봉무리 438번지","indutype":"농업 - 비료,사료,종자","category":"other"},{"name":"남사만물건재","tel":"031-334-1529","addr":"경기도 용인시 처인구 남사면 봉무리 438번지 1층","indutype":"건축자재 - 목재·석재·철물","category":"other"}]},{"lat":"37.114207403","long":"127.15168998","imageIndex":17,"items":[{"name":"남사농협연쇄점","tel":"031-332-6040","addr":"경기도 용인시 처인구 남사면 봉무리 446번지","indutype":"유통업 비영리 - 농,축협 직영매장","category":"other"},{"name":"남사장식","tel":"031-332-6168","addr":"경기도 용인시 처인구 남사면 봉무리 446번지","indutype":"직물 - 카페트,커튼,천막,지물","category":"other"},{"name":"남사종합장식","tel":"031-332-9021","addr":"경기도 용인시 처인구 남사면 봉무리 446번지","indutype":"직물 - 카페트,커튼,천막,지물","category":"other"}]},{"lat":"37.107263573","long":"127.1561877","imageIndex":17,"items":[{"name":"남사다육집하장","tel":"031-336-0026","addr":"경기도 용인시 처인구 남사면 전궁리 330번지","indutype":"문화.취미 - 화원","category":"other"}]},{"lat":"37.103007016","long":"127.13682997","imageIndex":17,"items":[{"name":"남사들꽃농원","tel":"","addr":"경기도 용인시 처인구 남사면 진목리 142-3번지","indutype":"문화.취미 - 화원","category":"other"}]},{"lat":"37.114118438","long":"127.15077846","imageIndex":17,"items":[{"name":"남사쇼퍼","tel":"031-339-7666","addr":"경기도 용인시 처인구 남사면 봉무리 441-5번지","indutype":"용역 서비스 - 기타용역서비스","category":"other"}]},{"lat":"37.103291462","long":"127.1549985","imageIndex":17,"items":[{"name":"남사야생화농원","tel":"031-335-9195","addr":"경기도 용인시 처인구 남사면 전궁리404-1","indutype":"문화.취미 - 화원","category":"other"},{"name":"산들애야생화","tel":"031-336-6847","addr":"경기도 용인시 처인구 남사면 전궁리 404-1","indutype":"문화.취미 - 화원","category":"other"}]},{"lat":"37.104701221","long":"127.13663046","imageIndex":17,"items":[{"name":"남사화분","tel":"031-339-0492","addr":"경기도 용인시 처인구 남사면 진목리120-5","indutype":"문화.취미 - 화원","category":"other"}]},{"lat":"37.10495382","long":"127.13636091","imageIndex":17,"items":[{"name":"남사화훼집하장","tel":"031-333-5738","addr":"경기도 용인시 처인구 남사면 진목리119","indutype":"문화.취미 - 화원","category":"other"}]},{"lat":"37.11395702","long":"127.15015934","imageIndex":17,"items":[{"name":"남창상회","tel":"031-332-6417","addr":"경기도 용인시 처인구 남사면 봉무리440-9","indutype":"서적문구 - 문구용품","category":"other"}]},{"lat":"37.103597327","long":"127.15538159","imageIndex":17,"items":[{"name":"남해 야생화농원","tel":"","addr":"경기도 용인시 처인구 남사면 전궁리 403번지","indutype":"문화.취미 - 화원","category":"other"}]},{"lat":"37.113344513","long":"127.17663184","imageIndex":17,"items":[{"name":"노그노플렉스","tel":"070-4436-0905","addr":"경기도 용인시 처인구 남사면 방아리 761-2번지","indutype":"직물 - 침구·수예점","category":"other"}]},{"lat":"37.139640815","long":"127.16774429","imageIndex":17,"items":[{"name":"노브랜드 퍼니처","tel":"","addr":"경기도 용인시 처인구 남사면 아곡리 513-4번지","indutype":"가구 - 일반가구","category":"other"}]},{"lat":"37.148258734","long":"127.15113757","imageIndex":17,"items":[{"name":"노아건업","tel":"031-336-6880","addr":"경기도 용인시 처인구 남사면 북리 182-14","indutype":"용역 서비스 - 기타용역서비스","category":"other"}]},{"lat":"37.114647173","long":"127.15307474","imageIndex":17,"items":[{"name":"노아토탈인테리어","tel":"031-322-3128","addr":"경기도 용인시 처인구 남사면 봉무리 482-2","indutype":"건축자재 - 인테리어전문","category":"other"}]},{"lat":"37.111175461","long":"127.12388353","imageIndex":17,"items":[{"name":"농업회사법인 주식회사 라플랑트","tel":"031-333-8801","addr":"경기도 용인시 처인구 남사면 봉명리 757-609번지","indutype":"문화.취미 - 화원","category":"other"}]},{"lat":"37.107703028","long":"127.16452499","imageIndex":17,"items":[{"name":"다원화훼조경","tel":"031-321-9149","addr":"경기도 용인시 처인구 남사면 전궁리 34번지","indutype":"문화.취미 - 화원","category":"other"}]},{"lat":"37.106429052","long":"127.14621851","imageIndex":17,"items":[{"name":"다육노리터","tel":"","addr":"경기도 용인시 처인구 남사면 전궁리 509-5번지","indutype":"문화.취미 - 화원","category":"other"}]},{"lat":"37.107481534","long":"127.15486062","imageIndex":17,"items":[{"name":"다육사랑","tel":"070-7738-7725","addr":"경기도 용인시 처인구 남사면 전궁리 356-2번지","indutype":"문화.취미 - 화원","category":"other"}]},{"lat":"37.104787926","long":"127.154439","imageIndex":17,"items":[{"name":"다육이랑 옹기랑","tel":"031-616-1466","addr":"경기도 용인시 처인구 남사면 전궁리 398번지","indutype":"문화.취미 - 화원","category":"other"}]},{"lat":"37.10817643","long":"127.13105643","imageIndex":17,"items":[{"name":"다육이야기농원","tel":"031-333-1336","addr":"경기도 용인시 처인구 남사면 봉명리 383-1번지 1층","indutype":"문화.취미 - 화원","category":"other"}]},{"lat":"37.103898739","long":"127.13711278","imageIndex":17,"items":[{"name":"다인농원","tel":"031-376-3056","addr":"경기도 용인시 처인구 남사면 진목리 137-3","indutype":"문화.취미 - 화원","category":"other"},{"name":"진영농원","tel":"070-7798-9921","addr":"경기도 용인시 처인구 남사면 진목리 137-3","indutype":"문화.취미 - 화원","category":"other"}]},{"lat":"37.098761324","long":"127.1302194","imageIndex":17,"items":[{"name":"담수나라/원격지","tel":"031-339-1504","addr":"경기도 용인시 처인구 남사면 진목리601","indutype":"기타 - 기타 전문점","category":"other"}]},{"lat":"37.123648979","long":"127.16646057","imageIndex":17,"items":[{"name":"대림철물","tel":"031-322-3310","addr":"경기도 용인시 처인구 남사면 방아리 74번지","indutype":"건축자재 - 목재·석재·철물","category":"other"},{"name":"지지맘팝아트","tel":"","addr":"경기도 용인시 처인구 남사면 방아리 74번지","indutype":"문화.취미 - 화랑","category":"other"}]},{"lat":"37.100678974","long":"127.13169625","imageIndex":17,"items":[{"name":"대성농자재산업","tel":"031-333-3855","addr":"경기도 용인시 처인구 남사면 진목리 648-1번지","indutype":"용역 서비스 - 기타용역서비스","category":"other"}]},{"lat":"37.094652049","long":"127.14641004","imageIndex":17,"items":[{"name":"대성유통","tel":"031-334-4282","addr":"경기도 용인시 처인구 남사면 원암리235-2","indutype":"기타 - 기타 전문점","category":"other"},{"name":"진진씰테크","tel":"031-322-9494","addr":"경기도 용인시 처인구 남사면 원암리 235-2번지","indutype":"기타 - 기계공구","category":"other"},{"name":"진진씰테크/원격지","tel":"031-334-7981","addr":"경기도 용인시 처인구 남사면 원암리 235-2번지","indutype":"기타 - 기타 전문점","category":"other"}]},{"lat":"37.101950829","long":"127.13854926","imageIndex":17,"items":[{"name":"대영산업","tel":"031-322-3576","addr":"경기도 용인시 처인구 남사면 진목리 128-1","indutype":"농업 - 기타농업관련","category":"other"}]},{"lat":"37.173527218","long":"127.18148745","imageIndex":17,"items":[{"name":"대웅철물건재","tel":"031-338-5702","addr":"경기도 용인시 처인구 남사면 완장리 159-17번지","indutype":"건축자재 - 목재·석재·철물","category":"other"}]},{"lat":"37.096369299","long":"127.15660445","imageIndex":17,"items":[{"name":"대한불교조계종도솔암","tel":"070-4133-2891","addr":"경기도 용인시 처인구 남사면 원암리 291-4","indutype":"기타 - 비영리/대상","category":"other"}]},{"lat":"37.106678163","long":"127.14882899","imageIndex":17,"items":[{"name":"동그라미농장","tel":"031-334-9500","addr":"경기도 용인시 처인구 남사면 전궁리 501-9번지","indutype":"회원제형태 - 기타1","category":"other"}]},{"lat":"37.140311468","long":"127.16493198","imageIndex":17,"items":[{"name":"동부하나투어(주)","tel":"02-1599-7125","addr":"경기도 용인시 처인구 남사면 아곡리 439-28번지","indutype":"여행 - 관광여행","category":"other"},{"name":"유정낚시","tel":"031-339-9756","addr":"경기도 용인시 처인구 남사면 아곡리439-28","indutype":"레져용품 - 스포츠·레져용품","category":"other"},{"name":"화성포장산업","tel":"031-335-1976","addr":"경기도 용인시 처인구 남사면 아곡리 439-28","indutype":"기타 - 기계공구","category":"other"}]},{"lat":"37.103119626","long":"127.15549313","imageIndex":17,"items":[{"name":"동우씨엠","tel":"031-225-0286","addr":"경기도 용인시 처인구 남사면 406번지","indutype":"유통업 영리 - 기타유통업","category":"other"}]},{"lat":"37.092063891","long":"127.14815983","imageIndex":17,"items":[{"name":"동탄판넬오산천막앵글","tel":"031-333-4789","addr":"경기도 용인시 처인구 남사면 원암리 371-66","indutype":"직물 - 카페트,커튼,천막,지물","category":"other"}]},{"lat":"37.093733912","long":"127.14563219","imageIndex":17,"items":[{"name":"두루","tel":"031-332-6732","addr":"경기도 용인시 처인구 남사면 원암리 371-36번지","indutype":"전기제품 - 냉열기기","category":"other"}]},{"lat":"37.102236727","long":"127.14066466","imageIndex":17,"items":[{"name":"두산하이서비스","tel":"031-338-9906","addr":"경기도 용인시 처인구 남사면 진목리 27-3번지","indutype":"기타 - 기계공구","category":"other"},{"name":"에이스솔루션","tel":"","addr":"경기도 용인시 처인구 남사면 진목리 27-3번지","indutype":"기타 - 기계공구","category":"other"}]},{"lat":"37.148478996","long":"127.13232883","imageIndex":17,"items":[{"name":"디데이랜드","tel":"070-4007-5739","addr":"경기도 용인시 처인구 남사면 통삼리 629-15번지","indutype":"신변잡화 - 기타잡화","category":"other"}]},{"lat":"37.11589965","long":"127.11182952","imageIndex":17,"items":[{"name":"뜰안애야생화","tel":"","addr":"경기도 용인시 처인구 남사면 봉명리 664-2번지","indutype":"문화.취미 - 화원","category":"other"}]},{"lat":"37.107286978","long":"127.1721067","imageIndex":17,"items":[{"name":"리멤버(Remember)","tel":"031-336-7744","addr":"경기도 용인시 처인구 남사면 방아리 883-3번지","indutype":"문화.취미 - 애완동물","category":"other"}]},{"lat":"37.166089373","long":"127.17829495","imageIndex":17,"items":[{"name":"마운틴 준","tel":"","addr":"경기도 용인시 처인구 남사면 완장리 508-2번지","indutype":"문화.취미 - 민예·공예품","category":"other"},{"name":"히녹건강공예","tel":"031-338-1237","addr":"경기도 용인시 처인구 남사면 완장리 508-2번지","indutype":"문화.취미 - 민예·공예품","category":"other"}]},{"lat":"37.119950722","long":"127.1756005","imageIndex":17,"items":[{"name":"명성기획","tel":"031-322-5730","addr":"경기도 용인시 처인구 남사면 방아리 228-11번지","indutype":"용역 서비스 - 종합용역","category":"other"}]},{"lat":"37.1527567","long":"127.1701367","imageIndex":17,"items":[{"name":"명품옷수선","tel":"031-336-5119","addr":"경기도 용인시 처인구 남사면 아곡리 694번지 1층 133-2호","indutype":"수리서비스 - 세탁소","category":"other"},{"name":"와이드클로젯","tel":"031-526-7990","addr":"경기도 용인시 처인구 남사면 아곡리 694번지 145호 한숲스퀘어옐로우","indutype":"의류 - 정장","category":"other"},{"name":"월드크리닝 한숲시티점","tel":"031-323-3930","addr":"경기도 용인시 처인구 남사면 아곡리 694번지 129호 한숲스퀘어 멜로우 상가","indutype":"수리서비스 - 세탁소","category":"other"},{"name":"티하프스토리","tel":"","addr":"경기도 용인시 처인구 남사면 아곡리 694번지 130호 옐로우상가","indutype":"의류 - 정장","category":"other"},{"name":"플랜트 스터디 카페 한숲시티점","tel":"031-336-3068","addr":"경기도 용인시 처인구 남사면 아곡리 694번지 5층 513호","indutype":"용역 서비스 - 사무서비스","category":"other"}]},{"lat":"37.110983078","long":"127.12694341","imageIndex":17,"items":[{"name":"모란농자재","tel":"031-769-3130","addr":"경기도 용인시 처인구 남사면 봉명리 562","indutype":"농업 - 농기계","category":"other"}]},{"lat":"37.104346684","long":"127.14699081","imageIndex":17,"items":[{"name":"모아농원","tel":"031-339-9079","addr":"경기도 용인시 처인구 남사면 전궁리509-17","indutype":"문화.취미 - 화원","category":"other"}]},{"lat":"37.108838699","long":"127.13516393","imageIndex":17,"items":[{"name":"미각","tel":"031-334-2233","addr":"경기도 용인시 처인구 남사면 봉명리 58-2번지","indutype":"신변잡화 - 기타잡화","category":"other"}]},{"lat":"37.152474661","long":"127.17204974","imageIndex":17,"items":[{"name":"미니미","tel":"","addr":"경기도 용인시 처인구 남사면 아곡리 702번지 109호","indutype":"의류 - 정장","category":"other"}]},{"lat":"37.143645994","long":"127.12707551","imageIndex":17,"items":[{"name":"미니스톱 남사IC휴게소점","tel":"031-1577-9621","addr":"경기도 용인시 처인구 남사면 통삼리 811번지 라동","indutype":"유통업 영리 - 편 의 점","category":"other"}]},{"lat":"37.139424752","long":"127.16760876","imageIndex":17,"items":[{"name":"미래종합상사","tel":"031-322-5842","addr":"경기도 용인시 처인구 남사면 아곡리513-1","indutype":"건축자재 - 기타건축자재","category":"other"}]},{"lat":"37.091261637","long":"127.148417","imageIndex":17,"items":[{"name":"미래페인트","tel":"031-321-2625","addr":"경기도 용인시 처인구 남사면 원암리 194-23번지 외1필지","indutype":"건축자재 - 페인트","category":"other"}]},{"lat":"37.102956781","long":"127.1488556","imageIndex":17,"items":[{"name":"벧엘화분자재마을","tel":"031-339-7863","addr":"경기도 용인시 처인구 남사면 전궁리 506-7","indutype":"문화.취미 - 화원","category":"other"}]},{"lat":"37.102235466","long":"127.13382502","imageIndex":17,"items":[{"name":"보배농원","tel":"","addr":"경기도 용인시 처인구 남사면 진목리 422번지","indutype":"문화.취미 - 화원","category":"other"}]},{"lat":"37.152836392","long":"127.17112748","imageIndex":17,"items":[{"name":"블럭비즈몬","tel":"","addr":"경기도 용인시 처인구 남사면 아곡리 701번지 4층 406호","indutype":"서적문구 - 완구점","category":"other"},{"name":"전문수선","tel":"031-286-3383","addr":"경기도 용인시 처인구 남사면 아곡리 701번지 아곡프라자 207호","indutype":"수리서비스 - 세탁소","category":"other"}]},{"lat":"37.164749082","long":"127.15015649","imageIndex":17,"items":[{"name":"블리블룸","tel":"","addr":"경기도 용인시 처인구 남사면 북리 265-10번지","indutype":"문화.취미 - 화원","category":"other"}]},{"lat":"37.123923394","long":"127.12577175","imageIndex":17,"items":[{"name":"산삼구경꾼","tel":"031-338-2457","addr":"경기도 용인시 처인구 남사면 통삼리149-3","indutype":"회원제형태 - 기타4","category":"other"}]},{"lat":"37.149091966","long":"127.14768351","imageIndex":17,"items":[{"name":"삼성엔에코(samsungneco)","tel":"031-334-5181","addr":"경기도 용인시 처인구 남사면 북리562-2","indutype":"기타 - 기계공구","category":"other"}]},{"lat":"37.09432085","long":"127.12860348","imageIndex":17,"items":[{"name":"샤론다육샤론도예","tel":"031-333-0668","addr":"경기도 용인시 처인구 남사면 진목리 745-1번지","indutype":"문화.취미 - 화원","category":"other"}]},{"lat":"37.131450985","long":"127.16724261","imageIndex":17,"items":[{"name":"성민자동판매기","tel":"031-322-6118","addr":"경기도 용인시 처인구 남사면 창리 540-2번지 1층","indutype":"기타 - 기계공구","category":"other"}]},{"lat":"37.091701661","long":"127.12585468","imageIndex":17,"items":[{"name":"성은엔지니어링","tel":"","addr":"경기도 용인시 처인구 남사면 진목리 385-8번지","indutype":"용역 서비스 - 기타용역서비스","category":"other"}]},{"lat":"37.107014081","long":"127.1739061","imageIndex":17,"items":[{"name":"성진원예","tel":"031-376-6890","addr":"경기도 용인시 처인구 남사면 방아리 875-8","indutype":"문화.취미 - 화원","category":"other"}]},{"lat":"37.115674004","long":"127.1122455","imageIndex":17,"items":[{"name":"세븐일레븐용인남사대로점","tel":"","addr":"경기도 용인시 처인구 남사면 봉명리 668번지","indutype":"유통업 영리 - 편 의 점","category":"other"}]},{"lat":"37.108117496","long":"127.17101727","imageIndex":17,"items":[{"name":"세븐일레븐용인남사본점","tel":"031-1577-0711","addr":"경기도 용인시 처인구 남사면 방아리 919-2번지","indutype":"유통업 영리 - 편 의 점","category":"other"}]},{"lat":"37.145314347","long":"127.14202591","imageIndex":17,"items":[{"name":"세븐일레븐용인남사점","tel":"031-1577-0711","addr":"경기도 용인시 처인구 남사면 북리 680-1번지","indutype":"유통업 영리 - 편 의 점","category":"other"},{"name":"오렌지디자인","tel":"031-338-8745","addr":"경기도 용인시 처인구 남사면 북리 680-1번지","indutype":"용역 서비스 - 종합용역","category":"other"}]},{"lat":"37.139950464","long":"127.1653589","imageIndex":17,"items":[{"name":"세븐일레븐용인아곡점","tel":"031-1577-0711","addr":"경기도 용인시 처인구 남사면 아곡리 439-44번지 일부","indutype":"유통업 영리 - 편 의 점","category":"other"}]},{"lat":"37.142116356","long":"127.18766027","imageIndex":17,"items":[{"name":"세븐일레븐용인창리점","tel":"031-1577-0711","addr":"경기도 용인시 처인구 남사면 창리 366-6번지","indutype":"유통업 영리 - 편 의 점","category":"other"}]},{"lat":"37.114623684","long":"127.15025064","imageIndex":17,"items":[{"name":"세원조경","tel":"","addr":"경기도 용인시 처인구 남사면 봉무리 442-1번지","indutype":"건축자재 - 인테리어전문","category":"other"}]},{"lat":"37.095317531","long":"127.1546901","imageIndex":17,"items":[{"name":"세일농장","tel":"","addr":"경기도 용인시 처인구 남사면 원암리 281-9번지","indutype":"문화.취미 - 화원","category":"other"}]},{"lat":"37.104341778","long":"127.1509732","imageIndex":17,"items":[{"name":"세진식물원","tel":"","addr":"경기도 용인시 처인구 남사면 전궁리 498-3번지","indutype":"문화.취미 - 화원","category":"other"}]},{"lat":"37.097595813","long":"127.14108371","imageIndex":17,"items":[{"name":"소지테크놀로지","tel":"070-8805-9663","addr":"경기도 용인시 처인구 남사면 원암리 381-7번지 외1필지","indutype":"용역 서비스 - 기타용역서비스","category":"other"}]},{"lat":"37.1104532","long":"127.17590519","imageIndex":17,"items":[{"name":"시온가구","tel":"031-332-9790","addr":"경기도 용인시 처인구 남사면 방아리 739-3번지 유신농장","indutype":"가구 - 일반가구","category":"other"}]},{"lat":"37.111844592","long":"127.12155567","imageIndex":17,"items":[{"name":"신안만물","tel":"031-337-2283","addr":"경기도 용인시 처인구 남사면 봉명리 575-1번지","indutype":"신변잡화 - 기타잡화","category":"other"}]},{"lat":"37.095314397","long":"127.1425756","imageIndex":17,"items":[{"name":"신영천막","tel":"031-377-3193","addr":"경기도 용인시 처인구 남사면 원암리 208-3","indutype":"직물 - 카페트,커튼,천막,지물","category":"other"}]},{"lat":"37.108785187","long":"127.13466882","imageIndex":17,"items":[{"name":"씨유남사봉명점","tel":"031-239-6683","addr":"경기도 용인시 처인구 남사면 봉명리 74-1번지","indutype":"유통업 영리 - 편 의 점","category":"other"}]},{"lat":"37.142007017","long":"127.15698937","imageIndex":17,"items":[{"name":"씨유남사아세아점","tel":"031-898-6567","addr":"경기도 용인시 처인구 남사면 북리 61-6번지","indutype":"유통업 영리 - 편 의 점","category":"other"},{"name":"씰리침대 남사점","tel":"031-337-1108","addr":"경기도 용인시 처인구 남사면 북리 61-6번지","indutype":"가구 - 일반가구","category":"other"}]},{"lat":"37.114532612","long":"127.1510268","imageIndex":17,"items":[{"name":"씨유남사우리점","tel":"031-335-9765","addr":"경기도 용인시 처인구 남사면 봉무리 445-1번지","indutype":"유통업 영리 - 편 의 점","category":"other"},{"name":"우리하우징","tel":"031-322-1258","addr":"경기도 용인시 처인구 남사면 봉무리 445-1번지","indutype":"건축자재 - 인테리어전문","category":"other"}]},{"lat":"37.145394327","long":"127.14297154","imageIndex":17,"items":[{"name":"씨유용인남사점","tel":"031-239-6697","addr":"경기도 용인시 처인구 남사면 북리 674-1번지 1층","indutype":"유통업 영리 - 편 의 점","category":"other"}]},{"lat":"37.093391566","long":"127.14558656","imageIndex":17,"items":[{"name":"씨유용인원암점","tel":"031-898-6963","addr":"경기도 용인시 처인구 남사면 원암리 222-9번지 1동","indutype":"유통업 영리 - 편 의 점","category":"other"}]},{"lat":"37.128170029","long":"127.15457563","imageIndex":17,"items":[{"name":"아이앤티건설기술 주식회사","tel":"031-338-2140","addr":"경기도 용인시 처인구 남사면 봉무리 300번지","indutype":"용역 서비스 - 사무서비스","category":"other"}]},{"lat":"37.103486301","long":"127.14313058","imageIndex":17,"items":[{"name":"안개종묘농장","tel":"031-334-3646","addr":"경기도 용인시 처인구 남사면 진목리58-15","indutype":"문화.취미 - 화원","category":"other"}]},{"lat":"37.092624544","long":"127.1465187","imageIndex":17,"items":[{"name":"알파 용인남사점","tel":"031-321-2848","addr":"경기도 용인시 처인구 남사면 원암리 222-13번지","indutype":"서적문구 - 문구용품","category":"other"}]},{"lat":"37.12889619","long":"127.15035708","imageIndex":17,"items":[{"name":"에쓰엘(SL)","tel":"031-322-4461","addr":"경기도 용인시 처인구 남사면 봉무리 246번지 유일하이텍","indutype":"전기제품 - 기타전기제품","category":"other"},{"name":"주식회사유일하이텍","tel":"041-542-1947","addr":"경기도 용인시 처인구 남사면 봉무리 246","indutype":"전기제품 - 기타전기제품","category":"other"}]},{"lat":"37.134732165","long":"127.15260799","imageIndex":17,"items":[{"name":"에이치앤에스테크놀로지","tel":"031-333-0958","addr":"경기도 용인시 처인구 남사면 봉무리 105-4번지","indutype":"서적문구 - 과학기자재","category":"other"}]},{"lat":"37.105982643","long":"127.13491147","imageIndex":17,"items":[{"name":"연꽃마당","tel":"031-334-7288","addr":"경기도 용인시 처인구 남사면 진목리 202-3, 4","indutype":"문화.취미 - 화원","category":"other"}]},{"lat":"37.123786606","long":"127.16466045","imageIndex":17,"items":[{"name":"열매농원","tel":"","addr":"경기도 용인시 처인구 남사면 방아리 95-2번지","indutype":"문화.취미 - 화원","category":"other"}]},{"lat":"37.153728098","long":"127.1950506","imageIndex":17,"items":[{"name":"예찬인테리어","tel":"031-335-6964","addr":"경기도 용인시 처인구 남사면 창리 113번지","indutype":"회원제형태 - 기타4","category":"other"}]},{"lat":"37.091903729","long":"127.14649484","imageIndex":17,"items":[{"name":"오성토탈인테리어","tel":"031-338-0022","addr":"경기도 용인시 처인구 남사면 원암리 197-1번지 코리아블로우테크 나동","indutype":"건축자재 - 인테리어전문","category":"other"}]},{"lat":"37.116984167","long":"127.12686319","imageIndex":17,"items":[{"name":"와이엠자동문","tel":"031-336-8565","addr":"경기도 용인시 처인구 남사면 봉명리 205-3번지","indutype":"건축자재 - 기타건축자재","category":"other"}]},{"lat":"37.169253446","long":"127.16463346","imageIndex":17,"items":[{"name":"완장낚시터","tel":"031-339-7399","addr":"경기도 용인시 처인구 남사면 완장리401-1완장1호소류지","indutype":"문화.취미 - 문화취미기타","category":"other"}]},{"lat":"37.114371055","long":"127.15052018","imageIndex":17,"items":[{"name":"용인남사우체국","tel":"031-332-6000","addr":"경기도 용인시 처인구 남사면 봉무리 440-10번지","indutype":"용역 서비스 - 공공요금대행서비스/소","category":"other"}]},{"lat":"37.114591837","long":"127.13113475","imageIndex":17,"items":[{"name":"용인두원리퍼브","tel":"","addr":"경기도 용인시 처인구 남사면 봉명리 275-3번지","indutype":"신변잡화 - 기타잡화","category":"other"}]},{"lat":"37.103148208","long":"127.13944011","imageIndex":17,"items":[{"name":"우리농약사","tel":"031-338-5233","addr":"경기도 용인시 처인구 남사면 진목리 92-10번지","indutype":"농업 - 기타농업관련","category":"other"}]},{"lat":"37.158366852","long":"127.14510066","imageIndex":17,"items":[{"name":"우세기술주식회사","tel":"031-311-0194","addr":"경기도 용인시 처인구 남사면 북리 217-1번지","indutype":"전기제품 - 기타전기제품","category":"other"}]},{"lat":"37.121067961","long":"127.16279806","imageIndex":17,"items":[{"name":"우송엔지니어링(주)","tel":"031-323-3946","addr":"경기도 용인시 처인구 남사면 방아리768","indutype":"기타 - 기계공구","category":"other"}]},{"lat":"37.10148205","long":"127.13875091","imageIndex":17,"items":[{"name":"원(  )","tel":"031-333-7735","addr":"경기도 용인시 처인구 남사면 진목리 130-7번지","indutype":"신변잡화 - 기타잡화","category":"other"}]},{"lat":"37.137314328","long":"127.16902226","imageIndex":17,"items":[{"name":"원플라워 2","tel":"02-111-1111","addr":"경기도 용인시 처인구 남사면 창리 573번지","indutype":"문화.취미 - 화원","category":"other"}]},{"lat":"37.140114216","long":"127.15037885","imageIndex":17,"items":[{"name":"원효사","tel":"031-339-9512","addr":"경기도 용인시 처인구 남사면 북리648","indutype":"기타 - 비영리/대상","category":"other"}]},{"lat":"37.139535335","long":"127.16583072","imageIndex":17,"items":[{"name":"월드낚시마트","tel":"031-322-9855","addr":"경기도 용인시 처인구 남사면 아곡리 439-23번지","indutype":"레져용품 - 스포츠·레져용품","category":"other"}]},{"lat":"37.137947038","long":"127.16760555","imageIndex":17,"items":[{"name":"유진산업","tel":"031-373-0393","addr":"경기도 용인시 처인구 남사면 아곡리 539-5번지","indutype":"주방용구 - 주방용구","category":"other"},{"name":"태호컨테이너","tel":"031-321-9808","addr":"경기도 용인시 처인구 남사면 아곡리 539-5","indutype":"전기제품 - 기타전기제품","category":"other"}]},{"lat":"37.141871174","long":"127.18887524","imageIndex":17,"items":[{"name":"이동석재사","tel":"031-336-3754","addr":"경기도 용인시 처인구 남사면 창리 369-3","indutype":"건축자재 - 기타건축자재","category":"other"}]},{"lat":"37.108872961","long":"127.1367503","imageIndex":17,"items":[{"name":"이마트24 용인남사봉명점","tel":"","addr":"경기도 용인시 처인구 남사면 봉명리 56-7번지 좌측","indutype":"유통업 영리 - 편 의 점","category":"other"}]},{"lat":"37.094429125","long":"127.14446368","imageIndex":17,"items":[{"name":"이마트24 용인원암점","tel":"","addr":"경기도 용인시 처인구 남사면 원암리 216-11번지 1층","indutype":"유통업 영리 - 편 의 점","category":"other"},{"name":"이마트24 용인원암점","tel":"","addr":"경기도 용인시 처인구 남사면 원암리 216-11번지 1층","indutype":"유통업 영리 - 편 의 점","category":"other"}]},{"lat":"37.105594915","long":"127.13515829","imageIndex":17,"items":[{"name":"이마트24 용인천덕산로점","tel":"031-000-0000","addr":"경기도 용인시 처인구 남사면 진목리 200-1번지","indutype":"유통업 영리 - 편 의 점","category":"other"},{"name":"진우캐비어","tel":"031-334-7288","addr":"경기도 용인시 처인구 남사면 진목리 200-1번지","indutype":"회원제형태 - 기타4","category":"other"}]},{"lat":"37.114869665","long":"127.15524668","imageIndex":17,"items":[{"name":"임마누엘","tel":"031-332-6158","addr":"경기도 용인시 처인구 남사면 봉무리 496-1번지","indutype":"광학제품 - 사진관","category":"other"}]},{"lat":"37.104594898","long":"127.13502156","imageIndex":17,"items":[{"name":"전궁난","tel":"031-321-7339","addr":"경기도 용인시 처인구 남사면 진목리 197-2","indutype":"문화.취미 - 화원","category":"other"}]},{"lat":"37.106596476","long":"127.15643386","imageIndex":17,"items":[{"name":"정우방다육","tel":"","addr":"경기도 용인시 처인구 남사면 전궁리 333-1번지","indutype":"문화.취미 - 화원","category":"other"}]},{"lat":"37.10259328","long":"127.13616553","imageIndex":17,"items":[{"name":"제이원예","tel":"","addr":"경기도 용인시 처인구 남사면 진목리 188번지 비닐하우스 약 30평","indutype":"문화.취미 - 화원","category":"other"},{"name":"해림다육","tel":"031-0000-0000","addr":"경기도 용인시 처인구 남사면 진목리 188번지 외1필지","indutype":"문화.취미 - 화원","category":"other"}]},{"lat":"37.13772981","long":"127.1617189","imageIndex":17,"items":[{"name":"제일생명일신원매점","tel":"031-333-4410","addr":"경기도 용인시 처인구 남사면 봉무리 2-3번지","indutype":"유통업 영리 - 복지매장","category":"other"}]},{"lat":"37.139066102","long":"127.17274019","imageIndex":17,"items":[{"name":"조은건축샷시","tel":"031-335-1760","addr":"경기도 용인시 처인구 남사면 창리 549","indutype":"건축자재 - 보일러·펌프·샷시","category":"other"}]},{"lat":"37.108534373","long":"127.1333296","imageIndex":17,"items":[{"name":"조이냉동","tel":"031-339-7101","addr":"경기도 용인시 처인구 남사면 봉명리 72-1번지 365-17호 , 동소","indutype":"용역 서비스 - 기타용역서비스","category":"other"}]},{"lat":"37.124837387","long":"127.13057814","imageIndex":17,"items":[{"name":"주식회사 거산시스템창호","tel":"031-339-9607","addr":"경기도 용인시 처인구 남사면 통삼리 322번지","indutype":"건축자재 - 기타건축자재","category":"other"}]},{"lat":"37.090979781","long":"127.15046355","imageIndex":17,"items":[{"name":"주식회사 성심","tel":"031-321-9036","addr":"경기도 용인시 처인구 남사면 원암리 180-7번지 1층","indutype":"문화.취미 - 화원","category":"other"}]},{"lat":"37.11909114","long":"127.10988752","imageIndex":17,"items":[{"name":"주식회사 엠앤씨렌트카(용인지점)","tel":"031-332-6671","addr":"경기도 용인시 처인구 남사면 봉명리 767-5번지","indutype":"여행 - 렌터카","category":"other"}]},{"lat":"37.13789048","long":"127.15602438","imageIndex":17,"items":[{"name":"주식회사 영진그린","tel":"031-9955-6236","addr":"경기도 용인시 처인구 남사면 북리 84-1번지 삼호환경산업 2층 202호","indutype":"용역 서비스 - 종합용역","category":"other"}]},{"lat":"37.140672301","long":"127.16462887","imageIndex":17,"items":[{"name":"주식회사 유림티에스","tel":"031-8009-0888","addr":"경기도 용인시 처인구 남사면 아곡리 437-4번지","indutype":"건축자재 - 기타건축자재","category":"other"}]},{"lat":"37.124953012","long":"127.13197368","imageIndex":17,"items":[{"name":"주식회사좋은친구들시스템","tel":"031-226-3879","addr":"경기도 용인시 처인구 남사면 통삼리 271번지","indutype":"전기제품 - 기타전기제품","category":"other"}]},{"lat":"37.108675039","long":"127.12822218","imageIndex":17,"items":[{"name":"중앙농원","tel":"031-333-3210","addr":"경기도 용인시 처인구 남사면 봉명리463","indutype":"문화.취미 - 화원","category":"other"}]},{"lat":"37.116589281","long":"127.16313743","imageIndex":17,"items":[{"name":"중앙전기","tel":"031-339-5222","addr":"경기도 용인시 처인구 남사면 방아리 675-1번지","indutype":"전기제품 - 기타전기제품","category":"other"}]},{"lat":"37.129116373","long":"127.15438621","imageIndex":17,"items":[{"name":"지산전통옹기","tel":"031-332-3352","addr":"경기도 용인시 처인구 남사면 봉무리 236-2번지 외3필지","indutype":"문화.취미 - 민예·공예품","category":"other"}]},{"lat":"37.16375661","long":"127.17765909","imageIndex":17,"items":[{"name":"창조자원","tel":"031-322-2106","addr":"경기도 용인시 처인구 남사면 완장리 674-2","indutype":"기타 - 기타 전문점","category":"other"}]},{"lat":"37.14356136","long":"127.17341431","imageIndex":17,"items":[{"name":"처인서적","tel":"","addr":"경기도 용인시 처인구 남사면 아곡리 61-1번지","indutype":"서적문구 - 일반서적","category":"other"}]},{"lat":"37.139089859","long":"127.1686885","imageIndex":17,"items":[{"name":"처인성 꽃 식물원","tel":"031-334-3819","addr":"경기도 용인시 처인구 남사면 아곡리535-10","indutype":"문화.취미 - 화원","category":"other"}]},{"lat":"37.095872253","long":"127.14325153","imageIndex":17,"items":[{"name":"처인원예종묘","tel":"031-333-0874","addr":"경기도 용인시 처인구 남사면 원암리371-96","indutype":"문화.취미 - 화원","category":"other"}]},{"lat":"37.098287905","long":"127.12630402","imageIndex":17,"items":[{"name":"케이식물연구소","tel":"031-334-6189","addr":"경기도 용인시 처인구 남사면 진목리 711-1번지","indutype":"농업 - 비료,사료,종자","category":"other"}]},{"lat":"37.141393014","long":"127.16472044","imageIndex":17,"items":[{"name":"코리아재활용센터","tel":"031-338-8240","addr":"경기도 용인시 처인구 남사면 아곡리 429-1번지","indutype":"전기제품 - 가전제품","category":"other"}]},{"lat":"37.15558729","long":"127.16265683","imageIndex":17,"items":[{"name":"킹스플랜츠 주식회사 농업회사법인","tel":"","addr":"경기도 용인시 처인구 남사면 아곡리 642번지","indutype":"문화.취미 - 화원","category":"other"}]},{"lat":"37.105261363","long":"127.13530396","imageIndex":17,"items":[{"name":"태양상사","tel":"031-668-3003","addr":"경기도 용인시 처인구 남사면 진목리90-12","indutype":"신변잡화 - 기타잡화","category":"other"}]},{"lat":"37.108346037","long":"127.16868896","imageIndex":17,"items":[{"name":"태원화분","tel":"031-375-1870","addr":"경기도 용인시 처인구 남사면 방아리 922","indutype":"문화.취미 - 화원","category":"other"}]},{"lat":"37.101705433","long":"127.14038246","imageIndex":17,"items":[{"name":"티엠디자인","tel":"031-232-9533","addr":"경기도 용인시 처인구 남사면 진목리 27-8번지","indutype":"건축자재 - 인테리어전문","category":"other"}]},{"lat":"37.148397261","long":"127.13291401","imageIndex":17,"items":[{"name":"팜코리아","tel":"031-332-1170","addr":"경기도 용인시 처인구 남사면 통삼리 629-1번지","indutype":"농업 - 농기계","category":"other"}]},{"lat":"37.086814921","long":"127.1721849","imageIndex":17,"items":[{"name":"포블리스 에스엔디","tel":"","addr":"경기도 용인시 처인구 남사면 원암리 47번지","indutype":"가구 - 일반가구","category":"other"}]},{"lat":"37.113789206","long":"127.16810452","imageIndex":17,"items":[{"name":"퓨어랑 천연제품","tel":"","addr":"경기도 용인시 처인구 남사면 방아리 415번지","indutype":"신변잡화 - 기타잡화","category":"other"}]},{"lat":"37.17280747","long":"127.18076513","imageIndex":17,"items":[{"name":"하이파이브","tel":"031-321-7142","addr":"경기도 용인시 처인구 남사면 완장리 149-10번지","indutype":"전기제품 - 기타전기제품","category":"other"}]},{"lat":"37.172140617","long":"127.18081986","imageIndex":17,"items":[{"name":"한양당","tel":"031-333-2286","addr":"경기도 용인시 처인구 남사면 완장리152-1","indutype":"문화.취미 - 문화취미기타","category":"other"}]},{"lat":"37.100149041","long":"127.13013173","imageIndex":17,"items":[{"name":"해양테크","tel":"031-333-6078","addr":"경기도 용인시 처인구 남사면 진목리 544-2번지","indutype":"문화.취미 - 수족관","category":"other"}]},{"lat":"37.145556914","long":"127.14263417","imageIndex":17,"items":[{"name":"현대모타","tel":"031-323-1340","addr":"경기도 용인시 처인구 남사면 북리 676-1번지","indutype":"기타 - 기계공구","category":"other"}]},{"lat":"37.112840541","long":"127.14949337","imageIndex":17,"items":[{"name":"현대철물","tel":"031-334-6244","addr":"경기도 용인시 처인구 남사면 봉무리 661-19번지","indutype":"건축자재 - 목재·석재·철물","category":"other"}]},{"lat":"37.112984542","long":"127.14962866","imageIndex":17,"items":[{"name":"현대철물","tel":"031-334-6244","addr":"경기도 용인시 처인구 남사면 봉무리 661-13","indutype":"건축자재 - 목재·석재·철물","category":"other"}]},{"lat":"37.093649744","long":"127.14816286","imageIndex":17,"items":[{"name":"현지숯다육","tel":"031-338-5919","addr":"경기도 용인시 처인구 남사면 원암리 371-48 외371-49필지","indutype":"문화.취미 - 화원","category":"other"}]},{"lat":"37.109254767","long":"127.12529803","imageIndex":17,"items":[{"name":"혜림다육","tel":"","addr":"경기도 용인시 처인구 남사면 봉명리753-3","indutype":"문화.취미 - 화원","category":"other"}]},{"lat":"37.144981066","long":"127.14193525","imageIndex":17,"items":[{"name":"홍익광고","tel":"031-322-7657","addr":"경기도 용인시 처인구 남사면 북리 618번지","indutype":"건축자재 - 인테리어전문","category":"other"}]},{"lat":"37.108839909","long":"127.16990508","imageIndex":17,"items":[{"name":"화성선인장","tel":"070-7756-0237","addr":"경기도 용인시 처인구 남사면 방아리 916번지","indutype":"문화.취미 - 화원","category":"other"}]},{"lat":"37.10458945","long":"127.15462985","imageIndex":17,"items":[{"name":"환히 유한회사 농업회사법인","tel":"031-334-2282","addr":"경기도 용인시 처인구 남사면 전궁리 399-3번지","indutype":"문화.취미 - 화원","category":"other"}]},{"lat":"37.109594536","long":"127.15127594","imageIndex":17,"items":[{"name":"효성모터펌프","tel":"031-334-8476","addr":"경기도 용인시 처인구 남사면 전궁리 411-4번지","indutype":"건축자재 - 보일러·펌프·샷시","category":"other"}]},{"lat":"37.14036357","long":"127.18490978","imageIndex":17,"items":[{"name":"휴쥬공방","tel":"","addr":"경기도 용인시 처인구 남사면 창리 377-9번지 3층","indutype":"서적문구 - 완구점","category":"other"}]}]