[{"lat":"36.960990596","long":"126.85408074","imageIndex":7,"items":[{"name":"경덕유통","tel":"031-686-7916","addr":"경기도 평택시 포승읍 만호리 312-3번지","indutype":"음료식품 - 기타음료식품","category":"food"}]},{"lat":"36.962740607","long":"126.84853029","imageIndex":7,"items":[{"name":"남애고추방아간","tel":"031-681-1235","addr":"경기도 평택시 포승읍 만호리 280-3번지","indutype":"음료식품 - 제과점","category":"food"}]},{"lat":"36.952157912","long":"126.85966666","imageIndex":7,"items":[{"name":"대가해수","tel":"031-686-8888","addr":"경기도 평택시 포승읍 만호리 370-13번지 1층","indutype":"음료식품 - 농·축·수산품","category":"food"},{"name":"참(마늘)유통","tel":"","addr":"경기도 평택시 포승읍 만호리 370-13번지","indutype":"음료식품 - 농·축·수산품","category":"food"}]},{"lat":"36.962912248","long":"126.84886681","imageIndex":7,"items":[{"name":"대신해","tel":"070-4320-7980","addr":"경기도 평택시 포승읍 만호리 279-4번지 104호","indutype":"음료식품 - 농·축·수산품","category":"food"}]},{"lat":"36.961467573","long":"126.85360821","imageIndex":7,"items":[{"name":"두리농산","tel":"031-682-1109","addr":"경기도 평택시 포승읍 만호리 311-11","indutype":"음료식품 - 기타음료식품","category":"food"}]},{"lat":"36.952574773","long":"126.86164189","imageIndex":7,"items":[{"name":"만수산","tel":"031-000-0000","addr":"경기도 평택시 포승읍 만호리 492-3번지","indutype":"음료식품 - 농·축·수산품","category":"food"}]},{"lat":"36.96091002","long":"126.85449636","imageIndex":7,"items":[{"name":"만호상사","tel":"031-681-7300","addr":"경기도 평택시 포승읍 만호리 315-4번지","indutype":"음료식품 - 기타음료식품","category":"food"},{"name":"호호상사.커피인","tel":"031-681-7300","addr":"경기도 평택시 포승읍 만호리 315-4번지","indutype":"음료식품 - 기타음료식품","category":"food"}]},{"lat":"36.959687179","long":"126.84946841","imageIndex":7,"items":[{"name":"서해상사","tel":"031-681-5647","addr":"경기도 평택시 포승읍 만호리 300-6번지 A(101,102,103호)","indutype":"음료식품 - 미곡상","category":"food"},{"name":"청도상사","tel":"031-683-6896","addr":"경기도 평택시 포승읍 만호리 300-6번지 106.107호","indutype":"음료식품 - 농·축·수산품","category":"food"}]},{"lat":"36.960551132","long":"126.84863577","imageIndex":7,"items":[{"name":"성권상사","tel":"031-686-7717","addr":"경기도 평택시 포승읍 만호리 295-3번지 (1호)","indutype":"음료식품 - 농·축·수산품","category":"food"}]},{"lat":"36.959786471","long":"126.84960295","imageIndex":7,"items":[{"name":"영광상사","tel":"031-683-6896","addr":"경기도 평택시 포승읍 만호리 300-6번지 세훈빌딩 A동 108호","indutype":"음료식품 - 기타음료식품","category":"food"}]},{"lat":"36.957858581","long":"126.85708475","imageIndex":7,"items":[{"name":"평택항농수산","tel":"","addr":"경기도 평택시 포승읍 만호리 394-16번지","indutype":"음료식품 - 기타음료식품","category":"food"}]},{"lat":"36.961884882","long":"126.85586437","imageIndex":7,"items":[{"name":"한우푸줏간정육점","tel":"031-682-9229","addr":"경기도 평택시 포승읍 만호리 314-9번지","indutype":"음료식품 - 정육점","category":"food"}]},{"lat":"36.960650411","long":"126.84875908","imageIndex":7,"items":[{"name":"한중식당","tel":"031-686-7717","addr":"경기도 평택시 포승읍 만호리 295-3번지 나동 1층","indutype":"음료식품 - 농·축·수산품","category":"food"}]},{"lat":"36.959270278","long":"126.84761657","imageIndex":7,"items":[{"name":"항만항업(주)","tel":"031-684-0894","addr":"경기도 평택시 포승읍 만호리 570번지 마린타워 12층","indutype":"음료식품 - 기타음료식품","category":"food"}]},{"lat":"36.961855665","long":"126.84708358","imageIndex":7,"items":[{"name":"호성게장","tel":"031-681-7787","addr":"경기도 평택시 포승읍 만호리 266-3번지","indutype":"음료식품 - 농·축·수산품","category":"food"}]}]