[{"lat":"37.183978591","long":"127.33294523","imageIndex":0,"items":[{"name":"경기오일, 타이어전문점","tel":"031-338-2455","addr":"경기도 용인시 처인구 원삼면 맹리 698-102","indutype":"자동차정비 유지 - 자동차시트·타이어","category":"car"}]},{"lat":"37.211636352","long":"127.32124807","imageIndex":0,"items":[{"name":"골드","tel":"","addr":"경기도 용인시 처인구 원삼면 좌항리 13-1번지 레이크하우스 110호","indutype":"자동차정비 유지 - 카인테리어","category":"car"}]},{"lat":"37.1832281","long":"127.33388792","imageIndex":0,"items":[{"name":"덕신자동차공업사","tel":"031-334-3231","addr":"경기도 용인시 처인구 원삼면 맹리 681번지","indutype":"자동차정비 유지 - 자동차정비","category":"car"}]},{"lat":"37.161809271","long":"127.34067325","imageIndex":0,"items":[{"name":"라인모터스","tel":"051-727-6311","addr":"경기도 용인시 처인구 원삼면 두창리 647번지","indutype":"자동차정비 유지 - 카인테리어","category":"car"}]},{"lat":"37.182809498","long":"127.33536132","imageIndex":0,"items":[{"name":"리본오토모티브 경기","tel":"","addr":"경기도 용인시 처인구 원삼면 맹리 675-13번지 나동","indutype":"자동차정비 유지 - 자동차부품","category":"car"}]},{"lat":"37.15050609","long":"127.34524939","imageIndex":0,"items":[{"name":"스피뎀","tel":"","addr":"경기도 용인시 처인구 원삼면 두창리 1302-58번지","indutype":"자동차정비 유지 - 자동차부품","category":"car"}]},{"lat":"37.213606621","long":"127.3223604","imageIndex":0,"items":[{"name":"양지센터","tel":"031-333-5256","addr":"경기도 용인시 처인구 원삼면 좌항리 1-10번지 가동","indutype":"자동차정비 유지 - 자동차부품","category":"car"},{"name":"창우상사","tel":"031-338-0996","addr":"경기도 용인시 처인구 원삼면 좌항리 1-10번지 1층","indutype":"자동차정비 유지 - 자동차부품","category":"car"}]},{"lat":"37.194917997","long":"127.32611109","imageIndex":0,"items":[{"name":"양지오일나라","tel":"031-281-1516","addr":"경기도 용인시 처인구 원삼면 맹리 555-6","indutype":"자동차정비 유지 - 윤활유 전문 판매","category":"car"}]},{"lat":"37.202638848","long":"127.32317025","imageIndex":0,"items":[{"name":"엠제이카서비스","tel":"031-334-7878","addr":"경기도 용인시 처인구 원삼면 좌항리 95-1번지","indutype":"자동차정비 유지 - 자동차정비","category":"car"}]},{"lat":"37.198309073","long":"127.32494287","imageIndex":0,"items":[{"name":"용인오일타운","tel":"031-333-5133","addr":"경기도 용인시 처인구 원삼면 좌항리 413-4번지 11호","indutype":"자동차정비 유지 - 윤활유 전문 판매","category":"car"}]},{"lat":"37.16678089","long":"127.31172619","imageIndex":0,"items":[{"name":"원삼정비공업사","tel":"031-334-3466","addr":"경기도 용인시 처인구 원삼면 고당리 90-2번지","indutype":"자동차정비 유지 - 자동차정비","category":"car"}]},{"lat":"37.184171656","long":"127.33156091","imageIndex":0,"items":[{"name":"카센타","tel":"031-332-2799","addr":"경기도 용인시 처인구 원삼면 맹리 698-37번지","indutype":"자동차정비 유지 - 자동차정비","category":"car"}]},{"lat":"37.154008082","long":"127.34003067","imageIndex":0,"items":[{"name":"태민자동차공업사","tel":"031-332-2776","addr":"경기도 용인시 처인구 원삼면 두창리 1027-4","indutype":"자동차정비 유지 - 자동차정비","category":"car"}]},{"lat":"37.18583996","long":"127.33106136","imageIndex":0,"items":[{"name":"한국타이어TBK양지점비젼상사","tel":"031-323-0675","addr":"경기도 용인시 처인구 원삼면 맹리698","indutype":"자동차정비 유지 - 자동차시트·타이어","category":"car"}]},{"lat":"37.18425379","long":"127.33442168","imageIndex":0,"items":[{"name":"한남윤활유","tel":"031-333-5188","addr":"경기도 용인시 처인구 원삼면 맹리 690-22번지","indutype":"자동차정비 유지 - 윤활유 전문 판매","category":"car"}]},{"lat":"37.196531447","long":"127.3258927","imageIndex":0,"items":[{"name":"행군자동차공업사","tel":"031-333-7015","addr":"경기도 용인시 처인구 원삼면 맹544-9","indutype":"자동차정비 유지 - 자동차정비","category":"car"}]},{"lat":"37.163170166","long":"127.31423338","imageIndex":0,"items":[{"name":"현대공업사","tel":"031-333-1120","addr":"경기도 용인시 처인구 원삼면 독성리 297-5번지","indutype":"자동차정비 유지 - 세차장","category":"car"}]}]