[{"lat":"37.479012862","long":"126.79393129","imageIndex":7,"items":[{"name":"(한우한돈)꼬마흑돼지","tel":"","addr":"경기도 부천시 소사본동 77-22번지 1층","indutype":"음료식품 - 정육점","category":"food"}]},{"lat":"37.475652179","long":"126.79910708","imageIndex":7,"items":[{"name":"24시무인셀프카페소사점","tel":"032-111-1111","addr":"경기도 부천시 소사본동 424번지 CC스위첸 지층 105호","indutype":"음료식품 - 기타음료식품","category":"food"},{"name":"파리바게뜨 소사스위첸점","tel":"032-341-4310","addr":"경기도 부천시 소사본동 424번지 소새울KCC스위첸","indutype":"음료식품 - 제과점","category":"food"}]},{"lat":"37.478985752","long":"126.79388614","imageIndex":7,"items":[{"name":"갈릴리어부들","tel":"","addr":"경기도 부천시 소사본동 77-23번지","indutype":"음료식품 - 농·축·수산품","category":"food"}]},{"lat":"37.47918391","long":"126.79385167","imageIndex":7,"items":[{"name":"건거니반찬전문점","tel":"032-344-6943","addr":"경기도 부천시 소사본동 77-13번지","indutype":"음료식품 - 기타음료식품","category":"food"}]},{"lat":"37.473570636","long":"126.79896577","imageIndex":7,"items":[{"name":"경기건어물","tel":"032-346-1145","addr":"경기도 부천시 소사본동 198-28번지","indutype":"음료식품 - 농·축·수산품","category":"food"},{"name":"소사불로흑염소","tel":"032-345-8856","addr":"경기도 부천시 소사본동 198-28번지","indutype":"건강식품 - 기타건강식품","category":"food"}]},{"lat":"37.473183112","long":"126.7989103","imageIndex":7,"items":[{"name":"경동야채나물","tel":"032-326-7994","addr":"경기도 부천시 소사본동 199-20번지","indutype":"음료식품 - 농·축·수산품","category":"food"},{"name":"소사유통","tel":"032-349-4567","addr":"경기도 부천시 소사본동 199-20번지 1층","indutype":"음료식품 - 정육점","category":"food"},{"name":"종로복떡집","tel":"032-348-0345","addr":"경기도 부천시 소사본동 199-20번지","indutype":"음료식품 - 제과점","category":"food"}]},{"lat":"37.472209279","long":"126.79332847","imageIndex":7,"items":[{"name":"고니농수산","tel":"031-0000-0000","addr":"경기도 부천시 소사본동 213-5번지 다승프라임 113동 302호","indutype":"음료식품 - 농·축·수산품","category":"food"}]},{"lat":"37.472322732","long":"126.79635779","imageIndex":7,"items":[{"name":"고려건강원","tel":"032-346-3966","addr":"경기도 부천시 소사본동 217번지","indutype":"건강식품 - 기타건강식품","category":"food"}]},{"lat":"37.478625396","long":"126.79390975","imageIndex":7,"items":[{"name":"고려홍삼전문점","tel":"032-341-1901","addr":"경기도 부천시 소사본동 141-26번지 1층","indutype":"건강식품 - 홍삼제품","category":"food"}]},{"lat":"37.473704768","long":"126.79837755","imageIndex":7,"items":[{"name":"고창방앗간","tel":"032-349-2705","addr":"경기도 부천시 소사본동 198-5번지 1층","indutype":"음료식품 - 제과점","category":"food"}]},{"lat":"37.472651624","long":"126.79896826","imageIndex":7,"items":[{"name":"고향떡방앗간","tel":"032-343-8190","addr":"경기도 부천시 소사본동 199-26번지","indutype":"음료식품 - 제과점","category":"food"},{"name":"한우리축산","tel":"","addr":"경기도 부천시 소사본동 199-26번지","indutype":"음료식품 - 정육점","category":"food"}]},{"lat":"37.470879581","long":"126.79546872","imageIndex":7,"items":[{"name":"골드축산","tel":"032-343-1022","addr":"경기도 부천시 소사본동 233-30번지 1층","indutype":"음료식품 - 정육점","category":"food"}]},{"lat":"37.47287364","long":"126.79199266","imageIndex":7,"items":[{"name":"공룡","tel":"","addr":"경기도 부천시 소사본동 211-24번지","indutype":"음료식품 - 농·축·수산품","category":"food"}]},{"lat":"37.474066122","long":"126.79893051","imageIndex":7,"items":[{"name":"과일사랑","tel":"032-349-1007","addr":"경기도 부천시 소사본동 198-16번지","indutype":"음료식품 - 농·축·수산품","category":"food"},{"name":"돈주네쌀집","tel":"032-345-1208","addr":"경기도 부천시 소사본동 198-16번지","indutype":"음료식품 - 미곡상","category":"food"},{"name":"서울방앗간","tel":"032-346-9925","addr":"경기도 부천시 소사본동 198-16번지","indutype":"음료식품 - 제과점","category":"food"},{"name":"유미수산(박용함)","tel":"032-348-3298","addr":"경기도 부천시 소사본동 198-16번지","indutype":"음료식품 - 농·축·수산품","category":"food"}]},{"lat":"37.477122565","long":"126.80013187","imageIndex":7,"items":[{"name":"국가대표정육","tel":"032-342-7809","addr":"경기도 부천시 소사본동 135번지 소사에스케이뷰 상가동 105호","indutype":"음료식품 - 정육점","category":"food"},{"name":"롯데칠성음료 상암점","tel":"02-2635-4874","addr":"경기도 부천시 소사본동 135번지 소사에스케이뷰아파트","indutype":"음료식품 - 기타음료식품","category":"food"},{"name":"세움상회","tel":"031-1111-1111","addr":"경기도 부천시 소사본동 135번지 소사에스케이뷰 상가동 106,107호","indutype":"음료식품 - 농·축·수산품","category":"food"},{"name":"형제건어물","tel":"","addr":"경기도 부천시 소사본동 135번지 소사에스케이뷰아파트","indutype":"음료식품 - 농·축·수산품","category":"food"}]},{"lat":"37.480733613","long":"126.79384735","imageIndex":7,"items":[{"name":"금강","tel":"","addr":"경기도 부천시 소사본동 68-16번지 도담아트빌 상가동","indutype":"음료식품 - 기타음료식품","category":"food"}]},{"lat":"37.475762577","long":"126.79524042","imageIndex":7,"items":[{"name":"금산원주민홍삼","tel":"032-351-0354","addr":"경기도 부천시 소사본동 161-8번지","indutype":"건강식품 - 홍삼제품","category":"food"}]},{"lat":"37.473039051","long":"126.79896721","imageIndex":7,"items":[{"name":"금산흑염소","tel":"032-344-6624","addr":"경기도 부천시 소사본동 199-22번지","indutype":"건강식품 - 기타건강식품","category":"food"},{"name":"한성정육점","tel":"032-346-5651","addr":"경기도 부천시 소사본동 199-22번지 3층","indutype":"음료식품 - 정육점","category":"food"}]},{"lat":"37.480679073","long":"126.79357616","imageIndex":7,"items":[{"name":"김옥중국식품","tel":"","addr":"경기도 부천시 소사본동 68-26번지 에코파인 107호","indutype":"음료식품 - 기타음료식품","category":"food"}]},{"lat":"37.478788353","long":"126.79435022","imageIndex":7,"items":[{"name":"꼬꼬닭집","tel":"032-346-3434","addr":"경기도 부천시 소사본동 78-40 1층점포1칸","indutype":"음료식품 - 정육점","category":"food"},{"name":"소화건강타운","tel":"032-349-8220","addr":"경기도 부천시 소사본동 78-40번지","indutype":"건강식품 - 기타건강식품","category":"food"},{"name":"신정기름집","tel":"032-349-4033","addr":"경기도 부천시 소사본동 78-40번지 1층","indutype":"음료식품 - 기타음료식품","category":"food"}]},{"lat":"37.478761623","long":"126.79451988","imageIndex":7,"items":[{"name":"낙원방아간","tel":"032-349-0300","addr":"경기도 부천시 소사본동 78-41번지","indutype":"음료식품 - 제과점","category":"food"}]},{"lat":"37.479733034","long":"126.7935788","imageIndex":7,"items":[{"name":"남해수산2호점","tel":"032-348-3675","addr":"경기도 부천시 소사본동 77-2번지","indutype":"음료식품 - 농·축·수산품","category":"food"},{"name":"소사청과야채","tel":"","addr":"경기도 부천시 소사본동 77-2번지","indutype":"음료식품 - 농·축·수산품","category":"food"},{"name":"한우촌정육점","tel":"032-342-4242","addr":"경기도 부천시 소사본동 77-2번지","indutype":"음료식품 - 정육점","category":"food"}]},{"lat":"37.476709411","long":"126.79569002","imageIndex":7,"items":[{"name":"노마진아이스크림할인점","tel":"032-348-7172","addr":"경기도 부천시 소사본동 153-25번지 1층 일부","indutype":"음료식품 - 기타음료식품","category":"food"}]},{"lat":"37.478509485","long":"126.79459971","imageIndex":7,"items":[{"name":"농산물공판장","tel":"032-343-4172","addr":"경기도 부천시 소사본동 141-48번지 1층","indutype":"음료식품 - 농·축·수산품","category":"food"}]},{"lat":"37.474879038","long":"126.80010402","imageIndex":7,"items":[{"name":"눈꽃 아이스크림 할인점","tel":"031-827-6649","addr":"경기도 부천시 소사본동 197-3번지 1층","indutype":"음료식품 - 기타음료식품","category":"food"}]},{"lat":"37.477682581","long":"126.79574386","imageIndex":7,"items":[{"name":"다모아토바코 소사점","tel":"032-346-0077","addr":"경기도 부천시 소사본동 139-22번지 107호","indutype":"음료식품 - 기타음료식품","category":"food"},{"name":"배스킨라빈스부천소사점","tel":"032-345-0031","addr":"경기도 부천시 소사본동 139-22번지 1층","indutype":"음료식품 - 제과점","category":"food"}]},{"lat":"37.468960684","long":"126.80079825","imageIndex":7,"items":[{"name":"담따","tel":"","addr":"경기도 부천시 소사본동 400-9번지 신한은행소사지점 1층 102호","indutype":"음료식품 - 농·축·수산품","category":"food"},{"name":"대신정육점","tel":"032-348-6750","addr":"경기도 부천시 소사본동 400-9번지","indutype":"음료식품 - 정육점","category":"food"},{"name":"정담은반찬","tel":"032-349-5959","addr":"경기도 부천시 소사본동 400-9번지 신한은행소사지점 105호","indutype":"음료식품 - 기타음료식품","category":"food"}]},{"lat":"37.478787914","long":"126.7941015","imageIndex":7,"items":[{"name":"대길축산","tel":"032-346-6562","addr":"경기도 부천시 소사본동 77-26번지 1층","indutype":"음료식품 - 정육점","category":"food"},{"name":"향경 건어물","tel":"032-348-0668","addr":"경기도 부천시 소사본동 77-26번지 1층","indutype":"음료식품 - 농·축·수산품","category":"food"}]},{"lat":"37.473155457","long":"126.79854862","imageIndex":7,"items":[{"name":"대명","tel":"","addr":"경기도 부천시 소사본동 199-7번지 1층","indutype":"음료식품 - 농·축·수산품","category":"food"}]},{"lat":"37.479093911","long":"126.79390845","imageIndex":7,"items":[{"name":"대보닭집","tel":"032-344-5858","addr":"경기도 부천시 소사본동 77-21번지","indutype":"음료식품 - 정육점","category":"food"}]},{"lat":"37.472733375","long":"126.79418617","imageIndex":7,"items":[{"name":"대성건어물","tel":"031-344-5927","addr":"경기도 부천시 소사본동 209-20번지 벨라루체 604호","indutype":"음료식품 - 농·축·수산품","category":"food"}]},{"lat":"37.478761822","long":"126.79463293","imageIndex":7,"items":[{"name":"대영종합축산유통","tel":"032-231-2255","addr":"경기도 부천시 소사본동 78-42번지 1층","indutype":"음료식품 - 정육점","category":"food"}]},{"lat":"37.481264957","long":"126.7937102","imageIndex":7,"items":[{"name":"대중청과","tel":"032-1111-1111","addr":"경기도 부천시 소사본동 68-5번지 양지타운 나동 202호","indutype":"음료식품 - 농·축·수산품","category":"food"}]},{"lat":"37.473012391","long":"126.79918207","imageIndex":7,"items":[{"name":"동네유통","tel":"032-345-8732","addr":"경기도 부천시 소사본동 273-7번지","indutype":"음료식품 - 정육점","category":"food"}]},{"lat":"37.473766485","long":"126.79759735","imageIndex":7,"items":[{"name":"동이상사","tel":"032-351-1968","addr":"경기도 부천시 소사본동 194-30번지","indutype":"음료식품 - 기타음료식품","category":"food"}]},{"lat":"37.473960492","long":"126.80037781","imageIndex":7,"items":[{"name":"두리반찬","tel":"032-347-7811","addr":"경기도 부천시 소사본동 277-12번지 한신아파트","indutype":"음료식품 - 기타음료식품","category":"food"},{"name":"부천건어물","tel":"032-345-1757","addr":"경기도 부천시 소사본동 277-12한신연도상가14-1-13","indutype":"음료식품 - 농·축·수산품","category":"food"},{"name":"일등수산","tel":"00-000-0000","addr":"경기도 부천시 소사본동 277-12번지 14동 1층 7,8호","indutype":"음료식품 - 농·축·수산품","category":"food"},{"name":"쿠키월드","tel":"031-1111-1111","addr":"경기도 부천시 소사본동 277-12번지","indutype":"음료식품 - 기타음료식품","category":"food"},{"name":"형제푸줏간","tel":"070-4414-1564","addr":"경기도 부천시 소사본동 277-12번지","indutype":"음료식품 - 정육점","category":"food"}]},{"lat":"37.474879697","long":"126.80048838","imageIndex":7,"items":[{"name":"디셈버 과자점","tel":"032-351-0991","addr":"경기도 부천시 소사본동 244-83번지","indutype":"음료식품 - 제과점","category":"food"}]},{"lat":"37.472460894","long":"126.80335498","imageIndex":7,"items":[{"name":"땅스부대찌개소사범박점","tel":"","addr":"경기도 부천시 소사본동 409-6번지 아크리아III 1층 102호","indutype":"음료식품 - 기타음료식품","category":"food"},{"name":"신앙촌식품대리점","tel":"032-341-1604","addr":"경기도 부천시 소사본동 409-6번지 203호 아크리아III","indutype":"음료식품 - 기타음료식품","category":"food"},{"name":"오렌지돔","tel":"032-345-4445","addr":"경기도 부천시 소사본동 409-6번지 아크리아제3제1층 107호","indutype":"음료식품 - 제과점","category":"food"}]},{"lat":"37.47184757","long":"126.79771564","imageIndex":7,"items":[{"name":"뜨락","tel":"032-0000-0000","addr":"경기도 부천시 소사본동 219-27번지","indutype":"음료식품 - 농·축·수산품","category":"food"}]},{"lat":"37.47912134","long":"126.79413448","imageIndex":7,"items":[{"name":"만물건어물반찬가게","tel":"","addr":"경기도 부천시 소사본동 78-33번지 1층 일부","indutype":"음료식품 - 기타음료식품","category":"food"}]},{"lat":"37.4773794","long":"126.79243222","imageIndex":7,"items":[{"name":"명가누릉지","tel":"032-342-2791","addr":"경기도 부천시 소사본동 147-21번지 근린상가 1층 3호","indutype":"음료식품 - 기타음료식품","category":"food"}]},{"lat":"37.473904002","long":"126.79896486","imageIndex":7,"items":[{"name":"목촌미트빌","tel":"032-342-8934","addr":"경기도 부천시 소사본동 198-17번지","indutype":"음료식품 - 정육점","category":"food"},{"name":"빵내음","tel":"032-344-9990","addr":"경기도 부천시 소사본동 198-17번지","indutype":"음료식품 - 제과점","category":"food"}]},{"lat":"37.472345287","long":"126.7989691","imageIndex":7,"items":[{"name":"무등청과","tel":"032-343-2401","addr":"경기도 부천시 소사본동 220-8번지","indutype":"음료식품 - 농·축·수산품","category":"food"}]},{"lat":"37.472957754","long":"126.80413368","imageIndex":7,"items":[{"name":"민속야채.과일","tel":"032-345-0767","addr":"경기도 부천시 소사본동 409-4번지 제일프라자 1층 103호","indutype":"음료식품 - 농·축·수산품","category":"food"}]},{"lat":"37.479454007","long":"126.79373786","imageIndex":7,"items":[{"name":"반찬마루","tel":"032-346-0732","addr":"경기도 부천시 소사본동 77-7번지 1층","indutype":"음료식품 - 기타음료식품","category":"food"},{"name":"부성상회","tel":"032-346-0732","addr":"경기도 부천시 소사본동 77-7번지","indutype":"음료식품 - 농·축·수산품","category":"food"}]},{"lat":"37.474207409","long":"126.79215849","imageIndex":7,"items":[{"name":"복사골웰빙건강원","tel":"032-343-2888","addr":"경기도 부천시 소사본동 175-17번지 1층","indutype":"건강식품 - 기타건강식품","category":"food"}]},{"lat":"37.473179877","long":"126.79704502","imageIndex":7,"items":[{"name":"부천도매축산","tel":"070-7354-4155","addr":"경기도 부천시 소사본동 201-1번지","indutype":"음료식품 - 정육점","category":"food"}]},{"lat":"37.478294282","long":"126.7951882","imageIndex":7,"items":[{"name":"부천시흥원예농업협동조합 소사역지점","tel":"032-344-2122","addr":"경기도 부천시 소사본동 140-2번지 보경빌딩 1층","indutype":"음료식품 - 미곡상","category":"food"}]},{"lat":"37.472768753","long":"126.79896795","imageIndex":7,"items":[{"name":"부천야채","tel":"032-347-9801","addr":"경기도 부천시 소사본동 199-25번지","indutype":"음료식품 - 농·축·수산품","category":"food"}]},{"lat":"37.469985429","long":"126.79940507","imageIndex":7,"items":[{"name":"비타민하우스J&R","tel":"","addr":"경기도 부천시 소사본동 298-3번지 신진팰리스 302호","indutype":"건강식품 - 기타건강식품","category":"food"}]},{"lat":"37.471987165","long":"126.8002927","imageIndex":7,"items":[{"name":"빈스토어","tel":"070-4141-6166","addr":"경기도 부천시 소사본동 283-27번지","indutype":"음료식품 - 기타음료식품","category":"food"}]},{"lat":"37.479571396","long":"126.79388451","imageIndex":7,"items":[{"name":"빵나라빵마을","tel":"032-345-1677","addr":"경기도 부천시 소사본동 78-12번지","indutype":"음료식품 - 제과점","category":"food"},{"name":"축산물직거래장터","tel":"032-344-1264","addr":"경기도 부천시 소사본동 78-12번지","indutype":"음료식품 - 정육점","category":"food"}]},{"lat":"37.472760075","long":"126.79916015","imageIndex":7,"items":[{"name":"살뜰반찬전문점","tel":"032-346-3839","addr":"경기도 부천시 소사본동 273-5번지 1층","indutype":"음료식품 - 기타음료식품","category":"food"},{"name":"즉석참두부","tel":"","addr":"경기도 부천시 소사본동 273-5번지 1층","indutype":"음료식품 - 기타음료식품","category":"food"}]},{"lat":"37.471736395","long":"126.79596375","imageIndex":7,"items":[{"name":"상호수산","tel":"032-342-5654","addr":"경기도 부천시 소사본동 216-21번지","indutype":"음료식품 - 농·축·수산품","category":"food"}]},{"lat":"37.479209275","long":"126.79804599","imageIndex":7,"items":[{"name":"새바람마켓","tel":"032-342-5429","addr":"경기도 부천시 소사본동 133-12번지 부천소사역푸르지오","indutype":"건강식품 - 기타건강식품","category":"food"},{"name":"착한한우","tel":"032-348-5566","addr":"경기도 부천시 소사본동 133-12번지 117동 A-103,111호","indutype":"음료식품 - 정육점","category":"food"},{"name":"호동이과일야채가게","tel":"070-5121-6771","addr":"경기도 부천시 소사본동 133-12번지 부천소사역푸르지오","indutype":"음료식품 - 농·축·수산품","category":"food"}]},{"lat":"37.471594663","long":"126.79735459","imageIndex":7,"items":[{"name":"서울방앗간","tel":"032-348-1121","addr":"경기도 부천시 소사본동 218-13번지","indutype":"음료식품 - 제과점","category":"food"}]},{"lat":"37.480900213","long":"126.79126914","imageIndex":7,"items":[{"name":"세종구내매점","tel":"032-340-1495","addr":"경기도 부천시 소사본동 91-121번지 세종병원구내매점","indutype":"음료식품 - 기타음료식품","category":"food"}]},{"lat":"37.475268638","long":"126.7961575","imageIndex":7,"items":[{"name":"소사동 과일 야채","tel":"070-7556-1174","addr":"경기도 부천시 소사본동 160-40번지 1층","indutype":"음료식품 - 농·축·수산품","category":"food"},{"name":"소사동 과일.야채","tel":"","addr":"경기도 부천시 소사본동 160-40번지 1층","indutype":"음료식품 - 농·축·수산품","category":"food"}]},{"lat":"37.480571435","long":"126.7938478","imageIndex":7,"items":[{"name":"소사원조건강원","tel":"032-348-4196","addr":"경기도 부천시 소사본동 68-59번지 1층","indutype":"건강식품 - 기타건강식품","category":"food"}]},{"lat":"37.478877913","long":"126.79404472","imageIndex":7,"items":[{"name":"소사육계","tel":"032-347-3428","addr":"경기도 부천시 소사본동 77-25번지","indutype":"음료식품 - 정육점","category":"food"}]},{"lat":"37.467873543","long":"126.8025985","imageIndex":7,"items":[{"name":"소사주공정육점","tel":"032-346-6661","addr":"경기도 부천시 소사본동 401-3번지 소사주공1단지아파트","indutype":"음료식품 - 정육점","category":"food"}]},{"lat":"37.475792971","long":"126.79205229","imageIndex":7,"items":[{"name":"소사중국식품","tel":"","addr":"경기도 부천시 소사본동 167-8번지 1층","indutype":"음료식품 - 기타음료식품","category":"food"}]},{"lat":"37.482151006","long":"126.79038374","imageIndex":7,"items":[{"name":"소새울 약선차 협동조합","tel":"","addr":"경기도 부천시 소사본동 88-4번지","indutype":"음료식품 - 기타음료식품","category":"food"}]},{"lat":"37.472346047","long":"126.79940997","imageIndex":7,"items":[{"name":"순성청과","tel":"032-342-5552","addr":"경기도 부천시 소사본동 286-18번지 1층","indutype":"음료식품 - 농·축·수산품","category":"food"}]},{"lat":"37.479481397","long":"126.79394129","imageIndex":7,"items":[{"name":"숯불상회","tel":"032-344-6532","addr":"경기도 부천시 소사본동 78-13번지 1층","indutype":"음료식품 - 농·축·수산품","category":"food"},{"name":"오병이어","tel":"032-000-0000","addr":"경기도 부천시 소사본동 78-13번지 1층","indutype":"음료식품 - 기타음료식품","category":"food"}]},{"lat":"37.479345848","long":"126.79371555","imageIndex":7,"items":[{"name":"시골즉석손두부","tel":"032-347-8636","addr":"경기도 부천시 소사본동 77-9번지","indutype":"음료식품 - 기타음료식품","category":"food"}]},{"lat":"37.479264859","long":"126.7937723","imageIndex":7,"items":[{"name":"시장떡집","tel":"032-343-1266","addr":"경기도 부천시 소사본동 77-12번지 1층 일부","indutype":"음료식품 - 제과점","category":"food"}]},{"lat":"37.473462517","long":"126.79896606","imageIndex":7,"items":[{"name":"신선반찬","tel":"032-345-5275","addr":"경기도 부천시 소사본동 198-29번지 1층","indutype":"음료식품 - 기타음료식품","category":"food"},{"name":"콩이랑두부랑","tel":"032-342-5367","addr":"경기도 부천시 소사본동 198-29번지 1층","indutype":"음료식품 - 기타음료식품","category":"food"}]},{"lat":"37.467902028","long":"126.79818989","imageIndex":7,"items":[{"name":"신시","tel":"032-344-6260","addr":"경기도 부천시 소사본동 400-3번지 1층 101호","indutype":"음료식품 - 농·축·수산품","category":"food"},{"name":"오리라베이커리","tel":"031-1111-1111","addr":"경기도 부천시 소사본동 400-3번지 116호","indutype":"음료식품 - 제과점","category":"food"}]},{"lat":"37.473211388","long":"126.79963372","imageIndex":7,"items":[{"name":"신앙촌상회","tel":"032-346-6475","addr":"경기도 부천시 소사본동 277-38번지","indutype":"음료식품 - 기타음료식품","category":"food"}]},{"lat":"37.479487194","long":"126.79213236","imageIndex":7,"items":[{"name":"싱싱청과","tel":"","addr":"경기도 부천시 소사본동 113-9번지","indutype":"음료식품 - 농·축·수산품","category":"food"}]},{"lat":"37.471238108","long":"126.79440511","imageIndex":7,"items":[{"name":"쌀집아저씨","tel":"032-667-4723","addr":"경기도 부천시 소사본동 233번지 1층","indutype":"음료식품 - 미곡상","category":"food"}]},{"lat":"37.475601707","long":"126.79598701","imageIndex":7,"items":[{"name":"아름수산","tel":"031-915-1096","addr":"경기도 부천시 소사본동 160-47번지 소사빌라 1층 2호","indutype":"음료식품 - 농·축·수산품","category":"food"}]},{"lat":"37.480264858","long":"126.79371299","imageIndex":7,"items":[{"name":"아빠네정육점","tel":"032-342-8889","addr":"경기도 부천시 소사본동 76-10번지 1층 101호","indutype":"음료식품 - 정육점","category":"food"},{"name":"중국식품","tel":"02-2226-6686","addr":"경기도 부천시 소사본동 76-10번지 1층 102호","indutype":"음료식품 - 기타음료식품","category":"food"}]},{"lat":"37.47092873","long":"126.80307644","imageIndex":7,"items":[{"name":"아이스크림나라","tel":"031-646-1961","addr":"경기도 부천시 소사본동 411-1번지","indutype":"음료식품 - 기타음료식품","category":"food"},{"name":"한방생","tel":"032-348-5276","addr":"경기도 부천시 소사본동 411-1번지 소사주공뜨란채4단지아파트","indutype":"음료식품 - 농·축·수산품","category":"food"}]},{"lat":"37.475682681","long":"126.80113061","imageIndex":7,"items":[{"name":"아크오(AccRo)베이커리","tel":"032-555-5555","addr":"경기도 부천시 소사본동 244-66번지 동문밀리언상가 106호","indutype":"음료식품 - 제과점","category":"food"}]},{"lat":"37.467656037","long":"126.80185303","imageIndex":7,"items":[{"name":"에이민디저트","tel":"02-1111-1111","addr":"경기도 부천시 소사본동 401-13번지 202호 (소사본동트)","indutype":"음료식품 - 기타음료식품","category":"food"}]},{"lat":"37.472876872","long":"126.79896765","imageIndex":7,"items":[{"name":"엘림반찬","tel":"032-344-9677","addr":"경기도 부천시 소사본동 199-24번지","indutype":"음료식품 - 기타음료식품","category":"food"}]},{"lat":"37.473044242","long":"126.79166435","imageIndex":7,"items":[{"name":"영순수산","tel":"","addr":"경기도 부천시 소사본동 185-2번지","indutype":"음료식품 - 농·축·수산품","category":"food"}]},{"lat":"37.475012222","long":"126.79896185","imageIndex":7,"items":[{"name":"영일유통","tel":"","addr":"경기도 부천시 소사본동 196-42번지 1층","indutype":"음료식품 - 기타음료식품","category":"food"}]},{"lat":"37.472874071","long":"126.79735109","imageIndex":7,"items":[{"name":"용성국제무역(주)","tel":"070-4722-8899","addr":"경기도 부천시 소사본동 201-12번지 1층","indutype":"음료식품 - 주류 판매점","category":"food"}]},{"lat":"37.47276027","long":"126.79927319","imageIndex":7,"items":[{"name":"용해수산","tel":"032-346-6019","addr":"경기도 부천시 소사본동 273-3번지 1층","indutype":"음료식품 - 농·축·수산품","category":"food"}]},{"lat":"37.472539108","long":"126.79643633","imageIndex":7,"items":[{"name":"우리고추방앗간","tel":"032-344-5927","addr":"경기도 부천시 소사본동 202-16번지 1층","indutype":"음료식품 - 기타음료식품","category":"food"}]},{"lat":"37.471185124","long":"126.79501569","imageIndex":7,"items":[{"name":"우리농수산","tel":"0000-0000-0000","addr":"경기도 부천시 소사본동 233-33번지 스마트빌 204호","indutype":"음료식품 - 농·축·수산품","category":"food"}]},{"lat":"37.469621963","long":"126.79763129","imageIndex":7,"items":[{"name":"우리상회","tel":"032-349-8894","addr":"경기도 부천시 소사본동 323번지 양우아파트","indutype":"음료식품 - 농·축·수산품","category":"food"},{"name":"참선진 녹즙","tel":"070-7519-8759","addr":"경기도 부천시 소사본동 323번지 양우아파트","indutype":"건강식품 - 기타건강식품","category":"food"}]},{"lat":"37.478904403","long":"126.79373939","imageIndex":7,"items":[{"name":"웰빙건강원","tel":"032-343-3473","addr":"경기도 부천시 소사본동 77-29번지 1층","indutype":"건강식품 - 기타건강식품","category":"food"},{"name":"중국식품가게","tel":"070-4643-5563","addr":"경기도 부천시 소사본동 77-29번지","indutype":"음료식품 - 기타음료식품","category":"food"}]},{"lat":"37.48087482","long":"126.79218499","imageIndex":7,"items":[{"name":"위드미아이스크림할인매장","tel":"070-997-9970","addr":"경기도 부천시 소사본동 93-63번지 1층","indutype":"음료식품 - 기타음료식품","category":"food"}]},{"lat":"37.472543876","long":"126.79918334","imageIndex":7,"items":[{"name":"유미청과","tel":"032-346-8590","addr":"경기도 부천시 소사본동 288-36번지","indutype":"음료식품 - 농·축·수산품","category":"food"}]},{"lat":"37.476821088","long":"126.79260336","imageIndex":7,"items":[{"name":"은정유통","tel":"032-000-0000","addr":"경기도 부천시 소사본동 149-31번지 1층","indutype":"음료식품 - 정육점","category":"food"}]},{"lat":"37.474651825","long":"126.79896283","imageIndex":7,"items":[{"name":"은주네반찬","tel":"","addr":"경기도 부천시 소사본동 196-19번지 1층","indutype":"음료식품 - 기타음료식품","category":"food"}]},{"lat":"37.473183638","long":"126.79921552","imageIndex":7,"items":[{"name":"은혜 청과 야채","tel":"032-345-3028","addr":"경기도 부천시 소사본동 273-8번지","indutype":"음료식품 - 농·축·수산품","category":"food"},{"name":"청명쌀농산","tel":"032-341-9972","addr":"경기도 부천시 소사본동 273-8번지 1층","indutype":"음료식품 - 미곡상","category":"food"},{"name":"한신건강원","tel":"032-347-8179","addr":"경기도 부천시 소사본동 273-8번지 1층","indutype":"건강식품 - 기타건강식품","category":"food"}]},{"lat":"37.472516197","long":"126.79365545","imageIndex":7,"items":[{"name":"이든네이처소사","tel":"031-1111-1111","addr":"경기도 부천시 소사본동 210-49번지","indutype":"건강식품 - 기타건강식품","category":"food"}]},{"lat":"37.471823043","long":"126.79916269","imageIndex":7,"items":[{"name":"이삭유통","tel":"032-342-6225","addr":"경기도 부천시 소사본동 284-18번지 대원주택","indutype":"음료식품 - 미곡상","category":"food"}]},{"lat":"37.48009353","long":"126.79363433","imageIndex":7,"items":[{"name":"이수식품","tel":"032-348-8321","addr":"경기도 부천시 소사본동 76-11번지 지하1층","indutype":"음료식품 - 기타음료식품","category":"food"},{"name":"제일식품","tel":"032-348-8723","addr":"경기도 부천시 소사본동 76-11번지 101호","indutype":"음료식품 - 정육점","category":"food"}]},{"lat":"37.472516475","long":"126.79896863","imageIndex":7,"items":[{"name":"인영종합유통","tel":"032-343-9288","addr":"경기도 부천시 소사본동 199-36번지 1층","indutype":"음료식품 - 농·축·수산품","category":"food"},{"name":"인재건어물","tel":"032-346-8123","addr":"경기도 부천시 소사본동 199-36번지","indutype":"음료식품 - 농·축·수산품","category":"food"}]},{"lat":"37.478571976","long":"126.79427168","imageIndex":7,"items":[{"name":"자연애","tel":"070-4951-4835","addr":"경기도 부천시 소사본동 141-45번지 1층","indutype":"음료식품 - 농·축·수산품","category":"food"}]},{"lat":"37.472904272","long":"126.79918237","imageIndex":7,"items":[{"name":"자연축산","tel":"032-346-7701","addr":"경기도 부천시 소사본동 273-6번지","indutype":"음료식품 - 농·축·수산품","category":"food"}]},{"lat":"37.475235494","long":"126.79781943","imageIndex":7,"items":[{"name":"장수건강흑염소","tel":"032-343-8552","addr":"경기도 부천시 소사본동 158-27번지 1층","indutype":"건강식품 - 기타건강식품","category":"food"}]},{"lat":"37.473705726","long":"126.79893149","imageIndex":7,"items":[{"name":"정원푸드","tel":"032-342-2605","addr":"경기도 부천시 소사본동 198-27번지 1층","indutype":"음료식품 - 농·축·수산품","category":"food"}]},{"lat":"37.473705492","long":"126.79879583","imageIndex":7,"items":[{"name":"제일식품","tel":"032-5785-1247","addr":"경기도 부천시 소사본동 198-26번지 1층","indutype":"음료식품 - 농·축·수산품","category":"food"}]},{"lat":"37.472488958","long":"126.79868609","imageIndex":7,"items":[{"name":"조은건강원","tel":"032-342-2627","addr":"경기도 부천시 소사본동 199-39번지 1층","indutype":"건강식품 - 기타건강식품","category":"food"}]},{"lat":"37.479319298","long":"126.79398696","imageIndex":7,"items":[{"name":"종로방앗간","tel":"","addr":"경기도 부천시 소사본동 78-23번지","indutype":"음료식품 - 제과점","category":"food"}]},{"lat":"37.478874904","long":"126.79234889","imageIndex":7,"items":[{"name":"좋은유통","tel":"02-1544-7602","addr":"경기도 부천시 소사본동 118-30번지","indutype":"음료식품 - 농·축·수산품","category":"food"}]},{"lat":"37.47995792","long":"126.79851879","imageIndex":7,"items":[{"name":"주식회사 아스터젠","tel":"032-341-0326","addr":"경기도 부천시 소사본동 65-12번지 4층","indutype":"건강식품 - 기타건강식품","category":"food"},{"name":"투에프디","tel":"","addr":"경기도 부천시 소사본동 65-12번지 지하층","indutype":"음료식품 - 농·축·수산품","category":"food"}]},{"lat":"37.475010438","long":"126.79280062","imageIndex":7,"items":[{"name":"주식회사 천석","tel":"070-7757-8744","addr":"경기도 부천시 소사본동 176번지 1층","indutype":"음료식품 - 기타음료식품","category":"food"}]},{"lat":"37.479373318","long":"126.7939642","imageIndex":7,"items":[{"name":"주식회사 태영수산","tel":"032-348-5051","addr":"경기도 부천시 소사본동 78-22번지 1층","indutype":"음료식품 - 농·축·수산품","category":"food"}]},{"lat":"37.479570855","long":"126.79357926","imageIndex":7,"items":[{"name":"준광식품","tel":"","addr":"경기도 부천시 소사본동 77-3번지 1층 일부","indutype":"음료식품 - 기타음료식품","category":"food"},{"name":"팔도상회","tel":"032-349-3382","addr":"경기도 부천시 소사본동 77-3번지","indutype":"음료식품 - 미곡상","category":"food"}]},{"lat":"37.478765897","long":"126.79185175","imageIndex":7,"items":[{"name":"중부유통","tel":"031-315-0728","addr":"경기도 부천시 소사본동 118-26번지 1층","indutype":"음료식품 - 농·축·수산품","category":"food"}]},{"lat":"37.469097201","long":"126.79637797","imageIndex":7,"items":[{"name":"지빈이아빠빵집","tel":"032-345-1118","addr":"경기도 부천시 소사본동 317-7번지 1층 일부호","indutype":"음료식품 - 제과점","category":"food"}]},{"lat":"37.475987825","long":"126.7952398","imageIndex":7,"items":[{"name":"진생월드","tel":"032-349-1001","addr":"경기도 부천시 소사본동 161-6번지 1층","indutype":"건강식품 - 기타건강식품","category":"food"}]},{"lat":"37.474683371","long":"126.8015968","imageIndex":7,"items":[{"name":"진푸드","tel":"032-462-2888","addr":"경기도 부천시 소사본동 265-13번지","indutype":"음료식품 - 정육점","category":"food"}]},{"lat":"37.48003921","long":"126.7934875","imageIndex":7,"items":[{"name":"짱순네","tel":"070-7369-7311","addr":"경기도 부천시 소사본동 76-12번지","indutype":"음료식품 - 농·축·수산품","category":"food"}]},{"lat":"37.470124391","long":"126.79640906","imageIndex":7,"items":[{"name":"착한담배 소사점","tel":"","addr":"경기도 부천시 소사본동 229번지","indutype":"음료식품 - 기타음료식품","category":"food"}]},{"lat":"37.471236227","long":"126.79848602","imageIndex":7,"items":[{"name":"참맛식품","tel":"032-341-6754","addr":"경기도 부천시 소사본동 221-1번지 6동 3호","indutype":"음료식품 - 기타음료식품","category":"food"}]},{"lat":"37.47274001","long":"126.80324119","imageIndex":7,"items":[{"name":"참조은 착한정육점","tel":"032-346-3111","addr":"경기도 부천시 소사본동 409-1번지 107호","indutype":"음료식품 - 정육점","category":"food"}]},{"lat":"37.476321251","long":"126.79527279","imageIndex":7,"items":[{"name":"천연수제담뱃잎","tel":"032-344-8141","addr":"경기도 부천시 소사본동 152-20번지","indutype":"음료식품 - 기타음료식품","category":"food"}]},{"lat":"37.473345388","long":"126.79896638","imageIndex":7,"items":[{"name":"초원기름고추","tel":"032-343-5503","addr":"경기도 부천시 소사본동 198-39번지 1층","indutype":"음료식품 - 기타음료식품","category":"food"},{"name":"한일정육점","tel":"032-346-3496","addr":"경기도 부천시 소사본동 198-39번지 1층","indutype":"음료식품 - 정육점","category":"food"}]},{"lat":"37.474732915","long":"126.79896261","imageIndex":7,"items":[{"name":"탁씨네떡방앗간","tel":"032-343-3010","addr":"경기도 부천시 소사본동 196-9번지","indutype":"음료식품 - 제과점","category":"food"}]},{"lat":"37.479814803","long":"126.79396297","imageIndex":7,"items":[{"name":"태호축산","tel":"032-342-7778","addr":"경기도 부천시 소사본동 78-1번지 중앙리치빌 102호","indutype":"음료식품 - 정육점","category":"food"}]},{"lat":"37.473101494","long":"126.8038846","imageIndex":7,"items":[{"name":"파리바게뜨(소사주공점)","tel":"032-349-8200","addr":"경기도 부천시 소사본동 409-3번지 센트럴프라자 1층 105호","indutype":"음료식품 - 제과점","category":"food"}]},{"lat":"37.467793478","long":"126.7979415","imageIndex":7,"items":[{"name":"파리바게뜨복사골점","tel":"032-346-8204","addr":"경기도 부천시 소사본동 400-2번지 복사골 상가 1층 102호","indutype":"음료식품 - 제과점","category":"food"}]},{"lat":"37.481065175","long":"126.7928289","imageIndex":7,"items":[{"name":"파리바게뜨소사삼거리점","tel":"032-345-6963","addr":"경기도 부천시 소사본동 96-1번지 소사빌딩 1층 1호","indutype":"음료식품 - 제과점","category":"food"}]},{"lat":"37.47562937","long":"126.79634869","imageIndex":7,"items":[{"name":"하은유통","tel":"032-9082-8001","addr":"경기도 부천시 소사본동 160-23번지 1층 101호","indutype":"음료식품 - 농·축·수산품","category":"food"}]},{"lat":"37.476126473","long":"126.79724044","imageIndex":7,"items":[{"name":"한국계란거래소","tel":"02-2060-3889","addr":"경기도 부천시 소사본동 159-29번지","indutype":"음료식품 - 농·축·수산품","category":"food"}]},{"lat":"37.469483222","long":"126.79557431","imageIndex":7,"items":[{"name":"한별유통","tel":"032-344-2213","addr":"경기도 부천시 소사본동 317-54번지","indutype":"음료식품 - 기타음료식품","category":"food"}]},{"lat":"37.472039554","long":"126.79932037","imageIndex":7,"items":[{"name":"한샘무역상사","tel":"032-345-2054","addr":"경기도 부천시 소사본동 286-6번지 성화빌라","indutype":"음료식품 - 기타음료식품","category":"food"}]},{"lat":"37.474264399","long":"126.79896388","imageIndex":7,"items":[{"name":"한신야채","tel":"032-346-3340","addr":"경기도 부천시 소사본동 196-34번지","indutype":"음료식품 - 농·축·수산품","category":"food"}]},{"lat":"37.471794666","long":"126.79838276","imageIndex":7,"items":[{"name":"현대방앗간","tel":"032-341-2690","addr":"경기도 부천시 소사본동 220-41번지","indutype":"음료식품 - 제과점","category":"food"}]},{"lat":"37.481128581","long":"126.79815381","imageIndex":7,"items":[{"name":"홍석식품","tel":"032-345-7066","addr":"경기도 부천시 소사본동 65-16번지 103호","indutype":"음료식품 - 기타음료식품","category":"food"}]},{"lat":"37.479013321","long":"126.79419131","imageIndex":7,"items":[{"name":"화순상회","tel":"032-349-0348","addr":"경기도 부천시 소사본동 78-34번지","indutype":"음료식품 - 기타음료식품","category":"food"}]},{"lat":"37.472650647","long":"126.79840303","imageIndex":7,"items":[{"name":"화신정육점","tel":"032-348-4881","addr":"경기도 부천시 소사본동 199-30번지","indutype":"음료식품 - 정육점","category":"food"}]},{"lat":"37.470627482","long":"126.79557115","imageIndex":7,"items":[{"name":"횡성한우타운정육유통센타","tel":"032-341-7774","addr":"경기도 부천시 소사본동 231-4번지","indutype":"음료식품 - 정육점","category":"food"}]},{"lat":"37.472317437","long":"126.79849438","imageIndex":7,"items":[{"name":"훈인네가족들","tel":"","addr":"경기도 부천시 소사본동 220-1번지","indutype":"음료식품 - 농·축·수산품","category":"food"}]},{"lat":"37.475011988","long":"126.79882619","imageIndex":7,"items":[{"name":"힐링하러와바","tel":"032-000-0000","addr":"경기도 부천시 소사본동 196-7번지 2층","indutype":"건강식품 - 기타건강식품","category":"food"}]}]