[{"lat":"37.022937898","long":"127.11130333","imageIndex":0,"items":[{"name":"노블","tel":"031-666-6353","addr":"경기도 평택시 칠원동 249-2번지","indutype":"자동차판매 - 기타운송","category":"car"}]},{"lat":"37.030489052","long":"127.10067091","imageIndex":0,"items":[{"name":"동광자동차공업사","tel":"031-666-5182","addr":"경기도 평택시 칠원동 38-6번지","indutype":"자동차정비 유지 - 자동차정비","category":"car"},{"name":"쌍용모터스","tel":"031-668-0858","addr":"경기도 평택시 칠원동 38-6번지","indutype":"자동차정비 유지 - 자동차부품","category":"car"}]},{"lat":"37.032824147","long":"127.09903299","imageIndex":0,"items":[{"name":"때빼고광내고","tel":"031-611-7412","addr":"경기도 평택시 칠원동 76-1번지","indutype":"자동차정비 유지 - 세차장","category":"car"}]},{"lat":"37.021934268","long":"127.10503136","imageIndex":0,"items":[{"name":"모빌원","tel":"031-667-2946","addr":"경기도 평택시 칠원동 440번지","indutype":"자동차정비 유지 - 자동차정비","category":"car"}]},{"lat":"37.028967165","long":"127.09955634","imageIndex":0,"items":[{"name":"상일자동차서비스","tel":"031-656-5140","addr":"경기도 평택시 칠원동 85-1외1필지 (85-9)","indutype":"자동차정비 유지 - 자동차정비","category":"car"}]},{"lat":"37.032237779","long":"127.09986394","imageIndex":0,"items":[{"name":"셀세모칠원점","tel":"031-611-5500","addr":"경기도 평택시 칠원동 78-2번지","indutype":"자동차정비 유지 - 세차장","category":"car"}]},{"lat":"37.028877214","long":"127.09936517","imageIndex":0,"items":[{"name":"주안자동차서비스","tel":"031-666-5843","addr":"경기도 평택시 칠원동 85-9번지 세양빌딩 101호","indutype":"자동차정비 유지 - 자동차정비","category":"car"},{"name":"주안자동차서비스","tel":"","addr":"경기도 평택시 칠원동 85-9번지","indutype":"서비스업 - 자동차정비","category":"car"}]},{"lat":"37.028823442","long":"127.09900547","imageIndex":0,"items":[{"name":"평택자동차검사소","tel":"031-663-9119","addr":"경기도 평택시 칠원동 85-5번지","indutype":"자동차정비 유지 - 자동차정비","category":"car"},{"name":"평택자동차검사소","tel":"031-663-9119","addr":"경기도 평택시 칠원동 85-5번지","indutype":"자동차정비 유지 - 자동차정비","category":"car"},{"name":"피애이코리아(주) 평택자동차검사소","tel":"031-663-9119","addr":"경기도 평택시 칠원동 85-5번지","indutype":"자동차정비 유지 - 가타자동차서비스","category":"car"}]}]