[{"lat":"37.049484906","long":"127.07319829","imageIndex":4,"items":[{"name":"㈜담쟁이","tel":"031-611-8831","addr":"경기도 평택시 가재동 378-2번지","indutype":"음식점 - 커피","category":"restaurant"}]},{"lat":"37.040735318","long":"127.08742047","imageIndex":4,"items":[{"name":"고기쟁이정육식당","tel":"031-666-7959","addr":"경기도 평택시 가재동 104-2번지 1층","indutype":"일반휴게음식 - 일반한식","category":"restaurant"},{"name":"별난돼지김치찌개","tel":"031-611-7293","addr":"경기도 평택시 가재동 104-2번지","indutype":"음식점 - 한식","category":"restaurant"},{"name":"별난돼지김치찌개","tel":"031-662-2437","addr":"경기도 평택시 가재동 104-2번지 주건축물제 1동 1층","indutype":"일반휴게음식 - 일반한식","category":"restaurant"}]},{"lat":"37.039520214","long":"127.08553078","imageIndex":4,"items":[{"name":"드림식당","tel":"031-667-1142","addr":"경기도 평택시 가재동 138-6번지 동원빌딩","indutype":"일반휴게음식 - 일반한식","category":"restaurant"},{"name":"봄날o'da","tel":"","addr":"경기도 평택시 가재동 138-6번지 동원빌딩 108호","indutype":"일반휴게음식 - 서양음식","category":"restaurant"},{"name":"양지뜸구이","tel":"031-611-4386","addr":"경기도 평택시 가재동 138-6번지","indutype":"일반휴게음식 - 일반한식","category":"restaurant"},{"name":"양지뜸구이","tel":"1577-1569","addr":"경기도 평택시 가재동 138-6번지","indutype":"음식점 - 한식","category":"restaurant"}]},{"lat":"37.038763282","long":"127.08558616","imageIndex":4,"items":[{"name":"또또와","tel":"031-611-1514","addr":"경기도 평택시 가재동 141-1번지","indutype":"일반휴게음식 - 일반한식","category":"restaurant"},{"name":"얼큰뼈해장국","tel":"031-666-2166","addr":"경기도 평택시 가재동 141-1번지 102호","indutype":"일반휴게음식 - 일반한식","category":"restaurant"},{"name":"우림가마솥보리밥","tel":"031-663-3692","addr":"경기도 평택시 가재동 141-1 외1필지","indutype":"일반휴게음식 - 일반한식","category":"restaurant"}]},{"lat":"37.037294877","long":"127.0851125","imageIndex":4,"items":[{"name":"마당집","tel":"031-664-3363","addr":"경기도 평택시 가재동 145번지 A동 1층","indutype":"일반휴게음식 - 일반한식","category":"restaurant"}]},{"lat":"37.039825596","long":"127.08692489","imageIndex":4,"items":[{"name":"무봉리토종순대국","tel":"031-655-1825","addr":"경기도 평택시 가재동 187-1번지","indutype":"음식점 - 한식","category":"restaurant"},{"name":"무봉리토종순대국(공단점)","tel":"031-611-8554","addr":"경기도 평택시 가재동 187-1번지","indutype":"일반휴게음식 - 일반한식","category":"restaurant"}]},{"lat":"37.03843006","long":"127.08533852","imageIndex":4,"items":[{"name":"봉산칼국수","tel":"031-665-6777","addr":"경기도 평택시 가재동 143번지","indutype":"일반휴게음식 - 일반한식","category":"restaurant"},{"name":"열매떡143","tel":"031-651-7002","addr":"경기도 평택시 가재동 143번지","indutype":"일반휴게음식 - 스넥","category":"restaurant"}]},{"lat":"37.039069408","long":"127.08592369","imageIndex":4,"items":[{"name":"사쿠사쿠치킨가재우림점","tel":"031-667-8293","addr":"경기도 평택시 가재동 138-23번지","indutype":"일반휴게음식 - 주점","category":"restaurant"}]},{"lat":"37.042461485","long":"127.09269421","imageIndex":4,"items":[{"name":"새말해장국","tel":"031-665-5929","addr":"경기도 평택시 가재동 82-6번지","indutype":"일반휴게음식 - 일반한식","category":"restaurant"}]},{"lat":"37.041318899","long":"127.09033238","imageIndex":4,"items":[{"name":"양평해장국","tel":"","addr":"경기도 평택시 가재동 75-1번지 1층","indutype":"일반휴게음식 - 일반한식","category":"restaurant"}]},{"lat":"37.04460186","long":"127.08603089","imageIndex":4,"items":[{"name":"엄마손맛집","tel":"031-611-8892","addr":"경기도 평택시 가재동 283-1번지","indutype":"일반휴게음식 - 일반한식","category":"restaurant"}]},{"lat":"37.041373368","long":"127.08978167","imageIndex":4,"items":[{"name":"영주네","tel":"031-666-1002","addr":"경기도 평택시 가재동 220-2번지","indutype":"음식점 - 한식","category":"restaurant"},{"name":"영주네","tel":"031-667-5665","addr":"경기도 평택시 가재동 220-2번지 가동,나동","indutype":"일반휴게음식 - 일반한식","category":"restaurant"},{"name":"쫑구항아리짬뽕","tel":"031-611-8554","addr":"경기도 평택시 가재동 220-2번지","indutype":"음식점 - 중식","category":"restaurant"},{"name":"쫑구항아리짬뽕-평택점","tel":"031-666-8758","addr":"경기도 평택시 가재동 220-2번지 가동","indutype":"일반휴게음식 - 중국식","category":"restaurant"}]},{"lat":"37.047655579","long":"127.08728201","imageIndex":4,"items":[{"name":"옛날김치찌개","tel":"031-667-8955","addr":"경기도 평택시 가재동 314번지","indutype":"일반휴게음식 - 일반한식","category":"restaurant"},{"name":"옛날김치찌개","tel":"031-662-2437","addr":"경기도 평택시 가재동 314번지","indutype":"음식점 - 한식","category":"restaurant"}]},{"lat":"37.040401289","long":"127.08830808","imageIndex":4,"items":[{"name":"온달해물국","tel":"031-662-8030","addr":"경기도 평택시 가재동 106번지","indutype":"일반휴게음식 - 일반한식","category":"restaurant"}]},{"lat":"37.045404111","long":"127.09764372","imageIndex":4,"items":[{"name":"용궁손짜장","tel":"031-666-7575","addr":"경기도 평택시 가재동 11번지","indutype":"일반휴게음식 - 중국식","category":"restaurant"},{"name":"용궁손짜장","tel":"031-663-9102","addr":"경기도 평택시 가재동 11번지","indutype":"음식점 - 중식","category":"restaurant"}]},{"lat":"37.047402225","long":"127.08875434","imageIndex":4,"items":[{"name":"우각정원","tel":"031-611-7861","addr":"경기도 평택시 가재동 308-5번지","indutype":"음식점 - 한식","category":"restaurant"}]},{"lat":"37.045764563","long":"127.09761045","imageIndex":4,"items":[{"name":"전주김가네콩나물국밥","tel":"031-611-9589","addr":"경기도 평택시 가재동 11-1번지 외1필지","indutype":"일반휴게음식 - 일반한식","category":"restaurant"}]},{"lat":"37.042929637","long":"127.09322308","imageIndex":4,"items":[{"name":"정다운밥상","tel":"031-666-5536","addr":"경기도 평택시 가재동 84번지","indutype":"일반휴게음식 - 일반한식","category":"restaurant"}]},{"lat":"37.04624276","long":"127.09681292","imageIndex":4,"items":[{"name":"제주식당","tel":"031-665-6114","addr":"경기도 평택시 가재동 4-2번지 외2필지","indutype":"일반휴게음식 - 일반한식","category":"restaurant"}]},{"lat":"37.039214009","long":"127.08530565","imageIndex":4,"items":[{"name":"치킨사랑","tel":"031-666-9279","addr":"경기도 평택시 가재동 138-35번지","indutype":"일반휴게음식 - 스넥","category":"restaurant"}]},{"lat":"37.041512901","long":"127.08358834","imageIndex":4,"items":[{"name":"카페래요","tel":"031-000-0000","addr":"경기도 평택시 가재동 181-42번지 101호","indutype":"일반휴게음식 - 서양음식","category":"restaurant"}]},{"lat":"37.040045236","long":"127.08200192","imageIndex":4,"items":[{"name":"포석정","tel":"031-668-6787","addr":"경기도 평택시 가재동 152번지","indutype":"일반휴게음식 - 일반한식","category":"restaurant"}]}]