[{"lat":"37.900306465","long":"127.3055676","imageIndex":17,"items":[{"name":"(주)산정투어","tel":"02-3394-6620","addr":"경기도 포천시 화현면 화현리 750-7번지","indutype":"여행 - 관광여행","category":"other"}]},{"lat":"37.897443274","long":"127.30134924","imageIndex":17,"items":[{"name":"대동철물","tel":"031-531-3335","addr":"경기도 포천시 화현면 화현리 796-9번지","indutype":"기타 - 기계공구","category":"other"}]},{"lat":"37.909277855","long":"127.30628662","imageIndex":17,"items":[{"name":"도영유통","tel":"031-534-3944","addr":"경기도 포천시 화현면 화현리 367-11번지","indutype":"의류 - 정장","category":"other"}]},{"lat":"37.914493848","long":"127.31673608","imageIndex":17,"items":[{"name":"미르불교용품","tel":"031-533-8816","addr":"경기도 포천시 화현면 화현리 10-1번지","indutype":"신변잡화 - 기념품점","category":"other"},{"name":"미르용품점","tel":"031-533-8816","addr":"경기도 포천시 화현면 화현리 10-1번지","indutype":"신변잡화 - 기념품점","category":"other"}]},{"lat":"37.908775935","long":"127.30876344","imageIndex":17,"items":[{"name":"미모사건축","tel":"","addr":"경기도 포천시 화현면 화현리 463-7번지","indutype":"용역 서비스 - 기타용역서비스","category":"other"}]},{"lat":"37.884307728","long":"127.30487691","imageIndex":17,"items":[{"name":"사랑으로","tel":"533-9355","addr":"경기도 포천시 화현면 화현리 1153-1번지","indutype":"소매업 - 잡화","category":"other"}]},{"lat":"37.91935901","long":"127.30984218","imageIndex":17,"items":[{"name":"세븐일레븐포천운악산점","tel":"","addr":"경기도 포천시 화현면 화현리 106-8번지","indutype":"유통업 영리 - 편 의 점","category":"other"}]},{"lat":"37.898189998","long":"127.30176155","imageIndex":17,"items":[{"name":"아띠마트","tel":"534-5097","addr":"경기도 포천시 화현면 화현리 795-39번지","indutype":"소매업 - 잡화","category":"other"}]},{"lat":"37.903724805","long":"127.31446177","imageIndex":17,"items":[{"name":"아이교육사","tel":"031-556-8740","addr":"경기도 포천시 화현면 화현리 717번지 (화현리717, 산99)","indutype":"서적문구 - 기타서적문구","category":"other"}]},{"lat":"37.894719976","long":"127.30585169","imageIndex":17,"items":[{"name":"아이에프에이캠프운악(주)","tel":"02-6206-3211","addr":"경기도 포천시 화현면 화현리 1090-1번지","indutype":"용역 서비스 - 종합용역","category":"other"}]},{"lat":"37.907355207","long":"127.30420923","imageIndex":17,"items":[{"name":"제일프레임","tel":"031-538-1108","addr":"경기도 포천시 화현면 화현리 542-1","indutype":"기타 - 기타 전문점","category":"other"}]},{"lat":"37.910389463","long":"127.30842898","imageIndex":17,"items":[{"name":"화현마트","tel":"534-0117","addr":"경기도 포천시 화현면 화현리 458번지","indutype":"도소매 - 잡화","category":"other"}]},{"lat":"37.897750854","long":"127.30085023","imageIndex":17,"items":[{"name":"화현상회","tel":"031-532-9860","addr":"경기도 포천시 화현면 화현리 810-32","indutype":"회원제형태 - 기타4","category":"other"}]}]