[{"lat":"37.541986356","long":"127.22000801","imageIndex":7,"items":[{"name":"(주)가현유통","tel":"031-795-9339","addr":"경기도 하남시 신장동 95-4번지","indutype":"유통업 영리 - 슈퍼마켓","category":"mart"}]},{"lat":"37.539040918","long":"127.21461368","imageIndex":7,"items":[{"name":"(주)칸몰하남시청어울림터점","tel":"031-790-6534","addr":"경기도 하남시 신장동 520번지 하남시청","indutype":"유통업 영리 - 슈퍼마켓","category":"mart"}]},{"lat":"37.54395722","long":"127.21127822","imageIndex":7,"items":[{"name":"고마트(까사팰리스현안점)","tel":"031-764-7861","addr":"경기도 하남시 신장동 584-1번지 101-A호","indutype":"유통업 영리 - 슈퍼마켓","category":"mart"}]},{"lat":"37.536511182","long":"127.20836104","imageIndex":7,"items":[{"name":"광주축협하남지소","tel":"031-792-7198","addr":"경기도 하남시 신장동 434-5번지","indutype":"유통업 영리 - 슈퍼마켓","category":"mart"},{"name":"진로식자재마트","tel":"031-795-5700","addr":"경기도 하남시 신장동 434-5번지","indutype":"유통업 영리 - 슈퍼마켓","category":"mart"}]},{"lat":"37.538707108","long":"127.20978139","imageIndex":7,"items":[{"name":"대우마트","tel":"031-791-2399","addr":"경기도 하남시 신장동 446-11번지","indutype":"유통업 영리 - 슈퍼마켓","category":"mart"}]},{"lat":"37.541765514","long":"127.21258467","imageIndex":7,"items":[{"name":"동아수퍼","tel":"032-777-1408","addr":"경기도 하남시 신장동 384-1번지","indutype":"유통업 영리 - 슈퍼마켓","category":"mart"}]},{"lat":"37.540676618","long":"127.20669786","imageIndex":7,"items":[{"name":"땡백화점","tel":"031-795-5869","addr":"경기도 하남시 신장동 415-44번지 외1필지신장동주차빌딩 104호","indutype":"유통업 영리 - 슈퍼마켓","category":"mart"},{"name":"봉구네 그린 마트","tel":"031-792-4300","addr":"경기도 하남시 신장동 415-44번지 신장동주차빌딩 1층","indutype":"유통업 영리 - 슈퍼마켓","category":"mart"},{"name":"주식회사 세계로마트","tel":"031-794-0623","addr":"경기도 하남시 신장동 415-44번지 1층","indutype":"유통업 영리 - 슈퍼마켓","category":"mart"}]},{"lat":"37.538622454","long":"127.21180647","imageIndex":7,"items":[{"name":"로그인하남점","tel":"031-795-7221","addr":"경기도 하남시 신장동 455-27번지","indutype":"유통업 영리 - 슈퍼마켓","category":"mart"}]},{"lat":"37.547038393","long":"127.21138864","imageIndex":7,"items":[{"name":"로또마트","tel":"031-794-4577","addr":"경기도 하남시 신장동 315-2번지","indutype":"유통업 영리 - 슈퍼마켓","category":"mart"}]},{"lat":"37.552624086","long":"127.21161922","imageIndex":7,"items":[{"name":"미사마트","tel":"031-794-9066","addr":"경기도 하남시 신장동 287-6번지","indutype":"유통업 영리 - 슈퍼마켓","category":"mart"}]},{"lat":"37.536850823","long":"127.21500349","imageIndex":7,"items":[{"name":"선희마트","tel":"031-794-9116","addr":"경기도 하남시 신장동 530-7번지","indutype":"유통업 영리 - 슈퍼마켓","category":"mart"}]},{"lat":"37.538208865","long":"127.20614805","imageIndex":7,"items":[{"name":"성풍슈퍼","tel":"031-791-8095","addr":"경기도 하남시 신장동 427-462번지","indutype":"유통업 영리 - 슈퍼마켓","category":"mart"}]},{"lat":"37.539904315","long":"127.21547605","imageIndex":7,"items":[{"name":"수협바다마트신장점","tel":"031-794-6114","addr":"경기도 하남시 신장동 525번지","indutype":"유통업 영리 - 슈퍼마켓","category":"mart"},{"name":"수협바다마트신장점","tel":"031-794-6114","addr":"경기도 하남시 신장동 525번지","indutype":"유통업 영리 - 슈퍼마켓","category":"mart"}]},{"lat":"37.54167762","long":"127.21133977","imageIndex":7,"items":[{"name":"에코마트","tel":"031-794-4553","addr":"경기도 하남시 신장동 381-31번지","indutype":"유통업 영리 - 슈퍼마켓","category":"mart"}]},{"lat":"37.539791581","long":"127.20789482","imageIndex":7,"items":[{"name":"우정슈퍼","tel":"031-791-1528","addr":"경기도 하남시 신장동 427-385번지","indutype":"유통업 영리 - 슈퍼마켓","category":"mart"}]},{"lat":"37.540876607","long":"127.22084209","imageIndex":7,"items":[{"name":"팔당생명살림소비자생활협동조합 하남점","tel":"031-791-5085","addr":"경기도 하남시 신장동 105-4번지 하남프라자 104호","indutype":"유통업 영리 - 슈퍼마켓","category":"mart"}]},{"lat":"37.545123651","long":"127.21400852","imageIndex":7,"items":[{"name":"프라임 홈마트","tel":"031-791-2087","addr":"경기도 하남시 신장동 227-1번지 114,115호","indutype":"유통업 영리 - 슈퍼마켓","category":"mart"}]},{"lat":"37.539510444","long":"127.21902776","imageIndex":7,"items":[{"name":"한강슈퍼","tel":"031-795-1611","addr":"경기도 하남시 신장동 528현대(아)21호","indutype":"유통업 영리 - 슈퍼마켓","category":"mart"},{"name":"현대그린마트","tel":"031-794-1110","addr":"경기도 하남시 신장동 528","indutype":"유통업 영리 - 슈퍼마켓","category":"mart"}]},{"lat":"37.539431771","long":"127.21770371","imageIndex":7,"items":[{"name":"한신백송슈퍼","tel":"031-0000-0000","addr":"경기도 하남시 신장동 528-5한신백송상가1층","indutype":"유통업 영리 - 슈퍼마켓","category":"mart"}]},{"lat":"37.535732439","long":"127.2105878","imageIndex":7,"items":[{"name":"행복디씨(D.C)마트","tel":"031-791-3438","addr":"경기도 하남시 신장동 475-30번지","indutype":"유통업 영리 - 슈퍼마켓","category":"mart"}]},{"lat":"37.541011665","long":"127.21595442","imageIndex":7,"items":[{"name":"현대쇼핑","tel":"031-792-5885","addr":"경기도 하남시 신장동 523-1번지 현대베스코아빌딩 지하 115호","indutype":"유통업 영리 - 슈퍼마켓","category":"mart"}]}]