[{"lat":"37.002325327","long":"127.24351716","imageIndex":17,"items":[{"name":"(주)쌍용환경산업","tel":"031-671-3062","addr":"경기도 안성시 옥산동 424-3번지","indutype":"기타 - 기타 전문점","category":"other"}]},{"lat":"37.006827296","long":"127.25384535","imageIndex":17,"items":[{"name":"GS25안성광신점","tel":"","addr":"경기도 안성시 옥산동 557번지 광신프로그레스상가동 109동 117호 116,117호","indutype":"유통업 영리 - 편 의 점","category":"other"}]},{"lat":"37.012636872","long":"127.25065091","imageIndex":17,"items":[{"name":"광명철물","tel":"031-674-3409","addr":"경기도 안성시 옥산동 20-3번지 평화빌라 가동 203호","indutype":"건축자재 - 목재·석재·철물","category":"other"},{"name":"국제공구백화점","tel":"031-674-7735","addr":"경기도 안성시 옥산동 20-3번지 평화빌라 가동 103호","indutype":"건축자재 - 목재·석재·철물","category":"other"}]},{"lat":"37.012024369","long":"127.24618821","imageIndex":17,"items":[{"name":"드림전기(DREAM ELECTRIC)","tel":"031-674-1455","addr":"경기도 안성시 옥산동 60-4번지","indutype":"전기제품 - 기타전기제품","category":"other"},{"name":"현대건축자재상사","tel":"031-672-7644","addr":"경기도 안성시 옥산동 60-4번지","indutype":"건축자재 - 기타건축자재","category":"other"}]},{"lat":"37.007138997","long":"127.25557662","imageIndex":17,"items":[{"name":"라임마크라메공방","tel":"","addr":"경기도 안성시 옥산동 560번지 시티프라디움 108동 1101호","indutype":"문화.취미 - 문화취미기타","category":"other"},{"name":"보리(VORY)","tel":"","addr":"경기도 안성시 옥산동 560번지 시티프라디움 상가 2동 1층 113호","indutype":"의류 - 정장","category":"other"},{"name":"씨유안성프라디움점","tel":"080-080-3663","addr":"경기도 안성시 옥산동 560번지 시티프라디움 상가 1동 111호","indutype":"유통업 영리 - 편 의 점","category":"other"},{"name":"크린토피아 코인워시 (안성아양시티점)","tel":"031-676-8939","addr":"경기도 안성시 옥산동 560번지 시티프라디움 상가 1동 108호","indutype":"수리서비스 - 세탁소","category":"other"}]},{"lat":"37.010632504","long":"127.24823993","imageIndex":17,"items":[{"name":"세연테크","tel":"031-672-7935","addr":"경기도 안성시 옥산동 57번지","indutype":"기타 - 기계공구","category":"other"}]},{"lat":"37.011471164","long":"127.25224264","imageIndex":17,"items":[{"name":"씨유안성옥산점","tel":"031-672-6791","addr":"경기도 안성시 옥산동 525-5","indutype":"유통업 영리 - 편 의 점","category":"other"}]},{"lat":"37.004270046","long":"127.2442985","imageIndex":17,"items":[{"name":"안성유리","tel":"031-674-3007","addr":"경기도 안성시 옥산동 238-5번지","indutype":"건축자재 - 유리","category":"other"}]},{"lat":"37.01210893","long":"127.24449183","imageIndex":17,"items":[{"name":"한성에코넷경기동부","tel":"031-674-8363","addr":"경기도 안성시 옥산동 79-4번지","indutype":"농업 - 농기계","category":"other"}]},{"lat":"37.011908886","long":"127.24537884","imageIndex":17,"items":[{"name":"한울종합상사","tel":"070-4236-3757","addr":"경기도 안성시 옥산동 76-2번지","indutype":"건축자재 - 기타건축자재","category":"other"}]},{"lat":"37.012109661","long":"127.24413228","imageIndex":17,"items":[{"name":"환화농자재건재","tel":"031-671-0718","addr":"경기도 안성시 옥산동 79-6번지","indutype":"건축자재 - 기타건축자재","category":"other"}]},{"lat":"37.0119125","long":"127.24360356","imageIndex":13,"items":[{"name":"골프존파크 안성중앙점","tel":"031-673-0755","addr":"경기도 안성시 옥산동 80-7번지","indutype":"레저업소 - 스크린골프","category":"leisure"}]},{"lat":"37.007138997","long":"127.25557662","imageIndex":4,"items":[{"name":"노랑통닭 안성아양점","tel":"031-672-7759","addr":"경기도 안성시 옥산동 560번지 시티프라디움 104호","indutype":"일반휴게음식 - 일반한식","category":"restaurant"},{"name":"다이꼬지 안성점","tel":"","addr":"경기도 안성시 옥산동 560번지 상가 2동 1층 118호","indutype":"일반휴게음식 - 일식·회집","category":"restaurant"},{"name":"얌샘김밥 안성옥산점","tel":"031-674-2535","addr":"경기도 안성시 옥산동 560번지 상가1동 110호","indutype":"일반휴게음식 - 스넥","category":"restaurant"},{"name":"오늘은[ ]","tel":"031-673-2808","addr":"경기도 안성시 옥산동 560번지 상가1동 107호","indutype":"일반휴게음식 - 서양음식","category":"restaurant"},{"name":"자갈치브라더스 안성점","tel":"","addr":"경기도 안성시 옥산동 560번지 시티프라디움 상가 1동 101호","indutype":"일반휴게음식 - 일반한식","category":"restaurant"},{"name":"카페 애니시다","tel":"031-111-1111","addr":"경기도 안성시 옥산동 560번지 시티프라디움 상가 2동 119호","indutype":"일반휴게음식 - 서양음식","category":"restaurant"},{"name":"푸라닭 안성아양점","tel":"031-677-9206","addr":"경기도 안성시 옥산동 560번지 시티프라디움 상가 2동 117호","indutype":"일반휴게음식 - 스넥","category":"restaurant"}]},{"lat":"37.012636872","long":"127.25065091","imageIndex":4,"items":[{"name":"대박짬뽕","tel":"031-673-4172","addr":"경기도 안성시 옥산동 20-3번지 평화빌라 가동 104호","indutype":"일반휴게음식 - 중국식","category":"restaurant"}]},{"lat":"37.008412541","long":"127.24985071","imageIndex":4,"items":[{"name":"동해활어촌회포차","tel":"031-675-8895","addr":"경기도 안성시 옥산동 136-7번지","indutype":"일반휴게음식 - 일식·회집","category":"restaurant"}]},{"lat":"37.008304694","long":"127.24971554","imageIndex":4,"items":[{"name":"밀리미터커피","tel":"","addr":"경기도 안성시 옥산동 135번지","indutype":"일반휴게음식 - 서양음식","category":"restaurant"}]},{"lat":"37.0119125","long":"127.24360356","imageIndex":4,"items":[{"name":"별난돼지김치찌개","tel":"031-671-0571","addr":"경기도 안성시 옥산동 80-7번지 가동 1층","indutype":"일반휴게음식 - 일반한식","category":"restaurant"},{"name":"카페에이닷","tel":"","addr":"경기도 안성시 옥산동 80-7번지 가동 1층 101호","indutype":"일반휴게음식 - 서양음식","category":"restaurant"},{"name":"홍익돈까스 안성점","tel":"031-676-9977","addr":"경기도 안성시 옥산동 80-7번지 가동 1층좌측","indutype":"일반휴게음식 - 일반한식","category":"restaurant"}]},{"lat":"37.012884433","long":"127.25291019","imageIndex":4,"items":[{"name":"숯불구이","tel":"031-673-5414","addr":"경기도 안성시 옥산동 2-7번지 105호","indutype":"일반휴게음식 - 일반한식","category":"restaurant"}]},{"lat":"37.008025248","long":"127.24977081","imageIndex":4,"items":[{"name":"옥산뜰","tel":"031-677-1487","addr":"경기도 안성시 옥산동 138-11번지","indutype":"일반휴게음식 - 일반한식","category":"restaurant"}]},{"lat":"37.010521559","long":"127.24959911","imageIndex":4,"items":[{"name":"옥산명가","tel":"031-674-9700","addr":"경기도 안성시 옥산동 35번지 ,1,2층","indutype":"일반휴게음식 - 일반한식","category":"restaurant"}]},{"lat":"37.012411771","long":"127.25057153","imageIndex":4,"items":[{"name":"윤지네칼국수","tel":"031-675-0355","addr":"경기도 안성시 옥산동 20-3번지 연립주택","indutype":"일반휴게음식 - 일반한식","category":"restaurant"}]},{"lat":"37.006827296","long":"127.25384535","imageIndex":16,"items":[{"name":"다온음악학원","tel":"031-674-2999","addr":"경기도 안성시 옥산동 557번지 광신프로그레스아파트 109동 111호 110,111호","indutype":"학원 - 예·체능계학원","category":"study"}]},{"lat":"37.007138997","long":"127.25557662","imageIndex":16,"items":[{"name":"라뜰리에 미술교습소","tel":"031-8052-1006","addr":"경기도 안성시 옥산동 560번지 시티프라디움 1층 102호","indutype":"학원 - 예·체능계학원","category":"study"}]},{"lat":"37.007138997","long":"127.25557662","imageIndex":7,"items":[{"name":"럭키가이","tel":"","addr":"경기도 안성시 옥산동 560번지 시티프라디움 상가 1층 118호","indutype":"음료식품 - 기타음료식품","category":"food"},{"name":"찬장","tel":"031-676-1300","addr":"경기도 안성시 옥산동 560번지 시티프라디움 105호","indutype":"음료식품 - 기타음료식품","category":"food"}]},{"lat":"37.007853883","long":"127.24984891","imageIndex":7,"items":[{"name":"릴리상점","tel":"031-677-1219","addr":"경기도 안성시 옥산동 138-13번지 가동 1층","indutype":"음료식품 - 기타음료식품","category":"food"}]},{"lat":"37.007138997","long":"127.25557662","imageIndex":13,"items":[{"name":"미사랑스킨&바디","tel":"031-691-1316","addr":"경기도 안성시 옥산동 560번지 시티프라디움 상가 1동 103호","indutype":"보건위생 - 피부미용실","category":"beauty"},{"name":"씨티헤어","tel":"031-673-4663","addr":"경기도 안성시 옥산동 560번지 시티프라디움 1층 121호","indutype":"보건위생 - 미용원","category":"beauty"}]},{"lat":"37.011995236","long":"127.2472106","imageIndex":9,"items":[{"name":"옥산주유소","tel":"031-672-6751","addr":"경기도 안성시 옥산동 52-5번지","indutype":"연료판매점 - SK주유소","category":"oil"}]},{"lat":"37.012415183","long":"127.24893107","imageIndex":0,"items":[{"name":"지에스파크24 (주)안성옥산 주차장","tel":"02-3272-3500","addr":"경기도 안성시 옥산동 48-3번지","indutype":"자동차정비 유지 - 주차장","category":"car"}]},{"lat":"37.012829256","long":"127.25343811","imageIndex":0,"items":[{"name":"현대윤활유","tel":"031-675-0051","addr":"경기도 안성시 옥산동 2-6","indutype":"자동차정비 유지 - 윤활유 전문 판매","category":"car"},{"name":"현대윤활유","tel":"031-675-0051","addr":"경기도 안성시 옥산동 2-6","indutype":"자동차정비 유지 - 윤활유 전문 판매","category":"car"}]}]