[{"lat":"37.683617335","long":"127.52122426","imageIndex":7,"items":[{"name":"(주)에이치제이매그놀리아그룹","tel":"031-589-4023","addr":"경기도 가평군 설악면 송산리 583-2번지 지하1층","indutype":"음료식품 - 기타음료식품","category":"food"},{"name":"엘본에프앤비 주식회사","tel":"02-547-4100","addr":"경기도 가평군 설악면 송산리 583-2번지 지하1층","indutype":"음료식품 - 기타음료식품","category":"food"}]},{"lat":"37.677193442","long":"127.48733168","imageIndex":7,"items":[{"name":"㈜카페코나퀸즈매그놀이아점","tel":"031-589-9640","addr":"경기도 가평군 설악면 송산리 706번지 3층","indutype":"음료식품-기타음료식품","category":"food"},{"name":"재미인샵","tel":"031-589-9630","addr":"경기도 가평군 설악면 송산리 706번지 1층","indutype":"음료식품-기타음료식품","category":"food"}]},{"lat":"37.687199442","long":"127.53818672","imageIndex":7,"items":[{"name":"소풍","tel":"031-589-8900","addr":"경기도 가평군 설악면 송산리 산102번지","indutype":"음료식품 - 기타음료식품","category":"food"}]},{"lat":"37.687779815","long":"127.51294311","imageIndex":7,"items":[{"name":"재미인샵","tel":"031-589-4023","addr":"경기도 가평군 설악면 송산리 706번지 1층,2층","indutype":"음료식품 - 기타음료식품","category":"food"},{"name":"효정베이커리","tel":"031-589-9661","addr":"경기도 가평군 설악면 송산리 706번지 지하1층","indutype":"음료식품 - 기타음료식품","category":"food"}]},{"lat":"37.681609211","long":"127.5209949","imageIndex":7,"items":[{"name":"주식회사 에이치제이투어 (HJ TOUR)","tel":"031-589-1714","addr":"경기도 가평군 설악면 송산리 595번지 2층","indutype":"음료식품 - 기타음료식품","category":"food"}]}]