[{"lat":"37.514706652","long":"126.76807667","imageIndex":7,"items":[{"name":"경인마트","tel":"032-675-1123","addr":"경기도 부천시 약대동 83-1번지","indutype":"유통업 영리 - 슈퍼마켓","category":"mart"}]},{"lat":"37.511623771","long":"126.77188667","imageIndex":7,"items":[{"name":"농협슈퍼","tel":"032-671-1690","addr":"경기도 부천시 약대동 158-7번지 1층","indutype":"유통업 영리 - 슈퍼마켓","category":"mart"}]},{"lat":"37.513591362","long":"126.7690529","imageIndex":7,"items":[{"name":"돼지슈퍼","tel":"032-675-3274","addr":"경기도 부천시 약대동 76번지","indutype":"유통업 영리 - 슈퍼마켓","category":"mart"}]},{"lat":"37.511005815","long":"126.77380004","imageIndex":7,"items":[{"name":"만나슈퍼","tel":"032-675-3664","addr":"경기도 부천시 약대동 169-23번지 1층","indutype":"유통업 영리 - 슈퍼마켓","category":"mart"}]},{"lat":"37.515177402","long":"126.76469319","imageIndex":7,"items":[{"name":"미니슈퍼","tel":"032-321-1528","addr":"경기도 부천시 약대동 182-48번지","indutype":"유통업 영리 - 슈퍼마켓","category":"mart"}]},{"lat":"37.510262385","long":"126.77607568","imageIndex":7,"items":[{"name":"비금슈퍼","tel":"032-672-0599","addr":"경기도 부천시 약대동 177-84번지","indutype":"유통업 영리 - 슈퍼마켓","category":"mart"}]},{"lat":"37.512703157","long":"126.77096718","imageIndex":7,"items":[{"name":"우리마트","tel":"032-672-3377","addr":"경기도 부천시 약대동 129-3번지 1층","indutype":"유통업 영리 - 슈퍼마켓","category":"mart"}]},{"lat":"37.512312547","long":"126.76935096","imageIndex":7,"items":[{"name":"이지마트","tel":"032-677-4936","addr":"경기도 부천시 약대동 138-7번지 112호 , 113","indutype":"유통업 영리 - 슈퍼마켓","category":"mart"}]},{"lat":"37.515177949","long":"126.76496465","imageIndex":7,"items":[{"name":"준마트","tel":"032-326-7909","addr":"경기도 부천시 약대동 182-59번지","indutype":"유통업 영리 - 슈퍼마켓","category":"mart"}]},{"lat":"37.510564924","long":"126.77410676","imageIndex":7,"items":[{"name":"쿨마트","tel":"032-679-0324","addr":"경기도 부천시 약대동 169-35번지","indutype":"유통업 영리 - 슈퍼마켓","category":"mart"}]},{"lat":"37.516064499","long":"126.76674901","imageIndex":7,"items":[{"name":"현대홈마트","tel":"032-528-6973","addr":"경기도 부천시 약대동 216-1번지 부천아이파크상가 103동 105호","indutype":"유통업 영리 - 슈퍼마켓","category":"mart"}]}]