[{"lat":"37.196582318","long":"126.98125628","imageIndex":4,"items":[{"name":"(주)영도통상 소나무갈비","tel":"031-8077-9851","addr":"경기도 화성시 정남면 보통리 12-12번지","indutype":"일반휴게음식 - 일반한식","category":"restaurant"}]},{"lat":"37.192500302","long":"126.97964687","imageIndex":4,"items":[{"name":"광복동 한정식","tel":"031-354-1676","addr":"경기도 화성시 정남면 보통리 136-8번지 1층 102호","indutype":"일반휴게음식 - 일반한식","category":"restaurant"},{"name":"봉구스 밥버거","tel":"031-8059-4416","addr":"경기도 화성시 정남면 보통리 136-8번지 1층 101호","indutype":"일반휴게음식 - 일반한식","category":"restaurant"}]},{"lat":"37.193221097","long":"126.97945518","imageIndex":4,"items":[{"name":"길림성","tel":"031-353-6490","addr":"경기도 화성시 정남면 보통리 87-2번지","indutype":"일반휴게음식 - 중국식","category":"restaurant"}]},{"lat":"37.191581376","long":"126.98034543","imageIndex":4,"items":[{"name":"김치랑고기랑","tel":"031-354-5465","addr":"경기도 화성시 정남면 보통리 137-4번지 1층 일부호","indutype":"일반휴게음식 - 일반한식","category":"restaurant"},{"name":"깡통","tel":"111-1111-111","addr":"경기도 화성시 정남면 보통리 137-4","indutype":"일반휴게음식 - 일반한식","category":"restaurant"},{"name":"지영식당","tel":"031-8043-9676","addr":"경기도 화성시 정남면 보통리 137-4번지","indutype":"일반휴게음식 - 일반한식","category":"restaurant"}]},{"lat":"37.1932212","long":"126.97998453","imageIndex":4,"items":[{"name":"다락","tel":"","addr":"경기도 화성시 정남면 보통리 86-2번지 1동 1층 일부호 곽현종 (공동주택)","indutype":"일반휴게음식 - 스넥","category":"restaurant"}]},{"lat":"37.1959422","long":"126.97926286","imageIndex":4,"items":[{"name":"다원","tel":"031-225-9020","addr":"경기도 화성시 정남면 보통리 18-1번지","indutype":"일반휴게음식 - 스넥","category":"restaurant"}]},{"lat":"37.189499602","long":"126.9784765","imageIndex":4,"items":[{"name":"뚝방집","tel":"031-352-1492","addr":"경기도 화성시 정남면 보통리 119-3번지","indutype":"일반휴게음식 - 일반한식","category":"restaurant"}]},{"lat":"37.193770659","long":"126.97909459","imageIndex":4,"items":[{"name":"라비타카페","tel":"070-8622-9222","addr":"경기도 화성시 정남면 보통리 78-1번지","indutype":"일반휴게음식 - 일반한식","category":"restaurant"},{"name":"치킨봉","tel":"031-352-9592","addr":"경기도 화성시 정남면 보통리 78-1번지 1층","indutype":"일반휴게음식 - 스넥","category":"restaurant"}]},{"lat":"37.191797626","long":"126.98034537","imageIndex":4,"items":[{"name":"레지나(REGINA)","tel":"","addr":"경기도 화성시 정남면 보통리 137-3번지 1층","indutype":"일반휴게음식 - 서양음식","category":"restaurant"}]},{"lat":"37.192022875","long":"126.98028899","imageIndex":4,"items":[{"name":"로뎀나무","tel":"","addr":"경기도 화성시 정남면 보통리 137번지","indutype":"일반휴게음식 - 스넥","category":"restaurant"}]},{"lat":"37.180216539","long":"126.96898651","imageIndex":4,"items":[{"name":"마니산방","tel":"031-352-9249","addr":"경기도 화성시 정남면 보통리 316번지","indutype":"일반휴게음식 - 일반한식","category":"restaurant"}]},{"lat":"37.191275033","long":"126.98040184","imageIndex":4,"items":[{"name":"맛깔난 돼지국밥","tel":"031-354-4847","addr":"경기도 화성시 정남면 보통리 137-16번지 1층 일부","indutype":"일반휴게음식 - 일반한식","category":"restaurant"},{"name":"우소","tel":"031-353-3674","addr":"경기도 화성시 정남면 보통리 137-16번지","indutype":"일반휴게음식 - 일반한식","category":"restaurant"}]},{"lat":"37.191770482","long":"126.97975972","imageIndex":4,"items":[{"name":"백세손칼국수","tel":"031-352-2335","addr":"경기도 화성시 정남면 보통리 133번지 1층","indutype":"일반휴게음식 - 일반한식","category":"restaurant"}]},{"lat":"37.19388781","long":"126.9791734","imageIndex":4,"items":[{"name":"백암토종순대","tel":"031-352-8035","addr":"경기도 화성시 정남면 보통리 78-1번지 (1동1층일부)","indutype":"일반휴게음식 - 일반한식","category":"restaurant"}]},{"lat":"37.191301791","long":"126.97900527","imageIndex":4,"items":[{"name":"버디파스타","tel":"031-8059-9994","addr":"경기도 화성시 정남면 보통리 132번지","indutype":"일반휴게음식 - 일반한식","category":"restaurant"}]},{"lat":"37.195608967","long":"126.98004013","imageIndex":4,"items":[{"name":"부심원","tel":"031-353-3874","addr":"경기도 화성시 정남면 보통리 12-21번지 외1필지","indutype":"일반휴게음식 - 서양음식","category":"restaurant"},{"name":"카페A+커피이야기","tel":"031-353-3874","addr":"경기도 화성시 정남면 보통리 12-21번지 1층 일부","indutype":"일반휴게음식 - 서양음식","category":"restaurant"}]},{"lat":"37.18891251","long":"126.97237255","imageIndex":4,"items":[{"name":"블랙나인","tel":"031-000-0000","addr":"경기도 화성시 정남면 보통리 465번지 1,2층","indutype":"일반휴게음식 - 서양음식","category":"restaurant"}]},{"lat":"37.192887723","long":"126.97951159","imageIndex":4,"items":[{"name":"비어밸리","tel":"031-352-9175","addr":"경기도 화성시 정남면 보통리 136-6번지","indutype":"일반휴게음식 - 일반한식","category":"restaurant"}]},{"lat":"37.191473138","long":"126.97975981","imageIndex":4,"items":[{"name":"비어헌트","tel":"031-353-5737","addr":"경기도 화성시 정남면 보통리 133-5번지","indutype":"일반휴게음식 - 주점","category":"restaurant"},{"name":"오리갈비닭갈비","tel":"031-352-2864","addr":"경기도 화성시 정남면 보통리 133-5번지","indutype":"일반휴게음식 - 일반한식","category":"restaurant"}]},{"lat":"37.180217431","long":"126.97226344","imageIndex":4,"items":[{"name":"사계절식당","tel":"031-8059-6511","addr":"경기도 화성시 정남면 보통리 309-3","indutype":"일반휴게음식 - 일반한식","category":"restaurant"}]},{"lat":"37.192743579","long":"126.97962427","imageIndex":4,"items":[{"name":"산마루","tel":"031-353-3357","addr":"경기도 화성시 정남면 보통리 136-7","indutype":"일반휴게음식 - 일반한식","category":"restaurant"},{"name":"이모네김밥","tel":"031-354-4554","addr":"경기도 화성시 정남면 보통리 136-7번지","indutype":"일반휴게음식 - 스넥","category":"restaurant"}]},{"lat":"37.195771228","long":"126.98042303","imageIndex":4,"items":[{"name":"샐리스푸드박스","tel":"031-352-3367","addr":"경기도 화성시 정남면 보통리 12-82번지","indutype":"일반휴게음식 - 일반한식","category":"restaurant"}]},{"lat":"37.19502348","long":"126.98104272","imageIndex":4,"items":[{"name":"속초코다리냉면봉담점","tel":"031-352-6811","addr":"경기도 화성시 정남면 보통리 12-28번지","indutype":"일반휴게음식 - 일반한식","category":"restaurant"}]},{"lat":"37.190472716","long":"126.97843114","imageIndex":4,"items":[{"name":"쉼터","tel":"031-353-8886","addr":"경기도 화성시 정남면 보통리 116-1번지","indutype":"일반휴게음식 - 일반한식","category":"restaurant"}]},{"lat":"37.195158578","long":"126.98072732","imageIndex":4,"items":[{"name":"심봤다두루치기","tel":"031-353-6985","addr":"경기도 화성시 정남면 보통리 12-29번지 1층","indutype":"일반휴게음식 - 일반한식","category":"restaurant"}]},{"lat":"37.193022665","long":"126.97845284","imageIndex":4,"items":[{"name":"여명","tel":"031-366-4393","addr":"경기도 화성시 정남면 보통리 78-4","indutype":"일반휴게음식 - 일반한식","category":"restaurant"},{"name":"여명보통리점","tel":"031-366-4466","addr":"경기도 화성시 정남면 보통리 78-4번지","indutype":"일반휴게음식 - 일반한식","category":"restaurant"}]},{"lat":"37.195528157","long":"126.98156069","imageIndex":4,"items":[{"name":"왕골남서문곰탕","tel":"031-366-5516","addr":"경기도 화성시 정남면 보통리 12-26번지","indutype":"일반휴게음식 - 일반한식","category":"restaurant"}]},{"lat":"37.195329746","long":"126.98056958","imageIndex":4,"items":[{"name":"욜로펍(YoLo pub)","tel":"","addr":"경기도 화성시 정남면 보통리 12-31번지 B1층","indutype":"일반휴게음식 - 서양음식","category":"restaurant"}]},{"lat":"37.195302858","long":"126.98134675","imageIndex":4,"items":[{"name":"유장춘닭개장","tel":"031-353-7047","addr":"경기도 화성시 정남면 보통리 12-27번지","indutype":"일반휴게음식 - 일반한식","category":"restaurant"}]},{"lat":"37.196081563","long":"126.96170331","imageIndex":4,"items":[{"name":"은혜한식부페","tel":"","addr":"경기도 화성시 정남면 보통리 752-1번지 1층","indutype":"일반휴게음식 - 일반한식","category":"restaurant"}]},{"lat":"37.191220869","long":"126.97987251","imageIndex":4,"items":[{"name":"임영희보약사철탕","tel":"031-352-6166","addr":"경기도 화성시 정남면 보통리 129-2번지","indutype":"일반휴게음식 - 일반한식","category":"restaurant"}]},{"lat":"37.19538568","long":"126.95609461","imageIndex":4,"items":[{"name":"장수촌","tel":"031-366-5533","addr":"경기도 화성시 정남면 보통리 767-5","indutype":"일반휴게음식 - 서양음식","category":"restaurant"}]},{"lat":"37.19207684","long":"126.97978215","imageIndex":4,"items":[{"name":"쥬씨","tel":"031-352-2348","addr":"경기도 화성시 정남면 보통리 134번지 102호","indutype":"일반휴게음식 - 서양음식","category":"restaurant"}]},{"lat":"37.195825333","long":"126.98064828","imageIndex":4,"items":[{"name":"진미면막국수","tel":"031-353-7420","addr":"경기도 화성시 정남면 보통리 12-16번지","indutype":"일반휴게음식 - 일반한식","category":"restaurant"}]},{"lat":"37.195464952","long":"126.98083986","imageIndex":4,"items":[{"name":"쯔쁘(ㅉㅃ)","tel":"","addr":"경기도 화성시 정남면 보통리 12-30번지 101, 102호","indutype":"일반휴게음식 - 중국식","category":"restaurant"}]},{"lat":"37.192221535","long":"126.98267663","imageIndex":4,"items":[{"name":"창업교육센터1","tel":"031-350-2335","addr":"경기도 화성시 정남면 보통리 141-44번지 수원과학대학교","indutype":"일반휴게음식 - 일반한식","category":"restaurant"},{"name":"창업교육센터2","tel":"031-350-2335","addr":"경기도 화성시 정남면 보통리 141-44번지","indutype":"일반휴게음식 - 서양음식","category":"restaurant"},{"name":"한식카페S","tel":"","addr":"경기도 화성시 정남면 보통리 141-44번지 수원과학대학 기사대기실옆 1층 일부호","indutype":"일반휴게음식 - 일반한식","category":"restaurant"}]},{"lat":"37.190554125","long":"126.98000786","imageIndex":4,"items":[{"name":"처갓집양념치킨 수원과학대점","tel":"031-353-9893","addr":"경기도 화성시 정남면 보통리 127-20번지 1층 1호","indutype":"일반휴게음식 - 스넥","category":"restaurant"},{"name":"하울족발","tel":"032-577-0396","addr":"경기도 화성시 정남면 보통리 127-20번지 1층 2호","indutype":"일반휴게음식 - 일반한식","category":"restaurant"}]},{"lat":"37.191499816","long":"126.97801409","imageIndex":4,"items":[{"name":"카페다이아몬드(Cafe Diamond)","tel":"031-353-3505","addr":"경기도 화성시 정남면 보통리 91-1","indutype":"일반휴게음식 - 서양음식","category":"restaurant"}]},{"lat":"37.19524837","long":"126.97911665","imageIndex":4,"items":[{"name":"카페타임","tel":"041-111-1111","addr":"경기도 화성시 정남면 보통리 19번지 1층 숙소동 YBM연수원","indutype":"일반휴게음식 - 서양음식","category":"restaurant"}]},{"lat":"37.189687546","long":"126.9729241","imageIndex":4,"items":[{"name":"캄브릿지펍","tel":"02-1111-1111","addr":"경기도 화성시 정남면 보통리 514-1번지","indutype":"일반휴게음식 - 일반한식","category":"restaurant"}]},{"lat":"37.194581225","long":"126.97731477","imageIndex":4,"items":[{"name":"허밍(Humming)","tel":"031-352-9773","addr":"경기도 화성시 정남면 보통리 26-10번지","indutype":"일반휴게음식 - 일반한식","category":"restaurant"}]},{"lat":"37.190995426","long":"126.97894905","imageIndex":4,"items":[{"name":"호수풍경 (카페)","tel":"031-359-9507","addr":"경기도 화성시 정남면 보통리 131-7번지","indutype":"일반휴게음식 - 서양음식","category":"restaurant"},{"name":"호수풍경 (카페)","tel":"031-359-9507","addr":"경기도 화성시 정남면 보통리 131-7번지 2층","indutype":"일반휴게음식 - 서양음식","category":"restaurant"},{"name":"황금림한방오리백숙","tel":"031-354-7734","addr":"경기도 화성시 정남면 보통리 131-7번지","indutype":"일반휴게음식 - 일반한식","category":"restaurant"}]},{"lat":"37.191247627","long":"126.97850973","imageIndex":4,"items":[{"name":"홍춘천치즈 닭갈비 수원과학대점","tel":"031-354-6235","addr":"경기도 화성시 정남면 보통리 132-1번지","indutype":"일반휴게음식 - 일반한식","category":"restaurant"}]},{"lat":"37.194194444","long":"126.98061497","imageIndex":4,"items":[{"name":"황태랑","tel":"031-354-1775","addr":"경기도 화성시 정남면 보통리 82-5번지","indutype":"일반휴게음식 - 일반한식","category":"restaurant"}]},{"lat":"37.184695939","long":"126.97356798","imageIndex":17,"items":[{"name":"(주)우리제지","tel":"031-352-0147","addr":"경기도 화성시 정남면 보통리 366-6번지","indutype":"유통업 영리 - 기타유통업","category":"other"},{"name":"풀잎향제지","tel":"031-352-2912","addr":"경기도 화성시 정남면 보통리 366-6번지","indutype":"신변잡화 - 기타잡화","category":"other"}]},{"lat":"37.18516329","long":"126.96909691","imageIndex":17,"items":[{"name":"(주)이심","tel":"","addr":"경기도 화성시 정남면 보통리 415-21번지","indutype":"신변잡화 - 기타잡화","category":"other"}]},{"lat":"37.190554125","long":"126.98000786","imageIndex":17,"items":[{"name":"경도건설","tel":"031-354-9290","addr":"경기도 화성시 정남면 보통리 127-20번지 3호","indutype":"건축자재 - 기타건축자재","category":"other"}]},{"lat":"37.193221097","long":"126.97945518","imageIndex":17,"items":[{"name":"그린세탁소","tel":"031-366-0069","addr":"경기도 화성시 정남면 보통리 87-2","indutype":"수리서비스 - 세탁소","category":"other"}]},{"lat":"37.195719805","long":"126.95800916","imageIndex":17,"items":[{"name":"금우환경산업","tel":"031-378-8723","addr":"경기도 화성시 정남면 보통리 759-4번지","indutype":"용역 서비스 - 종합용역","category":"other"},{"name":"천지환경산업","tel":"031-360-1101","addr":"경기도 화성시 정남면 보통리 759-4번지","indutype":"용역 서비스 - 종합용역","category":"other"}]},{"lat":"37.190103463","long":"126.9792872","imageIndex":17,"items":[{"name":"다온테크","tel":"031-223-1084","addr":"경기도 화성시 정남면 보통리 117-18번지","indutype":"기타 - 기계공구","category":"other"}]},{"lat":"37.19356369","long":"126.98048","imageIndex":17,"items":[{"name":"다올 인테리어","tel":"02-900-1544","addr":"경기도 화성시 정남면 보통리 83-12번지 라동 104호","indutype":"건축자재 - 인테리어전문","category":"other"}]},{"lat":"37.194104176","long":"126.97975901","imageIndex":17,"items":[{"name":"동락종합상사","tel":"031-354-0908","addr":"경기도 화성시 정남면 보통리 80번지","indutype":"건축자재 - 목재·석재·철물","category":"other"}]},{"lat":"37.184497724","long":"126.97362437","imageIndex":17,"items":[{"name":"라이프컴퍼니","tel":"070-8281-0074","addr":"경기도 화성시 정남면 보통리 366-7번지 2층","indutype":"신변잡화 - 기타잡화","category":"other"}]},{"lat":"37.1932212","long":"126.97998453","imageIndex":17,"items":[{"name":"맨즈 소프트","tel":"031-8059-2119","addr":"경기도 화성시 정남면 보통리 86-2번지 102호","indutype":"수리서비스 - 사무·통신기기수리","category":"other"}]},{"lat":"37.185604655","long":"126.96858994","imageIndex":17,"items":[{"name":"모든플라텍","tel":"031-354-7526","addr":"경기도 화성시 정남면 보통리 415-30번지","indutype":"전기제품 - 기타전기제품","category":"other"}]},{"lat":"37.196915795","long":"126.98176304","imageIndex":17,"items":[{"name":"미니스톱화성세자로점","tel":"031-1577-9621","addr":"경기도 화성시 정남면 보통리 12-10번지","indutype":"유통업 영리 - 편 의 점","category":"other"}]},{"lat":"37.189966883","long":"126.9729803","imageIndex":17,"items":[{"name":"바이준커피","tel":"","addr":"경기도 화성시 정남면 보통리 515-5번지","indutype":"주방용구 - 주방용구","category":"other"}]},{"lat":"37.188606326","long":"126.97303715","imageIndex":17,"items":[{"name":"부광가설산업","tel":"031-622-9992","addr":"경기도 화성시 정남면 보통리 466-1번지","indutype":"건축자재 - 기타건축자재","category":"other"}]},{"lat":"37.188084003","long":"126.97417483","imageIndex":17,"items":[{"name":"북청공방","tel":"031-8059-3640","addr":"경기도 화성시 정남면 보통리 471번지","indutype":"문화.취미 - 문화취미기타","category":"other"}]},{"lat":"37.195855752","long":"126.9601491","imageIndex":17,"items":[{"name":"사운드힘","tel":"070-7518-8515","addr":"경기도 화성시 정남면 보통리 754-15번지 1층","indutype":"전기제품 - 가전제품","category":"other"}]},{"lat":"37.18457872","long":"126.97323018","imageIndex":17,"items":[{"name":"선우제지","tel":"031-352-0331","addr":"경기도 화성시 정남면 보통리 367-1 외 8필지","indutype":"유통업 영리 - 기타유통업","category":"other"}]},{"lat":"37.190220805","long":"126.98034584","imageIndex":17,"items":[{"name":"성원상사","tel":"","addr":"경기도 화성시 정남면 보통리 142-3번지","indutype":"용역 서비스 - 기타용역서비스","category":"other"}]},{"lat":"37.185687076","long":"126.97353381","imageIndex":17,"items":[{"name":"성진라이팅","tel":"031-353-4232","addr":"경기도 화성시 정남면 보통리 364","indutype":"건축자재 - 조명기구","category":"other"}]},{"lat":"37.190743398","long":"126.98028937","imageIndex":17,"items":[{"name":"세븐일레븐화성보통점","tel":"","addr":"경기도 화성시 정남면 보통리 140번지 하우스빌 A동 1층 상가","indutype":"유통업 영리 - 편 의 점","category":"other"}]},{"lat":"37.193221241","long":"126.98019853","imageIndex":17,"items":[{"name":"씨유수원과학대점","tel":"031-352-4833","addr":"경기도 화성시 정남면 보통리 84-10번지","indutype":"유통업 영리 - 편 의 점","category":"other"},{"name":"아톰이벤트기획","tel":"031-233-5470","addr":"경기도 화성시 정남면 보통리 84-10","indutype":"용역 서비스 - 종합용역","category":"other"}]},{"lat":"37.192743579","long":"126.97962427","imageIndex":17,"items":[{"name":"씽크카피","tel":"031-8047-5226","addr":"경기도 화성시 정남면 보통리 136-7번지","indutype":"용역 서비스 - 사무서비스","category":"other"}]},{"lat":"37.190110938","long":"126.97254101","imageIndex":17,"items":[{"name":"알파플러스 패키지","tel":"031-359-9752","addr":"경기도 화성시 정남면 보통리 497번지","indutype":"유통업 영리 - 기타유통업","category":"other"}]},{"lat":"37.184415591","long":"126.96968285","imageIndex":17,"items":[{"name":"열린산업","tel":"031-354-5038","addr":"경기도 화성시 정남면 보통리 390-2번지","indutype":"기타 - 기계공구","category":"other"}]},{"lat":"37.192243485","long":"126.96273031","imageIndex":17,"items":[{"name":"영풍산업","tel":"031-223-3115","addr":"경기도 화성시 정남면 보통리 736-4번지","indutype":"가구 - 일반가구","category":"other"}]},{"lat":"37.192383178","long":"126.97970322","imageIndex":17,"items":[{"name":"장인기획","tel":"031-222-8187","addr":"경기도 화성시 정남면 보통리 136번지 1층","indutype":"건축자재 - 인테리어전문","category":"other"}]},{"lat":"37.187409529","long":"126.98020027","imageIndex":17,"items":[{"name":"주식회사 롯데상사","tel":"031-1666-6449","addr":"경기도 화성시 정남면 보통리 180-10번지","indutype":"유통업 영리 - 기타유통업","category":"other"}]},{"lat":"37.197276059","long":"126.98092944","imageIndex":17,"items":[{"name":"주식회사엠에이치티","tel":"031-8059-6043","addr":"경기도 화성시 정남면 보통리 12-1 4층","indutype":"전기제품 - 기타전기제품","category":"other"}]},{"lat":"37.185498023","long":"126.97420959","imageIndex":17,"items":[{"name":"철이든나무","tel":"070-7536-8318","addr":"경기도 화성시 정남면 보통리 361-19번지 1층","indutype":"가구 - 일반가구","category":"other"}]},{"lat":"37.196939598","long":"126.96808922","imageIndex":17,"items":[{"name":"하늘장갑","tel":"031-298-4611","addr":"경기도 화성시 정남면 보통리 664-4번지","indutype":"신변잡화 - 기타잡화","category":"other"}]},{"lat":"37.195603918","long":"126.96143325","imageIndex":17,"items":[{"name":"한강산업","tel":"031-359-8746","addr":"경기도 화성시 정남면 보통리 754-7번지","indutype":"기타 - 기타 전문점","category":"other"}]},{"lat":"37.183137076","long":"126.97332083","imageIndex":17,"items":[{"name":"한국후지테크","tel":"031-316-0701","addr":"경기도 화성시 정남면 보통리 345-1번지","indutype":"기타 - 기타 전문점","category":"other"}]},{"lat":"37.193966829","long":"126.97042202","imageIndex":17,"items":[{"name":"현대상사","tel":"031-366-5389","addr":"경기도 화성시 정남면 보통리 604번지","indutype":"건축자재 - 기타건축자재","category":"other"}]},{"lat":"37.194689907","long":"126.9800404","imageIndex":17,"items":[{"name":"화성중고알뜰매장","tel":"031-353-4915","addr":"경기도 화성시 정남면 보통리 12-34","indutype":"신변잡화 - 기타잡화","category":"other"}]},{"lat":"37.184549908","long":"126.96681108","imageIndex":7,"items":[{"name":"(주)호서유통","tel":"070-8824-9499","addr":"경기도 화성시 정남면 보통리 398번지 1층","indutype":"음료식품 - 기타음료식품","category":"food"}]},{"lat":"37.194083424","long":"126.96850726","imageIndex":7,"items":[{"name":"농업회사법인 주식회사농연재","tel":"031-353-1598","addr":"경기도 화성시 정남면 보통리 598번지","indutype":"음료식품 - 농·축·수산품","category":"food"}]},{"lat":"37.193887915","long":"126.97970276","imageIndex":7,"items":[{"name":"담소","tel":"070-8837-1239","addr":"경기도 화성시 정남면 보통리 84-19번지 1층","indutype":"음료식품 - 기타음료식품","category":"food"}]},{"lat":"37.190356484","long":"126.9832853","imageIndex":7,"items":[{"name":"라비돌매점","tel":"031-350-4760","addr":"경기도 화성시 정남면 보통리 141-39번지","indutype":"음료식품 - 기타음료식품","category":"food"}]},{"lat":"37.188832928","long":"126.97894973","imageIndex":7,"items":[{"name":"물장수유통","tel":"031-234-6590","addr":"경기도 화성시 정남면 보통리 163번지 B동","indutype":"음료식품 - 기타음료식품","category":"food"}]},{"lat":"37.194968581","long":"126.9768979","imageIndex":7,"items":[{"name":"보통","tel":"031-366-0741","addr":"경기도 화성시 정남면 보통리 26-1번지 1층","indutype":"음료식품 - 기타음료식품","category":"food"}]},{"lat":"37.189966883","long":"126.9729803","imageIndex":7,"items":[{"name":"스포월드","tel":"031-353-7438","addr":"경기도 화성시 정남면 보통리 515-5번지","indutype":"음료식품 - 기타음료식품","category":"food"}]},{"lat":"37.188220326","long":"126.97947925","imageIndex":7,"items":[{"name":"주식회사 제이엠미트","tel":"031-0000-0000","addr":"경기도 화성시 정남면 보통리 165번지","indutype":"음료식품 - 정육점","category":"food"}]},{"lat":"37.180335133","long":"126.97453811","imageIndex":7,"items":[{"name":"케이엘바이오","tel":"031-366-3737","addr":"경기도 화성시 정남면 보통리 296-3","indutype":"건강식품 - 인삼제품","category":"food"}]},{"lat":"37.195333311","long":"126.96059993","imageIndex":7,"items":[{"name":"해피푸드주식회사","tel":"070-4070-3382","addr":"경기도 화성시 정남면 보통리 754-4번지 A동","indutype":"음료식품 - 농·축·수산품","category":"food"}]},{"lat":"37.194194444","long":"126.98061497","imageIndex":7,"items":[{"name":"황태사랑","tel":"031-297-3401","addr":"경기도 화성시 정남면 보통리 82-5번지 C동","indutype":"음료식품 - 농·축·수산품","category":"food"}]},{"lat":"37.194104176","long":"126.97975901","imageIndex":0,"items":[{"name":"공자카매니저","tel":"031-352-5795","addr":"경기도 화성시 정남면 보통리 80번지","indutype":"자동차정비 유지 - 자동차정비","category":"car"}]},{"lat":"37.183299427","long":"126.97398519","imageIndex":0,"items":[{"name":"두진엔지니어링","tel":"031-354-6442","addr":"경기도 화성시 정남면 보통리 285번지","indutype":"자동차정비 유지 - 자동차부품","category":"car"},{"name":"주식회사 보크알파","tel":"031-857-0119","addr":"경기도 화성시 정남면 보통리 285번지","indutype":"자동차정비 유지 - 자동차부품","category":"car"}]},{"lat":"37.195883439","long":"126.96200753","imageIndex":0,"items":[{"name":"비티알750 (BTR750)","tel":"070-4217-4585","addr":"경기도 화성시 정남면 보통리 750번지","indutype":"자동차정비 유지 - 자동차부품","category":"car"}]},{"lat":"37.190554017","long":"126.979456","imageIndex":0,"items":[{"name":"삼영카마스타","tel":"031-354-1626","addr":"경기도 화성시 정남면 보통리 127-1번지","indutype":"자동차정비 유지 - 자동차정비","category":"car"}]},{"lat":"37.187084621","long":"126.97756506","imageIndex":0,"items":[{"name":"천인전","tel":"031-351-5145","addr":"경기도 화성시 정남면 보통리 487-2번지 정남톨게이트주유소","indutype":"자동차정비 유지 - 윤활유 전문 판매","category":"car"}]},{"lat":"37.192635171","long":"126.97822771","imageIndex":5,"items":[{"name":"글로아호텔","tel":"031-354-1818","addr":"경기도 화성시 정남면 보통리 89-1번지","indutype":"숙박업 - 여관/기타숙박업","category":"hotel"}]},{"lat":"37.194968581","long":"126.9768979","imageIndex":5,"items":[{"name":"라끄드보통","tel":"031-366-0741","addr":"경기도 화성시 정남면 보통리 26-1번지","indutype":"숙박업 - 여관/기타숙박업","category":"hotel"},{"name":"라끄드보통","tel":"031-366-0741","addr":"경기도 화성시 정남면 보통리 26-1번지","indutype":"숙박업 - 여관/기타숙박업","category":"hotel"}]},{"lat":"37.194194103","long":"126.9788692","imageIndex":5,"items":[{"name":"오투","tel":"031-354-0143","addr":"경기도 화성시 정남면 보통리 79-5번지","indutype":"숙박업 - 여관/기타숙박업","category":"hotel"}]},{"lat":"37.193221097","long":"126.97945518","imageIndex":13,"items":[{"name":"금족","tel":"031-223-9159","addr":"경기도 화성시 정남면 보통리 87-2번지","indutype":"보건위생 - 미용재료","category":"beauty"}]},{"lat":"37.192221535","long":"126.98267663","imageIndex":13,"items":[{"name":"수원과학대 안경원","tel":"031-350-2466","addr":"경기도 화성시 정남면 보통리 141-44번지 수원과학대학 1층 종합강의동","indutype":"보건위생 - 안경","category":"beauty"},{"name":"이철헤어커커 수원과학대학점","tel":"031-350-2326","addr":"경기도 화성시 정남면 보통리 141-44번지 수원과학대학교 102호","indutype":"보건위생 - 미용원","category":"beauty"}]},{"lat":"37.192500302","long":"126.97964687","imageIndex":13,"items":[{"name":"대학당구장","tel":"031-111-1111","addr":"경기도 화성시 정남면 보통리 136-8번지 2층","indutype":"레저업소 - 당 구 장","category":"leisure"}]},{"lat":"37.19207684","long":"126.97978215","imageIndex":13,"items":[{"name":"수석당구장","tel":"031-352-9498","addr":"경기도 화성시 정남면 보통리 134번지","indutype":"레저업소 - 당 구 장","category":"leisure"}]},{"lat":"37.193130955","long":"126.97926374","imageIndex":13,"items":[{"name":"수전당구장","tel":"031-353-4082","addr":"경기도 화성시 정남면 보통리 88번지","indutype":"레저업소 - 당 구 장","category":"leisure"}]},{"lat":"37.194689907","long":"126.9800404","imageIndex":13,"items":[{"name":"스토리피씨랩 수원과학대점","tel":"070-8983-0219","addr":"경기도 화성시 정남면 보통리 12-34번지","indutype":"레저업소 - 기타레져업소","category":"leisure"}]},{"lat":"37.191275033","long":"126.98040184","imageIndex":13,"items":[{"name":"와우 피씨(수원과학대)","tel":"070-3325-6976","addr":"경기도 화성시 정남면 보통리 137-16번지 2층","indutype":"레저업소 - 기타레져업소","category":"leisure"}]},{"lat":"37.192887723","long":"126.97951159","imageIndex":13,"items":[{"name":"준노래연습장","tel":"031-352-9175","addr":"경기도 화성시 정남면 보통리 136-6번지","indutype":"레저업소 - 노 래 방","category":"leisure"}]},{"lat":"37.193221097","long":"126.97945518","imageIndex":13,"items":[{"name":"캠퍼스당구장","tel":"070-8730-4287","addr":"경기도 화성시 정남면 보통리 87-2번지 3층","indutype":"레저업소 - 당 구 장","category":"leisure"}]},{"lat":"37.190356484","long":"126.9832853","imageIndex":13,"items":[{"name":"컨트리골프크럽","tel":"031-353-6587","addr":"경기도 화성시 정남면 보통리 141-39번지","indutype":"레저업소 - 골프연습장","category":"leisure"}]},{"lat":"37.191770482","long":"126.97975972","imageIndex":13,"items":[{"name":"프라자노래방","tel":"031-352-5700","addr":"경기도 화성시 정남면 보통리 133번지","indutype":"레저업소 - 노 래 방","category":"leisure"}]},{"lat":"37.185995012","long":"126.98082009","imageIndex":7,"items":[{"name":"동부생명연수원매점","tel":"","addr":"경기도 화성시 정남면 보통리 184-1번지 1층","indutype":"유통업 영리 - 슈퍼마켓","category":"mart"}]},{"lat":"37.189021072","long":"126.97411816","imageIndex":7,"items":[{"name":"시골풍경","tel":"031-352-1011","addr":"경기도 화성시 정남면 보통리 493-1번지","indutype":"유통업 영리 - 슈퍼마켓","category":"mart"}]},{"lat":"37.191473138","long":"126.97975981","imageIndex":7,"items":[{"name":"에이스마트","tel":"031-353-9467","addr":"경기도 화성시 정남면 보통리 133-5번지","indutype":"유통업 영리 - 슈퍼마켓","category":"mart"}]},{"lat":"37.193608626","long":"126.97987179","imageIndex":7,"items":[{"name":"한국쇼핑","tel":"031-366-4961","addr":"경기도 화성시 정남면 보통리 84번지","indutype":"유통업 영리 - 슈퍼마켓","category":"mart"}]},{"lat":"37.19524837","long":"126.97911665","imageIndex":7,"items":[{"name":"화성연수원매점","tel":"041-542-9339","addr":"경기도 화성시 정남면 보통리 19번지 YBM연수원 1층","indutype":"유통업 영리 - 슈퍼마켓","category":"mart"}]},{"lat":"37.190409783","long":"126.97911817","imageIndex":9,"items":[{"name":"동하주유소","tel":"","addr":"경기도 화성시 정남면 보통리 117-15번지","indutype":"연료판매점 - SK주유소","category":"oil"}]},{"lat":"37.193743771","long":"126.97981543","imageIndex":8,"items":[{"name":"정남약국","tel":"031-353-1539","addr":"경기도 화성시 정남면 보통리 84-21번지 정남빌딩","indutype":"약국 - 약국","category":"medical"}]},{"lat":"37.193608488","long":"126.97917348","imageIndex":8,"items":[{"name":"팜서울약국","tel":"031-353-1268","addr":"경기도 화성시 정남면 보통리 78-2","indutype":"약국 - 약국","category":"medical"}]}]