[{"lat":"37.220971728","long":"127.42735434","imageIndex":17,"items":[{"name":"강지다육","tel":"031-634-7217","addr":"경기도 이천시 호법면 후안리 155-2번지","indutype":"문화.취미 - 화원","category":"other"}]},{"lat":"37.221526826","long":"127.42582513","imageIndex":17,"items":[{"name":"대덕종합설비","tel":"031-632-9128","addr":"경기도 이천시 호법면 후안리 233-1","indutype":"수리서비스 - 기타수리서비스","category":"other"}]},{"lat":"37.224638449","long":"127.42496364","imageIndex":17,"items":[{"name":"발로상사","tel":"031-635-2955","addr":"경기도 이천시 호법면 후안리 282-10번지 2동 221호","indutype":"전기제품 - 기타전기제품","category":"other"}]},{"lat":"37.224559645","long":"127.42432096","imageIndex":17,"items":[{"name":"베스트","tel":"","addr":"경기도 이천시 호법면 후안리 282-7번지 거성빌라 C동 3층 301호","indutype":"용역 서비스 - 기타용역서비스","category":"other"}]},{"lat":"37.227336725","long":"127.43132249","imageIndex":17,"items":[{"name":"부덕농자재","tel":"031-632-1134","addr":"경기도 이천시 호법면 후안리 94-8번지","indutype":"농업 - 기타농업관련","category":"other"}]},{"lat":"37.223447852","long":"127.42783017","imageIndex":17,"items":[{"name":"세븐일레븐이천호법대로점","tel":"","addr":"경기도 이천시 호법면 후안리 261-5번지","indutype":"유통업 영리 - 편 의 점","category":"other"},{"name":"코롱천막.모타수리","tel":"031-634-3353","addr":"경기도 이천시 호법면 후안리 261-5번지","indutype":"직물 - 카페트,커튼,천막,지물","category":"other"}]},{"lat":"37.221947039","long":"127.42674011","imageIndex":17,"items":[{"name":"엘림철물건재","tel":"031-631-0401","addr":"경기도 이천시 호법면 후안리 225번지","indutype":"건축자재 - 목재·석재·철물","category":"other"}]},{"lat":"37.228524875","long":"127.43165599","imageIndex":17,"items":[{"name":"유니프레임코리아판매 주식회사","tel":"070-4191-0163","addr":"경기도 이천시 호법면 후안리 89번지 2호","indutype":"레져용품 - 스포츠·레져용품","category":"other"}]},{"lat":"37.221390185","long":"127.42624125","imageIndex":17,"items":[{"name":"진 플라워","tel":"031-638-3558","addr":"경기도 이천시 호법면 후안리 224-6번지 (후안리 224-6 외225-2.225-3)","indutype":"문화.취미 - 화원","category":"other"}]},{"lat":"37.231190518","long":"127.434522","imageIndex":17,"items":[{"name":"청소박사","tel":"031-634-6347","addr":"경기도 이천시 호법면 후안리 40-2번지","indutype":"용역 서비스 - 종합용역","category":"other"}]},{"lat":"37.22680863","long":"127.43035048","imageIndex":17,"items":[{"name":"한국세탁기계","tel":"031-632-0075","addr":"경기도 이천시 호법면 후안리 94-4번지","indutype":"전기제품 - 기타전기제품","category":"other"}]},{"lat":"37.222135647","long":"127.42691017","imageIndex":17,"items":[{"name":"호법종합전기","tel":"031-632-9025","addr":"경기도 이천시 호법면 후안리 226-7번지","indutype":"전기제품 - 기타전기제품","category":"other"}]},{"lat":"37.222056853","long":"127.42626751","imageIndex":17,"items":[{"name":"호법철물","tel":"031-634-1500","addr":"경기도 이천시 호법면 후안리 230-2번지","indutype":"기타 - 기계공구","category":"other"}]},{"lat":"37.224026801","long":"127.42719118","imageIndex":17,"items":[{"name":"호법초등학교총동문회","tel":"031-632-9037","addr":"경기도 이천시 호법면 후안리 295번지 (후미촌길4)","indutype":"기타 - 비영리/비대상","category":"other"}]}]