[{"lat":"37.245517315","long":"126.95126233","imageIndex":4,"items":[{"name":"까치골","tel":"031-292-5642","addr":"경기도 화성시 매송면 천천리 78-2번지","indutype":"일반휴게음식 - 일반한식","category":"restaurant"}]},{"lat":"37.244902342","long":"126.94629243","imageIndex":4,"items":[{"name":"돌돌이치킨","tel":"031-295-9555","addr":"경기도 화성시 매송면 천천리 194-2번지","indutype":"일반휴게음식 - 스넥","category":"restaurant"}]},{"lat":"37.246624343","long":"126.94848895","imageIndex":4,"items":[{"name":"등나무집","tel":"031-292-3165","addr":"경기도 화성시 매송면 천천리 122-6번지","indutype":"일반휴게음식 - 일반한식","category":"restaurant"}]},{"lat":"37.243847973","long":"126.94595511","imageIndex":4,"items":[{"name":"본가식당","tel":"031-294-0369","addr":"경기도 화성시 매송면 천천리 213-2번지","indutype":"일반휴게음식 - 일반한식","category":"restaurant"}]},{"lat":"37.245127237","long":"126.94553713","imageIndex":4,"items":[{"name":"뺑덕어멈","tel":"031-293-9881","addr":"경기도 화성시 매송면 천천리 189-1번지 1층","indutype":"일반휴게음식 - 스넥","category":"restaurant"}]},{"lat":"37.243821537","long":"126.94720614","imageIndex":4,"items":[{"name":"쉼","tel":"031-293-8007","addr":"경기도 화성시 매송면 천천리 221-1번지","indutype":"일반휴게음식 - 서양음식","category":"restaurant"}]},{"lat":"37.243820389","long":"126.94481682","imageIndex":4,"items":[{"name":"쌍둥이네","tel":"031-293-8868","addr":"경기도 화성시 매송면 천천리 210-5번지","indutype":"일반휴게음식 - 일반한식","category":"restaurant"}]},{"lat":"37.243876139","long":"126.94836695","imageIndex":4,"items":[{"name":"용추골미궁순대","tel":"031-891-1223","addr":"경기도 화성시 매송면 천천리 108-6번지","indutype":"일반휴게음식 - 일반한식","category":"restaurant"}]},{"lat":"37.243352094","long":"126.94531307","imageIndex":4,"items":[{"name":"장궁순대국","tel":"031-297-1120","addr":"경기도 화성시 매송면 천천리 329-11번지 1층","indutype":"일반휴게음식 - 일반한식","category":"restaurant"}]},{"lat":"37.243902143","long":"126.94618047","imageIndex":4,"items":[{"name":"진미소뼈해장국","tel":"031-294-7726","addr":"경기도 화성시 매송면 천천리 202-4번지","indutype":"일반휴게음식 - 일반한식","category":"restaurant"}]},{"lat":"37.251929947","long":"126.94537417","imageIndex":4,"items":[{"name":"칠보산토종닭","tel":"031-292-3236","addr":"경기도 화성시 매송면 천천리 3-1번지","indutype":"일반휴게음식 - 일반한식","category":"restaurant"}]},{"lat":"37.24410066","long":"126.94678893","imageIndex":4,"items":[{"name":"호박오리","tel":"031-293-0201","addr":"경기도 화성시 매송면 천천리 200-2번지","indutype":"일반휴게음식 - 일반한식","category":"restaurant"}]}]