[{"lat":"37.767293872","long":"127.22826906","imageIndex":17,"items":[{"name":"(주)대산우드랜드","tel":"070-5588-4584","addr":"경기도 포천시 내촌면 음현리 399-12번지","indutype":"건축자재 - 목재·석재·철물","category":"other"},{"name":"서광특수금속","tel":"031-534-9227","addr":"경기도 포천시 내촌면 음현리 399-12번지","indutype":"가구 - 일반가구","category":"other"}]},{"lat":"37.773122744","long":"127.2284116","imageIndex":17,"items":[{"name":"AJ스포츠","tel":"070-7659-3121","addr":"경기도 포천시 내촌면 음현리 295번지 103호","indutype":"레져용품 - 스포츠·레져용품","category":"other"},{"name":"대명광고기획","tel":"031-551-9973","addr":"경기도 포천시 내촌면 음현리 295번지","indutype":"용역 서비스 - 종합용역","category":"other"},{"name":"태정상사","tel":"031-533-8006","addr":"경기도 포천시 내촌면 음현리 295번지 SK주유소옆","indutype":"신변잡화 - 기타잡화","category":"other"}]},{"lat":"37.767845872","long":"127.2269996","imageIndex":17,"items":[{"name":"CU포천매화점","tel":"531-6959","addr":"경기도 포천시 내촌면 음현리 602-5번지","indutype":"소매업 - 편의점","category":"other"},{"name":"주원골프존","tel":"031-531-3353","addr":"경기도 포천시 내촌면 음현리 602-5번지 외2필지 2층","indutype":"회원제형태 - 레져업소","category":"other"},{"name":"한신콤푸레샤","tel":"031-536-5158","addr":"경기도 포천시 내촌면 음현리 602-5번지","indutype":"기타 - 기계공구","category":"other"}]},{"lat":"37.775484974","long":"127.22749938","imageIndex":17,"items":[{"name":"OK공구","tel":"031-532-0979","addr":"경기도 포천시 내촌면 음현리 681-5번지","indutype":"기타 - 기계공구","category":"other"},{"name":"위드미포천내촌점","tel":"02-6916-1500","addr":"경기도 포천시 내촌면 음현리 681-5번지","indutype":"유통업 영리 - 편 의 점","category":"other"}]},{"lat":"37.763292321","long":"127.22421676","imageIndex":17,"items":[{"name":"경일테크","tel":"031-531-8985","addr":"경기도 포천시 내촌면 음현리 559-1번지","indutype":"기타 - 기계공구","category":"other"}]},{"lat":"37.77973868","long":"127.22685388","imageIndex":17,"items":[{"name":"국제목공기계","tel":"031-533-8612","addr":"경기도 포천시 내촌면 음현리 723-4","indutype":"기타 - 기타 전문점","category":"other"}]},{"lat":"37.774789259","long":"127.23319523","imageIndex":17,"items":[{"name":"금성발전기상사","tel":"031-531-3330","addr":"경기도 포천시 내촌면 음현리 241번지","indutype":"건축자재 - 조명기구","category":"other"},{"name":"대일테크","tel":"031-531-6863","addr":"경기도 포천시 내촌면 음현리 241번지","indutype":"건축자재 - 유리","category":"other"}]},{"lat":"37.780623756","long":"127.22572141","imageIndex":17,"items":[{"name":"나무나라","tel":"031-533-3271","addr":"경기도 포천시 내촌면 음현리 760-3번지","indutype":"문화.취미 - 화원","category":"other"}]},{"lat":"37.78170448","long":"127.22594033","imageIndex":17,"items":[{"name":"내촌판넬","tel":"031-533-1721","addr":"경기도 포천시 내촌면 음현리 759-6번지","indutype":"건축자재 - 기타건축자재","category":"other"}]},{"lat":"37.770515669","long":"127.23477095","imageIndex":17,"items":[{"name":"녹색에너지열나라","tel":"031-528-1187","addr":"경기도 포천시 내촌면 음현리 80-3번지 1층","indutype":"전기제품 - 기타전기제품","category":"other"}]},{"lat":"37.778897387","long":"127.22388869","imageIndex":17,"items":[{"name":"누비엘","tel":"","addr":"경기도 포천시 내촌면 음현리 733-4번지","indutype":"가구 - 기타가구","category":"other"}]},{"lat":"37.772539583","long":"127.24090635","imageIndex":17,"items":[{"name":"대한불교조계종약천사","tel":"031-532-7374","addr":"경기도 포천시 내촌면 음현리 41-5","indutype":"신변잡화 - 기념품점","category":"other"}]},{"lat":"37.766017794","long":"127.22655146","imageIndex":17,"items":[{"name":"대희산업","tel":"031-532-5989","addr":"경기도 포천시 내촌면 음현리 588-1","indutype":"가구 - 일반가구","category":"other"},{"name":"주영레이저알곤용접","tel":"031-532-2345","addr":"경기도 포천시 내촌면 음현리 588-1번지","indutype":"기타 - 기계공구","category":"other"},{"name":"하승지게차","tel":"031-534-8098","addr":"경기도 포천시 내촌면 음현리 588-1번지","indutype":"기타 - 기계공구","category":"other"}]},{"lat":"37.76298506","long":"127.22471519","imageIndex":17,"items":[{"name":"동부상사","tel":"031-534-4868","addr":"경기도 포천시 내촌면 음현리 525-1번지 가동 1층","indutype":"유통업 영리 - 기타유통업","category":"other"}]},{"lat":"37.776953828","long":"127.23660719","imageIndex":17,"items":[{"name":"동신실업","tel":"031-487-0820","addr":"경기도 포천시 내촌면 음현리 138-4번지 139-3","indutype":"주방용구 - 주방용구","category":"other"}]},{"lat":"37.757983437","long":"127.22060365","imageIndex":17,"items":[{"name":"동양볼트공구철물","tel":"031-573-0409","addr":"경기도 포천시 내촌면 음현리 840-5번지","indutype":"기타 - 기계공구","category":"other"}]},{"lat":"37.782595209","long":"127.2265787","imageIndex":17,"items":[{"name":"맥스텔레콤","tel":"031-1688-7782","addr":"경기도 포천시 내촌면 음현리 765-4번지","indutype":"사무통신 - 통신기기","category":"other"}]},{"lat":"37.764766556","long":"127.22116828","imageIndex":17,"items":[{"name":"미래어패럴","tel":"031-532-3272","addr":"경기도 포천시 내촌면 음현리 813-2번지","indutype":"의류 - 정장","category":"other"}]},{"lat":"37.771711367","long":"127.23147183","imageIndex":17,"items":[{"name":"미래플러스","tel":"031-531-0942","addr":"경기도 포천시 내촌면 음현리 311-1번지 제2동","indutype":"가구 - 일반가구","category":"other"}]},{"lat":"37.77301723","long":"127.22704926","imageIndex":17,"items":[{"name":"바벤디자인","tel":"031-532-9546","addr":"경기도 포천시 내촌면 음현리 620-3번지","indutype":"가구 - 일반가구","category":"other"}]},{"lat":"37.763792178","long":"127.2266923","imageIndex":17,"items":[{"name":"보원산업","tel":"031-534-2554","addr":"경기도 포천시 내촌면 음현리 543번지 9호 외1필지","indutype":"기타 - 기계공구","category":"other"}]},{"lat":"37.762624938","long":"127.22457793","imageIndex":17,"items":[{"name":"사파리월드","tel":"070-7720-0949","addr":"경기도 포천시 내촌면 음현리 525-1번지 가동","indutype":"문화.취미 - 애완동물","category":"other"},{"name":"주식회사 보고산업","tel":"031-531-7102","addr":"경기도 포천시 내촌면 음현리 525-1번지 나동","indutype":"건축자재 - 기타건축자재","category":"other"}]},{"lat":"37.767906557","long":"127.22824822","imageIndex":17,"items":[{"name":"수공방","tel":"070-8210-6383","addr":"경기도 포천시 내촌면 음현리 396-9번지 가동","indutype":"문화.취미 - 민예·공예품","category":"other"}]},{"lat":"37.768205948","long":"127.22715958","imageIndex":17,"items":[{"name":"스타","tel":"544-8387","addr":"경기도 포천시 내촌면 음현리 602번지","indutype":"도소매 - 스포츠","category":"other"},{"name":"스타","tel":"031-544-8387","addr":"경기도 포천시 내촌면 음현리 602번지","indutype":"레져용품 - 골프용품 전문점","category":"other"}]},{"lat":"37.760205175","long":"127.22255072","imageIndex":17,"items":[{"name":"씨유포천금강로점","tel":"031-532-7978","addr":"경기도 포천시 내촌면 음현리 521-1번지","indutype":"유통업 영리 - 편 의 점","category":"other"}]},{"lat":"37.782955694","long":"127.22652303","imageIndex":17,"items":[{"name":"씨유포천내촌제일점","tel":"031-534-8885","addr":"경기도 포천시 내촌면 음현리 765번지","indutype":"유통업 영리 - 편 의 점","category":"other"}]},{"lat":"37.764316683","long":"127.22566113","imageIndex":17,"items":[{"name":"에스툴(S-TOOl)","tel":"031-531-0986","addr":"경기도 포천시 내촌면 음현리 549-1번지","indutype":"기타 - 기계공구","category":"other"}]},{"lat":"37.775648","long":"127.23633066","imageIndex":17,"items":[{"name":"엘에이치건설","tel":"031-542-4075","addr":"경기도 포천시 내촌면 음현리 139-17번지","indutype":"용역 서비스 - 기타용역서비스","category":"other"}]},{"lat":"37.767989289","long":"127.22738591","imageIndex":17,"items":[{"name":"여기야,주원골프존","tel":"031-531-3353","addr":"경기도 포천시 내촌면 음현리 604-2번지 602외1,602-5외2","indutype":"회원제형태 - 레져업소","category":"other"}]},{"lat":"37.773428957","long":"127.22846929","imageIndex":17,"items":[{"name":"영진산업","tel":"031-531-4748","addr":"경기도 포천시 내촌면 음현리 289","indutype":"기타 - 기타 전문점","category":"other"}]},{"lat":"37.781957066","long":"127.22577082","imageIndex":17,"items":[{"name":"영진포장비니루","tel":"031-531-0331","addr":"경기도 포천시 내촌면 음현리 759-1번지","indutype":"기타 - 기타 전문점","category":"other"},{"name":"원일산업","tel":"031-533-8407","addr":"경기도 포천시 내촌면 음현리 759-1번지","indutype":"건축자재 - 페인트","category":"other"}]},{"lat":"37.77732304","long":"127.24119411","imageIndex":17,"items":[{"name":"왕비가구","tel":"031-531-9715","addr":"경기도 포천시 내촌면 음현리 10-18","indutype":"가구 - 일반가구","category":"other"}]},{"lat":"37.76090139","long":"127.22602538","imageIndex":17,"items":[{"name":"원바운스","tel":"031-553-2148","addr":"경기도 포천시 내촌면 음현리 509-5번지","indutype":"서적문구 - 완구점","category":"other"}]},{"lat":"37.765127145","long":"127.22105585","imageIndex":17,"items":[{"name":"주식회사 반디오","tel":"031-533-4800","addr":"경기도 포천시 내촌면 음현리 810번지","indutype":"서적문구 - 과학기자재","category":"other"}]},{"lat":"37.764405575","long":"127.22629693","imageIndex":17,"items":[{"name":"주식회사대진판넬","tel":"031-534-7796","addr":"경기도 포천시 내촌면 음현리 548-5번지","indutype":"건축자재 - 기타건축자재","category":"other"}]},{"lat":"37.7774265","long":"127.22513291","imageIndex":17,"items":[{"name":"주신산업","tel":"031-527-8206","addr":"경기도 포천시 내촌면 음현리 695-10번지","indutype":"기타 - 기계공구","category":"other"}]},{"lat":"37.778486412","long":"127.2268274","imageIndex":17,"items":[{"name":"중고철제","tel":"031-573-8234","addr":"경기도 포천시 내촌면 음현리 718-7 .718-10","indutype":"신변잡화 - 기타잡화","category":"other"}]},{"lat":"37.755292341","long":"127.22396598","imageIndex":17,"items":[{"name":"타니전동차","tel":"02-3675-6186","addr":"경기도 포천시 내촌면 음현리 462번지","indutype":"용역 서비스 - 소프트웨어","category":"other"}]},{"lat":"37.758658413","long":"127.22100281","imageIndex":17,"items":[{"name":"태산기획","tel":"031-571-0942","addr":"경기도 포천시 내촌면 음현리 836-8번지","indutype":"기타 - 기계공구","category":"other"}]},{"lat":"37.759180368","long":"127.22613369","imageIndex":17,"items":[{"name":"태지상사","tel":"070-1111-1111","addr":"경기도 포천시 내촌면 음현리 489번지","indutype":"수리서비스 - 기타수리서비스","category":"other"}]},{"lat":"37.774989087","long":"127.22769084","imageIndex":17,"items":[{"name":"푸른들농원","tel":"031-531-2285","addr":"경기도 포천시 내촌면 음현리 223-6번지 일부","indutype":"문화.취미 - 화원","category":"other"}]},{"lat":"37.759316734","long":"127.2206643","imageIndex":17,"items":[{"name":"피엔에스","tel":"031-531-5925","addr":"경기도 포천시 내촌면 음현리 843-5번지 103호","indutype":"용역 서비스 - 종합용역","category":"other"}]},{"lat":"37.76751691","long":"127.22941602","imageIndex":17,"items":[{"name":"하은ENG","tel":"031-534-7145","addr":"경기도 포천시 내촌면 음현리 392-1","indutype":"기타 - 기계공구","category":"other"}]},{"lat":"37.775205681","long":"127.22749853","imageIndex":17,"items":[{"name":"현대철강","tel":"031-534-8500","addr":"경기도 포천시 내촌면 음현리 645-2","indutype":"건축자재 - 기타건축자재","category":"other"}]},{"lat":"37.760205175","long":"127.22255072","imageIndex":7,"items":[{"name":"Mart&Mart(마트앤마트)","tel":"031-532-7978","addr":"경기도 포천시 내촌면 음현리 521-1","indutype":"유통업 영리 - 슈퍼마켓","category":"mart"}]},{"lat":"37.782955694","long":"127.22652303","imageIndex":7,"items":[{"name":"굿마트포천내촌점","tel":"031-534-8375","addr":"경기도 포천시 내촌면 음현리 765","indutype":"유통업 영리 - 슈퍼마켓","category":"mart"}]},{"lat":"37.774045822","long":"127.2445206","imageIndex":7,"items":[{"name":"산장슈퍼","tel":"031-533-7844","addr":"경기도 포천시 내촌면 음현리 26-2번지","indutype":"유통업 영리 - 슈퍼마켓","category":"mart"}]},{"lat":"37.757983437","long":"127.22060365","imageIndex":9,"items":[{"name":"가스뱅크","tel":"031-527-0556","addr":"경기도 포천시 내촌면 음현리 840-5번지 1층","indutype":"연료판매점 - LPG 취급점","category":"oil"},{"name":"제일가스","tel":"070-6748-1240","addr":"경기도 포천시 내촌면 음현리 840-5번지","indutype":"연료판매점 - LPG 취급점","category":"oil"}]},{"lat":"37.773564685","long":"127.22816324","imageIndex":9,"items":[{"name":"경기한양에너지 주식회사","tel":"031-532-0333","addr":"경기도 포천시 내촌면 음현리 293-1번지","indutype":"연료판매점 - 유류판매","category":"oil"},{"name":"경기한양에너지 주식회사","tel":"031-532-0333","addr":"경기도 포천시 내촌면 음현리 293-1번지","indutype":"연료판매점 - 유류판매","category":"oil"}]},{"lat":"37.76795588","long":"127.22600118","imageIndex":9,"items":[{"name":"광릉엘피지(LPG)충전소","tel":"031-000-0000","addr":"경기도 포천시 내촌면 음현리 598-21번지","indutype":"연료판매점 - SK가스충전소","category":"oil"}]},{"lat":"37.774955865","long":"127.23091429","imageIndex":9,"items":[{"name":"신성가스","tel":"031-534-8451","addr":"경기도 포천시 내촌면 음현리 250번지","indutype":"연료판매점 - LPG 취급점","category":"oil"}]},{"lat":"37.759296507","long":"127.2218558","imageIndex":0,"items":[{"name":"고려세차장","tel":"031-531-3328","addr":"경기도 포천시 내촌면 음현리 520번지","indutype":"자동차정비 유지 - 세차장","category":"car"},{"name":"문화라이닝","tel":"031-534-2042","addr":"경기도 포천시 내촌면 음현리 520번지","indutype":"자동차정비 유지 - 자동차부품","category":"car"}]},{"lat":"37.781758064","long":"127.22619023","imageIndex":0,"items":[{"name":"나드덴트칼라","tel":"","addr":"경기도 포천시 내촌면 음현리 759-13번지","indutype":"자동차정비 유지 - 카인테리어","category":"car"}]},{"lat":"37.780092157","long":"127.22574251","imageIndex":0,"items":[{"name":"내촌점현대자동차","tel":"031-534-1009","addr":"경기도 포천시 내촌면 음현리 760-8번지","indutype":"자동차정비 유지 - 카인테리어","category":"car"}]},{"lat":"37.780987533","long":"127.22391762","imageIndex":0,"items":[{"name":"대성타이어","tel":"031-532-5476","addr":"경기도 포천시 내촌면 음현리 745-2번지","indutype":"자동차정비 유지 - 자동차시트·타이어","category":"car"},{"name":"대진타이어","tel":"031-534-5473","addr":"경기도 포천시 내촌면 음현리 745-2번지,746-1","indutype":"자동차정비 유지 - 자동차시트·타이어","category":"car"}]},{"lat":"37.772592618","long":"127.22766088","imageIndex":0,"items":[{"name":"대영윤활유","tel":"031-531-5157","addr":"경기도 포천시 내촌면 음현리 298-5번지","indutype":"자동차정비 유지 - 윤활유 전문 판매","category":"car"}]},{"lat":"37.776458641","long":"127.2271618","imageIndex":0,"items":[{"name":"인왕모터스","tel":"031-532-4758","addr":"경기도 포천시 내촌면 음현리 680-1번지","indutype":"자동차정비 유지 - 자동차부품","category":"car"}]},{"lat":"37.775484974","long":"127.22749938","imageIndex":0,"items":[{"name":"자동차구조대","tel":"031-532-5119","addr":"경기도 포천시 내촌면 음현리 681-5","indutype":"자동차정비 유지 - 자동차시트·타이어","category":"car"}]},{"lat":"37.759847368","long":"127.22116518","imageIndex":0,"items":[{"name":"중앙세차장","tel":"031-534-1138","addr":"경기도 포천시 내촌면 음현리 829-3번지 C동","indutype":"자동차정비 유지 - 카인테리어","category":"car"}]},{"lat":"37.778648215","long":"127.22702085","imageIndex":0,"items":[{"name":"타이어구조대오일구조대","tel":"031-534-9888","addr":"경기도 포천시 내촌면 음현리 716-3번지","indutype":"자동차정비 유지 - 자동차시트·타이어","category":"car"},{"name":"타이어구조대오일구조대","tel":"030-534-9888","addr":"경기도 포천시 내촌면 음현리 716-3번지","indutype":"자동차정비 유지 - 세차장","category":"car"}]},{"lat":"37.767845872","long":"127.2269996","imageIndex":0,"items":[{"name":"트럭마트","tel":"031-535-7688","addr":"경기도 포천시 내촌면 음현리 602-5번지","indutype":"자동차정비 유지 - 자동차부품","category":"car"}]},{"lat":"37.77973868","long":"127.22685388","imageIndex":4,"items":[{"name":"교동짬뽕","tel":"534-4088","addr":"경기도 포천시 내촌면 음현리 723-4번지","indutype":"음식 - 한식","category":"restaurant"}]},{"lat":"37.760261194","long":"127.22149549","imageIndex":4,"items":[{"name":"국수마을","tel":"031-534-1883","addr":"경기도 포천시 내촌면 음현리 828-2번지","indutype":"일반휴게음식 - 일반한식","category":"restaurant"}]},{"lat":"37.782459161","long":"127.22705506","imageIndex":4,"items":[{"name":"금동이네","tel":"031-023-2859","addr":"경기도 포천시 내촌면 음현리 765-10번지","indutype":"일반휴게음식 - 일반한식","category":"restaurant"}]},{"lat":"37.759847368","long":"127.22116518","imageIndex":4,"items":[{"name":"나능이버섯백숙","tel":"031-531-9959","addr":"경기도 포천시 내촌면 음현리 829-3번지","indutype":"일반휴게음식 - 일반한식","category":"restaurant"},{"name":"나능이버섯백숙","tel":"531-9959","addr":"경기도 포천시 내촌면 음현리 829-3번지","indutype":"음식 - 한식","category":"restaurant"},{"name":"명사순대","tel":"031-531-3592","addr":"경기도 포천시 내촌면 음현리 829-3번지 나동","indutype":"일반휴게음식 - 일반한식","category":"restaurant"}]},{"lat":"37.760845882","long":"127.22199654","imageIndex":4,"items":[{"name":"내촌해신탕","tel":"531-0323","addr":"경기도 포천시 내촌면 음현리 825-1번지","indutype":"음식 - 한식","category":"restaurant"},{"name":"내촌해신탕","tel":"031-531-0323","addr":"경기도 포천시 내촌면 음현리 825-1번지","indutype":"일반휴게음식 - 일반한식","category":"restaurant"},{"name":"배양리 두루치기","tel":"031-532-7780","addr":"경기도 포천시 내촌면 음현리 825-1번지 1층","indutype":"일반휴게음식 - 일반한식","category":"restaurant"},{"name":"이원 손짜장 일번지","tel":"531-8930","addr":"경기도 포천시 내촌면 음현리 825-1번지","indutype":"음식 - 중식","category":"restaurant"},{"name":"이원손짜장","tel":"031-531-8930","addr":"경기도 포천시 내촌면 음현리 825-1번지","indutype":"일반휴게음식 - 중국식","category":"restaurant"},{"name":"장원막국수","tel":"534-5855","addr":"경기도 포천시 내촌면 음현리 825-1번지","indutype":"음식 - 한식","category":"restaurant"},{"name":"장원막국수","tel":"031-534-5855","addr":"경기도 포천시 내촌면 음현리 825-1번지","indutype":"일반휴게음식 - 일반한식","category":"restaurant"}]},{"lat":"37.782595209","long":"127.2265787","imageIndex":4,"items":[{"name":"네네치킨내촌점","tel":"531-3222","addr":"경기도 포천시 내촌면 음현리 765-4번지","indutype":"음식 - 치킨","category":"restaurant"},{"name":"네네치킨내촌점","tel":"031-531-3222","addr":"경기도 포천시 내촌면 음현리 765-4번지","indutype":"일반휴게음식 - 스넥","category":"restaurant"},{"name":"잣나무기사식당","tel":"031-532-5928","addr":"경기도 포천시 내촌면 음현리 765-4.9","indutype":"일반휴게음식 - 일반한식","category":"restaurant"},{"name":"진흥각","tel":"533-7786","addr":"경기도 포천시 내촌면 음현리 765-4번지","indutype":"음식 - 한식","category":"restaurant"},{"name":"진흥각","tel":"031-533-7796","addr":"경기도 포천시 내촌면 음현리 765-4번지","indutype":"일반휴게음식 - 중국식","category":"restaurant"}]},{"lat":"37.763488435","long":"127.22532953","imageIndex":4,"items":[{"name":"대가촌","tel":"031-531-3655","addr":"경기도 포천시 내촌면 음현리 551","indutype":"일반휴게음식 - 일반한식","category":"restaurant"}]},{"lat":"37.782955694","long":"127.22652303","imageIndex":4,"items":[{"name":"돼지의품격","tel":"031-532-2582","addr":"경기도 포천시 내촌면 음현리 765번지","indutype":"일반휴게음식 - 일반한식","category":"restaurant"},{"name":"돼지의품격","tel":"538-2582","addr":"경기도 포천시 내촌면 음현리 765번지","indutype":"음식 - 한식","category":"restaurant"},{"name":"즐거운식사시간","tel":"031-532-4919","addr":"경기도 포천시 내촌면 음현리 765번지","indutype":"일반휴게음식 - 일반한식","category":"restaurant"}]},{"lat":"37.775484974","long":"127.22749938","imageIndex":4,"items":[{"name":"맹첨지갈비탕","tel":"031-532-3576","addr":"경기도 포천시 내촌면 음현리 681-5번지 1층","indutype":"일반휴게음식 - 일반한식","category":"restaurant"}]},{"lat":"37.775099101","long":"127.22669232","imageIndex":4,"items":[{"name":"맹첨지갈비탕","tel":"532-3576","addr":"경기도 포천시 내촌면 음현리 648-12번지","indutype":"음식 - 한식","category":"restaurant"}]},{"lat":"37.768205948","long":"127.22715958","imageIndex":4,"items":[{"name":"머슴국밥","tel":"031-533-9216","addr":"경기도 포천시 내촌면 음현리 602번지","indutype":"일반휴게음식 - 일반한식","category":"restaurant"}]},{"lat":"37.767293872","long":"127.22826906","imageIndex":4,"items":[{"name":"밥짓는마을","tel":"031-531-3191","addr":"경기도 포천시 내촌면 음현리 399-12번지 21호","indutype":"일반휴게음식 - 일반한식","category":"restaurant"}]},{"lat":"37.774016911","long":"127.22724523","imageIndex":4,"items":[{"name":"본점곰탕","tel":"031-531-2527","addr":"경기도 포천시 내촌면 음현리 643-2번지 외1필지","indutype":"일반휴게음식 - 일반한식","category":"restaurant"},{"name":"본점곰탕","tel":"531-2527","addr":"경기도 포천시 내촌면 음현리 643-2번지","indutype":"음식 - 한식","category":"restaurant"}]},{"lat":"37.762095976","long":"127.22319183","imageIndex":4,"items":[{"name":"석촌가든","tel":"031-531-4014","addr":"경기도 포천시 내촌면 음현리 561-5","indutype":"일반휴게음식 - 일반한식","category":"restaurant"},{"name":"석촌가든","tel":"531-6584","addr":"경기도 포천시 내촌면 음현리 561-5번지","indutype":"음식 - 한식","category":"restaurant"}]},{"lat":"37.769377802","long":"127.22683398","imageIndex":4,"items":[{"name":"솔마루","tel":"532-7775","addr":"경기도 포천시 내촌면 음현리 615-2번지","indutype":"음식 - 양식","category":"restaurant"},{"name":"솔마루","tel":"031-539-2536","addr":"경기도 포천시 내촌면 음현리 615-2번지 2층","indutype":"일반휴게음식 - 서양음식","category":"restaurant"}]},{"lat":"37.760432016","long":"127.22168892","imageIndex":4,"items":[{"name":"얼시마시원조양평해장국","tel":"533-1606","addr":"경기도 포천시 내촌면 음현리 828-1번지","indutype":"음식 - 한식","category":"restaurant"},{"name":"얼시마시원조양평해장국","tel":"031-532-1606","addr":"경기도 포천시 내촌면 음현리 828-1번지","indutype":"일반휴게음식 - 일반한식","category":"restaurant"},{"name":"얼시마시원조양평해장국","tel":"533-1606","addr":"경기도 포천시 내촌면 음현리 828-1번지","indutype":"음식 - 한식","category":"restaurant"}]},{"lat":"37.767989289","long":"127.22738591","imageIndex":4,"items":[{"name":"여기야","tel":"031-533-8216","addr":"경기도 포천시 내촌면 음현리 604-2번지 외1.602 602호 5외 2동","indutype":"일반휴게음식 - 일반한식","category":"restaurant"}]},{"lat":"37.781957066","long":"127.22577082","imageIndex":4,"items":[{"name":"열무국수집","tel":"031-531-0622","addr":"경기도 포천시 내촌면 음현리 759-1번지","indutype":"일반휴게음식 - 일반한식","category":"restaurant"}]},{"lat":"37.772348995","long":"127.2278531","imageIndex":4,"items":[{"name":"옹기만두","tel":"031-531-8666","addr":"경기도 포천시 내촌면 음현리 298-9","indutype":"일반휴게음식 - 일반한식","category":"restaurant"},{"name":"옹기만두","tel":"531-8666","addr":"경기도 포천시 내촌면 음현리 298-9번지","indutype":"음식 - 한식","category":"restaurant"},{"name":"옹기만두","tel":"531-8666","addr":"경기도 포천시 내촌면 음현리 298-9번지","indutype":"음식 - 한식","category":"restaurant"}]},{"lat":"37.767845872","long":"127.2269996","imageIndex":4,"items":[{"name":"우리밀쌀찐빵","tel":"031-532-4611","addr":"경기도 포천시 내촌면 음현리 602-5번지 1층","indutype":"일반휴게음식 - 일반한식","category":"restaurant"}]},{"lat":"37.764984433","long":"127.22510703","imageIndex":4,"items":[{"name":"음현식당","tel":"031-532-2525","addr":"경기도 포천시 내촌면 음현리 579-13번지","indutype":"일반휴게음식 - 일반한식","category":"restaurant"},{"name":"음현식당","tel":"532-2525","addr":"경기도 포천시 내촌면 음현리 579-13번지","indutype":"음식 - 한식","category":"restaurant"}]},{"lat":"37.757210954","long":"127.2241873","imageIndex":4,"items":[{"name":"장수식당","tel":"031-533-8911","addr":"경기도 포천시 내촌면 음현리 470번지 1층","indutype":"일반휴게음식 - 일반한식","category":"restaurant"}]},{"lat":"37.781370594","long":"127.22622312","imageIndex":4,"items":[{"name":"정가네동태야","tel":"531-3633","addr":"경기도 포천시 내촌면 음현리 761-28번지","indutype":"음식 - 한식","category":"restaurant"},{"name":"정가네동태야","tel":"031-531-3633","addr":"경기도 포천시 내촌면 음현리 761-28번지 1층","indutype":"일반휴게음식 - 일반한식","category":"restaurant"}]},{"lat":"37.777703647","long":"127.22626884","imageIndex":4,"items":[{"name":"통큰왕짬뽕","tel":"031-536-5393","addr":"경기도 포천시 내촌면 음현리 695-12번지","indutype":"일반휴게음식 - 중국식","category":"restaurant"}]},{"lat":"37.769678281","long":"127.23451864","imageIndex":4,"items":[{"name":"트레비","tel":"031-534-0123","addr":"경기도 포천시 내촌면 음현리 71-2번지","indutype":"일반휴게음식 - 일반한식","category":"restaurant"}]},{"lat":"37.759040802","long":"127.21883645","imageIndex":4,"items":[{"name":"파티오-25","tel":"532-8411","addr":"경기도 포천시 내촌면 음현리 852번지","indutype":"음식 - 커피 등","category":"restaurant"},{"name":"파티오-25","tel":"031-532-8411","addr":"경기도 포천시 내촌면 음현리 852번지","indutype":"일반휴게음식 - 일반한식","category":"restaurant"}]},{"lat":"37.768987892","long":"127.22338252","imageIndex":4,"items":[{"name":"팔야촌","tel":"031-532-4622","addr":"경기도 포천시 내촌면 음현리 612-1번지","indutype":"일반휴게음식 - 일반한식","category":"restaurant"}]},{"lat":"37.764316683","long":"127.22566113","imageIndex":4,"items":[{"name":"풍년 밥집","tel":"031-531-6002","addr":"경기도 포천시 내촌면 음현리 549-1번지","indutype":"일반휴게음식 - 일반한식","category":"restaurant"}]},{"lat":"37.773683453","long":"127.22730097","imageIndex":4,"items":[{"name":"해오름능이백숙","tel":"531-6650","addr":"경기도 포천시 내촌면 음현리 642-1번지","indutype":"음식 - 한식","category":"restaurant"}]},{"lat":"37.782512699","long":"127.22732766","imageIndex":16,"items":[{"name":"내촌영광어린이집[아이행복]","tel":"031-531-5244","addr":"경기도 포천시 내촌면 음현리 765-11번지","indutype":"학원 - 유아원","category":"study"}]},{"lat":"37.779598993","long":"127.2244924","imageIndex":16,"items":[{"name":"내촌중학교","tel":"031-532-2461","addr":"경기도 포천시 내촌면 음현리 710-1번지 내촌중학교","indutype":"학원 - 초중고교육기관","category":"study"}]},{"lat":"37.77973868","long":"127.22685388","imageIndex":7,"items":[{"name":"백년","tel":"031-531-4070","addr":"경기도 포천시 내촌면 음현리 723-4번지","indutype":"음료식품 - 기타음료식품","category":"food"}]},{"lat":"37.759705297","long":"127.22960782","imageIndex":7,"items":[{"name":"아셀떡","tel":"031-534-8519","addr":"경기도 포천시 내촌면 음현리 439-11번지","indutype":"음료식품 - 제과점","category":"food"}]},{"lat":"37.778902633","long":"127.22588651","imageIndex":7,"items":[{"name":"우리농산물","tel":"031-531-7310","addr":"경기도 포천시 내촌면 음현리 715-4","indutype":"음료식품 - 농·축·수산품","category":"food"}]},{"lat":"37.77014865","long":"127.22891331","imageIndex":7,"items":[{"name":"제이드유통","tel":"031-534-0286","addr":"경기도 포천시 내촌면 음현리 336번지","indutype":"음료식품 - 기타음료식품","category":"food"}]},{"lat":"37.777425963","long":"127.23013866","imageIndex":7,"items":[{"name":"진영푸드","tel":"031-575-5640","addr":"경기도 포천시 내촌면 음현리 195번지","indutype":"음료식품 - 농·축·수산품","category":"food"}]},{"lat":"37.761738797","long":"127.22627756","imageIndex":7,"items":[{"name":"토마스 유통","tel":"","addr":"경기도 포천시 내촌면 음현리 530번지","indutype":"음료식품 - 기타음료식품","category":"food"}]},{"lat":"37.782459161","long":"127.22705506","imageIndex":7,"items":[{"name":"풍천수산","tel":"031-534-4121","addr":"경기도 포천시 내촌면 음현리 765-10번지","indutype":"음료식품 - 농·축·수산품","category":"food"}]},{"lat":"37.768406632","long":"127.22585499","imageIndex":5,"items":[{"name":"숲속의궁전","tel":"031-531-6423","addr":"경기도 포천시 내촌면 음현리 598-3번지","indutype":"숙박업 - 여관/기타숙박업","category":"hotel"}]},{"lat":"37.776128456","long":"127.22549225","imageIndex":13,"items":[{"name":"한국불교천지조계종보리암","tel":"070-8181-7958","addr":"경기도 포천시 내촌면 음현리 677번지","indutype":"보건위생 - 기타대인서비스","category":"beauty"}]}]