[{"lat":"37.173588299","long":"127.46996677","imageIndex":17,"items":[{"name":"(재)광주요도자문화원","tel":"031-632-8041","addr":"경기도 이천시 모가면 진가리 279-4","indutype":"기타 - 비영리/대상","category":"other"}]},{"lat":"37.169871411","long":"127.48462604","imageIndex":17,"items":[{"name":"GS25모가사거리점","tel":"","addr":"경기도 이천시 모가면 진가리 94번지","indutype":"유통업 영리 - 편 의 점","category":"other"}]},{"lat":"37.168700795","long":"127.4799911","imageIndex":17,"items":[{"name":"강남태양열","tel":"031-633-3080","addr":"경기도 이천시 모가면 진가리 76-4","indutype":"건축자재 - 보일러·펌프·샷시","category":"other"}]},{"lat":"37.175729921","long":"127.4729639","imageIndex":17,"items":[{"name":"도정도요","tel":"031-634-3607","addr":"경기도 이천시 모가면 진가리 271-4","indutype":"문화.취미 - 민예·공예품","category":"other"}]},{"lat":"37.17158987","long":"127.48079744","imageIndex":17,"items":[{"name":"명성측량설계공사","tel":"031-631-2024","addr":"경기도 이천시 모가면 진가리 110-7번지","indutype":"용역 서비스 - 사무서비스","category":"other"}]},{"lat":"37.168928857","long":"127.47929447","imageIndex":17,"items":[{"name":"모가농협 하나로마트","tel":"031-632-8537","addr":"경기도 이천시 모가면 진가리 78번지","indutype":"유통업 비영리 - 농,축협 직영매장","category":"other"}]},{"lat":"37.170897543","long":"127.48043277","imageIndex":17,"items":[{"name":"모가상사","tel":"031-635-5704","addr":"경기도 이천시 모가면 진가리 110-12","indutype":"건축자재 - 페인트","category":"other"}]},{"lat":"37.168008692","long":"127.47957017","imageIndex":17,"items":[{"name":"모가스크린골프","tel":"031-633-0700","addr":"경기도 이천시 모가면 진가리 67-4번지","indutype":"회원제형태 - 레져업소","category":"other"}]},{"lat":"37.172788627","long":"127.47846296","imageIndex":17,"items":[{"name":"모가콜밴","tel":"","addr":"경기도 이천시 모가면 진가리 334번지","indutype":"여행 - 기타교통수단","category":"other"}]},{"lat":"37.17339638","long":"127.48415298","imageIndex":17,"items":[{"name":"미래기업(주)지점","tel":"031-631-4385","addr":"경기도 이천시 모가면 진가리 124-2번지","indutype":"직물 - 카페트,커튼,천막,지물","category":"other"}]},{"lat":"37.172202694","long":"127.48076752","imageIndex":17,"items":[{"name":"세븐일레븐이천모가면점","tel":"031-1577-0711","addr":"경기도 이천시 모가면 진가리 152-51번지","indutype":"유통업 영리 - 편 의 점","category":"other"}]},{"lat":"37.171202343","long":"127.48081751","imageIndex":17,"items":[{"name":"씨유이천모가면점","tel":"031-633-9483","addr":"경기도 이천시 모가면 진가리 110-10번지 1층","indutype":"유통업 영리 - 편 의 점","category":"other"}]},{"lat":"37.174259724","long":"127.48010487","imageIndex":17,"items":[{"name":"알뜰옷매장","tel":"031-635-2955","addr":"경기도 이천시 모가면 진가리 157-1번지","indutype":"의류 - 기타의류","category":"other"}]},{"lat":"37.173868378","long":"127.48330022","imageIndex":17,"items":[{"name":"우진종합상사","tel":"031-633-1512","addr":"경기도 이천시 모가면 진가리 129-2번지","indutype":"건축자재 - 목재·석재·철물","category":"other"}]},{"lat":"37.169838472","long":"127.47940151","imageIndex":17,"items":[{"name":"이마트24 이천모가점","tel":"031-111-1111","addr":"경기도 이천시 모가면 진가리 111-20번지","indutype":"유통업 영리 - 편 의 점","category":"other"}]},{"lat":"37.167588872","long":"127.48312537","imageIndex":17,"items":[{"name":"진가유리샷시","tel":"031-634-0483","addr":"경기도 이천시 모가면 진가리 38번지","indutype":"건축자재 - 보일러·펌프·샷시","category":"other"}]},{"lat":"37.169008725","long":"127.47959897","imageIndex":17,"items":[{"name":"풍인오토설비","tel":"031-632-3037","addr":"경기도 이천시 모가면 진가리 77-10","indutype":"수리서비스 - 레져용품수리","category":"other"}]},{"lat":"37.167122527","long":"127.48035273","imageIndex":7,"items":[{"name":"1004마트","tel":"031-634-2450","addr":"경기도 이천시 모가면 진가리 67-45번지","indutype":"유통업 영리 - 슈퍼마켓","category":"mart"}]},{"lat":"37.176813709","long":"127.47909624","imageIndex":0,"items":[{"name":"LA AUTO","tel":"031-634-1340","addr":"경기도 이천시 모가면 진가리 507번지","indutype":"자동차판매 - 이륜차판매","category":"car"}]},{"lat":"37.17339638","long":"127.48415298","imageIndex":0,"items":[{"name":"그린자동차부분정비공급사","tel":"031-633-2460","addr":"경기도 이천시 모가면 진가리 124-2","indutype":"자동차정비 유지 - 자동차정비","category":"car"}]},{"lat":"37.171202343","long":"127.48081751","imageIndex":4,"items":[{"name":"가람식당","tel":"031-631-5321","addr":"경기도 이천시 모가면 진가리 110-10번지 1층","indutype":"일반휴게음식 - 일반한식","category":"restaurant"}]},{"lat":"37.173621139","long":"127.47981936","imageIndex":4,"items":[{"name":"경림조개구이","tel":"031-631-0938","addr":"경기도 이천시 모가면 진가리 155-5번지","indutype":"일반휴게음식 - 일반한식","category":"restaurant"}]},{"lat":"37.168900242","long":"127.47968836","imageIndex":4,"items":[{"name":"구이구이숯불뒷고기","tel":"031-632-3778","addr":"경기도 이천시 모가면 진가리 395-11번지","indutype":"일반휴게음식 - 일반한식","category":"restaurant"}]},{"lat":"37.168369574","long":"127.48168914","imageIndex":4,"items":[{"name":"대장골","tel":"031-632-3228","addr":"경기도 이천시 모가면 진가리 67-16번지","indutype":"일반휴게음식 - 일반한식","category":"restaurant"}]},{"lat":"37.172202694","long":"127.48076752","imageIndex":4,"items":[{"name":"도누리숯불갈비","tel":"031-638-0386","addr":"경기도 이천시 모가면 진가리 152-51번지 1층","indutype":"일반휴게음식 - 일반한식","category":"restaurant"},{"name":"모가추아탕","tel":"031-632-1288","addr":"경기도 이천시 모가면 진가리 152-51번지 1동","indutype":"일반휴게음식 - 일반한식","category":"restaurant"},{"name":"카페비비드휴","tel":"031-631-0178","addr":"경기도 이천시 모가면 진가리 152-51번지 2동 1층","indutype":"일반휴게음식 - 일반한식","category":"restaurant"}]},{"lat":"37.169008725","long":"127.47959897","imageIndex":4,"items":[{"name":"도드람마을모가점","tel":"031-634-2782","addr":"경기도 이천시 모가면 진가리 77-10번지","indutype":"일반휴게음식 - 일반한식","category":"restaurant"}]},{"lat":"37.169782736","long":"127.47981776","imageIndex":4,"items":[{"name":"라온폰앤카페","tel":"031-631-1433","addr":"경기도 이천시 모가면 진가리 79-7번지 1층","indutype":"일반휴게음식 - 서양음식","category":"restaurant"}]},{"lat":"37.168644881","long":"127.48268168","imageIndex":4,"items":[{"name":"만리장성","tel":"031-634-9982","addr":"경기도 이천시 모가면 진가리 31번지","indutype":"일반휴게음식 - 중국식","category":"restaurant"},{"name":"황금다방","tel":"031-632-3015","addr":"경기도 이천시 모가면 진가리 31번지 1층","indutype":"일반휴게음식 - 서양음식","category":"restaurant"}]},{"lat":"37.170178365","long":"127.48002291","imageIndex":4,"items":[{"name":"모가영양탕","tel":"031-634-6659","addr":"경기도 이천시 모가면 진가리 83-19번지","indutype":"일반휴게음식 - 일반한식","category":"restaurant"},{"name":"처가집양념통닭","tel":"031-632-3688","addr":"경기도 이천시 모가면 진가리 83-19번지","indutype":"일반휴게음식 - 주점","category":"restaurant"}]},{"lat":"37.170537909","long":"127.4802391","imageIndex":4,"items":[{"name":"분식하우스","tel":"031-632-0709","addr":"경기도 이천시 모가면 진가리 83-15번지","indutype":"일반휴게음식 - 일반한식","category":"restaurant"},{"name":"청도양꼬치","tel":"070-7018-5392","addr":"경기도 이천시 모가면 진가리 83-15번지","indutype":"일반휴게음식 - 일반한식","category":"restaurant"}]},{"lat":"37.172725871","long":"127.48062443","imageIndex":4,"items":[{"name":"산들밥상","tel":"070-4222-6142","addr":"경기도 이천시 모가면 진가리 152-36번지","indutype":"일반휴게음식 - 일반한식","category":"restaurant"}]},{"lat":"37.170367261","long":"127.48010291","imageIndex":4,"items":[{"name":"송악골","tel":"031-632-4999","addr":"경기도 이천시 모가면 진가리 83-4번지","indutype":"일반휴게음식 - 일반한식","category":"restaurant"}]},{"lat":"37.174394467","long":"127.48020706","imageIndex":4,"items":[{"name":"수호네","tel":"031-634-6007","addr":"경기도 이천시 모가면 진가리 158-3번지","indutype":"일반휴게음식 - 일반한식","category":"restaurant"}]},{"lat":"37.17053936","long":"127.47987881","imageIndex":4,"items":[{"name":"술반장포차","tel":"031-631-6885","addr":"경기도 이천시 모가면 진가리 111-17번지","indutype":"일반휴게음식 - 일반한식","category":"restaurant"},{"name":"청춘포차","tel":"031-631-6885","addr":"경기도 이천시 모가면 진가리 111-17번지","indutype":"일반휴게음식 - 일반한식","category":"restaurant"},{"name":"풍천한방족발아구찜","tel":"031-634-1105","addr":"경기도 이천시 모가면 진가리 111-17","indutype":"일반휴게음식 - 일반한식","category":"restaurant"},{"name":"훌랄라 참숯바베큐 치킨","tel":"031-624-2208","addr":"경기도 이천시 모가면 진가리 111-17번지","indutype":"일반휴게음식 - 스넥","category":"restaurant"}]},{"lat":"37.165950393","long":"127.48054801","imageIndex":4,"items":[{"name":"시골순대국","tel":"031-633-3015","addr":"경기도 이천시 모가면 진가리 55-8번지","indutype":"일반휴게음식 - 일반한식","category":"restaurant"},{"name":"착한감자탕해장국","tel":"031-632-4952","addr":"경기도 이천시 모가면 진가리 55-8번지","indutype":"일반휴게음식 - 일반한식","category":"restaurant"}]},{"lat":"37.169871411","long":"127.48462604","imageIndex":4,"items":[{"name":"쌍용식당","tel":"031-631-8822","addr":"경기도 이천시 모가면 진가리 94번지","indutype":"일반휴게음식 - 일반한식","category":"restaurant"}]},{"lat":"37.171481203","long":"127.48093187","imageIndex":4,"items":[{"name":"옛날통닭","tel":"031-633-6655","addr":"경기도 이천시 모가면 진가리 110-25번지","indutype":"일반휴게음식 - 스넥","category":"restaurant"}]},{"lat":"37.170477011","long":"127.48415699","imageIndex":4,"items":[{"name":"전원","tel":"031-633-2867","addr":"경기도 이천시 모가면 진가리 86-11번지","indutype":"일반휴게음식 - 중국식","category":"restaurant"}]},{"lat":"37.168393828","long":"127.4823761","imageIndex":4,"items":[{"name":"진가족탕","tel":"031-632-8342","addr":"경기도 이천시 모가면 진가리 32-1","indutype":"일반휴게음식 - 일반한식","category":"restaurant"}]},{"lat":"37.167122527","long":"127.48035273","imageIndex":4,"items":[{"name":"토프레소커피숍","tel":"031-631-2747","addr":"경기도 이천시 모가면 진가리 67-45번지","indutype":"일반휴게음식 - 서양음식","category":"restaurant"}]},{"lat":"37.168342067","long":"127.47957226","imageIndex":4,"items":[{"name":"페리카나치킨모가점","tel":"031-633-3663","addr":"경기도 이천시 모가면 진가리 76-5","indutype":"일반휴게음식 - 주점","category":"restaurant"},{"name":"퓨전호프마루","tel":"031-632-9688","addr":"경기도 이천시 모가면 진가리 76-5번지 2층","indutype":"일반휴게음식 - 주점","category":"restaurant"},{"name":"퓨전호프마루","tel":"031-637-8686","addr":"경기도 이천시 모가면 진가리 76-5번지 2층","indutype":"일반휴게음식 - 주점","category":"restaurant"}]},{"lat":"37.169647674","long":"127.47979439","imageIndex":4,"items":[{"name":"하우스홀드","tel":"031-632-1850","addr":"경기도 이천시 모가면 진가리 79-9번지","indutype":"일반휴게음식 - 일반한식","category":"restaurant"}]},{"lat":"37.169395164","long":"127.4798491","imageIndex":13,"items":[{"name":"강남테라피","tel":"","addr":"경기도 이천시 모가면 진가리 79-15번지 2층","indutype":"보건위생 - 화장품","category":"beauty"}]},{"lat":"37.170674058","long":"127.47999225","imageIndex":13,"items":[{"name":"그냥미용실","tel":"031-631-3856","addr":"경기도 이천시 모가면 진가리 111-1","indutype":"보건위생 - 미용원","category":"beauty"}]},{"lat":"37.168928857","long":"127.47929447","imageIndex":13,"items":[{"name":"모가하나로마트 화장품","tel":"031-631-2005","addr":"경기도 이천시 모가면 진가리 78번지 1층","indutype":"보건위생 - 화장품","category":"beauty"}]},{"lat":"37.169782736","long":"127.47981776","imageIndex":13,"items":[{"name":"크로바미용실","tel":"031-632-3024","addr":"경기도 이천시 모가면 진가리 79-7","indutype":"보건위생 - 미용원","category":"beauty"}]},{"lat":"37.170315466","long":"127.47953962","imageIndex":13,"items":[{"name":"경남노래연습장","tel":"031-634-6936","addr":"경기도 이천시 모가면 진가리 111-2","indutype":"레저업소 - 노 래 방","category":"leisure"}]},{"lat":"37.168342067","long":"127.47957226","imageIndex":13,"items":[{"name":"파노라마노래연습장","tel":"031-634-0895","addr":"경기도 이천시 모가면 진가리 76-5번지","indutype":"레저업소 - 노 래 방","category":"leisure"}]},{"lat":"37.169838472","long":"127.47940151","imageIndex":8,"items":[{"name":"기쁨약국","tel":"031-633-1603","addr":"경기도 이천시 모가면 진가리 111-20번지","indutype":"약국 - 약국","category":"medical"}]},{"lat":"37.170143911","long":"127.47962862","imageIndex":8,"items":[{"name":"사랑의원","tel":"031-633-7940","addr":"경기도 이천시 모가면 진가리 111-11번지","indutype":"의원 - 의원","category":"medical"}]},{"lat":"37.170287756","long":"127.47970834","imageIndex":7,"items":[{"name":"동효네흑염소","tel":"031-633-4002","addr":"경기도 이천시 모가면 진가리 111-10","indutype":"건강식품 - 기타건강식품","category":"food"}]},{"lat":"37.168648094","long":"127.479653","imageIndex":7,"items":[{"name":"모가떡방앗간","tel":"031-632-1687","addr":"경기도 이천시 모가면 진가리 395-7번지","indutype":"음료식품 - 제과점","category":"food"}]},{"lat":"37.173314432","long":"127.47990751","imageIndex":7,"items":[{"name":"복순네연잎밥","tel":"031-631-2551","addr":"경기도 이천시 모가면 진가리 153-3번지","indutype":"음료식품 - 기타음료식품","category":"food"}]},{"lat":"37.170699774","long":"127.48031893","imageIndex":7,"items":[{"name":"진가떡방앗간","tel":"031-632-3096","addr":"경기도 이천시 모가면 진가리 83-14번지","indutype":"음료식품 - 기타음료식품","category":"food"}]},{"lat":"37.166592833","long":"127.47987652","imageIndex":7,"items":[{"name":"진가정미소","tel":"031-632-3529","addr":"경기도 이천시 모가면 진가리 62-3번지 1층","indutype":"음료식품 - 미곡상","category":"food"}]},{"lat":"37.176646044","long":"127.48045769","imageIndex":7,"items":[{"name":"청운표고","tel":"031-631-1255","addr":"경기도 이천시 모가면 진가리 534","indutype":"음료식품 - 농·축·수산품","category":"food"}]},{"lat":"37.172953891","long":"127.47993902","imageIndex":7,"items":[{"name":"해태음료이천대리점","tel":"031-635-9692","addr":"경기도 이천시 모가면 진가리 114-9번지","indutype":"음료식품 - 기타음료식품","category":"food"}]},{"lat":"37.171594174","long":"127.48418659","imageIndex":7,"items":[{"name":"햇사레복숭아직판장","tel":"","addr":"경기도 이천시 모가면 진가리 102-1번지","indutype":"음료식품 - 농·축·수산품","category":"food"}]},{"lat":"37.175977912","long":"127.47404642","imageIndex":16,"items":[{"name":"모가중학교","tel":"031-632-3016","addr":"경기도 이천시 모가면 진가리 227-1번지","indutype":"학원 - 초중고교육기관","category":"study"},{"name":"모가중학교_수업료","tel":"031-632-3016","addr":"경기도 이천시 모가면 진가리 227-1번지","indutype":"학원 - 초중고교육기관","category":"study"}]},{"lat":"37.177921747","long":"127.4769074","imageIndex":16,"items":[{"name":"아이랜드어린이집[아이행복]","tel":"031-634-4946","addr":"경기도 이천시 모가면 진가리 211-5번지","indutype":"학원 - 유아원","category":"study"}]},{"lat":"37.173314432","long":"127.47990751","imageIndex":16,"items":[{"name":"진가월드태권도전문도장","tel":"031-634-2443","addr":"경기도 이천시 모가면 진가리 153-3","indutype":"학원 - 예·체능계학원","category":"study"},{"name":"킹버드코리아 제2관","tel":"031-636-2245","addr":"경기도 이천시 모가면 진가리 153-3번지 2층","indutype":"학원 - 보습학원","category":"study"}]},{"lat":"37.174371107","long":"127.47929485","imageIndex":16,"items":[{"name":"진가초등학교","tel":"031-632-3075","addr":"경기도 이천시 모가면 진가리 156번지 진가초등학교","indutype":"학원 - 초중고교육기관","category":"study"}]}]