[{"lat":"37.734909881","long":"127.41339067","imageIndex":5,"items":[{"name":"J MOTEL","tel":"031-584-2306","addr":"경기도 가평군 청평면 청평리 621-3번지","indutype":"숙박업 - 여관/기타숙박업","category":"hotel"},{"name":"자이안트","tel":"031-584-2306","addr":"경기도 가평군 청평면 청평리 621-3번지","indutype":"숙박업 - 여관/기타숙박업","category":"hotel"}]},{"lat":"37.728074265","long":"127.41004069","imageIndex":5,"items":[{"name":"M모텔","tel":"031-584-8779","addr":"경기도 가평군 청평면 청평리 701-6번지","indutype":"숙박업 - 여관/기타숙박업","category":"hotel"},{"name":"M모텔","tel":"031-584-8779","addr":"경기도 가평군 청평면 청평리 701-6번지","indutype":"숙박업 - 여관/기타숙박업","category":"hotel"}]},{"lat":"37.73480157","long":"127.42366805","imageIndex":5,"items":[{"name":"강변파크","tel":"031-585-6173","addr":"경기도 가평군 청평면 청평리 115-2번지","indutype":"숙박업 - 여관/기타숙박업","category":"hotel"}]},{"lat":"37.738937206","long":"127.42105942","imageIndex":5,"items":[{"name":"뉴월드파크","tel":"031-584-6700","addr":"경기도 가평군 청평면 청평리 465-23번지","indutype":"숙박업 - 여관/기타숙박업","category":"hotel"}]},{"lat":"37.731745746","long":"127.42411585","imageIndex":5,"items":[{"name":"들꽃향기","tel":"031-584-3810","addr":"경기도 가평군 청평면 청평리 134-68번지","indutype":"숙박업 - 여관/기타숙박업","category":"hotel"}]},{"lat":"37.732742517","long":"127.42251065","imageIndex":5,"items":[{"name":"레드폭스민박","tel":"031-585-7355","addr":"경기도 가평군 청평면 청평리 95-15번지","indutype":"숙박업 - 여관/기타숙박업","category":"hotel"}]},{"lat":"37.732492717","long":"127.42181726","imageIndex":5,"items":[{"name":"방주민박","tel":"","addr":"경기도 가평군 청평면 청평리 92-19번지 방주민박 A동","indutype":"숙박업 - 여관/기타숙박업","category":"hotel"}]},{"lat":"37.731992156","long":"127.42323242","imageIndex":5,"items":[{"name":"빨간우체통","tel":"031-585-4909","addr":"경기도 가평군 청평면 청평리 134-19번지","indutype":"숙박업 - 여관/기타숙박업","category":"hotel"},{"name":"빨간우체통","tel":"031-585-4909","addr":"경기도 가평군 청평면 청평리 134-63 외1필지","indutype":"숙박업 - 여관/기타숙박업","category":"hotel"}]},{"lat":"37.735989226","long":"127.41648234","imageIndex":5,"items":[{"name":"아리랑모텔","tel":"031-584-0014","addr":"경기도 가평군 청평면 청평리 436-2번지 3층","indutype":"숙박업 - 여관/기타숙박업","category":"hotel"}]},{"lat":"37.731550173","long":"127.42589573","imageIndex":5,"items":[{"name":"에그하우스청평","tel":"070-8869-2968","addr":"경기도 가평군 청평면 청평리 134-62번지","indutype":"숙박업 - 여관/기타숙박업","category":"hotel"}]},{"lat":"37.732664015","long":"127.42178419","imageIndex":5,"items":[{"name":"온나펜션","tel":"031-866-0058","addr":"경기도 가평군 청평면 청평리 94-15번지","indutype":"숙박업 - 여관/기타숙박업","category":"hotel"}]},{"lat":"37.731187848","long":"127.40850364","imageIndex":5,"items":[{"name":"온천지가열린모텔","tel":"031-585-4411","addr":"경기도 가평군 청평면 청평리 650-5번지","indutype":"숙박업 - 여관/기타숙박업","category":"hotel"},{"name":"온천지가열린모텔","tel":"031-585-5045","addr":"경기도 가평군 청평면 청평리 650-5번지","indutype":"숙박업 - 여관/기타숙박업","category":"hotel"}]},{"lat":"37.73163585","long":"127.42461436","imageIndex":5,"items":[{"name":"와이캠핑장","tel":"","addr":"경기도 가평군 청평면 청평리 134-86번지","indutype":"숙박업 - 여관/기타숙박업","category":"hotel"}]},{"lat":"37.733637426","long":"127.42167623","imageIndex":5,"items":[{"name":"유니온","tel":"031-584-2710","addr":"경기도 가평군 청평면 청평리 101번지 외1필지","indutype":"숙박업 - 여관/기타숙박업","category":"hotel"}]},{"lat":"37.736853387","long":"127.41925524","imageIndex":5,"items":[{"name":"은성여관","tel":"031-584-0205","addr":"경기도 가평군 청평면 청평리 431-2","indutype":"숙박업 - 여관/기타숙박업","category":"hotel"},{"name":"은성여관","tel":"031-000-0000","addr":"경기도 가평군 청평면 청평리 431-2번지","indutype":"숙박업 - 여관/기타숙박업","category":"hotel"},{"name":"은성여관","tel":"031-585-8592","addr":"경기도 가평군 청평면 청평리 431-2번지","indutype":"숙박업 - 여관/기타숙박업","category":"hotel"}]},{"lat":"37.738354133","long":"127.42034141","imageIndex":5,"items":[{"name":"이화장여관","tel":"031-584-0380","addr":"경기도 가평군 청평면 청평리 465-25번지","indutype":"숙박업 - 여관/기타숙박업","category":"hotel"}]},{"lat":"37.733657908","long":"127.42603251","imageIndex":5,"items":[{"name":"청평 파인하우스","tel":"031-534-2273","addr":"경기도 가평군 청평면 청평리 126-11번지","indutype":"숙박업 - 여관/기타숙박업","category":"hotel"}]},{"lat":"37.733412676","long":"127.42153884","imageIndex":5,"items":[{"name":"청평다온펜션","tel":"070-4401-2915","addr":"경기도 가평군 청평면 청평리 100-1번지 무지개펜션","indutype":"숙박업 - 여관/기타숙박업","category":"hotel"}]},{"lat":"37.738993634","long":"127.42039038","imageIndex":5,"items":[{"name":"청평파크","tel":"031-585-8833","addr":"경기도 가평군 청평면 청평리 470-52번지","indutype":"숙박업 - 여관/기타숙박업","category":"hotel"}]},{"lat":"37.736046224","long":"127.41564316","imageIndex":5,"items":[{"name":"호반장여관","tel":"031-584-0070","addr":"경기도 가평군 청평면 청평리 440-5번지","indutype":"숙박업 - 여관/기타숙박업","category":"hotel"}]}]