[{"lat":"37.845751724","long":"127.15933957","imageIndex":7,"items":[{"name":"K.J헬스케어","tel":"031-541-7295","addr":"경기도 포천시 설운동 78-1번지 3호","indutype":"건강식품 - 기타건강식품","category":"food"}]},{"lat":"37.847117141","long":"127.16233055","imageIndex":7,"items":[{"name":"구매매점","tel":"031-541-4143","addr":"경기도 포천시 설운동 19-4번지","indutype":"음료식품 - 기타음료식품","category":"food"}]},{"lat":"37.849971319","long":"127.14986119","imageIndex":7,"items":[{"name":"농업회사법인 아람농산 주식회사","tel":"031-543-3688","addr":"경기도 포천시 설운동 156-6번지","indutype":"음료식품 - 농·축·수산품","category":"food"}]},{"lat":"37.847895","long":"127.16005989","imageIndex":7,"items":[{"name":"던킨도넛(포천E-Mart점)","tel":"","addr":"경기도 포천시 설운동 2번지 1층","indutype":"음료식품 - 제과점","category":"food"},{"name":"미스터도넛(포천E-Mart점)","tel":"031-544-8814","addr":"경기도 포천시 설운동 2번지 1층","indutype":"음료식품 - 제과점","category":"food"},{"name":"배스킨라빈스 포천 이마트점","tel":"031-859-7882","addr":"경기도 포천시 설운동 2번지 1층 이마트포천점내","indutype":"음료식품 - 제과점","category":"food"}]},{"lat":"37.861336795","long":"127.13847453","imageIndex":7,"items":[{"name":"덴마크우유포천대리점","tel":"031-542-2103","addr":"경기도 포천시 설운동 519-2번지","indutype":"음료식품 - 기타음료식품","category":"food"}]},{"lat":"37.855032597","long":"127.15145067","imageIndex":7,"items":[{"name":"영원농산","tel":"031-541-7087","addr":"경기도 포천시 설운동 415-5번지","indutype":"음료식품 - 기타음료식품","category":"food"}]},{"lat":"37.845640655","long":"127.1475576","imageIndex":7,"items":[{"name":"용아마트","tel":"542-0550","addr":"경기도 포천시 설운동 267-5번지","indutype":"소매업 - 식품","category":"food"}]},{"lat":"37.847086641","long":"127.15119613","imageIndex":7,"items":[{"name":"제1291부대","tel":"031-000-0000","addr":"경기도 포천시 설운동 198-7번지 사서함118-10","indutype":"음료식품 - 기타음료식품","category":"food"}]},{"lat":"37.853249256","long":"127.14369784","imageIndex":7,"items":[{"name":"주식회사 페어리드림","tel":"070-8880-7669","addr":"경기도 포천시 설운동 347번지","indutype":"음료식품 - 기타음료식품","category":"food"}]},{"lat":"37.862476739","long":"127.14211308","imageIndex":7,"items":[{"name":"태화농산","tel":"031-853-3155","addr":"경기도 포천시 설운동 482-2","indutype":"음료식품 - 농·축·수산품","category":"food"}]},{"lat":"37.853360917","long":"127.14069834","imageIndex":7,"items":[{"name":"포천테라피팜","tel":"000-0000-0000","addr":"경기도 포천시 설운동 569번지","indutype":"음료식품 - 농·축·수산품","category":"food"},{"name":"포천테라피팜","tel":"031-000-0000","addr":"경기도 포천시 설운동 569번지","indutype":"음료식품 - 농·축·수산품","category":"food"}]},{"lat":"37.856559545","long":"127.14044295","imageIndex":7,"items":[{"name":"한누리","tel":"031-541-5258","addr":"경기도 포천시 설운동 560-25번지 다동 1층","indutype":"음료식품 - 기타음료식품","category":"food"}]},{"lat":"37.851000463","long":"127.14069395","imageIndex":7,"items":[{"name":"호남청과","tel":"","addr":"경기도 포천시 설운동 588-13번지","indutype":"음료식품 - 농·축·수산품","category":"food"}]}]