[{"lat":"37.267096616","long":"126.97795543","imageIndex":7,"items":[{"name":"(주)에바토","tel":"031-548-0702","addr":"경기도 수원시 권선구 탑동 503-6번지 B동","indutype":"음료식품 - 기타음료식품","category":"food"},{"name":"농업회사법인더채움 주식회사","tel":"031-278-8572","addr":"경기도 수원시 권선구 탑동 503-6번지 3동","indutype":"음료식품 - 농·축·수산품","category":"food"},{"name":"농업회사법인현대바이오(주)","tel":"031-298-9113","addr":"경기도 수원시 권선구 탑동 503-6번지 1층","indutype":"음료식품 - 기타음료식품","category":"food"}]},{"lat":"37.266906929","long":"126.97581346","imageIndex":7,"items":[{"name":"경기복지시민연대","tel":"031-215-4389","addr":"경기도 수원시 권선구 탑동 869-8번지 1층 102호","indutype":"음료식품 - 기타음료식품","category":"food"}]},{"lat":"37.268483905","long":"126.9765908","imageIndex":7,"items":[{"name":"굿메이트","tel":"031-302-9122","addr":"경기도 수원시 권선구 탑동 877-1번지 성림리젠시빌 501호","indutype":"건강식품 - 기타건강식품","category":"food"}]},{"lat":"37.271951841","long":"126.9723278","imageIndex":7,"items":[{"name":"금곡농산","tel":"031-292-5289","addr":"경기도 수원시 권선구 탑동 776-3번지 다림빌라4차 A동 102호","indutype":"음료식품 - 정육점","category":"food"}]},{"lat":"37.267402577","long":"126.97617404","imageIndex":7,"items":[{"name":"내츄럴라이프","tel":"031-306-6515","addr":"경기도 수원시 권선구 탑동 873-2번지 1층","indutype":"건강식품 - 기타건강식품","category":"food"}]},{"lat":"37.271042046","long":"126.97328649","imageIndex":7,"items":[{"name":"농업회사법인 선영농 주식회사","tel":"031-278-2320","addr":"경기도 수원시 권선구 탑동 806-8번지 한림주택","indutype":"건강식품 - 홍삼제품","category":"food"}]},{"lat":"37.25934599","long":"126.97061944","imageIndex":7,"items":[{"name":"농업회사법인(주)초심 수원지점","tel":"031-293-1977","addr":"경기도 수원시 권선구 탑동 616번지","indutype":"음료식품 - 정육점","category":"food"}]},{"lat":"37.27362723","long":"126.9703653","imageIndex":7,"items":[{"name":"농업회사법인주식회사 돈방축산유통","tel":"031-294-5858","addr":"경기도 수원시 권선구 탑동 743-3번지 1층","indutype":"음료식품 - 정육점","category":"food"}]},{"lat":"37.268096165","long":"126.97528315","imageIndex":7,"items":[{"name":"다정해정육점","tel":"031-293-9285","addr":"경기도 수원시 권선구 탑동 862-4번지","indutype":"음료식품 - 정육점","category":"food"}]},{"lat":"37.270043003","long":"126.9780672","imageIndex":7,"items":[{"name":"달콤곰놀이터","tel":"031-296-5750","addr":"경기도 수원시 권선구 탑동 857-5번지","indutype":"음료식품 - 제과점","category":"food"}]},{"lat":"37.273898496","long":"126.97406334","imageIndex":7,"items":[{"name":"달콤창고","tel":"","addr":"경기도 수원시 권선구 탑동 766-1번지 1층","indutype":"음료식품 - 기타음료식품","category":"food"}]},{"lat":"37.273484679","long":"126.97689348","imageIndex":7,"items":[{"name":"대풍농산유통","tel":"031-225-0225","addr":"경기도 수원시 권선구 탑동 31-13번지 강남골든빌 401호","indutype":"음료식품 - 농·축·수산품","category":"food"}]},{"lat":"37.272177095","long":"126.97231643","imageIndex":7,"items":[{"name":"동서씨앤티티","tel":"070-8541-8563","addr":"경기도 수원시 권선구 탑동 779-1번지 1층","indutype":"음료식품 - 기타음료식품","category":"food"}]},{"lat":"37.270294909","long":"126.97630831","imageIndex":7,"items":[{"name":"드림유통","tel":"031-296-0773","addr":"경기도 수원시 권선구 탑동 300-77번지","indutype":"음료식품 - 기타음료식품","category":"food"}]},{"lat":"37.273428844","long":"126.96979037","imageIndex":7,"items":[{"name":"뚜레쥬르 카페서수원점","tel":"031-291-9080","addr":"경기도 수원시 권선구 탑동 180번지 1,2층","indutype":"음료식품 - 제과점","category":"food"}]},{"lat":"37.26770885","long":"126.97583572","imageIndex":7,"items":[{"name":"만나푸드","tel":"031-227-4011","addr":"경기도 수원시 권선구 탑동 865-3번지 부림빌라 103~104호","indutype":"음료식품 - 기타음료식품","category":"food"}]},{"lat":"37.272709905","long":"126.97740111","imageIndex":7,"items":[{"name":"명성건강","tel":"031-292-1570","addr":"경기도 수원시 권선구 탑동 27-5번지","indutype":"건강식품 - 기타건강식품","category":"food"}]},{"lat":"37.274961704","long":"126.97404039","imageIndex":7,"items":[{"name":"베스킨라빈스수원탑동점","tel":"031-232-3131","addr":"경기도 수원시 권선구 탑동 758-1번지 1층","indutype":"음료식품 - 제과점","category":"food"}]},{"lat":"37.268601327","long":"126.97792111","imageIndex":7,"items":[{"name":"벤슨에프앤시","tel":"031-291-7441","addr":"경기도 수원시 권선구 탑동 886-5번지 외2필지","indutype":"음료식품 - 기타음료식품","category":"food"}]},{"lat":"37.273763348","long":"126.97408595","imageIndex":7,"items":[{"name":"산들애반찬","tel":"031-248-0659","addr":"경기도 수원시 권선구 탑동 766-2번지","indutype":"음료식품 - 기타음료식품","category":"food"}]},{"lat":"37.265483296","long":"126.97578015","imageIndex":7,"items":[{"name":"삼성유통","tel":"031-296-8889","addr":"경기도 수원시 권선구 탑동 514-7번지","indutype":"음료식품 - 기타음료식품","category":"food"}]},{"lat":"37.267790535","long":"126.97856399","imageIndex":7,"items":[{"name":"세모스쿠알렌수원점","tel":"","addr":"경기도 수원시 권선구 탑동 335번지 1층","indutype":"건강식품 - 기타건강식품","category":"food"}]},{"lat":"37.269430208","long":"126.97761643","imageIndex":7,"items":[{"name":"수원축산","tel":"031-241-7606","addr":"경기도 수원시 권선구 탑동 853-14번지 1층","indutype":"음료식품 - 정육점","category":"food"}]},{"lat":"37.269457275","long":"126.97778553","imageIndex":7,"items":[{"name":"슈가앤도노","tel":"","addr":"경기도 수원시 권선구 탑동 853-13번지","indutype":"음료식품 - 제과점","category":"food"}]},{"lat":"37.272511014","long":"126.97448104","imageIndex":7,"items":[{"name":"신세계축산도소매센터","tel":"031-297-8333","addr":"경기도 수원시 권선구 탑동 789-7번지 1층","indutype":"음료식품 - 정육점","category":"food"}]},{"lat":"37.267574236","long":"126.97831603","imageIndex":7,"items":[{"name":"쑥떡사랑","tel":"","addr":"경기도 수원시 권선구 탑동 503-7번지 가동 1층","indutype":"음료식품 - 제과점","category":"food"}]},{"lat":"37.269763577","long":"126.97755995","imageIndex":7,"items":[{"name":"아이스크림나라","tel":"031-679-1546","addr":"경기도 수원시 권선구 탑동 854-1번지 성림리젠시빌","indutype":"음료식품 - 기타음료식품","category":"food"}]},{"lat":"37.265735822","long":"126.97683978","imageIndex":7,"items":[{"name":"아이스하우스매점","tel":"070-4446-1368","addr":"경기도 수원시 권선구 탑동 512번지","indutype":"음료식품 - 기타음료식품","category":"food"}]},{"lat":"37.269709698","long":"126.97842808","imageIndex":7,"items":[{"name":"연세우유서수원대리점","tel":"031-278-9990","addr":"경기도 수원시 권선구 탑동 853-7번지 탑캐슬빌15차 102호","indutype":"음료식품 - 기타음료식품","category":"food"}]},{"lat":"37.273655794","long":"126.97653263","imageIndex":7,"items":[{"name":"연희식품","tel":"031-217-2944","addr":"경기도 수원시 권선구 탑동 20-18번지","indutype":"음료식품 - 기타음료식품","category":"food"}]},{"lat":"37.266961098","long":"126.97628694","imageIndex":7,"items":[{"name":"영인이벤트","tel":"031-294-8253","addr":"경기도 수원시 권선구 탑동 867-5번지 한아름빌딩 102호","indutype":"음료식품 - 농·축·수산품","category":"food"}]},{"lat":"37.271627966","long":"126.97431225","imageIndex":7,"items":[{"name":"예인","tel":"031-293-0997","addr":"경기도 수원시 권선구 탑동 785-3번지 103호","indutype":"음료식품 - 제과점","category":"food"}]},{"lat":"37.270484268","long":"126.97695089","imageIndex":7,"items":[{"name":"우리집반찬김밥 (탑동점)","tel":"031-292-1414","addr":"경기도 수원시 권선구 탑동 300-62번지 1층","indutype":"음료식품 - 기타음료식품","category":"food"}]},{"lat":"37.266546324","long":"126.97497932","imageIndex":7,"items":[{"name":"유진식품","tel":"031-298-9929","addr":"경기도 수원시 권선구 탑동 869-2번지","indutype":"음료식품 - 기타음료식품","category":"food"}]},{"lat":"37.273988082","long":"126.97201128","imageIndex":7,"items":[{"name":"이인건강협동조합","tel":"","addr":"경기도 수원시 권선구 탑동 753-4번지","indutype":"음료식품 - 기타음료식품","category":"food"}]},{"lat":"37.271096673","long":"126.97564284","imageIndex":7,"items":[{"name":"정찬스토리","tel":"031-293-3303","addr":"경기도 수원시 권선구 탑동 849-1번지 세림빌리지 1층 101호","indutype":"음료식품 - 기타음료식품","category":"food"}]},{"lat":"37.269511408","long":"126.97812374","imageIndex":7,"items":[{"name":"좋은축산","tel":"","addr":"경기도 수원시 권선구 탑동 853-11번지 1층","indutype":"음료식품 - 정육점","category":"food"}]},{"lat":"37.273484842","long":"126.9776489","imageIndex":7,"items":[{"name":"주식회사 우리동천","tel":"031-752-5000","addr":"경기도 수원시 권선구 탑동 22-28번지 2층","indutype":"음료식품 - 농·축·수산품","category":"food"},{"name":"주식회사 우리동천","tel":"031-752-5000","addr":"경기도 수원시 권선구 탑동 22-28번지 2층","indutype":"음료식품 - 농·축·수산품","category":"food"},{"name":"주식회사 우리동천","tel":"031-752-5000","addr":"경기도 수원시 권선구 탑동 22-28번지 2층","indutype":"음료식품 - 농·축·수산품","category":"food"},{"name":"주식회사우리동천","tel":"031-752-5000","addr":"경기도 수원시 권선구 탑동 22-28번지 2층","indutype":"음료식품 - 농·축·수산품","category":"food"}]},{"lat":"37.27140219","long":"126.97223782","imageIndex":7,"items":[{"name":"주식회사 이레프레시","tel":"031-296-1513","addr":"경기도 수원시 권선구 탑동 804-12번지 영림빌라2차,나동 102호","indutype":"음료식품 - 정육점","category":"food"}]},{"lat":"37.272095929","long":"126.9720346","imageIndex":7,"items":[{"name":"주식회사 제이에스알푸드","tel":"031-227-5222","addr":"경기도 수원시 권선구 탑동 776-1번지 지하1층","indutype":"음료식품 - 정육점","category":"food"}]},{"lat":"37.266483755","long":"126.97720028","imageIndex":7,"items":[{"name":"주식회사스타이엔씨","tel":"031-292-0011","addr":"경기도 수원시 권선구 탑동 501-1번지 자유빌딩 105호","indutype":"음료식품 - 기타음료식품","category":"food"}]},{"lat":"37.271763765","long":"126.97711957","imageIndex":7,"items":[{"name":"주식회사유승","tel":"031-278-3386","addr":"경기도 수원시 권선구 탑동 300-16번지","indutype":"음료식품 - 정육점","category":"food"}]},{"lat":"37.26881723","long":"126.97634266","imageIndex":7,"items":[{"name":"주식회사이념축산","tel":"031-237-9625","addr":"경기도 수원시 권선구 탑동 863-4번지 1층","indutype":"음료식품 - 정육점","category":"food"}]},{"lat":"37.269484342","long":"126.97795464","imageIndex":7,"items":[{"name":"지리산함양산양삼농특산물","tel":"031-293-3357","addr":"경기도 수원시 권선구 탑동 853-12번지 탑칸타빌","indutype":"음료식품 - 농·축·수산품","category":"food"}]},{"lat":"37.270601426","long":"126.97706359","imageIndex":7,"items":[{"name":"진달팽이농원(건강원)","tel":"031-298-8272","addr":"경기도 수원시 권선구 탑동 300-65번지 동원빌라 101호","indutype":"건강식품 - 기타건강식품","category":"food"}]},{"lat":"37.273872482","long":"126.97859586","imageIndex":7,"items":[{"name":"참누리정육점","tel":"031-296-5290","addr":"경기도 수원시 권선구 탑동 22-7번지 동남쪽코너전체 1층","indutype":"음료식품 - 정육점","category":"food"}]},{"lat":"37.269402222","long":"126.9734788","imageIndex":7,"items":[{"name":"청송식품","tel":"","addr":"경기도 수원시 권선구 탑동 827-3번지 성우타워빌 나동 502호","indutype":"음료식품 - 기타음료식품","category":"food"}]},{"lat":"37.275205532","long":"126.97639679","imageIndex":7,"items":[{"name":"최가네식품","tel":"031-291-2024","addr":"경기도 수원시 권선구 탑동 759-15번지 세종빌라 1층 102호","indutype":"음료식품 - 기타음료식품","category":"food"}]},{"lat":"37.270763952","long":"126.97867578","imageIndex":7,"items":[{"name":"커피앤티","tel":"031-294-6245","addr":"경기도 수원시 권선구 탑동 320-7번지 102호","indutype":"음료식품 - 기타음료식품","category":"food"}]},{"lat":"37.272934355","long":"126.97389459","imageIndex":7,"items":[{"name":"탑","tel":"031-298-3311","addr":"경기도 수원시 권선구 탑동 782-8번지 104호","indutype":"음료식품 - 농·축·수산품","category":"food"}]},{"lat":"37.271682803","long":"126.97772842","imageIndex":7,"items":[{"name":"탑동떡방앗간","tel":"031-295-0721","addr":"경기도 수원시 권선구 탑동 316-5","indutype":"음료식품 - 제과점","category":"food"}]},{"lat":"37.268906376","long":"126.97237412","imageIndex":7,"items":[{"name":"탑동생선장수","tel":"031-297-1238","addr":"경기도 수원시 권선구 탑동 820-5번지 1층 101호","indutype":"음료식품 - 농·축·수산품","category":"food"}]},{"lat":"37.271655612","long":"126.97698431","imageIndex":7,"items":[{"name":"탑야채","tel":"031-237-6384","addr":"경기도 수원시 권선구 탑동 300-10번지 1층","indutype":"음료식품 - 농·축·수산품","category":"food"}]},{"lat":"37.271537977","long":"126.97478581","imageIndex":7,"items":[{"name":"탑점핑다이어트","tel":"031-292-8111","addr":"경기도 수원시 권선구 탑동 791-12번지 건민빌딩 201호","indutype":"건강식품 - 기타건강식품","category":"food"}]},{"lat":"37.27284428","long":"126.97400737","imageIndex":7,"items":[{"name":"탑축산","tel":"031-296-8992","addr":"경기도 수원시 권선구 탑동 782-10번지","indutype":"음료식품 - 정육점","category":"food"}]},{"lat":"37.269240819","long":"126.97681602","imageIndex":7,"items":[{"name":"파란풍차","tel":"031-296-9036","addr":"경기도 수원시 권선구 탑동 356-9번지 1층","indutype":"음료식품 - 제과점","category":"food"}]},{"lat":"37.269709006","long":"126.97528256","imageIndex":7,"items":[{"name":"파리바게트(탑동우방점)","tel":"031-293-3836","addr":"경기도 수원시 권선구 탑동 844-3번지","indutype":"음료식품 - 제과점","category":"food"}]},{"lat":"37.266096593","long":"126.97853072","imageIndex":7,"items":[{"name":"푸른지대골프","tel":"031-295-4243","addr":"경기도 수원시 권선구 탑동 505번지","indutype":"음료식품 - 기타음료식품","category":"food"}]},{"lat":"37.269574385","long":"126.97767275","imageIndex":7,"items":[{"name":"한결반찬","tel":"031-293-3331","addr":"경기도 수원시 권선구 탑동 853-15번지 101호","indutype":"음료식품 - 기타음료식품","category":"food"}]},{"lat":"37.270095582","long":"126.97178738","imageIndex":7,"items":[{"name":"한밭탕제원","tel":"031-295-0039","addr":"경기도 수원시 권선구 탑동 821-1번지","indutype":"건강식품 - 기타건강식품","category":"food"}]},{"lat":"37.27093522","long":"126.97903651","imageIndex":7,"items":[{"name":"한수산","tel":"031-293-8295","addr":"경기도 수원시 권선구 탑동 320-17번지 1층","indutype":"음료식품 - 농·축·수산품","category":"food"}]},{"lat":"37.274042545","long":"126.97358974","imageIndex":7,"items":[{"name":"행복한맛찬","tel":"070-7539-0017","addr":"경기도 수원시 권선구 탑동 749-7번지 104호","indutype":"음료식품 - 기타음료식품","category":"food"}]},{"lat":"37.274176995","long":"126.97087243","imageIndex":7,"items":[{"name":"허그점핑다이어트","tel":"","addr":"경기도 수원시 권선구 탑동 744-5번지 2층","indutype":"건강식품 - 기타건강식품","category":"food"}]},{"lat":"37.275322874","long":"126.97734386","imageIndex":7,"items":[{"name":"현대사우나 (남탕)","tel":"","addr":"경기도 수원시 권선구 탑동 5-4번지 지하1층","indutype":"음료식품 - 기타음료식품","category":"food"},{"name":"현대사우나 매점","tel":"031-296-9221","addr":"경기도 수원시 권선구 탑동 5-4번지 지하1층","indutype":"음료식품 - 기타음료식품","category":"food"}]},{"lat":"37.271150868","long":"126.97622909","imageIndex":7,"items":[{"name":"현대유통","tel":"031-252-3474","addr":"경기도 수원시 권선구 탑동 849-4번지","indutype":"음료식품 - 기타음료식품","category":"food"}]},{"lat":"37.270735874","long":"126.97400818","imageIndex":7,"items":[{"name":"홍원식품","tel":"031-294-4476","addr":"경기도 수원시 권선구 탑동 839-3번지 가림주택 201호","indutype":"음료식품 - 농·축·수산품","category":"food"}]}]