[{"lat":"37.534652636","long":"127.22469337","imageIndex":0,"items":[{"name":"Auto.one(오토원)","tel":"031-794-7922","addr":"경기도 하남시 천현동 43-18번지 43-18,43-18","indutype":"자동차정비 유지 - 카인테리어","category":"car"}]},{"lat":"37.536209864","long":"127.21570316","imageIndex":0,"items":[{"name":"GM대우천현정비","tel":"031-794-8295","addr":"경기도 하남시 천현동 132-4번지","indutype":"자동차정비 유지 - 자동차정비","category":"car"}]},{"lat":"37.533097408","long":"127.22283331","imageIndex":0,"items":[{"name":"곰스","tel":"031-795-9836","addr":"경기도 하남시 천현동 51-6번지 1층","indutype":"자동차정비 유지 - 자동차시트·타이어","category":"car"},{"name":"에보","tel":"031-000-0000","addr":"경기도 하남시 천현동 51-6번지 1층 우측","indutype":"자동차정비 유지 - 자동차부품","category":"car"}]},{"lat":"37.52435227","long":"127.22097502","imageIndex":0,"items":[{"name":"뉴하남타이어","tel":"031-796-9185","addr":"경기도 하남시 천현동 516-2번지","indutype":"자동차정비 유지 - 자동차시트·타이어","category":"car"},{"name":"명일공조","tel":"02-485-6600","addr":"경기도 하남시 천현동 516-2번지","indutype":"자동차정비 유지 - 자동차부품","category":"car"},{"name":"명일자동차공업사","tel":"031-792-6613","addr":"경기도 하남시 천현동 516-2번지","indutype":"자동차정비 유지 - 자동차정비","category":"car"},{"name":"성호공업사","tel":"031-791-6363","addr":"경기도 하남시 천현동 516-2번지","indutype":"자동차정비 유지 - 자동차부품","category":"car"}]},{"lat":"37.52987567","long":"127.20028777","imageIndex":0,"items":[{"name":"마르스","tel":"02-3426-8971","addr":"경기도 하남시 천현동 301-7번지","indutype":"자동차정비 유지 - 자동차부품","category":"car"}]},{"lat":"37.534097278","long":"127.21306101","imageIndex":0,"items":[{"name":"매직카썬팅","tel":"031-796-3262","addr":"경기도 하남시 천현동 169-17번지","indutype":"자동차정비 유지 - 카인테리어","category":"car"},{"name":"매직터치","tel":"031-794-7123","addr":"경기도 하남시 천현동 169-17번지","indutype":"자동차정비 유지 - 카인테리어","category":"car"}]},{"lat":"37.534511528","long":"127.21317531","imageIndex":0,"items":[{"name":"미래자동차공업사","tel":"031-794-0209","addr":"경기도 하남시 천현동 618-6번지","indutype":"자동차정비 유지 - 자동차정비","category":"car"}]},{"lat":"37.531844829","long":"127.2180553","imageIndex":0,"items":[{"name":"미본광택","tel":"031-792-0045","addr":"경기도 하남시 천현동 430-1번지","indutype":"자동차정비 유지 - 카인테리어","category":"car"}]},{"lat":"37.5339831","long":"127.2213651","imageIndex":0,"items":[{"name":"세명인터내셔널","tel":"02-3471-2340","addr":"경기도 하남시 천현동 53-26번지 102호","indutype":"자동차정비 유지 - 자동차부품","category":"car"}]},{"lat":"37.5352609","long":"127.2222287","imageIndex":0,"items":[{"name":"세종모터스","tel":"031-792-5227","addr":"경기도 하남시 천현동 39-10번지","indutype":"자동차정비 유지 - 자동차부품","category":"car"},{"name":"세종카서비스","tel":"031-793-7078","addr":"경기도 하남시 천현동 39-10번지","indutype":"자동차정비 유지 - 자동차정비","category":"car"}]},{"lat":"37.53465504","long":"127.21353776","imageIndex":0,"items":[{"name":"스파크 (자동차뷰티샵)","tel":"02-816-5339","addr":"경기도 하남시 천현동 618-3번지 1층 좌측","indutype":"자동차정비 유지 - 카인테리어","category":"car"},{"name":"차나라","tel":"031-795-2047","addr":"경기도 하남시 천현동 618-3번지 1층","indutype":"자동차정비 유지 - 카인테리어","category":"car"}]},{"lat":"37.529767703","long":"127.20019698","imageIndex":0,"items":[{"name":"신영타이어","tel":"031-796-0041","addr":"경기도 하남시 천현동 301-2번지","indutype":"자동차정비 유지 - 자동차시트·타이어","category":"car"}]},{"lat":"37.536344767","long":"127.21583931","imageIndex":0,"items":[{"name":"신장점기아오토큐","tel":"031-792-8572","addr":"경기도 하남시 천현동 132-1번지","indutype":"자동차정비 유지 - 자동차정비","category":"car"}]},{"lat":"37.529205468","long":"127.21275314","imageIndex":0,"items":[{"name":"아지트모터스","tel":"031-794-2652","addr":"경기도 하남시 천현동 352-2번지","indutype":"자동차정비 유지 - 자동차정비","category":"car"}]},{"lat":"37.534762976","long":"127.21363989","imageIndex":0,"items":[{"name":"에이치(H)-카오디오","tel":"031-791-9525","addr":"경기도 하남시 천현동 618-2번지","indutype":"자동차정비 유지 - 자동차부품","category":"car"}]},{"lat":"37.533352211","long":"127.21150893","imageIndex":0,"items":[{"name":"웅샵(WOONG #)","tel":"031-794-3968","addr":"경기도 하남시 천현동 178-10번지","indutype":"자동차정비 유지 - 자동차부품","category":"car"}]},{"lat":"37.535154295","long":"127.21144606","imageIndex":0,"items":[{"name":"일광자동차공업사","tel":"070-5352-9879","addr":"경기도 하남시 천현동 610-9번지","indutype":"자동차정비 유지 - 자동차정비","category":"car"}]},{"lat":"37.5324591","long":"127.22208473","imageIndex":0,"items":[{"name":"재생공업사","tel":"031-792-4275","addr":"경기도 하남시 천현동 53-15번지","indutype":"자동차정비 유지 - 자동차정비","category":"car"}]},{"lat":"37.534734701","long":"127.22417317","imageIndex":0,"items":[{"name":"진명상사","tel":"031-796-3553","addr":"경기도 하남시 천현동 43-4번지","indutype":"자동차정비 유지 - 자동차시트·타이어","category":"car"}]},{"lat":"37.534233571","long":"127.22233883","imageIndex":0,"items":[{"name":"차신오토","tel":"02-477-3637","addr":"경기도 하남시 천현동 53-4번지 외2필지","indutype":"자동차정비 유지 - 자동차부품","category":"car"}]},{"lat":"37.535955222","long":"127.22192525","imageIndex":0,"items":[{"name":"창성카서비스","tel":"031-792-4117","addr":"경기도 하남시 천현동 10-5번지","indutype":"자동차정비 유지 - 자동차정비","category":"car"}]},{"lat":"37.534350398","long":"127.21258653","imageIndex":0,"items":[{"name":"천현점현대자동차","tel":"031-795-7722","addr":"경기도 하남시 천현동 168-3번지","indutype":"자동차정비 유지 - 자동차정비","category":"car"}]},{"lat":"37.529961407","long":"127.21325305","imageIndex":0,"items":[{"name":"카닥터모터스","tel":"","addr":"경기도 하남시 천현동 408-6번지","indutype":"자동차정비 유지 - 자동차정비","category":"car"}]},{"lat":"37.535347624","long":"127.21419593","imageIndex":0,"items":[{"name":"카오디오아울렛","tel":"031-793-5580","addr":"경기도 하남시 천현동 620-6번지","indutype":"자동차정비 유지 - 자동차부품","category":"car"}]},{"lat":"37.530181919","long":"127.2208336","imageIndex":0,"items":[{"name":"카토피아","tel":"031-791-3899","addr":"경기도 하남시 천현동 452-5번지","indutype":"자동차정비 유지 - 자동차정비","category":"car"}]},{"lat":"37.532932567","long":"127.21442671","imageIndex":0,"items":[{"name":"팀메이크","tel":"031-1111-1111","addr":"경기도 하남시 천현동 95-1번지 가동","indutype":"자동차정비 유지 - 자동차부품","category":"car"}]},{"lat":"37.535959431","long":"127.20959277","imageIndex":0,"items":[{"name":"프로카써비스","tel":"031-793-5971","addr":"경기도 하남시 천현동 194-6번지","indutype":"자동차정비 유지 - 자동차정비","category":"car"}]}]