[{"lat":"37.39702746","long":"127.2283641","imageIndex":0,"items":[{"name":"(주)세인상사","tel":"031-798-7607","addr":"경기도 광주시 중대동 40-4번지","indutype":"자동차정비 유지 - 자동차부품","category":"car"}]},{"lat":"37.40389521","long":"127.2175647","imageIndex":0,"items":[{"name":"갈마자동차정비사업소","tel":"031-797-4972","addr":"경기도 광주시 중대동 222번지","indutype":"자동차정비 유지 - 자동차정비","category":"car"}]},{"lat":"37.40522574","long":"127.2240628","imageIndex":0,"items":[{"name":"네비원16","tel":"031-763-4836","addr":"경기도 광주시 중대동 163-1번지","indutype":"자동차정비 유지 - 자동차부품","category":"car"}]},{"lat":"37.40450205","long":"127.2158158","imageIndex":0,"items":[{"name":"명인상사","tel":"031-768-7494","addr":"경기도 광주시 중대동 217-10번지","indutype":"자동차정비 유지 - 자동차부품","category":"car"}]},{"lat":"37.40811728","long":"127.2145949","imageIndex":0,"items":[{"name":"모터스K","tel":"070-7778-6020","addr":"경기도 광주시 중대동 205-8번지 기아자동차 부품대리점 분당상사","indutype":"자동차정비 유지 - 자동차부품","category":"car"}]},{"lat":"37.39808622","long":"127.2259504","imageIndex":0,"items":[{"name":"성일카센타","tel":"031-765-1472","addr":"경기도 광주시 중대동 62-3번지","indutype":"자동차정비 유지 - 자동차정비","category":"car"}]},{"lat":"37.40141873","long":"127.2217816","imageIndex":0,"items":[{"name":"성주자동차3급공업사","tel":"","addr":"경기도 광주시 중대동 105-1번지","indutype":"자동차정비 유지 - 자동차정비","category":"car"}]},{"lat":"37.40364324","long":"127.2123686","imageIndex":0,"items":[{"name":"세차는 김세차","tel":"070-4248-6131","addr":"경기도 광주시 중대동 251-1번지","indutype":"자동차정비 유지 - 세차장","category":"car"}]},{"lat":"37.40489371","long":"127.2134563","imageIndex":0,"items":[{"name":"스팀워시","tel":"031-767-2154","addr":"경기도 광주시 중대동 263-1번지","indutype":"자동차정비 유지 - 카인테리어","category":"car"},{"name":"최강모터스","tel":"031-767-2400","addr":"경기도 광주시 중대동 263-1번지","indutype":"자동차정비 유지 - 자동차정비","category":"car"}]},{"lat":"37.396118","long":"127.2327544","imageIndex":0,"items":[{"name":"안산 스팀세차 굿짱","tel":"070-2699-0807","addr":"경기도 광주시 중대동 321-2번지","indutype":"자동차정비 유지 - 세차장","category":"car"}]},{"lat":"37.40214255","long":"127.220146","imageIndex":0,"items":[{"name":"에코뱃","tel":"031-765-3633","addr":"경기도 광주시 중대동 98-8번지","indutype":"자동차정비 유지 - 자동차부품","category":"car"}]},{"lat":"37.4061703","long":"127.2099586","imageIndex":0,"items":[{"name":"엘림카정비센타","tel":"031-797-0509","addr":"경기도 광주시 중대동 268-10번지","indutype":"자동차정비 유지 - 자동차정비","category":"car"}]},{"lat":"37.39391954","long":"127.232759","imageIndex":0,"items":[{"name":"오토뱅크","tel":"031-765-2602","addr":"경기도 광주시 중대동 28-74번지","indutype":"자동차판매 - 이륜차판매","category":"car"}]},{"lat":"37.39691807","long":"127.22903","imageIndex":0,"items":[{"name":"재영카센타","tel":"031-763-9670","addr":"경기도 광주시 중대동 40-14","indutype":"자동차정비 유지 - 자동차정비","category":"car"}]},{"lat":"37.39830507","long":"127.224562","imageIndex":0,"items":[{"name":"주식회사 월드","tel":"031-798-8851","addr":"경기도 광주시 중대동 75-5번지","indutype":"자동차정비 유지 - 자동차부품","category":"car"}]},{"lat":"37.39764214","long":"127.2273156","imageIndex":0,"items":[{"name":"중대자동차","tel":"031-699-1158","addr":"경기도 광주시 중대동 54-5번지","indutype":"자동차정비 유지 - 세차장","category":"car"}]},{"lat":"37.39849946","long":"127.2265954","imageIndex":0,"items":[{"name":"천마공업사","tel":"031-602-9335","addr":"경기도 광주시 중대동 64-1번지","indutype":"자동차정비 유지 - 윤활유 전문 판매","category":"car"}]},{"lat":"37.40383675","long":"127.215012","imageIndex":0,"items":[{"name":"친구윤활유","tel":"031-767-7951","addr":"경기도 광주시 중대동 233-3번지","indutype":"자동차정비 유지 - 윤활유 전문 판매","category":"car"}]},{"lat":"37.39639558","long":"127.2336474","imageIndex":0,"items":[{"name":"카플러스","tel":"031-769-5583","addr":"경기도 광주시 중대동 11번지","indutype":"자동차정비 유지 - 자동차부품","category":"car"}]},{"lat":"37.39802975","long":"127.2272264","imageIndex":0,"items":[{"name":"한성카프라자","tel":"031-797-9602","addr":"경기도 광주시 중대동 54-8번지","indutype":"자동차정비 유지 - 자동차정비","category":"car"}]}]