[{"lat":"37.586562973","long":"127.13814444","imageIndex":13,"items":[{"name":"&Hee","tel":"031-567-0606","addr":"경기도 구리시 수택동 873-6번지 금호프라자 402호","indutype":"보건위생 - 화장품","category":"beauty"},{"name":"리안헤어 토평점","tel":"031-568-2478","addr":"경기도 구리시 수택동 873-6번지 금호프라자 204호","indutype":"보건위생 - 미용원","category":"beauty"},{"name":"오공주네일","tel":"031-555-0920","addr":"경기도 구리시 수택동 873-6번지 금호프라자 110호","indutype":"보건위생 - 피부미용실","category":"beauty"},{"name":"이케이헤어","tel":"031-555-3320","addr":"경기도 구리시 수택동 873-6번지 금호프라자 102호","indutype":"보건위생 - 미용원","category":"beauty"}]},{"lat":"37.596918159","long":"127.14333799","imageIndex":13,"items":[{"name":"(란)","tel":"031-555-8638","addr":"경기도 구리시 수택동 482-7번지 2층","indutype":"보건위생 - 화장품","category":"beauty"}]},{"lat":"37.59897972","long":"127.13703453","imageIndex":13,"items":[{"name":"(수)","tel":"031-556-8585","addr":"경기도 구리시 수택동 375-3번지 유진빌딩 4층","indutype":"보건위생 - 피부미용실","category":"beauty"}]},{"lat":"37.597367186","long":"127.14456177","imageIndex":13,"items":[{"name":"100세동안구리점","tel":"031-555-4103","addr":"경기도 구리시 수택동 506-3번지 1층","indutype":"보건위생 - 의료용품","category":"beauty"}]},{"lat":"37.594252345","long":"127.14242714","imageIndex":13,"items":[{"name":"1인미용실 헤어모리","tel":"031-514-0662","addr":"경기도 구리시 수택동 458-13번지","indutype":"보건위생 - 미용원","category":"beauty"},{"name":"쥬노","tel":"070-8954-3567","addr":"경기도 구리시 수택동 458-13번지 1층","indutype":"보건위생 - 미용원","category":"beauty"}]},{"lat":"37.592418334","long":"127.13901556","imageIndex":13,"items":[{"name":"IDOHAIR","tel":"031-569-3500","addr":"경기도 구리시 수택동 757-4번지 1층","indutype":"보건위생 - 미용원","category":"beauty"},{"name":"아이두헤어","tel":"031-569-3510","addr":"경기도 구리시 수택동 757-4번지 2층","indutype":"보건위생 - 미용원","category":"beauty"}]},{"lat":"37.600592718","long":"127.14453392","imageIndex":13,"items":[{"name":"J&J헤어샵","tel":"031-569-5649","addr":"경기도 구리시 수택동 521-6번지 1층","indutype":"보건위생 - 미용원","category":"beauty"}]},{"lat":"37.597227363","long":"127.14090402","imageIndex":13,"items":[{"name":"JY헤어","tel":"031-552-1177","addr":"경기도 구리시 수택동 433-3번지 1층 좌측","indutype":"보건위생 - 미용원","category":"beauty"},{"name":"태평양대리","tel":"031-564-5477","addr":"경기도 구리시 수택동 433-3번지 2층","indutype":"보건위생 - 기타대인서비스","category":"beauty"}]},{"lat":"37.59984043","long":"127.14070502","imageIndex":13,"items":[{"name":"K조아","tel":"031-565-6969","addr":"경기도 구리시 수택동 409-3번지","indutype":"보건위생 - 기타대인서비스","category":"beauty"}]},{"lat":"37.595565465","long":"127.14436586","imageIndex":13,"items":[{"name":"M.S헤어클럽","tel":"031-553-9894","addr":"경기도 구리시 수택동 474-15번지 1층","indutype":"보건위생 - 미용원","category":"beauty"}]},{"lat":"37.587038861","long":"127.13956054","imageIndex":13,"items":[{"name":"NINE별","tel":"031-562-1500","addr":"경기도 구리시 수택동 874-7번지 거성빌딩 401호","indutype":"보건위생 - 화장품","category":"beauty"}]},{"lat":"37.594926855","long":"127.1434588","imageIndex":13,"items":[{"name":"ONE헤어","tel":"031-565-9530","addr":"경기도 구리시 수택동 456번지 1층","indutype":"보건위생 - 미용원","category":"beauty"},{"name":"진미용실","tel":"031-552-4749","addr":"경기도 구리시 수택동 456번지 1층","indutype":"보건위생 - 미용원","category":"beauty"}]},{"lat":"37.59178764","long":"127.14662324","imageIndex":13,"items":[{"name":"SUN 헤어샵","tel":"031-528-6263","addr":"경기도 구리시 수택동 679-1번지","indutype":"보건위생 - 미용원","category":"beauty"}]},{"lat":"37.590953415","long":"127.14356455","imageIndex":13,"items":[{"name":"Song아동발달센터","tel":"031-568-7555","addr":"경기도 구리시 수택동 853 럭키상가동206호","indutype":"보건위생 - 기타대인서비스","category":"beauty"},{"name":"럭키헤어샵","tel":"031-557-5904","addr":"경기도 구리시 수택동 853 럭키@단지내상가108호","indutype":"보건위생 - 미용원","category":"beauty"}]},{"lat":"37.59983403","long":"127.13845155","imageIndex":13,"items":[{"name":"TOP헤어","tel":"031-555-6023","addr":"경기도 구리시 수택동 383-22번지 지하1층","indutype":"보건위생 - 미용원","category":"beauty"}]},{"lat":"37.592621404","long":"127.14257129","imageIndex":13,"items":[{"name":"U헤어","tel":"031-557-1900","addr":"경기도 구리시 수택동 453번지 SIWA 104호","indutype":"보건위생 - 미용원","category":"beauty"},{"name":"셀앤수 구리수택점","tel":"","addr":"경기도 구리시 수택동 453번지 1층 104호 453번지","indutype":"보건위생 - 피부미용실","category":"beauty"}]},{"lat":"37.592086026","long":"127.13809782","imageIndex":13,"items":[{"name":"Zoot hair(쥬트헤어)","tel":"031-567-6411","addr":"경기도 구리시 수택동 847번지 타워클리닉 102호","indutype":"보건위생 - 미용원","category":"beauty"}]},{"lat":"37.598197477","long":"127.14339701","imageIndex":13,"items":[{"name":"the 아리따움 수택사거리점","tel":"031-568-3660","addr":"경기도 구리시 수택동 515-59번지 1층","indutype":"보건위생 - 화장품","category":"beauty"}]},{"lat":"37.595645025","long":"127.1379797","imageIndex":13,"items":[{"name":"가우디 미용실","tel":"031-566-7836","addr":"경기도 구리시 수택동 437-51번지 1층","indutype":"보건위생 - 미용원","category":"beauty"}]},{"lat":"37.594504846","long":"127.14223512","imageIndex":13,"items":[{"name":"가인헤어","tel":"031-557-9672","addr":"경기도 구리시 수택동 458-10번지 1층","indutype":"보건위생 - 미용원","category":"beauty"}]},{"lat":"37.592254002","long":"127.14087219","imageIndex":13,"items":[{"name":"강남언니","tel":"031-562-3729","addr":"경기도 구리시 수택동 449-26번지","indutype":"보건위생 - 미용원","category":"beauty"}]},{"lat":"37.58705851","long":"127.13814533","imageIndex":13,"items":[{"name":"개성시대미용실","tel":"031-553-5480","addr":"경기도 구리시 수택동 873-9번지 고덕프라자 2동 202호","indutype":"보건위생 - 미용원","category":"beauty"},{"name":"미힐링슬립","tel":"070-8883-8693","addr":"경기도 구리시 수택동 873-9번지 고덕프라자 3층 301호","indutype":"보건위생 - 피부미용실","category":"beauty"},{"name":"아가페","tel":"031-565-2045","addr":"경기도 구리시 수택동 873-9번지 고덕프라자 108호","indutype":"보건위생 - 미용원","category":"beauty"}]},{"lat":"37.596315218","long":"127.14273672","imageIndex":13,"items":[{"name":"갱스헤어","tel":"031-555-3480","addr":"경기도 구리시 수택동 471번지 반석블레스 상가 1층 5호","indutype":"보건위생 - 미용원","category":"beauty"}]},{"lat":"37.593704573","long":"127.14087487","imageIndex":13,"items":[{"name":"경희네몰","tel":"02-318-1531","addr":"경기도 구리시 수택동 442-12번지 1층","indutype":"보건위생 - 화장품","category":"beauty"}]},{"lat":"37.599589709","long":"127.13936834","imageIndex":13,"items":[{"name":"고은사(구리점)","tel":"031-567-5236","addr":"경기도 구리시 수택동 382-23번지","indutype":"보건위생 - 화장품","category":"beauty"}]},{"lat":"37.59903419","long":"127.13667227","imageIndex":13,"items":[{"name":"구리미용상사","tel":"031-555-3066","addr":"경기도 구리시 수택동 373-12번지","indutype":"보건위생 - 미용재료","category":"beauty"},{"name":"아이디","tel":"031-528-6263","addr":"경기도 구리시 수택동 373-12번지 1층","indutype":"보건위생 - 피부미용실","category":"beauty"}]},{"lat":"37.601530531","long":"127.14386757","imageIndex":13,"items":[{"name":"구리언어심리상담센터","tel":"031-555-5527","addr":"경기도 구리시 수택동 531-10번지 성지빌딩 5층","indutype":"보건위생 - 기타대인서비스","category":"beauty"}]},{"lat":"37.596141423","long":"127.1449218","imageIndex":13,"items":[{"name":"구피","tel":"031-554-0754","addr":"경기도 구리시 수택동 488-16번지","indutype":"보건위생 - 미용원","category":"beauty"}]},{"lat":"37.592341847","long":"127.1427859","imageIndex":13,"items":[{"name":"굿바리깡","tel":"031-577-5194","addr":"경기도 구리시 수택동 453-24번지 1층","indutype":"보건위생 - 미용원","category":"beauty"}]},{"lat":"37.600140452","long":"127.13837284","imageIndex":13,"items":[{"name":"그랑프리안경.콘택트","tel":"031-567-6811","addr":"경기도 구리시 수택동 383번지 동진빌딩 2호","indutype":"보건위생 - 안경","category":"beauty"},{"name":"미랑컬 헤어S","tel":"031-567-5857","addr":"경기도 구리시 수택동 383번지 3층","indutype":"보건위생 - 미용원","category":"beauty"},{"name":"보라","tel":"031-551-7727","addr":"경기도 구리시 수택동 383번지 동진빌딩 7층","indutype":"보건위생 - 피부미용실","category":"beauty"},{"name":"아이데코 안경","tel":"031-567-6811","addr":"경기도 구리시 수택동 383번지 동진빌딩 1층","indutype":"보건위생 - 안경","category":"beauty"},{"name":"오휘.후(수택점)","tel":"031-556-1654","addr":"경기도 구리시 수택동 383번지 동진빌딩 4층","indutype":"보건위생 - 화장품","category":"beauty"},{"name":"청맥주니어 심리상담센터","tel":"031-867-6656","addr":"경기도 구리시 수택동 383번지 동진빌딩 4층","indutype":"보건위생 - 기타대인서비스","category":"beauty"}]},{"lat":"37.592145858","long":"127.14089464","imageIndex":13,"items":[{"name":"글라스스토리(구리수택점)","tel":"031-555-3525","addr":"경기도 구리시 수택동 449-22번지 1층","indutype":"보건위생 - 안경","category":"beauty"}]},{"lat":"37.586669263","long":"127.13972969","imageIndex":13,"items":[{"name":"금비by재호","tel":"031-552-0783","addr":"경기도 구리시 수택동 876번지 109,110호참참존빌딩","indutype":"보건위생 - 미용원","category":"beauty"}]},{"lat":"37.599425106","long":"127.14145162","imageIndex":13,"items":[{"name":"금화(신)당","tel":"","addr":"경기도 구리시 수택동 405-15번지 2층","indutype":"보건위생 - 기타대인서비스","category":"beauty"}]},{"lat":"37.593757982","long":"127.14142979","imageIndex":13,"items":[{"name":"기분좋은날","tel":"031-563-2757","addr":"경기도 구리시 수택동 444번지 1층","indutype":"보건위생 - 미용원","category":"beauty"}]},{"lat":"37.598533499","long":"127.14114423","imageIndex":13,"items":[{"name":"김경애헤어월드","tel":"031-552-5249","addr":"경기도 구리시 수택동 419-32번지","indutype":"보건위생 - 미용원","category":"beauty"}]},{"lat":"37.593228872","long":"127.13931143","imageIndex":13,"items":[{"name":"김경은헤어라인","tel":"031-564-2520","addr":"경기도 구리시 수택동 445번지","indutype":"보건위생 - 미용원","category":"beauty"}]},{"lat":"37.60025754","long":"127.14603937","imageIndex":13,"items":[{"name":"김금숙헤어샵","tel":"031-553-7166","addr":"경기도 구리시 수택동 541-18번지","indutype":"보건위생 - 미용원","category":"beauty"}]},{"lat":"37.599198125","long":"127.14292329","imageIndex":13,"items":[{"name":"김민헤어샵","tel":"031-434-7879","addr":"경기도 구리시 수택동 524-12번지","indutype":"보건위생 - 미용원","category":"beauty"},{"name":"다나뷰티(Dana Beauty)","tel":"031-528-6263","addr":"경기도 구리시 수택동 524-12번지 102호","indutype":"보건위생 - 화장품","category":"beauty"}]},{"lat":"37.599501019","long":"127.1381452","imageIndex":13,"items":[{"name":"김소영헤어클럽","tel":"031-563-5033","addr":"경기도 구리시 수택동 374-23번지 평일빌딩 1층","indutype":"보건위생 - 미용원","category":"beauty"}]},{"lat":"37.594946097","long":"127.14242843","imageIndex":13,"items":[{"name":"김영미 헤어비젼","tel":"031-556-6331","addr":"경기도 구리시 수택동 465-13번지","indutype":"보건위생 - 미용원","category":"beauty"}]},{"lat":"37.591587387","long":"127.14828729","imageIndex":13,"items":[{"name":"꾸미오헤어","tel":"031-554-9252","addr":"경기도 구리시 수택동 684-7번지","indutype":"보건위생 - 미용원","category":"beauty"}]},{"lat":"37.596365258","long":"127.14608853","imageIndex":13,"items":[{"name":"끄라비","tel":"031-000-0000","addr":"경기도 구리시 수택동 504-6번지 2층","indutype":"보건위생 - 미용재료","category":"beauty"}]},{"lat":"37.594279829","long":"127.1420422","imageIndex":13,"items":[{"name":"끌레헤어샵","tel":"031-564-6105","addr":"경기도 구리시 수택동 459번지 상가 1층","indutype":"보건위생 - 미용원","category":"beauty"}]},{"lat":"37.596981712","long":"127.14293046","imageIndex":13,"items":[{"name":"나나네일","tel":"070-4379-2251","addr":"경기도 구리시 수택동 482-2번지 수택동성원상떼빌 101동 114호","indutype":"보건위생 - 미용원","category":"beauty"},{"name":"마노네일","tel":"","addr":"경기도 구리시 수택동 482-2번지 수택동성원상떼빌 101동 119호","indutype":"보건위생 - 피부미용실","category":"beauty"},{"name":"상떼빌사우나","tel":"031-563-1500","addr":"경기도 구리시 수택동 482-2번지 수택동성원상떼빌 101동 B01호","indutype":"보건위생 - 사우나","category":"beauty"},{"name":"윤관리샵","tel":"031-000-0000","addr":"경기도 구리시 수택동 482-2번지 수택동성원상떼빌 101동 지하 비01호","indutype":"보건위생 - 피부미용실","category":"beauty"},{"name":"제이뷰티","tel":"","addr":"경기도 구리시 수택동 482-2번지 수택동성원상떼빌 101동 117호","indutype":"보건위생 - 피부미용실","category":"beauty"},{"name":"체형교정","tel":"070-2699-0807","addr":"경기도 구리시 수택동 482-2번지 수택동성원상떼빌 101동 지하 B01호","indutype":"보건위생 - 기타대인서비스","category":"beauty"},{"name":"헤어테라피","tel":"031-556-6616","addr":"경기도 구리시 수택동 482-2번지 수택동성원상떼빌 109호","indutype":"보건위생 - 미용원","category":"beauty"}]},{"lat":"37.594256659","long":"127.14634492","imageIndex":13,"items":[{"name":"나쁜남자","tel":"","addr":"경기도 구리시 수택동 595-5번지 1층","indutype":"보건위생 - 미용원","category":"beauty"}]},{"lat":"37.594724629","long":"127.14678742","imageIndex":13,"items":[{"name":"나이스바디&스킨","tel":"","addr":"경기도 구리시 수택동 479-3번지 2층","indutype":"보건위생 - 피부미용실","category":"beauty"}]},{"lat":"37.600559682","long":"127.1420086","imageIndex":13,"items":[{"name":"난다뷰티","tel":"031-564-9997","addr":"경기도 구리시 수택동 526-3번지 우진빌딩 2층","indutype":"보건위생 - 피부미용실","category":"beauty"},{"name":"뷰티.채","tel":"031-554-7003","addr":"경기도 구리시 수택동 526-3번지 우진빌딩 2층","indutype":"보건위생 - 피부미용실","category":"beauty"}]},{"lat":"37.59933887","long":"127.13812226","imageIndex":13,"items":[{"name":"내담헤어","tel":"031-553-8838","addr":"경기도 구리시 수택동 374-24번지","indutype":"보건위생 - 미용원","category":"beauty"}]},{"lat":"37.591671722","long":"127.14562663","imageIndex":13,"items":[{"name":"내몸힐링동호회","tel":"031-565-4002","addr":"경기도 구리시 수택동 698-10번지 지층","indutype":"보건위생 - 화장품","category":"beauty"},{"name":"오네일(O'nail)","tel":"031-528-6263","addr":"경기도 구리시 수택동 698-10번지 1층","indutype":"보건위생 - 미용원","category":"beauty"}]},{"lat":"37.600088796","long":"127.14401206","imageIndex":13,"items":[{"name":"내츄럴휴","tel":"031-553-6777","addr":"경기도 구리시 수택동 522-11번지","indutype":"보건위생 - 화장품","category":"beauty"},{"name":"선녀미용실","tel":"031-562-3579","addr":"경기도 구리시 수택동 522-11번지 1층","indutype":"보건위생 - 미용원","category":"beauty"},{"name":"예가헤어클럽","tel":"031-567-6536","addr":"경기도 구리시 수택동 522-11번지","indutype":"보건위생 - 미용원","category":"beauty"}]},{"lat":"37.59764589","long":"127.13737184","imageIndex":13,"items":[{"name":"네일그림","tel":"031-528-6263","addr":"경기도 구리시 수택동 378-31번지 1층","indutype":"보건위생 - 피부미용실","category":"beauty"}]},{"lat":"37.599897753","long":"127.14554043","imageIndex":13,"items":[{"name":"누가베스트 구리점","tel":"031-516-6298","addr":"경기도 구리시 수택동 518-2번지 2층","indutype":"보건위생 - 의료용품","category":"beauty"}]},{"lat":"37.600175631","long":"127.13912028","imageIndex":13,"items":[{"name":"뉴문 주식회사","tel":"031-563-7066","addr":"경기도 구리시 수택동 383-8번지 4층","indutype":"보건위생 - 안경","category":"beauty"},{"name":"하나네일","tel":"031-571-3478","addr":"경기도 구리시 수택동 383-8번지 2층","indutype":"보건위생 - 피부미용실","category":"beauty"}]},{"lat":"37.595503367","long":"127.15092189","imageIndex":13,"items":[{"name":"뉴허브사우나","tel":"031-566-3030","addr":"경기도 구리시 수택동 296번지","indutype":"보건위생 - 사우나","category":"beauty"},{"name":"뉴허브좌욕","tel":"031-6280-0037","addr":"경기도 구리시 수택동 296번지 2층 뉴허브찜질방사우나 내","indutype":"보건위생 - 피부미용실","category":"beauty"}]},{"lat":"37.596586474","long":"127.14192194","imageIndex":13,"items":[{"name":"늘솜","tel":"031-000-0000","addr":"경기도 구리시 수택동 469-4번지 1층","indutype":"보건위생 - 피부미용실","category":"beauty"}]},{"lat":"37.596091948","long":"127.14106045","imageIndex":13,"items":[{"name":"다솜헤어","tel":"","addr":"경기도 구리시 수택동 436-21번지","indutype":"보건위생 - 미용원","category":"beauty"},{"name":"진샘","tel":"031-565-1665","addr":"경기도 구리시 수택동 436-21번지 1층 다인인테리어","indutype":"보건위생 - 피부미용실","category":"beauty"}]},{"lat":"37.599585933","long":"127.14259563","imageIndex":13,"items":[{"name":"다온네일","tel":"031-000-0000","addr":"경기도 구리시 수택동 525-25번지 1층 좌측호","indutype":"보건위생 - 피부미용실","category":"beauty"}]},{"lat":"37.595227036","long":"127.14853215","imageIndex":13,"items":[{"name":"다온뷰티","tel":"031-111-1111","addr":"경기도 구리시 수택동 290-5번지 풍림주택 302호","indutype":"보건위생 - 미용재료","category":"beauty"},{"name":"헤어김백","tel":"031-528-8455","addr":"경기도 구리시 수택동 290-5번지 풍림주택 1층 1호","indutype":"보건위생 - 미용원","category":"beauty"}]},{"lat":"37.594616441","long":"127.13925735","imageIndex":13,"items":[{"name":"단오쑥뜸","tel":"031-555-5335","addr":"경기도 구리시 수택동 437-21번지","indutype":"보건위생 - 피부미용실","category":"beauty"},{"name":"옻안타는천연염색 구리점","tel":"031-553-2628","addr":"경기도 구리시 수택동 437-21번지 무지개교회 103호","indutype":"보건위생 - 미용원","category":"beauty"}]},{"lat":"37.592341686","long":"127.14292177","imageIndex":13,"items":[{"name":"단화미용실","tel":"031-565-0607","addr":"경기도 구리시 수택동 453-23번지","indutype":"보건위생 - 미용원","category":"beauty"}]},{"lat":"37.591507968","long":"127.13934226","imageIndex":13,"items":[{"name":"대육","tel":"031-555-1813","addr":"경기도 구리시 수택동 849번지 이화빌딩 5층","indutype":"보건위생 - 화장품","category":"beauty"}]},{"lat":"37.597953045","long":"127.13664769","imageIndex":13,"items":[{"name":"더 타이","tel":"","addr":"경기도 구리시 수택동 376-8번지 3층 일부","indutype":"보건위생 - 화장품","category":"beauty"}]},{"lat":"37.602447963","long":"127.14517159","imageIndex":13,"items":[{"name":"더나인","tel":"","addr":"경기도 구리시 수택동 534-2번지 성원메스티지상가 502호","indutype":"보건위생 - 화장품","category":"beauty"},{"name":"독일지멘스보청기프리미엄구리점","tel":"031-575-1070","addr":"경기도 구리시 수택동 534-2번지 성원메스티지상가 303호","indutype":"보건위생 - 의료용품","category":"beauty"}]},{"lat":"37.596919408","long":"127.14228491","imageIndex":13,"items":[{"name":"더블유(W)헤어","tel":"031-556-5564","addr":"경기도 구리시 수택동 469번지 1층","indutype":"보건위생 - 미용원","category":"beauty"}]},{"lat":"37.600507125","long":"127.14072889","imageIndex":13,"items":[{"name":"더퀸즈뷰티","tel":"031-563-2253","addr":"경기도 구리시 수택동 404-5번지","indutype":"보건위생 - 기타대인서비스","category":"beauty"},{"name":"지노헤어","tel":"031-554-3493","addr":"경기도 구리시 수택동 404-5번지 3층","indutype":"보건위생 - 미용원","category":"beauty"},{"name":"태림역학원","tel":"070-7420-3706","addr":"경기도 구리시 수택동 404-5번지 좋은치과의원 지하1층","indutype":"보건위생 - 기타대인서비스","category":"beauty"}]},{"lat":"37.599922585","long":"127.13978793","imageIndex":13,"items":[{"name":"더페이스샵","tel":"031-564-9920","addr":"경기도 구리시 수택동 404-14번지","indutype":"보건위생 - 화장품","category":"beauty"}]},{"lat":"37.591976188","long":"127.13959221","imageIndex":13,"items":[{"name":"더헤어","tel":"031-551-4080","addr":"경기도 구리시 수택동 850-1번지 2층","indutype":"보건위생 - 미용원","category":"beauty"}]},{"lat":"37.592534819","long":"127.13957059","imageIndex":13,"items":[{"name":"도도헤어클럽","tel":"031-515-2445","addr":"경기도 구리시 수택동 448번지 대호빌딩","indutype":"보건위생 - 미용원","category":"beauty"}]},{"lat":"37.598730529","long":"127.14215241","imageIndex":13,"items":[{"name":"돌할아버지","tel":"031-000-0000","addr":"경기도 구리시 수택동 423-13번지 2층 201호","indutype":"보건위생 - 기타대인서비스","category":"beauty"}]},{"lat":"37.595338448","long":"127.14583745","imageIndex":13,"items":[{"name":"동그리헤어","tel":"031-568-1057","addr":"경기도 구리시 수택동 479-27번지 1층 일부","indutype":"보건위생 - 미용원","category":"beauty"}]},{"lat":"37.598007177","long":"127.14431387","imageIndex":13,"items":[{"name":"동원목욕탕","tel":"031-563-8614","addr":"경기도 구리시 수택동 512-4","indutype":"보건위생 - 사우나","category":"beauty"}]},{"lat":"37.598864885","long":"127.14282076","imageIndex":13,"items":[{"name":"디바살롱","tel":"","addr":"경기도 구리시 수택동 524-7번지 2층","indutype":"보건위생 - 미용원","category":"beauty"}]},{"lat":"37.597921312","long":"127.14073545","imageIndex":13,"items":[{"name":"디바헤어","tel":"","addr":"경기도 구리시 수택동 426번지 동원파크 1층","indutype":"보건위생 - 미용원","category":"beauty"}]},{"lat":"37.598810464","long":"127.1431264","imageIndex":13,"items":[{"name":"또 네일","tel":"","addr":"경기도 구리시 수택동 515-4번지 1층 토토부동산","indutype":"보건위생 - 피부미용실","category":"beauty"},{"name":"한새헤어","tel":"070-8243-9457","addr":"경기도 구리시 수택동 515-4번지","indutype":"보건위생 - 미용원","category":"beauty"}]},{"lat":"37.593426241","long":"127.14758884","imageIndex":13,"items":[{"name":"똑똑한 정리정돈","tel":"031-1688-2406","addr":"경기도 구리시 수택동 276-41번지 2층","indutype":"보건위생 - 기타대인서비스","category":"beauty"}]},{"lat":"37.599334423","long":"127.1419497","imageIndex":13,"items":[{"name":"라온테라피","tel":"031-557-2033","addr":"경기도 구리시 수택동 423-2번지 2층","indutype":"보건위생 - 피부미용실","category":"beauty"}]},{"lat":"37.597783822","long":"127.14272814","imageIndex":13,"items":[{"name":"라움더타이","tel":"031-552-0111","addr":"경기도 구리시 수택동 424-21번지 은산빌딩 2층 1호","indutype":"보건위생 - 화장품","category":"beauty"}]},{"lat":"37.598366492","long":"127.14520912","imageIndex":13,"items":[{"name":"라인헤어","tel":"031-551-3948","addr":"경기도 구리시 수택동 509번지 1층","indutype":"보건위생 - 미용원","category":"beauty"}]},{"lat":"37.592009662","long":"127.14178888","imageIndex":13,"items":[{"name":"랑스뷰티","tel":"070-4477-0227","addr":"경기도 구리시 수택동 449-29번지 동은빌딩 1층 2호","indutype":"보건위생 - 피부미용실","category":"beauty"},{"name":"린헤어","tel":"031-563-4932","addr":"경기도 구리시 수택동 449-29번지 동은빌딩 1층 2호","indutype":"보건위생 - 미용원","category":"beauty"},{"name":"여자는피부다","tel":"031-564-4749","addr":"경기도 구리시 수택동 449-29번지 1층","indutype":"보건위생 - 화장품","category":"beauty"},{"name":"티티어스","tel":"031-562-8250","addr":"경기도 구리시 수택동 449-29번지","indutype":"보건위생 - 화장품","category":"beauty"},{"name":"프로헤어샵","tel":"031-553-9594","addr":"경기도 구리시 수택동 449-29번지","indutype":"보건위생 - 미용원","category":"beauty"},{"name":"헤어스케치","tel":"031-555-0244","addr":"경기도 구리시 수택동 449-29번지","indutype":"보건위생 - 미용원","category":"beauty"}]},{"lat":"37.593038116","long":"127.14064718","imageIndex":13,"items":[{"name":"러블리헤어","tel":"031-513-9914","addr":"경기도 구리시 수택동 445-24번지","indutype":"보건위생 - 미용원","category":"beauty"},{"name":"행복한 미용실","tel":"031-510-9020","addr":"경기도 구리시 수택동 445-24번지 1층 101호","indutype":"보건위생 - 미용원","category":"beauty"}]},{"lat":"37.600309452","long":"127.14026425","imageIndex":13,"items":[{"name":"렌즈미구리2호점","tel":"031-556-1000","addr":"경기도 구리시 수택동 404-2번지 1층","indutype":"보건위생 - 안경","category":"beauty"},{"name":"슈가엘슈가링 왁싱","tel":"031-000-0000","addr":"경기도 구리시 수택동 404-2번지 보광빌딩 4층","indutype":"보건위생 - 피부미용실","category":"beauty"},{"name":"아이월드안경","tel":"031-553-4488","addr":"경기도 구리시 수택동 404-2번지","indutype":"보건위생 - 안경","category":"beauty"},{"name":"이니스프리구리점","tel":"031-551-8709","addr":"경기도 구리시 수택동 404-2번지","indutype":"보건위생 - 화장품","category":"beauty"},{"name":"이블랑슈","tel":"031-514-2464","addr":"경기도 구리시 수택동 404-2번지 4층","indutype":"보건위생 - 화장품","category":"beauty"}]},{"lat":"37.595753142","long":"127.1379799","imageIndex":13,"items":[{"name":"려원뷰티샵(#)","tel":"","addr":"경기도 구리시 수택동 437-50번지","indutype":"보건위생 - 피부미용실","category":"beauty"}]},{"lat":"37.598725791","long":"127.13848351","imageIndex":13,"items":[{"name":"로얄","tel":"031-566-3014","addr":"경기도 구리시 수택동 381-22번지 지하1층","indutype":"보건위생 - 기타대인서비스","category":"beauty"}]},{"lat":"37.600139944","long":"127.13881447","imageIndex":13,"items":[{"name":"로이드밤 구리수택점","tel":"031-569-5858","addr":"경기도 구리시 수택동 383-5번지 2층","indutype":"보건위생 - 미용원","category":"beauty"},{"name":"아리따움 구리 돌다리사거리점","tel":"031-556-2080","addr":"경기도 구리시 수택동 383-5번지","indutype":"보건위생 - 화장품","category":"beauty"}]},{"lat":"37.599531055","long":"127.14328628","imageIndex":13,"items":[{"name":"로이미용실","tel":"031-555-2043","addr":"경기도 구리시 수택동 525-61번지 1층","indutype":"보건위생 - 미용원","category":"beauty"},{"name":"수네일","tel":"031-555-2581","addr":"경기도 구리시 수택동 525-61번지","indutype":"보건위생 - 피부미용실","category":"beauty"}]},{"lat":"37.599169869","long":"127.14395371","imageIndex":13,"items":[{"name":"로즈송헤어","tel":"031-552-7800","addr":"경기도 구리시 수택동 522-61번지","indutype":"보건위생 - 미용원","category":"beauty"},{"name":"이지원#","tel":"031-577-3700","addr":"경기도 구리시 수택동 522-61번지 1층","indutype":"보건위생 - 화장품","category":"beauty"}]},{"lat":"37.592085428","long":"127.13861866","imageIndex":13,"items":[{"name":"리안헤어수택점","tel":"031-566-7574","addr":"경기도 구리시 수택동 847-2번지 동진프라자 102호","indutype":"보건위생 - 미용원","category":"beauty"},{"name":"언제나 스킨앤바디","tel":"031-566-3338","addr":"경기도 구리시 수택동 847-2번지 동진프라자 202호","indutype":"보건위생 - 피부미용실","category":"beauty"}]},{"lat":"37.58720203","long":"127.13870037","imageIndex":13,"items":[{"name":"리치안경콘택트","tel":"031-564-6789","addr":"경기도 구리시 수택동 874번지 새롬프라자8차 108호","indutype":"보건위생 - 안경","category":"beauty"}]},{"lat":"37.598058626","long":"127.13886731","imageIndex":13,"items":[{"name":"리치헤어샵","tel":"031-8956-0843","addr":"경기도 구리시 수택동 380-21번지 1층","indutype":"보건위생 - 미용원","category":"beauty"}]},{"lat":"37.599947124","long":"127.149368","imageIndex":13,"items":[{"name":"링피부샵","tel":"031-527-9026","addr":"경기도 구리시 수택동 550번지 남양아이-좋은집 상가동1층","indutype":"보건위생 - 피부미용실","category":"beauty"}]},{"lat":"37.600727019","long":"127.14523626","imageIndex":13,"items":[{"name":"마르마미용실","tel":"031-557-4001","addr":"경기도 구리시 수택동 539번지 수택동다세대주택 101호","indutype":"보건위생 - 미용원","category":"beauty"},{"name":"비쥬헤어","tel":"031-566-6328","addr":"경기도 구리시 수택동 539번지 수택동다세대주택 1층","indutype":"보건위생 - 미용원","category":"beauty"}]},{"lat":"37.595534926","long":"127.14726455","imageIndex":13,"items":[{"name":"마비스안경","tel":"031-563-2115","addr":"경기도 구리시 수택동 492-18번지","indutype":"보건위생 - 안경","category":"beauty"}]},{"lat":"37.597864547","long":"127.14303403","imageIndex":13,"items":[{"name":"마임구리지사","tel":"031-555-1651","addr":"경기도 구리시 수택동 424-28번지 현주I프랜드빌딩 401호","indutype":"보건위생 - 화장품","category":"beauty"},{"name":"아모레 퍼시픽 남양주구리지사","tel":"031-551-5235","addr":"경기도 구리시 수택동 424-28번지 현주Ifriend빌딩 10층 1001호","indutype":"보건위생 - 화장품","category":"beauty"},{"name":"아모레퍼시픽구리지사뷰레이터","tel":"031-551-5235","addr":"경기도 구리시 수택동 424-28번지 현주IFRIEND빌딩 1001호","indutype":"보건위생 - 화장품","category":"beauty"},{"name":"아모레퍼시픽구리지사뷰레이터","tel":"031-551-5235","addr":"경기도 구리시 수택동 424-28번지 현주Ifriend빌딩 1001호","indutype":"보건위생 - 화장품","category":"beauty"},{"name":"아모레퍼시픽구리지사뷰레이터","tel":"031-551-5235","addr":"경기도 구리시 수택동 424-28번지 현주ifriend빌딩 1001호","indutype":"보건위생 - 화장품","category":"beauty"},{"name":"아모레퍼시픽구리지사뷰레이터","tel":"031-551-5235","addr":"경기도 구리시 수택동 424-28번지 현주IFRIEND빌딩 1001호","indutype":"보건위생 - 화장품","category":"beauty"},{"name":"아모레퍼시픽구리지사뷰레이터","tel":"031-551-5235","addr":"경기도 구리시 수택동 424-28번지 현주Ifriend빌딩","indutype":"보건위생 - 화장품","category":"beauty"},{"name":"아모레퍼시픽구리지사뷰레이터","tel":"031-551-5235","addr":"경기도 구리시 수택동 424-28번지 현주아이프랜드빌딩 1001호","indutype":"보건위생 - 화장품","category":"beauty"},{"name":"아모레퍼시픽구리지사뷰레이터","tel":"031-551-5235","addr":"경기도 구리시 수택동 424-28번지","indutype":"보건위생 - 화장품","category":"beauty"},{"name":"아모레퍼시픽구리지사뷰티레이터","tel":"031-551-5235","addr":"경기도 구리시 수택동 424-28번지 현주아이프랜드 1001호","indutype":"보건위생 - 화장품","category":"beauty"},{"name":"아모레퍼시픽남양주구리지사뷰레이터","tel":"031-551-5235","addr":"경기도 구리시 수택동 424-28번지 현주Ifriend빌딩 101호","indutype":"보건위생 - 화장품","category":"beauty"},{"name":"아모레퍼시픽남양주구리지사뷰레이터","tel":"031-551-5235","addr":"경기도 구리시 수택동 424-28번지 현주아이프랜드빌딩 10층 1001호","indutype":"보건위생 - 화장품","category":"beauty"},{"name":"아모레퍼시픽남양주구리지사뷰레이터","tel":"031-551-5235","addr":"경기도 구리시 수택동 424-28번지 현주Ifriend빌딩 1001호","indutype":"보건위생 - 화장품","category":"beauty"},{"name":"아모레퍼시픽남양주구리지사뷰레이터","tel":"031-551-5231","addr":"경기도 구리시 수택동 424-28번지 현주Ifriend빌딩 1001호","indutype":"보건위생 - 화장품","category":"beauty"},{"name":"아모레퍼시픽뷰레이터","tel":"031-551-5235","addr":"경기도 구리시 수택동 424-28번지 현주Ifriend빌딩 1001호","indutype":"보건위생 - 화장품","category":"beauty"},{"name":"아모레퍼시픽뷰레이터","tel":"031-551-5235","addr":"경기도 구리시 수택동 424-28번지 현주아이프랜드빌딩 1001동 1002호","indutype":"보건위생 - 화장품","category":"beauty"},{"name":"아모레퍼시픽뷰레이터/김선영","tel":"031-551-5235","addr":"경기도 구리시 수택동 424-28번지 현주아이프랜드빌딩 1001호","indutype":"보건위생 - 화장품","category":"beauty"},{"name":"아이유안경","tel":"031-557-9001","addr":"경기도 구리시 수택동 424-28번지 현주아이프렌드빌딩 101호","indutype":"보건위생 - 안경","category":"beauty"},{"name":"에스테 연","tel":"","addr":"경기도 구리시 수택동 424-28번지 현주아이프랜드빌딩 1003-2호","indutype":"보건위생 - 화장품","category":"beauty"},{"name":"주식회사 제이무역상사","tel":"02-1544-4016","addr":"경기도 구리시 수택동 424-28번지 현주Ifriend빌딩 1401호 수택 현주아이프렌드","indutype":"보건위생 - 화장품","category":"beauty"},{"name":"티온타이","tel":"031-552-1221","addr":"경기도 구리시 수택동 424-28번지 현주Ifriend빌딩 5층 502호","indutype":"보건위생 - 화장품","category":"beauty"},{"name":"플레르뷰티","tel":"070-4440-4495","addr":"경기도 구리시 수택동 424-28번지 현주Ifriend빌딩 11층","indutype":"보건위생 - 피부미용실","category":"beauty"},{"name":"휴","tel":"031-552-5993","addr":"경기도 구리시 수택동 424-28번지 204호 상가","indutype":"보건위생 - 화장품","category":"beauty"}]},{"lat":"37.593533745","long":"127.14056883","imageIndex":13,"items":[{"name":"매직박스미용실","tel":"","addr":"경기도 구리시 수택동 442-9번지 1층","indutype":"보건위생 - 미용원","category":"beauty"}]},{"lat":"37.593093726","long":"127.13931119","imageIndex":13,"items":[{"name":"맨스클럽","tel":"031-556-5933","addr":"경기도 구리시 수택동 445-4번지","indutype":"보건위생 - 미용원","category":"beauty"}]},{"lat":"37.598171964","long":"127.14211739","imageIndex":13,"items":[{"name":"머리나라","tel":"031-556-1679","addr":"경기도 구리시 수택동 425-4번지 1층","indutype":"보건위생 - 미용원","category":"beauty"}]},{"lat":"37.592896584","long":"127.14601394","imageIndex":13,"items":[{"name":"머리사랑미용실","tel":"031-552-9185","addr":"경기도 구리시 수택동 276-166번지","indutype":"보건위생 - 미용원","category":"beauty"},{"name":"오색헤어살롱","tel":"031-568-2727","addr":"경기도 구리시 수택동 276-166번지 1층","indutype":"보건위생 - 미용원","category":"beauty"}]},{"lat":"37.596752774","long":"127.14601001","imageIndex":13,"items":[{"name":"머리야놀자","tel":"031-562-0003","addr":"경기도 구리시 수택동 504-14번지 1층","indutype":"보건위생 - 미용원","category":"beauty"},{"name":"신흥미용상사","tel":"031-567-2937","addr":"경기도 구리시 수택동 504-14번지 지하1층","indutype":"보건위생 - 화장품","category":"beauty"}]},{"lat":"37.599756097","long":"127.14345656","imageIndex":13,"items":[{"name":"머리하는날","tel":"070-8163-9079","addr":"경기도 구리시 수택동 525-71번지 1층","indutype":"보건위생 - 미용원","category":"beauty"}]},{"lat":"37.586589","long":"127.13901627","imageIndex":13,"items":[{"name":"메이헤어","tel":"031-569-0005","addr":"경기도 구리시 수택동 875-5번지 새롬프라자11차 1층 109호","indutype":"보건위생 - 미용원","category":"beauty"},{"name":"수지 바디 페이스","tel":"031-574-9040","addr":"경기도 구리시 수택동 875-5번지 새롬프라자11차 301호","indutype":"보건위생 - 화장품","category":"beauty"}]},{"lat":"37.598396619","long":"127.14261605","imageIndex":13,"items":[{"name":"명문안경원","tel":"031-553-0088","addr":"경기도 구리시 수택동 424-1번지","indutype":"보건위생 - 안경","category":"beauty"}]},{"lat":"37.598259586","long":"127.14420111","imageIndex":13,"items":[{"name":"명품","tel":"031-558-4695","addr":"경기도 구리시 수택동 516-15번지","indutype":"보건위생 - 화장품","category":"beauty"}]},{"lat":"37.592003505","long":"127.13934316","imageIndex":13,"items":[{"name":"명화장품","tel":"031-557-6508","addr":"경기도 구리시 수택동 850번지 청림 101호","indutype":"보건위생 - 화장품","category":"beauty"}]},{"lat":"37.592946179","long":"127.14964867","imageIndex":13,"items":[{"name":"모모살롱","tel":"031-562-0145","addr":"경기도 구리시 수택동 274-15번지 1층","indutype":"보건위생 - 미용원","category":"beauty"}]},{"lat":"37.598280468","long":"127.14178921","imageIndex":13,"items":[{"name":"문세영헤어샵","tel":"031-554-1519","addr":"경기도 구리시 수택동 422-17번지","indutype":"보건위생 - 미용원","category":"beauty"}]},{"lat":"37.598698345","long":"127.13884582","imageIndex":13,"items":[{"name":"미건의료기","tel":"031-551-5007","addr":"경기도 구리시 수택동 381-21번지 2층","indutype":"보건위생 - 의료용품","category":"beauty"}]},{"lat":"37.597200691","long":"127.14059824","imageIndex":13,"items":[{"name":"미소네일","tel":"031-556-1212","addr":"경기도 구리시 수택동 431-12번지 1층","indutype":"보건위생 - 피부미용실","category":"beauty"}]},{"lat":"37.598113387","long":"127.13825593","imageIndex":13,"items":[{"name":"미소헤어","tel":"","addr":"경기도 구리시 수택동 380-13번지","indutype":"보건위생 - 미용원","category":"beauty"}]},{"lat":"37.598787133","long":"127.13997836","imageIndex":13,"items":[{"name":"미소화장품","tel":"031-562-1987","addr":"경기도 구리시 수택동 417-11번지","indutype":"보건위생 - 화장품","category":"beauty"}]},{"lat":"37.592369077","long":"127.14261611","imageIndex":13,"items":[{"name":"미용하는 친구를 소개합니다","tel":"070-8624-8724","addr":"경기도 구리시 수택동 453-27번지 1층","indutype":"보건위생 - 미용원","category":"beauty"}]},{"lat":"37.595254027","long":"127.14107022","imageIndex":13,"items":[{"name":"민영머리여행","tel":"031-567-0717","addr":"경기도 구리시 수택동 463-3번지","indutype":"보건위생 - 미용원","category":"beauty"}]},{"lat":"37.599953812","long":"127.14387592","imageIndex":13,"items":[{"name":"민헤어","tel":"","addr":"경기도 구리시 수택동 522-9번지 1층","indutype":"보건위생 - 미용원","category":"beauty"}]},{"lat":"37.595979411","long":"127.14478561","imageIndex":13,"items":[{"name":"바람난머리","tel":"031-566-8393","addr":"경기도 구리시 수택동 480번지","indutype":"보건위생 - 미용원","category":"beauty"},{"name":"색채도시","tel":"031-555-1785","addr":"경기도 구리시 수택동 480번지","indutype":"보건위생 - 화장품","category":"beauty"}]},{"lat":"37.597009799","long":"127.14203596","imageIndex":13,"items":[{"name":"바비컬속눈썹","tel":"031-556-6340","addr":"경기도 구리시 수택동 433-45번지 1층","indutype":"보건위생 - 화장품","category":"beauty"}]},{"lat":"37.593391974","long":"127.1385078","imageIndex":13,"items":[{"name":"박은경미용실","tel":"031-563-5779","addr":"경기도 구리시 수택동 438-48번지","indutype":"보건위생 - 미용원","category":"beauty"}]},{"lat":"37.598446332","long":"127.13861889","imageIndex":13,"items":[{"name":"박정님헤어메세지","tel":"031-567-2771","addr":"경기도 구리시 수택동 380-4번지","indutype":"보건위생 - 미용원","category":"beauty"}]},{"lat":"37.59675896","long":"127.14831999","imageIndex":13,"items":[{"name":"박정희헤어","tel":"031-546-1825","addr":"경기도 구리시 수택동 495번지","indutype":"보건위생 - 미용원","category":"beauty"}]},{"lat":"37.592561095","long":"127.14775701","imageIndex":13,"items":[{"name":"박진희헤어","tel":"070-8160-4219","addr":"경기도 구리시 수택동 276-98번지 1층","indutype":"보건위생 - 미용원","category":"beauty"}]},{"lat":"37.596863426","long":"127.14390406","imageIndex":13,"items":[{"name":"방울방울","tel":"031-563-2181","addr":"경기도 구리시 수택동 487-2번지","indutype":"보건위생 - 화장품","category":"beauty"}]},{"lat":"37.591507417","long":"127.13981781","imageIndex":13,"items":[{"name":"벨팜초음파피부관리","tel":"031-555-6366","addr":"경기도 구리시 수택동 849-2번지 골드프라자 4층 403호","indutype":"보건위생 - 피부미용실","category":"beauty"}]},{"lat":"37.598757237","long":"127.14242422","imageIndex":13,"items":[{"name":"별헤어","tel":"031-566-7890","addr":"경기도 구리시 수택동 423-16번지 2층","indutype":"보건위생 - 미용원","category":"beauty"}]},{"lat":"37.598225192","long":"127.14281956","imageIndex":13,"items":[{"name":"보안당안경원","tel":"031-566-5413","addr":"경기도 구리시 수택동 424-2번지","indutype":"보건위생 - 안경","category":"beauty"}]},{"lat":"37.597480744","long":"127.13995331","imageIndex":13,"items":[{"name":"보원장탄산천","tel":"031-552-5000","addr":"경기도 구리시 수택동 427-13번지","indutype":"보건위생 - 사우나","category":"beauty"}]},{"lat":"37.596892832","long":"127.14189987","imageIndex":13,"items":[{"name":"봉구헤어싸롱","tel":"031-555-5909","addr":"경기도 구리시 수택동 433-59번지 1층 103호","indutype":"보건위생 - 미용원","category":"beauty"}]},{"lat":"37.591147201","long":"127.14723343","imageIndex":13,"items":[{"name":"봉주르케어","tel":"031-577-8836","addr":"경기도 구리시 수택동 685-3번지 102호","indutype":"보건위생 - 화장품","category":"beauty"},{"name":"봉쥬르헤어","tel":"031-577-8836","addr":"경기도 구리시 수택동 685-3번지 102호","indutype":"보건위생 - 미용원","category":"beauty"}]},{"lat":"37.593814755","long":"127.13909737","imageIndex":13,"items":[{"name":"부자헤어(BUZA hair)","tel":"031-553-5019","addr":"경기도 구리시 수택동 438-65번지","indutype":"보건위생 - 미용원","category":"beauty"}]},{"lat":"37.598529905","long":"127.14417897","imageIndex":13,"items":[{"name":"뷰티 센세이션","tel":"02-2202-7125","addr":"경기도 구리시 수택동 516-13번지 동진타운빌 5충 505호","indutype":"보건위생 - 화장품","category":"beauty"}]},{"lat":"37.592922305","long":"127.13951468","imageIndex":13,"items":[{"name":"뷰티모아","tel":"031-551-4966","addr":"경기도 구리시 수택동 445-15번지","indutype":"보건위생 - 화장품","category":"beauty"}]},{"lat":"37.594343071","long":"127.14934569","imageIndex":13,"items":[{"name":"뷰티플러스","tel":"031-552-7748","addr":"경기도 구리시 수택동 285-6번지 한아름빌딩 3층","indutype":"보건위생 - 화장품","category":"beauty"}]},{"lat":"37.586760486","long":"127.13875618","imageIndex":13,"items":[{"name":"블루클럽","tel":"031-551-2525","addr":"경기도 구리시 수택동 875번지 금호프라자2 1층 104호","indutype":"보건위생 - 미용원","category":"beauty"},{"name":"수아르헤어살롱","tel":"031-555-6386","addr":"경기도 구리시 수택동 875번지 금호프라자 108호","indutype":"보건위생 - 미용원","category":"beauty"}]},{"lat":"37.59992223","long":"127.14009368","imageIndex":13,"items":[{"name":"블루클럽돌다리점","tel":"031-564-5051","addr":"경기도 구리시 수택동 404-13번지","indutype":"보건위생 - 미용원","category":"beauty"}]},{"lat":"37.593425628","long":"127.14056864","imageIndex":13,"items":[{"name":"비타민케어","tel":"031-567-8253","addr":"경기도 구리시 수택동 442-19번지","indutype":"보건위생 - 화장품","category":"beauty"}]},{"lat":"37.592730353","long":"127.14931988","imageIndex":13,"items":[{"name":"뽐샵(#)","tel":"","addr":"경기도 구리시 수택동 273-12번지 1층","indutype":"보건위생 - 화장품","category":"beauty"}]},{"lat":"37.598477103","long":"127.14312577","imageIndex":13,"items":[{"name":"살롱드레오","tel":"031-554-1022","addr":"경기도 구리시 수택동 515-7번지 2층","indutype":"보건위생 - 피부미용실","category":"beauty"}]},{"lat":"37.598925494","long":"127.13718164","imageIndex":13,"items":[{"name":"생그린","tel":"031-551-2276","addr":"경기도 구리시 수택동 375-4번지 2층","indutype":"보건위생 - 화장품","category":"beauty"},{"name":"생그린 동안미인","tel":"031-551-2276","addr":"경기도 구리시 수택동 375-4번지 2층","indutype":"보건위생 - 화장품","category":"beauty"},{"name":"생그린구리TOP지사","tel":"031-554-8686","addr":"경기도 구리시 수택동 375-4번지 3층","indutype":"보건위생 - 화장품","category":"beauty"}]},{"lat":"37.594976016","long":"127.14751258","imageIndex":13,"items":[{"name":"샤론헤어샵","tel":"031-562-3809","addr":"경기도 구리시 수택동 587번지 제1호","indutype":"보건위생 - 미용원","category":"beauty"}]},{"lat":"37.598781968","long":"127.13662652","imageIndex":13,"items":[{"name":"샴푸보이미용실","tel":"031-563-5907","addr":"경기도 구리시 수택동 376-23번지","indutype":"보건위생 - 미용원","category":"beauty"},{"name":"코사무이","tel":"031-553-7533","addr":"경기도 구리시 수택동 376-23번지 성심빌딩 5층","indutype":"보건위생 - 화장품","category":"beauty"}]},{"lat":"37.59381318","long":"127.14045612","imageIndex":13,"items":[{"name":"서영바디샵","tel":"","addr":"경기도 구리시 수택동 441-9번지 1층","indutype":"보건위생 - 기타대인서비스","category":"beauty"}]},{"lat":"37.59714167","long":"127.14478781","imageIndex":13,"items":[{"name":"선비화장품","tel":"031-551-3022","addr":"경기도 구리시 수택동 506-6번지","indutype":"보건위생 - 화장품","category":"beauty"}]},{"lat":"37.598840188","long":"127.14083906","imageIndex":13,"items":[{"name":"세계사미용재료","tel":"031-559-6160","addr":"경기도 구리시 수택동 419번지","indutype":"보건위생 - 미용재료","category":"beauty"}]},{"lat":"37.598861897","long":"127.1376458","imageIndex":13,"items":[{"name":"세라젬 나비엘 구리갤러리","tel":"031-516-0051","addr":"경기도 구리시 수택동 375-20번지 2층","indutype":"보건위생 - 의료용품","category":"beauty"}]},{"lat":"37.597890416","long":"127.14400791","imageIndex":13,"items":[{"name":"솔체형관리","tel":"031-552-1719","addr":"경기도 구리시 수택동 512-2번지","indutype":"보건위생 - 화장품","category":"beauty"}]},{"lat":"37.597842","long":"127.13920662","imageIndex":13,"items":[{"name":"송화타투","tel":"031-552-1223","addr":"경기도 구리시 수택동 379-6번지 에스케이시티하우스 102호","indutype":"보건위생 - 기타대인서비스","category":"beauty"}]},{"lat":"37.596145515","long":"127.14147951","imageIndex":13,"items":[{"name":"수 스토리(Soo Story)","tel":"031-563-8656","addr":"경기도 구리시 수택동 468-2번지 1층 1칸호","indutype":"보건위생 - 미용재료","category":"beauty"}]},{"lat":"37.600034235","long":"127.14443094","imageIndex":13,"items":[{"name":"수정미용실","tel":"031-565-5005","addr":"경기도 구리시 수택동 521-26번지 1층","indutype":"보건위생 - 미용원","category":"beauty"}]},{"lat":"37.591814012","long":"127.13959192","imageIndex":13,"items":[{"name":"수화장품","tel":"031-557-3533","addr":"경기도 구리시 수택동 850-7번지 성창빌딩 3층","indutype":"보건위생 - 화장품","category":"beauty"},{"name":"인생수","tel":"031-111-1111","addr":"경기도 구리시 수택동 850-7번지 성창빌딩 3층 일부","indutype":"보건위생 - 화장품","category":"beauty"}]},{"lat":"37.597172108","long":"127.14192303","imageIndex":13,"items":[{"name":"숨(SSUM)","tel":"031-555-5552","addr":"경기도 구리시 수택동 433-47번지 3층","indutype":"보건위생 - 기타대인서비스","category":"beauty"}]},{"lat":"37.600201979","long":"127.13970918","imageIndex":13,"items":[{"name":"숨헤어 (SumHair)","tel":"","addr":"경기도 구리시 수택동 404번지 동원빌딩 3층","indutype":"보건위생 - 미용원","category":"beauty"}]},{"lat":"37.600508738","long":"127.14692312","imageIndex":13,"items":[{"name":"슈슈헤어","tel":"070-8223-0829","addr":"경기도 구리시 수택동 541-24번지 1층","indutype":"보건위생 - 미용원","category":"beauty"}]},{"lat":"37.5870301","long":"127.13934541","imageIndex":13,"items":[{"name":"스킨블라썸","tel":"031-554-8555","addr":"경기도 구리시 수택동 874-8번지 302호","indutype":"보건위생 - 피부미용실","category":"beauty"}]},{"lat":"37.592815976","long":"127.14561749","imageIndex":13,"items":[{"name":"스타일리스트 서영","tel":"031-552-3737","addr":"경기도 구리시 수택동 667-5번지","indutype":"보건위생 - 미용원","category":"beauty"}]},{"lat":"37.600175304","long":"127.13940338","imageIndex":13,"items":[{"name":"스타일리스트클럽더헤어","tel":"031-568-4080","addr":"경기도 구리시 수택동 383-10번지 2층","indutype":"보건위생 - 미용원","category":"beauty"}]},{"lat":"37.600668159","long":"127.14170306","imageIndex":13,"items":[{"name":"스타키보청기","tel":"031-558-0333","addr":"경기도 구리시 수택동 526번지 신경기빌딩 3층","indutype":"보건위생 - 의료용품","category":"beauty"}]},{"lat":"37.59955976","long":"127.14187086","imageIndex":13,"items":[{"name":"시크헤어","tel":"031-563-0907","addr":"경기도 구리시 수택동 405-24번지 1층","indutype":"보건위생 - 미용원","category":"beauty"}]},{"lat":"37.594482156","long":"127.13850978","imageIndex":13,"items":[{"name":"쌤헤어","tel":"031-563-7997","addr":"경기도 구리시 수택동 438-1번지","indutype":"보건위생 - 미용원","category":"beauty"},{"name":"에이디 메디칼","tel":"031-512-2202","addr":"경기도 구리시 수택동 438-1번지","indutype":"보건위생 - 의료용품","category":"beauty"}]},{"lat":"37.595174049","long":"127.14011893","imageIndex":13,"items":[{"name":"썬헤어","tel":"031-566-5256","addr":"경기도 구리시 수택동 437-17번지 1층","indutype":"보건위생 - 미용재료","category":"beauty"}]},{"lat":"37.595148859","long":"127.14615413","imageIndex":13,"items":[{"name":"쎄리헤어","tel":"031-567-8259","addr":"경기도 구리시 수택동 479-32번지 1층","indutype":"보건위생 - 미용원","category":"beauty"},{"name":"친절한은순씨","tel":"031-515-5112","addr":"경기도 구리시 수택동 479-32번지","indutype":"보건위생 - 화장품","category":"beauty"}]},{"lat":"37.598727318","long":"127.13714732","imageIndex":13,"items":[{"name":"씨1(C1)","tel":"031-513-2468","addr":"경기도 구리시 수택동 377-1번지 동원빌딩 외2필지 2층","indutype":"보건위생 - 화장품","category":"beauty"}]},{"lat":"37.591842763","long":"127.13809738","imageIndex":13,"items":[{"name":"아뜰리엔","tel":"031-558-9001","addr":"경기도 구리시 수택동 847-9번지 타워클래스 105호","indutype":"보건위생 - 미용원","category":"beauty"},{"name":"에이스안경","tel":"031-556-8008","addr":"경기도 구리시 수택동 847-9번지 타워클레스 106호","indutype":"보건위생 - 안경","category":"beauty"}]},{"lat":"37.599701258","long":"127.13636772","imageIndex":13,"items":[{"name":"아르미테라피","tel":"031-562-8253","addr":"경기도 구리시 수택동 373번지 4층","indutype":"보건위생 - 화장품","category":"beauty"}]},{"lat":"37.598029852","long":"127.14037329","imageIndex":13,"items":[{"name":"아름미용실","tel":"031-562-0521","addr":"경기도 구리시 수택동 418-18번지","indutype":"보건위생 - 미용원","category":"beauty"}]},{"lat":"37.592058008","long":"127.13895829","imageIndex":13,"items":[{"name":"아리따움 구리수택점","tel":"031-551-9650","addr":"경기도 구리시 수택동 847-4번지 동진타워 103호","indutype":"보건위생 - 화장품","category":"beauty"}]},{"lat":"37.600088357","long":"127.13665151","imageIndex":13,"items":[{"name":"아모레 카운셀러","tel":"031-553-2208","addr":"경기도 구리시 수택동 370-1번지 4층","indutype":"보건위생 - 화장품","category":"beauty"},{"name":"아모레 카운셀러","tel":"031-553-2208","addr":"경기도 구리시 수택동 370-1번지","indutype":"보건위생 - 화장품","category":"beauty"},{"name":"아모레 카운셀러","tel":"031-553-2208","addr":"경기도 구리시 수택동 370-1번지 4층","indutype":"보건위생 - 화장품","category":"beauty"},{"name":"아모레 카운셀러","tel":"031-553-2208","addr":"경기도 구리시 수택동 370-1번지 4층","indutype":"보건위생 - 화장품","category":"beauty"},{"name":"아모레 카운셀러","tel":"031-553-2208","addr":"경기도 구리시 수택동 370-1번지 4층","indutype":"보건위생 - 화장품","category":"beauty"},{"name":"아모레 카운셀러","tel":"031-553-2208","addr":"경기도 구리시 수택동 370-1번지 4층","indutype":"보건위생 - 화장품","category":"beauty"},{"name":"아모레카운셀러","tel":"031-553-2208","addr":"경기도 구리시 수택동 370-1번지 4층","indutype":"보건위생 - 화장품","category":"beauty"},{"name":"아모레카운셀러","tel":"031-553-2208","addr":"경기도 구리시 수택동 370-1번지 4층","indutype":"보건위생 - 화장품","category":"beauty"},{"name":"아모레카운셀러","tel":"031-553-2208","addr":"경기도 구리시 수택동 370-1번지 4층","indutype":"보건위생 - 화장품","category":"beauty"},{"name":"아모레카운셀러","tel":"031-553-2208","addr":"경기도 구리시 수택동 370-1번지","indutype":"보건위생 - 화장품","category":"beauty"},{"name":"아모레카운셀러","tel":"031-553-2208","addr":"경기도 구리시 수택동 370-1번지 4층","indutype":"보건위생 - 화장품","category":"beauty"},{"name":"아모레카운셀러","tel":"031-553-2208","addr":"경기도 구리시 수택동 370-1번지","indutype":"보건위생 - 화장품","category":"beauty"},{"name":"아모레카운셀러","tel":"031-553-2208","addr":"경기도 구리시 수택동 370-1번지 4층","indutype":"보건위생 - 화장품","category":"beauty"},{"name":"아모레카운셀러","tel":"031-553-2208","addr":"경기도 구리시 수택동 370-1번지 4층","indutype":"보건위생 - 화장품","category":"beauty"},{"name":"아모레카운셀러","tel":"031-553-2208","addr":"경기도 구리시 수택동 370-1번지 4층","indutype":"보건위생 - 화장품","category":"beauty"},{"name":"아모레카운셀러","tel":"031-553-2208","addr":"경기도 구리시 수택동 370-1번지 4층","indutype":"보건위생 - 화장품","category":"beauty"},{"name":"아모레카운셀러","tel":"031-553-2208","addr":"경기도 구리시 수택동 370-1번지 정산빌딩 4층","indutype":"보건위생 - 화장품","category":"beauty"},{"name":"아모레카운셀러","tel":"031-553-2208","addr":"경기도 구리시 수택동 370-1번지 4층","indutype":"보건위생 - 화장품","category":"beauty"},{"name":"아모레카운셀러","tel":"031-553-2208","addr":"경기도 구리시 수택동 370-1번지 4층","indutype":"보건위생 - 화장품","category":"beauty"}]},{"lat":"37.598035867","long":"127.14292112","imageIndex":13,"items":[{"name":"아모레퍼시픽구리지사","tel":"031-551-5235","addr":"경기도 구리시 수택동 424-14 아이프랜드10층1001,1002호","indutype":"보건위생 - 화장품","category":"beauty"}]},{"lat":"37.590920427","long":"127.14847847","imageIndex":13,"items":[{"name":"아유타야","tel":"031-555-8256","addr":"경기도 구리시 수택동 265-5번지 지층","indutype":"보건위생 - 화장품","category":"beauty"}]},{"lat":"37.600426288","long":"127.14051359","imageIndex":13,"items":[{"name":"아이마인드학습증진센타","tel":"031-565-7033","addr":"경기도 구리시 수택동 404-3번지","indutype":"보건위생 - 기타대인서비스","category":"beauty"},{"name":"유일에스테틱","tel":"031-564-7033","addr":"경기도 구리시 수택동 404-3번지","indutype":"보건위생 - 피부미용실","category":"beauty"}]},{"lat":"37.600223977","long":"127.13623277","imageIndex":13,"items":[{"name":"아이마트안경","tel":"031-568-7778","addr":"경기도 구리시 수택동 370번지 은산빌딩 108호","indutype":"보건위생 - 안경","category":"beauty"}]},{"lat":"37.598505191","long":"127.14223125","imageIndex":13,"items":[{"name":"아이비속눈썹","tel":"031-563-7318","addr":"경기도 구리시 수택동 423-21번지 1층","indutype":"보건위생 - 기타대인서비스","category":"beauty"}]},{"lat":"37.58722941","long":"127.13839473","imageIndex":13,"items":[{"name":"아이세븐안경원","tel":"031-555-6077","addr":"경기도 구리시 수택동 873-1번지 미림프라자 109호","indutype":"보건위생 - 안경","category":"beauty"},{"name":"커틸다헤어샬롱 토평점","tel":"031-551-6080","addr":"경기도 구리시 수택동 873-1번지 미림프라자 2층 203호","indutype":"보건위생 - 미용원","category":"beauty"}]},{"lat":"37.598062034","long":"127.14364588","imageIndex":13,"items":[{"name":"아이패밀리","tel":"070-8785-7135","addr":"경기도 구리시 수택동 515-53번지 103호","indutype":"보건위생 - 안경","category":"beauty"}]},{"lat":"37.598420948","long":"127.13718074","imageIndex":13,"items":[{"name":"아지트","tel":"031-551-5244","addr":"경기도 구리시 수택동 377-10번지 1층 2호","indutype":"보건위생 - 미용원","category":"beauty"}]},{"lat":"37.600139814","long":"127.13892771","imageIndex":13,"items":[{"name":"아키헤어","tel":"070-7443-5857","addr":"경기도 구리시 수택동 383-6번지 2.3층","indutype":"보건위생 - 미용원","category":"beauty"},{"name":"오티콘보청기 구리센터","tel":"031-569-0073","addr":"경기도 구리시 수택동 383-6번지","indutype":"보건위생 - 의료용품","category":"beauty"}]},{"lat":"37.59731179","long":"127.14567137","imageIndex":13,"items":[{"name":"압구정헤어","tel":"031-564-7045","addr":"경기도 구리시 수택동 507-18번지","indutype":"보건위생 - 미용원","category":"beauty"}]},{"lat":"37.598257764","long":"127.13806369","imageIndex":13,"items":[{"name":"애기보살","tel":"031-556-0676","addr":"경기도 구리시 수택동 377-32번지","indutype":"보건위생 - 기타대인서비스","category":"beauty"}]},{"lat":"37.59495052","long":"127.14625566","imageIndex":13,"items":[{"name":"애플헤어","tel":"031-556-7768","addr":"경기도 구리시 수택동 479-1번지","indutype":"보건위생 - 미용원","category":"beauty"}]},{"lat":"37.598005517","long":"127.13804059","imageIndex":13,"items":[{"name":"약사도사","tel":"031-553-5007","addr":"경기도 구리시 수택동 377-47번지","indutype":"보건위생 - 기타대인서비스","category":"beauty"}]},{"lat":"37.597895351","long":"127.13981819","imageIndex":13,"items":[{"name":"약왕도사","tel":"","addr":"경기도 구리시 수택동 427번지","indutype":"보건위생 - 기타대인서비스","category":"beauty"}]},{"lat":"37.592169962","long":"127.14337436","imageIndex":13,"items":[{"name":"에고그루","tel":"02-415-2435","addr":"경기도 구리시 수택동 653-6번지 2층","indutype":"보건위생 - 기타대인서비스","category":"beauty"},{"name":"이슈헤어","tel":"031-551-9366","addr":"경기도 구리시 수택동 653-6번지 1층","indutype":"보건위생 - 미용원","category":"beauty"}]},{"lat":"37.591894351","long":"127.14023746","imageIndex":13,"items":[{"name":"에듀플렉스 수택점","tel":"031-569-1911","addr":"경기도 구리시 수택동 850-3번지","indutype":"보건위생 - 기타대인서비스","category":"beauty"},{"name":"우리들안경콘택트","tel":"031-569-0123","addr":"경기도 구리시 수택동 850-3번지 1층","indutype":"보건위생 - 안경","category":"beauty"}]},{"lat":"37.59986888","long":"127.13948209","imageIndex":13,"items":[{"name":"에뛰드하우스구리점","tel":"031-565-5927","addr":"경기도 구리시 수택동 383-14번지","indutype":"보건위생 - 화장품","category":"beauty"}]},{"lat":"37.599869808","long":"127.13867809","imageIndex":13,"items":[{"name":"에스네일","tel":"031-567-7373","addr":"경기도 구리시 수택동 383-21번지 1층","indutype":"보건위생 - 미용재료","category":"beauty"}]},{"lat":"37.596619063","long":"127.14482079","imageIndex":13,"items":[{"name":"에스엠지닥터의료기","tel":"031-552-3370","addr":"경기도 구리시 수택동 487-17번지 2층","indutype":"보건위생 - 의료용품","category":"beauty"},{"name":"오쓰리대리운전","tel":"031-558-8580","addr":"경기도 구리시 수택동 487-17번지 한림빌딩 3층","indutype":"보건위생 - 기타대인서비스","category":"beauty"}]},{"lat":"37.597536787","long":"127.14587562","imageIndex":13,"items":[{"name":"에스제이(SJ)헤어염색","tel":"031-566-2090","addr":"경기도 구리시 수택동 507-23번지","indutype":"보건위생 - 미용원","category":"beauty"}]},{"lat":"37.596667948","long":"127.14159372","imageIndex":13,"items":[{"name":"에스제이스타일","tel":"031-567-7628","addr":"경기도 구리시 수택동 433-41번지 1층","indutype":"보건위생 - 미용원","category":"beauty"}]},{"lat":"37.598367892","long":"127.14404278","imageIndex":13,"items":[{"name":"에스테틱 진","tel":"031-554-2735","addr":"경기도 구리시 수택동 516-17번지 1층","indutype":"보건위생 - 피부미용실","category":"beauty"}]},{"lat":"37.591281304","long":"127.14056469","imageIndex":13,"items":[{"name":"에이치앤씨살롱","tel":"031-567-8166","addr":"경기도 구리시 수택동 849-6번지 CLOUDTOWER 2층 201호","indutype":"보건위생 - 피부미용실","category":"beauty"},{"name":"에이치앤씨살롱(HNC SALON)","tel":"031-567-8167","addr":"경기도 구리시 수택동 849-6번지 CLOUDTOWER 2층 201호","indutype":"보건위생 - 미용원","category":"beauty"}]},{"lat":"37.597339011","long":"127.14551289","imageIndex":13,"items":[{"name":"엘레멘트(Element)","tel":"031-551-9955","addr":"경기도 구리시 수택동 507-17번지","indutype":"보건위생 - 의료용품","category":"beauty"}]},{"lat":"37.597751523","long":"127.13953484","imageIndex":13,"items":[{"name":"여미아헤어샵","tel":"031-553-3258","addr":"경기도 구리시 수택동 379-25번지","indutype":"보건위생 - 미용원","category":"beauty"}]},{"lat":"37.599089308","long":"127.14351193","imageIndex":13,"items":[{"name":"여미헤어","tel":"031-553-9037","addr":"경기도 구리시 수택동 515-17번지 1층","indutype":"보건위생 - 미용원","category":"beauty"}]},{"lat":"37.591864289","long":"127.14281897","imageIndex":13,"items":[{"name":"여우꼬리","tel":"031-568-4118","addr":"경기도 구리시 수택동 657번지 1층","indutype":"보건위생 - 미용원","category":"beauty"},{"name":"피카소안경원(구리점)","tel":"031-568-7001","addr":"경기도 구리시 수택동 657번지","indutype":"보건위생 - 안경","category":"beauty"}]},{"lat":"37.596701885","long":"127.14337155","imageIndex":13,"items":[{"name":"영아미용실","tel":"031-963-4454","addr":"경기도 구리시 수택동 482-8번지 은성상가 영아미용실","indutype":"보건위생 - 미용원","category":"beauty"}]},{"lat":"37.600307142","long":"127.14223461","imageIndex":13,"items":[{"name":"영앤뷰티(Young N Beauty)","tel":"031-528-6263","addr":"경기도 구리시 수택동 526-21번지 지층","indutype":"보건위생 - 화장품","category":"beauty"}]},{"lat":"37.600228719","long":"127.13995835","imageIndex":13,"items":[{"name":"영양화장품","tel":"031-562-8990","addr":"경기도 구리시 수택동 404-1번지 명진빌딩 3층","indutype":"보건위생 - 화장품","category":"beauty"},{"name":"짱폴미용타운","tel":"031-569-8800","addr":"경기도 구리시 수택동 404-1번지","indutype":"보건위생 - 미용원","category":"beauty"}]},{"lat":"37.599311581","long":"127.13834869","imageIndex":13,"items":[{"name":"영주쌤헤어","tel":"031-512-2800","addr":"경기도 구리시 수택동 382-3번지 1층","indutype":"보건위생 - 미용원","category":"beauty"}]},{"lat":"37.594786102","long":"127.14057114","imageIndex":13,"items":[{"name":"영타운미용실","tel":"031-562-3755","addr":"경기도 구리시 수택동 463-27번지","indutype":"보건위생 - 미용원","category":"beauty"}]},{"lat":"37.59286689","long":"127.14068083","imageIndex":13,"items":[{"name":"오.땡.큐","tel":"031-566-4959","addr":"경기도 구리시 수택동 445-25번지 1층","indutype":"보건위생 - 미용재료","category":"beauty"}]},{"lat":"37.593113024","long":"127.14584451","imageIndex":13,"items":[{"name":"오늘도네일도예쁘다","tel":"031-111-1111","addr":"경기도 구리시 수택동 669-1번지 지층 B03호","indutype":"보건위생 - 피부미용실","category":"beauty"}]},{"lat":"37.59595185","long":"127.14522716","imageIndex":13,"items":[{"name":"오땡큐(수택점)","tel":"031-516-5775","addr":"경기도 구리시 수택동 488-13번지 1층","indutype":"보건위생 - 화장품","category":"beauty"}]},{"lat":"37.600173791","long":"127.14070563","imageIndex":13,"items":[{"name":"오렌즈구리점","tel":"031-554-0282","addr":"경기도 구리시 수택동 404-9번지 1층 10호","indutype":"보건위생 - 안경","category":"beauty"}]},{"lat":"37.593112633","long":"127.13854127","imageIndex":13,"items":[{"name":"오렌지헤어","tel":"070-8156-2525","addr":"경기도 구리시 수택동 751-62번지 1층","indutype":"보건위생 - 미용원","category":"beauty"}]},{"lat":"37.599395801","long":"127.14337662","imageIndex":13,"items":[{"name":"오렌지헤어","tel":"031-567-7752","addr":"경기도 구리시 수택동 522-1번지 1층","indutype":"보건위생 - 미용원","category":"beauty"}]},{"lat":"37.595839569","long":"127.14115057","imageIndex":13,"items":[{"name":"오영헤어","tel":"031-567-5452","addr":"경기도 구리시 수택동 468-15번지 1층","indutype":"보건위생 - 미용원","category":"beauty"}]},{"lat":"37.599113652","long":"127.13809921","imageIndex":13,"items":[{"name":"오올","tel":"070-3323-4818","addr":"경기도 구리시 수택동 375-33번지 2층","indutype":"보건위생 - 피부미용실","category":"beauty"}]},{"lat":"37.594310414","long":"127.14659413","imageIndex":13,"items":[{"name":"오즈헤어(O'S)","tel":"031-566-0395","addr":"경기도 구리시 수택동 479-17번지","indutype":"보건위생 - 미용원","category":"beauty"}]},{"lat":"37.600368733","long":"127.14348036","imageIndex":13,"items":[{"name":"올어바웃뷰티","tel":"031-554-9305","addr":"경기도 구리시 수택동 525-38번지 105호","indutype":"보건위생 - 미용원","category":"beauty"}]},{"lat":"37.600729419","long":"127.14323191","imageIndex":13,"items":[{"name":"왁스헤어플러스","tel":"031-555-3719","addr":"경기도 구리시 수택동 527-5번지 1층","indutype":"보건위생 - 미용원","category":"beauty"}]},{"lat":"37.598979728","long":"127.14473469","imageIndex":13,"items":[{"name":"요피엘뷰티헤어샵","tel":"031-568-8437","addr":"경기도 구리시 수택동 517번지 2층","indutype":"보건위생 - 미용원","category":"beauty"}]},{"lat":"37.592341121","long":"127.14339732","imageIndex":13,"items":[{"name":"우리(Woori)헤어","tel":"031-111-1111","addr":"경기도 구리시 수택동 453-19번지 1층","indutype":"보건위생 - 미용원","category":"beauty"}]},{"lat":"37.598673002","long":"127.13737369","imageIndex":13,"items":[{"name":"우리헤어","tel":"031-551-7631","addr":"경기도 구리시 수택동 377-3번지","indutype":"보건위생 - 미용원","category":"beauty"}]},{"lat":"37.598701073","long":"127.13645652","imageIndex":13,"items":[{"name":"우본","tel":"031-565-7288","addr":"경기도 구리시 수택동 376-2번지 3층","indutype":"보건위생 - 피부미용실","category":"beauty"}]},{"lat":"37.600644588","long":"127.14634586","imageIndex":13,"items":[{"name":"원조영구대리운전","tel":"031-554-0909","addr":"경기도 구리시 수택동 541-5번지","indutype":"보건위생 - 기타대인서비스","category":"beauty"}]},{"lat":"37.600392988","long":"127.1457905","imageIndex":13,"items":[{"name":"월드미용상사","tel":"031-567-1823","addr":"경기도 구리시 수택동 541번지","indutype":"보건위생 - 미용재료","category":"beauty"}]},{"lat":"37.592142244","long":"127.14395176","imageIndex":13,"items":[{"name":"웰빙이너뷰티","tel":"070-7578-0150","addr":"경기도 구리시 수택동 661-4 외1필지","indutype":"보건위생 - 화장품","category":"beauty"}]},{"lat":"37.594586787","long":"127.14151059","imageIndex":13,"items":[{"name":"윙크피쉬","tel":"070-8283-8392","addr":"경기도 구리시 수택동 460-1번지 1층 좌측","indutype":"보건위생 - 화장품","category":"beauty"}]},{"lat":"37.597087175","long":"127.14515006","imageIndex":13,"items":[{"name":"유헤어","tel":"031-566-4825","addr":"경기도 구리시 수택동 506-9번지 하이스트빌 117호","indutype":"보건위생 - 미용원","category":"beauty"}]},{"lat":"37.594480785","long":"127.14726252","imageIndex":13,"items":[{"name":"유현헤어컷","tel":"031-568-9291","addr":"경기도 구리시 수택동 589-21번지","indutype":"보건위생 - 미용원","category":"beauty"}]},{"lat":"37.599675117","long":"127.14336582","imageIndex":13,"items":[{"name":"윤헤어","tel":"031-554-1399","addr":"경기도 구리시 수택동 525-70번지","indutype":"보건위생 - 미용원","category":"beauty"}]},{"lat":"37.600118923","long":"127.14139629","imageIndex":13,"items":[{"name":"으뜸플러스안경","tel":"031-555-5169","addr":"경기도 구리시 수택동 405-1번지 3층","indutype":"보건위생 - 안경","category":"beauty"}]},{"lat":"37.593480595","long":"127.13978745","imageIndex":13,"items":[{"name":"이 (Lee)끌림헤어","tel":"031-557-9933","addr":"경기도 구리시 수택동 440-12번지 유창뉴튼하우스 1층 102호","indutype":"보건위생 - 미용원","category":"beauty"}]},{"lat":"37.58909369","long":"127.13904347","imageIndex":13,"items":[{"name":"이경희헤어샵","tel":"031-552-2982","addr":"경기도 구리시 수택동 854-2 엘지원앙상가 105호","indutype":"보건위생 - 미용원","category":"beauty"}]},{"lat":"37.591921801","long":"127.13987518","imageIndex":13,"items":[{"name":"이니스프리 구리수택점","tel":"031-555-8709","addr":"경기도 구리시 수택동 850-2번지","indutype":"보건위생 - 화장품","category":"beauty"}]},{"lat":"37.600557303","long":"127.14401295","imageIndex":13,"items":[{"name":"이서희헤어샵","tel":"031-557-3326","addr":"경기도 구리시 수택동 527-30번지","indutype":"보건위생 - 미용원","category":"beauty"}]},{"lat":"37.600585425","long":"127.14309575","imageIndex":13,"items":[{"name":"이승화헤어","tel":"031-551-9528","addr":"경기도 구리시 수택동 525-12번지 신화꽃도매 1층 103호","indutype":"보건위생 - 미용원","category":"beauty"}]},{"lat":"37.59586556","long":"127.14203383","imageIndex":13,"items":[{"name":"이승희쁘띠헤어","tel":"","addr":"경기도 구리시 수택동 466번지 동행교회 102호","indutype":"보건위생 - 미용원","category":"beauty"}]},{"lat":"37.595141231","long":"127.14501048","imageIndex":13,"items":[{"name":"이연희헤어샵","tel":"031-556-1344","addr":"경기도 구리시 수택동 474-63번지","indutype":"보건위생 - 미용원","category":"beauty"}]},{"lat":"37.594892399","long":"127.14212261","imageIndex":13,"items":[{"name":"이화목욕탕","tel":"031-551-5226","addr":"경기도 구리시 수택동 465-11번지","indutype":"보건위생 - 사우나","category":"beauty"}]},{"lat":"37.587229696","long":"127.13814564","imageIndex":13,"items":[{"name":"일공공일안경콘택트","tel":"031-555-0012","addr":"경기도 구리시 수택동 873번지 알버트프라자 101호","indutype":"보건위생 - 안경","category":"beauty"}]},{"lat":"37.600782722","long":"127.14386616","imageIndex":13,"items":[{"name":"자연으로","tel":"","addr":"경기도 구리시 수택동 527-24번지 B102호","indutype":"보건위생 - 화장품","category":"beauty"}]},{"lat":"37.599308112","long":"127.14133817","imageIndex":13,"items":[{"name":"장미헤어샵","tel":"031-568-5205","addr":"경기도 구리시 수택동 409-21번지","indutype":"보건위생 - 미용원","category":"beauty"}]},{"lat":"37.599197033","long":"127.14384052","imageIndex":13,"items":[{"name":"정미용실","tel":"031-566-2335","addr":"경기도 구리시 수택동 522-45번지","indutype":"보건위생 - 미용원","category":"beauty"}]},{"lat":"37.598168523","long":"127.14500491","imageIndex":13,"items":[{"name":"정원네일머리방","tel":"031-555-7655","addr":"경기도 구리시 수택동 512-8번지 1층","indutype":"보건위생 - 미용원","category":"beauty"}]},{"lat":"37.591811217","long":"127.14943131","imageIndex":13,"items":[{"name":"제이엠더블유 구리점","tel":"031-565-9004","addr":"경기도 구리시 수택동 268-7번지 2층 7,8,9,10호","indutype":"보건위생 - 미용재료","category":"beauty"}]},{"lat":"37.595897298","long":"127.13798016","imageIndex":13,"items":[{"name":"제이헤어","tel":"031-555-0628","addr":"경기도 구리시 수택동 437-48번지","indutype":"보건위생 - 미용원","category":"beauty"}]},{"lat":"37.598537376","long":"127.14545856","imageIndex":13,"items":[{"name":"젠틀맨","tel":"031-528-6263","addr":"경기도 구리시 수택동 509-2번지 대원빌딩","indutype":"보건위생 - 미용원","category":"beauty"}]},{"lat":"37.599339025","long":"127.13798638","imageIndex":13,"items":[{"name":"젠틀콤맨즈헤어","tel":"070-8887-9675","addr":"경기도 구리시 수택동 374-18번지 1층 점포 1칸","indutype":"보건위생 - 미용원","category":"beauty"}]},{"lat":"37.596699223","long":"127.14559094","imageIndex":13,"items":[{"name":"주식회사에이지솔루션","tel":"031-555-3547","addr":"경기도 구리시 수택동 504-2번지 5층","indutype":"보건위생 - 화장품","category":"beauty"}]},{"lat":"37.595343603","long":"127.14898531","imageIndex":13,"items":[{"name":"지니네일","tel":"031-513-8212","addr":"경기도 구리시 수택동 290-20번지 1층","indutype":"보건위생 - 피부미용실","category":"beauty"},{"name":"현미용실","tel":"031-556-8859","addr":"경기도 구리시 수택동 290-20번지","indutype":"보건위생 - 미용원","category":"beauty"}]},{"lat":"37.599473223","long":"127.13881326","imageIndex":13,"items":[{"name":"지앤미용실","tel":"031-558-8881","addr":"경기도 구리시 수택동 382-8번지 1층","indutype":"보건위생 - 미용원","category":"beauty"}]},{"lat":"37.59181288","long":"127.14056566","imageIndex":13,"items":[{"name":"진(보떼)","tel":"031-564-5523","addr":"경기도 구리시 수택동 850-4번지","indutype":"보건위생 - 화장품","category":"beauty"}]},{"lat":"37.598001751","long":"127.14129045","imageIndex":13,"items":[{"name":"진미용실","tel":"031-566-2011","addr":"경기도 구리시 수택동 426-30번지","indutype":"보건위생 - 미용원","category":"beauty"},{"name":"칼라앤젤","tel":"031-554-0150","addr":"경기도 구리시 수택동 426-30번지 1층","indutype":"보건위생 - 피부미용실","category":"beauty"}]},{"lat":"37.593482122","long":"127.14609433","imageIndex":13,"items":[{"name":"차밍미용실","tel":"031-558-9823","addr":"경기도 구리시 수택동 670-54번지 행운아트빌라","indutype":"보건위생 - 미용원","category":"beauty"}]},{"lat":"37.591813965","long":"127.14720075","imageIndex":13,"items":[{"name":"차칸여우","tel":"070-8151-2178","addr":"경기도 구리시 수택동 683-13번지 103호","indutype":"보건위생 - 화장품","category":"beauty"}]},{"lat":"37.591842853","long":"127.14567225","imageIndex":13,"items":[{"name":"차헤어샵","tel":"031-512-2442","addr":"경기도 구리시 수택동 698-3번지 1층","indutype":"보건위생 - 미용원","category":"beauty"}]},{"lat":"37.595640503","long":"127.14187489","imageIndex":13,"items":[{"name":"천무궁","tel":"031-565-8837","addr":"경기도 구리시 수택동 466-9번지","indutype":"보건위생 - 기타대인서비스","category":"beauty"}]},{"lat":"37.596812888","long":"127.1409259","imageIndex":13,"items":[{"name":"천상선녀","tel":"031-796-2554","addr":"경기도 구리시 수택동 433-27번지","indutype":"보건위생 - 기타대인서비스","category":"beauty"}]},{"lat":"37.596785699","long":"127.14106173","imageIndex":13,"items":[{"name":"천상선녀소마타로","tel":"031-554-1015","addr":"경기도 구리시 수택동 433-28번지 202호","indutype":"보건위생 - 기타대인서비스","category":"beauty"}]},{"lat":"37.597033007","long":"127.13756324","imageIndex":13,"items":[{"name":"천신철학관","tel":"02-1670-8499","addr":"경기도 구리시 수택동 429-2번지","indutype":"보건위생 - 기타대인서비스","category":"beauty"}]},{"lat":"37.59450938","long":"127.13833999","imageIndex":13,"items":[{"name":"천연미네랄","tel":"031-563-5709","addr":"경기도 구리시 수택동 438번지","indutype":"보건위생 - 화장품","category":"beauty"}]},{"lat":"37.599140029","long":"127.14628635","imageIndex":13,"items":[{"name":"천지인사","tel":"031-565-0609","addr":"경기도 구리시 수택동 518-8번지 백합빌라 205호","indutype":"보건위생 - 기타대인서비스","category":"beauty"}]},{"lat":"37.597147252","long":"127.14006594","imageIndex":13,"items":[{"name":"철학관 사주공간","tel":"02-981-3660","addr":"경기도 구리시 수택동 431-7번지 903호","indutype":"보건위생 - 기타대인서비스","category":"beauty"}]},{"lat":"37.599035654","long":"127.14317211","imageIndex":13,"items":[{"name":"청담동헤어","tel":"031-552-0833","addr":"경기도 구리시 수택동 515-1번지 1층","indutype":"보건위생 - 미용원","category":"beauty"}]},{"lat":"37.593922829","long":"127.14672926","imageIndex":13,"items":[{"name":"최민재미용실","tel":"031-565-2684","addr":"경기도 구리시 수택동 594-4번지 명성빌딩 1층","indutype":"보건위생 - 미용원","category":"beauty"}]},{"lat":"37.59633488","long":"127.14134398","imageIndex":13,"items":[{"name":"최블리헤어","tel":"031-565-6938","addr":"경기도 구리시 수택동 436-17번지 1층","indutype":"보건위생 - 미용원","category":"beauty"}]},{"lat":"37.598390308","long":"127.14031734","imageIndex":13,"items":[{"name":"최언니 네일","tel":"031-551-4120","addr":"경기도 구리시 수택동 418-13번지 1층","indutype":"보건위생 - 피부미용실","category":"beauty"},{"name":"헤어카페리본","tel":"","addr":"경기도 구리시 수택동 418-13번지 1층","indutype":"보건위생 - 미용원","category":"beauty"}]},{"lat":"37.599807351","long":"127.13814576","imageIndex":13,"items":[{"name":"카라","tel":"031-553-5515","addr":"경기도 구리시 수택동 370-8번지","indutype":"보건위생 - 화장품","category":"beauty"}]},{"lat":"37.591338333","long":"127.14564864","imageIndex":13,"items":[{"name":"카리스","tel":"031-558-7650","addr":"경기도 구리시 수택동 697-26번지 3층","indutype":"보건위생 - 피부미용실","category":"beauty"},{"name":"헤어뷰티살롱세모","tel":"031-558-2792","addr":"경기도 구리시 수택동 697-26번지 2층","indutype":"보건위생 - 미용원","category":"beauty"}]},{"lat":"37.595536525","long":"127.14595106","imageIndex":13,"items":[{"name":"코스코화장품","tel":"031-562-6349","addr":"경기도 구리시 수택동 489-9번지","indutype":"보건위생 - 화장품","category":"beauty"}]},{"lat":"37.598502768","long":"127.13653543","imageIndex":13,"items":[{"name":"쿤타이","tel":"031-555-9922","addr":"경기도 구리시 수택동 376-3번지 3층","indutype":"보건위생 - 화장품","category":"beauty"}]},{"lat":"37.59569903","long":"127.14567961","imageIndex":13,"items":[{"name":"크라크라미용실","tel":"031-569-1826","addr":"경기도 구리시 수택동 488-8번지","indutype":"보건위생 - 미용원","category":"beauty"}]},{"lat":"37.599981933","long":"127.14295874","imageIndex":13,"items":[{"name":"타로사","tel":"070-7594-5378","addr":"경기도 구리시 수택동 525-31번지 1층","indutype":"보건위생 - 기타대인서비스","category":"beauty"}]},{"lat":"37.59286527","long":"127.14206222","imageIndex":13,"items":[{"name":"타오 퍼퓸","tel":"","addr":"경기도 구리시 수택동 447-23번지 1층","indutype":"보건위생 - 화장품","category":"beauty"}]},{"lat":"37.599560611","long":"127.14114613","imageIndex":13,"items":[{"name":"타우타이","tel":"","addr":"경기도 구리시 수택동 409-17번지 2층","indutype":"보건위생 - 화장품","category":"beauty"}]},{"lat":"37.588030733","long":"127.13887171","imageIndex":13,"items":[{"name":"태후사랑","tel":"031-516-6431","addr":"경기도 구리시 수택동 854-3 제상가동 108","indutype":"보건위생 - 화장품","category":"beauty"}]},{"lat":"37.593200291","long":"127.14064748","imageIndex":13,"items":[{"name":"터치미","tel":"","addr":"경기도 구리시 수택동 445-30번지 삼도빌라 1층 101호","indutype":"보건위생 - 미용재료","category":"beauty"}]},{"lat":"37.592036305","long":"127.14211729","imageIndex":13,"items":[{"name":"토마토테라피","tel":"","addr":"경기도 구리시 수택동 449-14번지 해원빌딩 6층","indutype":"보건위생 - 피부미용실","category":"beauty"},{"name":"해원사우나","tel":"031-552-5431","addr":"경기도 구리시 수택동 449-14번지 해원빌딩 지층","indutype":"보건위생 - 사우나","category":"beauty"}]},{"lat":"37.597946292","long":"127.14247933","imageIndex":13,"items":[{"name":"티에이치헤어(T.H HAIR)","tel":"031-565-3643","addr":"경기도 구리시 수택동 424-20번지 1층","indutype":"보건위생 - 미용원","category":"beauty"}]},{"lat":"37.599256217","long":"127.13948097","imageIndex":13,"items":[{"name":"펄스캠생활과학 구리지점","tel":"031-556-1002","addr":"경기도 구리시 수택동 382-25번지 2층","indutype":"보건위생 - 의료용품","category":"beauty"}]},{"lat":"37.598645779","long":"127.1375435","imageIndex":13,"items":[{"name":"폭탄머리","tel":"031-516-2237","addr":"경기도 구리시 수택동 377-5번지","indutype":"보건위생 - 미용원","category":"beauty"}]},{"lat":"37.596036999","long":"127.14181901","imageIndex":13,"items":[{"name":"프롬제이","tel":"","addr":"경기도 구리시 수택동 468-5번지","indutype":"보건위생 - 피부미용실","category":"beauty"}]},{"lat":"37.597173991","long":"127.1403151","imageIndex":13,"items":[{"name":"프리마가발","tel":"031-515-0020","addr":"경기도 구리시 수택동 431-10번지","indutype":"보건위생 - 미용재료","category":"beauty"}]},{"lat":"37.593255222","long":"127.14745264","imageIndex":13,"items":[{"name":"프리헤어숍","tel":"031-557-0188","addr":"경기도 구리시 수택동 276-39번지","indutype":"보건위생 - 미용원","category":"beauty"}]},{"lat":"37.599536799","long":"127.13837175","imageIndex":13,"items":[{"name":"플로렌스","tel":"031-552-1991","addr":"경기도 구리시 수택동 382-1번지 1층","indutype":"보건위생 - 피부미용실","category":"beauty"}]},{"lat":"37.5938962","long":"127.14640084","imageIndex":13,"items":[{"name":"하늘터헤어&에스테틱","tel":"031-567-1116","addr":"경기도 구리시 수택동 596-8번지","indutype":"보건위생 - 미용원","category":"beauty"}]},{"lat":"37.592674388","long":"127.14347721","imageIndex":13,"items":[{"name":"하늘향기","tel":"","addr":"경기도 구리시 수택동 453-10번지 1층","indutype":"보건위생 - 미용원","category":"beauty"}]},{"lat":"37.598507145","long":"127.14056667","imageIndex":13,"items":[{"name":"한국민속예술연","tel":"031-562-4548","addr":"경기도 구리시 수택동 419-7번지","indutype":"보건위생 - 기타대인서비스","category":"beauty"}]},{"lat":"37.598785121","long":"127.14169956","imageIndex":13,"items":[{"name":"한국상사","tel":"031-566-2882","addr":"경기도 구리시 수택동 422-3번지","indutype":"보건위생 - 미용재료","category":"beauty"}]},{"lat":"37.602564241","long":"127.14587392","imageIndex":13,"items":[{"name":"한국수테라피교육원 크리스탈수","tel":"031-558-9957","addr":"경기도 구리시 수택동 562-11번지 2층","indutype":"보건위생 - 피부미용실","category":"beauty"},{"name":"한국수테라피교육원 크리스탈수","tel":"031-558-9957","addr":"경기도 구리시 수택동 562-11번지 선양빌딩 2층","indutype":"보건위생 - 화장품","category":"beauty"}]},{"lat":"37.598420359","long":"127.14536775","imageIndex":13,"items":[{"name":"한국시앤시 치과기공소","tel":"031-554-2804","addr":"경기도 구리시 수택동 509-1번지 2층","indutype":"보건위생 - 의료용품","category":"beauty"}]},{"lat":"37.597171908","long":"127.14209288","imageIndex":13,"items":[{"name":"한빛의료기구리지점","tel":"031-554-0277","addr":"경기도 구리시 수택동 433-49번지 8층","indutype":"보건위생 - 의료용품","category":"beauty"}]},{"lat":"37.591786628","long":"127.13989758","imageIndex":13,"items":[{"name":"행복심리상담센터","tel":"031-555-0402","addr":"경기도 구리시 수택동 850-6번지 보령빌딩","indutype":"보건위생 - 기타대인서비스","category":"beauty"}]},{"lat":"37.601365037","long":"127.14661902","imageIndex":13,"items":[{"name":"행복한헤어샵","tel":"031-563-9805","addr":"경기도 구리시 수택동 554번지","indutype":"보건위생 - 미용원","category":"beauty"}]},{"lat":"37.595783616","long":"127.14275837","imageIndex":13,"items":[{"name":"헤어궁","tel":"031-568-2019","addr":"경기도 구리시 수택동 472-30번지 1층","indutype":"보건위생 - 미용원","category":"beauty"}]},{"lat":"37.59900892","long":"127.14292294","imageIndex":13,"items":[{"name":"헤어뉴스미용실","tel":"031-552-1995","addr":"경기도 구리시 수택동 524-10번지","indutype":"보건위생 - 미용원","category":"beauty"}]},{"lat":"37.593676868","long":"127.14892544","imageIndex":13,"items":[{"name":"헤어바이제이","tel":"031-528-6263","addr":"경기도 구리시 수택동 278-9번지","indutype":"보건위생 - 미용원","category":"beauty"},{"name":"현네일","tel":"031-528-6263","addr":"경기도 구리시 수택동 278-9번지 104호","indutype":"보건위생 - 피부미용실","category":"beauty"}]},{"lat":"37.593977804","long":"127.13833902","imageIndex":13,"items":[{"name":"헤어스케치미용실","tel":"031-558-8037","addr":"경기도 구리시 수택동 438-34번지 1층","indutype":"보건위생 - 미용원","category":"beauty"}]},{"lat":"37.591898778","long":"127.14412114","imageIndex":13,"items":[{"name":"헤어스페이스","tel":"031-566-6169","addr":"경기도 구리시 수택동 660-4번지","indutype":"보건위생 - 미용원","category":"beauty"}]},{"lat":"37.592313592","long":"127.14381621","imageIndex":13,"items":[{"name":"헤어칼리지","tel":"031-000-0000","addr":"경기도 구리시 수택동 453-16번지 1층","indutype":"보건위생 - 미용원","category":"beauty"}]},{"lat":"37.59431528","long":"127.14254048","imageIndex":13,"items":[{"name":"헤어콘서트미용실","tel":"031-568-0612","addr":"경기도 구리시 수택동 458-14 1층","indutype":"보건위생 - 미용원","category":"beauty"}]},{"lat":"37.594112886","long":"127.13839588","imageIndex":13,"items":[{"name":"헤어프랜드","tel":"031-567-7931","addr":"경기도 구리시 수택동 438-27번지 1층","indutype":"보건위생 - 미용원","category":"beauty"}]},{"lat":"37.598204152","long":"127.14534469","imageIndex":13,"items":[{"name":"현대미용실","tel":"031-565-5298","addr":"경기도 구리시 수택동 509-6번지 석산빌딩 101호","indutype":"보건위생 - 미용원","category":"beauty"}]},{"lat":"37.59886847","long":"127.13976335","imageIndex":13,"items":[{"name":"혜당생활과학 구리지점","tel":"02-6367-9595","addr":"경기도 구리시 수택동 417-10번지","indutype":"보건위생 - 의료용품","category":"beauty"}]},{"lat":"37.600031122","long":"127.13942577","imageIndex":13,"items":[{"name":"홀리카","tel":"031-565-0701","addr":"경기도 구리시 수택동 383-12번지 1층","indutype":"보건위생 - 화장품","category":"beauty"}]},{"lat":"37.592170137","long":"127.14322716","imageIndex":13,"items":[{"name":"홍석일헤어홈","tel":"031-515-1538","addr":"경기도 구리시 수택동 653-5번지","indutype":"보건위생 - 미용원","category":"beauty"}]},{"lat":"37.598730729","long":"127.14198255","imageIndex":13,"items":[{"name":"화장품마트","tel":"031-564-5248","addr":"경기도 구리시 수택동 423-12번지 1층 102호","indutype":"보건위생 - 화장품","category":"beauty"}]},{"lat":"37.59911697","long":"127.14297976","imageIndex":13,"items":[{"name":"화장품프라자","tel":"031-562-5491","addr":"경기도 구리시 수택동 524-11번지","indutype":"보건위생 - 화장품","category":"beauty"}]},{"lat":"37.595615473","long":"127.14770631","imageIndex":13,"items":[{"name":"후니미용실","tel":"031-593-6558","addr":"경기도 구리시 수택동 574-6번지","indutype":"보건위생 - 미용원","category":"beauty"}]},{"lat":"37.597423163","long":"127.14295394","imageIndex":13,"items":[{"name":"힐링","tel":"031-565-1999","addr":"경기도 구리시 수택동 486번지 2층","indutype":"보건위생 - 기타대인서비스","category":"beauty"}]}]