[{"lat":"37.716240917","long":"126.97194208","imageIndex":17,"items":[{"name":"GS25송추삼거리점","tel":"","addr":"경기도 양주시 장흥면 교현리 125-26번지 1층","indutype":"유통업 영리 - 편 의 점","category":"other"}]},{"lat":"37.696966421","long":"126.96227822","imageIndex":17,"items":[{"name":"Petitshop(쁘띠샵)","tel":"031-826-4351","addr":"경기도 양주시 장흥면 교현리 288-1번지","indutype":"신변잡화 - 기타잡화","category":"other"}]},{"lat":"37.704212801","long":"126.97085846","imageIndex":17,"items":[{"name":"경제개발산업 (주)","tel":"031-855-9050","addr":"경기도 양주시 장흥면 교현리 237-1번지","indutype":"건축자재 - 기타건축자재","category":"other"}]},{"lat":"37.69749199","long":"126.97224468","imageIndex":17,"items":[{"name":"다솜갤러리","tel":"031-829-1178","addr":"경기도 양주시 장흥면 교현리 산 47-2","indutype":"문화.취미 - 화랑","category":"other"}]},{"lat":"37.716213674","long":"126.97113684","imageIndex":17,"items":[{"name":"다운문구유통","tel":"031-826-4229","addr":"경기도 양주시 장흥면 교현리 123-4번지 1층 일부","indutype":"서적문구 - 문구용품","category":"other"}]},{"lat":"37.700464412","long":"126.96946536","imageIndex":17,"items":[{"name":"리치보그","tel":"02-383-8848","addr":"경기도 양주시 장흥면 교현리 272번지","indutype":"주방용구 - 주방용식기","category":"other"}]},{"lat":"37.716294791","long":"126.97125022","imageIndex":17,"items":[{"name":"백운상사","tel":"031-826-7629","addr":"경기도 양주시 장흥면 교현리 123-1번지 1층","indutype":"건축자재 - 인테리어전문","category":"other"},{"name":"백운상사","tel":"031-826-7629","addr":"경기도 양주시 장흥면 교현리 123-1번지","indutype":"건축자재 - 목재·석재·철물","category":"other"},{"name":"서부철물","tel":"031-879-2340","addr":"경기도 양주시 장흥면 교현리 123-1번지 지하","indutype":"건축자재 - 목재·석재·철물","category":"other"}]},{"lat":"37.713186485","long":"126.97127422","imageIndex":17,"items":[{"name":"서진판넬","tel":"031-873-3900","addr":"경기도 양주시 장흥면 교현리 152-21","indutype":"건축자재 - 기타건축자재","category":"other"}]},{"lat":"37.714375752","long":"126.97127372","imageIndex":17,"items":[{"name":"송추원예","tel":"031-879-0308","addr":"경기도 양주시 장흥면 교현리 151-1번지","indutype":"문화.취미 - 화원","category":"other"}]},{"lat":"37.692516779","long":"126.96565937","imageIndex":17,"items":[{"name":"씨유양주교현리점","tel":"031-829-9965","addr":"경기도 양주시 장흥면 교현리 407-3번지","indutype":"유통업 영리 - 편 의 점","category":"other"}]},{"lat":"37.694543527","long":"126.96435445","imageIndex":17,"items":[{"name":"원애견훈련학교","tel":"031-826-8071","addr":"경기도 양주시 장흥면 교현리 418-15번지","indutype":"문화.취미 - 애완동물","category":"other"}]},{"lat":"37.71498807","long":"126.97004859","imageIndex":17,"items":[{"name":"지노스포츠","tel":"070-5088-4189","addr":"경기도 양주시 장흥면 교현리 142-2번지","indutype":"의류 - 스포츠의류","category":"other"}]},{"lat":"37.713708545","long":"126.96947075","imageIndex":17,"items":[{"name":"청솔조경건설","tel":"031-826-5399","addr":"경기도 양주시 장흥면 교현리 141번지","indutype":"건축자재 - 인테리어전문","category":"other"}]},{"lat":"37.697986639","long":"126.96902426","imageIndex":17,"items":[{"name":"형재분재조경","tel":"031-963-4594","addr":"경기도 양주시 장흥면 교현리 332-1,325-1","indutype":"문화.취미 - 화원","category":"other"}]},{"lat":"37.712934216","long":"126.97127433","imageIndex":4,"items":[{"name":"개성진순대국","tel":"031-829-1988","addr":"경기도 양주시 장흥면 교현리 152-22번지 주건축물제1동 1층","indutype":"일반휴게음식 - 일반한식","category":"restaurant"},{"name":"영일(개성진순대국)","tel":"031-829-1988","addr":"경기도 양주시 장흥면 교현리 152-22번지 주건축물제 1동 1층","indutype":"일반휴게음식 - 일반한식","category":"restaurant"}]},{"lat":"37.700042417","long":"126.97507841","imageIndex":4,"items":[{"name":"거기물좋은곳","tel":"031-855-4921","addr":"경기도 양주시 장흥면 교현리 12-1번지 1층","indutype":"일반휴게음식 - 일반한식","category":"restaurant"}]},{"lat":"37.711988238","long":"126.97138814","imageIndex":4,"items":[{"name":"데니스 스모크 하우스","tel":"031-829-0290","addr":"경기도 양주시 장흥면 교현리 156-2번지 1층","indutype":"일반휴게음식 - 일반한식","category":"restaurant"}]},{"lat":"37.711906856","long":"126.97029945","imageIndex":4,"items":[{"name":"송추 애담아","tel":"031-826-4835","addr":"경기도 양주시 장흥면 교현리 163-2번지 1호","indutype":"일반휴게음식 - 일반한식","category":"restaurant"}]},{"lat":"37.705825671","long":"126.97141343","imageIndex":4,"items":[{"name":"송추가마골 흑염소","tel":"031-855-8808","addr":"경기도 양주시 장흥면 교현리 234-21번지","indutype":"일반휴게음식 - 일반한식","category":"restaurant"}]},{"lat":"37.716880728","long":"126.97244085","imageIndex":4,"items":[{"name":"송추백합칼국수","tel":"031-826-4255","addr":"경기도 양주시 장흥면 교현리 112-37번지","indutype":"일반휴게음식 - 일반한식","category":"restaurant"}]},{"lat":"37.714492205","long":"126.96885797","imageIndex":4,"items":[{"name":"송추한식기사부페","tel":"031-879-4555","addr":"경기도 양주시 장흥면 교현리 135-15번지","indutype":"일반휴게음식 - 일반한식","category":"restaurant"},{"name":"육해공","tel":"031-855-7181","addr":"경기도 양주시 장흥면 교현리 135-15번지","indutype":"일반휴게음식 - 중국식","category":"restaurant"}]},{"lat":"37.716484212","long":"126.97207808","imageIndex":4,"items":[{"name":"어사랑153","tel":"031-877-0230","addr":"경기도 양주시 장흥면 교현리 125-2번지","indutype":"일반휴게음식 - 일반한식","category":"restaurant"}]},{"lat":"37.712817203","long":"126.971694","imageIndex":4,"items":[{"name":"영일(오가다)","tel":"031-829-3655","addr":"경기도 양주시 장흥면 교현리 152-29번지","indutype":"일반휴게음식 - 서양음식","category":"restaurant"},{"name":"오가.다 송추점","tel":"031-829-3655","addr":"경기도 양주시 장흥면 교현리 152-29번지 1,2층","indutype":"일반휴게음식 - 서양음식","category":"restaurant"}]},{"lat":"37.700464536","long":"126.96990759","imageIndex":4,"items":[{"name":"우왕국","tel":"031-855-7859","addr":"경기도 양주시 장흥면 교현리 265-2번지","indutype":"일반휴게음식 - 일반한식","category":"restaurant"}]},{"lat":"37.717015893","long":"126.97252018","imageIndex":4,"items":[{"name":"추어탕명가","tel":"031-826-9255","addr":"경기도 양주시 장흥면 교현리 112-21번지 1층","indutype":"일반휴게음식 - 일반한식","category":"restaurant"}]},{"lat":"37.692516779","long":"126.96565937","imageIndex":4,"items":[{"name":"카페 북한산 바라보다","tel":"","addr":"경기도 양주시 장흥면 교현리 407-3번지","indutype":"일반휴게음식 - 서양음식","category":"restaurant"}]},{"lat":"37.71648402","long":"126.97135221","imageIndex":4,"items":[{"name":"카페베르힐","tel":"031-826-9812","addr":"경기도 양주시 장흥면 교현리 114-7번지","indutype":"일반휴게음식 - 서양음식","category":"restaurant"}]},{"lat":"37.716213674","long":"126.97113684","imageIndex":4,"items":[{"name":"투명한감자만두(송추점)","tel":"031-0000-0000","addr":"경기도 양주시 장흥면 교현리 123-4번지 1층","indutype":"일반휴게음식 - 스넥","category":"restaurant"}]},{"lat":"37.714988369","long":"126.97113736","imageIndex":4,"items":[{"name":"형제일품손짜장마을","tel":"031-855-9662","addr":"경기도 양주시 장흥면 교현리 129-4번지","indutype":"일반휴게음식 - 중국식","category":"restaurant"}]},{"lat":"37.700042417","long":"126.97507841","imageIndex":7,"items":[{"name":"거기물좋은곳","tel":"031-855-4921","addr":"경기도 양주시 장흥면 교현리 12-1번지","indutype":"음료식품 - 기타음료식품","category":"food"}]},{"lat":"37.692183361","long":"126.96546679","imageIndex":7,"items":[{"name":"섬진강 빵","tel":"","addr":"경기도 양주시 장흥면 교현리 406-2번지 1층 일부","indutype":"음료식품 - 제과점","category":"food"}]},{"lat":"37.704212801","long":"126.97085846","imageIndex":7,"items":[{"name":"양주건강원","tel":"031-848-4910","addr":"경기도 양주시 장흥면 교현리 237-1번지","indutype":"건강식품 - 기타건강식품","category":"food"}]},{"lat":"37.715213099","long":"126.96929995","imageIndex":7,"items":[{"name":"준푸드","tel":"031-877-7110","addr":"경기도 양주시 장흥면 교현리 134-7번지 송추우리스페이스 203호","indutype":"음료식품 - 기타음료식품","category":"food"}]},{"lat":"37.71168154","long":"126.97002736","imageIndex":0,"items":[{"name":"다이나믹플로우 (Dynamic Flow)","tel":"02-111-1111","addr":"경기도 양주시 장흥면 교현리 163-6번지 1층","indutype":"자동차정비 유지 - 자동차부품","category":"car"}]},{"lat":"37.706014822","long":"126.97122057","imageIndex":0,"items":[{"name":"루마썬팅 송추점","tel":"031-821-0013","addr":"경기도 양주시 장흥면 교현리 234-16번지 1층","indutype":"자동차정비 유지 - 카인테리어","category":"car"}]},{"lat":"37.699383251","long":"126.96944317","imageIndex":0,"items":[{"name":"타이어샵","tel":"031-878-3980","addr":"경기도 양주시 장흥면 교현리 341-1","indutype":"자동차정비 유지 - 자동차시트·타이어","category":"car"}]},{"lat":"37.70837509","long":"126.97030099","imageIndex":13,"items":[{"name":"멜버른 승마","tel":"031-829-7226","addr":"경기도 양주시 장흥면 교현리 208번지 1층","indutype":"레저업소 - 기타레져업소","category":"leisure"}]},{"lat":"37.714682465","long":"126.97274796","imageIndex":13,"items":[{"name":"엘제이비","tel":"","addr":"경기도 양주시 장흥면 교현리 127-2번지","indutype":"레저업소 - 수 영 장","category":"leisure"}]},{"lat":"37.698625569","long":"126.96649539","imageIndex":13,"items":[{"name":"웅진골프아카데미","tel":"032-310-8375","addr":"경기도 양주시 장흥면 교현리 315-3번지","indutype":"레저업소 - 골프연습장","category":"leisure"}]},{"lat":"37.714492205","long":"126.96885797","imageIndex":13,"items":[{"name":"풍차노래연습장","tel":"02-111-1111","addr":"경기도 양주시 장흥면 교현리 135-15번지 2층","indutype":"레저업소 - 노 래 방","category":"leisure"}]}]