[{"lat":"37.246576663","long":"127.04094354","imageIndex":4,"items":[{"name":"Kick off coffee studio","tel":"031-0000-0000","addr":"경기도 화성시 반정동 605-4번지 101호","indutype":"일반휴게음식 - 서양음식","category":"restaurant"}]},{"lat":"37.234439873","long":"127.0405543","imageIndex":4,"items":[{"name":"경림식당","tel":"031-225-3858","addr":"경기도 화성시 반정동 115-12번지","indutype":"일반휴게음식 - 일반한식","category":"restaurant"}]},{"lat":"37.227854804","long":"127.03552548","imageIndex":4,"items":[{"name":"고향한식뷔폐","tel":"031-223-0206","addr":"경기도 화성시 반정동 202-3번지","indutype":"일반휴게음식 - 일반한식","category":"restaurant"}]},{"lat":"37.234079865","long":"127.03925819","imageIndex":4,"items":[{"name":"나래궁","tel":"031-223-0320","addr":"경기도 화성시 반정동 114-1번지","indutype":"일반휴게음식 - 중국식","category":"restaurant"}]},{"lat":"37.246486432","long":"127.04133798","imageIndex":4,"items":[{"name":"남도김치찜","tel":"031-236-4499","addr":"경기도 화성시 반정동 607-2번지 1층","indutype":"일반휴게음식 - 일반한식","category":"restaurant"},{"name":"데일리테이블","tel":"031-203-0769","addr":"경기도 화성시 반정동 607-2번지","indutype":"일반휴게음식 - 서양음식","category":"restaurant"}]},{"lat":"37.245792934","long":"127.04041343","imageIndex":4,"items":[{"name":"노매드커피로스터스","tel":"","addr":"경기도 화성시 반정동 604-12번지 1층","indutype":"일반휴게음식 - 서양음식","category":"restaurant"}]},{"lat":"37.246153087","long":"127.0412251","imageIndex":4,"items":[{"name":"노멀데이즈","tel":"","addr":"경기도 화성시 반정동 607-4번지 102호","indutype":"일반휴게음식 - 서양음식","category":"restaurant"}]},{"lat":"37.245828454","long":"127.04202516","imageIndex":4,"items":[{"name":"라루치아","tel":"070-4496-2729","addr":"경기도 화성시 반정동 609-5번지 1층 전부호","indutype":"일반휴게음식 - 일반한식","category":"restaurant"}]},{"lat":"37.246269903","long":"127.04219445","imageIndex":4,"items":[{"name":"마리안느","tel":"031-205-2022","addr":"경기도 화성시 반정동 609-2번지 1층","indutype":"일반휴게음식 - 서양음식","category":"restaurant"}]},{"lat":"37.24612619","long":"127.04080807","imageIndex":4,"items":[{"name":"모어멜 (MOUMEL)","tel":"031-111-1111","addr":"경기도 화성시 반정동 605-7번지 1층","indutype":"일반휴게음식 - 서양음식","category":"restaurant"}]},{"lat":"37.246522162","long":"127.04228474","imageIndex":4,"items":[{"name":"빈스트리 커피","tel":"031-525-1324","addr":"경기도 화성시 반정동 609번지 101호","indutype":"일반휴게음식 - 서양음식","category":"restaurant"}]},{"lat":"37.229577923","long":"127.02650032","imageIndex":4,"items":[{"name":"세림정","tel":"031-222-3551","addr":"경기도 화성시 반정동 319-5번지","indutype":"일반휴게음식 - 일반한식","category":"restaurant"}]},{"lat":"37.246963917","long":"127.04152982","imageIndex":4,"items":[{"name":"아끼","tel":"031-205-7753","addr":"경기도 화성시 반정동 606번지","indutype":"일반휴게음식 - 일반한식","category":"restaurant"}]},{"lat":"37.246459651","long":"127.04056028","imageIndex":4,"items":[{"name":"아임바리스타 신동점","tel":"031-273-1288","addr":"경기도 화성시 반정동 604-6번지 로즈캐슬 1층","indutype":"일반휴게음식 - 서양음식","category":"restaurant"}]},{"lat":"37.235079936","long":"127.03950659","imageIndex":4,"items":[{"name":"엄마밥상","tel":"031-222-6818","addr":"경기도 화성시 반정동 48-2번지","indutype":"일반휴게음식 - 일반한식","category":"restaurant"}]},{"lat":"37.234160909","long":"127.03941599","imageIndex":4,"items":[{"name":"유건식당","tel":"031-237-7454","addr":"경기도 화성시 반정동 51-8번지","indutype":"일반휴게음식 - 일반한식","category":"restaurant"}]},{"lat":"37.245216057","long":"127.04108938","imageIndex":4,"items":[{"name":"이디야커피 수원신동점","tel":"031-204-1006","addr":"경기도 화성시 반정동 612번지 1층","indutype":"일반휴게음식 - 서양음식","category":"restaurant"}]},{"lat":"37.246044974","long":"127.04119123","imageIndex":4,"items":[{"name":"인트로","tel":"02-111-1111","addr":"경기도 화성시 반정동 607-5번지 1층 101호","indutype":"일반휴게음식 - 서양음식","category":"restaurant"},{"name":"일미","tel":"031-204-9965","addr":"경기도 화성시 반정동 607-5번지 1층 일부호","indutype":"일반휴게음식 - 스넥","category":"restaurant"}]},{"lat":"37.233683472","long":"127.03905516","imageIndex":4,"items":[{"name":"천수아구찜","tel":"031-223-0269","addr":"경기도 화성시 반정동 139-2번지","indutype":"일반휴게음식 - 일반한식","category":"restaurant"}]},{"lat":"37.246937137","long":"127.04075212","imageIndex":4,"items":[{"name":"카페줄라이퍼스트","tel":"031-205-0701","addr":"경기도 화성시 반정동 604-3번지 1층","indutype":"일반휴게음식 - 서양음식","category":"restaurant"}]},{"lat":"37.24676546","long":"127.04222852","imageIndex":4,"items":[{"name":"커피맨션로스터(Coffee Mansion roaster)","tel":"070-7841-7171","addr":"경기도 화성시 반정동 606-4번지 1층","indutype":"일반휴게음식 - 서양음식","category":"restaurant"}]},{"lat":"37.2469098","long":"127.04169886","imageIndex":4,"items":[{"name":"커피트리","tel":"","addr":"경기도 화성시 반정동 606-1번지 102호","indutype":"일반휴게음식 - 서양음식","category":"restaurant"}]},{"lat":"37.246792997","long":"127.04067315","imageIndex":4,"items":[{"name":"타이테라스","tel":"031-273-8018","addr":"경기도 화성시 반정동 604-4번지 101호","indutype":"일반휴게음식 - 서양음식","category":"restaurant"}]},{"lat":"37.23335028","long":"127.03842394","imageIndex":4,"items":[{"name":"태화루","tel":"031-239-1333","addr":"경기도 화성시 반정동 140-6번지","indutype":"일반휴게음식 - 중국식","category":"restaurant"}]},{"lat":"37.245882796","long":"127.04116861","imageIndex":4,"items":[{"name":"퍼블릭버거","tel":"031-258-4569","addr":"경기도 화성시 반정동 607-6번지 1층 102호","indutype":"일반휴게음식 - 일반한식","category":"restaurant"}]},{"lat":"37.232988109","long":"127.0438666","imageIndex":4,"items":[{"name":"해피메이커","tel":"031-205-5991","addr":"경기도 화성시 반정동 134-4번지 1층 2","indutype":"일반휴게음식 - 일반한식","category":"restaurant"}]}]