[{"lat":"37.474573018","long":"127.15081872","imageIndex":16,"items":[{"name":"가원어린이집[아이행복]","tel":"02-6052-2353","addr":"경기도 하남시 학암동 672번지 에코앤롯데캐슬 6407동 103호","indutype":"학원 - 유아원","category":"study"},{"name":"미리별어린이집[아이행복]","tel":"02-400-1990","addr":"경기도 하남시 학암동 672번지 에코앤롯데캐슬 6411동","indutype":"학원 - 유아원","category":"study"},{"name":"생명나무어린이집[아이행복]","tel":"02-402-3744","addr":"경기도 하남시 학암동 672번지 에코앤롯데캐슬 6404동 105호","indutype":"학원 - 유아원","category":"study"},{"name":"수피아어린이집[아이행복]","tel":"02-6369-9685","addr":"경기도 하남시 학암동 672번지 에코앤롯데캐슬","indutype":"학원 - 유아원","category":"study"},{"name":"시립다솔어린이집[아이행복]","tel":"02-443-5001","addr":"경기도 하남시 학암동 672번지 위례롯데캐슬","indutype":"학원 - 유아원","category":"study"}]},{"lat":"37.47493742","long":"127.15476489","imageIndex":16,"items":[{"name":"메리샤","tel":"02-6264-2506","addr":"경기도 하남시 학암동 673번지 위례그린파크푸르지오 6506동 405호","indutype":"학원 - 기타 교육기관","category":"study"}]},{"lat":"37.476463661","long":"127.14464979","imageIndex":16,"items":[{"name":"위례연세뮤직랩교습소","tel":"02-400-6657","addr":"경기도 하남시 학암동 662번지 위례신도시엠코타운센트로엘 상가 2동 111호","indutype":"학원 - 예·체능계학원","category":"study"}]},{"lat":"37.478468357","long":"127.1483731","imageIndex":16,"items":[{"name":"이화칸타빌레음악교습소","tel":"02-400-3848","addr":"경기도 하남시 학암동 661번지 위례효성해링턴타워 2층 206호","indutype":"학원 - 예·체능계학원","category":"study"}]},{"lat":"37.481376676","long":"127.14990505","imageIndex":16,"items":[{"name":"튼튼영어 위례하남","tel":"031-763-2986","addr":"경기도 하남시 학암동 654번지 위례지웰푸르지오","indutype":"학원 - 학습지 교육","category":"study"}]}]