[{"lat":"37.32814868","long":"127.3340825","imageIndex":17,"items":[{"name":"(주)두원인테리어","tel":"031-768-7971","addr":"경기도 광주시 도척면 진우리 100-37번지","indutype":"기타 - 기타 전문점","category":"other"}]},{"lat":"37.32207444","long":"127.3377789","imageIndex":17,"items":[{"name":"(주)드라이어텍","tel":"031-797-3521","addr":"경기도 광주시 도척면 진우리 412-1","indutype":"회원제형태 - 기타3","category":"other"}]},{"lat":"37.31840271","long":"127.3297528","imageIndex":17,"items":[{"name":"(주)드래곤스포츠","tel":"031-762-8829","addr":"경기도 광주시 도척면 진우리 377-7번지 2호","indutype":"레져용품 - 스포츠·레져용품","category":"other"},{"name":"굳잠","tel":"02-486-0901","addr":"경기도 광주시 도척면 진우리 377-7번지","indutype":"신변잡화 - 기타잡화","category":"other"}]},{"lat":"37.31873525","long":"127.3459658","imageIndex":17,"items":[{"name":"(주)신마로지스","tel":"031-548-0586","addr":"경기도 광주시 도척면 진우리 690-23번지","indutype":"유통업 영리 - 기타유통업","category":"other"}]},{"lat":"37.33503896","long":"127.3381637","imageIndex":17,"items":[{"name":"(주)청담도예","tel":"031-764-4259","addr":"경기도 광주시 도척면 진우리 40-1번지","indutype":"문화.취미 - 민예·공예품","category":"other"}]},{"lat":"37.33248282","long":"127.3371932","imageIndex":17,"items":[{"name":"(주)한린정밀용접기","tel":"031-798-2344","addr":"경기도 광주시 도척면 진우리 55-9번지","indutype":"기타 - 기계공구","category":"other"}]},{"lat":"37.31682165","long":"127.3345292","imageIndex":17,"items":[{"name":"GS25광주심포니점","tel":"080-555-2525","addr":"경기도 광주시 도척면 진우리 369-17번지","indutype":"유통업 영리 - 편 의 점","category":"other"},{"name":"GS25광주심포니점","tel":"080-555-2525","addr":"경기도 광주시 도척면 진우리 369-17번지","indutype":"유통업 영리 - 상품권전문판매","category":"other"}]},{"lat":"37.33535078","long":"127.3362242","imageIndex":17,"items":[{"name":"GS25뉴광주진우점","tel":"","addr":"경기도 광주시 도척면 진우리 28번지","indutype":"유통업 영리 - 상품권전문판매","category":"other"},{"name":"GS25뉴광주진우점","tel":"","addr":"경기도 광주시 도척면 진우리 28번지","indutype":"유통업 영리 - 편 의 점","category":"other"}]},{"lat":"37.31801332","long":"127.3336996","imageIndex":17,"items":[{"name":"가위사랑","tel":"070-4111-5624","addr":"경기도 광주시 도척면 진우리 1002번지 광주근형심포니아파트 107동 906호","indutype":"회원제형태 - 기타4","category":"other"}]},{"lat":"37.32587562","long":"127.3381681","imageIndex":17,"items":[{"name":"경도산업","tel":"031-763-1870","addr":"경기도 광주시 도척면 진우리 163-1","indutype":"가구 - 기타가구","category":"other"}]},{"lat":"37.33217578","long":"127.3374401","imageIndex":17,"items":[{"name":"곤지암 재활용 센타","tel":"031-762-3989","addr":"경기도 광주시 도척면 진우리 52번지","indutype":"전기제품 - 가전제품","category":"other"},{"name":"한솔마대세상","tel":"031-798-9036","addr":"경기도 광주시 도척면 진우리 52번지","indutype":"신변잡화 - 기타잡화","category":"other"}]},{"lat":"37.32354664","long":"127.3365218","imageIndex":17,"items":[{"name":"그린오피스","tel":"031-763-3801","addr":"경기도 광주시 도척면 진우리 204-2번지","indutype":"서적문구 - 문구용품","category":"other"},{"name":"진우상사","tel":"031-767-2218","addr":"경기도 광주시 도척면 진우리 204-2번지","indutype":"건축자재 - 보일러·펌프·샷시","category":"other"}]},{"lat":"37.3328437","long":"127.3370256","imageIndex":17,"items":[{"name":"금복상사","tel":"031-763-3231","addr":"경기도 광주시 도척면 진우리 55-4번지","indutype":"기타 - 기계공구","category":"other"}]},{"lat":"37.31689739","long":"127.3332209","imageIndex":17,"items":[{"name":"남홍이 Dinosaurs","tel":"031-764-2640","addr":"경기도 광주시 도척면 진우리 1002번지 광주근형심포니아파트","indutype":"문화.취미 - 애완동물","category":"other"}]},{"lat":"37.32035192","long":"127.3351426","imageIndex":17,"items":[{"name":"다움","tel":"","addr":"경기도 광주시 도척면 진우리 418-19번지 해피네스트 C동 102호","indutype":"건축자재 - 인테리어전문","category":"other"}]},{"lat":"37.31390526","long":"127.3523062","imageIndex":17,"items":[{"name":"닥터컴퓨터","tel":"031-797-2445","addr":"경기도 광주시 도척면 진우리 844-11번지","indutype":"수리서비스 - 사무·통신기기수리","category":"other"}]},{"lat":"37.317405","long":"127.3479453","imageIndex":17,"items":[{"name":"단원요","tel":"031-762-8820","addr":"경기도 광주시 도척면 진우리 670","indutype":"문화.취미 - 민예·공예품","category":"other"},{"name":"단원요","tel":"031-762-8820","addr":"경기도 광주시 도척면 진우리 670번지","indutype":"문화.취미 - 민예·공예품","category":"other"}]},{"lat":"37.32143135","long":"127.3357792","imageIndex":17,"items":[{"name":"대신유리","tel":"031-763-3906","addr":"경기도 광주시 도척면 진우리 417-1번지","indutype":"건축자재 - 유리","category":"other"}]},{"lat":"37.32328809","long":"127.3355504","imageIndex":17,"items":[{"name":"데코팩토리","tel":"070-8279-8392","addr":"경기도 광주시 도척면 진우리 230-6번지","indutype":"문화.취미 - 민예·공예품","category":"other"}]},{"lat":"37.33576502","long":"127.3363051","imageIndex":17,"items":[{"name":"동일케미칼","tel":"031-797-7825","addr":"경기도 광주시 도척면 진우리 26번지 명성빌딩 1층","indutype":"건축자재 - 페인트","category":"other"}]},{"lat":"37.32623337","long":"127.3391062","imageIndex":17,"items":[{"name":"두레건축","tel":"031-762-7601","addr":"경기도 광주시 도척면 진우리 177번지","indutype":"용역 서비스 - 기타용역서비스","category":"other"}]},{"lat":"37.32873395","long":"127.3342205","imageIndex":17,"items":[{"name":"미성가설","tel":"031-797-7495","addr":"경기도 광주시 도척면 진우리 100-9","indutype":"건축자재 - 기타건축자재","category":"other"}]},{"lat":"37.32376289","long":"127.3365228","imageIndex":17,"items":[{"name":"번창광고","tel":"031-763-6125","addr":"경기도 광주시 도척면 진우리 205번지","indutype":"건축자재 - 인테리어전문","category":"other"}]},{"lat":"37.31645724","long":"127.3391416","imageIndex":17,"items":[{"name":"벨루스(Bellus)퍼니처","tel":"","addr":"경기도 광주시 도척면 진우리 573-18번지","indutype":"가구 - 일반가구","category":"other"}]},{"lat":"37.31592972","long":"127.3345027","imageIndex":17,"items":[{"name":"삼성종합상사","tel":"031-763-8504","addr":"경기도 광주시 도척면 진우리 351","indutype":"기타 - 기계공구","category":"other"}]},{"lat":"37.32862844","long":"127.3364992","imageIndex":17,"items":[{"name":"슐츠페인트코리아","tel":"031-764-0002","addr":"경기도 광주시 도척면 진우리 123-10번지 3층","indutype":"건축자재 - 페인트","category":"other"}]},{"lat":"37.33320794","long":"127.332446","imageIndex":17,"items":[{"name":"승실화원","tel":"02-598-2026","addr":"경기도 광주시 도척면 진우리 76-51","indutype":"문화.취미 - 화원","category":"other"}]},{"lat":"37.31659662","long":"127.3344492","imageIndex":17,"items":[{"name":"신창환경이엔지 주식회사","tel":"031-798-7628","addr":"경기도 광주시 도척면 진우리 369-1번지","indutype":"용역 서비스 - 종합용역","category":"other"}]},{"lat":"37.33495418","long":"127.3362789","imageIndex":17,"items":[{"name":"에스앤케이 (주)","tel":"031-763-7355","addr":"경기도 광주시 도척면 진우리 27-7번지","indutype":"신변잡화 - 신발","category":"other"}]},{"lat":"37.31623435","long":"127.3351132","imageIndex":17,"items":[{"name":"예스포","tel":"031-797-0236","addr":"경기도 광주시 도척면 진우리 367","indutype":"레져용품 - 스포츠·레져용품","category":"other"}]},{"lat":"37.33121231","long":"127.3372215","imageIndex":17,"items":[{"name":"우성냉동","tel":"031-761-4547","addr":"경기도 광주시 도척면 진우리 46번지","indutype":"전기제품 - 냉열기기","category":"other"}]},{"lat":"37.32582355","long":"127.3406388","imageIndex":17,"items":[{"name":"유한회사 골든게이트","tel":"031-767-7467","addr":"경기도 광주시 도척면 진우리 172번지","indutype":"건축자재 - 기타건축자재","category":"other"}]},{"lat":"37.32068453","long":"127.3354149","imageIndex":17,"items":[{"name":"이마트24 광주진우리점","tel":"","addr":"경기도 광주시 도척면 진우리 418-5번지 1,2호","indutype":"유통업 영리 - 편 의 점","category":"other"}]},{"lat":"37.31913064","long":"127.3368859","imageIndex":17,"items":[{"name":"정순진 디자인 스튜디오","tel":"031-763-1835","addr":"경기도 광주시 도척면 진우리 387-1번지","indutype":"가구 - 일반가구","category":"other"}]},{"lat":"37.33309614","long":"127.3369703","imageIndex":17,"items":[{"name":"주식회사 게르","tel":"031-761-9009","addr":"경기도 광주시 도척면 진우리 55-2번지","indutype":"레져용품 - 스포츠·레져용품","category":"other"},{"name":"주식회사 한서퍼니처더리치","tel":"031-111-1111","addr":"경기도 광주시 도척면 진우리 55-2번지","indutype":"가구 - 일반가구","category":"other"}]},{"lat":"37.31609607","long":"127.3518538","imageIndex":17,"items":[{"name":"주식회사 대륭이앤디","tel":"031-761-0184","addr":"경기도 광주시 도척면 진우리 831-38번지","indutype":"유통업 영리 - 기타유통업","category":"other"}]},{"lat":"37.3328223","long":"127.3350283","imageIndex":17,"items":[{"name":"주식회사이안제화","tel":"070-4945-9980","addr":"경기도 광주시 도척면 진우리 77-3번지","indutype":"신변잡화 - 제화","category":"other"}]},{"lat":"37.33154214","long":"127.3352822","imageIndex":17,"items":[{"name":"주현스틸","tel":"031-769-2276","addr":"경기도 광주시 도척면 진우리 80-1번지","indutype":"전기제품 - 냉열기기","category":"other"}]},{"lat":"37.32559615","long":"127.3350303","imageIndex":17,"items":[{"name":"지평도자기","tel":"031-763-3386","addr":"경기도 광주시 도척면 진우리 226-1번지","indutype":"문화.취미 - 민예·공예품","category":"other"}]},{"lat":"37.3167932","long":"127.3507176","imageIndex":17,"items":[{"name":"참벗보호작업장","tel":"031-762-7346","addr":"경기도 광주시 도척면 진우리 661번지","indutype":"용역 서비스 - 종합용역","category":"other"}]},{"lat":"37.33604417","long":"127.3363627","imageIndex":17,"items":[{"name":"캠핑카마스터","tel":"031-763-5782","addr":"경기도 광주시 도척면 진우리 25번지","indutype":"레져용품 - 스포츠·레져용품","category":"other"},{"name":"하영기계공압","tel":"031-865-8777","addr":"경기도 광주시 도척면 진우리 25번지 1층","indutype":"기타 - 기계공구","category":"other"}]},{"lat":"37.33473729","long":"127.333299","imageIndex":17,"items":[{"name":"포토뱅크","tel":"031-769-1386","addr":"경기도 광주시 도척면 진우리 76-45번지 2층","indutype":"서적문구 - 출판 및 인쇄물","category":"other"},{"name":"해강에스티","tel":"031-764-0444","addr":"경기도 광주시 도척면 진우리 76-45","indutype":"광학제품 - 사진관","category":"other"}]},{"lat":"37.3282603","long":"127.3328306","imageIndex":17,"items":[{"name":"한미일렉트릭(주)","tel":"031-769-9771","addr":"경기도 광주시 도척면 진우리 102-3","indutype":"건축자재 - 기타건축자재","category":"other"}]},{"lat":"37.31787884","long":"127.336666","imageIndex":17,"items":[{"name":"훼밀리어유통","tel":"031-769-7707","addr":"경기도 광주시 도척면 진우리 392번지","indutype":"전기제품 - 기타전기제품","category":"other"}]},{"lat":"37.32990247","long":"127.3384117","imageIndex":4,"items":[{"name":"(주)에스엠지/카페드코스타","tel":"031-763-9459","addr":"경기도 광주시 도척면 진우리 133-4","indutype":"일반휴게음식 - 서양음식","category":"restaurant"}]},{"lat":"37.32515069","long":"127.3364387","imageIndex":4,"items":[{"name":"TAMAC","tel":"031-761-9001","addr":"경기도 광주시 도척면 진우리 214-4번지 1층","indutype":"일반휴게음식 - 서양음식","category":"restaurant"},{"name":"와우 소문난 감자탕","tel":"","addr":"경기도 광주시 도척면 진우리 214-4번지 1층","indutype":"일반휴게음식 - 일반한식","category":"restaurant"},{"name":"진우리옛날통닭","tel":"031-761-5775","addr":"경기도 광주시 도척면 진우리 214-4번지","indutype":"일반휴게음식 - 스넥","category":"restaurant"},{"name":"진우수산","tel":"031-765-8886","addr":"경기도 광주시 도척면 진우리 214-4번지 1층","indutype":"일반휴게음식 - 일식·회집","category":"restaurant"}]},{"lat":"37.32215101","long":"127.3361885","imageIndex":4,"items":[{"name":"가가21","tel":"031-763-2420","addr":"경기도 광주시 도척면 진우리 473-1번지 1층","indutype":"일반휴게음식 - 일반한식","category":"restaurant"}]},{"lat":"37.32353887","long":"127.3360818","imageIndex":4,"items":[{"name":"김기석만두찐빵전문점","tel":"031-761-5011","addr":"경기도 광주시 도척면 진우리 207-1번지","indutype":"일반휴게음식 - 스넥","category":"restaurant"},{"name":"맛집또바기","tel":"031-797-7975","addr":"경기도 광주시 도척면 진우리 207-1번지 B동","indutype":"일반휴게음식 - 일반한식","category":"restaurant"},{"name":"삼대째손두부","tel":"031-798-4586","addr":"경기도 광주시 도척면 진우리 207-1번지","indutype":"일반휴게음식 - 일반한식","category":"restaurant"},{"name":"우리밥집","tel":"031-634-3722","addr":"경기도 광주시 도척면 진우리 207-1번지","indutype":"일반휴게음식 - 일반한식","category":"restaurant"},{"name":"율's커피","tel":"031-766-7557","addr":"경기도 광주시 도척면 진우리 207-1번지","indutype":"일반휴게음식 - 서양음식","category":"restaurant"},{"name":"해오름","tel":"031-797-1686","addr":"경기도 광주시 도척면 진우리 207-1번지","indutype":"일반휴게음식 - 일반한식","category":"restaurant"}]},{"lat":"37.32248508","long":"127.3359418","imageIndex":4,"items":[{"name":"냉면사랑","tel":"031-761-2524","addr":"경기도 광주시 도척면 진우리 471-7번지","indutype":"일반휴게음식 - 일반한식","category":"restaurant"},{"name":"신의정부부대찌개","tel":"031-769-3345","addr":"경기도 광주시 도척면 진우리 471-7번지","indutype":"일반휴게음식 - 일반한식","category":"restaurant"}]},{"lat":"37.32181926","long":"127.3356116","imageIndex":4,"items":[{"name":"다손백반","tel":"031-761-9853","addr":"경기도 광주시 도척면 진우리 438-2","indutype":"일반휴게음식 - 일반한식","category":"restaurant"},{"name":"취향","tel":"031-798-8820","addr":"경기도 광주시 도척면 진우리 438-2","indutype":"일반휴게음식 - 중국식","category":"restaurant"}]},{"lat":"37.33576502","long":"127.3363051","imageIndex":4,"items":[{"name":"대가","tel":"031-4336-1333","addr":"경기도 광주시 도척면 진우리 26번지 명성빌딩","indutype":"일반휴게음식 - 일반한식","category":"restaurant"}]},{"lat":"37.31590326","long":"127.3342995","imageIndex":4,"items":[{"name":"대포항 코다리찜","tel":"031-769-5135","addr":"경기도 광주시 도척면 진우리 351-3번지 1층","indutype":"일반휴게음식 - 일반한식","category":"restaurant"}]},{"lat":"37.32326756","long":"127.3364416","imageIndex":4,"items":[{"name":"동화식당","tel":"001-0000-0000","addr":"경기도 광주시 도척면 진우리 204-4번지 1층 101호","indutype":"일반휴게음식 - 일반한식","category":"restaurant"}]},{"lat":"37.33348208","long":"127.3375023","imageIndex":4,"items":[{"name":"명가","tel":"031-768-4488","addr":"경기도 광주시 도척면 진우리 65-1번지","indutype":"일반휴게음식 - 일반한식","category":"restaurant"}]},{"lat":"37.32795848","long":"127.3376358","imageIndex":4,"items":[{"name":"목향","tel":"031-764-4179","addr":"경기도 광주시 도척면 진우리 128-1번지 1층","indutype":"일반휴게음식 - 중국식","category":"restaurant"}]},{"lat":"37.32537616","long":"127.3363607","imageIndex":4,"items":[{"name":"무지개","tel":"031-761-1046","addr":"경기도 광주시 도척면 진우리 214-3번지","indutype":"일반휴게음식 - 일반한식","category":"restaurant"}]},{"lat":"37.3174018","long":"127.3332795","imageIndex":4,"items":[{"name":"바로쿡치킨","tel":"031-763-8593","addr":"경기도 광주시 도척면 진우리 1002번지 광주근형심포니아파트 1층 102호","indutype":"일반휴게음식 - 일반한식","category":"restaurant"}]},{"lat":"37.33684664","long":"127.3361631","imageIndex":4,"items":[{"name":"봉쌈보리밥","tel":"031-797-0797","addr":"경기도 광주시 도척면 진우리 21-2번지","indutype":"일반휴게음식 - 일반한식","category":"restaurant"}]},{"lat":"37.317405","long":"127.3479453","imageIndex":4,"items":[{"name":"소라실","tel":"070-4123-8236","addr":"경기도 광주시 도척면 진우리 670","indutype":"일반휴게음식 - 일반한식","category":"restaurant"}]},{"lat":"37.33606754","long":"127.3376605","imageIndex":4,"items":[{"name":"숲속의사철탕","tel":"031-767-4777","addr":"경기도 광주시 도척면 진우리 24","indutype":"일반휴게음식 - 일반한식","category":"restaurant"}]},{"lat":"37.31551535","long":"127.334467","imageIndex":4,"items":[{"name":"옛날김치찌게","tel":"031-766-2219","addr":"경기도 광주시 도척면 진우리 349번지","indutype":"일반휴게음식 - 일반한식","category":"restaurant"}]},{"lat":"37.33778844","long":"127.3344746","imageIndex":4,"items":[{"name":"오씨한마당","tel":"031-762-7347","addr":"경기도 광주시 도척면 진우리 4-1번지","indutype":"일반휴게음식 - 일반한식","category":"restaurant"}]},{"lat":"37.32254627","long":"127.3366077","imageIndex":4,"items":[{"name":"용인토종순대국","tel":"031-762-4483","addr":"경기도 광주시 도척면 진우리 478-1번지","indutype":"일반휴게음식 - 일반한식","category":"restaurant"}]},{"lat":"37.32193435","long":"127.3363342","imageIndex":4,"items":[{"name":"원대감감자탕","tel":"031-761-6010","addr":"경기도 광주시 도척면 진우리 415-4번지","indutype":"일반휴게음식 - 일반한식","category":"restaurant"},{"name":"커피하임","tel":"","addr":"경기도 광주시 도척면 진우리 415-4번지 1층","indutype":"일반휴게음식 - 서양음식","category":"restaurant"}]},{"lat":"37.32276299","long":"127.3364394","imageIndex":4,"items":[{"name":"이모네포차","tel":"031-762-5554","addr":"경기도 광주시 도척면 진우리 476-1번지 1층","indutype":"일반휴게음식 - 일반한식","category":"restaurant"}]},{"lat":"37.33393204","long":"127.3376961","imageIndex":4,"items":[{"name":"장가네","tel":"031-797-8891","addr":"경기도 광주시 도척면 진우리 66-5번지 1층","indutype":"일반휴게음식 - 일반한식","category":"restaurant"}]},{"lat":"37.32376289","long":"127.3365228","imageIndex":4,"items":[{"name":"장재울순대국","tel":"031-768-7333","addr":"경기도 광주시 도척면 진우리 205","indutype":"일반휴게음식 - 일반한식","category":"restaurant"}]},{"lat":"37.32317917","long":"127.335832","imageIndex":4,"items":[{"name":"주막한식부페","tel":"031-798-4151","addr":"경기도 광주시 도척면 진우리 470-3번지","indutype":"일반휴게음식 - 일반한식","category":"restaurant"},{"name":"향돈촌","tel":"031-762-0330","addr":"경기도 광주시 도척면 진우리 470-3번지","indutype":"일반휴게음식 - 일반한식","category":"restaurant"}]},{"lat":"37.32389928","long":"127.3360834","imageIndex":4,"items":[{"name":"쭈꾸미쭈꾸미","tel":"031-000-0000","addr":"경기도 광주시 도척면 진우리 207-11번지 B동 1층","indutype":"일반휴게음식 - 일반한식","category":"restaurant"}]},{"lat":"37.3229358","long":"127.3358648","imageIndex":4,"items":[{"name":"카페인스","tel":"031-764-9931","addr":"경기도 광주시 도척면 진우리 470-4번지 현빌딩","indutype":"일반휴게음식 - 서양음식","category":"restaurant"}]},{"lat":"37.31659662","long":"127.3344492","imageIndex":4,"items":[{"name":"토방","tel":"031-764-7874","addr":"경기도 광주시 도척면 진우리 369-1번지","indutype":"일반휴게음식 - 일반한식","category":"restaurant"}]},{"lat":"37.32687319","long":"127.3294171","imageIndex":4,"items":[{"name":"한일식당","tel":"031-762-7887","addr":"경기도 광주시 도척면 진우리 252번지","indutype":"일반휴게음식 - 일반한식","category":"restaurant"}]},{"lat":"37.32626385","long":"127.3378878","imageIndex":4,"items":[{"name":"해송","tel":"031-763-5982","addr":"경기도 광주시 도척면 진우리 161-1번지","indutype":"일반휴게음식 - 일반한식","category":"restaurant"}]},{"lat":"37.33728621","long":"127.3336374","imageIndex":4,"items":[{"name":"황우","tel":"031-761-3444","addr":"경기도 광주시 도척면 진우리 10번지","indutype":"일반휴게음식 - 일반한식","category":"restaurant"}]},{"lat":"37.32681117","long":"127.3355095","imageIndex":7,"items":[{"name":"JS식품","tel":"031-797-6160","addr":"경기도 광주시 도척면 진우리 222-14번지 현대파크빌","indutype":"음료식품 - 농·축·수산품","category":"food"}]},{"lat":"37.33334811","long":"127.3370842","imageIndex":7,"items":[{"name":"달달해","tel":"031-761-3994","addr":"경기도 광주시 도척면 진우리 64-2번지 1층","indutype":"음료식품 - 농·축·수산품","category":"food"}]},{"lat":"37.32687956","long":"127.3400004","imageIndex":7,"items":[{"name":"대박농장","tel":"031-762-5381","addr":"경기도 광주시 도척면 진우리 157-3번지","indutype":"음료식품 - 농·축·수산품","category":"food"}]},{"lat":"37.32389928","long":"127.3360834","imageIndex":7,"items":[{"name":"도척약초","tel":"031-798-1089","addr":"경기도 광주시 도척면 진우리 207-11번지 4호","indutype":"음료식품 - 농·축·수산품","category":"food"},{"name":"도척한방생약원","tel":"031-762-5199","addr":"경기도 광주시 도척면 진우리 207-11번지 3호","indutype":"건강식품 - 기타건강식품","category":"food"}]},{"lat":"37.3167932","long":"127.3507176","imageIndex":7,"items":[{"name":"성분도보호작업장","tel":"031-799-0341","addr":"경기도 광주시 도척면 진우리 661번지","indutype":"음료식품 - 기타음료식품","category":"food"}]},{"lat":"37.32759469","long":"127.3324215","imageIndex":7,"items":[{"name":"주식회사 희망플러스","tel":"031-763-1177","addr":"경기도 광주시 도척면 진우리 105번지","indutype":"음료식품 - 미곡상","category":"food"}]},{"lat":"37.32515069","long":"127.3364387","imageIndex":7,"items":[{"name":"태화산건강원","tel":"031-763-5532","addr":"경기도 광주시 도척면 진우리 214-4번지","indutype":"건강식품 - 기타건강식품","category":"food"}]},{"lat":"37.3189583","long":"127.3467227","imageIndex":7,"items":[{"name":"한국비엘 주식회사","tel":"02-3296-4560","addr":"경기도 광주시 도척면 진우리 732-5번지","indutype":"음료식품 - 기타음료식품","category":"food"}]},{"lat":"37.31787969","long":"127.3489176","imageIndex":0,"items":[{"name":"RVLand(알브이랜드)","tel":"070-4226-8002","addr":"경기도 광주시 도척면 진우리 816-2번지","indutype":"자동차정비 유지 - 자동차부품","category":"car"}]},{"lat":"37.33412297","long":"127.3338831","imageIndex":0,"items":[{"name":"곤지암폐차산업","tel":"031-764-1472","addr":"경기도 광주시 도척면 진우리 16-1번지","indutype":"자동차정비 유지 - 가타자동차서비스","category":"car"}]},{"lat":"37.33604417","long":"127.3363627","imageIndex":0,"items":[{"name":"씨에스맴버스(CS members)","tel":"031-762-7090","addr":"경기도 광주시 도척면 진우리 25번지","indutype":"자동차정비 유지 - 자동차부품","category":"car"}]},{"lat":"37.33451183","long":"127.3365816","imageIndex":0,"items":[{"name":"알엘피코리아(RLP KOREA)","tel":"","addr":"경기도 광주시 도척면 진우리 35-2번지","indutype":"자동차정비 유지 - 자동차부품","category":"car"}]},{"lat":"37.32759469","long":"127.3324215","imageIndex":0,"items":[{"name":"엠에이치디자인(MH design)","tel":"031-797-7142","addr":"경기도 광주시 도척면 진우리 105번지 1층","indutype":"자동차정비 유지 - 카인테리어","category":"car"},{"name":"주식회사 미오토","tel":"031-1800-8701","addr":"경기도 광주시 도척면 진우리 105번지","indutype":"자동차판매 - 수입자동차","category":"car"}]},{"lat":"37.33526031","long":"127.3331433","imageIndex":0,"items":[{"name":"주식회사에스제이엠","tel":"031-573-9545","addr":"경기도 광주시 도척면 진우리 76-54","indutype":"자동차정비 유지 - 세차장","category":"car"}]},{"lat":"37.32242921","long":"127.3365846","imageIndex":0,"items":[{"name":"카매니저 자동차공업사","tel":"031-762-5621","addr":"경기도 광주시 도척면 진우리 475-1","indutype":"자동차정비 유지 - 자동차정비","category":"car"}]},{"lat":"37.32401517","long":"127.3365239","imageIndex":0,"items":[{"name":"한국타이어도척점","tel":"031-763-9003","addr":"경기도 광주시 도척면 진우리 206-1번지","indutype":"자동차정비 유지 - 자동차시트·타이어","category":"car"}]},{"lat":"37.32317917","long":"127.335832","imageIndex":13,"items":[{"name":"궁아유타우","tel":"031-764-9139","addr":"경기도 광주시 도척면 진우리 470-3번지 3층","indutype":"보건위생 - 화장품","category":"beauty"}]},{"lat":"37.32229593","long":"127.3359184","imageIndex":13,"items":[{"name":"수헤어갤러리","tel":"070-8161-2125","addr":"경기도 광주시 도척면 진우리 471-3번지","indutype":"보건위생 - 미용원","category":"beauty"}]},{"lat":"37.31682165","long":"127.3345292","imageIndex":13,"items":[{"name":"심포니우리헤어샵","tel":"","addr":"경기도 광주시 도척면 진우리 369-17번지","indutype":"보건위생 - 미용원","category":"beauty"}]},{"lat":"37.31768238","long":"127.339226","imageIndex":13,"items":[{"name":"주식회사 광세의료기","tel":"031-8028-2677","addr":"경기도 광주시 도척면 진우리 573-4번지","indutype":"보건위생 - 의료용품","category":"beauty"}]},{"lat":"37.32376289","long":"127.3365228","imageIndex":13,"items":[{"name":"다온짐 휘트니스 클럽","tel":"","addr":"경기도 광주시 도척면 진우리 205번지 2층","indutype":"레저업소 - 헬스클럽","category":"leisure"}]},{"lat":"37.32193435","long":"127.3363342","imageIndex":13,"items":[{"name":"에이스 노래연습장","tel":"031-000-0000","addr":"경기도 광주시 도척면 진우리 415-4번지 2층","indutype":"레저업소 - 노 래 방","category":"leisure"}]},{"lat":"37.31109745","long":"127.3511652","imageIndex":13,"items":[{"name":"진우낚시터","tel":"031-762-7913","addr":"경기도 광주시 도척면 진우리 산55-31번지","indutype":"레저업소 - 기타레져업소","category":"leisure"}]},{"lat":"37.3229358","long":"127.3358648","imageIndex":13,"items":[{"name":"하이런당구장","tel":"","addr":"경기도 광주시 도척면 진우리 470-4번지 현빌딩 2층","indutype":"레저업소 - 당 구 장","category":"leisure"}]},{"lat":"37.3247084","long":"127.3367188","imageIndex":9,"items":[{"name":"락주유소","tel":"","addr":"경기도 광주시 도척면 진우리 211번지","indutype":"연료판매점 - 쌍용S-OIL","category":"oil"}]},{"lat":"37.31965462","long":"127.3363918","imageIndex":9,"items":[{"name":"오일플러스","tel":"031-881-2763","addr":"경기도 광주시 도척면 진우리 384-6번지","indutype":"연료판매점 - 기타연료","category":"oil"}]},{"lat":"37.32296128","long":"127.3364177","imageIndex":8,"items":[{"name":"박약국","tel":"031-761-6297","addr":"경기도 광주시 도척면 진우리 476번지","indutype":"약국 - 약국","category":"medical"},{"name":"현대연합의원","tel":"031-763-7581","addr":"경기도 광주시 도척면 진우리 476번지","indutype":"의원 - 의원","category":"medical"}]},{"lat":"37.31707595","long":"127.3338083","imageIndex":16,"items":[{"name":"윤선생 우리집앞 영어교실 도척 제1점","tel":"","addr":"경기도 광주시 도척면 진우리 1002번지 광주근형심포니아파트","indutype":"학원 - 기타 교육기관","category":"study"}]},{"lat":"37.32354664","long":"127.3365218","imageIndex":7,"items":[{"name":"진우행운복권방","tel":"031-111-1111","addr":"경기도 광주시 도척면 진우리 204-2번지","indutype":"유통업 영리 - 슈퍼마켓","category":"mart"}]},{"lat":"37.32515069","long":"127.3364387","imageIndex":7,"items":[{"name":"한양슈퍼","tel":"031-762-9119","addr":"경기도 광주시 도척면 진우리 214-4번지","indutype":"유통업 영리 - 슈퍼마켓","category":"mart"}]}]