[{"lat":"38.156934691","long":"127.24978328","imageIndex":17,"items":[{"name":"강아지와야옹이","tel":"031-531-6814","addr":"경기도 포천시 관인면 탄동리 664-18번지 1층","indutype":"문화.취미 - 애완동물","category":"other"}]},{"lat":"38.158548494","long":"127.24920683","imageIndex":17,"items":[{"name":"경동ENG","tel":"031-534-4560","addr":"경기도 포천시 관인면 탄동리 650-51번지","indutype":"수리서비스 - 기타수리서비스","category":"other"},{"name":"정금당","tel":"532-1459","addr":"경기도 포천시 관인면 탄동리 650-51번지","indutype":"소매업 - 금은방","category":"other"}]},{"lat":"38.158133274","long":"127.24959336","imageIndex":17,"items":[{"name":"관인야채청과","tel":"533-8809","addr":"경기도 포천시 관인면 탄동리 650-60번지","indutype":"도소매 - 청과물","category":"other"},{"name":"일광사","tel":"","addr":"경기도 포천시 관인면 탄동리 650-60번지","indutype":"서비스 - 세탁소","category":"other"}]},{"lat":"38.156381277","long":"127.25161833","imageIndex":17,"items":[{"name":"관인오토바이상사","tel":"533-1103","addr":"경기도 포천시 관인면 탄동리 654-5번지","indutype":"서비스 - 오토바이수리","category":"other"}]},{"lat":"38.158268981","long":"127.24931998","imageIndex":17,"items":[{"name":"삼천리오토바이","tel":"533-1012","addr":"경기도 포천시 관인면 탄동리 650-56번지","indutype":"서비스 - 오토바이수리","category":"other"}]},{"lat":"38.158213538","long":"127.24998156","imageIndex":17,"items":[{"name":"수제이텔레콤","tel":"031-534-4545","addr":"경기도 포천시 관인면 탄동리 649-32번지 1층 수제이텔레콤","indutype":"사무통신 - 통신기기","category":"other"}]},{"lat":"38.15657722","long":"127.25268007","imageIndex":17,"items":[{"name":"에이코드","tel":"080-707-0222","addr":"경기도 포천시 관인면 탄동리 533-5번지","indutype":"신변잡화 - 기념품점","category":"other"}]},{"lat":"38.158385401","long":"127.24965126","imageIndex":17,"items":[{"name":"일신마트(슈퍼)","tel":"533-1057","addr":"경기도 포천시 관인면 탄동리 649-47번지","indutype":"소매업 - 잡화","category":"other"},{"name":"조흥지물","tel":"031-533-1035","addr":"경기도 포천시 관인면 탄동리 649-47번지","indutype":"직물 - 카페트,커튼,천막,지물","category":"other"}]},{"lat":"38.158384874","long":"127.24990227","imageIndex":17,"items":[{"name":"정금당","tel":"031-532-1459","addr":"경기도 포천시 관인면 탄동리 649-30번지","indutype":"신변잡화 - 귀금속","category":"other"}]},{"lat":"38.157465805","long":"127.24997904","imageIndex":17,"items":[{"name":"초이지물포","tel":"031-534-9806","addr":"경기도 포천시 관인면 탄동리 664-15번지","indutype":"직물 - 카페트,커튼,천막,지물","category":"other"}]},{"lat":"38.158774194","long":"127.24897939","imageIndex":17,"items":[{"name":"한성철물","tel":"533-1254","addr":"경기도 포천시 관인면 탄동리 650-47번지","indutype":"소매업 - 철물","category":"other"},{"name":"한성철물건재","tel":"031-533-1254","addr":"경기도 포천시 관인면 탄동리 650-47번지","indutype":"건축자재 - 목재·석재·철물","category":"other"}]},{"lat":"38.156435088","long":"127.2517326","imageIndex":17,"items":[{"name":"현대상회","tel":"534-8076","addr":"경기도 포천시 관인면 탄동리 654-6번지","indutype":"소매업 - 잡화","category":"other"}]}]