[{"lat":"37.269820345","long":"127.00380647","imageIndex":17,"items":[{"name":"789휴대폰 할인마트","tel":"031-257-7890","addr":"경기도 수원시 팔달구 고등동 300-17번지 1층","indutype":"사무통신 - 통신기기","category":"other"}]},{"lat":"37.274821003","long":"127.00636596","imageIndex":17,"items":[{"name":"GS25고등오거리점","tel":"","addr":"경기도 수원시 팔달구 고등동 29-16번지","indutype":"유통업 영리 - 편 의 점","category":"other"}]},{"lat":"37.270685245","long":"127.00750448","imageIndex":17,"items":[{"name":"GS25매산로2가점","tel":"02-2006-2485","addr":"경기도 수원시 팔달구 고등동 74-33번지","indutype":"유통업 영리 - 편 의 점","category":"other"}]},{"lat":"37.278875614","long":"127.00678334","imageIndex":17,"items":[{"name":"GS25수원병무청점","tel":"02-2006-2485","addr":"경기도 수원시 팔달구 고등동 3-19번지","indutype":"유통업 영리 - 편 의 점","category":"other"}]},{"lat":"37.273433457","long":"127.00473104","imageIndex":17,"items":[{"name":"GS25수원종은점","tel":"","addr":"경기도 수원시 팔달구 고등동 55-24번지","indutype":"유통업 영리 - 편 의 점","category":"other"}]},{"lat":"37.275406721","long":"127.00344573","imageIndex":17,"items":[{"name":"GS25팔달고등점","tel":"","addr":"경기도 수원시 팔달구 고등동 51-15번지 1층","indutype":"유통업 영리 - 편 의 점","category":"other"}]},{"lat":"37.276677131","long":"127.00597141","imageIndex":17,"items":[{"name":"STUNE","tel":"02-3280-7093","addr":"경기도 수원시 팔달구 고등동 10-5번지 1층","indutype":"회원제형태 - 기타3","category":"other"}]},{"lat":"37.273100072","long":"127.00500163","imageIndex":17,"items":[{"name":"TNHALLALFOODS","tel":"031-248-1090","addr":"경기도 수원시 팔달구 고등동 57-19번지 1호","indutype":"신변잡화 - 기타잡화","category":"other"}]},{"lat":"37.270901561","long":"127.00511431","imageIndex":17,"items":[{"name":"경기광고","tel":"031-248-7887","addr":"경기도 수원시 팔달구 고등동 112-6번지","indutype":"용역 서비스 - 종합용역","category":"other"}]},{"lat":"37.276713123","long":"127.0074823","imageIndex":17,"items":[{"name":"경기교총웨딩하우스","tel":"031-256-0710","addr":"경기도 수원시 팔달구 고등동 42-98번지","indutype":"용역 서비스 - 혼례서비스","category":"other"},{"name":"사단법인경기도교원단체총연합회","tel":"031-269-2985","addr":"경기도 수원시 팔달구 고등동 42-98번지","indutype":"기타 - 기타 전문점","category":"other"}]},{"lat":"37.270766352","long":"127.00712116","imageIndex":17,"items":[{"name":"경동냉난방서비스","tel":"031-238-4882","addr":"경기도 수원시 팔달구 고등동 74-17번지","indutype":"용역 서비스 - 기타용역서비스","category":"other"}]},{"lat":"37.273289293","long":"127.00105546","imageIndex":17,"items":[{"name":"고등동주민자치위원회","tel":"031-228-7852","addr":"경기도 수원시 팔달구 고등동 153-1번지","indutype":"문화.취미 - 문화취미기타","category":"other"}]},{"lat":"37.276073428","long":"127.00647877","imageIndex":17,"items":[{"name":"과천전자","tel":"031-247-9880","addr":"경기도 수원시 팔달구 고등동 13-6번지 과천전자","indutype":"건축자재 - 조명기구","category":"other"}]},{"lat":"37.269901412","long":"127.00550889","imageIndex":17,"items":[{"name":"광고기획 태산","tel":"031-248-4520","addr":"경기도 수원시 팔달구 고등동 85-12번지","indutype":"건축자재 - 인테리어전문","category":"other"},{"name":"상신공업사","tel":"031-000-0000","addr":"경기도 수원시 팔달구 고등동 85-12번지","indutype":"건축자재 - 목재·석재·철물","category":"other"}]},{"lat":"37.273568597","long":"127.00547519","imageIndex":17,"items":[{"name":"광명전자","tel":"031-251-6885","addr":"경기도 수원시 팔달구 고등동 37-11번지","indutype":"수리서비스 - 가정용품수리","category":"other"}]},{"lat":"37.272568481","long":"127.00203637","imageIndex":17,"items":[{"name":"금성고등대리점","tel":"031-256-7800","addr":"경기도 수원시 팔달구 고등동 221-4번지","indutype":"전기제품 - 가전제품","category":"other"}]},{"lat":"37.271045725","long":"127.00517069","imageIndex":17,"items":[{"name":"금해여행사","tel":"031-245-8088","addr":"경기도 수원시 팔달구 고등동 112-3번지 1층 5호","indutype":"여행 - 관광여행","category":"other"}]},{"lat":"37.271379102","long":"127.00533982","imageIndex":17,"items":[{"name":"기쁨장식","tel":"031-254-5437","addr":"경기도 수원시 팔달구 고등동 66-13번지","indutype":"직물 - 카페트,커튼,천막,지물","category":"other"}]},{"lat":"37.273181163","long":"127.00509183","imageIndex":17,"items":[{"name":"깔끔이환경","tel":"031-247-7282","addr":"경기도 수원시 팔달구 고등동 57-8번지 102호","indutype":"용역 서비스 - 종합용역","category":"other"}]},{"lat":"37.271352079","long":"127.00494521","imageIndex":17,"items":[{"name":"냄새박사장수트램","tel":"031-1661-2835","addr":"경기도 수원시 팔달구 고등동 64-5번지","indutype":"용역 서비스 - 종합용역","category":"other"},{"name":"씨유수원수정점","tel":"031-258-9112","addr":"경기도 수원시 팔달구 고등동 64-5번지 1층","indutype":"유통업 영리 - 편 의 점","category":"other"}]},{"lat":"37.277902507","long":"127.00670436","imageIndex":17,"items":[{"name":"대륙정보통신","tel":"031-245-0965","addr":"경기도 수원시 팔달구 고등동 3-6번지 1층","indutype":"사무통신 - 통신기기","category":"other"}]},{"lat":"37.271487239","long":"127.00456188","imageIndex":17,"items":[{"name":"더블루","tel":"070-8235-7453","addr":"경기도 수원시 팔달구 고등동 64-18번지","indutype":"전기제품 - 기타전기제품","category":"other"},{"name":"희망공업사","tel":"031-257-5064","addr":"경기도 수원시 팔달구 고등동 64-18번지 1층","indutype":"건축자재 - 인테리어전문","category":"other"}]},{"lat":"37.272649575","long":"127.00228441","imageIndex":17,"items":[{"name":"덕산ENG","tel":"031-8262-5006","addr":"경기도 수원시 팔달구 고등동 104-3번지 1층","indutype":"용역 서비스 - 기타용역서비스","category":"other"}]},{"lat":"37.273541529","long":"127.00683944","imageIndex":17,"items":[{"name":"도담터","tel":"031-225-2300","addr":"경기도 수원시 팔달구 고등동 36-17번지","indutype":"건축자재 - 인테리어전문","category":"other"}]},{"lat":"37.271379053","long":"127.00708737","imageIndex":17,"items":[{"name":"동풍낚시용품매점 (수원점)","tel":"","addr":"경기도 수원시 팔달구 고등동 74-3번지 1층","indutype":"레져용품 - 스포츠·레져용품","category":"other"}]},{"lat":"37.275073332","long":"127.00447176","imageIndex":17,"items":[{"name":"디셈","tel":"031-486-9005","addr":"경기도 수원시 팔달구 고등동 52-1번지 1층 102호","indutype":"용역 서비스 - 종합용역","category":"other"},{"name":"디셈","tel":"02-1599-5137","addr":"경기도 수원시 팔달구 고등동 52-1번지 1층 102호","indutype":"용역 서비스 - 종합용역","category":"other"}]},{"lat":"37.271099806","long":"127.00209276","imageIndex":17,"items":[{"name":"디앤디한중문화교류원","tel":"070-4117-4522","addr":"경기도 수원시 팔달구 고등동 240-10번지","indutype":"여행 - 관광여행","category":"other"}]},{"lat":"37.270207783","long":"127.00156288","imageIndex":17,"items":[{"name":"디엔디 여행사","tel":"070-4175-4522","addr":"경기도 수원시 팔달구 고등동 300번지 1층 3호","indutype":"여행 - 관광여행","category":"other"}]},{"lat":"37.274649827","long":"127.00564435","imageIndex":17,"items":[{"name":"디자인스케치","tel":"031-618-7226","addr":"경기도 수원시 팔달구 고등동 45-18번지 지층","indutype":"건축자재 - 인테리어전문","category":"other"}]},{"lat":"37.271874686","long":"127.0015854","imageIndex":17,"items":[{"name":"디자인올다","tel":"02-717-9907","addr":"경기도 수원시 팔달구 고등동 224-5번지 1층 외곽","indutype":"용역 서비스 - 사무서비스","category":"other"}]},{"lat":"37.276460869","long":"127.00653516","imageIndex":17,"items":[{"name":"디지털종합전자마트","tel":"031-245-5002","addr":"경기도 수원시 팔달구 고등동 13-8번지","indutype":"전기제품 - 가전제품","category":"other"},{"name":"선진광고","tel":"031-252-8775","addr":"경기도 수원시 팔달구 고등동 13-8번지","indutype":"건축자재 - 인테리어전문","category":"other"}]},{"lat":"37.270685331","long":"127.00186728","imageIndex":17,"items":[{"name":"마이유 포토죤","tel":"031-232-5737","addr":"경기도 수원시 팔달구 고등동 241-6번지","indutype":"광학제품 - 사진관","category":"other"}]},{"lat":"37.272154012","long":"127.00292707","imageIndex":17,"items":[{"name":"맘 삭스","tel":"031-1111-1111","addr":"경기도 수원시 팔달구 고등동 97-35번지","indutype":"신변잡화 - 기타잡화","category":"other"}]},{"lat":"37.274820962","long":"127.00756111","imageIndex":17,"items":[{"name":"매산철물","tel":"031-256-9210","addr":"경기도 수원시 팔달구 고등동 16-20번지 그린캐슬 504호","indutype":"건축자재 - 목재·석재·철물","category":"other"}]},{"lat":"37.278344068","long":"127.00380657","imageIndex":17,"items":[{"name":"매일공인중개사사무소","tel":"031-245-3369","addr":"경기도 수원시 팔달구 고등동 6-3번지 1층","indutype":"용역 서비스 - 부동산 중개·임대","category":"other"}]},{"lat":"37.271072763","long":"127.00105551","imageIndex":17,"items":[{"name":"목공방수리수리다수리","tel":"031-243-7243","addr":"경기도 수원시 팔달구 고등동 235-2번지 1층","indutype":"가구 - 일반가구","category":"other"}]},{"lat":"37.273956065","long":"127.00367122","imageIndex":17,"items":[{"name":"무림건축","tel":"031-254-7200","addr":"경기도 수원시 팔달구 고등동 54-6 1층우측","indutype":"용역 서비스 - 기타용역서비스","category":"other"}]},{"lat":"37.271180895","long":"127.0040658","imageIndex":17,"items":[{"name":"미건","tel":"031-242-5283","addr":"경기도 수원시 팔달구 고등동 113-11번지","indutype":"회원제형태 - 기타4","category":"other"}]},{"lat":"37.269685174","long":"127.00505791","imageIndex":17,"items":[{"name":"미니스톱수원고등점","tel":"031-426-3992","addr":"경기도 수원시 팔달구 고등동 85-11번지","indutype":"유통업 영리 - 편 의 점","category":"other"}]},{"lat":"37.274343508","long":"127.00355847","imageIndex":17,"items":[{"name":"백가네","tel":"","addr":"경기도 수원시 팔달구 고등동 53-5번지","indutype":"유통업 영리 - 편 의 점","category":"other"}]},{"lat":"37.274073153","long":"127.006287","imageIndex":17,"items":[{"name":"백마천막사","tel":"031-244-6941","addr":"경기도 수원시 팔달구 고등동 30-14번지","indutype":"직물 - 카페트,커튼,천막,지물","category":"other"}]},{"lat":"37.273739781","long":"127.00594874","imageIndex":17,"items":[{"name":"부부장식","tel":"031-243-3904","addr":"경기도 수원시 팔달구 고등동 37-1번지","indutype":"건축자재 - 인테리어전문","category":"other"}]},{"lat":"37.275154299","long":"127.00856461","imageIndex":17,"items":[{"name":"사진사랑","tel":"031-248-6801","addr":"경기도 수원시 팔달구 고등동 42-85번지 경기도청 연금매점 1층 사진사랑","indutype":"광학제품 - 사진관","category":"other"}]},{"lat":"37.272262095","long":"127.00594868","imageIndex":17,"items":[{"name":"삼보농축수산물","tel":"031-251-1999","addr":"경기도 수원시 팔달구 고등동 67-11번지","indutype":"기타 - 기계공구","category":"other"}]},{"lat":"37.271379115","long":"127.00122462","imageIndex":17,"items":[{"name":"삼성유통","tel":"031-893-6934","addr":"경기도 수원시 팔달구 고등동 237-1번지 1층","indutype":"신변잡화 - 액세서리","category":"other"}]},{"lat":"37.271685449","long":"127.00547512","imageIndex":17,"items":[{"name":"삼성하우스","tel":"033-761-0409","addr":"경기도 수원시 팔달구 고등동 66-4번지","indutype":"건축자재 - 인테리어전문","category":"other"}]},{"lat":"37.270261795","long":"127.00655741","imageIndex":17,"items":[{"name":"삼화인쇄소","tel":"031-242-0600","addr":"경기도 수원시 팔달구 고등동 81-8번지 1층","indutype":"서적문구 - 출판 및 인쇄물","category":"other"},{"name":"세탁나라(세탁소)","tel":"031-252-6747","addr":"경기도 수원시 팔달구 고등동 81-8","indutype":"수리서비스 - 세탁소","category":"other"}]},{"lat":"37.277767412","long":"127.00361488","imageIndex":17,"items":[{"name":"상일유리","tel":"031-243-5659","addr":"경기도 수원시 팔달구 고등동 7-5","indutype":"건축자재 - 유리","category":"other"}]},{"lat":"37.273018846","long":"127.00889142","imageIndex":17,"items":[{"name":"선우","tel":"031-255-6116","addr":"경기도 수원시 팔달구 고등동 61-39번지 1층","indutype":"신변잡화 - 기타잡화","category":"other"}]},{"lat":"37.270045568","long":"127.00586967","imageIndex":17,"items":[{"name":"세무법인 오현 수원1지점","tel":"031-245-4800","addr":"경기도 수원시 팔달구 고등동 81-12번지 3층","indutype":"용역 서비스 - 법률회계서비스(법인)","category":"other"}]},{"lat":"37.275541839","long":"127.00586989","imageIndex":17,"items":[{"name":"세진미디어","tel":"031-224-8872","addr":"경기도 수원시 팔달구 고등동 46-26번지 건우빌라 202호","indutype":"용역 서비스 - 종합용역","category":"other"}]},{"lat":"37.271261969","long":"127.00528344","imageIndex":17,"items":[{"name":"세탁마을","tel":"031-255-5531","addr":"경기도 수원시 팔달구 고등동 66-14번지","indutype":"수리서비스 - 세탁소","category":"other"}]},{"lat":"37.270874537","long":"127.00103296","imageIndex":17,"items":[{"name":"수원VIP실버케어","tel":"031-254-5077","addr":"경기도 수원시 팔달구 고등동 235-4번지 (1층101,102,104호2층전체,3층전체)","indutype":"기타의료기관 - 기타의료기관 및 기타","category":"other"}]},{"lat":"37.271793531","long":"127.0069521","imageIndex":17,"items":[{"name":"수원냉동중고가전","tel":"031-255-7253","addr":"경기도 수원시 팔달구 고등동 71-18","indutype":"수리서비스 - 가정용품수리","category":"other"}]},{"lat":"37.271180886","long":"127.00475354","imageIndex":17,"items":[{"name":"수원반도전자","tel":"031-242-0004","addr":"경기도 수원시 팔달구 고등동 113-23번지","indutype":"전기제품 - 기타전기제품","category":"other"}]},{"lat":"37.271685468","long":"127.0014501","imageIndex":17,"items":[{"name":"수원역푸르지오자이대화컨설팅","tel":"031-252-8254","addr":"경기도 수원시 팔달구 고등동 238-27번지","indutype":"용역 서비스 - 사무서비스","category":"other"}]},{"lat":"37.275785095","long":"127.00663661","imageIndex":17,"items":[{"name":"수원열쇠친구","tel":"031-238-1312","addr":"경기도 수원시 팔달구 고등동 13-5번지 태광빌라트 A동 201호","indutype":"기타 - 기계공구","category":"other"}]},{"lat":"37.275289589","long":"127.00292707","imageIndex":17,"items":[{"name":"수원천막,판넬기업","tel":"031-253-6600","addr":"경기도 수원시 팔달구 고등동 139-14번지 상가1.2호","indutype":"직물 - 카페트,커튼,천막,지물","category":"other"},{"name":"큰대명","tel":"031-244-9085","addr":"경기도 수원시 팔달구 고등동 139-14번지","indutype":"용역 서비스 - 종합용역","category":"other"}]},{"lat":"37.275514837","long":"127.00428009","imageIndex":17,"items":[{"name":"수원털실총판","tel":"031-252-9922","addr":"경기도 수원시 팔달구 고등동 51-29 선일빌라 B01 14/5","indutype":"직물 - 침구·수예점","category":"other"}]},{"lat":"37.272487388","long":"127.00192363","imageIndex":17,"items":[{"name":"수호천사","tel":"031-246-1413","addr":"경기도 수원시 팔달구 고등동 221-7번지","indutype":"기타 - 기계공구","category":"other"}]},{"lat":"37.278344048","long":"127.00528367","imageIndex":17,"items":[{"name":"스마일문구","tel":"031-244-2608","addr":"경기도 수원시 팔달구 고등동 5-11","indutype":"서적문구 - 문구용품","category":"other"}]},{"lat":"37.27443361","long":"127.0035923","imageIndex":17,"items":[{"name":"스튜디오 미르","tel":"031-244-9732","addr":"경기도 수원시 팔달구 고등동 53-27번지","indutype":"건축자재 - 인테리어전문","category":"other"}]},{"lat":"37.273433465","long":"127.00408838","imageIndex":17,"items":[{"name":"스튜디오사랑이야기","tel":"031-222-7740","addr":"경기도 수원시 팔달구 고등동 55-6번지","indutype":"광학제품 - 사진관","category":"other"}]},{"lat":"37.272982957","long":"127.00302855","imageIndex":17,"items":[{"name":"시민중고","tel":"031-207-8050","addr":"경기도 수원시 팔달구 고등동 108번지","indutype":"수리서비스 - 기타수리서비스","category":"other"}]},{"lat":"37.275379685","long":"127.00411096","imageIndex":17,"items":[{"name":"시온냉동","tel":"070-8945-3650","addr":"경기도 수원시 팔달구 고등동 51-36번지 C동 03호","indutype":"수리서비스 - 가정용품수리","category":"other"}]},{"lat":"37.272712603","long":"127.00617419","imageIndex":17,"items":[{"name":"신성공업사","tel":"031-247-6679","addr":"경기도 수원시 팔달구 고등동 67-5번지","indutype":"건축자재 - 보일러·펌프·샷시","category":"other"}]},{"lat":"37.274541686","long":"127.00630957","imageIndex":17,"items":[{"name":"신용철물설비","tel":"031-245-9604","addr":"경기도 수원시 팔달구 고등동 30-9번지","indutype":"건축자재 - 목재·석재·철물","category":"other"}]},{"lat":"37.269874397","long":"127.00461822","imageIndex":17,"items":[{"name":"싱크퓨어 화성동탄대리점","tel":"031-291-3666","addr":"경기도 수원시 팔달구 고등동 86-3번지 4층 514호","indutype":"회원제형태 - 기타3","category":"other"},{"name":"이명호법무사사무소","tel":"031-244-5700","addr":"경기도 수원시 팔달구 고등동 86-3번지 310호","indutype":"용역 서비스 - 법률회계서비스(개인)","category":"other"},{"name":"주식회사 골드스탁","tel":"031-244-5945","addr":"경기도 수원시 팔달구 고등동 86-3번지 4층 506호","indutype":"건축자재 - 기타건축자재","category":"other"}]},{"lat":"37.278298956","long":"127.00678331","imageIndex":17,"items":[{"name":"씨유경기도청점","tel":"031-243-1251","addr":"경기도 수원시 팔달구 고등동 3-5번지 성원타운 가동 101호","indutype":"유통업 영리 - 편 의 점","category":"other"}]},{"lat":"37.274010128","long":"127.00342317","imageIndex":17,"items":[{"name":"씨유수원고등점","tel":"031-245-9208","addr":"경기도 수원시 팔달구 고등동 122-3번지 1층","indutype":"유통업 영리 - 편 의 점","category":"other"}]},{"lat":"37.270324912","long":"127.00122464","imageIndex":17,"items":[{"name":"씨유수원럭키점","tel":"031-256-1178","addr":"경기도 수원시 팔달구 고등동 263-6번지","indutype":"유통업 영리 - 편 의 점","category":"other"}]},{"lat":"37.277271766","long":"127.00732448","imageIndex":17,"items":[{"name":"아리아꽃예술원(ARIA Floristik Kunst)","tel":"031-258-3536","addr":"경기도 수원시 팔달구 고등동 42-106번지 원평스위트빌 A동 1층 101호","indutype":"문화.취미 - 화원","category":"other"},{"name":"아리아팜","tel":"031-258-3536","addr":"경기도 수원시 팔달구 고등동 42-106번지 원평스위트빌 A동 1층 101호","indutype":"문화.취미 - 화원","category":"other"}]},{"lat":"37.271712506","long":"127.00355845","imageIndex":17,"items":[{"name":"아바타","tel":"031-258-7771","addr":"경기도 수원시 팔달구 고등동 91-15번지 혜성빌라 1동 302호","indutype":"신변잡화 - 신발","category":"other"}]},{"lat":"37.270351953","long":"127.00217169","imageIndex":17,"items":[{"name":"아이비스테이","tel":"031-246-7799","addr":"경기도 수원시 팔달구 고등동 303-3번지 외1필지","indutype":"유통업 영리 - 편 의 점","category":"other"}]},{"lat":"37.272820725","long":"127.00623057","imageIndex":17,"items":[{"name":"아이티리페어","tel":"070-8289-8253","addr":"경기도 수원시 팔달구 고등동 67-4번지 1층","indutype":"수리서비스 - 사무·통신기기수리","category":"other"}]},{"lat":"37.273352377","long":"127.00353591","imageIndex":17,"items":[{"name":"아주철물","tel":"031-257-4950","addr":"경기도 수원시 팔달구 고등동 126-3번지","indutype":"전기제품 - 기타전기제품","category":"other"}]},{"lat":"37.272180973","long":"127.00695212","imageIndex":17,"items":[{"name":"아크릴마당","tel":"031-247-3900","addr":"경기도 수원시 팔달구 고등동 63-7번지","indutype":"용역 서비스 - 종합용역","category":"other"}]},{"lat":"37.271316026","long":"127.00553148","imageIndex":17,"items":[{"name":"에듀원","tel":"","addr":"경기도 수원시 팔달구 고등동 66-16번지 202호","indutype":"서적문구 - 기타서적문구","category":"other"}]},{"lat":"37.273983064","long":"127.00575707","imageIndex":17,"items":[{"name":"에스와이컴퍼니 (SY Company)","tel":"","addr":"경기도 수원시 팔달구 고등동 45-25번지","indutype":"용역 서비스 - 기타용역서비스","category":"other"}]},{"lat":"37.273820912","long":"127.00342317","imageIndex":17,"items":[{"name":"에어컨라인","tel":"031-257-0082","addr":"경기도 수원시 팔달구 고등동 124-2번지 101호","indutype":"전기제품 - 냉열기기","category":"other"},{"name":"태성냉난방프라자","tel":"070-8281-7761","addr":"경기도 수원시 팔달구 고등동 124-2번지 1층 103호","indutype":"전기제품 - 냉열기기","category":"other"}]},{"lat":"37.275316586","long":"127.0057233","imageIndex":17,"items":[{"name":"에코컬러 (Eco-Color)실내건축","tel":"031-893-9008","addr":"경기도 수원시 팔달구 고등동 46-32번지 1층 101호","indutype":"용역 서비스 - 기타용역서비스","category":"other"}]},{"lat":"37.273208164","long":"127.00634333","imageIndex":17,"items":[{"name":"엘지냉동공조","tel":"031-252-6838","addr":"경기도 수원시 팔달구 고등동 70-12번지","indutype":"전기제품 - 냉열기기","category":"other"},{"name":"오거리공인중개사사무소","tel":"031-265-3652","addr":"경기도 수원시 팔달구 고등동 70-12","indutype":"용역 서비스 - 부동산 중개·임대","category":"other"}]},{"lat":"37.273595653","long":"127.00375014","imageIndex":17,"items":[{"name":"영동장식","tel":"031-244-4698","addr":"경기도 수원시 팔달구 고등동 55-3번지","indutype":"직물 - 카페트,커튼,천막,지물","category":"other"}]},{"lat":"37.273262276","long":"127.00250991","imageIndex":17,"items":[{"name":"영애견","tel":"031-251-2007","addr":"경기도 수원시 팔달구 고등동 107-11번지","indutype":"문화.취미 - 애완동물","category":"other"}]},{"lat":"37.277623228","long":"127.00060433","imageIndex":17,"items":[{"name":"영재종합기획","tel":"031-233-3693","addr":"경기도 수원시 팔달구 고등동 179-23번지 대동그린빌 B동 202호","indutype":"용역 서비스 - 사무서비스","category":"other"}]},{"lat":"37.275902287","long":"127.00308493","imageIndex":17,"items":[{"name":"영희네세탁소","tel":"031-255-5301","addr":"경기도 수원시 팔달구 고등동 167-5번지","indutype":"수리서비스 - 세탁소","category":"other"}]},{"lat":"37.272460297","long":"127.00678301","imageIndex":17,"items":[{"name":"예인냉난방시스템","tel":"031-215-2747","addr":"경기도 수원시 팔달구 고등동 65-6번지 1층","indutype":"용역 서비스 - 기타용역서비스","category":"other"}]},{"lat":"37.276154575","long":"127.0031413","imageIndex":17,"items":[{"name":"오뚜기문구,서점","tel":"031-256-7461","addr":"경기도 수원시 팔달구 고등동 167-30번지","indutype":"서적문구 - 일반서적","category":"other"}]},{"lat":"37.272685615","long":"127.00205892","imageIndex":17,"items":[{"name":"오렌지공인중개사사무소","tel":"031-252-8666","addr":"경기도 수원시 팔달구 고등동 221-3번지","indutype":"용역 서비스 - 부동산 중개·임대","category":"other"}]},{"lat":"37.279596437","long":"127.00674955","imageIndex":17,"items":[{"name":"우주(WOO JOO)POS SYSTEM","tel":"02-1599-9181","addr":"경기도 수원시 팔달구 고등동 1-6번지 3층","indutype":"사무통신 - 통신기기","category":"other"},{"name":"유프로덕션","tel":"070-4028-2419","addr":"경기도 수원시 팔달구 고등동 1-6번지 2층","indutype":"기타 - 기타 전문점","category":"other"}]},{"lat":"37.27212692","long":"127.00667025","imageIndex":17,"items":[{"name":"유명패션할인매장","tel":"031-256-8744","addr":"경기도 수원시 팔달구 고등동 69-8번지","indutype":"의류 - 정장","category":"other"}]},{"lat":"37.272739654","long":"127.00536241","imageIndex":17,"items":[{"name":"윤성종합인쇄공사","tel":"031-254-6092","addr":"경기도 수원시 팔달구 고등동 58-2번지","indutype":"서적문구 - 출판 및 인쇄물","category":"other"}]},{"lat":"37.274316476","long":"127.0037276","imageIndex":17,"items":[{"name":"이로운공조","tel":"","addr":"경기도 수원시 팔달구 고등동 53-25번지 그린나래 302호","indutype":"용역 서비스 - 기타용역서비스","category":"other"}]},{"lat":"37.274433612","long":"127.00272412","imageIndex":17,"items":[{"name":"인알토디자인","tel":"070-7749-4415","addr":"경기도 수원시 팔달구 고등동 143-1번지 서현빌딩 2층 2호","indutype":"서적문구 - 출판 및 인쇄물","category":"other"},{"name":"카페24창업센터 수원점","tel":"031-214-7777","addr":"경기도 수원시 팔달구 고등동 143-1번지","indutype":"회원제형태 - 사무서비스","category":"other"}]},{"lat":"37.272154011","long":"127.00333296","imageIndex":17,"items":[{"name":"자연기획","tel":"031-254-6717","addr":"경기도 수원시 팔달구 고등동 97-4번지","indutype":"용역 서비스 - 종합용역","category":"other"}]},{"lat":"37.272072847","long":"127.00703103","imageIndex":17,"items":[{"name":"전원화원","tel":"031-247-2822","addr":"경기도 수원시 팔달구 고등동 63-8번지","indutype":"문화.취미 - 화원","category":"other"}]},{"lat":"37.271739471","long":"127.00689572","imageIndex":17,"items":[{"name":"주식회사 노마세야컴퍼니","tel":"031-1661-5019","addr":"경기도 수원시 팔달구 고등동 71-17번지 2층","indutype":"용역 서비스 - 사무서비스","category":"other"},{"name":"천마산업이엔지","tel":"031-258-0040","addr":"경기도 수원시 팔달구 고등동 71-17번지 1층","indutype":"용역 서비스 - 기타용역서비스","category":"other"}]},{"lat":"37.275568894","long":"127.00467472","imageIndex":17,"items":[{"name":"진 시스템 공조","tel":"070-5043-3349","addr":"경기도 수원시 팔달구 고등동 50-4번지 대림빌라 302호","indutype":"전기제품 - 가전제품","category":"other"}]},{"lat":"37.274208306","long":"127.00630956","imageIndex":17,"items":[{"name":"청솔공사","tel":"031-255-4079","addr":"경기도 수원시 팔달구 고등동 30-13 1층오른쪽","indutype":"건축자재 - 보일러·펌프·샷시","category":"other"}]},{"lat":"37.272045857","long":"127.00561043","imageIndex":17,"items":[{"name":"케이엠꽃배달","tel":"031-242-4078","addr":"경기도 수원시 팔달구 고등동 66-7번지 403호","indutype":"문화.취미 - 화원","category":"other"}]},{"lat":"37.273541534","long":"127.00667032","imageIndex":17,"items":[{"name":"크린워터 경기총판","tel":"031-226-2141","addr":"경기도 수원시 팔달구 고등동 36-14번지","indutype":"전기제품 - 가전제품","category":"other"}]},{"lat":"37.278461154","long":"127.00636613","imageIndex":17,"items":[{"name":"크린위드(경기도청점)","tel":"031-258-2558","addr":"경기도 수원시 팔달구 고등동 4-1번지 가온빌 A동 1층","indutype":"수리서비스 - 세탁소","category":"other"}]},{"lat":"37.270541136","long":"127.000007","imageIndex":17,"items":[{"name":"트레덕트","tel":"","addr":"경기도 수원시 팔달구 고등동 227-7번지 엘로이빌딩 1층","indutype":"신변잡화 - 가방","category":"other"}]},{"lat":"37.271514209","long":"127.007031","imageIndex":17,"items":[{"name":"팔팔인쇄사","tel":"031-242-6982","addr":"경기도 수원시 팔달구 고등동 74-29번지","indutype":"서적문구 - 출판 및 인쇄물","category":"other"}]},{"lat":"37.274046132","long":"127.0059262","imageIndex":17,"items":[{"name":"하늘문구완구","tel":"031-254-1116","addr":"경기도 수원시 팔달구 고등동 45-23번지 1층","indutype":"서적문구 - 문구용품","category":"other"}]},{"lat":"37.279263057","long":"127.00674954","imageIndex":17,"items":[{"name":"한국노무법인경기지사","tel":"031-252-5141","addr":"경기도 수원시 팔달구 고등동 1-13번지","indutype":"용역 서비스 - 법률회계서비스(법인)","category":"other"},{"name":"한통인쇄기획","tel":"031-252-9414","addr":"경기도 수원시 팔달구 고등동 1-13번지","indutype":"서적문구 - 출판 및 인쇄물","category":"other"}]},{"lat":"37.271234957","long":"127.00173198","imageIndex":17,"items":[{"name":"한길테크","tel":"031-258-9533","addr":"경기도 수원시 팔달구 고등동 239-5","indutype":"용역 서비스 - 기타용역서비스","category":"other"}]},{"lat":"37.272379264","long":"127.0018898","imageIndex":17,"items":[{"name":"행복한교회","tel":"031-244-1146","addr":"경기도 수원시 팔달구 고등동 221-6번지 2층","indutype":"용역 서비스 - 사무서비스","category":"other"}]},{"lat":"37.276235568","long":"127.00775288","imageIndex":17,"items":[{"name":"현장소통","tel":"031-8013-9499","addr":"경기도 수원시 팔달구 고등동 16-29번지","indutype":"수리서비스 - 가정용품수리","category":"other"}]},{"lat":"37.272874833","long":"127.00228441","imageIndex":17,"items":[{"name":"형제전기조명","tel":"031-247-8494","addr":"경기도 수원시 팔달구 고등동 105-6번지","indutype":"전기제품 - 기타전기제품","category":"other"}]},{"lat":"37.273649621","long":"127.00767379","imageIndex":17,"items":[{"name":"호두","tel":"031-242-0201","addr":"경기도 수원시 팔달구 고등동 36-1번지","indutype":"문화.취미 - 민예·공예품","category":"other"}]}]