[{"lat":"37.728065426","long":"126.73407789","imageIndex":13,"items":[{"name":"(JJ)골프","tel":"031-946-0754","addr":"경기도 파주시 목동동 945번지","indutype":"레저업소 - 스크린골프","category":"leisure"},{"name":"WTMA특공무술MMA킥복싱","tel":"031-942-8997","addr":"경기도 파주시 목동동 945번지","indutype":"레저업소 - 헬스클럽","category":"leisure"},{"name":"바른몸연구소","tel":"070-8717-6487","addr":"경기도 파주시 목동동 945번지","indutype":"레저업소 - 헬스클럽","category":"leisure"},{"name":"팝&콘 (pop&con)","tel":"031-000-0000","addr":"경기도 파주시 목동동 945번지","indutype":"레저업소 - 노 래 방","category":"leisure"}]},{"lat":"37.728067956","long":"126.73518953","imageIndex":13,"items":[{"name":"7당구클럽","tel":"","addr":"경기도 파주시 목동동 939-2번지","indutype":"레저업소 - 당 구 장","category":"leisure"},{"name":"시네마5 PC방","tel":"","addr":"경기도 파주시 목동동 939-2번지","indutype":"레저업소 - 기타레져업소","category":"leisure"},{"name":"유주요가","tel":"031-944-3721","addr":"경기도 파주시 목동동 939-2번지","indutype":"레저업소 - 헬스클럽","category":"leisure"},{"name":"정글짐 클라이밍센터","tel":"031-949-0570","addr":"경기도 파주시 목동동 939-2번지","indutype":"레저업소 - 기타레져업소","category":"leisure"}]},{"lat":"37.729176045","long":"126.73515151","imageIndex":13,"items":[{"name":"DCTRUE 복싱 크로스핏","tel":"031-946-2212","addr":"경기도 파주시 목동동 935-1번지","indutype":"레저업소 - 헬스클럽","category":"leisure"},{"name":"더 텐 피시 카페(The Ten PC Cafe)","tel":"070-6789-5167","addr":"경기도 파주시 목동동 935-1번지","indutype":"레저업소 - 기타레져업소","category":"leisure"}]},{"lat":"37.727868716","long":"126.73473652","imageIndex":13,"items":[{"name":"SNPE 파주센터","tel":"031-941-5476","addr":"경기도 파주시 목동동 939-3번지","indutype":"레저업소 - 헬스클럽","category":"leisure"}]},{"lat":"37.727678587","long":"126.73432884","imageIndex":13,"items":[{"name":"골프앤펍(Golf & Pub)","tel":"070-7793-0753","addr":"경기도 파주시 목동동 939-4번지","indutype":"레저업소 - 스크린골프","category":"leisure"},{"name":"골프의신때갱이 주식회사","tel":"0505-753-0753","addr":"경기도 파주시 목동동 939-4번지","indutype":"레저업소 - 골프연습장","category":"leisure"},{"name":"주식회사 짐원휘트니스","tel":"031-946-9676","addr":"경기도 파주시 목동동 939-4번지","indutype":"레저업소 - 헬스클럽","category":"leisure"},{"name":"타워 스크린 골프","tel":"031-943-0753","addr":"경기도 파주시 목동동 939-4번지","indutype":"레저업소 - 스크린골프","category":"leisure"}]},{"lat":"37.735673998","long":"126.74007433","imageIndex":13,"items":[{"name":"교하 스카이 승마장","tel":"031-941-9455","addr":"경기도 파주시 목동동 415-71번지","indutype":"레저업소 - 기타레져업소","category":"leisure"}]},{"lat":"37.718927813","long":"126.73720727","imageIndex":13,"items":[{"name":"긱스타 피씨 카페(GEEK STAR PC CAFE)","tel":"070-3441-1097","addr":"경기도 파주시 목동동 1136-1번지","indutype":"레저업소 - 기타레져업소","category":"leisure"}]},{"lat":"37.723817922","long":"126.74029771","imageIndex":13,"items":[{"name":"나나짐PT스튜디오","tel":"","addr":"경기도 파주시 목동동 1054-3번지","indutype":"레저업소 - 헬스클럽","category":"leisure"},{"name":"라라라본","tel":"","addr":"경기도 파주시 목동동 1054-3번지","indutype":"레저업소 - 기타레져업소","category":"leisure"}]},{"lat":"37.729014132","long":"126.73526553","imageIndex":13,"items":[{"name":"나인노래연습장","tel":"031-945-8039","addr":"경기도 파주시 목동동 935번지","indutype":"레저업소 - 노 래 방","category":"leisure"},{"name":"피지컬 PT 스튜디오","tel":"03-111-1111","addr":"경기도 파주시 목동동 935번지","indutype":"레저업소 - 헬스클럽","category":"leisure"}]},{"lat":"37.71845207","long":"126.73799156","imageIndex":13,"items":[{"name":"나인홀 골프 스튜디오","tel":"031-941-8338","addr":"경기도 파주시 목동동 1134번지","indutype":"레저업소 - 골프연습장","category":"leisure"}]},{"lat":"37.72961823","long":"126.73546754","imageIndex":13,"items":[{"name":"노이 짐","tel":"031-943-0330","addr":"경기도 파주시 목동동 935-3번지","indutype":"레저업소 - 헬스클럽","category":"leisure"},{"name":"롤러랜드","tel":"031-941-4919","addr":"경기도 파주시 목동동 935-3번지","indutype":"레저업소 - 기타레져업소","category":"leisure"}]},{"lat":"37.718702652","long":"126.7372421","imageIndex":13,"items":[{"name":"더함필라테스","tel":"031-947-4194","addr":"경기도 파주시 목동동 1136번지","indutype":"레저업소 - 헬스클럽","category":"leisure"}]},{"lat":"37.728537375","long":"126.73559621","imageIndex":13,"items":[{"name":"로하스","tel":"031-948-8853","addr":"경기도 파주시 목동동 933-2번지","indutype":"레저업소 - 헬스클럽","category":"leisure"},{"name":"리얼슈터실내양궁장","tel":"031-943-0060","addr":"경기도 파주시 목동동 933-2번지","indutype":"레저업소 - 기타레져업소","category":"leisure"},{"name":"모두코인노래연습장.만화방","tel":"031-949-4960","addr":"경기도 파주시 목동동 933-2번지","indutype":"레저업소 - 기타레져업소","category":"leisure"},{"name":"비비안필라테스","tel":"031-945-9906","addr":"경기도 파주시 목동동 933-2번지","indutype":"레저업소 - 헬스클럽","category":"leisure"},{"name":"스타당구클럽","tel":"","addr":"경기도 파주시 목동동 933-2번지","indutype":"레저업소 - 당 구 장","category":"leisure"}]},{"lat":"37.727761796","long":"126.73132257","imageIndex":13,"items":[{"name":"리스펙(Respect)","tel":"031-949-3344","addr":"경기도 파주시 목동동 911번지 산내마을3단지","indutype":"레저업소 - 헬스클럽","category":"leisure"}]},{"lat":"37.728540882","long":"126.73318004","imageIndex":13,"items":[{"name":"머슬팩토리","tel":"031-945-7909","addr":"경기도 파주시 목동동 947번지","indutype":"레저업소 - 헬스클럽","category":"leisure"}]},{"lat":"37.728735275","long":"126.73545937","imageIndex":13,"items":[{"name":"명품당구장","tel":"031-943-2727","addr":"경기도 파주시 목동동 933-3번지","indutype":"레저업소 - 당 구 장","category":"leisure"},{"name":"산내명품노래연습장","tel":"031-948-2233","addr":"경기도 파주시 목동동 933-3번지","indutype":"레저업소 - 노 래 방","category":"leisure"},{"name":"올벤PC방","tel":"","addr":"경기도 파주시 목동동 933-3번지","indutype":"레저업소 - 기타레져업소","category":"leisure"}]},{"lat":"37.719567385","long":"126.73715962","imageIndex":13,"items":[{"name":"베이스짐","tel":"031-1800-5110","addr":"경기도 파주시 목동동 1136-4번지","indutype":"레저업소 - 헬스클럽","category":"leisure"}]},{"lat":"37.728235001","long":"126.73337399","imageIndex":13,"items":[{"name":"봉봉키즈","tel":"031-948-7048","addr":"경기도 파주시 목동동 947-1번지","indutype":"레저업소 - 기타레져업소","category":"leisure"},{"name":"요가지반","tel":"","addr":"경기도 파주시 목동동 947-1번지","indutype":"레저업소 - 헬스클럽","category":"leisure"}]},{"lat":"37.728311005","long":"126.73509791","imageIndex":13,"items":[{"name":"비레브 스튜디오","tel":"","addr":"경기도 파주시 목동동 939-1번지","indutype":"레저업소 - 헬스클럽","category":"leisure"},{"name":"산내노래연습장","tel":"031-948-7755","addr":"경기도 파주시 목동동 939-1번지","indutype":"레저업소 - 노 래 방","category":"leisure"}]},{"lat":"37.719342148","long":"126.73716042","imageIndex":13,"items":[{"name":"산내당구클럽","tel":"031-923-8900","addr":"경기도 파주시 목동동 1136-3번지","indutype":"레저업소 - 당 구 장","category":"leisure"}]},{"lat":"37.723709252","long":"126.74004855","imageIndex":13,"items":[{"name":"슈퍼키즈스카이방방(목동동점)","tel":"031-943-1575","addr":"경기도 파주시 목동동 1054-2번지","indutype":"레저업소 - 기타레져업소","category":"leisure"}]},{"lat":"37.728757939","long":"126.73354225","imageIndex":13,"items":[{"name":"슬라블라","tel":"031-941-5822","addr":"경기도 파주시 목동동 949번지","indutype":"레저업소 - 기타레져업소","category":"leisure"}]},{"lat":"37.723482901","long":"126.73955027","imageIndex":13,"items":[{"name":"씨드요가","tel":"031-957-1188","addr":"경기도 파주시 목동동 1054번지","indutype":"레저업소 - 헬스클럽","category":"leisure"}]},{"lat":"37.727533401","long":"126.73387564","imageIndex":13,"items":[{"name":"윈골프아카데미","tel":"031-943-6030","addr":"경기도 파주시 목동동 941-1번지","indutype":"레저업소 - 스크린골프","category":"leisure"}]},{"lat":"37.728958683","long":"126.73465318","imageIndex":13,"items":[{"name":"주식회사 안다르 랩(ANDAR LAB Co.Ltd.)","tel":"031-942-0213","addr":"경기도 파주시 목동동 937-2번지","indutype":"레저업소 - 헬스클럽","category":"leisure"},{"name":"타임노래연습장","tel":"031-947-7044","addr":"경기도 파주시 목동동 937-2번지","indutype":"레저업소 - 노 래 방","category":"leisure"}]},{"lat":"37.729011473","long":"126.73409716","imageIndex":13,"items":[{"name":"코어짐","tel":"031-942-5222","addr":"경기도 파주시 목동동 937번지","indutype":"레저업소 - 헬스클럽","category":"leisure"}]},{"lat":"37.73129367","long":"126.73931843","imageIndex":13,"items":[{"name":"투어 스텔라","tel":"031-948-3038","addr":"경기도 파주시 목동동 114-37번지 산내마을8단지","indutype":"레저업소 - 골프연습장","category":"leisure"}]},{"lat":"37.730319097","long":"126.73862992","imageIndex":13,"items":[{"name":"패밀리키즈풀","tel":"","addr":"경기도 파주시 목동동 114-62번지","indutype":"레저업소 - 수 영 장","category":"leisure"}]}]