[{"lat":"37.775147455","long":"126.92019296","imageIndex":4,"items":[{"name":"h","tel":"031-111-1111","addr":"경기도 파주시 광탄면 기산리 516-8번지","indutype":"일반휴게음식 - 서양음식","category":"restaurant"}]},{"lat":"37.776395057","long":"126.91372164","imageIndex":4,"items":[{"name":"가야","tel":"031-946-7518","addr":"경기도 파주시 광탄면 기산리 567-1번지","indutype":"일반휴게음식 - 일반한식","category":"restaurant"}]},{"lat":"37.775900532","long":"126.91505026","imageIndex":4,"items":[{"name":"나드리국수집","tel":"070-8161-5678","addr":"경기도 파주시 광탄면 기산리 560번지","indutype":"일반휴게음식 - 일반한식","category":"restaurant"},{"name":"전라도밥상","tel":"031-948-9393","addr":"경기도 파주시 광탄면 기산리 560번지","indutype":"일반휴게음식 - 일반한식","category":"restaurant"}]},{"lat":"37.781454931","long":"126.90925441","imageIndex":4,"items":[{"name":"더 브릭하우스73 (The Brickhouse 73 cafe)","tel":"031-946-2224","addr":"경기도 파주시 광탄면 기산리 648번지","indutype":"일반휴게음식 - 서양음식","category":"restaurant"}]},{"lat":"37.775732423","long":"126.91927291","imageIndex":4,"items":[{"name":"산내들","tel":"031-948-5641","addr":"경기도 파주시 광탄면 기산리 502-5번지","indutype":"일반휴게음식 - 일반한식","category":"restaurant"}]},{"lat":"37.779897444","long":"126.91072069","imageIndex":4,"items":[{"name":"쇠장명가","tel":"031-957-0092","addr":"경기도 파주시 광탄면 기산리 577-1번지","indutype":"일반휴게음식 - 일반한식","category":"restaurant"}]},{"lat":"37.771899839","long":"126.91441939","imageIndex":4,"items":[{"name":"앵무봉참숯황토구이","tel":"031-947-2070","addr":"경기도 파주시 광탄면 기산리 544-9 외7필지","indutype":"일반휴게음식 - 일반한식","category":"restaurant"},{"name":"유진식당","tel":"031-948-6789","addr":"경기도 파주시 광탄면 기산리 544-9번지","indutype":"일반휴게음식 - 일반한식","category":"restaurant"}]},{"lat":"37.779811423","long":"126.92932556","imageIndex":4,"items":[{"name":"주식회사 진영씨엔씨 감사교육원점","tel":"031-323-5448","addr":"경기도 파주시 광탄면 기산리 산139-14번지","indutype":"일반휴게음식 - 위탁급식업","category":"restaurant"}]},{"lat":"37.77506656","long":"126.92046547","imageIndex":4,"items":[{"name":"착한쭝식","tel":"031-943-4881","addr":"경기도 파주시 광탄면 기산리 516-2번지","indutype":"일반휴게음식 - 중국식","category":"restaurant"}]},{"lat":"37.774561108","long":"126.91916072","imageIndex":4,"items":[{"name":"천하장사","tel":"031-947-7299","addr":"경기도 파주시 광탄면 기산리 520-1","indutype":"일반휴게음식 - 일반한식","category":"restaurant"}]},{"lat":"37.772979346","long":"126.92486033","imageIndex":4,"items":[{"name":"출렁다리국수","tel":"031-942-0027","addr":"경기도 파주시 광탄면 기산리 460-2번지","indutype":"일반휴게음식 - 스넥","category":"restaurant"}]},{"lat":"37.77550721","long":"126.91930722","imageIndex":4,"items":[{"name":"파주민물","tel":"031-948-4947","addr":"경기도 파주시 광탄면 기산리 502-6번지 나동","indutype":"일반휴게음식 - 일반한식","category":"restaurant"}]},{"lat":"37.776231524","long":"126.91193977","imageIndex":4,"items":[{"name":"필무드(fillmood)","tel":"","addr":"경기도 파주시 광탄면 기산리 570-1번지","indutype":"일반휴게음식 - 서양음식","category":"restaurant"}]},{"lat":"37.78623105","long":"126.91063336","imageIndex":4,"items":[{"name":"해든터","tel":"031-948-5544","addr":"경기도 파주시 광탄면 기산리 607번지","indutype":"일반휴게음식 - 일반한식","category":"restaurant"}]},{"lat":"37.775258481","long":"126.91191826","imageIndex":4,"items":[{"name":"황금유황장어","tel":"031-948-6396","addr":"경기도 파주시 광탄면 기산리 552","indutype":"일반휴게음식 - 일반한식","category":"restaurant"},{"name":"황금장어","tel":"031-948-6396","addr":"경기도 파주시 광탄면 기산리 552번지","indutype":"일반휴게음식 - 일반한식","category":"restaurant"}]}]