[{"lat":"36.981601566","long":"126.88077185","imageIndex":4,"items":[{"name":"개간지카페","tel":"031-682-8006","addr":"경기도 평택시 포승읍 방림리 54번지","indutype":"음식점 - 애견카페","category":"restaurant"},{"name":"개간지카페(GAEGANJI Cafe)","tel":"031-684-8678","addr":"경기도 평택시 포승읍 방림리 54번지 104호 103호,104호","indutype":"일반휴게음식 - 서양음식","category":"restaurant"},{"name":"유가네김밥","tel":"031-686-6068","addr":"경기도 평택시 포승읍 방림리 54번지 102호","indutype":"일반휴게음식 - 스넥","category":"restaurant"},{"name":"유가네김밥","tel":"031-686-6068","addr":"경기도 평택시 포승읍 방림리 54번지 102호","indutype":"일반휴게음식 - 일반한식","category":"restaurant"}]},{"lat":"36.981412283","long":"126.880716","imageIndex":4,"items":[{"name":"건강민물매운탕","tel":"031-681-0898","addr":"경기도 평택시 포승읍 방림리 54-3번지","indutype":"일반휴게음식 - 일반한식","category":"restaurant"}]},{"lat":"36.96785784","long":"126.88741927","imageIndex":4,"items":[{"name":"대덕식당","tel":"031-682-7789","addr":"경기도 평택시 포승읍 방림리 418-11번지","indutype":"일반휴게음식 - 일반한식","category":"restaurant"}]},{"lat":"36.982765622","long":"126.88240983","imageIndex":4,"items":[{"name":"대성식당","tel":"031-681-0124","addr":"경기도 평택시 포승읍 방림리 53-9","indutype":"일반휴게음식 - 일반한식","category":"restaurant"}]},{"lat":"36.981213967","long":"126.88063769","imageIndex":4,"items":[{"name":"박군치킨(방림점)","tel":"031-682-7292","addr":"경기도 평택시 포승읍 방림리 54-11번지 동아빌딩","indutype":"일반휴게음식 - 스넥","category":"restaurant"},{"name":"오구식당","tel":"031-681-0799","addr":"경기도 평택시 포승읍 방림리 54-11번지","indutype":"음식점 - 한식","category":"restaurant"},{"name":"오구식당","tel":"031-682-0755","addr":"경기도 평택시 포승읍 방림리 54-11번지 동아빌딩","indutype":"일반휴게음식 - 일반한식","category":"restaurant"},{"name":"지우네집","tel":"","addr":"경기도 평택시 포승읍 방림리 54-11번지","indutype":"음식점 - 한식","category":"restaurant"},{"name":"지우네집","tel":"031-681-2824","addr":"경기도 평택시 포승읍 방림리 54-11번지 동아빌딩","indutype":"일반휴게음식 - 일반한식","category":"restaurant"}]},{"lat":"36.983489072","long":"126.88499203","imageIndex":4,"items":[{"name":"이플","tel":"031-684-3194","addr":"경기도 평택시 포승읍 방림리 20-3번지 1층","indutype":"일반휴게음식 - 서양음식","category":"restaurant"}]},{"lat":"36.982855957","long":"126.88263433","imageIndex":4,"items":[{"name":"천안옛날호두과자(서평택점)","tel":"031-684-7342","addr":"경기도 평택시 포승읍 방림리 53-6번지","indutype":"일반휴게음식 - 일반한식","category":"restaurant"},{"name":"통돼지생구이","tel":"031-684-3882","addr":"경기도 평택시 포승읍 방림리 53-6번지","indutype":"일반휴게음식 - 일반한식","category":"restaurant"}]}]