[{"lat":"37.914634228","long":"127.3878112","imageIndex":16,"items":[{"name":"(주)오르비에듀","tel":"031-585-4422","addr":"경기도 가평군 조종면 상판리 80번지","indutype":"학원 - 보습학원","category":"study"},{"name":"청평비타에듀기숙학원","tel":"031-584-2258","addr":"경기도 가평군 조종면 상판리 80번지","indutype":"학원 - 보습학원","category":"study"}]},{"lat":"37.898164371","long":"127.36831788","imageIndex":16,"items":[{"name":"가평하늘커피농장","tel":"031-568-1238","addr":"경기도 가평군 조종면 상판리 437번지","indutype":"학원 - 기타 교육기관","category":"study"}]},{"lat":"37.91471953","long":"127.39200788","imageIndex":16,"items":[{"name":"코스모피아","tel":"031-585-0482","addr":"경기도 가평군 조종면 상판리 86번지","indutype":"학원 - 기타 교육기관","category":"study"}]},{"lat":"37.908972879","long":"127.38056109","imageIndex":5,"items":[{"name":"그린듯이 아름다운","tel":"031-8871-3866","addr":"경기도 가평군 조종면 상판리 147번지","indutype":"숙박업 - 여관/기타숙박업","category":"hotel"}]},{"lat":"37.88981106","long":"127.36886774","imageIndex":5,"items":[{"name":"까망봉다리","tel":"","addr":"경기도 가평군 조종면 상판리 338-6번지","indutype":"숙박업 - 여관/기타숙박업","category":"hotel"}]},{"lat":"37.902082571","long":"127.37434061","imageIndex":5,"items":[{"name":"꽃향기는","tel":"031-585-0992","addr":"경기도 가평군 조종면 상판리 477-3번지","indutype":"숙박업 - 여관/기타숙박업","category":"hotel"}]},{"lat":"37.903085729","long":"127.37619898","imageIndex":5,"items":[{"name":"노송민박","tel":"031-585-4311","addr":"경기도 가평군 조종면 상판리 222-3번지","indutype":"숙박업 - 여관/기타숙박업","category":"hotel"}]},{"lat":"37.909276266","long":"127.38147233","imageIndex":5,"items":[{"name":"다락펜션","tel":"031-527-0042","addr":"경기도 가평군 조종면 상판리 120-3번지","indutype":"숙박업 - 여관/기타숙박업","category":"hotel"}]},{"lat":"37.914219289","long":"127.38520488","imageIndex":5,"items":[{"name":"별바라기펜션","tel":"031-585-7616","addr":"경기도 가평군 조종면 상판리 141-5 12/3","indutype":"숙박업 - 여관/기타숙박업","category":"hotel"}]},{"lat":"37.913889014","long":"127.38425932","imageIndex":5,"items":[{"name":"인오캠핑장","tel":"031-585-0480","addr":"경기도 가평군 조종면 상판리 141-2번지","indutype":"숙박업 - 여관/기타숙박업","category":"hotel"}]},{"lat":"37.914137114","long":"127.38275951","imageIndex":5,"items":[{"name":"휘펜션","tel":"031-584-6263","addr":"경기도 가평군 조종면 상판리 143-1번지","indutype":"숙박업 - 여관/기타숙박업","category":"hotel"}]},{"lat":"37.902226107","long":"127.37453462","imageIndex":4,"items":[{"name":"꽃무지","tel":"031-585-0078","addr":"경기도 가평군 조종면 상판리 474-14번지","indutype":"일반휴게음식 - 일반한식","category":"restaurant"}]},{"lat":"37.903190734","long":"127.37717735","imageIndex":4,"items":[{"name":"반딧불","tel":"031-585-7744","addr":"경기도 가평군 조종면 상판리 223-8번지 반딧불가든","indutype":"일반휴게음식 - 일반한식","category":"restaurant"}]},{"lat":"37.90133538","long":"127.37128973","imageIndex":4,"items":[{"name":"산들바람","tel":"031-585-7536","addr":"경기도 가평군 조종면 상판리 467","indutype":"일반휴게음식 - 일반한식","category":"restaurant"}]},{"lat":"37.900940969","long":"127.37065105","imageIndex":4,"items":[{"name":"산천가든유원지","tel":"031-584-4035","addr":"경기도 가평군 조종면 상판리 445-1번지","indutype":"일반휴게음식 - 일반한식","category":"restaurant"}]},{"lat":"37.904778386","long":"127.3793685","imageIndex":4,"items":[{"name":"샘말식당","tel":"031-585-1543","addr":"경기도 가평군 조종면 상판리 185-14번지","indutype":"일반휴게음식 - 일반한식","category":"restaurant"}]},{"lat":"37.901142625","long":"127.37242575","imageIndex":7,"items":[{"name":"별바라기마을","tel":"031-585-3823","addr":"경기도 가평군 조종면 상판리 466-3번지","indutype":"음료식품 - 농·축·수산품","category":"food"},{"name":"별바라기마을","tel":"031-585-3823","addr":"경기도 가평군 조종면 상판리 466-3번지","indutype":"음료식품 - 농·축·수산품","category":"food"}]},{"lat":"37.901387025","long":"127.36917519","imageIndex":7,"items":[{"name":"제이유원지","tel":"031-585-3707","addr":"경기도 가평군 조종면 상판리 442-1번지","indutype":"음료식품 - 기타음료식품","category":"food"}]},{"lat":"37.885054157","long":"127.36886693","imageIndex":17,"items":[{"name":"보테코","tel":"031-585-3718","addr":"경기도 가평군 조종면 상판리 261-3","indutype":"회원제형태 - 기타4","category":"other"}]}]