[{"lat":"37.203880957","long":"126.98250455","imageIndex":0,"items":[{"name":"래드(RAD)","tel":"031-236-0930","addr":"경기도 화성시 봉담읍 수기리 1-74번지","indutype":"자동차정비 유지 - 자동차부품","category":"car"},{"name":"알에이디 디테일(RAD DETAIL)","tel":"","addr":"경기도 화성시 봉담읍 수기리 1-74번지 1-2호","indutype":"자동차정비 유지 - 세차장","category":"car"}]},{"lat":"37.200132795","long":"126.98345173","imageIndex":0,"items":[{"name":"렉카마트","tel":"031-297-6757","addr":"경기도 화성시 봉담읍 수기리 8-21","indutype":"자동차정비 유지 - 자동차정비","category":"car"}]},{"lat":"37.200384634","long":"126.98087222","imageIndex":0,"items":[{"name":"마이밴(MY VAN)","tel":"070-4649-1101","addr":"경기도 화성시 봉담읍 수기리 24-1번지","indutype":"자동차정비 유지 - 자동차부품","category":"car"}]},{"lat":"37.199465324","long":"126.97956588","imageIndex":0,"items":[{"name":"봉담오토서비스","tel":"031-267-0110","addr":"경기도 화성시 봉담읍 수기리 21-3번지","indutype":"자동차정비 유지 - 자동차정비","category":"car"}]},{"lat":"37.198941158","long":"126.97265011","imageIndex":0,"items":[{"name":"원 한솔","tel":"031-111-1111","addr":"경기도 화성시 봉담읍 수기리 74-7번지","indutype":"자동차정비 유지 - 자동차부품","category":"car"}]},{"lat":"37.197970364","long":"126.98384651","imageIndex":0,"items":[{"name":"원한솔자동차공업사","tel":"031-222-2305","addr":"경기도 화성시 봉담읍 수기리 11-37번지","indutype":"자동차정비 유지 - 자동차정비","category":"car"}]},{"lat":"37.198943487","long":"126.98384627","imageIndex":0,"items":[{"name":"주식회사 오프로드모터스","tel":"050-5330-7252","addr":"경기도 화성시 봉담읍 수기리 11-5번지","indutype":"자동차정비 유지 - 자동차부품","category":"car"}]},{"lat":"37.199330297","long":"126.98023049","imageIndex":0,"items":[{"name":"주식회사케이엠마이크로닉","tel":"070-7010-0177","addr":"경기도 화성시 봉담읍 수기리 23-5번지","indutype":"자동차정비 유지 - 자동차부품","category":"car"}]},{"lat":"37.203826828","long":"126.98212158","imageIndex":0,"items":[{"name":"체인지모터스","tel":"031-224-9870","addr":"경기도 화성시 봉담읍 수기리 1-165번지","indutype":"자동차정비 유지 - 자동차부품","category":"car"}]},{"lat":"37.19902472","long":"126.98473608","imageIndex":0,"items":[{"name":"코리아모터스","tel":"031-225-8900","addr":"경기도 화성시 봉담읍 수기리 11-138번지","indutype":"자동차정비 유지 - 자동차정비","category":"car"}]},{"lat":"37.199916631","long":"126.98398119","imageIndex":0,"items":[{"name":"하이원테크","tel":"031-234-2949","addr":"경기도 화성시 봉담읍 수기리 8-7번지","indutype":"자동차정비 유지 - 자동차부품","category":"car"}]}]