[{"lat":"37.086063904","long":"126.94159702","imageIndex":17,"items":[{"name":"(주)서린환경과학","tel":"031-8043-2686","addr":"경기도 화성시 양감면 대양리 434번지","indutype":"용역 서비스 - 종합용역","category":"other"}]},{"lat":"37.088199592","long":"126.94195521","imageIndex":17,"items":[{"name":"경기 천막 건축","tel":"031-366-3494","addr":"경기도 화성시 양감면 대양리 502-2번지 상가 1,2동","indutype":"직물 - 카페트,커튼,천막,지물","category":"other"}]},{"lat":"37.083479247","long":"126.94432078","imageIndex":17,"items":[{"name":"경기종합공기구상사","tel":"031-354-1120","addr":"경기도 화성시 양감면 대양리 396-34번지","indutype":"기타 - 기계공구","category":"other"},{"name":"양감전기모터","tel":"031-352-7625","addr":"경기도 화성시 양감면 대양리 396-34","indutype":"수리서비스 - 기타수리서비스","category":"other"}]},{"lat":"37.093559478","long":"126.93929637","imageIndex":17,"items":[{"name":"국제콘크리트","tel":"031-366-2169","addr":"경기도 화성시 양감면 대양리 947번지 외1필지","indutype":"건축자재 - 기타건축자재","category":"other"}]},{"lat":"37.104864471","long":"126.93351577","imageIndex":17,"items":[{"name":"금강엔지니어링","tel":"031-893-6357","addr":"경기도 화성시 양감면 대양리 1225-6번지","indutype":"기타 - 기계공구","category":"other"}]},{"lat":"37.091173006","long":"126.94181786","imageIndex":17,"items":[{"name":"대화천막건설","tel":"031-354-1981","addr":"경기도 화성시 양감면 대양리 849-4번지 (849-4,849-5,850-4)","indutype":"직물 - 카페트,커튼,천막,지물","category":"other"}]},{"lat":"37.083812527","long":"126.94409559","imageIndex":17,"items":[{"name":"동성농기계","tel":"031-352-7374","addr":"경기도 화성시 양감면 대양리 396-31번지","indutype":"수리서비스 - 기타수리서비스","category":"other"}]},{"lat":"37.094564426","long":"126.94893529","imageIndex":17,"items":[{"name":"명품마대산업","tel":"031-353-4330","addr":"경기도 화성시 양감면 대양리 79번지 1호","indutype":"유통업 영리 - 기타유통업","category":"other"}]},{"lat":"37.087702882","long":"126.93979614","imageIndex":17,"items":[{"name":"삼원루브켐","tel":"031-366-2937","addr":"경기도 화성시 양감면 대양리 522-4번지 가동","indutype":"기타 - 기타 전문점","category":"other"}]},{"lat":"37.088782732","long":"126.93718584","imageIndex":17,"items":[{"name":"선재포장","tel":"031-359-8593","addr":"경기도 화성시 양감면 대양리 778-5","indutype":"기타 - 기타 전문점","category":"other"}]},{"lat":"37.086172348","long":"126.94221552","imageIndex":17,"items":[{"name":"성진전기산업","tel":"031-8059-4040","addr":"경기도 화성시 양감면 대양리 421-1번지 1층","indutype":"전기제품 - 기타전기제품","category":"other"}]},{"lat":"37.088063744","long":"126.94062814","imageIndex":17,"items":[{"name":"씨유화성대양점","tel":"031-898-6567","addr":"경기도 화성시 양감면 대양리 511-1번지","indutype":"유통업 영리 - 편 의 점","category":"other"}]},{"lat":"37.087451715","long":"126.94195581","imageIndex":17,"items":[{"name":"양감플라워","tel":"031-353-2710","addr":"경기도 화성시 양감면 대양리 503-4번지","indutype":"문화.취미 - 화원","category":"other"}]},{"lat":"37.098566231","long":"126.93373525","imageIndex":17,"items":[{"name":"유원이엔씨","tel":"031-8059-6457","addr":"경기도 화성시 양감면 대양리 1268-3번지","indutype":"용역 서비스 - 기타용역서비스","category":"other"}]},{"lat":"37.092060663","long":"126.93381989","imageIndex":17,"items":[{"name":"주식회사지케이리싸이클링","tel":"031-663-0447","addr":"경기도 화성시 양감면 대양리 769-17번지","indutype":"신변잡화 - 기타잡화","category":"other"}]},{"lat":"37.088455641","long":"126.93246223","imageIndex":17,"items":[{"name":"창성중기","tel":"031-354-4745","addr":"경기도 화성시 양감면 대양리 749","indutype":"기타 - 기타 전문점","category":"other"}]},{"lat":"37.086397882","long":"126.94274395","imageIndex":17,"items":[{"name":"청호천막","tel":"031-366-5740","addr":"경기도 화성시 양감면 대양리 426-3","indutype":"직물 - 카페트,커튼,천막,지물","category":"other"}]},{"lat":"37.087254601","long":"126.92815567","imageIndex":17,"items":[{"name":"현대샤링","tel":"031-377-1003","addr":"경기도 화성시 양감면 대양리 698-13","indutype":"건축자재 - 목재·석재·철물","category":"other"}]}]