[{"lat":"37.20835722","long":"127.23114728","imageIndex":17,"items":[{"name":"굿-모닝크린","tel":"031-333-0626","addr":"경기도 용인시 처인구 호동 130번지","indutype":"수리서비스 - 세탁소","category":"other"}]},{"lat":"37.191191962","long":"127.25790049","imageIndex":17,"items":[{"name":"아성크레인","tel":"031-323-3505","addr":"경기도 용인시 처인구 호동 343","indutype":"기타 - 기계공구","category":"other"}]},{"lat":"37.204303951","long":"127.23506638","imageIndex":17,"items":[{"name":"이레창호","tel":"031-8031-7408","addr":"경기도 용인시 처인구 호동 202-5","indutype":"용역 서비스 - 기타용역서비스","category":"other"}]},{"lat":"37.205971564","long":"127.23471102","imageIndex":17,"items":[{"name":"축구사랑","tel":"031-323-5862","addr":"경기도 용인시 처인구 호동 99-1번지","indutype":"의류 - 스포츠의류","category":"other"}]},{"lat":"37.206748035","long":"127.23390232","imageIndex":17,"items":[{"name":"하나알미늄","tel":"031-338-8576","addr":"경기도 용인시 처인구 호동 99-16번지","indutype":"건축자재 - 보일러·펌프·샷시","category":"other"}]},{"lat":"37.189804906","long":"127.25764805","imageIndex":17,"items":[{"name":"한진인테리어","tel":"","addr":"경기도 용인시 처인구 호동 365번지","indutype":"건축자재 - 인테리어전문","category":"other"}]},{"lat":"37.18067305","long":"127.27184002","imageIndex":5,"items":[{"name":"사랑채펜션","tel":"070-7018-5367","addr":"경기도 용인시 처인구 호동 469-10번지","indutype":"숙박업 - 여관/기타숙박업","category":"hotel"}]},{"lat":"37.17911745","long":"127.27042691","imageIndex":7,"items":[{"name":"새암농장","tel":"031-0000-0000","addr":"경기도 용인시 처인구 호동 476-1번지","indutype":"음료식품 - 기타음료식품","category":"food"},{"name":"초담 초담","tel":"070-6202-6117","addr":"경기도 용인시 처인구 호동 476-1번지","indutype":"음료식품 - 기타음료식품","category":"food"}]},{"lat":"37.191111111","long":"127.25778759","imageIndex":7,"items":[{"name":"스마트믹스","tel":"031-338-1478","addr":"경기도 용인시 처인구 호동 343-2번지","indutype":"음료식품 - 농·축·수산품","category":"food"}]},{"lat":"37.207136663","long":"127.2332952","imageIndex":0,"items":[{"name":"성원적재함","tel":"031-322-9590","addr":"경기도 용인시 처인구 호동 101-4번지","indutype":"자동차정비 유지 - 자동차부품","category":"car"}]},{"lat":"37.188921773","long":"127.2577014","imageIndex":13,"items":[{"name":"예직한옥체험마을1단지","tel":"031-883-5730","addr":"경기도 용인시 처인구 호동 365-34번지","indutype":"레저업소 - 기타레져업소","category":"leisure"}]},{"lat":"37.202625687","long":"127.23625525","imageIndex":13,"items":[{"name":"제이제이풋볼클럽","tel":"031-333-9690","addr":"경기도 용인시 처인구 호동 190번지 가동","indutype":"레저업소 - 기타레져업소","category":"leisure"}]}]