[{"lat":"37.483215645","long":"127.4026256","imageIndex":17,"items":[{"name":"(주)아르떼모하디자인","tel":"031-774-9392","addr":"경기도 양평군 강하면 왕창리 17-8번지","indutype":"용역 서비스 - 사무서비스","category":"other"},{"name":"안종연환경조형연구소","tel":"031-774-9592","addr":"경기도 양평군 강하면 왕창리 17-8번지","indutype":"용역 서비스 - 기타용역서비스","category":"other"}]},{"lat":"37.484466255","long":"127.40579805","imageIndex":17,"items":[{"name":"(주)우문관","tel":"031-774-2417","addr":"경기도 양평군 강하면 왕창리 12-1번지","indutype":"서적문구 - 출판 및 인쇄물","category":"other"}]},{"lat":"37.48588085","long":"127.39235079","imageIndex":17,"items":[{"name":"강남철물건재","tel":"031-772-7784","addr":"경기도 양평군 강하면 왕창리 454-3","indutype":"건축자재 - 목재·석재·철물","category":"other"}]},{"lat":"37.48332662","long":"127.39095817","imageIndex":17,"items":[{"name":"다섯번째계절","tel":"","addr":"경기도 양평군 강하면 왕창리 462-4번지","indutype":"가구 - 기타가구","category":"other"},{"name":"민세종갤러리","tel":"","addr":"경기도 양평군 강하면 왕창리 462-4번지","indutype":"가구 - 기타가구","category":"other"}]},{"lat":"37.485939887","long":"127.39357221","imageIndex":17,"items":[{"name":"상상갤러리","tel":"000-0000-0000","addr":"경기도 양평군 강하면 왕창리 398-6번지","indutype":"문화.취미 - 화방·표구점","category":"other"}]},{"lat":"37.478500287","long":"127.39821395","imageIndex":17,"items":[{"name":"서평도예연구소","tel":"031-771-5816","addr":"경기도 양평군 강하면 왕창리 153-1번지","indutype":"문화.취미 - 민예·공예품","category":"other"}]},{"lat":"37.486299192","long":"127.39390197","imageIndex":17,"items":[{"name":"석과목","tel":"031-775-6116","addr":"경기도 양평군 강하면 왕창리 392-7번지","indutype":"회원제형태 - 기타4","category":"other"}]},{"lat":"37.486498977","long":"127.39342813","imageIndex":17,"items":[{"name":"옹기시대","tel":"031-772-9901","addr":"경기도 양평군 강하면 왕창리 397-1","indutype":"문화.취미 - 민예·공예품","category":"other"}]},{"lat":"37.475858348","long":"127.39882181","imageIndex":17,"items":[{"name":"우리캐노피","tel":"032-327-7055","addr":"경기도 양평군 강하면 왕창리 199번지","indutype":"용역 서비스 - 기타용역서비스","category":"other"}]},{"lat":"37.478830659","long":"127.38821029","imageIndex":17,"items":[{"name":"유성","tel":"031-767-4424","addr":"경기도 양평군 강하면 왕창리 648번지 1층 101호","indutype":"직물 - 침구·수예점","category":"other"}]},{"lat":"37.47899265","long":"127.38826765","imageIndex":17,"items":[{"name":"톰스캐빈","tel":"031-772-5776","addr":"경기도 양평군 강하면 왕창리 649","indutype":"가구 - 기타가구","category":"other"}]},{"lat":"37.478686945","long":"127.38807388","imageIndex":17,"items":[{"name":"한채","tel":"031-771-2034","addr":"경기도 양평군 강하면 왕창리 648-1번지","indutype":"의류 - 정장","category":"other"}]}]