[{"lat":"37.340360003","long":"126.82310356","imageIndex":7,"items":[{"name":"가나","tel":"070-4220-5930","addr":"경기도 안산시 단원구 와동 861번지","indutype":"음료식품 - 농·축·수산품","category":"food"},{"name":"가나","tel":"","addr":"경기도 안산시 단원구 와동 861번지","indutype":"음료식품 - 농·축·수산품","category":"food"}]},{"lat":"37.332863111","long":"126.81699438","imageIndex":7,"items":[{"name":"가정건강관리원","tel":"031-413-7588","addr":"경기도 안산시 단원구 와동 844번지 명가 101호","indutype":"건강식품 - 기타건강식품","category":"food"}]},{"lat":"37.335702402","long":"126.817687","imageIndex":7,"items":[{"name":"거성유통","tel":"031-402-4553","addr":"경기도 안산시 단원구 와동 824-3번지 루미앙스 302호","indutype":"음료식품 - 기타음료식품","category":"food"}]},{"lat":"37.3418112340","long":"126.8234950721","imageIndex":7,"items":[{"name":"겨울왕국","tel":"031-401-9300","addr":"경기도 안산시 단원구 와동 766-16번지","indutype":"도매 및 소매업 - 식품","category":"food"}]},{"lat":"37.339944438","long":"126.82238232","imageIndex":7,"items":[{"name":"경기농산","tel":"031-403-0901","addr":"경기도 안산시 단원구 와동 757-5번지 101호","indutype":"음료식품 - 미곡상","category":"food"}]},{"lat":"37.331528061","long":"126.82779597","imageIndex":7,"items":[{"name":"경준푸드","tel":"","addr":"경기도 안산시 단원구 와동 683-1번지 203호","indutype":"음료식품 - 기타음료식품","category":"food"}]},{"lat":"37.34147659","long":"126.82266078","imageIndex":7,"items":[{"name":"계골농장","tel":"031-480-2701","addr":"경기도 안산시 단원구 와동 764-16번지 충만빌딩 1층","indutype":"음료식품 - 농·축·수산품","category":"food"}]},{"lat":"37.331590062","long":"126.82707368","imageIndex":7,"items":[{"name":"고향축산","tel":"031-482-0171","addr":"경기도 안산시 단원구 와동 682-12번지","indutype":"음료식품 - 정육점","category":"food"},{"name":"뿅가아이스","tel":"031-411-9832","addr":"경기도 안산시 단원구 와동 682-12번지 1층","indutype":"음료식품 - 기타음료식품","category":"food"}]},{"lat":"37.331005756","long":"126.827989","imageIndex":7,"items":[{"name":"공주병허브다이어트클럽","tel":"070-4671-6245","addr":"경기도 안산시 단원구 와동 684-4번지 101호","indutype":"건강식품 - 기타건강식품","category":"food"}]},{"lat":"37.346583434","long":"126.82140714","imageIndex":7,"items":[{"name":"광명유통","tel":"","addr":"경기도 안산시 단원구 와동 793-11번지","indutype":"음료식품 - 농·축·수산품","category":"food"}]},{"lat":"37.3399784194","long":"126.8269977038","imageIndex":7,"items":[{"name":"그린하이퍼","tel":"031-482-6394","addr":"경기도 안산시 단원구 와동 112-13번지","indutype":"도매 및 소매업 - 식품","category":"food"}]},{"lat":"37.346446789","long":"126.8204369","imageIndex":7,"items":[{"name":"금용중국식품","tel":"031-111-1111","addr":"경기도 안산시 단원구 와동 793-18번지 101호","indutype":"음료식품 - 기타음료식품","category":"food"}]},{"lat":"37.332785491","long":"126.81921746","imageIndex":7,"items":[{"name":"금우미트","tel":"031-439-7117","addr":"경기도 안산시 단원구 와동 839-1번지 102호","indutype":"음료식품 - 정육점","category":"food"}]},{"lat":"37.339916119","long":"126.82751695","imageIndex":7,"items":[{"name":"나누리유통","tel":"031-491-8592","addr":"경기도 안산시 단원구 와동 120번지 1층 25호","indutype":"음료식품 - 기타음료식품","category":"food"}]},{"lat":"37.343277738","long":"126.82208093","imageIndex":7,"items":[{"name":"나눔가게","tel":"031-413-1291","addr":"경기도 안산시 단원구 와동 771-5번지 소양교회 103호","indutype":"건강식품 - 홍삼제품","category":"food"}]},{"lat":"37.34206042","long":"126.82146317","imageIndex":7,"items":[{"name":"낙원떡집","tel":"031-402-0880","addr":"경기도 안산시 단원구 와동 764번지 빅맨할인매장 101호","indutype":"음료식품 - 제과점","category":"food"}]},{"lat":"37.338200602","long":"126.81921556","imageIndex":7,"items":[{"name":"넘버씨 (NO cogareet)","tel":"070-7469-5050","addr":"경기도 안산시 단원구 와동 819-13번지 102호","indutype":"음료식품 - 농·축·수산품","category":"food"}]},{"lat":"37.342312704","long":"126.82146256","imageIndex":7,"items":[{"name":"늘푸른농산물","tel":"","addr":"경기도 안산시 단원구 와동 769-25번지","indutype":"음료식품 - 농·축·수산품","category":"food"}]},{"lat":"37.332311007","long":"126.82716227","imageIndex":7,"items":[{"name":"다오래베이커리","tel":"031-401-8295","addr":"경기도 안산시 단원구 와동 721-4번지 104호","indutype":"음료식품 - 제과점","category":"food"}]},{"lat":"37.331811097","long":"126.81838485","imageIndex":7,"items":[{"name":"대부유통","tel":"070-2699-0807","addr":"경기도 안산시 단원구 와동 845-7번지 101호","indutype":"음료식품 - 농·축·수산품","category":"food"}]},{"lat":"37.344087318","long":"126.82121001","imageIndex":7,"items":[{"name":"대성축산","tel":"031-401-3697","addr":"경기도 안산시 단원구 와동 802-9번지 상가 1층 102호","indutype":"음료식품 - 정육점","category":"food"}]},{"lat":"37.345254954","long":"126.81882595","imageIndex":7,"items":[{"name":"대천특산김","tel":"031-414-6462","addr":"경기도 안산시 단원구 와동 800-19번지","indutype":"음료식품 - 농·축·수산품","category":"food"}]},{"lat":"37.332169463","long":"126.82893412","imageIndex":7,"items":[{"name":"대풍농산","tel":"031-403-5566","addr":"경기도 안산시 단원구 와동 695-12번지 102호","indutype":"음료식품 - 제과점","category":"food"}]},{"lat":"37.335503059","long":"126.82279918","imageIndex":7,"items":[{"name":"도원종합유통","tel":"031-480-8860","addr":"경기도 안산시 단원구 와동 740-3번지 에이스빌 401호","indutype":"음료식품 - 기타음료식품","category":"food"}]},{"lat":"37.336170481","long":"126.8292747","imageIndex":7,"items":[{"name":"동명숯불불닭발와동7호점","tel":"031-403-1333","addr":"경기도 안산시 단원구 와동 708-8번지 101호","indutype":"음료식품 - 기타음료식품","category":"food"}]},{"lat":"37.340113487","long":"126.82694097","imageIndex":7,"items":[{"name":"두리축산고기백화점","tel":"031-402-1599","addr":"경기도 안산시 단원구 와동 112-12번지 종근당약국 1층 102호","indutype":"음료식품 - 정육점","category":"food"}]},{"lat":"37.345088428","long":"126.82185088","imageIndex":7,"items":[{"name":"드림수산","tel":"031-403-3460","addr":"경기도 안산시 단원구 와동 779-2번지 그린빌라 101호","indutype":"음료식품 - 농·축·수산품","category":"food"}]},{"lat":"37.34416571","long":"126.81946059","imageIndex":7,"items":[{"name":"레스트프렌드","tel":"070-8840-9706","addr":"경기도 안산시 단원구 와동 803-2번지 202호","indutype":"음료식품 - 기타음료식품","category":"food"}]},{"lat":"37.337728151","long":"126.82252304","imageIndex":7,"items":[{"name":"롯데우유공단대리점","tel":"031-486-2859","addr":"경기도 안산시 단원구 와동 745-8번지","indutype":"음료식품 - 기타음료식품","category":"food"}]},{"lat":"37.338360586","long":"126.8178046","imageIndex":7,"items":[{"name":"만나식품","tel":"070-7590-0550","addr":"경기도 안산시 단원구 와동 820-2번지 103호","indutype":"음료식품 - 농·축·수산품","category":"food"}]},{"lat":"37.343276926","long":"126.82155052","imageIndex":7,"items":[{"name":"몽쉘베이커리","tel":"031-415-0435","addr":"경기도 안산시 단원구 와동 771-10번지 1층","indutype":"음료식품 - 제과점","category":"food"}]},{"lat":"37.346332945","long":"126.82258146","imageIndex":7,"items":[{"name":"미가캐터링","tel":"031-411-7483","addr":"경기도 안산시 단원구 와동 781-8","indutype":"음료식품 - 농·축·수산품","category":"food"}]},{"lat":"37.332618823","long":"126.82815451","imageIndex":7,"items":[{"name":"미니바디","tel":"070-8862-4956","addr":"경기도 안산시 단원구 와동 679-3번지","indutype":"회원제형태 - 건강식품","category":"food"}]},{"lat":"37.338116891","long":"126.82337973","imageIndex":7,"items":[{"name":"베지밀북안산대리점","tel":"031-405-3293","addr":"경기도 안산시 단원구 와동 744-1번지 1층","indutype":"음료식품 - 기타음료식품","category":"food"}]},{"lat":"37.338306132","long":"126.82943906","imageIndex":7,"items":[{"name":"베지밀안산중앙대리점","tel":"031-484-0366","addr":"경기도 안산시 단원구 와동 712-23번지 101호","indutype":"음료식품 - 기타음료식품","category":"food"}]},{"lat":"37.341090338","long":"126.82344036","imageIndex":7,"items":[{"name":"브레드피아","tel":"031-483-1236","addr":"경기도 안산시 단원구 와동 760-4번지 102호 101","indutype":"음료식품 - 제과점","category":"food"}]},{"lat":"37.345169277","long":"126.82169269","imageIndex":7,"items":[{"name":"뿅가아이스 와동2호점","tel":"031-111-1111","addr":"경기도 안산시 단원구 와동 779번지 105호","indutype":"음료식품 - 기타음료식품","category":"food"}]},{"lat":"37.333947243","long":"126.82474371","imageIndex":7,"items":[{"name":"사와트럭","tel":"031-484-6962","addr":"경기도 안산시 단원구 와동 728-8번지 목림빌라 402호","indutype":"음료식품 - 기타음료식품","category":"food"}]},{"lat":"37.332336458","long":"126.82610155","imageIndex":7,"items":[{"name":"소래수산","tel":"","addr":"경기도 안산시 단원구 와동 722-5번지 부자명가5차 1층 102호","indutype":"음료식품 - 농·축·수산품","category":"food"}]},{"lat":"37.33275036","long":"126.81980429","imageIndex":7,"items":[{"name":"소문난떡방앗간","tel":"031-485-7200","addr":"경기도 안산시 단원구 와동 837번지","indutype":"음료식품 - 제과점","category":"food"}]},{"lat":"37.341477667","long":"126.82940919","imageIndex":7,"items":[{"name":"속초상회","tel":"031-407-4959","addr":"경기도 안산시 단원구 와동 105-9번지 1층","indutype":"음료식품 - 농·축·수산품","category":"food"}]},{"lat":"37.34211325","long":"126.8206618","imageIndex":7,"items":[{"name":"솜씨맘씨반찬","tel":"031-403-0852","addr":"경기도 안산시 단원구 와동 810-12번지 1층","indutype":"음료식품 - 기타음료식품","category":"food"}]},{"lat":"37.344665677","long":"126.82832974","imageIndex":7,"items":[{"name":"수지유통","tel":"031-1599-3347","addr":"경기도 안산시 단원구 와동 95-5번지","indutype":"음료식품 - 기타음료식품","category":"food"}]},{"lat":"37.333667674","long":"126.82457512","imageIndex":7,"items":[{"name":"쌀토피아","tel":"031-486-0368","addr":"경기도 안산시 단원구 와동 727-3 1층 102호","indutype":"음료식품 - 미곡상","category":"food"}]},{"lat":"37.341811234","long":"126.82349507","imageIndex":7,"items":[{"name":"아이스크림할인점 겨울왕국","tel":"031-111-1111","addr":"경기도 안산시 단원구 와동 766-16번지 경인빌딩 101호","indutype":"음료식품 - 기타음료식품","category":"food"}]},{"lat":"37.338337639","long":"126.82043395","imageIndex":7,"items":[{"name":"아이스패키지(와동점)","tel":"","addr":"경기도 안산시 단원구 와동 752-8번지 신세계낚시프라자 1층 104호","indutype":"음료식품 - 기타음료식품","category":"food"}]},{"lat":"37.347090088","long":"126.82277151","imageIndex":7,"items":[{"name":"아진","tel":"02-000-0000","addr":"경기도 안산시 단원구 와동 784-10번지 303호","indutype":"음료식품 - 농·축·수산품","category":"food"}]},{"lat":"37.333611583","long":"126.82926931","imageIndex":7,"items":[{"name":"안산시니어클럽건강미(  )누룽지","tel":"031-402-4564","addr":"경기도 안산시 단원구 와동 696번지 1층","indutype":"음료식품 - 기타음료식품","category":"food"}]},{"lat":"37.3380344016","long":"126.8284692167","imageIndex":7,"items":[{"name":"안산정육마트","tel":"031-401-2722","addr":"경기도 안산시 단원구 와동 712번지","indutype":"도매 및 소매업 - 잡화,식품,정육","category":"food"}]},{"lat":"37.343089197","long":"126.8225215","imageIndex":7,"items":[{"name":"엄마솜씨","tel":"031-475-0911","addr":"경기도 안산시 단원구 와동 770-7번지 신풍전력 1층 104호","indutype":"음료식품 - 기타음료식품","category":"food"}]},{"lat":"37.332391814","long":"126.82697026","imageIndex":7,"items":[{"name":"옛날수제누룽지","tel":"031-410-9585","addr":"경기도 안산시 단원구 와동 721-3번지 102호","indutype":"음료식품 - 기타음료식품","category":"food"}]},{"lat":"37.335749672","long":"126.8311037","imageIndex":7,"items":[{"name":"올댓","tel":"031-1577-8379","addr":"경기도 안산시 단원구 와동 703-3번지 다세대주택 501호","indutype":"음료식품 - 기타음료식품","category":"food"}]},{"lat":"37.331139353","long":"126.82693933","imageIndex":7,"items":[{"name":"와동떡방앗간","tel":"031-484-7211","addr":"경기도 안산시 단원구 와동 682-6번지","indutype":"음료식품 - 기타음료식품","category":"food"}]},{"lat":"37.343942913","long":"126.82105237","imageIndex":7,"items":[{"name":"와동수산","tel":"","addr":"경기도 안산시 단원구 와동 802-11번지","indutype":"음료식품 - 농·축·수산품","category":"food"}]},{"lat":"37.332480249","long":"126.82585297","imageIndex":7,"items":[{"name":"외양간(용현축산)","tel":"031-405-4656","addr":"경기도 안산시 단원구 와동 724-5번지 1층 2호","indutype":"음료식품 - 정육점","category":"food"}]},{"lat":"37.344970449","long":"126.82129817","imageIndex":7,"items":[{"name":"우리동네정육생선","tel":"031-413-5311","addr":"경기도 안산시 단원구 와동 799-11번지 104호","indutype":"음료식품 - 정육점","category":"food"}]},{"lat":"37.332063891","long":"126.81871145","imageIndex":7,"items":[{"name":"우리방앗간","tel":"031-482-2341","addr":"경기도 안산시 단원구 와동 840-5번지","indutype":"음료식품 - 제과점","category":"food"}]},{"lat":"37.332701017","long":"126.8170512","imageIndex":7,"items":[{"name":"우리상사","tel":"031-484-1655","addr":"경기도 안산시 단원구 와동 844-7번지 103호","indutype":"음료식품 - 기타음료식품","category":"food"}]},{"lat":"37.334503952","long":"126.8295155","imageIndex":7,"items":[{"name":"우리정육점","tel":"031-401-2330","addr":"경기도 안산시 단원구 와동 700-9번지 101호","indutype":"음료식품 - 정육점","category":"food"}]},{"lat":"37.344389841","long":"126.81873778","imageIndex":7,"items":[{"name":"웰빙꽃뱅이","tel":"02-000-0000","addr":"경기도 안산시 단원구 와동 801-19번지 1층 101호","indutype":"건강식품 - 기타건강식품","category":"food"}]},{"lat":"37.342055488","long":"126.8302091","imageIndex":7,"items":[{"name":"유진상사","tel":"031-480-3666","addr":"경기도 안산시 단원구 와동 129-5","indutype":"음료식품 - 기타음료식품","category":"food"}]},{"lat":"37.341590523","long":"126.82057278","imageIndex":7,"items":[{"name":"이레 찬방","tel":"031-414-2666","addr":"경기도 안산시 단원구 와동 812-8번지 삼천리가스프라자 101호","indutype":"음료식품 - 기타음료식품","category":"food"}]},{"lat":"37.336503939","long":"126.82933036","imageIndex":7,"items":[{"name":"조은식품","tel":"031-405-9555","addr":"경기도 안산시 단원구 와동 708-1번지 신원캐슬 지층 102호","indutype":"음료식품 - 농·축·수산품","category":"food"}]},{"lat":"37.337890306","long":"126.82851469","imageIndex":7,"items":[{"name":"종로떡방앗간","tel":"031-411-9126","addr":"경기도 안산시 단원구 와동 712-15번지","indutype":"음료식품 - 제과점","category":"food"}]},{"lat":"37.33281182","long":"126.81876604","imageIndex":7,"items":[{"name":"좋은빵만들기","tel":"031-486-2130","addr":"경기도 안산시 단원구 와동 840-1번지 1층","indutype":"음료식품 - 제과점","category":"food"}]},{"lat":"37.33409098","long":"126.82446128","imageIndex":7,"items":[{"name":"주식회사뜰아래","tel":"031-410-2115","addr":"경기도 안산시 단원구 와동 728-10번지 1층","indutype":"음료식품 - 기타음료식품","category":"food"}]},{"lat":"37.342227147","long":"126.81857379","imageIndex":7,"items":[{"name":"진솔건강원","tel":"031-411-2878","addr":"경기도 안산시 단원구 와동 811번지 우리누리","indutype":"건강식품 - 기타건강식품","category":"food"}]},{"lat":"37.3416684842","long":"126.8185525808","imageIndex":7,"items":[{"name":"진솔건강원","tel":"031-411-2878","addr":"경기도 안산시 단원구 와동 811-19번지","indutype":"도매 및 소매업 - 건강식품","category":"food"}]},{"lat":"37.333396315","long":"126.82993555","imageIndex":7,"items":[{"name":"진아정육점","tel":"031-414-2999","addr":"경기도 안산시 단원구 와동 698-8 상가 1","indutype":"음료식품 - 정육점","category":"food"},{"name":"케익이야기","tel":"031-111-1111","addr":"경기도 안산시 단원구 와동 698-8번지","indutype":"음료식품 - 제과점","category":"food"}]},{"lat":"37.33750561","long":"126.81843863","imageIndex":7,"items":[{"name":"짱푸드","tel":"","addr":"경기도 안산시 단원구 와동 751번지 102호","indutype":"음료식품 - 기타음료식품","category":"food"}]},{"lat":"37.333146628","long":"126.82560317","imageIndex":7,"items":[{"name":"차곡차곡떡방","tel":"","addr":"경기도 안산시 단원구 와동 725-3번지 104호","indutype":"음료식품 - 기타음료식품","category":"food"}]},{"lat":"37.332588033","long":"126.82562705","imageIndex":7,"items":[{"name":"찬이네반찬","tel":"031-439-0905","addr":"경기도 안산시 단원구 와동 724-6번지 102호","indutype":"음료식품 - 기타음료식품","category":"food"}]},{"lat":"37.333971833","long":"126.82313006","imageIndex":7,"items":[{"name":"참좋은축산","tel":"031-402-0240","addr":"경기도 안산시 단원구 와동 733-2번지 도매업협동조합 102호","indutype":"음료식품 - 정육점","category":"food"}]},{"lat":"37.344527163","long":"126.82013684","imageIndex":7,"items":[{"name":"청정고기","tel":"031-485-6233","addr":"경기도 안산시 단원구 와동 802번지 1층","indutype":"음료식품 - 정육점","category":"food"}]},{"lat":"37.337476139","long":"126.82871876","imageIndex":7,"items":[{"name":"케익하우스리치","tel":"031-482-0545","addr":"경기도 안산시 단원구 와동 712-18번지 사랑의교회 1층 103호","indutype":"음료식품 - 제과점","category":"food"}]},{"lat":"37.343699848","long":"126.82118838","imageIndex":7,"items":[{"name":"파리바께트","tel":"031-480-0405","addr":"경기도 안산시 단원구 와동 805-1번지 1층","indutype":"음료식품 - 제과점","category":"food"}]},{"lat":"37.341665619","long":"126.8285511","imageIndex":7,"items":[{"name":"하나육계유통","tel":"031-480-3772","addr":"경기도 안산시 단원구 와동 106-7번지","indutype":"음료식품 - 정육점","category":"food"}]},{"lat":"37.332278672","long":"126.81777439","imageIndex":7,"items":[{"name":"한국야쿠르트와동점","tel":"031-402-1198","addr":"경기도 안산시 단원구 와동 842-7번지","indutype":"음료식품 - 기타음료식품","category":"food"}]},{"lat":"37.340726294","long":"126.82701853","imageIndex":7,"items":[{"name":"해블랑디저트","tel":"","addr":"경기도 안산시 단원구 와동 111-6번지 1층 102호","indutype":"음료식품 - 제과점","category":"food"}]},{"lat":"37.343168198","long":"126.8211558","imageIndex":7,"items":[{"name":"현대축산","tel":"031-439-4363","addr":"경기도 안산시 단원구 와동 805-4번지","indutype":"음료식품 - 정육점","category":"food"}]},{"lat":"37.333477291","long":"126.82985637","imageIndex":7,"items":[{"name":"형제건어물","tel":"031-111-1111","addr":"경기도 안산시 단원구 와동 698-9번지 다세대주택 501호","indutype":"음료식품 - 농·축·수산품","category":"food"}]},{"lat":"37.332925213","long":"126.82218473","imageIndex":7,"items":[{"name":"호수농산","tel":"031-482-8277","addr":"경기도 안산시 단원구 와동 830-4번지 102호","indutype":"음료식품 - 농·축·수산품","category":"food"}]},{"lat":"37.338726982","long":"126.82765513","imageIndex":7,"items":[{"name":"황소방앗간","tel":"031-401-8828","addr":"경기도 안산시 단원구 와동 115-5번지 1층","indutype":"음료식품 - 기타음료식품","category":"food"}]}]