[{"lat":"37.44762925","long":"126.8833522","imageIndex":16,"items":[{"name":"(주)길잡이교육","tel":"02-895-7500","addr":"경기도 광명시 소하동 1341-1번지 한빛프라자 7층","indutype":"학원 - 보습학원","category":"study"},{"name":"소하유니팝미술학원","tel":"02-897-0500","addr":"경기도 광명시 소하동 1341-1번지 한빛프라자 601호","indutype":"학원 - 예·체능계학원","category":"study"},{"name":"예일음악학원","tel":"02-897-0500","addr":"경기도 광명시 소하동 1341-1번지 한빛프라자 603호","indutype":"학원 - 예·체능계학원","category":"study"},{"name":"와세다수학국어학원","tel":"02-898-5560","addr":"경기도 광명시 소하동 1341-1번지 한빛프라자 703호","indutype":"학원 - 보습학원","category":"study"},{"name":"인재사관학원","tel":"02-6952-9004","addr":"경기도 광명시 소하동 1341-1번지 한빛프라자 701,702호","indutype":"학원 - 보습학원","category":"study"},{"name":"차일드유소하어학원","tel":"02-896-0505","addr":"경기도 광명시 소하동 1341-1번지 한빛프라자 303호","indutype":"학원 - 외국어학원","category":"study"},{"name":"홍성수 검도교실","tel":"02-897-7727","addr":"경기도 광명시 소하동 1341-1번지 한빛프라자 2층 203호","indutype":"학원 - 예·체능계학원","category":"study"}]},{"lat":"37.4445984","long":"126.8889508","imageIndex":16,"items":[{"name":"52어린이집[아이행복]","tel":"02-2687-8991","addr":"경기도 광명시 소하동 1347번지","indutype":"학원 - 유아원","category":"study"}]},{"lat":"37.43618468","long":"126.88154","imageIndex":16,"items":[{"name":"JTM태권도음악줄넘기","tel":"02-899-0654","addr":"경기도 광명시 소하동 1240번지 2층","indutype":"학원 - 예·체능계학원","category":"study"}]},{"lat":"37.45332797","long":"126.8877847","imageIndex":16,"items":[{"name":"MTA태권도장","tel":"02-000-0000","addr":"경기도 광명시 소하동 49-2번지 4층 1호","indutype":"학원 - 예·체능계학원","category":"study"}]},{"lat":"37.44826784","long":"126.8914314","imageIndex":16,"items":[{"name":"SM잉글리쉬영어학원","tel":"02-6959-6060","addr":"경기도 광명시 소하동 1364번지 광명신촌프라자 1동 2층 206호","indutype":"학원 - 보습학원","category":"study"},{"name":"W(더블유)기타교습소","tel":"02-898-4028","addr":"경기도 광명시 소하동 1364번지 광명신촌프라자 207호 일부","indutype":"학원 - 예·체능계학원","category":"study"},{"name":"경희신촌태권도장","tel":"02-899-5775","addr":"경기도 광명시 소하동 1364번지 신촌프라자 1동 204호","indutype":"학원 - 예·체능계학원","category":"study"},{"name":"앤글로우키즈어학원","tel":"02-899-8986","addr":"경기도 광명시 소하동 1364번지 광명신촌프라자 307동 309호","indutype":"회원제형태 - 학원","category":"study"},{"name":"튼튼 합기도 체육관","tel":"02-2088-2776","addr":"경기도 광명시 소하동 1364번지 신촌프라자 1동 2층 208호","indutype":"학원 - 예·체능계학원","category":"study"}]},{"lat":"37.44999529","long":"126.8888409","imageIndex":16,"items":[{"name":"The(더)잘영수학원","tel":"02-898-7145","addr":"경기도 광명시 소하동 1310-3번지 1층","indutype":"학원 - 보습학원","category":"study"}]},{"lat":"37.44785516","long":"126.8840073","imageIndex":16,"items":[{"name":"YBM(와이비엠)잉글루소하보습학원","tel":"02-899-8088","addr":"경기도 광명시 소하동 1339번지 골든프라자 6층","indutype":"학원 - 보습학원","category":"study"},{"name":"김세진영어학원","tel":"02-898-4001","addr":"경기도 광명시 소하동 1339번지 골든프라자 701호","indutype":"학원 - 보습학원","category":"study"},{"name":"매솔루션보습학원","tel":"02-897-3849","addr":"경기도 광명시 소하동 1339번지 골든프라자 601호","indutype":"학원 - 보습학원","category":"study"},{"name":"박해련무용학원","tel":"02-899-0731","addr":"경기도 광명시 소하동 1339번지 골든프라자 603호","indutype":"학원 - 예·체능계학원","category":"study"},{"name":"제니스실용음악학원","tel":"02-897-0111","addr":"경기도 광명시 소하동 1339번지 골든프라자 704호","indutype":"회원제형태 - 학원","category":"study"},{"name":"코어잉글리쉬2관학원","tel":"02-897-8891","addr":"경기도 광명시 소하동 1339번지 골든프라자 4층 401호","indutype":"학원 - 보습학원","category":"study"},{"name":"태원보습외국어학원","tel":"02-897-6613","addr":"경기도 광명시 소하동 1339번지 골든프라자 702호~703호","indutype":"학원 - 보습학원","category":"study"},{"name":"파인만학원","tel":"02-899-3664","addr":"경기도 광명시 소하동 1339번지 골든프라자 402호","indutype":"학원 - 외국어학원","category":"study"},{"name":"파인만학원/주식회사 교육의미래","tel":"02-899-3664","addr":"경기도 광명시 소하동 1339번지 골든프라자 402호","indutype":"학원 - 보습학원","category":"study"}]},{"lat":"37.43470744","long":"126.8819378","imageIndex":16,"items":[{"name":"e해법공부방","tel":"070-7516-1275","addr":"경기도 광명시 소하동 1263-2번지 대원하이츠빌라 B동 202호","indutype":"회원제형태 - 학원","category":"study"}]},{"lat":"37.4297894","long":"126.8833467","imageIndex":16,"items":[{"name":"e해법수학","tel":"02-6221-1395","addr":"경기도 광명시 소하동 1387번지 광명역세권휴먼시아","indutype":"학원 - 보습학원","category":"study"}]},{"lat":"37.44718769","long":"126.8832851","imageIndex":16,"items":[{"name":"가온뷰티아카데미학원","tel":"02-2694-1434","addr":"경기도 광명시 소하동 1341-2번지 제일프라자 302호","indutype":"학원 - 기능학원","category":"study"},{"name":"국가대표아라한장풍태권도장","tel":"02-899-1124","addr":"경기도 광명시 소하동 1341-2번지 제일프라자 701,702호","indutype":"학원 - 예·체능계학원","category":"study"},{"name":"백두대간학원","tel":"02-898-3350","addr":"경기도 광명시 소하동 1341-2 제일프라자 4층","indutype":"회원제형태 - 학원","category":"study"},{"name":"소하지앤비어학원","tel":"02-897-0505","addr":"경기도 광명시 소하동 1341-2 제일프라자 603호~604호","indutype":"회원제형태 - 학원","category":"study"},{"name":"에스엠수학학원","tel":"02-897-0014","addr":"경기도 광명시 소하동 1341-2번지 제일프라자 703호","indutype":"학원 - 보습학원","category":"study"},{"name":"토즈스터디센터 소하독서실","tel":"02-899-7775","addr":"경기도 광명시 소하동 1341-2번지 603호 ,604호 일부","indutype":"학원 - 독서실","category":"study"},{"name":"프레데릭쇼팽음악학원/주식회사 알티피","tel":"02-899-5959","addr":"경기도 광명시 소하동 1341-2번지 제일프라자 7층 704호","indutype":"학원 - 예·체능계학원","category":"study"}]},{"lat":"37.44892535","long":"126.8911931","imageIndex":16,"items":[{"name":"개구장이어린이집[아이행복]","tel":"070-4241-6470","addr":"경기도 광명시 소하동 1363번지 광명신촌휴먼시아 113동 103호","indutype":"학원 - 유아원","category":"study"}]},{"lat":"37.44685435","long":"126.8833195","imageIndex":16,"items":[{"name":"광명 위버지니어스 미술상자학원","tel":"02-2689-8004","addr":"경기도 광명시 소하동 1341-3번지 청학프라자 403호","indutype":"학원 - 보습학원","category":"study"},{"name":"국어와나2관학원","tel":"02-897-1015","addr":"경기도 광명시 소하동 1341-3번지 501호","indutype":"학원 - 보습학원","category":"study"},{"name":"마이엠 소하고등관학원","tel":"02-2060-5116","addr":"경기도 광명시 소하동 1341-3번지 602호","indutype":"학원 - 보습학원","category":"study"},{"name":"민준영수학원","tel":"02-899-7875","addr":"경기도 광명시 소하동 1341-3번지 청학프라자주건축물 제1동 제503호","indutype":"학원 - 보습학원","category":"study"},{"name":"소마 사고력수학학원","tel":"02-6951-3353","addr":"경기도 광명시 소하동 1341-3번지 청학프라자 801호","indutype":"학원 - 보습학원","category":"study"},{"name":"숙명소하음악학원","tel":"02-897-5501","addr":"경기도 광명시 소하동 1341-3번지 502호","indutype":"학원 - 예·체능계학원","category":"study"},{"name":"스터닝학원","tel":"02-898-1079","addr":"경기도 광명시 소하동 1341-3번지 청학프라자 801호","indutype":"학원 - 보습학원","category":"study"},{"name":"엠베스트SE학원","tel":"02-899-3312","addr":"경기도 광명시 소하동 1341-3번지 청학프라자 4층 401호","indutype":"학원 - 보습학원","category":"study"},{"name":"한국체대 스타클래스 태권도장","tel":"","addr":"경기도 광명시 소하동 1341-3번지 1동 802호","indutype":"학원 - 예·체능계학원","category":"study"}]},{"lat":"37.43799624","long":"126.8820681","imageIndex":16,"items":[{"name":"광명경영회계고등학교_수업료","tel":"02-898-3395","addr":"경기도 광명시 소하동 883-13번지 1층","indutype":"학원 - 초중고교육기관","category":"study"},{"name":"안서중학교","tel":"02-6911-4106","addr":"경기도 광명시 소하동 883-13번지","indutype":"학원 - 초중고교육기관","category":"study"}]},{"lat":"37.44837774","long":"126.8840065","imageIndex":16,"items":[{"name":"광명소하 자라다남아미술학원","tel":"02-6954-0226","addr":"경기도 광명시 소하동 1335번지 502호","indutype":"학원 - 예·체능계학원","category":"study"},{"name":"능률영어&2WAY수학","tel":"070-7614-3579","addr":"경기도 광명시 소하동 1335번지 7층 1호","indutype":"학원 - 외국어학원","category":"study"},{"name":"밸런스브레인","tel":"","addr":"경기도 광명시 소하동 1335번지 6층 601호","indutype":"학원 - 기타 교육기관","category":"study"},{"name":"세움한국사세움통합과학학원","tel":"02-899-0204","addr":"경기도 광명시 소하동 1335번지 703호","indutype":"학원 - 보습학원","category":"study"},{"name":"소하플래뮤미술학원","tel":"","addr":"경기도 광명시 소하동 1335번지 메이저리치안 3층 302호","indutype":"학원 - 예·체능계학원","category":"study"},{"name":"수와이야기학원","tel":"02-808-8288","addr":"경기도 광명시 소하동 1335번지 메이저리치안 704호","indutype":"학원 - 보습학원","category":"study"},{"name":"쎈수학러닝센터 광명소하학원","tel":"02-898-5558","addr":"경기도 광명시 소하동 1335번지 메이저리치안 7층 6호","indutype":"학원 - 보습학원","category":"study"},{"name":"아이스타유소년스포츠센터","tel":"02-897-6010","addr":"경기도 광명시 소하동 1335번지 메이저리치안 708,709호","indutype":"학원 - 예·체능계학원","category":"study"},{"name":"엠제이수학","tel":"02-111-1111","addr":"경기도 광명시 소하동 1335번지 3층 301-2호","indutype":"학원 - 보습학원","category":"study"},{"name":"영어수학발전소학원","tel":"02-898-0558","addr":"경기도 광명시 소하동 1335번지 메이저리치안 705호","indutype":"학원 - 보습학원","category":"study"},{"name":"케이(K)리거 이길훈 축구교실","tel":"","addr":"경기도 광명시 소하동 1335번지 3층 309호","indutype":"학원 - 예·체능계학원","category":"study"},{"name":"키로프발레무용학원","tel":"02-417-5868","addr":"경기도 광명시 소하동 1335번지 501호","indutype":"학원 - 예·체능계학원","category":"study"},{"name":"한국파워점핑줄넘기태권도","tel":"","addr":"경기도 광명시 소하동 1335번지 3층 307호","indutype":"학원 - 예·체능계학원","category":"study"}]},{"lat":"37.43208045","long":"126.8770723","imageIndex":16,"items":[{"name":"광명시육아종합지원센터[아이행복]","tel":"02-899-0163","addr":"경기도 광명시 소하동 1385번지","indutype":"학원 - 유아원","category":"study"}]},{"lat":"37.43318299","long":"126.8802341","imageIndex":16,"items":[{"name":"광명열린문어린이집[아이행복]","tel":"02-899-3646","addr":"경기도 광명시 소하동 1379번지","indutype":"학원 - 유아원","category":"study"}]},{"lat":"37.43493935","long":"126.879655","imageIndex":16,"items":[{"name":"광명유도관(소하점)","tel":"02-899-3093","addr":"경기도 광명시 소하동 1268번지 태화빌딩 지층","indutype":"학원 - 예·체능계학원","category":"study"}]},{"lat":"37.43779491","long":"126.8790628","imageIndex":16,"items":[{"name":"광명인스타컴퓨터학원","tel":"02-899-8886","addr":"경기도 광명시 소하동 909-39번지 402호","indutype":"학원 - 컴퓨터학원","category":"study"},{"name":"레브발레학원","tel":"02-897-1181","addr":"경기도 광명시 소하동 909-39번지 2층 일부","indutype":"학원 - 예·체능계학원","category":"study"}]},{"lat":"37.44900814","long":"126.8930125","imageIndex":16,"items":[{"name":"광명일본어","tel":"","addr":"경기도 광명시 소하동 1363번지 신촌휴먼시아1단지아파트","indutype":"학원 - 기타 교육기관","category":"study"}]},{"lat":"37.44832296","long":"126.8832946","imageIndex":16,"items":[{"name":"광명창조의아침미술학원-소하캠퍼스","tel":"02-899-2554","addr":"경기도 광명시 소하동 1340-5번지 웅신아트 5층 504호","indutype":"학원 - 예·체능계학원","category":"study"},{"name":"더블제이학원","tel":"02-899-6996","addr":"경기도 광명시 소하동 1340-5번지 웅신아트 507호","indutype":"학원 - 보습학원","category":"study"},{"name":"리브로아르츠","tel":"02-899-7889","addr":"경기도 광명시 소하동 1340-5번지 웅신아트 303호","indutype":"학원 - 예·체능계학원","category":"study"},{"name":"소하애니창아미술학원","tel":"02-899-2554","addr":"경기도 광명시 소하동 1340-5번지 웅신아트 506호","indutype":"학원 - 예·체능계학원","category":"study"},{"name":"수학의 봄 국어의 봄","tel":"02-897-8990","addr":"경기도 광명시 소하동 1340-5번지 용신아트 5층 507호","indutype":"학원 - 보습학원","category":"study"},{"name":"시스템수학학원","tel":"02-898-0982","addr":"경기도 광명시 소하동 1340-5번지 웅신아트 505호","indutype":"학원 - 보습학원","category":"study"},{"name":"지일이삼공수학.에스라이팅어학원","tel":"02-898-1079","addr":"경기도 광명시 소하동 1340-5번지 웅신아트 4층 407,408호","indutype":"학원 - 보습학원","category":"study"}]},{"lat":"37.45546633","long":"126.8817575","imageIndex":16,"items":[{"name":"구름산유치원[아이행복]","tel":"02-819-9071","addr":"경기도 광명시 소하동 1283-1번지","indutype":"학원 - 유치원","category":"study"}]},{"lat":"37.45281975","long":"126.8840899","imageIndex":16,"items":[{"name":"구름산초등학교","tel":"02-899-9832","addr":"경기도 광명시 소하동 1287번지 구름산초등학교","indutype":"학원 - 초중고교육기관","category":"study"}]},{"lat":"37.44981786","long":"126.8825463","imageIndex":16,"items":[{"name":"구름산해법영어교습소","tel":"02-899-2282","addr":"경기도 광명시 소하동 1289번지 휴먼시아3단지 상가동 204호","indutype":"회원제형태 - 학원","category":"study"}]},{"lat":"37.44721637","long":"126.8849237","imageIndex":16,"items":[{"name":"권상진연구소영어교습소","tel":"","addr":"경기도 광명시 소하동 1338-2번지 소하토피아 604호","indutype":"학원 - 기타 교육기관","category":"study"},{"name":"라플라스수학학원","tel":"02-897-0910","addr":"경기도 광명시 소하동 1338-2번지 소하토피아 704호","indutype":"학원 - 보습학원","category":"study"},{"name":"에스앤피 학원","tel":"02-897-3218","addr":"경기도 광명시 소하동 1338-2번지 6층 603호","indutype":"학원 - 보습학원","category":"study"},{"name":"올패스대입전문학원","tel":"02-898-1929","addr":"경기도 광명시 소하동 1338-2번지 601,602호","indutype":"학원 - 보습학원","category":"study"},{"name":"지이씨소하어학원/(주)루시드 광명지점","tel":"02-898-1103","addr":"경기도 광명시 소하동 1338-2번지 소하토피아 502호","indutype":"학원 - 외국어학원","category":"study"},{"name":"타야코리아헤어아카데미","tel":"02-899-3866","addr":"경기도 광명시 소하동 1338-2번지 704호","indutype":"학원 - 기능학원","category":"study"}]},{"lat":"37.43157502","long":"126.8762597","imageIndex":16,"items":[{"name":"그림아트","tel":"","addr":"경기도 광명시 소하동 1397-4번지 광명역세권휴먼시아 302동 601호","indutype":"학원 - 기타 교육기관","category":"study"}]},{"lat":"37.43757989","long":"126.8802383","imageIndex":16,"items":[{"name":"기아e해법수학영어교실2관학원","tel":"02-897-3807","addr":"경기도 광명시 소하동 883-29번지 3층","indutype":"학원 - 보습학원","category":"study"},{"name":"령미술교습소","tel":"02-898-1581","addr":"경기도 광명시 소하동 883-29번지 2층","indutype":"학원 - 예·체능계학원","category":"study"}]},{"lat":"37.43599695","long":"126.8829866","imageIndex":16,"items":[{"name":"기아소하어린이집[아이행복]","tel":"02-801-2331","addr":"경기도 광명시 소하동 1239번지 기아자동차고객센터 1층","indutype":"학원 - 유아원","category":"study"}]},{"lat":"37.43665818","long":"126.8776748","imageIndex":16,"items":[{"name":"기아특전태권도","tel":"02-897-0909","addr":"경기도 광명시 소하동 911-17번지 2층","indutype":"학원 - 예·체능계학원","category":"study"},{"name":"타임즈영어학원","tel":"02-898-5661","addr":"경기도 광명시 소하동 911-17번지 3층","indutype":"회원제형태 - 학원","category":"study"}]},{"lat":"37.43782127","long":"126.87843","imageIndex":16,"items":[{"name":"김경미과외","tel":"02-2066-5928","addr":"경기도 광명시 소하동 909-34번지 예그리나 201호","indutype":"학원 - 기타 교육기관","category":"study"}]},{"lat":"37.44868879","long":"126.8887863","imageIndex":16,"items":[{"name":"김성아(개인과외)","tel":"","addr":"경기도 광명시 소하동 1320-4번지 301호","indutype":"학원 - 기타 교육기관","category":"study"}]},{"lat":"37.44938353","long":"126.8897911","imageIndex":16,"items":[{"name":"꿈어린이집[아이행복]","tel":"02-897-4262","addr":"경기도 광명시 소하동 1311-6번지","indutype":"학원 - 유아원","category":"study"}]},{"lat":"37.45076504","long":"126.8929534","imageIndex":16,"items":[{"name":"넘치는어린이집[아이행복]","tel":"02-897-2220","addr":"경기도 광명시 소하동 1363-1번지","indutype":"학원 - 유아원","category":"study"}]},{"lat":"37.44804857","long":"126.8882562","imageIndex":16,"items":[{"name":"넥스잉글리쉬영어교습소","tel":"02-898-0506","addr":"경기도 광명시 소하동 1321번지 103호","indutype":"학원 - 외국어학원","category":"study"}]},{"lat":"37.43479657","long":"126.8809885","imageIndex":16,"items":[{"name":"늘샘어린이집[아이행복]","tel":"02-897-9682","addr":"경기도 광명시 소하동 1265번지","indutype":"학원 - 유아원","category":"study"}]},{"lat":"37.43482909","long":"126.8776214","imageIndex":16,"items":[{"name":"다솜어린이집[아이행복]","tel":"02-897-5580","addr":"경기도 광명시 소하동 937-2번지","indutype":"학원 - 유아원","category":"study"}]},{"lat":"37.4478274","long":"126.8832841","imageIndex":16,"items":[{"name":"단칼영어학원","tel":"02-899-8848","addr":"경기도 광명시 소하동 1341번지 신성프라자 504호","indutype":"회원제형태 - 학원","category":"study"},{"name":"아이슐레아카데미광명영재교육학원","tel":"02-895-7955","addr":"경기도 광명시 소하동 1341번지 신성프라자 602동 603호","indutype":"학원 - 보습학원","category":"study"},{"name":"주식회사 명계","tel":"02-896-8700","addr":"경기도 광명시 소하동 1341번지 신성프라자 7층 701호","indutype":"학원 - 보습학원","category":"study"}]},{"lat":"37.45062817","long":"126.8911228","imageIndex":16,"items":[{"name":"더드리머수학학원","tel":"070-4419-7345","addr":"경기도 광명시 소하동 29-8번지 201호","indutype":"학원 - 보습학원","category":"study"},{"name":"타피즈학원","tel":"070-4419-7345","addr":"경기도 광명시 소하동 29-8번지 201호","indutype":"학원 - 보습학원","category":"study"}]},{"lat":"37.43548896","long":"126.8796541","imageIndex":16,"items":[{"name":"더플러스학원","tel":"02-899-9522","addr":"경기도 광명시 소하동 1242-12번지 인덕빌딩 2층","indutype":"학원 - 보습학원","category":"study"}]},{"lat":"37.43771451","long":"126.8797296","imageIndex":16,"items":[{"name":"더피아니스트음악교습소","tel":"","addr":"경기도 광명시 소하동 903-3번지 2층","indutype":"학원 - 예·체능계학원","category":"study"}]},{"lat":"37.43435302","long":"126.879012","imageIndex":16,"items":[{"name":"라이트하우스댄스학원","tel":"02-897-0914","addr":"경기도 광명시 소하동 1077-2번지 3층","indutype":"학원 - 예·체능계학원","category":"study"}]},{"lat":"37.43727314","long":"126.8798433","imageIndex":16,"items":[{"name":"란댄스","tel":"02-899-1405","addr":"경기도 광명시 소하동 901-6번지 3층","indutype":"학원 - 예·체능계학원","category":"study"}]},{"lat":"37.43693625","long":"126.8765106","imageIndex":16,"items":[{"name":"로뎀피아노학원","tel":"02-897-1871","addr":"경기도 광명시 소하동 896-9번지 대도빌딩 3층 302호","indutype":"학원 - 예·체능계학원","category":"study"}]},{"lat":"37.43298682","long":"126.882223","imageIndex":16,"items":[{"name":"리드인독서중심국어교습소","tel":"","addr":"경기도 광명시 소하동 1378번지 광명역세권휴먼시아 상가동 205호","indutype":"학원 - 보습학원","category":"study"},{"name":"샵피아노","tel":"02-897-0013","addr":"경기도 광명시 소하동 1378번지 광명역세권휴먼시아","indutype":"학원 - 예·체능계학원","category":"study"},{"name":"은파음악교습소","tel":"02-899-9985","addr":"경기도 광명시 소하동 1378번지 광명역세권휴먼시아3단지 상가 202호","indutype":"학원 - 예·체능계학원","category":"study"},{"name":"해법중국어소하동교습소","tel":"02-865-2014","addr":"경기도 광명시 소하동 1378번지 광명역세권휴먼시아 상가 205호","indutype":"회원제형태 - 학원","category":"study"}]},{"lat":"37.43768615","long":"126.8784528","imageIndex":16,"items":[{"name":"맑은소리음악학원","tel":"02-6404-7272","addr":"경기도 광명시 소하동 909-6번지 3층","indutype":"학원 - 예·체능계학원","category":"study"}]},{"lat":"37.43071866","long":"126.8845654","imageIndex":16,"items":[{"name":"뮤직스토리음악교습소","tel":"02-899-4512","addr":"경기도 광명시 소하동 1389번지 광명역세권휴먼시아 상가동 202호","indutype":"학원 - 예·체능계학원","category":"study"},{"name":"에이치아이(H.I.)잉글리쉬영어교습소","tel":"","addr":"경기도 광명시 소하동 1389번지 광명역세권휴먼시아 5단지 상가동 1층 103호","indutype":"학원 - 외국어학원","category":"study"}]},{"lat":"37.43363222","long":"126.8790131","imageIndex":16,"items":[{"name":"미예뜰음악학원","tel":"02-898-7474","addr":"경기도 광명시 소하동 1075-6번지","indutype":"학원 - 예·체능계학원","category":"study"},{"name":"큐맥스위싱웰보습학원","tel":"02-898-7473","addr":"경기도 광명시 소하동 1075-6번지 2층","indutype":"학원 - 보습학원","category":"study"}]},{"lat":"37.45234744","long":"126.8894024","imageIndex":16,"items":[{"name":"바퀴달린그림책광명플러스학원","tel":"02-3474-4405","addr":"경기도 광명시 소하동 47-28번지 3층","indutype":"학원 - 예·체능계학원","category":"study"},{"name":"반올림음악학원","tel":"02-802-1008","addr":"경기도 광명시 소하동 47-28번지 2층","indutype":"학원 - 예·체능계학원","category":"study"}]},{"lat":"37.43156251","long":"126.8815135","imageIndex":16,"items":[{"name":"브레인가베","tel":"02-566-6080","addr":"경기도 광명시 소하동 1387번지 광명역세권휴먼시아","indutype":"회원제형태 - 학원","category":"study"}]},{"lat":"37.43596649","long":"126.8796533","imageIndex":16,"items":[{"name":"비전보습학원","tel":"02-897-4361","addr":"경기도 광명시 소하동 1242-15번지 16언덕빌딩 6층","indutype":"학원 - 보습학원","category":"study"},{"name":"뿌리깊은독서실","tel":"02-898-9693","addr":"경기도 광명시 소하동 1242-15번지 인덕빌딩 6층","indutype":"학원 - 독서실","category":"study"}]},{"lat":"37.44721593","long":"126.884483","imageIndex":16,"items":[{"name":"사단법인한국방과후학교연구회","tel":"070-8863-8662","addr":"경기도 광명시 소하동 1338-3번지 광장프라자 409호","indutype":"회원제형태 - 학원","category":"study"}]},{"lat":"37.43282632","long":"126.8752407","imageIndex":16,"items":[{"name":"사랑샘어린이집[아이행복]","tel":"070-7504-9509","addr":"경기도 광명시 소하동 949-6번지 1층","indutype":"학원 - 유아원","category":"study"}]},{"lat":"37.43846299","long":"126.8803498","imageIndex":16,"items":[{"name":"서면초등학교","tel":"02-899-5578","addr":"경기도 광명시 소하동 904번지 서면초등학교","indutype":"학원 - 초중고교육기관","category":"study"}]},{"lat":"37.43260127","long":"126.8754332","imageIndex":16,"items":[{"name":"서설희무용학원","tel":"02-897-1181","addr":"경기도 광명시 소하동 950-15번지 3층","indutype":"학원 - 예·체능계학원","category":"study"}]},{"lat":"37.45263776","long":"126.8823158","imageIndex":16,"items":[{"name":"서창호","tel":"070-7502-5971","addr":"경기도 광명시 소하동 1288번지 휴먼시아2단지아파트","indutype":"회원제형태 - 학원","category":"study"}]},{"lat":"37.4527976","long":"126.88904","imageIndex":16,"items":[{"name":"선음피아노학원","tel":"02-803-1705","addr":"경기도 광명시 소하동 47-22","indutype":"학원 - 예·체능계학원","category":"study"}]},{"lat":"37.43621128","long":"126.8811218","imageIndex":16,"items":[{"name":"세움보습학원","tel":"02-897-3488","addr":"경기도 광명시 소하동 1241-4번지 오승빌딩 5층 1호","indutype":"학원 - 보습학원","category":"study"}]},{"lat":"37.4506124","long":"126.8841838","imageIndex":16,"items":[{"name":"세움에듀케이션","tel":"070-8737-4834","addr":"경기도 광명시 소하동 1292번지 휴먼시아4단지아파트","indutype":"학원 - 기타 교육기관","category":"study"}]},{"lat":"37.43774273","long":"126.8808708","imageIndex":16,"items":[{"name":"소리 피아노교습소","tel":"02-899-2452","addr":"경기도 광명시 소하동 883-19번지 2층","indutype":"학원 - 예·체능계학원","category":"study"}]},{"lat":"37.43663285","long":"126.8792907","imageIndex":16,"items":[{"name":"소하독서실","tel":"02-899-3321","addr":"경기도 광명시 소하동 913-4번지","indutype":"학원 - 독서실","category":"study"}]},{"lat":"37.43776873","long":"126.8798764","imageIndex":16,"items":[{"name":"소하스타클래스","tel":"02-898-8888","addr":"경기도 광명시 소하동 903-2번지 2층","indutype":"학원 - 예·체능계학원","category":"study"}]},{"lat":"37.44793961","long":"126.8873975","imageIndex":16,"items":[{"name":"소하중학교","tel":"02-890-0184","addr":"경기도 광명시 소하동 1329번지 소하중학교","indutype":"학원 - 초중고교육기관","category":"study"}]},{"lat":"37.43757963","long":"126.8799897","imageIndex":16,"items":[{"name":"소하피아노교습소","tel":"02-898-7897","addr":"경기도 광명시 소하동 903-5번지","indutype":"회원제형태 - 학원","category":"study"},{"name":"용인대소하태권도장","tel":"02-898-8888","addr":"경기도 광명시 소하동 903-5번지 2층","indutype":"학원 - 예·체능계학원","category":"study"}]},{"lat":"37.43350895","long":"126.8817815","imageIndex":16,"items":[{"name":"솜사탕어린이집[아이행복]","tel":"070-8831-4545","addr":"경기도 광명시 소하동 1378번지 광명역세권휴먼시아 307동 104호","indutype":"학원 - 유아원","category":"study"}]},{"lat":"37.44210573","long":"126.8744","imageIndex":16,"items":[{"name":"숲속푸른어린이집[아이행복]","tel":"02-898-4888","addr":"경기도 광명시 소하동 336-1번지","indutype":"학원 - 유아원","category":"study"}]},{"lat":"37.44472029","long":"126.8939906","imageIndex":16,"items":[{"name":"시립SK테크노파크어린이집[아이행복]","tel":"02-2083-1472","addr":"경기도 광명시 소하동 1345번지 광명테크노파크 C동 101호","indutype":"학원 - 유아원","category":"study"}]},{"lat":"37.43199067","long":"126.8773776","imageIndex":16,"items":[{"name":"시립광명생명숲어린이집[아이행복]","tel":"02-895-1671","addr":"경기도 광명시 소하동 1385-2","indutype":"학원 - 유아원","category":"study"}]},{"lat":"37.45054988","long":"126.8847376","imageIndex":16,"items":[{"name":"시립다원어린이집[아이행복]","tel":"02-897-1357","addr":"경기도 광명시 소하동 1292번지 휴먼시아4단지아파트","indutype":"학원 - 유아원","category":"study"}]},{"lat":"37.42868155","long":"126.8837213","imageIndex":16,"items":[{"name":"시립밝은빛어린이집[아이행복]","tel":"02-897-3357","addr":"경기도 광명시 소하동 1391번지 광명역세권휴먼시아 1층","indutype":"학원 - 유아원","category":"study"}]},{"lat":"37.44012719","long":"126.877816","imageIndex":16,"items":[{"name":"시립소이어린이집[아이행복]","tel":"02-899-4940","addr":"경기도 광명시 소하동 324-2번지 소하2동주민센터","indutype":"학원 - 유아원","category":"study"}]},{"lat":"37.43398944","long":"126.8847072","imageIndex":16,"items":[{"name":"시립충현어린이집[아이행복]","tel":"02-899-7061","addr":"경기도 광명시 소하동 1256-1번지","indutype":"학원 - 유아원","category":"study"}]},{"lat":"37.45493059","long":"126.8865956","imageIndex":16,"items":[{"name":"신스잉글리쉬영어학원","tel":"02-899-4022","addr":"경기도 광명시 소하동 55-63번지 스페이스타워 502호","indutype":"학원 - 외국어학원","category":"study"},{"name":"아트톡미술교습소","tel":"02-6274-9823","addr":"경기도 광명시 소하동 55-63번지 스페이스타워 504호","indutype":"학원 - 예·체능계학원","category":"study"},{"name":"엠베스트에스이(SE) 임팩트학원","tel":"02-899-7909","addr":"경기도 광명시 소하동 55-63번지 스페이스타워 401호","indutype":"학원 - 보습학원","category":"study"},{"name":"프라임독서실","tel":"02-897-6033","addr":"경기도 광명시 소하동 55-63번지 스페이스타워 601동 602호","indutype":"학원 - 독서실","category":"study"}]},{"lat":"37.44735071","long":"126.8934556","imageIndex":16,"items":[{"name":"신촌예일음악교습소","tel":"02-897-1266","addr":"경기도 광명시 소하동 1366번지 신촌휴먼시아2단지 상가 202호","indutype":"학원 - 예·체능계학원","category":"study"}]},{"lat":"37.43821835","long":"126.8790395","imageIndex":16,"items":[{"name":"쌤과통하는수학학원","tel":"02-898-3308","addr":"경기도 광명시 소하동 909-12번지 4층","indutype":"회원제형태 - 학원","category":"study"},{"name":"윤선생영어.영어숲광명소하영어학원","tel":"02-899-0058","addr":"경기도 광명시 소하동 909-12번지 삼승빌딩 3층","indutype":"학원 - 보습학원","category":"study"}]},{"lat":"37.44789014","long":"126.8921891","imageIndex":16,"items":[{"name":"씨밀레학원","tel":"02-6112-7559","addr":"경기도 광명시 소하동 1365번지 에이스광명타워 211호-1","indutype":"학원 - 예·체능계학원","category":"study"}]},{"lat":"37.44757677","long":"126.8849231","imageIndex":16,"items":[{"name":"아발론 잉글리쉬 광명 어학원","tel":"02-808-0033","addr":"경기도 광명시 소하동 1338-1번지 4층 401호,402호 일부","indutype":"학원 - 외국어학원","category":"study"},{"name":"웨어키즈에듀","tel":"02-897-9465","addr":"경기도 광명시 소하동 1338-1번지 서울프라자 404호","indutype":"학원 - 기타 교육기관","category":"study"},{"name":"작심독서실","tel":"031-898-0910","addr":"경기도 광명시 소하동 1338-1번지 601호","indutype":"학원 - 독서실","category":"study"},{"name":"포핀스어학원/포핀스교육주식회사","tel":"02-421-6771","addr":"경기도 광명시 소하동 1338-1번지 8층 801~804호","indutype":"학원 - 외국어학원","category":"study"},{"name":"헤리티지교육 주식회사","tel":"02-421-6772","addr":"경기도 광명시 소하동 1338-1번지 4층 403호","indutype":"학원 - 보습학원","category":"study"},{"name":"헤리티지수학학원","tel":"031-0000-0000","addr":"경기도 광명시 소하동 1338-1번지 서울프라자 404호","indutype":"학원 - 보습학원","category":"study"}]},{"lat":"37.43315541","long":"126.8797032","imageIndex":16,"items":[{"name":"아이스터디학원","tel":"02-899-9229","addr":"경기도 광명시 소하동 1380번지 행운드림프라자 4층 6호","indutype":"학원 - 보습학원","category":"study"},{"name":"주식회사 지성의숲 소하지점","tel":"02-899-1703","addr":"경기도 광명시 소하동 1380번지 405호","indutype":"학원 - 보습학원","category":"study"},{"name":"지온영어수학학원","tel":"070-4157-8517","addr":"경기도 광명시 소하동 1380번지 401호","indutype":"회원제형태 - 학원","category":"study"},{"name":"지온이아이이어학원","tel":"02-899-8517","addr":"경기도 광명시 소하동 1380번지 403호","indutype":"학원 - 보습학원","category":"study"},{"name":"충현음악학원","tel":"02-899-3678","addr":"경기도 광명시 소하동 1380번지 행운드림프라자 402호","indutype":"학원 - 예·체능계학원","category":"study"}]},{"lat":"37.4382984","long":"126.878045","imageIndex":16,"items":[{"name":"영광몬테소리어린이집[아이행복]","tel":"02-899-1235","addr":"경기도 광명시 소하동 381-8번지","indutype":"학원 - 유아원","category":"study"}]},{"lat":"37.43710742","long":"126.8764877","imageIndex":16,"items":[{"name":"예인미술교습소","tel":"02-6084-7905","addr":"경기도 광명시 소하동 896-8번지 1층","indutype":"학원 - 예·체능계학원","category":"study"}]},{"lat":"37.43232718","long":"126.8803711","imageIndex":16,"items":[{"name":"용인대국가대표태권도장","tel":"031-897-1128","addr":"경기도 광명시 소하동 1382-4번지 1층","indutype":"학원 - 예·체능계학원","category":"study"}]},{"lat":"37.43459573","long":"126.8873502","imageIndex":16,"items":[{"name":"용인대열정태권도장","tel":"02-899-7990","addr":"경기도 광명시 소하동 1373번지 광명역세권휴먼시아","indutype":"학원 - 예·체능계학원","category":"study"},{"name":"진실음악학원","tel":"02-892-8812","addr":"경기도 광명시 소하동 1373번지 휴먼시아1단지 상가 205호","indutype":"학원 - 예·체능계학원","category":"study"}]},{"lat":"37.44910293","long":"126.888458","imageIndex":16,"items":[{"name":"웃음꽃어린이집[아이행복]","tel":"02-899-5762","addr":"경기도 광명시 소하동 1320번지 101호","indutype":"학원 - 유아원","category":"study"}]},{"lat":"37.44707271","long":"126.8854325","imageIndex":16,"items":[{"name":"위듀프리미엄독서실","tel":"02-899-8995","addr":"경기도 광명시 소하동 1337-4번지 신한빌딩 5층","indutype":"학원 - 독서실","category":"study"}]},{"lat":"37.45415473","long":"126.8855909","imageIndex":16,"items":[{"name":"위즈영어교습소","tel":"02-897-5078","addr":"경기도 광명시 소하동 1284번지 휴먼시아1단지아파트","indutype":"학원 - 외국어학원","category":"study"}]},{"lat":"37.45134884","long":"126.8909861","imageIndex":16,"items":[{"name":"윤일중커피학원","tel":"02-897-8582","addr":"경기도 광명시 소하동 35-2번지 4층","indutype":"학원 - 기능학원","category":"study"}]},{"lat":"37.43313432","long":"126.8767881","imageIndex":16,"items":[{"name":"이레학원","tel":"02-897-4760","addr":"경기도 광명시 소하동 1092번지 오동빌스 202호","indutype":"학원 - 보습학원","category":"study"}]},{"lat":"37.43802022","long":"126.8791189","imageIndex":16,"items":[{"name":"이지어학원","tel":"02-899-6889","addr":"경기도 광명시 소하동 909-27번지 ,2,3층","indutype":"학원 - 보습학원","category":"study"},{"name":"페르마학원/유한회사 해륜","tel":"02-899-6889","addr":"경기도 광명시 소하동 909-27번지 4층","indutype":"학원 - 외국어학원","category":"study"}]},{"lat":"37.43815496","long":"126.8787345","imageIndex":16,"items":[{"name":"이지탑학원","tel":"02-898-1254","addr":"경기도 광명시 소하동 909-9번지 2층","indutype":"학원 - 기타 교육기관","category":"study"}]},{"lat":"37.43271418","long":"126.8799524","imageIndex":16,"items":[{"name":"이케이(EK)3030영어","tel":"070-4922-1261","addr":"경기도 광명시 소하동 1381-6번지 1층","indutype":"학원 - 외국어학원","category":"study"}]},{"lat":"37.44788361","long":"126.8854312","imageIndex":16,"items":[{"name":"이프(IF)댄스아카데미","tel":"02-899-1225","addr":"경기도 광명시 소하동 1337번지 성현빌딩 3층 1호","indutype":"학원 - 예·체능계학원","category":"study"}]},{"lat":"37.43663962","long":"126.8771664","imageIndex":16,"items":[{"name":"조이공부방","tel":"","addr":"경기도 광명시 소하동 933번지 미도아파트2차","indutype":"학원 - 기타 교육기관","category":"study"}]},{"lat":"37.43232655","long":"126.879761","imageIndex":16,"items":[{"name":"조이풀 미술교습소","tel":"02-897-0728","addr":"경기도 광명시 소하동 1382-7번지 103호","indutype":"학원 - 예·체능계학원","category":"study"}]},{"lat":"37.44588342","long":"126.8854569","imageIndex":16,"items":[{"name":"주식회사헤스코리아교육원","tel":"02-806-1212","addr":"경기도 광명시 소하동 1337-10번지 201호","indutype":"회원제형태 - 학원","category":"study"},{"name":"현영어교습소","tel":"02-898-0563","addr":"경기도 광명시 소하동 1337-10번지 그린파크 415호","indutype":"학원 - 외국어학원","category":"study"}]},{"lat":"37.44163083","long":"126.8768417","imageIndex":16,"items":[{"name":"주품어린이집[아이행복]","tel":"02-894-5293","addr":"경기도 광명시 소하동 313-14","indutype":"학원 - 유아원","category":"study"}]},{"lat":"37.45188603","long":"126.8874366","imageIndex":16,"items":[{"name":"즐거운피아노교습소","tel":"02-898-0926","addr":"경기도 광명시 소하동 1294번지 휴먼시아5단지 상가 203호","indutype":"학원 - 예·체능계학원","category":"study"}]},{"lat":"37.4377959","long":"126.8800119","imageIndex":16,"items":[{"name":"즐라이(JLAI)미술교습소","tel":"031-000-0000","addr":"경기도 광명시 소하동 883-8번지 1층","indutype":"학원 - 예·체능계학원","category":"study"}]},{"lat":"37.44757182","long":"126.8890706","imageIndex":16,"items":[{"name":"지혜늘샘어린이집","tel":"02-897-0485","addr":"경기도 광명시 소하동 1321-6번지","indutype":"학원 - 유아원","category":"study"},{"name":"지혜늘샘어린이집[아이행복]","tel":"02-899-0077","addr":"경기도 광명시 소하동 1321-6번지","indutype":"학원 - 유아원","category":"study"}]},{"lat":"37.4519445","long":"126.8920476","imageIndex":16,"items":[{"name":"초성민수학","tel":"000-0000-0000","addr":"경기도 광명시 소하동 34-12번지 휴먼포레스트2차 나동 202호","indutype":"학원 - 보습학원","category":"study"}]},{"lat":"37.44787805","long":"126.8889571","imageIndex":16,"items":[{"name":"최지영음악학원","tel":"02-2642-7999","addr":"경기도 광명시 소하동 1321-5번지 1층","indutype":"학원 - 예·체능계학원","category":"study"}]},{"lat":"37.43524335","long":"126.8862306","imageIndex":16,"items":[{"name":"충현미술학원","tel":"02-899-4118","addr":"경기도 광명시 소하동 1372-3번지","indutype":"학원 - 예·체능계학원","category":"study"},{"name":"충현음악교습소","tel":"02-899-4118","addr":"경기도 광명시 소하동 1372-3번지","indutype":"학원 - 예·체능계학원","category":"study"}]},{"lat":"37.43296379","long":"126.8862115","imageIndex":16,"items":[{"name":"충현초등학교","tel":"031-898-4100","addr":"경기도 광명시 소하동 1375번지 충현초등학교","indutype":"학원 - 초중고교육기관","category":"study"}]},{"lat":"37.43544151","long":"126.8773718","imageIndex":16,"items":[{"name":"큰별몬테소리어린이집[아이행복]","tel":"02-897-6138","addr":"경기도 광명시 소하동 937번지 성원 상가 2동 3층","indutype":"학원 - 유아원","category":"study"},{"name":"큰별어린이집","tel":"02-897-6138","addr":"경기도 광명시 소하동 937번지","indutype":"학원 - 유치원","category":"study"}]},{"lat":"37.45121301","long":"126.890263","imageIndex":16,"items":[{"name":"킨더지니어스 어학원","tel":"02-898-1087","addr":"경기도 광명시 소하동 36-2번지 2층","indutype":"학원 - 외국어학원","category":"study"}]},{"lat":"37.45110467","long":"126.8900371","imageIndex":16,"items":[{"name":"탑에듀플러스학원","tel":"02-897-9762","addr":"경기도 광명시 소하동 36-91번지","indutype":"학원 - 보습학원","category":"study"}]},{"lat":"37.44304729","long":"126.8786247","imageIndex":16,"items":[{"name":"투포인츠학원","tel":"02-1577-4196","addr":"경기도 광명시 소하동 303-3번지","indutype":"회원제형태 - 학원","category":"study"}]},{"lat":"37.43501799","long":"126.8861179","imageIndex":16,"items":[{"name":"트인아이유치원","tel":"02-899-9811","addr":"경기도 광명시 소하동 1372-7번지","indutype":"학원 - 유치원","category":"study"},{"name":"트인아이유치원[아이행복]","tel":"02-899-9811","addr":"경기도 광명시 소하동 1372-7","indutype":"학원 - 유치원","category":"study"}]},{"lat":"37.43246211","long":"126.8801562","imageIndex":16,"items":[{"name":"티나쌤영어교습소","tel":"070-4095-3065","addr":"경기도 광명시 소하동 1382-2번지 102호 일부(창가쪽)","indutype":"학원 - 외국어학원","category":"study"}]},{"lat":"37.43529478","long":"126.8835978","imageIndex":16,"items":[{"name":"파란나라어린이집[아이행복]","tel":"02-802-4711","addr":"경기도 광명시 소하동 1251번지 기아소비조합 2층","indutype":"학원 - 유아원","category":"study"}]},{"lat":"37.4381912","long":"126.8789265","imageIndex":16,"items":[{"name":"파워보습학원","tel":"02-899-1223","addr":"경기도 광명시 소하동 909-11번지 909-11,12 2층","indutype":"학원 - 보습학원","category":"study"}]},{"lat":"37.44618628","long":"126.8911633","imageIndex":16,"items":[{"name":"팡팡에듀","tel":"031-387-8465","addr":"경기도 광명시 소하동 1324번지 휴먼시아6단지아파트","indutype":"학원 - 기타 교육기관","category":"study"}]},{"lat":"37.44760286","long":"126.8839851","imageIndex":16,"items":[{"name":"하이탑독서실","tel":"02-897-9876","addr":"경기도 광명시 소하동 1339-1번지 아이플랙스 503호","indutype":"학원 - 독서실","category":"study"}]},{"lat":"37.45160186","long":"126.8917655","imageIndex":16,"items":[{"name":"한국평생교육원","tel":"02-899-9765","addr":"경기도 광명시 소하동 34-45 4층","indutype":"회원제형태 - 학원","category":"study"}]},{"lat":"37.43593503","long":"126.8841279","imageIndex":16,"items":[{"name":"한소망 비젼학원","tel":"02-804-9191","addr":"경기도 광명시 소하동 1238-4번지","indutype":"학원 - 보습학원","category":"study"}]},{"lat":"37.4524915","long":"126.8892891","imageIndex":16,"items":[{"name":"한얼합기도","tel":"02-895-1371","addr":"경기도 광명시 소하동 47-27번지 삼성빌딩 301호","indutype":"학원 - 예·체능계학원","category":"study"}]},{"lat":"37.43484941","long":"126.8798134","imageIndex":16,"items":[{"name":"한일합기도체육관","tel":"02-895-1375","addr":"경기도 광명시 소하동 1268-2번지 진성빌딩 3층","indutype":"학원 - 예·체능계학원","category":"study"}]},{"lat":"37.44590452","long":"126.8885985","imageIndex":16,"items":[{"name":"해누리유치원[아이행복]","tel":"02-3289-2200","addr":"경기도 광명시 소하동 1325-1번지","indutype":"학원 - 유치원","category":"study"}]},{"lat":"37.43026782","long":"126.8842272","imageIndex":16,"items":[{"name":"해와달어린이집[아이행복]","tel":"02-898-3282","addr":"경기도 광명시 소하동 1389번지 광명역세권휴먼시아 508동 103호","indutype":"학원 - 유아원","category":"study"}]},{"lat":"37.43110411","long":"126.8825989","imageIndex":16,"items":[{"name":"행복나무어린이집[아이행복]","tel":"02-6013-9795","addr":"경기도 광명시 소하동 1387번지 휴먼시아4단지복지관 1층","indutype":"학원 - 유아원","category":"study"}]},{"lat":"37.45188771","long":"126.8891657","imageIndex":16,"items":[{"name":"행진잡 협동조합","tel":"070-7678-7770","addr":"경기도 광명시 소하동 1273번지 금호어울림아파트","indutype":"학원 - 기타 교육기관","category":"study"}]},{"lat":"37.4373801","long":"126.8787358","imageIndex":16,"items":[{"name":"협동조합숲터","tel":"02-2680-6457","addr":"경기도 광명시 소하동 924-9번지 2층","indutype":"학원 - 기타 교육기관","category":"study"}]},{"lat":"37.45458085","long":"126.8882914","imageIndex":16,"items":[{"name":"황순영 개인과외교습","tel":"02-2217-4979","addr":"경기도 광명시 소하동 48-55번지 동양2차아파트","indutype":"학원 - 기타 교육기관","category":"study"}]},{"lat":"37.44304421","long":"126.8843991","imageIndex":16,"items":[{"name":"흙사랑농원","tel":"02-2060-9116","addr":"경기도 광명시 소하동 279","indutype":"학원 - 기타 교육기관","category":"study"}]}]