[{"lat":"37.051436328","long":"127.20307768","imageIndex":4,"items":[{"name":"강변집","tel":"031-674-6070","addr":"경기도 안성시 대덕면 명당리 15-3번지","indutype":"일반휴게음식 - 일식·회집","category":"restaurant"}]},{"lat":"37.050625889","long":"127.20277203","imageIndex":4,"items":[{"name":"빈&티","tel":"031-674-7933","addr":"경기도 안성시 대덕면 명당리 16-4번지","indutype":"일반휴게음식 - 일반한식","category":"restaurant"}]},{"lat":"37.049461703","long":"127.20384817","imageIndex":4,"items":[{"name":"엄마맛영양탕","tel":"031-672-4350","addr":"경기도 안성시 대덕면 명당리 27-12번지 지층","indutype":"일반휴게음식 - 일반한식","category":"restaurant"}]},{"lat":"37.048903504","long":"127.2035769","imageIndex":4,"items":[{"name":"청주본가 명당리 왕갈비탕","tel":"","addr":"경기도 안성시 대덕면 명당리 31-7번지 1동 1층","indutype":"일반휴게음식 - 일반한식","category":"restaurant"}]},{"lat":"37.049318978","long":"127.20299343","imageIndex":17,"items":[{"name":"경진샤링","tel":"031-676-0382","addr":"경기도 안성시 대덕면 명당리 32-1번지","indutype":"건축자재 - 기타건축자재","category":"other"},{"name":"우리공구","tel":"031-676-0904","addr":"경기도 안성시 대덕면 명당리 32-1번지","indutype":"기타 - 기계공구","category":"other"}]},{"lat":"37.041133885","long":"127.21534759","imageIndex":17,"items":[{"name":"나무터","tel":"031-671-3649","addr":"경기도 안성시 대덕면 명당리 205-1번지","indutype":"건축자재 - 목재·석재·철물","category":"other"}]},{"lat":"37.049465824","long":"127.20671478","imageIndex":17,"items":[{"name":"담 스티치 갤러리","tel":"031-674-0789","addr":"경기도 안성시 대덕면 명당리 67-4번지","indutype":"의류 - 정장","category":"other"}]},{"lat":"37.048244418","long":"127.20435082","imageIndex":17,"items":[{"name":"명당편의점","tel":"031-671-4989","addr":"경기도 안성시 대덕면 명당리 84-3","indutype":"유통업 영리 - 편 의 점","category":"other"}]},{"lat":"37.041909739","long":"127.21482145","imageIndex":17,"items":[{"name":"명성하우징","tel":"031-676-3188","addr":"경기도 안성시 대덕면 명당리 208-2번지 207호","indutype":"건축자재 - 기타건축자재","category":"other"}]},{"lat":"37.047466326","long":"127.20621482","imageIndex":17,"items":[{"name":"세븐(SE7EN)사무기","tel":"031-618-2050","addr":"경기도 안성시 대덕면 명당리 81번지","indutype":"사무통신 - 컴퓨터","category":"other"}]},{"lat":"37.043321482","long":"127.21138572","imageIndex":17,"items":[{"name":"열린","tel":"031-674-0945","addr":"경기도 안성시 대덕면 명당리 170-15번지","indutype":"농업 - 기타농업관련","category":"other"}]},{"lat":"37.039626352","long":"127.21688329","imageIndex":17,"items":[{"name":"주식회사 수지산업","tel":"031-262-9916","addr":"경기도 안성시 대덕면 명당리 257-1번지","indutype":"유통업 영리 - 기타유통업","category":"other"}]},{"lat":"37.049018333","long":"127.20493743","imageIndex":17,"items":[{"name":"주식회사 인벤토리","tel":"031-677-5957","addr":"경기도 안성시 대덕면 명당리 62-2번지 1층","indutype":"서적문구 - 과학기자재","category":"other"}]},{"lat":"37.045155103","long":"127.2088278","imageIndex":5,"items":[{"name":"노블레스모텔","tel":"031-674-7390","addr":"경기도 안성시 대덕면 명당리 154번지","indutype":"숙박업 - 여관/기타숙박업","category":"hotel"}]},{"lat":"37.0461328","long":"127.20618878","imageIndex":7,"items":[{"name":"명당농원","tel":"","addr":"경기도 안성시 대덕면 명당리 122번지","indutype":"음료식품 - 농·축·수산품","category":"food"}]},{"lat":"37.04626844","long":"127.20590812","imageIndex":7,"items":[{"name":"미나네 포도","tel":"031-673-6128","addr":"경기도 안성시 대덕면 명당리 122-2번지","indutype":"음료식품 - 농·축·수산품","category":"food"}]},{"lat":"37.047712699","long":"127.20440562","imageIndex":7,"items":[{"name":"성민포도원","tel":"031-677-2429","addr":"경기도 안성시 대덕면 명당리 85-1","indutype":"음료식품 - 농·축·수산품","category":"food"}]},{"lat":"37.049958273","long":"127.20326491","imageIndex":9,"items":[{"name":"명당주유소","tel":"031-671-0933","addr":"경기도 안성시 대덕면 명당리 30-2번지 1층","indutype":"연료판매점 - 현대정유(오일뱅크)","category":"oil"}]},{"lat":"37.043238684","long":"127.21235219","imageIndex":9,"items":[{"name":"순셀프주유소","tel":"031-671-7951","addr":"경기도 안성시 대덕면 명당리 172-3","indutype":"연료판매점 - 주유소","category":"oil"},{"name":"한빛주유소","tel":"031-671-7951","addr":"경기도 안성시 대덕면 명당리 172-3번지 한빛셀프주유소","indutype":"연료판매점 - GS주유소","category":"oil"}]}]