[{"lat":"36.964358873","long":"127.06031879","imageIndex":8,"items":[{"name":"새우리의원","tel":"031-691-5304","addr":"경기도 평택시 팽성읍 객사리 126-3번지 안트빌딩 3층","indutype":"의원 - 의원","category":"medical"},{"name":"치아사랑치과의원","tel":"031-652-9399","addr":"경기도 평택시 팽성읍 객사리 126-3번지 안트빌딩 2층","indutype":"서비스업 - 병원","category":"medical"},{"name":"한마음약국","tel":"031-655-1112","addr":"경기도 평택시 팽성읍 객사리 126-3번지","indutype":"소매업 - 약국","category":"medical"},{"name":"한마음약국","tel":"031-691-9185","addr":"경기도 평택시 팽성읍 객사리 126-3번지","indutype":"약국 - 약국","category":"medical"}]},{"lat":"36.964745714","long":"127.06158797","imageIndex":8,"items":[{"name":"팽성경희한의원","tel":"031-692-5009","addr":"경기도 평택시 팽성읍 객사리 168-21번지","indutype":"서비스업 - 한의원","category":"medical"}]},{"lat":"36.964692014","long":"127.06084681","imageIndex":8,"items":[{"name":"팽성하나의원","tel":"031-658-7551","addr":"경기도 평택시 팽성읍 객사리 124-7","indutype":"의원 - 의원","category":"medical"}]},{"lat":"36.964944276","long":"127.0609256","imageIndex":8,"items":[{"name":"하나로약국","tel":"031-655-1112","addr":"경기도 평택시 팽성읍 객사리 168-10번지 1층","indutype":"약국 - 약국","category":"medical"},{"name":"하나로약국","tel":"031-691-7553","addr":"경기도 평택시 팽성읍 객사리 168-10번지","indutype":"소매업 - 약국","category":"medical"}]}]