[{"lat":"37.221377116","long":"126.94793247","imageIndex":13,"items":[{"name":"김민헤어","tel":"031-297-6493","addr":"경기도 화성시 봉담읍 수영리 649-40번지","indutype":"보건위생 - 미용원","category":"beauty"}]},{"lat":"37.221242783","long":"126.9497353","imageIndex":13,"items":[{"name":"김순애헤어아트","tel":"031-227-8776","addr":"경기도 화성시 봉담읍 수영리 648-15번지","indutype":"보건위생 - 미용원","category":"beauty"}]},{"lat":"37.223685277","long":"126.95128848","imageIndex":13,"items":[{"name":"네일앤래쉬","tel":"031-234-4567","addr":"경기도 화성시 봉담읍 수영리 647-11번지 110호","indutype":"보건위생 - 피부미용실","category":"beauty"},{"name":"콩스헤어","tel":"031-362-6010","addr":"경기도 화성시 봉담읍 수영리 647-11번지 2층 203호","indutype":"보건위생 - 미용원","category":"beauty"}]},{"lat":"37.222099332","long":"126.95100789","imageIndex":13,"items":[{"name":"뽀샤시피부토탈케어","tel":"031-227-2215","addr":"경기도 화성시 봉담읍 수영리 647-6번지 2층 202호","indutype":"보건위생 - 피부미용실","category":"beauty"}]},{"lat":"37.223162544","long":"126.95098462","imageIndex":13,"items":[{"name":"새늘헤어","tel":"031-292-0065","addr":"경기도 화성시 봉담읍 수영리 647-67번지 1층 101호","indutype":"보건위생 - 미용원","category":"beauty"}]},{"lat":"37.222856359","long":"126.95136792","imageIndex":13,"items":[{"name":"아리헤어","tel":"031-297-0056","addr":"경기도 화성시 봉담읍 수영리 647-39번지 102호","indutype":"보건위생 - 미용원","category":"beauty"}]},{"lat":"37.237103666","long":"126.95606884","imageIndex":13,"items":[{"name":"앵두손톱","tel":"031-291-4140","addr":"경기도 화성시 봉담읍 수영리 674번지 우방아이유쉘1단지 상가동 102호","indutype":"보건위생 - 피부미용실","category":"beauty"},{"name":"에이원 헤어","tel":"031-292-6572","addr":"경기도 화성시 봉담읍 수영리 674번지 우방아이유쉘1단지 상가동 106호","indutype":"보건위생 - 미용원","category":"beauty"},{"name":"에이원헤어","tel":"031-292-6572","addr":"경기도 화성시 봉담읍 수영리 674번지 우방아이쉘1단지 상가동 106호","indutype":"보건위생 - 미용원","category":"beauty"}]},{"lat":"37.235851217","long":"126.95603581","imageIndex":13,"items":[{"name":"이츠안경","tel":"031-297-0188","addr":"경기도 화성시 봉담읍 수영리 679번지 우방아이유쉘2단지 1층 103호","indutype":"보건위생 - 안경","category":"beauty"}]}]