[{"lat":"37.223853091","long":"126.85957144","imageIndex":17,"items":[{"name":"(주)나라스틸","tel":"031-387-6842","addr":"경기도 화성시 비봉면 양노리 748-6번지 1층","indutype":"건축자재 - 기타건축자재","category":"other"}]},{"lat":"37.235484729","long":"126.86660392","imageIndex":17,"items":[{"name":"(주)대신건기","tel":"031-356-2748","addr":"경기도 화성시 비봉면 양노리 307-1번지","indutype":"기타 - 기계공구","category":"other"},{"name":"대신","tel":"031-307-3434","addr":"경기도 화성시 비봉면 양노리 307-1번지","indutype":"문화.취미 - 화원","category":"other"},{"name":"베테랑에어컨","tel":"070-8871-2082","addr":"경기도 화성시 비봉면 양노리 307-1번지 기성빌딩 1층","indutype":"전기제품 - 냉열기기","category":"other"},{"name":"정일건기","tel":"031-537-0485","addr":"경기도 화성시 비봉면 양노리 307-1번지 기성빌딩 2층","indutype":"기타 - 기계공구","category":"other"}]},{"lat":"37.215407619","long":"126.85730039","imageIndex":17,"items":[{"name":"(주)대영메트리얼","tel":"031-358-0106","addr":"경기도 화성시 비봉면 양노리 707번지 105호","indutype":"신변잡화 - 기타잡화","category":"other"},{"name":"씨유화성양노점","tel":"031-898-6568","addr":"경기도 화성시 비봉면 양노리 707번지 1층 101호","indutype":"유통업 영리 - 편 의 점","category":"other"}]},{"lat":"37.220407197","long":"126.86382559","imageIndex":17,"items":[{"name":"(주)동신전열","tel":"031-355-0160","addr":"경기도 화성시 비봉면 양노리 732-1","indutype":"전기제품 - 냉열기기","category":"other"}]},{"lat":"37.219352763","long":"126.86363599","imageIndex":17,"items":[{"name":"(주)엠이티","tel":"031-8055-8115","addr":"경기도 화성시 비봉면 양노리 732-3번지","indutype":"전기제품 - 기타전기제품","category":"other"}]},{"lat":"37.221576682","long":"126.85485484","imageIndex":17,"items":[{"name":"(주)오비탈","tel":"031-356-8720","addr":"경기도 화성시 비봉면 양노리 673-11번지","indutype":"유통업 영리 - 기타유통업","category":"other"}]},{"lat":"37.225906104","long":"126.85846332","imageIndex":17,"items":[{"name":"(주)화천MTS","tel":"031-366-8565","addr":"경기도 화성시 비봉면 양노리 687-2번지","indutype":"기타 - 기계공구","category":"other"}]},{"lat":"37.236241154","long":"126.86621941","imageIndex":17,"items":[{"name":"GS25비봉스카이점","tel":"","addr":"경기도 화성시 비봉면 양노리 290-4번지 1층 일부","indutype":"유통업 영리 - 편 의 점","category":"other"}]},{"lat":"37.237159336","long":"126.87346398","imageIndex":17,"items":[{"name":"교복문구(GYOBOKMOONGU)","tel":"031-356-9409","addr":"경기도 화성시 비봉면 양노리 261-1번지","indutype":"의류 - 단체복","category":"other"}]},{"lat":"37.215992565","long":"126.87212566","imageIndex":17,"items":[{"name":"금보종합정비(주)","tel":"031-357-6886","addr":"경기도 화성시 비봉면 양노리 761-2번지","indutype":"기타 - 기계공구","category":"other"}]},{"lat":"37.234992913","long":"126.86210844","imageIndex":17,"items":[{"name":"나무와 나무","tel":"031-355-4971","addr":"경기도 화성시 비봉면 양노리 492-1번지","indutype":"농업 - 비료,사료,종자","category":"other"}]},{"lat":"37.236988742","long":"126.87401647","imageIndex":17,"items":[{"name":"나비캣 회성점","tel":"","addr":"경기도 화성시 비봉면 양노리 256-2번지 2층","indutype":"문화.취미 - 애완동물","category":"other"}]},{"lat":"37.219490364","long":"126.85816008","imageIndex":17,"items":[{"name":"나스목공기계","tel":"031-355-9648","addr":"경기도 화성시 비봉면 양노리 713-1번지","indutype":"기타 - 기계공구","category":"other"}]},{"lat":"37.23540193","long":"126.87310637","imageIndex":17,"items":[{"name":"대우오토바이","tel":"031-355-5530","addr":"경기도 화성시 비봉면 양노리 270-3","indutype":"수리서비스 - 레져용품수리","category":"other"}]},{"lat":"37.222766425","long":"126.85515673","imageIndex":17,"items":[{"name":"대일용접","tel":"031-355-3246","addr":"경기도 화성시 비봉면 양노리 672-10번지","indutype":"기타 - 기계공구","category":"other"},{"name":"동원테크","tel":"031-355-3246","addr":"경기도 화성시 비봉면 양노리 672-10","indutype":"기타 - 기계공구","category":"other"}]},{"lat":"37.236962311","long":"126.87456872","imageIndex":17,"items":[{"name":"대풍기업주식회사","tel":"031-355-9500","addr":"경기도 화성시 비봉면 양노리 255-2번지","indutype":"사무통신 - 기타 사무용품","category":"other"}]},{"lat":"37.219292068","long":"126.85810413","imageIndex":17,"items":[{"name":"대흥목공기계","tel":"031-355-9648","addr":"경기도 화성시 비봉면 양노리 713-2","indutype":"기타 - 기계공구","category":"other"}]},{"lat":"37.22201649","long":"126.86082557","imageIndex":17,"items":[{"name":"드림솔루션","tel":"070-8031-4038","addr":"경기도 화성시 비봉면 양노리 721-1번지","indutype":"기타 - 기계공구","category":"other"}]},{"lat":"37.235151633","long":"126.86685244","imageIndex":17,"items":[{"name":"루돌프갤러리","tel":"031-419-4959","addr":"경기도 화성시 비봉면 양노리 307-8번지","indutype":"가구 - 일반가구","category":"other"}]},{"lat":"37.224737879","long":"126.85371064","imageIndex":17,"items":[{"name":"리더낚시(남양점)","tel":"031-366-2759","addr":"경기도 화성시 비봉면 양노리 637-8","indutype":"레져용품 - 스포츠·레져용품","category":"other"}]},{"lat":"37.236681937","long":"126.87360003","imageIndex":17,"items":[{"name":"맵씨 옷수선","tel":"031-406-8989","addr":"경기도 화성시 비봉면 양노리 254-5번지","indutype":"수리서비스 - 세탁소","category":"other"}]},{"lat":"37.234986032","long":"126.86391151","imageIndex":17,"items":[{"name":"모녀농원","tel":"031-355-2954","addr":"경기도 화성시 비봉면 양노리 295-2","indutype":"문화.취미 - 화원","category":"other"}]},{"lat":"37.222932449","long":"126.85826618","imageIndex":17,"items":[{"name":"문박사","tel":"031-357-8756","addr":"경기도 화성시 비봉면 양노리 701-15번지 1동","indutype":"건축자재 - 기타건축자재","category":"other"}]},{"lat":"37.222655555","long":"126.8529711","imageIndex":17,"items":[{"name":"베스트로","tel":"031-000-0000","addr":"경기도 화성시 비봉면 양노리 656-3번지","indutype":"건축자재 - 기타건축자재","category":"other"}]},{"lat":"37.2367988","long":"126.8733519","imageIndex":17,"items":[{"name":"비봉지업사","tel":"031-355-8268","addr":"경기도 화성시 비봉면 양노리 261-8번지","indutype":"직물 - 카페트,커튼,천막,지물","category":"other"}]},{"lat":"37.236104063","long":"126.8645518","imageIndex":17,"items":[{"name":"삼화종합공사","tel":"031-000-0000","addr":"경기도 화성시 비봉면 양노리 291-5번지","indutype":"용역 서비스 - 기타용역서비스","category":"other"}]},{"lat":"37.225799944","long":"126.85279586","imageIndex":17,"items":[{"name":"선진기획","tel":"031-356-8789","addr":"경기도 화성시 비봉면 양노리 642-5","indutype":"유통업 영리 - 기타유통업","category":"other"},{"name":"한빛코리아","tel":"031-356-9957","addr":"경기도 화성시 비봉면 양노리 642-5번지","indutype":"주방용구 - 정수기","category":"other"}]},{"lat":"37.222824668","long":"126.85854807","imageIndex":17,"items":[{"name":"세븐일레븐화성비봉점","tel":"","addr":"경기도 화성시 비봉면 양노리 701-15번지 C동 101호","indutype":"유통업 영리 - 편 의 점","category":"other"}]},{"lat":"37.220403556","long":"126.8534375","imageIndex":17,"items":[{"name":"세용산업","tel":"031-355-9771","addr":"경기도 화성시 비봉면 양노리 668-16번지 ***연번지,17","indutype":"기타 - 기계공구","category":"other"}]},{"lat":"37.235326424","long":"126.87001876","imageIndex":17,"items":[{"name":"씨유화성비봉점","tel":"080-080-3663","addr":"경기도 화성시 비봉면 양노리 280-39번지","indutype":"유통업 영리 - 편 의 점","category":"other"},{"name":"주식회사 제이엔로드","tel":"031-357-2522","addr":"경기도 화성시 비봉면 양노리 280-39번지 204호","indutype":"건축자재 - 기타건축자재","category":"other"}]},{"lat":"37.22449188","long":"126.85879277","imageIndex":17,"items":[{"name":"아름기획","tel":"031-355-6844","addr":"경기도 화성시 비봉면 양노리 694번지 201호","indutype":"기타 - 기타 전문점","category":"other"}]},{"lat":"37.221827611","long":"126.8611076","imageIndex":17,"items":[{"name":"아이지에이마트 양노공단점","tel":"","addr":"경기도 화성시 비봉면 양노리 721-2번지","indutype":"유통업 영리 - 편 의 점","category":"other"}]},{"lat":"37.229211668","long":"126.87295923","imageIndex":17,"items":[{"name":"아이지에이마트 화성비봉점","tel":"031-355-3088","addr":"경기도 화성시 비봉면 양노리 147-2번지","indutype":"유통업 영리 - 편 의 점","category":"other"}]},{"lat":"37.224048985","long":"126.8576556","imageIndex":17,"items":[{"name":"알레 (ALLE)","tel":"","addr":"경기도 화성시 비봉면 양노리 700-1번지","indutype":"신변잡화 - 기타잡화","category":"other"}]},{"lat":"37.220351326","long":"126.86229339","imageIndex":17,"items":[{"name":"알파도어아카데미","tel":"031-356-4618","addr":"경기도 화성시 비봉면 양노리 723-7번지","indutype":"건축자재 - 기타건축자재","category":"other"},{"name":"이노핸즈","tel":"031-480-6636","addr":"경기도 화성시 비봉면 양노리 723-7번지","indutype":"건축자재 - 기타건축자재","category":"other"}]},{"lat":"37.217354846","long":"126.85810783","imageIndex":17,"items":[{"name":"애짓다1","tel":"02-451-6300","addr":"경기도 화성시 비봉면 양노리 708-32번지 1층","indutype":"기타 - 기계공구","category":"other"},{"name":"윤종합상사","tel":"031-355-9839","addr":"경기도 화성시 비봉면 양노리 708-32번지","indutype":"건축자재 - 목재·석재·철물","category":"other"}]},{"lat":"37.218852043","long":"126.85932177","imageIndex":17,"items":[{"name":"엠제이테크(MJ테크)","tel":"031-357-4730","addr":"경기도 화성시 비봉면 양노리 711-1호 1층","indutype":"기타 - 기계공구","category":"other"}]},{"lat":"37.219963494","long":"126.86196737","imageIndex":17,"items":[{"name":"예안산업","tel":"070-7768-4122","addr":"경기도 화성시 비봉면 양노리 723-19번지 (2)","indutype":"직물 - 기타직물","category":"other"}]},{"lat":"37.235680841","long":"126.86477796","imageIndex":17,"items":[{"name":"예주중기","tel":"070-5022-4846","addr":"경기도 화성시 비봉면 양노리 850 천산스카이빌 102-504 25/","indutype":"기타 - 기계공구","category":"other"}]},{"lat":"37.234822932","long":"126.86313424","imageIndex":17,"items":[{"name":"우녕플라워","tel":"031-355-3693","addr":"경기도 화성시 비봉면 양노리 471-4번지","indutype":"문화.취미 - 화원","category":"other"}]},{"lat":"37.236402309","long":"126.87331877","imageIndex":17,"items":[{"name":"우리사진관","tel":"031-356-0338","addr":"경기도 화성시 비봉면 양노리 265-6번지","indutype":"광학제품 - 사진관","category":"other"}]},{"lat":"37.23552003","long":"126.86596152","imageIndex":17,"items":[{"name":"유림상사","tel":"031-8059-4853","addr":"경기도 화성시 비봉면 양노리 302-2번지 파크빌 103호","indutype":"건축자재 - 페인트","category":"other"}]},{"lat":"37.221021983","long":"126.85804449","imageIndex":17,"items":[{"name":"이마트24 양노공단점","tel":"031-000-0000","addr":"경기도 화성시 비봉면 양노리 673-50번지 1층104호,105호","indutype":"유통업 영리 - 편 의 점","category":"other"}]},{"lat":"37.236465271","long":"126.87321724","imageIndex":17,"items":[{"name":"인테리어","tel":"031-356-4155","addr":"경기도 화성시 비봉면 양노리 265-7번지","indutype":"건축자재 - 인테리어전문","category":"other"}]},{"lat":"37.219517342","long":"126.86568624","imageIndex":17,"items":[{"name":"제일자동덮개","tel":"031-355-4428","addr":"경기도 화성시 비봉면 양노리 736-10번지","indutype":"기타 - 기타 전문점","category":"other"}]},{"lat":"37.21154929","long":"126.87107436","imageIndex":17,"items":[{"name":"주식회사 테라이엔지","tel":"031-357-6432","addr":"경기도 화성시 비봉면 양노리 789-1번지 2동","indutype":"기타 - 기계공구","category":"other"}]},{"lat":"37.217684486","long":"126.85507651","imageIndex":17,"items":[{"name":"지이엔지니어링(G. E. Engineering)","tel":"031-475-5460","addr":"경기도 화성시 비봉면 양노리 668-28번지","indutype":"기타 - 기계공구","category":"other"}]},{"lat":"37.215659936","long":"126.85732243","imageIndex":17,"items":[{"name":"진명상사","tel":"02-983-5577","addr":"경기도 화성시 비봉면 양노리 707-18번지 101호","indutype":"기타 - 기계공구","category":"other"}]},{"lat":"37.235763595","long":"126.866209","imageIndex":17,"items":[{"name":"청송철물건재","tel":"031-357-5481","addr":"경기도 화성시 비봉면 양노리 307-15번지 1층","indutype":"기타 - 기계공구","category":"other"}]},{"lat":"37.220408563","long":"126.85745978","imageIndex":17,"items":[{"name":"펌프존","tel":"031-416-3128","addr":"경기도 화성시 비봉면 양노리 673-48번지","indutype":"기타 - 기계공구","category":"other"}]},{"lat":"37.235458022","long":"126.8668857","imageIndex":17,"items":[{"name":"푸른부동산 중개","tel":"031-356-8084","addr":"경기도 화성시 비봉면 양노리 307-9번지 1층 103호","indutype":"용역 서비스 - 부동산 중개·임대","category":"other"}]},{"lat":"37.235520316","long":"126.86620944","imageIndex":17,"items":[{"name":"프로스펙스","tel":"061-842-1993","addr":"경기도 화성시 비봉면 양노리 307-3번지","indutype":"레져용품 - 스포츠·레져용품","category":"other"}]},{"lat":"37.231987918","long":"126.87393484","imageIndex":17,"items":[{"name":"한길테크","tel":"031-356-6814","addr":"경기도 화성시 비봉면 양노리 172-1번지","indutype":"건축자재 - 기타건축자재","category":"other"}]},{"lat":"37.220521476","long":"126.86141426","imageIndex":17,"items":[{"name":"한흥산업","tel":"031-356-6053","addr":"경기도 화성시 비봉면 양노리 722-16번지","indutype":"건축자재 - 기타건축자재","category":"other"}]},{"lat":"37.219994798","long":"126.86560651","imageIndex":17,"items":[{"name":"혜인몰드","tel":"070-4109-6868","addr":"경기도 화성시 비봉면 양노리 736번지","indutype":"기타 - 기계공구","category":"other"},{"name":"혜인솔루션","tel":"031-352-2011","addr":"경기도 화성시 비봉면 양노리 736번지","indutype":"기타 - 기계공구","category":"other"}]},{"lat":"37.225327398","long":"126.85679681","imageIndex":17,"items":[{"name":"화천기계","tel":"031-366-8320","addr":"경기도 화성시 비봉면 양노리 683","indutype":"기타 - 기계공구","category":"other"}]}]