[{"lat":"37.654641132","long":"127.340264","imageIndex":16,"items":[{"name":"경희대MTA태권도장","tel":"070-4793-7001","addr":"경기도 남양주시 화도읍 월산리 1528번지 1동 302호 301호","indutype":"학원 - 예·체능계학원","category":"study"},{"name":"남양주월산1단지부영사랑으로어린이집[아이","tel":"031-595-3332","addr":"경기도 남양주시 화도읍 월산리 1528번지 남양주월산사랑으로부영1단지 부영1단지 단지내 보육시설","indutype":"학원 - 유아원","category":"study"},{"name":"라온기획","tel":"070-8811-0936","addr":"경기도 남양주시 화도읍 월산리 1528번지 남양주월산사랑으로부영1단지 107동 3003호","indutype":"학원 - 기타 교육기관","category":"study"},{"name":"소울음악꿈아트미술학원","tel":"031-592-1311","addr":"경기도 남양주시 화도읍 월산리 1528번지 상가2동 301, 302호","indutype":"학원 - 예·체능계학원","category":"study"},{"name":"연세스터디센터","tel":"","addr":"경기도 남양주시 화도읍 월산리 1528번지 남양주월산사랑으로부영1단지 109동 102호","indutype":"학원 - 기타 교육기관","category":"study"},{"name":"월산 성균관교실","tel":"","addr":"경기도 남양주시 화도읍 월산리 1528번지 남양주월산사랑으로부영1단지 116동 502호","indutype":"학원 - 기타 교육기관","category":"study"},{"name":"월산GnB영재센터학원","tel":"","addr":"경기도 남양주시 화도읍 월산리 1528번지 남양주월산사랑으로부영1단지 2층 201호","indutype":"학원 - 외국어학원","category":"study"},{"name":"위캔비영어수학학원","tel":"031-592-0916","addr":"경기도 남양주시 화도읍 월산리 1528번지 남양주월산사랑으로부영1단지 상가 2동 202호","indutype":"학원 - 보습학원","category":"study"},{"name":"윤선생우리집앞영어교실월산영어교습소","tel":"031-516-1881","addr":"경기도 남양주시 화도읍 월산리 1528번지 남양주월산사랑으로부영1단지 상가 3동 302호","indutype":"학원 - 외국어학원","category":"study"},{"name":"줄리어드음악학원","tel":"031-595-1335","addr":"경기도 남양주시 화도읍 월산리 1528번지 남양주월산사랑으로부영1단지 상가 1동 202호","indutype":"학원 - 예·체능계학원","category":"study"},{"name":"힘찬 태권도","tel":"031-593-0118","addr":"경기도 남양주시 화도읍 월산리 1528번지 남양주월산사랑으로부영1단지 상가 2층 201호","indutype":"학원 - 예·체능계학원","category":"study"}]},{"lat":"37.65117187","long":"127.33729075","imageIndex":16,"items":[{"name":"꼬마스쿨어린이집[아이행복]","tel":"031-559-7507","addr":"경기도 남양주시 화도읍 월산리 1527번지 화도효성해링턴플레이스 107동 103호","indutype":"학원 - 유아원","category":"study"},{"name":"마술피리음악교습소","tel":"031-592-4782","addr":"경기도 남양주시 화도읍 월산리 1527번지 해링턴플레이스상가 108동 305호","indutype":"학원 - 예·체능계학원","category":"study"},{"name":"시립효성솔빛길어린이집[아이행복]","tel":"031-595-5885","addr":"경기도 남양주시 화도읍 월산리 1527번지 화도효성해링턴플레이스","indutype":"학원 - 유아원","category":"study"},{"name":"월산사임당 어린이집[아이행복]","tel":"031-559-5553","addr":"경기도 남양주시 화도읍 월산리 1527번지 화도효성해링턴플레이스 101동 104호","indutype":"학원 - 유아원","category":"study"},{"name":"이원신","tel":"031-000-0000","addr":"경기도 남양주시 화도읍 월산리 1527번지 화도효성해링턴플레이스 103동 302호","indutype":"학원 - 기타 교육기관","category":"study"},{"name":"효성미술교실","tel":"0503-6520-8670","addr":"경기도 남양주시 화도읍 월산리 1527번지 화도효성해링턴플레이스 106동 503호","indutype":"학원 - 예·체능계학원","category":"study"},{"name":"효성이앤아이음악학원","tel":"031-591-7513","addr":"경기도 남양주시 화도읍 월산리 1527번지 화도 효성해링턴 플레이스 상가동 108동 204호 일부","indutype":"학원 - 예·체능계학원","category":"study"}]},{"lat":"37.653695196","long":"127.34023706","imageIndex":16,"items":[{"name":"남양주월산초등학교병설유치원[아이행복]","tel":"031-591-0227","addr":"경기도 남양주시 화도읍 월산리 73-65번지","indutype":"학원 - 유치원","category":"study"}]},{"lat":"37.650200089","long":"127.32715604","imageIndex":16,"items":[{"name":"도자골 달뫼","tel":"031-593-3435","addr":"경기도 남양주시 화도읍 월산리 256-2번지","indutype":"학원 - 기타 교육기관","category":"study"}]},{"lat":"37.653279712","long":"127.3310223","imageIndex":16,"items":[{"name":"명지어린이집[아이행복]","tel":"031-511-1359","addr":"경기도 남양주시 화도읍 월산리 371-2번지 화도복지회관동부희망케어센터 1층","indutype":"학원 - 유아원","category":"study"},{"name":"화도복지회관","tel":"031-559-3700","addr":"경기도 남양주시 화도읍 월산리 371-2번지","indutype":"학원 - 기타 교육기관","category":"study"}]},{"lat":"37.654192659","long":"127.32668612","imageIndex":16,"items":[{"name":"시립화도열매어린이집[아이행복]","tel":"031-593-9898","addr":"경기도 남양주시 화도읍 월산리 산46-6번지","indutype":"학원 - 유아원","category":"study"}]},{"lat":"37.656697648","long":"127.33307718","imageIndex":16,"items":[{"name":"화도어린이집[아이행복]","tel":"031-511-0815","addr":"경기도 남양주시 화도읍 월산리 416-3번지","indutype":"학원 - 유아원","category":"study"}]}]