[{"lat":"37.764352911","long":"127.44333272","imageIndex":9,"items":[{"name":"(주)서울주유소","tel":"031-584-5060","addr":"경기도 가평군 청평면 상천리 1152-5번지","indutype":"연료판매점 - SK주유소","category":"oil"}]},{"lat":"37.76343816","long":"127.44220378","imageIndex":9,"items":[{"name":"가평 대박 주유소","tel":"031-584-5155","addr":"경기도 가평군 청평면 상천리 1157-3번지","indutype":"연료판매점 - 쌍용S-OIL","category":"oil"}]},{"lat":"37.75787747","long":"127.43539622","imageIndex":9,"items":[{"name":"가평대박주유소","tel":"","addr":"경기도 가평군 청평면 상천리 1157-3번지","indutype":"연료판매점 - 주유소","category":"oil"},{"name":"서울주유소","tel":"031-584-4171","addr":"경기도 가평군 청평면 상천리 1152-5번지","indutype":"연료판매점 - SK주유소","category":"oil"}]},{"lat":"37.781683127","long":"127.46552553","imageIndex":9,"items":[{"name":"남이섬주유소","tel":"031-581-5151","addr":"경기도 가평군 청평면 상천리 174-2번지","indutype":"연료판매점 - 쌍용S-OIL","category":"oil"},{"name":"남이섬주유소","tel":"031-581-5151","addr":"경기도 가평군 청평면 상천리 174-2번지","indutype":"연료판매점 - 쌍용S-OIL","category":"oil"}]},{"lat":"37.778993425","long":"127.46447582","imageIndex":9,"items":[{"name":"에덴주유소","tel":"031-581-3700","addr":"경기도 가평군 청평면 상천리 256-5번지","indutype":"연료판매점 - SK주유소","category":"oil"}]},{"lat":"37.76649134","long":"127.44728357","imageIndex":9,"items":[{"name":"청평하나오일뱅크","tel":"031-585-1705","addr":"경기도 가평군 청평면 상천리 1136번지","indutype":"연료판매점 - 현대정유(오일뱅크)","category":"oil"},{"name":"청평하나오일뱅크","tel":"031-585-1705","addr":"경기도 가평군 청평면 상천리 1136번지","indutype":"연료판매점 - 현대정유(오일뱅크)","category":"oil"}]},{"lat":"37.773543349","long":"127.45735939","imageIndex":9,"items":[{"name":"호명주유소","tel":"031-585-4434","addr":"경기도 가평군 청평면 상천리 369-4번지","indutype":"연료판매점 - 쌍용S-OIL","category":"oil"}]}]