[{"lat":"37.254210847","long":"127.11030373","imageIndex":13,"items":[{"name":"1004(천사)노래연습장","tel":"031-285-1489","addr":"경기도 용인시 기흥구 보라동 579-1번지 랜드빌플라자4 303호 304호","indutype":"레저업소 - 노 래 방","category":"leisure"},{"name":"보라스크린","tel":"031-287-4444","addr":"경기도 용인시 기흥구 보라동 579-1번지 랜드빌4 5층","indutype":"레저업소 - 스크린골프","category":"leisure"}]},{"lat":"37.255598259","long":"127.11049733","imageIndex":13,"items":[{"name":"YoLo요가&프롭","tel":"02-1577-0000","addr":"경기도 용인시 기흥구 보라동 296-12번지 1층","indutype":"레저업소 - 헬스클럽","category":"leisure"}]},{"lat":"37.254634188","long":"127.11046214","imageIndex":13,"items":[{"name":"골프존24","tel":"031-287-1872","addr":"경기도 용인시 기흥구 보라동 578-4번지 2층 201-204호","indutype":"레저업소 - 스크린골프","category":"leisure"},{"name":"이루어짐 용인점","tel":"031-284-2825","addr":"경기도 용인시 기흥구 보라동 578-4번지 세진빌딩 3층","indutype":"레저업소 - 헬스클럽","category":"leisure"}]},{"lat":"37.254300674","long":"127.11060821","imageIndex":13,"items":[{"name":"꼬마당구장","tel":"031-284-3949","addr":"경기도 용인시 기흥구 보라동 579-2번지 202호","indutype":"레저업소 - 당 구 장","category":"leisure"},{"name":"킹코인노래연습장","tel":"031-111-1111","addr":"경기도 용인시 기흥구 보라동 579-2번지 202호","indutype":"레저업소 - 노 래 방","category":"leisure"}]},{"lat":"37.254795736","long":"127.11116124","imageIndex":13,"items":[{"name":"나이스 당구클럽","tel":"070-4245-0199","addr":"경기도 용인시 기흥구 보라동 578-6번지 302호","indutype":"레저업소 - 당 구 장","category":"leisure"},{"name":"수 노래연습장","tel":"031-111-1111","addr":"경기도 용인시 기흥구 보라동 578-6번지 은성빌딩 401호","indutype":"레저업소 - 노 래 방","category":"leisure"},{"name":"유니넷PC","tel":"","addr":"경기도 용인시 기흥구 보라동 578-6번지 403호","indutype":"레저업소 - 기타레져업소","category":"leisure"},{"name":"태풍체육관","tel":"070-8116-7775","addr":"경기도 용인시 기흥구 보라동 578-6번지 은성빌딩 3층 301호","indutype":"레저업소 - 헬스클럽","category":"leisure"}]},{"lat":"37.254354458","long":"127.11091263","imageIndex":13,"items":[{"name":"남부골프존","tel":"031-8005-6546","addr":"경기도 용인시 기흥구 보라동 579-3번지 랜드빌3 3층","indutype":"레저업소 - 골프연습장","category":"leisure"},{"name":"보라노래연습장","tel":"031-287-0159","addr":"경기도 용인시 기흥구 보라동 579-3번지 랜드빌3 4층","indutype":"레저업소 - 노 래 방","category":"leisure"},{"name":"보보스PC방","tel":"","addr":"경기도 용인시 기흥구 보라동 579-3번지 201,202호","indutype":"레저업소 - 기타레져업소","category":"leisure"},{"name":"할리퀸당구장","tel":"031-287-7821","addr":"경기도 용인시 기흥구 보라동 579-3번지 5층 501-2호","indutype":"레저업소 - 당 구 장","category":"leisure"}]},{"lat":"37.258686937","long":"127.12185325","imageIndex":13,"items":[{"name":"남부선수트레이닝센터 (NAC)","tel":"","addr":"경기도 용인시 기흥구 보라동 35번지 3층 남부골프연습장","indutype":"레저업소 - 헬스클럽","category":"leisure"}]},{"lat":"37.25543765","long":"127.1183876","imageIndex":13,"items":[{"name":"당구광장","tel":"031-285-9988","addr":"경기도 용인시 기흥구 보라동 140-2번지 지산빌딩 지층","indutype":"레저업소 - 당 구 장","category":"leisure"}]},{"lat":"37.254300016","long":"127.11132961","imageIndex":13,"items":[{"name":"리치 노래연습장","tel":"031-285-1877","addr":"경기도 용인시 기흥구 보라동 580-4번지 랜드빌2 301,302호","indutype":"레저업소 - 노 래 방","category":"leisure"}]},{"lat":"37.253905353","long":"127.10935646","imageIndex":13,"items":[{"name":"보라당구클럽","tel":"031-286-4249","addr":"경기도 용인시 기흥구 보라동 573-6번지 스카이프라자 4층 401,402호","indutype":"레저업소 - 당 구 장","category":"leisure"},{"name":"썸노래연습장","tel":"","addr":"경기도 용인시 기흥구 보라동 573-6번지 스카이프라자 403동 404호","indutype":"레저업소 - 노 래 방","category":"leisure"},{"name":"하마노래연습장","tel":"031-8005-9989","addr":"경기도 용인시 기흥구 보라동 573-6번지 스카이프라자 204호","indutype":"레저업소 - 노 래 방","category":"leisure"},{"name":"허브노래연습장","tel":"031-285-7206","addr":"경기도 용인시 기흥구 보라동 573-6번지 스카이프라자 301호 302호","indutype":"레저업소 - 노 래 방","category":"leisure"}]},{"lat":"37.254157762","long":"127.10922155","imageIndex":13,"items":[{"name":"샵노래연습장","tel":"031-285-7111","addr":"경기도 용인시 기흥구 보라동 573-5번지 제일프라자 201호","indutype":"레저업소 - 노 래 방","category":"leisure"},{"name":"아디다스컴뱃짐","tel":"031-1544-8389","addr":"경기도 용인시 기흥구 보라동 573-5번지 제일프라자 501호","indutype":"레저업소 - 헬스클럽","category":"leisure"},{"name":"초코넷PC방","tel":"070-2332-3804","addr":"경기도 용인시 기흥구 보라동 573-5번지 제일프라자 401호","indutype":"레저업소 - 기타레져업소","category":"leisure"}]},{"lat":"37.251742902","long":"127.10933088","imageIndex":13,"items":[{"name":"에이스스크린골프존","tel":"031-274-6462","addr":"경기도 용인시 기흥구 보라동 607번지 201,202호","indutype":"레저업소 - 스크린골프","category":"leisure"}]},{"lat":"37.253797623","long":"127.10891671","imageIndex":13,"items":[{"name":"요가 바라.봄","tel":"031-8005-7751","addr":"경기도 용인시 기흥구 보라동 574-2번지 3층 301,302호","indutype":"레저업소 - 헬스클럽","category":"leisure"},{"name":"용인보라택견전수관","tel":"031-281-2757","addr":"경기도 용인시 기흥구 보라동 574-2번지 403,404호","indutype":"레저업소 - 헬스클럽","category":"leisure"}]},{"lat":"37.25451733","long":"127.11015763","imageIndex":13,"items":[{"name":"인필라테스","tel":"031-285-1112","addr":"경기도 용인시 기흥구 보라동 578-3번지 보라메가타운2 4층 401호","indutype":"레저업소 - 헬스클럽","category":"leisure"}]},{"lat":"37.25387929","long":"127.10827432","imageIndex":13,"items":[{"name":"주식회사 용인친구들","tel":"031-000-0000","addr":"경기도 용인시 기흥구 보라동 573-2번지 3층","indutype":"레저업소 - 헬스클럽","category":"leisure"}]},{"lat":"37.255298082","long":"127.11357419","imageIndex":13,"items":[{"name":"주식회사마리온","tel":"031-332-9910","addr":"경기도 용인시 기흥구 보라동 289-14번지 엠엔코빌딩 202호","indutype":"레저업소 - 기타레져업소","category":"leisure"}]},{"lat":"37.255573561","long":"127.11761003","imageIndex":13,"items":[{"name":"주짓수 락","tel":"","addr":"경기도 용인시 기흥구 보라동 145-1번지 현대프라자 3층 303호","indutype":"레저업소 - 헬스클럽","category":"leisure"}]},{"lat":"37.254742004","long":"127.11080046","imageIndex":13,"items":[{"name":"준노래방","tel":"031-0000-0000","addr":"경기도 용인시 기흥구 보라동 578-5번지 201호","indutype":"레저업소 - 노 래 방","category":"leisure"}]},{"lat":"37.254238256","long":"127.10988671","imageIndex":13,"items":[{"name":"카당구클럽","tel":"031-275-5079","addr":"경기도 용인시 기흥구 보라동 578-1번지 보라메가타운 504호","indutype":"레저업소 - 당 구 장","category":"leisure"},{"name":"퀸스애비뉴노래연습장","tel":"031-275-9841","addr":"경기도 용인시 기흥구 보라동 578-1번지 보라메가타운 404~405호","indutype":"레저업소 - 노 래 방","category":"leisure"}]},{"lat":"37.254682114","long":"127.10724969","imageIndex":13,"items":[{"name":"캘러웨이 용인남부센터","tel":"031-281-9909","addr":"경기도 용인시 기흥구 보라동 413-2번지 2층","indutype":"레저업소 - 스크린골프","category":"leisure"},{"name":"켈러웨이용인남부센터","tel":"031-281-9909","addr":"경기도 용인시 기흥구 보라동 413-2번지","indutype":"레저업소 - 골프연습장","category":"leisure"}]},{"lat":"37.253490707","long":"127.1095475","imageIndex":13,"items":[{"name":"킹앤퀸","tel":"031-287-0841","addr":"경기도 용인시 기흥구 보라동 577번지 베스트프라자 503호","indutype":"레저업소 - 기타레져업소","category":"leisure"}]},{"lat":"37.255463329","long":"127.11024915","imageIndex":13,"items":[{"name":"킹콩GYM","tel":"031-283-1117","addr":"경기도 용인시 기흥구 보라동 296-2번지 2동 2층","indutype":"레저업소 - 헬스클럽","category":"leisure"},{"name":"킹콩짐(킹콩GYM)","tel":"031-283-1117","addr":"경기도 용인시 기흥구 보라동 296-2번지 2층","indutype":"레저업소 - 헬스클럽","category":"leisure"}]},{"lat":"37.253716783","long":"127.1086348","imageIndex":13,"items":[{"name":"포텐PC 보라점","tel":"070-7127-5382","addr":"경기도 용인시 기흥구 보라동 574-1번지 2층","indutype":"레저업소 - 기타레져업소","category":"leisure"}]},{"lat":"37.255737641","long":"127.11563764","imageIndex":13,"items":[{"name":"힐링노래연습장","tel":"031-221-4946","addr":"경기도 용인시 기흥구 보라동 147-7번지 2층","indutype":"레저업소 - 노 래 방","category":"leisure"}]}]