[{"lat":"37.326920689","long":"126.84474214","imageIndex":8,"items":[{"name":"(의료)칠석의료재단","tel":"031-439-3000","addr":"경기도 안산시 상록구 성포동 593-4번지","indutype":"병원 - 병원","category":"medical"}]},{"lat":"37.320171348","long":"126.84421475","imageIndex":8,"items":[{"name":"(재)원불교원광한의원","tel":"031-401-6300","addr":"경기도 안산시 상록구 성포동 588-1번지 예일빌딩 2층","indutype":"의원 - 한의원","category":"medical"}]},{"lat":"37.326838736","long":"126.84409919","imageIndex":8,"items":[{"name":"경동메디칼약국","tel":"031-487-1688","addr":"경기도 안산시 상록구 성포동 593-11번지 경동 상가 208호","indutype":"약국 - 약국","category":"medical"},{"name":"고려한의원","tel":"031-410-0333","addr":"경기도 안산시 상록구 성포동 593-11번지","indutype":"의원 - 한의원","category":"medical"},{"name":"김경천안과의원","tel":"031-484-4665","addr":"경기도 안산시 상록구 성포동 593-11번지 경동 2층","indutype":"의원 - 의원","category":"medical"},{"name":"상아치과의원","tel":"031-405-1101","addr":"경기도 안산시 상록구 성포동 593-11번지 경동 상가 301호","indutype":"의원 - 치과의원","category":"medical"},{"name":"샘물약국","tel":"031-487-0265","addr":"경기도 안산시 상록구 성포동 593-11번지 ***연번지,9","indutype":"약국 - 약국","category":"medical"},{"name":"샘물약국","tel":"031-487-0265","addr":"경기도 안산시 상록구 성포동 593-11번지 경동 상가 109동 110호","indutype":"약국 - 약국","category":"medical"},{"name":"안산프라자약국","tel":"031-480-9379","addr":"경기도 안산시 상록구 성포동 593-11번지 경동 상가 114호","indutype":"약국 - 약국","category":"medical"},{"name":"이기영산부인과","tel":"031-486-8909","addr":"경기도 안산시 상록구 성포동 593-11번지","indutype":"의원 - 의원","category":"medical"},{"name":"홍기정이비인후과","tel":"031-487-2666","addr":"경기도 안산시 상록구 성포동 593-11번지 경동 상가 202호","indutype":"의원 - 의원","category":"medical"}]},{"lat":"37.3217295929","long":"126.8438278893","imageIndex":8,"items":[{"name":"경희강한의원","tel":"031-385-0282","addr":"경기도 안산시 상록구 성포동 583번지","indutype":"보건업 및 사회복지서비스업 - 한의원","category":"medical"},{"name":"샛별약국","tel":"031-416-3634","addr":"경기도 안산시 상록구 성포동 583번지","indutype":"도매 및 소매업 - 약국","category":"medical"},{"name":"스타프라자약국","tel":"031-405-1922","addr":"경기도 안산시 상록구 성포동 583번지","indutype":"도매 및 소매업 - 약국","category":"medical"}]},{"lat":"37.320783661","long":"126.84393142","imageIndex":8,"items":[{"name":"경희미소한의원","tel":"031-403-0715","addr":"경기도 안산시 상록구 성포동 583-5번지 예술프라자 2층 204호","indutype":"의원 - 한의원","category":"medical"},{"name":"굿치과","tel":"031-486-2755","addr":"경기도 안산시 상록구 성포동 583-5번지 예술인프라자 305호","indutype":"의원 - 치과의원","category":"medical"},{"name":"성포라성약국","tel":"031-480-1057","addr":"경기도 안산시 상록구 성포동 583-5번지 예술프라자 107호","indutype":"약국 - 약국","category":"medical"},{"name":"최응덕소아과","tel":"031-484-2039","addr":"경기도 안산시 상록구 성포동 583-5번지 예술프라자 302호","indutype":"의원 - 의원","category":"medical"},{"name":"해나무한의원","tel":"031-485-1073","addr":"경기도 안산시 상록구 성포동 583-5번지 예술프라자 301호","indutype":"의원 - 한의원","category":"medical"}]},{"lat":"37.3207836613","long":"126.8439314197","imageIndex":8,"items":[{"name":"경희미소한의원","tel":"031-403-0715","addr":"경기도 안산시 상록구 성포동 583-5번지","indutype":"보건업 및 사회복지서비스업 - 한의원","category":"medical"},{"name":"해나무한의원","tel":"031-485-1073","addr":"경기도 안산시 상록구 성포동 583-5번지","indutype":"보건업 및 사회복지서비스업 - 한의원","category":"medical"}]},{"lat":"37.326392069","long":"126.84698851","imageIndex":8,"items":[{"name":"고대영동물병원","tel":"031-413-8275","addr":"경기도 안산시 상록구 성포동 593-25번지 정인프라자 102호","indutype":"기타의료기관 - 동물병원","category":"medical"},{"name":"정영호치과의원","tel":"031-413-7582","addr":"경기도 안산시 상록구 성포동 593-25번지 301호","indutype":"의원 - 치과의원","category":"medical"}]},{"lat":"37.3268387363","long":"126.8440991905","imageIndex":8,"items":[{"name":"고려한의원","tel":"031-410-0333","addr":"경기도 안산시 상록구 성포동 593-11번지","indutype":"보건업 및 사회복지서비스업 - 한의원","category":"medical"}]},{"lat":"37.317115521","long":"126.85001978","imageIndex":8,"items":[{"name":"다솜의원","tel":"031-401-7815","addr":"경기도 안산시 상록구 성포동 586번지 홈플러스 2층","indutype":"의원 - 의원","category":"medical"}]},{"lat":"37.317337188","long":"126.84726668","imageIndex":8,"items":[{"name":"무지개연합의원","tel":"031-405-9011","addr":"경기도 안산시 상록구 성포동 590번지 3층 롯데마트안산점","indutype":"의원 - 의원","category":"medical"}]},{"lat":"37.321729593","long":"126.84382789","imageIndex":8,"items":[{"name":"샛별약국","tel":"031-485-7383","addr":"경기도 안산시 상록구 성포동 583번지 스타프라자 1층 21호","indutype":"약국 - 약국","category":"medical"},{"name":"손이비인후과의원","tel":"031-401-5458","addr":"경기도 안산시 상록구 성포동 583번지 스타프라자상가 3-5호","indutype":"의원 - 의원","category":"medical"},{"name":"스타소아청소년과의원","tel":"031-482-5312","addr":"경기도 안산시 상록구 성포동 583번지 스타프라자 3층 3호","indutype":"의원 - 의원","category":"medical"},{"name":"스타프라자약국","tel":"031-405-1922","addr":"경기도 안산시 상록구 성포동 583번지 스타프라자 3층 17호","indutype":"약국 - 약국","category":"medical"},{"name":"중앙안과의원","tel":"031-486-0123","addr":"경기도 안산시 상록구 성포동 583번지 스타프라자 301호","indutype":"의원 - 의원","category":"medical"},{"name":"프라자약국","tel":"031-482-8944","addr":"경기도 안산시 상록구 성포동 583번지 스타프라자 1층 5호","indutype":"약국 - 약국","category":"medical"}]},{"lat":"37.326667997","long":"126.84443803","imageIndex":8,"items":[{"name":"성포대한약국","tel":"031-481-8975","addr":"경기도 안산시 상록구 성포동 593-10번지 선경프라자 105,106호","indutype":"약국 - 약국","category":"medical"},{"name":"자연약국","tel":"031-401-0267","addr":"경기도 안산시 상록구 성포동 593-10번지 선경프라자 1층 108호,109호","indutype":"약국 - 약국","category":"medical"},{"name":"조병섭내과의원","tel":"031-411-5119","addr":"경기도 안산시 상록구 성포동 593-10번지 선경프라자 201호","indutype":"의원 - 의원","category":"medical"},{"name":"참조은치과의원","tel":"031-405-2873","addr":"경기도 안산시 상록구 성포동 593-10번지 선경프라자 4층 403호","indutype":"의원 - 치과의원","category":"medical"}]},{"lat":"37.3266679969","long":"126.8444380326","imageIndex":8,"items":[{"name":"성포대한약국","tel":"031-481-8975","addr":"경기도 안산시 상록구 성포동 593-10번지","indutype":"도매 및 소매업 - 약국","category":"medical"}]},{"lat":"37.320064041","long":"126.8448242","imageIndex":8,"items":[{"name":"연세내과의원","tel":"031-411-0090","addr":"경기도 안산시 상록구 성포동 588-2번지 주공4단지 상가 210호","indutype":"의원 - 의원","category":"medical"},{"name":"정약국","tel":"031-480-2852","addr":"경기도 안산시 상록구 성포동 588-2번지 103,104호","indutype":"약국 - 약국","category":"medical"}]},{"lat":"37.325612124","long":"126.84318788","imageIndex":8,"items":[{"name":"으뜸치과의원","tel":"031-487-2875","addr":"경기도 안산시 상록구 성포동 592 선경상가 306-7호","indutype":"의원 - 치과의원","category":"medical"}]},{"lat":"37.326615126","long":"126.84532948","imageIndex":8,"items":[{"name":"으뜸치과의원","tel":"031-487-2875","addr":"경기도 안산시 상록구 성포동 593-6번지 성포프라자 203호","indutype":"의원 - 치과의원","category":"medical"}]},{"lat":"37.316422885","long":"126.8509124","imageIndex":17,"items":[{"name":"(재)안산문화재단 단원미술전시관","tel":"031-481-0503","addr":"경기도 안산시 상록구 성포동 737번지","indutype":"문화.취미 - 티켓","category":"other"}]},{"lat":"37.326228774","long":"126.85310407","imageIndex":17,"items":[{"name":"(재)안산시청소년수련관","tel":"031-412-1706","addr":"경기도 안산시 상록구 성포동 214-1번지","indutype":"문화.취미 - 문화취미기타","category":"other"}]},{"lat":"37.326615126","long":"126.84532948","imageIndex":17,"items":[{"name":"(주)조이렌트카 안산영업소","tel":"02-2231-3716","addr":"경기도 안산시 상록구 성포동 593-6번지 성포프라자 105호","indutype":"여행 - 렌터카","category":"other"},{"name":"GS25성포공원점","tel":"","addr":"경기도 안산시 상록구 성포동 593-6번지 성포프라자 104,105호","indutype":"유통업 영리 - 편 의 점","category":"other"},{"name":"흙과사람들","tel":"031-405-1264","addr":"경기도 안산시 상록구 성포동 593-6번지 성포프라자 B층 01호","indutype":"의류 - 정장","category":"other"}]},{"lat":"37.32154041","long":"126.84385085","imageIndex":17,"items":[{"name":"(주)핑크하트안산특약점","tel":"031-484-2813","addr":"경기도 안산시 상록구 성포동 583번지 스타프라자 2층 12동 1호","indutype":"직물 - 침구·수예점","category":"other"}]},{"lat":"37.317337188","long":"126.84726668","imageIndex":17,"items":[{"name":"(주)화성","tel":"031-411-1917","addr":"경기도 안산시 상록구 성포동 590","indutype":"여행 - 고속버스","category":"other"},{"name":"(주)화성","tel":"031-411-1917","addr":"경기도 안산시 상록구 성포동 590","indutype":"유통업 영리 - 편 의 점","category":"other"},{"name":"(주)화성/발권","tel":"031-411-1917","addr":"경기도 안산시 상록구 성포동 590","indutype":"여행 - 고속버스","category":"other"},{"name":"(주)화성/부도","tel":"031-402-5145","addr":"경기도 안산시 상록구 성포동 590","indutype":"여행 - 고속버스","category":"other"},{"name":"노블레스","tel":"031-411-5589","addr":"경기도 안산시 상록구 성포동 590 롯데마트안산점 3층세탁코너","indutype":"수리서비스 - 세탁소","category":"other"},{"name":"러브탱-씨네마사업부","tel":"031-483-7714","addr":"경기도 안산시 상록구 성포동 590 롯데씨네마4층","indutype":"신변잡화 - 액세서리","category":"other"},{"name":"롯데마트안산점/문화센터","tel":"031-508-2500","addr":"경기도 안산시 상록구 성포동 590","indutype":"유통업 영리 - 인터넷 종합 Mall","category":"other"},{"name":"롯데쇼핑(주)롯데마트안산점","tel":"031-508-2500","addr":"경기도 안산시 상록구 성포동 590","indutype":"문화.취미 - 문화취미기타","category":"other"},{"name":"전국열쇠 롯데마트 안산점","tel":"031-487-1384","addr":"경기도 안산시 상록구 성포동 590번지 3층 열쇠도장코너 롯데마트","indutype":"건축자재 - 목재·석재·철물","category":"other"},{"name":"터미널꽃방","tel":"031-405-9388","addr":"경기도 안산시 상록구 성포동 590번지 안산종합버스터미널 A동 1층","indutype":"문화.취미 - 화원","category":"other"},{"name":"한국후지필름 (주)롯데마트안산점","tel":"031-485-4840","addr":"경기도 안산시 상록구 성포동 590번지 롯데마트안산점 3층","indutype":"광학제품 - 사진관","category":"other"},{"name":"휴스튜디오","tel":"031-485-4840","addr":"경기도 안산시 상록구 성포동 590롯데마트안산점3층사진코너","indutype":"광학제품 - 사진관","category":"other"}]},{"lat":"37.326838736","long":"126.84409919","imageIndex":17,"items":[{"name":"AHA&DSL","tel":"031-475-7373","addr":"경기도 안산시 상록구 성포동 593-11번지 경동프라자 404-1호","indutype":"서적문구 - 출판 및 인쇄물","category":"other"},{"name":"먹그림집","tel":"031-402-9966","addr":"경기도 안산시 상록구 성포동 593-11번지 406-2","indutype":"문화.취미 - 화랑","category":"other"},{"name":"뷰티라이프피부미용","tel":"031-401-5988","addr":"경기도 안산시 상록구 성포동 593-11번지 경동 상가 403호","indutype":"회원제형태 - 기타4","category":"other"},{"name":"우리집요양원","tel":"031-480-0119","addr":"경기도 안산시 상록구 성포동 593-11번지 경동프라자 502호","indutype":"기타의료기관 - 기타의료기관 및 기타","category":"other"},{"name":"주식회사 리얼트루","tel":"031-402-3527","addr":"경기도 안산시 상록구 성포동 593-11번지 경동프라자 404호","indutype":"서적문구 - 일반서적","category":"other"}]},{"lat":"37.3192836823","long":"126.8474883008","imageIndex":17,"items":[{"name":"CU파크 푸르지오","tel":"","addr":"경기도 안산시 상록구 성포동 747번지 안산파크푸르지오","indutype":"도매 및 소매업 - 편의점,담배","category":"other"},{"name":"파크세탁","tel":"","addr":"경기도 안산시 상록구 성포동 747번지 안산파크푸르지오","indutype":"협회 및 단체, 수리 및 기타 개인서","category":"other"},{"name":"파크헤어","tel":"","addr":"경기도 안산시 상록구 성포동 747번지 안산파크푸르지오","indutype":"협회 및 단체, 수리 및 기타 개인서","category":"other"}]},{"lat":"37.3268387363","long":"126.8440991905","imageIndex":17,"items":[{"name":"FM당구장","tel":"031-486-0006","addr":"경기도 안산시 상록구 성포동 593-11번지","indutype":"협회 및 단체, 수리 및 기타 개인서","category":"other"},{"name":"경동메디칼약국","tel":"031-487-1688","addr":"경기도 안산시 상록구 성포동 593-11번지","indutype":"도매 및 소매업 - 양약","category":"other"},{"name":"뷰티라이프피부미용","tel":"031-401-5988","addr":"경기도 안산시 상록구 성포동 593-11번지","indutype":"협회 및 단체, 수리 및 기타 개인서","category":"other"},{"name":"상아치과의원","tel":"031-403-2875","addr":"경기도 안산시 상록구 성포동 593-11번지","indutype":"보건업 및 사회복지서비스업 - 치과의","category":"other"},{"name":"샘물약국","tel":"031-487-0266","addr":"경기도 안산시 상록구 성포동 593-11번지","indutype":"도매 및 소매업 - 양약","category":"other"},{"name":"안산프라자약국","tel":"031-480-9379","addr":"경기도 안산시 상록구 성포동 593-11번지","indutype":"도매 및 소매업 - 의약품","category":"other"},{"name":"이기영산부인과","tel":"031-480-8909","addr":"경기도 안산시 상록구 성포동 593-11번지","indutype":"보건업 및 사회복지서비스업 - 산부인","category":"other"},{"name":"홍기정이비인후과","tel":"031-487-2666","addr":"경기도 안산시 상록구 성포동 593-11번지","indutype":"보건업 및 사회복지서비스업 - 이비인","category":"other"}]},{"lat":"37.323454457","long":"126.84676893","imageIndex":17,"items":[{"name":"GS25안산경일점","tel":"02-2006-2485","addr":"경기도 안산시 상록구 성포동 591-4번지 주공11단지아파트 상가 103동 104호","indutype":"유통업 영리 - 편 의 점","category":"other"},{"name":"하이수선","tel":"031-475-2277","addr":"경기도 안산시 상록구 성포동 591-4번지 주공 상가 102호","indutype":"수리서비스 - 세탁소","category":"other"}]},{"lat":"37.325612124","long":"126.84318788","imageIndex":17,"items":[{"name":"GS25안산성포점","tel":"02-2006-2118","addr":"경기도 안산시 상록구 성포동 592 선경상가 B동 101호","indutype":"유통업 영리 - 편 의 점","category":"other"},{"name":"미즈피부&바디뷰티케어","tel":"031-402-2828","addr":"경기도 안산시 상록구 성포동 592 선경상가223","indutype":"회원제형태 - 기타4","category":"other"},{"name":"씨유안산선경점","tel":"031-414-3620","addr":"경기도 안산시 상록구 성포동 592번지","indutype":"유통업 영리 - 편 의 점","category":"other"},{"name":"우리홈패션","tel":"031-403-0781","addr":"경기도 안산시 상록구 성포동 592선경A상가212","indutype":"직물 - 침구·수예점","category":"other"},{"name":"유일문구","tel":"031-403-6364","addr":"경기도 안산시 상록구 성포동 592번지 선경 상가 B동 109호","indutype":"서적문구 - 문구용품","category":"other"}]},{"lat":"37.320507101","long":"126.84599658","imageIndex":17,"items":[{"name":"GS25안산주공점","tel":"031-418-1298","addr":"경기도 안산시 상록구 성포동 584-2번지 성포주공10상가 107호","indutype":"유통업 영리 - 편 의 점","category":"other"}]},{"lat":"37.324641449","long":"126.84499513","imageIndex":17,"items":[{"name":"M.J주얼리","tel":"031-506-3533","addr":"경기도 안산시 상록구 성포동 592-2번지 현대상가 112동 103호","indutype":"신변잡화 - 귀금속","category":"other"},{"name":"세선플라워","tel":"031-482-9293","addr":"경기도 안산시 상록구 성포동 592-2번지","indutype":"문화.취미 - 화원","category":"other"},{"name":"파란종합인테리어","tel":"031-481-8572","addr":"경기도 안산시 상록구 성포동 592-2번지 안산현대1차상가 112-104","indutype":"건축자재 - 인테리어전문","category":"other"},{"name":"파란종합인테리어","tel":"031-481-8572","addr":"경기도 안산시 상록구 성포동 592-2번지 현대1차 상가 112동 104호","indutype":"직물 - 카페트,커튼,천막,지물","category":"other"}]},{"lat":"37.3246414488","long":"126.8449951281","imageIndex":17,"items":[{"name":"MJ주얼리","tel":"031-506-3533","addr":"경기도 안산시 상록구 성포동 592-2번지","indutype":"도매 및 소매업 - 준보석","category":"other"},{"name":"갤러리","tel":"031-402-5115","addr":"경기도 안산시 상록구 성포동 592-2번지 안산현대1차아파트","indutype":"도매 및 소매업 - 의류","category":"other"},{"name":"맑은눈안경원","tel":"031-410-5065","addr":"경기도 안산시 상록구 성포동 592-2번지 안산현대1차아파트","indutype":"도매 및 소매업 - 안경","category":"other"},{"name":"미우","tel":"","addr":"경기도 안산시 상록구 성포동 592-2번지","indutype":"도매 및 소매업 - 핸드폰케이스","category":"other"},{"name":"세븐미용실","tel":"031-483-7886","addr":"경기도 안산시 상록구 성포동 592-2번지","indutype":"협회 및 단체, 수리 및 기타 개인서","category":"other"},{"name":"세선플라워","tel":"031-482-9293","addr":"경기도 안산시 상록구 성포동 592-2번지","indutype":"농업, 임업 및 어업 - 생화, 관엽","category":"other"},{"name":"신데렐라미용실","tel":"031-482-5647","addr":"경기도 안산시 상록구 성포동 592-2번지","indutype":"협회 및 단체, 수리 및 기타 개인서","category":"other"},{"name":"약초건강원","tel":"031-411-0900","addr":"경기도 안산시 상록구 성포동 592-2번지","indutype":"제조업 - 건강원","category":"other"},{"name":"에셀나무","tel":"070-8878-0576","addr":"경기도 안산시 상록구 성포동 592-2번지","indutype":"도매 및 소매업 - 의류업","category":"other"},{"name":"제일바둑교습소","tel":"031-401-8996","addr":"경기도 안산시 상록구 성포동 592-2번지","indutype":"협회 및 단체, 수리 및 기타 개인서","category":"other"},{"name":"헤어캐슬","tel":"031-410-0033","addr":"경기도 안산시 상록구 성포동 592-2번지","indutype":"협회 및 단체, 수리 및 기타 개인서","category":"other"},{"name":"현대설비보수","tel":"031-401-7066","addr":"경기도 안산시 상록구 성포동 592-2번지","indutype":"도매 및 소매업 - 조명","category":"other"},{"name":"현대이발관","tel":"","addr":"경기도 안산시 상록구 성포동 592-2번지 안산현대1차아파트","indutype":"협회 및 단체, 수리 및 기타 개인서","category":"other"},{"name":"형제이발관","tel":"","addr":"경기도 안산시 상록구 성포동 592-2번지 안산현대1차아파트","indutype":"협회 및 단체, 수리 및 기타 개인서","category":"other"}]},{"lat":"37.3205071012","long":"126.8459965790","imageIndex":17,"items":[{"name":"gs25 안산점","tel":"031-480-8766","addr":"경기도 안산시 상록구 성포동 584-2번지","indutype":"도매 및 소매업 - 편의점","category":"other"},{"name":"꽃담","tel":"031-411-7906","addr":"경기도 안산시 상록구 성포동 584-2번지","indutype":"도매 및 소매업 - 화훼","category":"other"},{"name":"성포정육점","tel":"031-405-4392","addr":"경기도 안산시 상록구 성포동 584-2번지","indutype":"도매 및 소매업 - 식육","category":"other"},{"name":"세탁나눔방","tel":"031-484-3340","addr":"경기도 안산시 상록구 성포동 584-2번지","indutype":"협회 및 단체, 수리 및 기타 개인서","category":"other"},{"name":"오복떡집","tel":"031-481-8989","addr":"경기도 안산시 상록구 성포동 584-2번지","indutype":"제조업 - 방앗간","category":"other"}]},{"lat":"37.324529652","long":"126.84904576","imageIndex":17,"items":[{"name":"y.s드림","tel":"031-410-6667","addr":"경기도 안산시 상록구 성포동 591-3 정수빌딩301,302,303","indutype":"신변잡화 - 기타잡화","category":"other"},{"name":"미래영재교육원","tel":"031-486-5678","addr":"경기도 안산시 상록구 성포동 591-3번지 정수빌딩 205호","indutype":"서적문구 - 전문서적","category":"other"},{"name":"빨리공사지물","tel":"031-410-1415","addr":"경기도 안산시 상록구 성포동 591-3번지 정수상가","indutype":"직물 - 카페트,커튼,천막,지물","category":"other"},{"name":"케이(K)뮤즈댄스학원","tel":"031-401-6985","addr":"경기도 안산시 상록구 성포동 591-3번지 정수빌딩 304호","indutype":"회원제형태 - 레져업소","category":"other"},{"name":"크린하우스","tel":"031-486-3358","addr":"경기도 안산시 상록구 성포동 591-3번지 정수빌딩 101호","indutype":"수리서비스 - 세탁소","category":"other"}]},{"lat":"37.3256121242","long":"126.8431878805","imageIndex":17,"items":[{"name":"㈜더스트라움","tel":"","addr":"경기도 안산시 상록구 성포동 592번지 선경아파트","indutype":"예술, 스포츠 및 여가관련 서비스업","category":"other"},{"name":"그린셀프이발관","tel":"","addr":"경기도 안산시 상록구 성포동 592번지 선경아파트","indutype":"협회 및 단체, 수리 및 기타 개인서","category":"other"},{"name":"네일스토리","tel":"070-4207-4933","addr":"경기도 안산시 상록구 성포동 592번지 선경아파트","indutype":"협회 및 단체, 수리 및 기타 개인서","category":"other"},{"name":"선경기름집","tel":"031-410-3791","addr":"경기도 안산시 상록구 성포동 592번지 선경아파트","indutype":"제조업 - 방앗간","category":"other"},{"name":"선경인삼","tel":"031-486-4606","addr":"경기도 안산시 상록구 성포동 592번지 선경아파트","indutype":"도매 및 소매업 - 인삼","category":"other"},{"name":"선경정육점","tel":"031-483-6443","addr":"경기도 안산시 상록구 성포동 592번지 선경아파트","indutype":"도매 및 소매업 - 식육","category":"other"},{"name":"세림정육점","tel":"031-402-1621","addr":"경기도 안산시 상록구 성포동 592번지 선경아파트","indutype":"도매 및 소매업 - 식육","category":"other"},{"name":"에스지(SG) 복싱 짐(GYM)","tel":"031-391-8897","addr":"경기도 안산시 상록구 성포동 592번지","indutype":"예술, 스포츠 및 여가관련 서비스업","category":"other"},{"name":"에코공방","tel":"031-410-1189","addr":"경기도 안산시 상록구 성포동 592번지 선경아파트","indutype":"도매 및 소매업 - 전자상거래,천연비","category":"other"},{"name":"유일문구","tel":"031-403-6364","addr":"경기도 안산시 상록구 성포동 592번지","indutype":"도매 및 소매업 - 문구","category":"other"},{"name":"은혜세탁소","tel":"031-480-7026","addr":"경기도 안산시 상록구 성포동 592번지 선경아파트","indutype":"협회 및 단체, 수리 및 기타 개인서","category":"other"},{"name":"정쌤공부방","tel":"070-8841-1024","addr":"경기도 안산시 상록구 성포동 592번지 선경아파트","indutype":"교육서비스업 - 개인교습","category":"other"},{"name":"쥬비코스 르네셀 미나","tel":"","addr":"경기도 안산시 상록구 성포동 592번지 선경아파트","indutype":"도매 및 소매업 - 화장품","category":"other"},{"name":"창대건축인테리어","tel":"031-484-1515","addr":"경기도 안산시 상록구 성포동 592번지 선경아파트","indutype":"건설업 - 인테리어","category":"other"},{"name":"크린워드 성포점","tel":"","addr":"경기도 안산시 상록구 성포동 592번지","indutype":"협회 및 단체, 수리 및 기타 개인서","category":"other"},{"name":"크린화이트","tel":"031-406-3754","addr":"경기도 안산시 상록구 성포동 592번지","indutype":"협회 및 단체, 수리 및 기타 개인서","category":"other"},{"name":"헤나킹","tel":"031-483-6488","addr":"경기도 안산시 상록구 성포동 592번지","indutype":"협회 및 단체, 수리 및 기타 개인서","category":"other"}]},{"lat":"37.3268066553","long":"126.8470779127","imageIndex":17,"items":[{"name":"㈜태화유업고려스파랜드지점","tel":"031-480-5001","addr":"경기도 안산시 상록구 성포동 593-17번지","indutype":"협회 및 단체, 수리 및 기타 개인서","category":"other"},{"name":"다농스포츠&골프","tel":"031-403-0838","addr":"경기도 안산시 상록구 성포동 593-17번지","indutype":"도매 및 소매업 - 스포츠용품","category":"other"},{"name":"선경골프연습장","tel":"031-405-0790","addr":"경기도 안산시 상록구 성포동 593-17번지","indutype":"협회 및 단체, 수리 및 기타 개인서","category":"other"},{"name":"크로우요가","tel":"031-483-3008","addr":"경기도 안산시 상록구 성포동 593-17번지","indutype":"예술, 스포츠 및 여가관련 서비스업","category":"other"}]},{"lat":"37.3217295929","long":"126.8438278893","imageIndex":17,"items":[{"name":"경기아쿠아","tel":"031-482-5808","addr":"경기도 안산시 상록구 성포동 583번지","indutype":"도매 및 소매업 - 열대어및관상어","category":"other"},{"name":"낙원떡집","tel":"031-482-2626","addr":"경기도 안산시 상록구 성포동 583번지","indutype":"제조업 - 즉석제조판매,농산물","category":"other"},{"name":"다예한지공방","tel":"031-484-1511","addr":"경기도 안산시 상록구 성포동 583번지","indutype":"도매 및 소매업 - 공예품","category":"other"},{"name":"대신정보","tel":"031-402-0012","addr":"경기도 안산시 상록구 성포동 583번지","indutype":"도매 및 소매업 - 통신가게,휴대폰악","category":"other"},{"name":"두발로","tel":"031-405-4800","addr":"경기도 안산시 상록구 성포동 583번지","indutype":"도매 및 소매업 - 신발,가방","category":"other"},{"name":"루키","tel":"031-414-0441","addr":"경기도 안산시 상록구 성포동 583번지","indutype":"도매 및 소매업 - 의류","category":"other"},{"name":"림컬렉션","tel":"031-483-2348","addr":"경기도 안산시 상록구 성포동 583번지","indutype":"도매 및 소매업 - 액세서리,잡화","category":"other"},{"name":"머시야","tel":"031-402-4571","addr":"경기도 안산시 상록구 성포동 583번지","indutype":"도매 및 소매업 - 신발,가방 및 기","category":"other"},{"name":"명품 세탁소","tel":"031-487-9366","addr":"경기도 안산시 상록구 성포동 583번지","indutype":"협회 및 단체, 수리 및 기타 개인서","category":"other"},{"name":"모아","tel":"031-402-3276","addr":"경기도 안산시 상록구 성포동 583번지","indutype":"도매 및 소매업 - 의류","category":"other"},{"name":"민속떡집","tel":"031-482-8804","addr":"경기도 안산시 상록구 성포동 583번지","indutype":"제조업 - 떡도소매","category":"other"},{"name":"민정상회","tel":"031-484-2510","addr":"경기도 안산시 상록구 성포동 583번지","indutype":"도매 및 소매업 - 내의","category":"other"},{"name":"보리수카페 베이커리","tel":"031-482-8785","addr":"경기도 안산시 상록구 성포동 583번지","indutype":"도매 및 소매업 - 카페및베이커리","category":"other"},{"name":"봉바스","tel":"031-405-4800","addr":"경기도 안산시 상록구 성포동 583번지 예술인아파트","indutype":"도매 및 소매업 - 인테리어잡화","category":"other"},{"name":"북스토리","tel":"031-402-1125","addr":"경기도 안산시 상록구 성포동 583번지","indutype":"도매 및 소매업 - 서적","category":"other"},{"name":"뿔라 피부관리","tel":"031-486-1555","addr":"경기도 안산시 상록구 성포동 583번지 예술인아파트","indutype":"협회 및 단체, 수리 및 기타 개인서","category":"other"},{"name":"샬롬","tel":"","addr":"경기도 안산시 상록구 성포동 583번지","indutype":"도매 및 소매업 - 의류","category":"other"},{"name":"소담공방","tel":"031-410-6876","addr":"경기도 안산시 상록구 성포동 583번지","indutype":"협회 및 단체, 수리 및 기타 개인서","category":"other"},{"name":"수선","tel":"","addr":"경기도 안산시 상록구 성포동 583번지","indutype":"도매 및 소매업 - 의류","category":"other"},{"name":"스타네일","tel":"031-414-6674","addr":"경기도 안산시 상록구 성포동 583번지","indutype":"협회 및 단체, 수리 및 기타 개인서","category":"other"},{"name":"스타뜨개방","tel":"","addr":"경기도 안산시 상록구 성포동 583번지","indutype":"도매 및 소매업 - 수예,뜨개","category":"other"},{"name":"스타사진공방","tel":"031-401-7440","addr":"경기도 안산시 상록구 성포동 583번지","indutype":"협회 및 단체, 수리 및 기타 개인서","category":"other"},{"name":"스타수선","tel":"","addr":"경기도 안산시 상록구 성포동 583번지","indutype":"도매 및 소매업 - 의류수선","category":"other"},{"name":"스타열쇠철물","tel":"031-480-9567","addr":"경기도 안산시 상록구 성포동 583번지","indutype":"도매 및 소매업 - 열쇠 및 철물,설","category":"other"},{"name":"스타인테리어","tel":"","addr":"경기도 안산시 상록구 성포동 583번지","indutype":"도매 및 소매업 - 인테리어","category":"other"},{"name":"스타전기조명","tel":"031-403-2110","addr":"경기도 안산시 상록구 성포동 583번지","indutype":"도매 및 소매업 - 전기,조명,잡화철","category":"other"},{"name":"스타정육점","tel":"031-480-9559","addr":"경기도 안산시 상록구 성포동 583번지","indutype":"도매 및 소매업 - 정육","category":"other"},{"name":"시슬리","tel":"031-482-6714","addr":"경기도 안산시 상록구 성포동 583번지","indutype":"도매 및 소매업 - 화장품,잡화","category":"other"},{"name":"신어보고","tel":"070-4922-1261","addr":"경기도 안산시 상록구 성포동 583번지 예술인아파트","indutype":"도매 및 소매업 - 잡화","category":"other"},{"name":"씽코","tel":"031-411-0938","addr":"경기도 안산시 상록구 성포동 583번지","indutype":"도매 및 소매업 - 내의","category":"other"},{"name":"아이리스","tel":"031-483-5025","addr":"경기도 안산시 상록구 성포동 583번지","indutype":"도매 및 소매업 - 의류","category":"other"},{"name":"엘도라도","tel":"031-411-5818","addr":"경기도 안산시 상록구 성포동 583번지","indutype":"도매 및 소매업 - 준보석","category":"other"},{"name":"연미","tel":"031-414-3561","addr":"경기도 안산시 상록구 성포동 583번지","indutype":"도매 및 소매업 - 의류","category":"other"},{"name":"예쁜양말멋진속옷","tel":"","addr":"경기도 안산시 상록구 성포동 583번지","indutype":"도매 및 소매업 - 모자,기타의류","category":"other"},{"name":"예술라사","tel":"031-482-5700","addr":"경기도 안산시 상록구 성포동 583번지","indutype":"도매 및 소매업 - 의류","category":"other"},{"name":"예술인문구","tel":"031-480-4528","addr":"경기도 안산시 상록구 성포동 583번지","indutype":"도매 및 소매업 - 문구","category":"other"},{"name":"중앙안과의원","tel":"031-486-0123","addr":"경기도 안산시 상록구 성포동 583번지","indutype":"보건업 및 사회복지서비스업 - 안과","category":"other"},{"name":"축복쌀상회","tel":"031-482-8317","addr":"경기도 안산시 상록구 성포동 583번지","indutype":"제조업 - 양곡","category":"other"},{"name":"축복쌀상회","tel":"031-482-9291","addr":"경기도 안산시 상록구 성포동 583번지","indutype":"도매 및 소매업 - 곡물","category":"other"},{"name":"코디","tel":"031-402-5776","addr":"경기도 안산시 상록구 성포동 583번지 예술인아파트","indutype":"도매 및 소매업 - 숙녀복","category":"other"},{"name":"퀸숙녀복","tel":"031-483-0727","addr":"경기도 안산시 상록구 성포동 583번지","indutype":"도매 및 소매업 - 의류","category":"other"},{"name":"클래식","tel":"031-413-6445","addr":"경기도 안산시 상록구 성포동 583번지","indutype":"도매 및 소매업 - 의류,잡화","category":"other"},{"name":"토바","tel":"031-484-1280","addr":"경기도 안산시 상록구 성포동 583번지","indutype":"도매 및 소매업 - 의류","category":"other"},{"name":"프라자백양","tel":"031-485-7497","addr":"경기도 안산시 상록구 성포동 583번지","indutype":"도매 및 소매업 - 의류","category":"other"},{"name":"프로포즈","tel":"031-4001-4278","addr":"경기도 안산시 상록구 성포동 583번지","indutype":"도매 및 소매업 - 의류","category":"other"},{"name":"한국TF","tel":"","addr":"경기도 안산시 상록구 성포동 583번지","indutype":"도매 및 소매업 - 의류","category":"other"},{"name":"한양체육공사","tel":"031-480-0088","addr":"경기도 안산시 상록구 성포동 583번지","indutype":"도매 및 소매업 - 운동용구,운동시설","category":"other"},{"name":"현악아트","tel":"031-492-1270","addr":"경기도 안산시 상록구 성포동 583번지","indutype":"도매 및 소매업 - 악기부품","category":"other"},{"name":"홈패션","tel":"","addr":"경기도 안산시 상록구 성포동 583번지","indutype":"도매 및 소매업 - 침구류","category":"other"},{"name":"홍익뜰미술교습소","tel":"","addr":"경기도 안산시 상록구 성포동 583번지","indutype":"교육서비스업 - 미술교습소","category":"other"},{"name":"화장품잡화","tel":"031-402-5004","addr":"경기도 안산시 상록구 성포동 583번지","indutype":"도매 및 소매업 - 화장품잡화","category":"other"}]},{"lat":"37.3266679969","long":"126.8444380326","imageIndex":17,"items":[{"name":"경동메디칼약국","tel":"031-487-1688","addr":"경기도 안산시 상록구 성포동 593-10번지","indutype":"도매 및 소매업 - 양약","category":"other"},{"name":"자연약국","tel":"031-401-0267","addr":"경기도 안산시 상록구 성포동 593-10번지","indutype":"도매 및 소매업 - 의약품","category":"other"},{"name":"조병섭내과의원","tel":"031-411-5119","addr":"경기도 안산시 상록구 성포동 593-10번지","indutype":"보건업 및 사회복지서비스업 - 내과","category":"other"},{"name":"행복한 안경","tel":"031-487-0265","addr":"경기도 안산시 상록구 성포동 593-10번지","indutype":"도매 및 소매업 - 안경","category":"other"},{"name":"헤어즈 미용실","tel":"","addr":"경기도 안산시 상록구 성포동 593-10번지","indutype":"협회 및 단체, 수리 및 기타 개인서","category":"other"}]},{"lat":"37.3200640413","long":"126.8448241953","imageIndex":17,"items":[{"name":"과천종합보수","tel":"031-487-8495","addr":"경기도 안산시 상록구 성포동 588-2번지","indutype":"도매 및 소매업 - 청물","category":"other"},{"name":"바디챌린지","tel":"","addr":"경기도 안산시 상록구 성포동 588-2번지","indutype":"협회 및 단체, 수리 및 기타 개인서","category":"other"},{"name":"비손네일","tel":"031-505-7007","addr":"경기도 안산시 상록구 성포동 588-2번지","indutype":"협회 및 단체, 수리 및 기타 개인서","category":"other"},{"name":"성포세탁소","tel":"031-480-6209","addr":"경기도 안산시 상록구 성포동 588-2번지","indutype":"협회 및 단체, 수리 및 기타 개인서","category":"other"},{"name":"스타헤어","tel":"031-411-2811","addr":"경기도 안산시 상록구 성포동 588-2번지","indutype":"협회 및 단체, 수리 및 기타 개인서","category":"other"},{"name":"연세내과의원","tel":"031-411-0090","addr":"경기도 안산시 상록구 성포동 588-2번지","indutype":"보건업 및 사회복지서비스업 - 내과,","category":"other"},{"name":"정약국","tel":"031-480-2852","addr":"경기도 안산시 상록구 성포동 588-2번지","indutype":"도매 및 소매업 - 양약","category":"other"},{"name":"헤어사이언스멋","tel":"031-410-6900","addr":"경기도 안산시 상록구 성포동 588-2번지","indutype":"협회 및 단체, 수리 및 기타 개인서","category":"other"}]},{"lat":"37.320064041","long":"126.8448242","imageIndex":17,"items":[{"name":"과천종합보수","tel":"031-482-6786","addr":"경기도 안산시 상록구 성포동 588-2번지 종합상가제1층 113호","indutype":"건축자재 - 목재·석재·철물","category":"other"},{"name":"성포세탁소","tel":"031-480-6209","addr":"경기도 안산시 상록구 성포동 588-2번지 주공복합상가 114호","indutype":"수리서비스 - 세탁소","category":"other"},{"name":"아이에스정보통신","tel":"031-480-7700","addr":"경기도 안산시 상록구 성포동 588-2번지 성포동주공4단지 종합상가 101호","indutype":"사무통신 - 통신기기","category":"other"},{"name":"안산농협 성포지점","tel":"031-475-6677","addr":"경기도 안산시 상록구 성포동 588-2 종합상가 206,207,208,109호","indutype":"유통업 비영리 - 농,축협 직영매장","category":"other"},{"name":"홈스튜디오","tel":"031-480-2655","addr":"경기도 안산시 상록구 성포동 588-2번지 주공4단지 101호","indutype":"광학제품 - 사진관","category":"other"}]},{"lat":"37.3266151261","long":"126.8453294812","imageIndex":17,"items":[{"name":"교원독서실","tel":"031-401-7638","addr":"경기도 안산시 상록구 성포동 593-6번지","indutype":"협회 및 단체, 수리 및 기타 개인서","category":"other"}]},{"lat":"37.3209361055","long":"126.8433895672","imageIndex":17,"items":[{"name":"국제안경","tel":"031-482-9988","addr":"경기도 안산시 상록구 성포동 583번지","indutype":"도매 및 소매업 - 안경","category":"other"}]},{"lat":"37.3207836613","long":"126.8439314197","imageIndex":17,"items":[{"name":"굿치과의원","tel":"031-486-2755","addr":"경기도 안산시 상록구 성포동 583-5번지","indutype":"보건업 및 사회복지서비스업 - 치과의","category":"other"},{"name":"대박축산","tel":"031-403-0695","addr":"경기도 안산시 상록구 성포동 583-5번지","indutype":"도매 및 소매업 - 육류소매업","category":"other"},{"name":"벌룬데코","tel":"031-483-7811","addr":"경기도 안산시 상록구 성포동 583-5번지","indutype":"도매 및 소매업 - 풍선,파티이벤트소","category":"other"},{"name":"블루클럽성포점","tel":"031-402-3011","addr":"경기도 안산시 상록구 성포동 583-5번지","indutype":"협회 및 단체, 수리 및 기타 개인서","category":"other"},{"name":"성포라성약국","tel":"031-480-1057","addr":"경기도 안산시 상록구 성포동 583-5번지","indutype":"도매 및 소매업 - 양약,의료용기기","category":"other"},{"name":"스타스크린골프","tel":"031-401-4999","addr":"경기도 안산시 상록구 성포동 583-5번지","indutype":"예술, 스포츠 및 여가관련 서비스업","category":"other"},{"name":"아이데코안산성포점","tel":"031-401-7779","addr":"경기도 안산시 상록구 성포동 583-5번지","indutype":"도매 및 소매업 - 안경","category":"other"},{"name":"예술 스파랜드㈜","tel":"031-485-7937","addr":"경기도 안산시 상록구 성포동 583-5번지","indutype":"협회 및 단체, 수리 및 기타 개인서","category":"other"},{"name":"예술체육관","tel":"031-482-9862","addr":"경기도 안산시 상록구 성포동 583-5번지","indutype":"예술, 스포츠 및 여가관련 서비스업","category":"other"},{"name":"예술피부사랑","tel":"031-484-2229","addr":"경기도 안산시 상록구 성포동 583-5번지","indutype":"협회 및 단체, 수리 및 기타 개인서","category":"other"},{"name":"최응덕소아과","tel":"031-484-3131","addr":"경기도 안산시 상록구 성포동 583-5번지","indutype":"보건업 및 사회복지서비스업 - 일반과","category":"other"},{"name":"필라테스 바이청","tel":"","addr":"경기도 안산시 상록구 성포동 583-5번지","indutype":"교육서비스업 - 스포츠교육기관","category":"other"},{"name":"헤어살롱엔","tel":"031-486-1123","addr":"경기도 안산시 상록구 성포동 583-5번지","indutype":"협회 및 단체, 수리 및 기타 개인서","category":"other"}]},{"lat":"37.3266214604","long":"126.8433324203","imageIndex":17,"items":[{"name":"권지연헤어샵","tel":"031-403-3115","addr":"경기도 안산시 상록구 성포동 592번지","indutype":"협회 및 단체, 수리 및 기타 개인서","category":"other"},{"name":"뉴스헤어스타일","tel":"031-414-4302","addr":"경기도 안산시 상록구 성포동 592번지","indutype":"협회 및 단체, 수리 및 기타 개인서","category":"other"},{"name":"무지개에스테틱","tel":"070-4254-0160","addr":"경기도 안산시 상록구 성포동 592번지","indutype":"협회 및 단체, 수리 및 기타 개인서","category":"other"},{"name":"손톱깎이","tel":"070-4116-9654","addr":"경기도 안산시 상록구 성포동 592번지","indutype":"협회 및 단체, 수리 및 기타 개인서","category":"other"},{"name":"우리홈패션","tel":"031-403-0781","addr":"경기도 안산시 상록구 성포동 592번지","indutype":"도매 및 소매업 - 수예품","category":"other"}]},{"lat":"37.321729593","long":"126.84382789","imageIndex":17,"items":[{"name":"금성당","tel":"031-494-2823","addr":"경기도 안산시 상록구 성포동 583번지 상가동24,24-1호","indutype":"신변잡화 - 시계","category":"other"},{"name":"다예한지공방","tel":"031-484-1511","addr":"경기도 안산시 상록구 성포동 583번지 예술인아파트 스타프라자 상가동 1층 13호","indutype":"문화.취미 - 민예·공예품","category":"other"},{"name":"대신정보통신","tel":"031-402-0012","addr":"경기도 안산시 상록구 성포동 583번지 (스타프라자1층57-1)","indutype":"사무통신 - 통신기기","category":"other"},{"name":"도로시","tel":"031-401-6339","addr":"경기도 안산시 상록구 성포동 583 스타프라자1층48호","indutype":"신변잡화 - 기타잡화","category":"other"},{"name":"동산양말","tel":"031-482-3060","addr":"경기도 안산시 상록구 성포동 583번지 스타프라자상가 1층","indutype":"기타 - 기타 전문점","category":"other"},{"name":"동일레나운안산대리점","tel":"031-480-8097","addr":"경기도 안산시 상록구 성포동 583번지 스타프라자 2층 6869호","indutype":"의류 - 정장","category":"other"},{"name":"두발로","tel":"031-405-4800","addr":"경기도 안산시 상록구 성포동 583번지 스타프라자 61호","indutype":"신변잡화 - 신발","category":"other"},{"name":"루키","tel":"031-414-0441","addr":"경기도 안산시 상록구 성포동 583번지 스타프라자 2층 45호","indutype":"의류 - 정장","category":"other"},{"name":"루키버드","tel":"031-414-0441","addr":"경기도 안산시 상록구 성포동 583 스타프라자2층47호","indutype":"의류 - 정장","category":"other"},{"name":"리오의상실","tel":"031-403-5445","addr":"경기도 안산시 상록구 성포동 583번지 스타프라자 2층 34호","indutype":"의류 - 정장","category":"other"},{"name":"맨하탄","tel":"031-482-5237","addr":"경기도 안산시 상록구 성포동 583번지 스타프라자 2층 35호","indutype":"의류 - 양품점","category":"other"},{"name":"명품세탁소","tel":"031-487-9366","addr":"경기도 안산시 상록구 성포동 583번지 예술인A상가 지층 11호","indutype":"수리서비스 - 세탁소","category":"other"},{"name":"모아","tel":"031-402-3726","addr":"경기도 안산시 상록구 성포동 583번지 스타프라자 2층","indutype":"의류 - 정장","category":"other"},{"name":"미카엘","tel":"031-480-2662","addr":"경기도 안산시 상록구 성포동 583번지 스타프라자쇼핑센터 2층 41호","indutype":"의류 - 양품점","category":"other"},{"name":"베비라","tel":"031-484-2945","addr":"경기도 안산시 상록구 성포동 583번지 스타프라자 2층 21호","indutype":"의류 - 아동의류","category":"other"},{"name":"보통사람","tel":"031-485-4543","addr":"경기도 안산시 상록구 성포동 583번지 스타프라자 2층 40호","indutype":"의류 - 정장","category":"other"},{"name":"북스토리","tel":"031-402-1125","addr":"경기도 안산시 상록구 성포동 583번지 스타프라자 2층 22호","indutype":"서적문구 - 일반서적","category":"other"},{"name":"비비안","tel":"031-485-9201","addr":"경기도 안산시 상록구 성포동 583번지 스타프라자 2층 77호","indutype":"의류 - 내의판매","category":"other"},{"name":"삼익가구성포동대리점","tel":"031-482-9393","addr":"경기도 안산시 상록구 성포동 583번지 스타프라자 3층","indutype":"가구 - 일반가구","category":"other"},{"name":"센스","tel":"031-414-3561","addr":"경기도 안산시 상록구 성포동 583번지 스타프라자 2층","indutype":"의류 - 정장","category":"other"},{"name":"수산나","tel":"031-405-4800","addr":"경기도 안산시 상록구 성포동 583번지 스타프라자 61호","indutype":"신변잡화 - 기타잡화","category":"other"},{"name":"스타담배","tel":"031-486-3900","addr":"경기도 안산시 상록구 성포동 583스타프라자1층54","indutype":"신변잡화 - 기타잡화","category":"other"},{"name":"스타뜨게방","tel":"031-411-9432","addr":"경기도 안산시 상록구 성포동 583,스타프라자1층25","indutype":"직물 - 침구·수예점","category":"other"},{"name":"스타사진관","tel":"031-413-7474","addr":"경기도 안산시 상록구 성포동 583번지 스타프라자 1층 4","indutype":"광학제품 - 사진관","category":"other"},{"name":"스타사진관","tel":"031-401-7440","addr":"경기도 안산시 상록구 성포동 583번지 스타프라자 3층 9호","indutype":"광학제품 - 사진관","category":"other"},{"name":"스타이불","tel":"031-411-8071","addr":"경기도 안산시 상록구 성포동 583번지 스타프라자 26호/28호","indutype":"직물 - 침구·수예점","category":"other"},{"name":"스타지물인테리어","tel":"031-437-4246","addr":"경기도 안산시 상록구 성포동 583번지 제상가동 1동 12호","indutype":"직물 - 카페트,커튼,천막,지물","category":"other"},{"name":"스타프라자쌍방울","tel":"031-484-7393","addr":"경기도 안산시 상록구 성포동 583번지 스타프라자 2층 73호","indutype":"의류 - 내의판매","category":"other"},{"name":"신어보고","tel":"031-411-3963","addr":"경기도 안산시 상록구 성포동 583제상가동제1층11호","indutype":"신변잡화 - 기타잡화","category":"other"},{"name":"씽코","tel":"031-411-0938","addr":"경기도 안산시 상록구 성포동 583번지 스타프라자 1층 30호","indutype":"의류 - 내의판매","category":"other"},{"name":"아이리스","tel":"031-483-5025","addr":"경기도 안산시 상록구 성포동 583 스타프라자2층 44호","indutype":"의류 - 정장","category":"other"},{"name":"예쁜양말 멋진속옷","tel":"031-405-0393","addr":"경기도 안산시 상록구 성포동 583번지 스타프라자","indutype":"의류 - 내의판매","category":"other"},{"name":"예삐꽃방","tel":"031-485-6644","addr":"경기도 안산시 상록구 성포동 583스타프라자71","indutype":"문화.취미 - 화원","category":"other"},{"name":"예술라사","tel":"031-482-5700","addr":"경기도 안산시 상록구 성포동 583번지 스타프라자 2층 33","indutype":"의류 - 정장","category":"other"},{"name":"예술신발","tel":"031-480-5051","addr":"경기도 안산시 상록구 성포동 583번지 스타프라자 1층 31호","indutype":"신변잡화 - 신발","category":"other"},{"name":"오스코","tel":"031-410-8296","addr":"경기도 안산시 상록구 성포동 583 스타프라자 1층 36호","indutype":"신변잡화 - 액세서리","category":"other"},{"name":"용산컴퓨터마트","tel":"031-414-8411","addr":"경기도 안산시 상록구 성포동 583번지 제상가동1층1호","indutype":"사무통신 - 컴퓨터","category":"other"},{"name":"유명","tel":"031-414-5156","addr":"경기도 안산시 상록구 성포동 583 스타프라자2층 64","indutype":"의류 - 정장","category":"other"},{"name":"이태리제화","tel":"031-480-9421","addr":"경기도 안산시 상록구 성포동 583번지 스타프라자 58호","indutype":"신변잡화 - 제화","category":"other"},{"name":"임마누엘","tel":"031-84-0738","addr":"경기도 안산시 상록구 성포동 583번지 스타프라자 2층 64","indutype":"의류 - 정장","category":"other"},{"name":"제이(J)영가영재교육","tel":"031-509-6821","addr":"경기도 안산시 상록구 성포동 583","indutype":"회원제형태 - 서적","category":"other"},{"name":"주식회사솔로몬투어","tel":"070-4131-5622","addr":"경기도 안산시 상록구 성포동 583번지 스타프라자상가2층43호","indutype":"여행 - 관광여행","category":"other"},{"name":"창산필방","tel":"031-480-4045","addr":"경기도 안산시 상록구 성포동 583번지 스타프라자 1층 39호","indutype":"문화.취미 - 화방·표구점","category":"other"},{"name":"코드코주방잡화코너","tel":"031-485-5053","addr":"경기도 안산시 상록구 성포동 583번지 스타프라자 지하층 20호","indutype":"기타 - 기타 전문점","category":"other"},{"name":"코디","tel":"031-402-5776","addr":"경기도 안산시 상록구 성포동 583번지 스타프라자 2층 23호","indutype":"의류 - 정장","category":"other"},{"name":"퀸숙녀복","tel":"031-483-0727","addr":"경기도 안산시 상록구 성포동 583번지 스타프라자69호","indutype":"의류 - 정장","category":"other"},{"name":"태창메리야스","tel":"031-480-4086","addr":"경기도 안산시 상록구 성포동 583번지 스타프라자 2층 72","indutype":"의류 - 내의판매","category":"other"},{"name":"토바","tel":"031-484-1280","addr":"경기도 안산시 상록구 성포동 583 스타프라자2층 66,67호","indutype":"의류 - 정장","category":"other"},{"name":"파란나라","tel":"031-401-6488","addr":"경기도 안산시 상록구 성포동 583번지 (스타프라자2층)","indutype":"의류 - 정장","category":"other"},{"name":"프라자백양","tel":"031-877-7479","addr":"경기도 안산시 상록구 성포동 583번지 스타프라자 2층 74호","indutype":"의류 - 내의판매","category":"other"},{"name":"프라자완구","tel":"031-480-4555","addr":"경기도 안산시 상록구 성포동 583번지 예술인 쇼핑센터 2호","indutype":"서적문구 - 완구점","category":"other"},{"name":"프라자주방용품","tel":"031-485-2620","addr":"경기도 안산시 상록구 성포동 583번지 스타프라자 1층 2호","indutype":"주방용구 - 주방용구","category":"other"},{"name":"프로포즈","tel":"031-401-4278","addr":"경기도 안산시 상록구 성포동 583번지 예술인아파트 스타프라자 2층 35호","indutype":"의류 - 정장","category":"other"},{"name":"한양체육공사","tel":"031-480-0088","addr":"경기도 안산시 상록구 성포동 583번지 스타 2층","indutype":"레져용품 - 스포츠·레져용품","category":"other"},{"name":"현악아트","tel":"031-492-1270","addr":"경기도 안산시 상록구 성포동 583번지 스타프라자 1층 2-1","indutype":"레져용품 - 악기점","category":"other"},{"name":"호준스포츠","tel":"031-484-9070","addr":"경기도 안산시 상록구 성포동 583번지 스타프라자 12-2","indutype":"레져용품 - 스포츠·레져용품","category":"other"}]},{"lat":"37.320783661","long":"126.84393142","imageIndex":17,"items":[{"name":"김동물병원","tel":"031-480-4474","addr":"경기도 안산시 상록구 성포동 583-5번지","indutype":"문화.취미 - 애완동물","category":"other"},{"name":"미니스톱안산성포점","tel":"031-480-3795","addr":"경기도 안산시 상록구 성포동 583-5번지","indutype":"유통업 영리 - 편 의 점","category":"other"},{"name":"벌룬데코","tel":"031-483-7811","addr":"경기도 안산시 상록구 성포동 583-5번지 예술프라자 1층 102호","indutype":"신변잡화 - 기타잡화","category":"other"},{"name":"스타스크린골프","tel":"031-401-4999","addr":"경기도 안산시 상록구 성포동 583-5번지 예술프라자 507동 508호","indutype":"회원제형태 - 레져업소","category":"other"}]},{"lat":"37.325391836","long":"126.8469116","imageIndex":17,"items":[{"name":"나 라","tel":"070-4085-2494","addr":"경기도 안산시 상록구 성포동 591번지 주공11단지아파트","indutype":"수리서비스 - 기타수리서비스","category":"other"}]},{"lat":"37.323091248","long":"126.8446599","imageIndex":17,"items":[{"name":"나이스휘트니스","tel":"031-403-2323","addr":"경기도 안산시 상록구 성포동 583-4번지 6층","indutype":"회원제형태 - 레져업소","category":"other"},{"name":"노블레스","tel":"031-401-4574","addr":"경기도 안산시 상록구 성포동 583-4번지 사이버스튜디오 515호","indutype":"회원제형태 - 기타4","category":"other"},{"name":"드림앤 스터디카페","tel":"02-486-1161","addr":"경기도 안산시 상록구 성포동 583-4번지 사이버스튜디오 211호","indutype":"용역 서비스 - 사무서비스","category":"other"},{"name":"오케이(OK)스크린골프","tel":"031-413-0720","addr":"경기도 안산시 상록구 성포동 583-4번지 208호 ,209,210,211호","indutype":"회원제형태 - 레져업소","category":"other"}]},{"lat":"37.3230912478","long":"126.8446599044","imageIndex":17,"items":[{"name":"나이스휘트니스","tel":"031-403-2323","addr":"경기도 안산시 상록구 성포동 583-4번지","indutype":"협회 및 단체, 수리 및 기타 개인서","category":"other"},{"name":"리스트 바이올린교습소","tel":"","addr":"경기도 안산시 상록구 성포동 583-4번지","indutype":"예술, 스포츠 및 여가관련 서비스업","category":"other"}]},{"lat":"37.324153737","long":"126.8441274","imageIndex":17,"items":[{"name":"나포리","tel":"031-410-3118","addr":"경기도 안산시 상록구 성포동 592번지 선경 상가 2동 210호","indutype":"신변잡화 - 제화","category":"other"}]},{"lat":"37.326806655","long":"126.84707791","imageIndex":17,"items":[{"name":"다농스포츠& 골프","tel":"031-403-0838","addr":"경기도 안산시 상록구 성포동 593-17번지","indutype":"레져용품 - 골프용품 전문점","category":"other"},{"name":"선경골프연습장","tel":"031-405-0790","addr":"경기도 안산시 상록구 성포동 593-16 성포타운 306","indutype":"회원제형태 - 레져업소","category":"other"}]},{"lat":"37.317115521","long":"126.85001978","imageIndex":17,"items":[{"name":"대길유통","tel":"070-8031-4038","addr":"경기도 안산시 상록구 성포동 586번지 1층 지오지아 홈플러스","indutype":"유통업 영리 - 기타유통업","category":"other"},{"name":"삼성전자판매(주)홈플러스안산점","tel":"031-487-9760","addr":"경기도 안산시 상록구 성포동 586 홈플러스 3층","indutype":"전기제품 - 가전제품","category":"other"},{"name":"소프트잉크 안산점","tel":"031-401-8040","addr":"경기도 안산시 상록구 성포동 586번지 홈플러스 안산점 2층 X9YA호","indutype":"사무통신 - 기타 사무용품","category":"other"},{"name":"스위스(안산)","tel":"031-481-8082","addr":"경기도 안산시 상록구 성포동 586번지 홈플러스","indutype":"수리서비스 - 기타수리서비스","category":"other"},{"name":"씨제이올리브네트웍스(주)홈플러스안산점","tel":"031-402-7355","addr":"경기도 안산시 상록구 성포동 586번지 홈플러스안산점 1층","indutype":"유통업 영리 - 편 의 점","category":"other"},{"name":"씨제이올리브네트웍스(주)홈플러스안산점","tel":"031-402-1532","addr":"경기도 안산시 상록구 성포동 586번지 홈플러스안산점 1층","indutype":"유통업 영리 - 편 의 점","category":"other"},{"name":"안산시건강가정지원센터/아이돌봄","tel":"031-501-0340","addr":"경기도 안산시 상록구 성포동 586번지 홈플러스안산점 1층","indutype":"기타 - 비영리/대상","category":"other"}]},{"lat":"37.3253918363","long":"126.8469115952","imageIndex":17,"items":[{"name":"두근두근정육점","tel":"031-414-7710","addr":"경기도 안산시 상록구 성포동 591번지 주공11단지아파트","indutype":"도매 및 소매업 - 정육점","category":"other"},{"name":"란헤어센스","tel":"031-480-0975","addr":"경기도 안산시 상록구 성포동 591번지 주공11단지아파트","indutype":"협회 및 단체, 수리 및 기타 개인서","category":"other"},{"name":"빨간머리","tel":"","addr":"경기도 안산시 상록구 성포동 591번지 주공11단지아파트","indutype":"협회 및 단체, 수리 및 기타 개인서","category":"other"},{"name":"수지네 야채","tel":"031-405-1333","addr":"경기도 안산시 상록구 성포동 591번지 주공11단지아파트","indutype":"도매 및 소매업 - 야채","category":"other"},{"name":"청음피아노교습소","tel":"031-413-0954","addr":"경기도 안산시 상록구 성포동 591번지 주공11단지아파트","indutype":"교육서비스업 - 피아노교습","category":"other"},{"name":"한수진 미용실","tel":"031-401-9115","addr":"경기도 안산시 상록구 성포동 591번지 주공11단지아파트","indutype":"협회 및 단체, 수리 및 기타 개인서","category":"other"},{"name":"행복한 생활용품","tel":"031-410-2738","addr":"경기도 안산시 상록구 성포동 591번지 주공11단지아파트","indutype":"도매 및 소매업 - 생활용품","category":"other"}]},{"lat":"37.320817493","long":"126.84229547","imageIndex":17,"items":[{"name":"민정상회","tel":"031-484-2510","addr":"경기도 안산시 상록구 성포동 583번지 스타프라자 2동 65호","indutype":"의류 - 정장","category":"other"},{"name":"프라자백양","tel":"031-485-7497","addr":"경기도 안산시 상록구 성포동 583번지 스타프라자 2동 74호","indutype":"의류 - 내의판매","category":"other"}]},{"lat":"37.318449348","long":"126.85026528","imageIndex":17,"items":[{"name":"비앤비(B&B)순환운동","tel":"031-413-0666","addr":"경기도 안산시 상록구 성포동 585-4번지 신우상가 지하층 105호 104","indutype":"회원제형태 - 레져업소","category":"other"},{"name":"삼천리자전거(성포점)","tel":"031-439-3838","addr":"경기도 안산시 상록구 성포동 585-4신우상가110,111,104호","indutype":"레져용품 - 스포츠·레져용품","category":"other"},{"name":"신우세탁소","tel":"031-405-7282","addr":"경기도 안산시 상록구 성포동 585-4번지 신우연립 106호","indutype":"수리서비스 - 세탁소","category":"other"},{"name":"신우세탁소","tel":"031-405-7282","addr":"경기도 안산시 상록구 성포동 585-4 신우상가 106","indutype":"수리서비스 - 세탁소","category":"other"},{"name":"씨유안산신우점","tel":"080-080-3663","addr":"경기도 안산시 상록구 성포동 585-4번지 101, 107호","indutype":"유통업 영리 - 편 의 점","category":"other"},{"name":"아름방","tel":"031-475-2626","addr":"경기도 안산시 상록구 성포동 585-4번지 103","indutype":"의류 - 맞춤복점","category":"other"},{"name":"초이스마트","tel":"031-410-7120","addr":"경기도 안산시 상록구 성포동 585-4번지 101,107호","indutype":"유통업 영리 - 편 의 점","category":"other"}]},{"lat":"37.326667997","long":"126.84443803","imageIndex":17,"items":[{"name":"사랑요양원","tel":"031-410-2242","addr":"경기도 안산시 상록구 성포동 593-10번지 선경프라자 5층","indutype":"기타의료기관 - 기타의료기관 및 기타","category":"other"},{"name":"사랑요양원","tel":"031-410-2242","addr":"경기도 안산시 상록구 성포동 593-10번지 선경프라자 5층","indutype":"기타의료기관 - 기타의료기관 및 기타","category":"other"},{"name":"씨유안산성포점","tel":"031-401-4909","addr":"경기도 안산시 상록구 성포동 593-10번지 선경프라자상가 108호","indutype":"유통업 영리 - 편 의 점","category":"other"},{"name":"탐라요양원","tel":"031-411-8877","addr":"경기도 안산시 상록구 성포동 593-10번지 선경프라자 301호","indutype":"기타의료기관 - 기타의료기관 및 기타","category":"other"}]},{"lat":"37.3184493477","long":"126.8502652759","imageIndex":17,"items":[{"name":"삼천리자전거","tel":"031-439-3838","addr":"경기도 안산시 상록구 성포동 585-4번지","indutype":"도매 및 소매업 - 자전거,잡화","category":"other"},{"name":"신우세탁소","tel":"031-405-7282","addr":"경기도 안산시 상록구 성포동 585-4번지 신우빌라","indutype":"협회 및 단체, 수리 및 기타 개인서","category":"other"}]},{"lat":"37.327505791","long":"126.84432344","imageIndex":17,"items":[{"name":"성포동주민자치위원회","tel":"031-481-5769","addr":"경기도 안산시 상록구 성포동 593-1번지 1층","indutype":"문화.취미 - 문화취미기타","category":"other"},{"name":"안산농업협동조합","tel":"031-405-8511","addr":"경기도 안산시 상록구 성포동 593-1번지","indutype":"유통업 비영리 - 농,축협 직영매장","category":"other"},{"name":"안산농업협동조합 하나로마트","tel":"031-482-4756","addr":"경기도 안산시 상록구 성포동 593-1번지 1층","indutype":"유통업 비영리 - 농,축협 직영매장","category":"other"}]},{"lat":"37.32662146","long":"126.84333242","imageIndex":17,"items":[{"name":"성포전기철물","tel":"031-480-4601","addr":"경기도 안산시 상록구 성포동 592선경상가A-102","indutype":"건축자재 - 목재·석재·철물","category":"other"},{"name":"에코공방","tel":"031-410-1189","addr":"경기도 안산시 상록구 성포동 592 선경상가에이동308호","indutype":"신변잡화 - 기타잡화","category":"other"},{"name":"한국세탁소","tel":"031-401-2228","addr":"경기도 안산시 상록구 성포동 592선경상가A-221","indutype":"수리서비스 - 세탁소","category":"other"}]},{"lat":"37.326392069","long":"126.84698851","imageIndex":17,"items":[{"name":"세븐일레븐안산성포점","tel":"031-1577-0711","addr":"경기도 안산시 상록구 성포동 593-25번지 정인프라자 1층 110호","indutype":"유통업 영리 - 편 의 점","category":"other"},{"name":"스쿨샘","tel":"031-401-0796","addr":"경기도 안산시 상록구 성포동 593-25번지 106호","indutype":"사무통신 - 기타 사무용품","category":"other"},{"name":"우리문구종합상사","tel":"031-401-0796","addr":"경기도 안산시 상록구 성포동 593-25번지 정인프라자 1층 105호 111","indutype":"서적문구 - 문구용품","category":"other"},{"name":"위드미 안산성포점","tel":"02-6916-1500","addr":"경기도 안산시 상록구 성포동 593-25번지 정인프라자 1층 110호","indutype":"유통업 영리 - 편 의 점","category":"other"},{"name":"한뜻서점","tel":"031-401-8930","addr":"경기도 안산시 상록구 성포동 593-25번지","indutype":"서적문구 - 일반서적","category":"other"}]},{"lat":"37.321589901","long":"126.84719022","imageIndex":17,"items":[{"name":"스타비피","tel":"031-482-5965","addr":"경기도 안산시 상록구 성포동 584번지 스타프라자 1층 29호","indutype":"광학제품 - 사진관","category":"other"}]},{"lat":"37.3245296518","long":"126.8490457589","imageIndex":17,"items":[{"name":"시온독서실","tel":"","addr":"경기도 안산시 상록구 성포동 591-3번지","indutype":"교육서비스업 - 독서실","category":"other"},{"name":"아이리스헤어샵","tel":"","addr":"경기도 안산시 상록구 성포동 591-3번지","indutype":"협회 및 단체, 수리 및 기타 개인서","category":"other"},{"name":"엘가헤어","tel":"031-480-0998","addr":"경기도 안산시 상록구 성포동 591-3번지","indutype":"협회 및 단체, 수리 및 기타 개인서","category":"other"},{"name":"하나문구","tel":"031-410-0251","addr":"경기도 안산시 상록구 성포동 591-3번지","indutype":"도매 및 소매업 - 문구,학습지","category":"other"},{"name":"하이피카소미술교습소","tel":"031-480-0087","addr":"경기도 안산시 상록구 성포동 591-3번지","indutype":"교육서비스업 - 미술교습소","category":"other"}]},{"lat":"37.319283682","long":"126.8474883","imageIndex":17,"items":[{"name":"씨유안산파크푸르지오점","tel":"080-080-3663","addr":"경기도 안산시 상록구 성포동 747번지 안산파크푸르지오근린생활시설 106호","indutype":"유통업 영리 - 편 의 점","category":"other"},{"name":"파워시스템","tel":"","addr":"경기도 안산시 상록구 성포동 747번지 안산파크푸르지오 106동 2203호","indutype":"용역 서비스 - 기타용역서비스","category":"other"},{"name":"파크세탁소","tel":"031-486-9977","addr":"경기도 안산시 상록구 성포동 747번지 안산파크푸르지오 2층 205호","indutype":"수리서비스 - 세탁소","category":"other"}]},{"lat":"37.3275057909","long":"126.8443234446","imageIndex":17,"items":[{"name":"안산농협하나로마트","tel":"031-482-4756","addr":"경기도 안산시 상록구 성포동 593-1번지","indutype":"도매 및 소매업 - 주류,잡화","category":"other"}]},{"lat":"37.32709158","long":"126.84451612","imageIndex":17,"items":[{"name":"안산성포동우체국","tel":"031-486-2510","addr":"경기도 안산시 상록구 성포동 593-3번지","indutype":"용역 서비스 - 공공요금대행서비스/소","category":"other"}]},{"lat":"37.3171155208","long":"126.8500197833","imageIndex":17,"items":[{"name":"오토오아시스 안산점","tel":"","addr":"경기도 안산시 상록구 성포동 586번지","indutype":"협회 및 단체, 수리 및 기타 개인서","category":"other"}]},{"lat":"37.3234544568","long":"126.8467689296","imageIndex":17,"items":[{"name":"하이크리닝","tel":"","addr":"경기도 안산시 상록구 성포동 591-4번지","indutype":"협회 및 단체, 수리 및 기타 개인서","category":"other"}]},{"lat":"37.317337188","long":"126.84726668","imageIndex":13,"items":[{"name":"(주)네일죤롯데마트안산점","tel":"070-7012-9358","addr":"경기도 안산시 상록구 성포동 590롯데마트안산점지상2층","indutype":"보건위생 - 미용재료","category":"beauty"},{"name":"네일죤","tel":"031-405-8315","addr":"경기도 안산시 상록구 성포동 590번지 롯데마트안산점 2층","indutype":"보건위생 - 피부미용실","category":"beauty"}]},{"lat":"37.317115521","long":"126.85001978","imageIndex":13,"items":[{"name":"(주)네일죤홈플러스안산점","tel":"031-413-4744","addr":"경기도 안산시 상록구 성포동 586번지 홈플러스안사점 1층","indutype":"보건위생 - 미용재료","category":"beauty"}]},{"lat":"37.326806655","long":"126.84707791","imageIndex":13,"items":[{"name":"(주)태화유업고려스파랜드지점","tel":"031-480-5001","addr":"경기도 안산시 상록구 성포동 593-17번지 성포타운 401,501호","indutype":"보건위생 - 사우나","category":"beauty"},{"name":"고려스파랜드","tel":"031-480-5001","addr":"경기도 안산시 상록구 성포동 593-17번지 성포타운 5층","indutype":"보건위생 - 사우나","category":"beauty"},{"name":"고려스파랜드뷰티쓰리","tel":"031-480-5001","addr":"경기도 안산시 상록구 성포동 593-17번지 성포타운 501호","indutype":"보건위생 - 기타대인서비스","category":"beauty"},{"name":"고려스파랜드뷰티원","tel":"031-480-5001","addr":"경기도 안산시 상록구 성포동 593-17번지 성포타운 501호","indutype":"보건위생 - 기타대인서비스","category":"beauty"},{"name":"고려스파랜드뷰티투","tel":"031-480-5001","addr":"경기도 안산시 상록구 성포동 593-17번지 성포타운 501호","indutype":"보건위생 - 기타대인서비스","category":"beauty"},{"name":"고려스파랜드피부샵","tel":"031-480-5001","addr":"경기도 안산시 상록구 성포동 593-17번지 4층 일부 401호","indutype":"보건위생 - 피부미용실","category":"beauty"},{"name":"우텍헬스케어","tel":"031-405-7564","addr":"경기도 안산시 상록구 성포동 593-16 성포타운 310","indutype":"보건위생 - 의료용품","category":"beauty"},{"name":"행복한실버복지센터","tel":"031-486-1478","addr":"경기도 안산시 상록구 성포동 593-16,17 성포타운 309","indutype":"보건위생 - 의료용품","category":"beauty"}]},{"lat":"37.321729593","long":"126.84382789","imageIndex":13,"items":[{"name":"국제안경","tel":"031-482-9988","addr":"경기도 안산시 상록구 성포동 583번지 스타프라자 1층 10호","indutype":"보건위생 - 안경","category":"beauty"},{"name":"헤어마트","tel":"031-480-3760","addr":"경기도 안산시 상록구 성포동 583 스타프라자1층64호,65호","indutype":"보건위생 - 미용재료","category":"beauty"},{"name":"화장품잡화","tel":"031-402-5004","addr":"경기도 안산시 상록구 성포동 583번지 예술인아파트 스타프라자 상가동 1층 19호","indutype":"보건위생 - 화장품","category":"beauty"},{"name":"화장하는사람들","tel":"031-486-4448","addr":"경기도 안산시 상록구 성포동 583/1층33호","indutype":"보건위생 - 화장품","category":"beauty"}]},{"lat":"37.325612124","long":"126.84318788","imageIndex":13,"items":[{"name":"권지연헤어샵","tel":"031-403-3115","addr":"경기도 안산시 상록구 성포동 592선경A상가224","indutype":"보건위생 - 미용원","category":"beauty"},{"name":"무지개에스테틱","tel":"070-4254-0160","addr":"경기도 안산시 상록구 성포동 592번지 선경상가 A동 201,202호","indutype":"보건위생 - 피부미용실","category":"beauty"},{"name":"미스킨앤바디샵","tel":"031-401-1507","addr":"경기도 안산시 상록구 성포동 592번지 지하1층 16호 선경상가","indutype":"보건위생 - 피부미용실","category":"beauty"},{"name":"헤나킹","tel":"031-483-6488","addr":"경기도 안산시 상록구 성포동 592번지 선경상가비동 108호 107호,108호","indutype":"보건위생 - 미용재료","category":"beauty"}]},{"lat":"37.32662146","long":"126.84333242","imageIndex":13,"items":[{"name":"마샬미용실","tel":"031-403-6806","addr":"경기도 안산시 상록구 성포동 592 선경상가 A-224","indutype":"보건위생 - 미용원","category":"beauty"}]},{"lat":"37.320783661","long":"126.84393142","imageIndex":13,"items":[{"name":"블루클럽(성포점)","tel":"031-402-3011","addr":"경기도 안산시 상록구 성포동 583-5번지 예술프라자 1층 109호","indutype":"보건위생 - 미용원","category":"beauty"},{"name":"샵 (#)다온","tel":"031-411-9047","addr":"경기도 안산시 상록구 성포동 583-5번지 예술프라자 205호","indutype":"보건위생 - 피부미용실","category":"beauty"},{"name":"안경박사성포점","tel":"031-401-7779","addr":"경기도 안산시 상록구 성포동 583-5번지 예술프라자 1층 104호","indutype":"보건위생 - 안경","category":"beauty"},{"name":"예술스파랜드(주)","tel":"031-485-7937","addr":"경기도 안산시 상록구 성포동 583-5번지 예술프라자 지하1층","indutype":"보건위생 - 사우나","category":"beauty"},{"name":"예술피부사랑","tel":"031-484-2229","addr":"경기도 안산시 상록구 성포동 583-5번지 예술프라자 2층 208호","indutype":"보건위생 - 피부미용실","category":"beauty"},{"name":"예술피부사랑","tel":"031-484-2229","addr":"경기도 안산시 상록구 성포동 583-5번지 예술프라자 208호","indutype":"보건위생 - 화장품","category":"beauty"},{"name":"큐티폭스","tel":"031-486-2551","addr":"경기도 안산시 상록구 성포동 583-5번지 예술프라자 206호","indutype":"보건위생 - 미용원","category":"beauty"},{"name":"헤어살롱엔","tel":"031-486-1123","addr":"경기도 안산시 상록구 성포동 583-5번지 예술프라자 1층 111호","indutype":"보건위생 - 미용원","category":"beauty"}]},{"lat":"37.320064041","long":"126.8448242","imageIndex":13,"items":[{"name":"비손네일 (pishon nail)","tel":"031-505-7007","addr":"경기도 안산시 상록구 성포동 588-2번지 111호,116호","indutype":"보건위생 - 피부미용실","category":"beauty"},{"name":"헤어사이언스 멋","tel":"031-410-6900","addr":"경기도 안산시 상록구 성포동 588-2번지 주공4단지아파트 종합상가 108호","indutype":"보건위생 - 미용원","category":"beauty"}]},{"lat":"37.323091248","long":"126.8446599","imageIndex":13,"items":[{"name":"선우뷰티","tel":"031-401-5003","addr":"경기도 안산시 상록구 성포동 583-4번지 사이버스튜디오 209호","indutype":"보건위생 - 피부미용실","category":"beauty"}]},{"lat":"37.3192836823","long":"126.8474883008","imageIndex":13,"items":[{"name":"세이프존","tel":"031-480-6474","addr":"경기도 안산시 상록구 성포동 747번지","indutype":"도매 및 소매업 - 미용재료판매,미용","category":"beauty"}]},{"lat":"37.319283682","long":"126.8474883","imageIndex":13,"items":[{"name":"세이프존","tel":"031-480-6474","addr":"경기도 안산시 상록구 성포동 747번지 안산파크푸르지오 상가동 212호","indutype":"보건위생 - 미용재료","category":"beauty"},{"name":"콩스 네일","tel":"","addr":"경기도 안산시 상록구 성포동 747번지 안산파크푸르지오 307호","indutype":"보건위생 - 피부미용실","category":"beauty"},{"name":"파크헤어","tel":"031-483-3060","addr":"경기도 안산시 상록구 성포동 747번지 안산파크푸르지오 상가동 211호","indutype":"보건위생 - 미용원","category":"beauty"}]},{"lat":"37.320171348","long":"126.84421475","imageIndex":13,"items":[{"name":"쉐마아동가족센터","tel":"070-7523-9834","addr":"경기도 안산시 상록구 성포동 588-1번지 2층","indutype":"보건위생 - 기타대인서비스","category":"beauty"}]},{"lat":"37.324529652","long":"126.84904576","imageIndex":13,"items":[{"name":"엘가헤어","tel":"031-480-0998","addr":"경기도 안산시 상록구 성포동 591-3번지 정수빌딩 105호","indutype":"보건위생 - 미용원","category":"beauty"}]},{"lat":"37.326615126","long":"126.84532948","imageIndex":13,"items":[{"name":"예당약쑥좌훈원","tel":"031-403-9022","addr":"경기도 안산시 상록구 성포동 593-6번지 성포프라자 202호","indutype":"보건위생 - 의료용품","category":"beauty"},{"name":"헤어크레이션(성포점)","tel":"031-405-8779","addr":"경기도 안산시 상록구 성포동 593-6번지 성포프라자 205호","indutype":"보건위생 - 미용원","category":"beauty"}]},{"lat":"37.320507101","long":"126.84599658","imageIndex":13,"items":[{"name":"이앤끼","tel":"031-401-7751","addr":"경기도 안산시 상록구 성포동 584-2번지 복합상가 1층 105호","indutype":"보건위생 - 미용원","category":"beauty"}]},{"lat":"37.324641449","long":"126.84499513","imageIndex":13,"items":[{"name":"태후사랑","tel":"031-403-5038","addr":"경기도 안산시 상록구 성포동 592-2번지 안산현대1차아파트 212호","indutype":"보건위생 - 화장품","category":"beauty"}]},{"lat":"37.326838736","long":"126.84409919","imageIndex":13,"items":[{"name":"포톤테라피","tel":"031-481-8278","addr":"경기도 안산시 상록구 성포동 593-11번지 경동프라자 302호","indutype":"보건위생 - 피부미용실","category":"beauty"}]},{"lat":"37.325391836","long":"126.8469116","imageIndex":13,"items":[{"name":"한수진미용실","tel":"031-401-9115","addr":"경기도 안산시 상록구 성포동 591주공종합상가206-1호","indutype":"보건위생 - 미용원","category":"beauty"}]},{"lat":"37.326667997","long":"126.84443803","imageIndex":13,"items":[{"name":"행복한 안경","tel":"031-480-0207","addr":"경기도 안산시 상록구 성포동 593-10번지 선경프라자 101호","indutype":"보건위생 - 안경","category":"beauty"},{"name":"헤어즈미용실","tel":"031-480-0160","addr":"경기도 안산시 상록구 성포동 593-10번지 선경프라자 202호","indutype":"보건위생 - 미용원","category":"beauty"}]},{"lat":"37.317337188","long":"126.84726668","imageIndex":4,"items":[{"name":"(주)성홍안산지점","tel":"031-411-1917","addr":"경기도 안산시 상록구 성포동 590번지","indutype":"일반휴게음식 - 일반한식","category":"restaurant"},{"name":"(주)화성","tel":"031-402-5145","addr":"경기도 안산시 상록구 성포동 590","indutype":"일반휴게음식 - 스넥","category":"restaurant"},{"name":"(주)화성/터미널레스토랑","tel":"031-411-1917","addr":"경기도 안산시 상록구 성포동 590","indutype":"일반휴게음식 - 스넥","category":"restaurant"},{"name":"라화쿵부 안산롯데마트점","tel":"","addr":"경기도 안산시 상록구 성포동 590번지 3층","indutype":"일반휴게음식 - 중국식","category":"restaurant"},{"name":"롯데리아 롯데마트 안산점","tel":"031-482-0773","addr":"경기도 안산시 상록구 성포동 590 롯데마트3층","indutype":"일반휴게음식 - 서양음식","category":"restaurant"},{"name":"롯데컬처웍스(주)롯데시네마안산엔제리너스","tel":"031-412-8707","addr":"경기도 안산시 상록구 성포동 590","indutype":"일반휴게음식 - 서양음식","category":"restaurant"}]},{"lat":"37.326562562","long":"126.84645787","imageIndex":4,"items":[{"name":"(주)어부","tel":"031-487-7586","addr":"경기도 안산시 상록구 성포동 593-15번지","indutype":"일반휴게음식 - 일반한식","category":"restaurant"}]},{"lat":"37.3217295929","long":"126.8438278893","imageIndex":4,"items":[{"name":"29호스넥","tel":"031-486-2030","addr":"경기도 안산시 상록구 성포동 583번지","indutype":"도매 및 소매업 - 일반음식점","category":"restaurant"}]},{"lat":"37.326838736","long":"126.84409919","imageIndex":4,"items":[{"name":"92닭발","tel":"031-475-5506","addr":"경기도 안산시 상록구 성포동 593-11번지 경동프라자 지하1층 106호","indutype":"일반휴게음식 - 일반한식","category":"restaurant"},{"name":"아지","tel":"031-419-5678","addr":"경기도 안산시 상록구 성포동 593-11번지 경동지하상가 지하층 104호","indutype":"일반휴게음식 - 주점","category":"restaurant"},{"name":"치킨마루(성포다농점)","tel":"031-411-2577","addr":"경기도 안산시 상록구 성포동 593-11번지 1층 102호,103호","indutype":"일반휴게음식 - 스넥","category":"restaurant"},{"name":"커피에반하다","tel":"031-410-1460","addr":"경기도 안산시 상록구 성포동 593-11번지 경동프라자 108호","indutype":"일반휴게음식 - 서양음식","category":"restaurant"},{"name":"탐앤탐스 안산성포점","tel":"031-403-2125","addr":"경기도 안산시 상록구 성포동 593-11번지 경동프라자 101,112,113,114호","indutype":"일반휴게음식 - 서양음식","category":"restaurant"},{"name":"토마토김밥","tel":"031-411-6656","addr":"경기도 안산시 상록구 성포동 593-11번지 경동프라자 1층 107호","indutype":"일반휴게음식 - 스넥","category":"restaurant"}]},{"lat":"37.326392069","long":"126.84698851","imageIndex":4,"items":[{"name":"B&F숯불바베큐","tel":"031-405-8892","addr":"경기도 안산시 상록구 성포동 593-25번지 정인프라자 101호","indutype":"일반휴게음식 - 주점","category":"restaurant"},{"name":"놀러와","tel":"031-414-2277","addr":"경기도 안산시 상록구 성포동 593-25번지 107호","indutype":"일반휴게음식 - 일반한식","category":"restaurant"},{"name":"도미노피자 (안산성포점)","tel":"031-485-3094","addr":"경기도 안산시 상록구 성포동 593-25번지 104호","indutype":"일반휴게음식 - 서양음식","category":"restaurant"},{"name":"용추골미궁순대","tel":"031-482-2829","addr":"경기도 안산시 상록구 성포동 593-25 1층 108호~109호","indutype":"일반휴게음식 - 일반한식","category":"restaurant"},{"name":"용추골미궁순대","tel":"031-482-2829","addr":"경기도 안산시 상록구 성포동 593-25번지 108,109호","indutype":"일반휴게음식 - 일반한식","category":"restaurant"}]},{"lat":"37.317115521","long":"126.85001978","imageIndex":4,"items":[{"name":"KFC안산HP/(주)케이에프씨코리아","tel":"031-402-3787","addr":"경기도 안산시 상록구 성포동 586번지 홈플러스안산점","indutype":"일반휴게음식 - 서양음식","category":"restaurant"},{"name":"롯데리아홈플러스안산점","tel":"031-402-0815","addr":"경기도 안산시 상록구 성포동 586번지 홈플러스안산점 1층","indutype":"일반휴게음식 - 서양음식","category":"restaurant"},{"name":"맘스터치 안산 홈플러스점","tel":"031-484-8282","addr":"경기도 안산시 상록구 성포동 586번지 1층 E21호","indutype":"일반휴게음식 - 서양음식","category":"restaurant"},{"name":"스무디킹(안산홈플러스점)","tel":"031-402-2210","addr":"경기도 안산시 상록구 성포동 586번지 홈플러스 1층","indutype":"일반휴게음식 - 서양음식","category":"restaurant"},{"name":"씨제이푸드빌(주)빕스안산홈플러스","tel":"031-411-6997","addr":"경기도 안산시 상록구 성포동 586번지","indutype":"일반휴게음식 - 서양음식","category":"restaurant"},{"name":"우메마루","tel":"031-410-3289","addr":"경기도 안산시 상록구 성포동 586번지 홈플러스안산점","indutype":"일반휴게음식 - 스넥","category":"restaurant"},{"name":"이디야홈플러스안산점","tel":"031-402-1219","addr":"경기도 안산시 상록구 성포동 586번지 3층 X 12Y호","indutype":"일반휴게음식 - 서양음식","category":"restaurant"}]},{"lat":"37.320783661","long":"126.84393142","imageIndex":4,"items":[{"name":"가르텐비어(안산성포점)","tel":"031-486-7733","addr":"경기도 안산시 상록구 성포동 583-5번지 예술프라자","indutype":"일반휴게음식 - 주점","category":"restaurant"},{"name":"김밥나라","tel":"031-486-7722","addr":"경기도 안산시 상록구 성포동 583-5번지 예술프라자 106-1호","indutype":"일반휴게음식 - 스넥","category":"restaurant"},{"name":"떡기뽁기","tel":"031-480-7447","addr":"경기도 안산시 상록구 성포동 583-5번지 예술프라자 113호","indutype":"일반휴게음식 - 스넥","category":"restaurant"},{"name":"밥생각(안산점)","tel":"031-401-8892","addr":"경기도 안산시 상록구 성포동 583-5번지 예술프라자 1층 101호","indutype":"일반휴게음식 - 일반한식","category":"restaurant"},{"name":"예술민속주점","tel":"031-403-2259","addr":"경기도 안산시 상록구 성포동 583-5번지 예술프라자 203호","indutype":"일반휴게음식 - 주점","category":"restaurant"},{"name":"예술스파랜드","tel":"031-485-7937","addr":"경기도 안산시 상록구 성포동 583-5번지 예술프라자 지층","indutype":"일반휴게음식 - 일반한식","category":"restaurant"},{"name":"요거프레소(안산성포점)","tel":"031-405-5034","addr":"경기도 안산시 상록구 성포동 583-5번지 예술프라자 108호","indutype":"일반휴게음식 - 서양음식","category":"restaurant"},{"name":"요거프레소(안산성포점)","tel":"031-405-5034","addr":"경기도 안산시 상록구 성포동 583-5번지 예술프라자 108호","indutype":"일반휴게음식 - 서양음식","category":"restaurant"},{"name":"커피향기","tel":"031-410-2400","addr":"경기도 안산시 상록구 성포동 583-5번지 예술프라자 3층 309호","indutype":"일반휴게음식 - 서양음식","category":"restaurant"},{"name":"킹콩부대찌개","tel":"031-401-7071","addr":"경기도 안산시 상록구 성포동 583-5번지 예술프라자","indutype":"일반휴게음식 - 일반한식","category":"restaurant"}]},{"lat":"37.326667997","long":"126.84443803","imageIndex":4,"items":[{"name":"가마로강정(안산성포점)","tel":"031-401-0588","addr":"경기도 안산시 상록구 성포동 593-10번지 선경프라자 102호 일부","indutype":"일반휴게음식 - 일반한식","category":"restaurant"},{"name":"광장민속주점","tel":"031-410-5743","addr":"경기도 안산시 상록구 성포동 593-10번지 선경프라자 203호","indutype":"일반휴게음식 - 주점","category":"restaurant"},{"name":"땄따붓따(성포점)","tel":"031-402-1866","addr":"경기도 안산시 상록구 성포동 593-10번지 선경프라자 204호","indutype":"일반휴게음식 - 주점","category":"restaurant"},{"name":"이디야커피(성포점)","tel":"031-410-5369","addr":"경기도 안산시 상록구 성포동 593-10번지 선경프라자 102호","indutype":"일반휴게음식 - 서양음식","category":"restaurant"},{"name":"카페인","tel":"031-480-4097","addr":"경기도 안산시 상록구 성포동 593-10번지 선경프라자 1층","indutype":"일반휴게음식 - 서양음식","category":"restaurant"},{"name":"화통삼","tel":"031-405-8121","addr":"경기도 안산시 상록구 성포동 593-10번지 선경프라자 103~104호","indutype":"일반휴게음식 - 일반한식","category":"restaurant"},{"name":"훌랄라바베큐치킨","tel":"031-481-9294","addr":"경기도 안산시 상록구 성포동 593-10번지 선경프라자 103호 일부","indutype":"일반휴게음식 - 스넥","category":"restaurant"}]},{"lat":"37.326806655","long":"126.84707791","imageIndex":4,"items":[{"name":"가배연가","tel":"","addr":"경기도 안산시 상록구 성포동 593-17번지 성포타운 1층 113호","indutype":"일반휴게음식 - 일반한식","category":"restaurant"},{"name":"고려스파랜드스넥","tel":"031-480-5001","addr":"경기도 안산시 상록구 성포동 593-17번지 4층","indutype":"일반휴게음식 - 일반한식","category":"restaurant"},{"name":"고려스파랜드여탕내매점","tel":"031-480-5001","addr":"경기도 안산시 상록구 성포동 593-17번지 송푸타운 501호","indutype":"일반휴게음식 - 일반한식","category":"restaurant"},{"name":"고려스파랜드휴게점","tel":"031-480-5001","addr":"경기도 안산시 상록구 성포동 593-17번지 성포타운 401호","indutype":"일반휴게음식 - 일반한식","category":"restaurant"},{"name":"단야","tel":"","addr":"경기도 안산시 상록구 성포동 593-17번지 1층 105-107호","indutype":"일반휴게음식 - 중국식","category":"restaurant"},{"name":"샵BAR","tel":"031-475-0180","addr":"경기도 안산시 상록구 성포동 593-17번지 외4필지 성포타운 201호","indutype":"일반휴게음식 - 주점","category":"restaurant"},{"name":"신동신참치","tel":"031-486-3323","addr":"경기도 안산시 상록구 성포동 593-17번지 성포타운 104호 103","indutype":"일반휴게음식 - 일반한식","category":"restaurant"},{"name":"엄마네생선구이","tel":"","addr":"경기도 안산시 상록구 성포동 593-17번지 성포타운 123호,124호","indutype":"일반휴게음식 - 일반한식","category":"restaurant"},{"name":"여우김밥","tel":"031-000-0000","addr":"경기도 안산시 상록구 성포동 593-17번지 성포타운 1층 122호","indutype":"일반휴게음식 - 일반한식","category":"restaurant"},{"name":"월남쌈샤브","tel":"031-405-4105","addr":"경기도 안산시 상록구 성포동 593-17번지 성포타운 2층 204호","indutype":"일반휴게음식 - 일반한식","category":"restaurant"},{"name":"육대장(안산성포점)","tel":"031-401-6002","addr":"경기도 안산시 상록구 성포동 593-17번지 성포타운 2층 206,207호","indutype":"일반휴게음식 - 일반한식","category":"restaurant"},{"name":"이천밥상","tel":"070-4122-3389","addr":"경기도 안산시 상록구 성포동 593-17번지 성포타운 108호","indutype":"일반휴게음식 - 일반한식","category":"restaurant"},{"name":"일미감자탕","tel":"031-401-8253","addr":"경기도 안산시 상록구 성포동 593-17번지 성포타운 120,121호","indutype":"일반휴게음식 - 일반한식","category":"restaurant"},{"name":"조박사부대찌개","tel":"031-410-1030","addr":"경기도 안산시 상록구 성포동 593-17번지 성포타운 2층 205호","indutype":"일반휴게음식 - 일반한식","category":"restaurant"},{"name":"한방전주콩나물국밥","tel":"031-413-8559","addr":"경기도 안산시 상록구 성포동 593-17번지 성포타운 1층 109,110호","indutype":"일반휴게음식 - 일반한식","category":"restaurant"},{"name":"행복한삼겹살집","tel":"031-507-5648","addr":"경기도 안산시 상록구 성포동 593-17번지 외1필지성포타운 123동 124호","indutype":"일반휴게음식 - 일반한식","category":"restaurant"}]},{"lat":"37.326645273","long":"126.84768751","imageIndex":4,"items":[{"name":"갈비락","tel":"031-502-2292","addr":"경기도 안산시 상록구 성포동 593-23번지 (101,102,103)","indutype":"일반휴게음식 - 일반한식","category":"restaurant"},{"name":"고집불통밥상&화로구이","tel":"031-411-8033","addr":"경기도 안산시 상록구 성포동 593-23번지 삼희프라자 1층 104-111호","indutype":"일반휴게음식 - 일반한식","category":"restaurant"}]},{"lat":"37.324641449","long":"126.84499513","imageIndex":4,"items":[{"name":"굽네치킨","tel":"031-483-5535","addr":"경기도 안산시 상록구 성포동 592-2번지 현대상가 112동 107호","indutype":"일반휴게음식 - 일반한식","category":"restaurant"},{"name":"또래오래치킨","tel":"031-403-9280","addr":"경기도 안산시 상록구 성포동 592-2 현대1차상가 112-102","indutype":"일반휴게음식 - 스넥","category":"restaurant"},{"name":"멕시칸치킨","tel":"031-410-9996","addr":"경기도 안산시 상록구 성포동 592-2번지 현대상가 112동 107호","indutype":"일반휴게음식 - 주점","category":"restaurant"},{"name":"영구스피자","tel":"031-487-0989","addr":"경기도 안산시 상록구 성포동 592-2현대1차상가111동102.110호","indutype":"일반휴게음식 - 서양음식","category":"restaurant"}]},{"lat":"37.323091248","long":"126.8446599","imageIndex":4,"items":[{"name":"꾸메","tel":"031-318-4252","addr":"경기도 안산시 상록구 성포동 583-4번지 사이버스튜디오 103호","indutype":"일반휴게음식 - 일반한식","category":"restaurant"},{"name":"낮과밤","tel":"031-503-2226","addr":"경기도 안산시 상록구 성포동 583-4번지 사이버스튜디오 105호","indutype":"일반휴게음식 - 일반한식","category":"restaurant"},{"name":"노가리앤비어 성포점","tel":"","addr":"경기도 안산시 상록구 성포동 583-4번지 1층 108-1호","indutype":"일반휴게음식 - 주점","category":"restaurant"},{"name":"닭발일번지","tel":"031-481-9958","addr":"경기도 안산시 상록구 성포동 583-4번지 106-1호","indutype":"일반휴게음식 - 일반한식","category":"restaurant"},{"name":"두리아숯불바베큐","tel":"031-439-2545","addr":"경기도 안산시 상록구 성포동 583-4번지 사이버스튜디오 104호","indutype":"일반휴게음식 - 주점","category":"restaurant"},{"name":"비비큐(B.B.Q)","tel":"031-414-3933","addr":"경기도 안산시 상록구 성포동 583-4번지 106-1","indutype":"일반휴게음식 - 스넥","category":"restaurant"},{"name":"안산참족발","tel":"031-405-3330","addr":"경기도 안산시 상록구 성포동 583-4번지 사이버스튜디오 106호","indutype":"일반휴게음식 - 일반한식","category":"restaurant"},{"name":"청마루감자탕","tel":"031-405-3330","addr":"경기도 안산시 상록구 성포동 583-4번지 사이버스튜디오 106호","indutype":"일반휴게음식 - 일반한식","category":"restaurant"},{"name":"투썸 안산성포점","tel":"031-439-7004","addr":"경기도 안산시 상록구 성포동 583-4번지 사이버스튜디오 10,1,102호","indutype":"일반휴게음식 - 서양음식","category":"restaurant"},{"name":"화점","tel":"031-410-8862","addr":"경기도 안산시 상록구 성포동 583-4번지 사이버스튜디오 1층 108-2호","indutype":"일반휴게음식 - 일반한식","category":"restaurant"}]},{"lat":"37.319283682","long":"126.8474883","imageIndex":4,"items":[{"name":"또봉이통닭","tel":"031-401-9955","addr":"경기도 안산시 상록구 성포동 747번지 안산파크푸르지오 101호","indutype":"일반휴게음식 - 스넥","category":"restaurant"},{"name":"커피베이안산파크푸르지오점","tel":"031-411-2816","addr":"경기도 안산시 상록구 성포동 747번지 안산파크푸르지오 상가동 2층 208,209,210호","indutype":"일반휴게음식 - 서양음식","category":"restaurant"}]},{"lat":"37.321729593","long":"126.84382789","imageIndex":4,"items":[{"name":"명땡이","tel":"031-414-9189","addr":"경기도 안산시 상록구 성포동 583번지 지하층2~3호","indutype":"일반휴게음식 - 일반한식","category":"restaurant"},{"name":"민주네식당","tel":"031-487-6576","addr":"경기도 안산시 상록구 성포동 583번지 상가동B9호,B9-2호","indutype":"일반휴게음식 - 일반한식","category":"restaurant"},{"name":"민주네식당","tel":"031-487-6576","addr":"경기도 안산시 상록구 성포동 583번지 스타프라자 상가동 8,9-2호","indutype":"일반휴게음식 - 일반한식","category":"restaurant"},{"name":"토프레소 안산스타프라자","tel":"031-482-6564","addr":"경기도 안산시 상록구 성포동 583번지 스타프라자14,16호","indutype":"일반휴게음식 - 서양음식","category":"restaurant"}]},{"lat":"37.324529652","long":"126.84904576","imageIndex":4,"items":[{"name":"바로바로 즉석떡볶이 성포점","tel":"031-410-1248","addr":"경기도 안산시 상록구 성포동 591-3번지 정수빌딩 102호","indutype":"일반휴게음식 - 스넥","category":"restaurant"},{"name":"성포24시감자탕","tel":"031-486-4567","addr":"경기도 안산시 상록구 성포동 591-3번지 정수빌딩 108호","indutype":"일반휴게음식 - 일반한식","category":"restaurant"},{"name":"성포물닭발","tel":"031-486-1999","addr":"경기도 안산시 상록구 성포동 591-3번지 정수빌딩 103호","indutype":"일반휴게음식 - 일반한식","category":"restaurant"},{"name":"일촌꼬지","tel":"031-401-1381","addr":"경기도 안산시 상록구 성포동 591-3 정수빌딩1층 103-2호","indutype":"일반휴게음식 - 주점","category":"restaurant"},{"name":"팔도통닭(안산성포점)","tel":"","addr":"경기도 안산시 상록구 성포동 591-3번지 정수빌딩 103-1호","indutype":"일반휴게음식 - 일반한식","category":"restaurant"}]},{"lat":"37.32662146","long":"126.84333242","imageIndex":4,"items":[{"name":"북경성중화요리","tel":"031-439-3611","addr":"경기도 안산시 상록구 성포동 592선경상가A-222","indutype":"일반휴게음식 - 중국식","category":"restaurant"}]},{"lat":"37.320064041","long":"126.8448242","imageIndex":4,"items":[{"name":"브링웰피자성포점","tel":"031-414-3443","addr":"경기도 안산시 상록구 성포동 588-2번지 주공4단지 상가 106호","indutype":"일반휴게음식 - 서양음식","category":"restaurant"},{"name":"카페구석","tel":"031-480-3332","addr":"경기도 안산시 상록구 성포동 588-2번지 112,115호","indutype":"일반휴게음식 - 서양음식","category":"restaurant"}]},{"lat":"37.326256485","long":"126.84666159","imageIndex":4,"items":[{"name":"블루데이패스토랑","tel":"031-403-9349","addr":"경기도 안산시 상록구 성포동 593-26번지","indutype":"일반휴게음식 - 서양음식","category":"restaurant"},{"name":"촌장골","tel":"031-484-4133","addr":"경기도 안산시 상록구 성포동 593-26번지","indutype":"일반휴게음식 - 일반한식","category":"restaurant"}]},{"lat":"37.326920689","long":"126.84474214","imageIndex":4,"items":[{"name":"사랑의병원 장례식장","tel":"031-437-4000","addr":"경기도 안산시 상록구 성포동 593-4번지 사랑의병원","indutype":"일반휴게음식 - 일반한식","category":"restaurant"}]},{"lat":"37.326335465","long":"126.84507056","imageIndex":4,"items":[{"name":"색동면옥","tel":"031-482-9037","addr":"경기도 안산시 상록구 성포동 593-8번지 1층","indutype":"일반휴게음식 - 일반한식","category":"restaurant"},{"name":"훈장골한우짝갈비","tel":"031-482-9038","addr":"경기도 안산시 상록구 성포동 593-8번지 , 2,3층","indutype":"일반휴게음식 - 일반한식","category":"restaurant"}]},{"lat":"37.325612124","long":"126.84318788","imageIndex":4,"items":[{"name":"심봉사도로케","tel":"031-486-1283","addr":"경기도 안산시 상록구 성포동 592번지 선경상가 B동 1층 103호","indutype":"일반휴게음식 - 일반한식","category":"restaurant"},{"name":"예그리나","tel":"031-622-5528","addr":"경기도 안산시 상록구 성포동 592번지","indutype":"일반휴게음식 - 서양음식","category":"restaurant"},{"name":"전주엄마분식","tel":"031-413-1121","addr":"경기도 안산시 상록구 성포동 592번지 선경상가에이동 지하12호","indutype":"일반휴게음식 - 스넥","category":"restaurant"},{"name":"커피앤(N)줄리엣(Coffer N Juliet)","tel":"031-401-5879","addr":"경기도 안산시 상록구 성포동 592번지 1층101호일부,103호","indutype":"일반휴게음식 - 서양음식","category":"restaurant"}]},{"lat":"37.320171348","long":"126.84421475","imageIndex":4,"items":[{"name":"애플김밥","tel":"031-410-1277","addr":"경기도 안산시 상록구 성포동 588-1번지 예일빌딩 101호","indutype":"일반휴게음식 - 일반한식","category":"restaurant"},{"name":"팔칠닭강정(성포점)","tel":"031-439-8792","addr":"경기도 안산시 상록구 성포동 588-1번지 1층 일부","indutype":"일반휴게음식 - 일반한식","category":"restaurant"}]},{"lat":"37.321764386","long":"126.84290269","imageIndex":4,"items":[{"name":"이삭경양식","tel":"031-480-9677","addr":"경기도 안산시 상록구 성포동 583번지 스타프라자 4동 2호","indutype":"일반휴게음식 - 서양음식","category":"restaurant"}]},{"lat":"37.326615126","long":"126.84532948","imageIndex":4,"items":[{"name":"제주오겹살깡통구이","tel":"031-402-9594","addr":"경기도 안산시 상록구 성포동 593-6,1층107~109","indutype":"일반휴게음식 - 일반한식","category":"restaurant"},{"name":"쿠바쿠바","tel":"031-411-1335","addr":"경기도 안산시 상록구 성포동 593-6번지","indutype":"일반휴게음식 - 주점","category":"restaurant"},{"name":"현죽","tel":"031-413-8218","addr":"경기도 안산시 상록구 성포동 593-6번지 성포프라자 1층 110호","indutype":"일반휴게음식 - 일반한식","category":"restaurant"}]},{"lat":"37.326671101","long":"126.84677356","imageIndex":4,"items":[{"name":"천궁","tel":"031-482-5593","addr":"경기도 안산시 상록구 성포동 593-16,17성포타운202,203","indutype":"일반휴게음식 - 일반한식","category":"restaurant"}]},{"lat":"37.318449348","long":"126.85026528","imageIndex":4,"items":[{"name":"캐빈하우스","tel":"031-439-8656","addr":"경기도 안산시 상록구 성포동 585-4번지 신우연립 상가동 2층 202호","indutype":"일반휴게음식 - 주점","category":"restaurant"}]},{"lat":"37.3217295929","long":"126.8438278893","imageIndex":5,"items":[{"name":"29호스넥","tel":"","addr":"경기도 안산시 상록구 성포동 583번지","indutype":"숙박 및 음식점업 - 일반음식점","category":"hotel"},{"name":"두레박","tel":"031-483-9293","addr":"경기도 안산시 상록구 성포동 583번지","indutype":"숙박 및 음식점업 - 분식","category":"hotel"},{"name":"명가한식","tel":"031-480-3881","addr":"경기도 안산시 상록구 성포동 583번지","indutype":"숙박 및 음식점업 - 한식","category":"hotel"},{"name":"명땡이","tel":"031-414-9189","addr":"경기도 안산시 상록구 성포동 583번지","indutype":"숙박 및 음식점업 - 한식","category":"hotel"},{"name":"명땡이","tel":"031-414-9189","addr":"경기도 안산시 상록구 성포동 583번지","indutype":"숙박 및 음식점업 - 간이음식","category":"hotel"},{"name":"민주네식당","tel":"031-487-6576","addr":"경기도 안산시 상록구 성포동 583번지","indutype":"숙박 및 음식점업 - 일반음식점","category":"hotel"},{"name":"스타스낵","tel":"031-480-7567","addr":"경기도 안산시 상록구 성포동 583번지","indutype":"숙박 및 음식점업 - 일반음식점","category":"hotel"},{"name":"스타짬뽕","tel":"031-402-0091","addr":"경기도 안산시 상록구 성포동 583번지","indutype":"숙박 및 음식점업 - 한식","category":"hotel"},{"name":"은혜스넥","tel":"031-484-2687","addr":"경기도 안산시 상록구 성포동 583번지","indutype":"숙박 및 음식점업 - 일반음식점","category":"hotel"},{"name":"전주해장촌","tel":"031-405-7419","addr":"경기도 안산시 상록구 성포동 583번지","indutype":"숙박 및 음식점업 - 한식","category":"hotel"},{"name":"토프레소","tel":"031-482-6564","addr":"경기도 안산시 상록구 성포동 583번지","indutype":"숙박 및 음식점업 - 커피","category":"hotel"}]},{"lat":"37.3265625621","long":"126.8464578656","imageIndex":5,"items":[{"name":"㈜어부","tel":"031-487-7586","addr":"경기도 안산시 상록구 성포동 593-15번지","indutype":"숙박 및 음식점업 - 한식","category":"hotel"}]},{"lat":"37.3266452730","long":"126.8476875149","imageIndex":5,"items":[{"name":"갈비락","tel":"031-502-2292","addr":"경기도 안산시 상록구 성포동 593-23번지","indutype":"숙박 및 음식점업 - 한식","category":"hotel"}]},{"lat":"37.3246414488","long":"126.8449951281","imageIndex":5,"items":[{"name":"굽네치킨","tel":"031-486-9594","addr":"경기도 안산시 상록구 성포동 592-2번지","indutype":"숙박 및 음식점업 - 치킨","category":"hotel"},{"name":"도란도란","tel":"031-405-9909","addr":"경기도 안산시 상록구 성포동 592-2번지 안산현대1차아파트","indutype":"숙박 및 음식점업 - 일반음식","category":"hotel"},{"name":"또래오래중앙점","tel":"031-403-9280","addr":"경기도 안산시 상록구 성포동 592-2번지","indutype":"숙박 및 음식점업 - 치킨","category":"hotel"},{"name":"멕시칸치킨","tel":"031-410-9966","addr":"경기도 안산시 상록구 성포동 592-2번지","indutype":"숙박 및 음식점업 - 치킨","category":"hotel"},{"name":"술맛나는포차향빠","tel":"","addr":"경기도 안산시 상록구 성포동 592-2번지 안산현대1차아파트","indutype":"숙박 및 음식점업 - 일반음식점","category":"hotel"},{"name":"슬씨네 부엌","tel":"031-405-7722","addr":"경기도 안산시 상록구 성포동 592-2번지","indutype":"숙박 및 음식점업 - 즉석판매제조가공","category":"hotel"},{"name":"영구스피자","tel":"031-487-0989","addr":"경기도 안산시 상록구 성포동 592-2번지 안산현대1차아파트","indutype":"숙박 및 음식점업 - 피자","category":"hotel"},{"name":"올유어마롱","tel":"","addr":"경기도 안산시 상록구 성포동 592-2번지","indutype":"숙박 및 음식점업 - 마카롱","category":"hotel"},{"name":"현대포장마차","tel":"031-484-5547","addr":"경기도 안산시 상록구 성포동 592-2번지 안산현대1차아파트","indutype":"숙박 및 음식점업 - 기타주점","category":"hotel"}]},{"lat":"37.3207836613","long":"126.8439314197","imageIndex":5,"items":[{"name":"김밥나라","tel":"031-486-7722","addr":"경기도 안산시 상록구 성포동 583-5번지","indutype":"숙박 및 음식점업 - 김밥","category":"hotel"},{"name":"떡기뽁기","tel":"031-480-7447","addr":"경기도 안산시 상록구 성포동 583-5번지","indutype":"숙박 및 음식점업 - 분식","category":"hotel"},{"name":"요거프레소","tel":"031-410-5034","addr":"경기도 안산시 상록구 성포동 583-5번지","indutype":"숙박 및 음식점업 - 휴게음식","category":"hotel"},{"name":"커피향기","tel":"031-402-0923","addr":"경기도 안산시 상록구 성포동 583-5번지","indutype":"숙박 및 음식점업 - 휴게음식점","category":"hotel"},{"name":"큰손도시락","tel":"","addr":"경기도 안산시 상록구 성포동 583-5번지","indutype":"숙박 및 음식점업 - 일반음식점","category":"hotel"},{"name":"파리바게뜨 안산예술인점","tel":"031-484-3282","addr":"경기도 안산시 상록구 성포동 583-5번지","indutype":"숙박 및 음식점업 - 제과점","category":"hotel"}]},{"lat":"37.3230912478","long":"126.8446599044","imageIndex":5,"items":[{"name":"꾸메","tel":"031-439-2330","addr":"경기도 안산시 상록구 성포동 583-4번지","indutype":"숙박 및 음식점업 - 음식점","category":"hotel"},{"name":"닭발일번지","tel":"031-481-9958","addr":"경기도 안산시 상록구 성포동 583-4번지","indutype":"숙박 및 음식점업 - 한식","category":"hotel"},{"name":"두리아 숯불 바비큐","tel":"031-439-2545","addr":"경기도 안산시 상록구 성포동 583-4번지","indutype":"숙박 및 음식점업 - 바비큐","category":"hotel"},{"name":"투썸 안산성포점","tel":"031-439-7004","addr":"경기도 안산시 상록구 성포동 583-4번지","indutype":"숙박 및 음식점업 - 카페","category":"hotel"},{"name":"화점","tel":"031-410-8862","addr":"경기도 안산시 상록구 성포동 583-4번지","indutype":"숙박 및 음식점업 - 일반음식","category":"hotel"}]},{"lat":"37.3256121242","long":"126.8431878805","imageIndex":5,"items":[{"name":"낙원떡집","tel":"031-482-8778","addr":"경기도 안산시 상록구 성포동 592번지 선경아파트","indutype":"숙박 및 음식점업 - 떡","category":"hotel"}]},{"lat":"37.3263920688","long":"126.8469885069","imageIndex":5,"items":[{"name":"놀러와","tel":"031-414-2277","addr":"경기도 안산시 상록구 성포동 593-25번지","indutype":"숙박 및 음식점업 - 기타","category":"hotel"},{"name":"비엔에프 숯불바베큐 치킨","tel":"031-405-8892","addr":"경기도 안산시 상록구 성포동 593-25번지","indutype":"숙박 및 음식점업 - 치킨,호프","category":"hotel"},{"name":"용추골미궁순대","tel":"031-482-2829","addr":"경기도 안산시 상록구 성포동 593-25번지","indutype":"숙박 및 음식점업 - 한식","category":"hotel"}]},{"lat":"37.3268066553","long":"126.8470779127","imageIndex":5,"items":[{"name":"단야","tel":"031-414-0064","addr":"경기도 안산시 상록구 성포동 593-17번지","indutype":"숙박 및 음식점업 - 중식","category":"hotel"},{"name":"단야","tel":"031-414-0064","addr":"경기도 안산시 상록구 성포동 593-17번지","indutype":"숙박 및 음식점업 - 중식","category":"hotel"},{"name":"신동신참치","tel":"031-486-3323","addr":"경기도 안산시 상록구 성포동 593-17번지","indutype":"숙박 및 음식점업 - 일식","category":"hotel"},{"name":"월남쌈&샤브","tel":"031-405-4105","addr":"경기도 안산시 상록구 성포동 593-17번지","indutype":"숙박 및 음식점업 - 한식","category":"hotel"},{"name":"월남쌈샤브","tel":"031-405-4105","addr":"경기도 안산시 상록구 성포동 593-17번지","indutype":"숙박 및 음식점업 - 한식","category":"hotel"},{"name":"육대장","tel":"031-401-6002","addr":"경기도 안산시 상록구 성포동 593-17번지","indutype":"숙박 및 음식점업 - 한식","category":"hotel"},{"name":"이천밥상","tel":"070-4122-3389","addr":"경기도 안산시 상록구 성포동 593-17번지","indutype":"숙박 및 음식점업 - 한식","category":"hotel"},{"name":"일미감자탕","tel":"031-401-8253","addr":"경기도 안산시 상록구 성포동 593-17번지","indutype":"숙박 및 음식점업 - 한식","category":"hotel"},{"name":"조박사부대찌개(성포점)","tel":"031-410-1030","addr":"경기도 안산시 상록구 성포동 593-17번지","indutype":"숙박 및 음식점업 - 한식","category":"hotel"},{"name":"천궁","tel":"031-482-5593","addr":"경기도 안산시 상록구 성포동 593-17번지","indutype":"숙박 및 음식점업 - 한식","category":"hotel"},{"name":"한방전주콩나물국밥","tel":"031-413-8559","addr":"경기도 안산시 상록구 성포동 593-17번지","indutype":"숙박 및 음식점업 - 일반음식점 (한","category":"hotel"}]},{"lat":"37.3234544568","long":"126.8467689296","imageIndex":5,"items":[{"name":"독도김밥","tel":"031-413-8500","addr":"경기도 안산시 상록구 성포동 591-4번지","indutype":"숙박 및 음식점업 - 일반음식","category":"hotel"}]},{"lat":"37.3266679969","long":"126.8444380326","imageIndex":5,"items":[{"name":"땃다붓다","tel":"031-402-1866","addr":"경기도 안산시 상록구 성포동 593-10번지","indutype":"숙박 및 음식점업 - 호프전문점","category":"hotel"},{"name":"카페 인","tel":"031-480-4097","addr":"경기도 안산시 상록구 성포동 593-10번지","indutype":"숙박 및 음식점업 - 커피","category":"hotel"},{"name":"훌랄라치킨","tel":"031-481-9294","addr":"경기도 안산시 상록구 성포동 593-10번지","indutype":"숙박 및 음식점업 - 음식점업","category":"hotel"}]},{"lat":"37.3192836823","long":"126.8474883008","imageIndex":5,"items":[{"name":"또봉이통닭","tel":"031-401-9955","addr":"경기도 안산시 상록구 성포동 747번지 안산파크푸르지오","indutype":"숙박 및 음식점업 - 치킨","category":"hotel"},{"name":"커피베이안산파크푸르지오점","tel":"031-411-2816","addr":"경기도 안산시 상록구 성포동 747번지 안산파크푸르지오","indutype":"숙박 및 음식점업 - 휴게음식","category":"hotel"}]},{"lat":"37.3200640413","long":"126.8448241953","imageIndex":5,"items":[{"name":"브링웰피자","tel":"031-414-3443","addr":"경기도 안산시 상록구 성포동 588-2번지","indutype":"숙박 및 음식점업 - 피자","category":"hotel"}]},{"lat":"37.3205071012","long":"126.8459965790","imageIndex":5,"items":[{"name":"성포정육식당","tel":"031-405-4392","addr":"경기도 안산시 상록구 성포동 584-2번지","indutype":"숙박 및 음식점업 - 한식","category":"hotel"}]},{"lat":"37.3266151261","long":"126.8453294812","imageIndex":5,"items":[{"name":"제주오겹살 깡통구이","tel":"031-402-9594","addr":"경기도 안산시 상록구 성포동 593-6번지","indutype":"숙박 및 음식점업 - 한식","category":"hotel"},{"name":"쿠바쿠바","tel":"031-411-1335","addr":"경기도 안산시 상록구 성포동 593-6번지","indutype":"숙박 및 음식점업 - 기타주점","category":"hotel"},{"name":"현죽","tel":"031-413-8218","addr":"경기도 안산시 상록구 성포동 593-6번지","indutype":"숙박 및 음식점업 - 죽","category":"hotel"}]},{"lat":"37.3268387363","long":"126.8440991905","imageIndex":5,"items":[{"name":"치킨마루 성포다농점","tel":"031-411-2577","addr":"경기도 안산시 상록구 성포동 593-11번지","indutype":"숙박 및 음식점업 - 치킨","category":"hotel"},{"name":"커피에 반하다","tel":"031-410-1460","addr":"경기도 안산시 상록구 성포동 593-11번지","indutype":"숙박 및 음식점업 - 카페","category":"hotel"},{"name":"탐앤탐스 안산성포점","tel":"031-403-2125","addr":"경기도 안산시 상록구 성포동 593-11번지","indutype":"숙박 및 음식점업 - 휴게음식","category":"hotel"},{"name":"토마토김밥","tel":"031-411-6656","addr":"경기도 안산시 상록구 성포동 593-11번지","indutype":"숙박 및 음식점업 - 분식","category":"hotel"}]},{"lat":"37.3184493477","long":"126.8502652759","imageIndex":5,"items":[{"name":"케빈하우스","tel":"031-439-8656","addr":"경기도 안산시 상록구 성포동 585-4번지 신우빌라","indutype":"숙박 및 음식점업 - 치킨","category":"hotel"}]},{"lat":"37.3266214604","long":"126.8433324203","imageIndex":5,"items":[{"name":"파리바게트","tel":"031-403-1551","addr":"경기도 안산시 상록구 성포동 592번지","indutype":"숙박 및 음식점업 - 제과점업","category":"hotel"}]},{"lat":"37.323091248","long":"126.8446599","imageIndex":7,"items":[{"name":"JOY 365","tel":"031-487-7553","addr":"경기도 안산시 상록구 성포동 583-4번지 연번지 107호","indutype":"유통업 영리 - 슈퍼마켓","category":"mart"},{"name":"경기남부두레생협 성포점","tel":"031-413-0038","addr":"경기도 안산시 상록구 성포동 583-4번지 1층 108-3호","indutype":"유통업 영리 - 슈퍼마켓","category":"mart"}]},{"lat":"37.3230912478","long":"126.8446599044","imageIndex":7,"items":[{"name":"경기남부두레소비자생활협동조합(성포점)","tel":"031-413-0038","addr":"경기도 안산시 상록구 성포동 583-4번지","indutype":"도매 및 소매업 - 슈퍼","category":"mart"}]},{"lat":"37.320064041","long":"126.8448242","imageIndex":7,"items":[{"name":"고층슈퍼","tel":"031-482-5111","addr":"경기도 안산시 상록구 성포동 588-2번지 주공 상가 105호","indutype":"유통업 영리 - 슈퍼마켓","category":"mart"}]},{"lat":"37.320783661","long":"126.84393142","imageIndex":7,"items":[{"name":"롯데마켓999안산성포가맹점","tel":"031-405-6199","addr":"경기도 안산시 상록구 성포동 583-5번지 예술프라자 114호","indutype":"유통업 영리 - 슈퍼마켓","category":"mart"}]},{"lat":"37.3246414488","long":"126.8449951281","imageIndex":7,"items":[{"name":"세미슈퍼","tel":"031-403-4502","addr":"경기도 안산시 상록구 성포동 592-2번지 안산현대1차아파트","indutype":"도매 및 소매업 - 슈퍼,담배","category":"mart"}]},{"lat":"37.324641449","long":"126.84499513","imageIndex":7,"items":[{"name":"세미슈퍼","tel":"031-403-4502","addr":"경기도 안산시 상록구 성포동 592-2번지 현대상가 111호","indutype":"유통업 영리 - 슈퍼마켓","category":"mart"}]},{"lat":"37.3217295929","long":"126.8438278893","imageIndex":7,"items":[{"name":"스타마트","tel":"031-405-7496","addr":"경기도 안산시 상록구 성포동 583번지","indutype":"도매 및 소매업 - 슈퍼마켓","category":"mart"}]},{"lat":"37.325391836","long":"126.8469116","imageIndex":7,"items":[{"name":"한아름슈퍼","tel":"031-486-1034","addr":"경기도 안산시 상록구 성포동 591번지 주공복합 101호","indutype":"유통업 영리 - 슈퍼마켓","category":"mart"}]},{"lat":"37.324529652","long":"126.84904576","imageIndex":7,"items":[{"name":"후레쉬마트","tel":"031-411-4907","addr":"경기도 안산시 상록구 성포동 591-3번지 정수빌딩 1동 104호","indutype":"유통업 영리 - 슈퍼마켓","category":"mart"}]},{"lat":"37.3245296518","long":"126.8490457589","imageIndex":7,"items":[{"name":"후레쉬마트","tel":"031-411-4907","addr":"경기도 안산시 상록구 성포동 591-3번지","indutype":"도매 및 소매업 - 슈퍼마켓,담배","category":"mart"}]},{"lat":"37.319283682","long":"126.8474883","imageIndex":16,"items":[{"name":"건강사랑방","tel":"","addr":"경기도 안산시 상록구 성포동 747번지 안산파크푸르지오단지 상가 2층 207호","indutype":"학원 - 기타 교육기관","category":"study"}]},{"lat":"37.326812526","long":"126.8516023","imageIndex":16,"items":[{"name":"경수중학교","tel":"031-412-4102","addr":"경기도 안산시 상록구 성포동 594번지 경수중학교","indutype":"학원 - 초중고교육기관","category":"study"},{"name":"경수중학교_수업료","tel":"031-412-4102","addr":"경기도 안산시 상록구 성포동 594번지 경수중학교","indutype":"학원 - 초중고교육기관","category":"study"},{"name":"경수초등학교","tel":"070-7090-9907","addr":"경기도 안산시 상록구 성포동 594번지 경수중학교","indutype":"학원 - 초중고교육기관","category":"study"}]},{"lat":"37.326919331","long":"126.85057535","imageIndex":16,"items":[{"name":"경수초등학교병설유치원[아이행복]","tel":"070-7090-9915","addr":"경기도 안산시 상록구 성포동 594-3번지 경수초등학교","indutype":"학원 - 유치원","category":"study"}]},{"lat":"37.323752891","long":"126.8476032","imageIndex":16,"items":[{"name":"경일초등학교","tel":"031-487-4333","addr":"경기도 안산시 상록구 성포동 591-1번지","indutype":"학원 - 초중고교육기관","category":"study"}]},{"lat":"37.323091248","long":"126.8446599","imageIndex":16,"items":[{"name":"경희태권도","tel":"031-485-2002","addr":"경기도 안산시 상록구 성포동 583-4 사이버스튜디오201,202,203호","indutype":"학원 - 예·체능계학원","category":"study"},{"name":"권민경수학학원","tel":"031-410-9419","addr":"경기도 안산시 상록구 성포동 583-4번지 2층 205호 사이버스튜디오","indutype":"학원 - 보습학원","category":"study"},{"name":"리스트 바이올린교습소","tel":"031-000-0000","addr":"경기도 안산시 상록구 성포동 583-4번지 사이버스튜디오 2층 204호","indutype":"학원 - 예·체능계학원","category":"study"},{"name":"아이비티주니어학원","tel":"031-484-1005","addr":"경기도 안산시 상록구 성포동 583-4번지 사이버스튜디오 420호","indutype":"학원 - 보습학원","category":"study"},{"name":"애드온아트학원","tel":"031-484-4242","addr":"경기도 안산시 상록구 성포동 583-4번지 사이버스튜디오 207호","indutype":"학원 - 예·체능계학원","category":"study"},{"name":"위너스어학원","tel":"031-401-3097","addr":"경기도 안산시 상록구 성포동 583-4번지 사이버스튜디오 320,321호","indutype":"학원 - 외국어학원","category":"study"},{"name":"최강쎈수학교습서","tel":"031-486-0988","addr":"경기도 안산시 상록구 성포동 583-4번지 사이버스튜디오 209호","indutype":"학원 - 보습학원","category":"study"},{"name":"토마토음악학원","tel":"031-483-9087","addr":"경기도 안산시 상록구 성포동 583-4번지 사이버스튜디오 206호","indutype":"학원 - 예·체능계학원","category":"study"}]},{"lat":"37.326615126","long":"126.84532948","imageIndex":16,"items":[{"name":"교원독서실","tel":"031-401-7638","addr":"경기도 안산시 상록구 성포동 593-6번지 404,405호","indutype":"학원 - 독서실","category":"study"},{"name":"비엘스터디어학원","tel":"031-413-6205","addr":"경기도 안산시 상록구 성포동 593-6번지 성포프라자 201호","indutype":"학원 - 보습학원","category":"study"},{"name":"이룸공감아카데미학원","tel":"031-414-2609","addr":"경기도 안산시 상록구 성포동 593-6번지 성포프라자 304호","indutype":"학원 - 보습학원","category":"study"},{"name":"청운학원","tel":"031-414-9214","addr":"경기도 안산시 상록구 성포동 593-6번지 성포프라자 3층 303호","indutype":"학원 - 보습학원","category":"study"}]},{"lat":"37.3230912478","long":"126.8446599044","imageIndex":16,"items":[{"name":"권민경수학학원","tel":"031-410-9419","addr":"경기도 안산시 상록구 성포동 583-4번지","indutype":"교육서비스업 - 수학학원","category":"study"},{"name":"아이비티주니어학원","tel":"031-484-1005","addr":"경기도 안산시 상록구 성포동 583-4번지","indutype":"교육서비스업 - 보습학원","category":"study"},{"name":"애드온아트학원","tel":"031-484-4242","addr":"경기도 안산시 상록구 성포동 583-4번지","indutype":"교육서비스업 - 미술학원","category":"study"},{"name":"위너스어학원","tel":"031-401-3097","addr":"경기도 안산시 상록구 성포동 583-4번지","indutype":"교육서비스업 - 어학원","category":"study"},{"name":"토마토음악학원","tel":"031-483-9087","addr":"경기도 안산시 상록구 성포동 583-4번지","indutype":"교육서비스업 - 예체능계 학원","category":"study"}]},{"lat":"37.326806655","long":"126.84707791","imageIndex":16,"items":[{"name":"김말미 탁구교실","tel":"02-1111-1111","addr":"경기도 안산시 상록구 성포동 593-17번지 211,212호","indutype":"학원 - 예·체능계학원","category":"study"},{"name":"필앤필학원","tel":"031-410-5828","addr":"경기도 안산시 상록구 성포동 593-17번지 성포타운 311호","indutype":"학원 - 보습학원","category":"study"}]},{"lat":"37.320171348","long":"126.84421475","imageIndex":16,"items":[{"name":"김앤박영수학원","tel":"031-401-0711","addr":"경기도 안산시 상록구 성포동 588-1번지 예일빌딩 301호","indutype":"학원 - 예·체능계학원","category":"study"},{"name":"예리피아노학원","tel":"031-484-2267","addr":"경기도 안산시 상록구 성포동 588-1번지 연번지 302호","indutype":"학원 - 예·체능계학원","category":"study"}]},{"lat":"37.325971791","long":"126.84943771","imageIndex":16,"items":[{"name":"꼬마라기어린이집[아이행복]","tel":"031-482-6487","addr":"경기도 안산시 상록구 성포동 591번지 주공파트11단지 1101동105호","indutype":"학원 - 유아원","category":"study"}]},{"lat":"37.3245296518","long":"126.8490457589","imageIndex":16,"items":[{"name":"뉴청람학원","tel":"031-405-7470","addr":"경기도 안산시 상록구 성포동 591-3번지","indutype":"교육서비스업 - 학교교과교습학원","category":"study"},{"name":"다수인안산학원","tel":"031-482-0988","addr":"경기도 안산시 상록구 성포동 591-3번지","indutype":"교육서비스업 - 보습학원","category":"study"},{"name":"진성음악학원","tel":"031-410-6667","addr":"경기도 안산시 상록구 성포동 591-3번지","indutype":"교육서비스업 - 음악학원","category":"study"}]},{"lat":"37.324529652","long":"126.84904576","imageIndex":16,"items":[{"name":"뉴청람학원","tel":"031-405-7470","addr":"경기도 안산시 상록구 성포동 591-3번지 정수빌딩 201,203,204호","indutype":"학원 - 보습학원","category":"study"},{"name":"뉴청람학원","tel":"","addr":"경기도 안산시 상록구 성포동 591-3번지 정수빌딩 203호","indutype":"학원 - 보습학원","category":"study"},{"name":"다수인안산학원","tel":"031-482-0988","addr":"경기도 안산시 상록구 성포동 591-3번지 정수빌딩 404호","indutype":"학원 - 보습학원","category":"study"},{"name":"시사주니어학원","tel":"031-402-2324","addr":"경기도 안산시 상록구 성포동 591-3번지 정수빌딩 308동 309호","indutype":"학원 - 보습학원","category":"study"},{"name":"시온독서실","tel":"031-402-7779","addr":"경기도 안산시 상록구 성포동 591-3 정수빌딩306~309호","indutype":"학원 - 독서실","category":"study"},{"name":"정수태권도장","tel":"031-486-5938","addr":"경기도 안산시 상록구 성포동 591-3번지 정수빌딩 401동 403호","indutype":"학원 - 예·체능계학원","category":"study"},{"name":"진성음악학원","tel":"031-410-6667","addr":"경기도 안산시 상록구 성포동 591-3번지 정수빌딩 302동 303호","indutype":"학원 - 예·체능계학원","category":"study"},{"name":"하이피카소미술교습소","tel":"031-480-0087","addr":"경기도 안산시 상록구 성포동 591-3번지 정수빌딩 301호 일부","indutype":"학원 - 예·체능계학원","category":"study"}]},{"lat":"37.3207836613","long":"126.8439314197","imageIndex":16,"items":[{"name":"루틴학원","tel":"031-410-4619","addr":"경기도 안산시 상록구 성포동 583-5번지","indutype":"교육서비스업 - 보습학원,서적","category":"study"},{"name":"이보영의토킹클럽성포어학원","tel":"","addr":"경기도 안산시 상록구 성포동 583-5번지","indutype":"교육서비스업 - 외국어학원,서적","category":"study"},{"name":"혜주미술학원","tel":"031-410-3492","addr":"경기도 안산시 상록구 성포동 583-5번지","indutype":"교육서비스업 - 미술학원","category":"study"}]},{"lat":"37.320783661","long":"126.84393142","imageIndex":16,"items":[{"name":"루틴학원","tel":"031-410-4619","addr":"경기도 안산시 상록구 성포동 583-5번지 예술프라자 5층 503호","indutype":"학원 - 보습학원","category":"study"},{"name":"비상영수학원","tel":"031-411-3927","addr":"경기도 안산시 상록구 성포동 583-5번지 예술프라자 303,303-1호","indutype":"학원 - 보습학원","category":"study"},{"name":"비타러닝에듀메카학원","tel":"031-410-9393","addr":"경기도 안산시 상록구 성포동 583-5번지 예술프라자 505호","indutype":"학원 - 보습학원","category":"study"},{"name":"상상실용음악학원","tel":"031-481-9077","addr":"경기도 안산시 상록구 성포동 583-5번지 예술프라자 403호","indutype":"회원제형태 - 학원","category":"study"},{"name":"성포독서실","tel":"031-414-0882","addr":"경기도 안산시 상록구 성포동 583-5 예술프라자 501호~502호","indutype":"학원 - 독서실","category":"study"},{"name":"성포엘리트학원","tel":"031-414-2515","addr":"경기도 안산시 상록구 성포동 583-5번지 예술프라자 3층 301호","indutype":"학원 - 외국어학원","category":"study"},{"name":"성포음악학원","tel":"031-403-9070","addr":"경기도 안산시 상록구 성포동 583-5번지 예술프라자 401호","indutype":"학원 - 예·체능계학원","category":"study"},{"name":"안산컴퓨터학원","tel":"03-148-5555","addr":"경기도 안산시 상록구 성포동 583-5번지 예술프라자 2층 201호","indutype":"학원 - 컴퓨터학원","category":"study"},{"name":"엠베스트에스이공부학원","tel":"070-4414-9577","addr":"경기도 안산시 상록구 성포동 583-5번지 예술프라자 506호","indutype":"학원 - 보습학원","category":"study"},{"name":"예술체육관","tel":"031-482-9862","addr":"경기도 안산시 상록구 성포동 583-5 예술프라자 405.406호","indutype":"학원 - 예·체능계학원","category":"study"},{"name":"용성합기도체육관","tel":"031-410-7700","addr":"경기도 안산시 상록구 성포동 583-5번지 예술프라자 307호","indutype":"학원 - 예·체능계학원","category":"study"},{"name":"윤선생영어숲학원","tel":"031-486-0575","addr":"경기도 안산시 상록구 성포동 583-5번지 예술프라자 4층 402호","indutype":"학원 - 외국어학원","category":"study"},{"name":"이보영의토킹클럽성포어학원","tel":"031-486-1184","addr":"경기도 안산시 상록구 성포동 583-5번지 예술프라자 404호","indutype":"회원제형태 - 학원","category":"study"},{"name":"현음스즈키바이올린음악학원","tel":"031-411-4652","addr":"경기도 안산시 상록구 성포동 583-5번지 예술프라자 409호","indutype":"학원 - 예·체능계학원","category":"study"},{"name":"혜주미술학원","tel":"031-410-3492","addr":"경기도 안산시 상록구 성포동 583-5번지 예술프라자 408호","indutype":"학원 - 예·체능계학원","category":"study"},{"name":"호원요양보호사교육원","tel":"031-410-5051","addr":"경기도 안산시 상록구 성포동 583-5번지 예술프라자 507호","indutype":"회원제형태 - 학원","category":"study"}]},{"lat":"37.326645273","long":"126.84768751","imageIndex":16,"items":[{"name":"블루라군","tel":"031-483-1300","addr":"경기도 안산시 상록구 성포동 593-23번지 삼희프라자 지하2층 201호","indutype":"학원 - 기타 교육기관","category":"study"}]},{"lat":"37.326228774","long":"126.85310407","imageIndex":16,"items":[{"name":"상록청소년수련관","tel":"031-475-1981","addr":"경기도 안산시 상록구 성포동 214-1번지","indutype":"학원 - 기타 교육기관","category":"study"}]},{"lat":"37.325612124","long":"126.84318788","imageIndex":16,"items":[{"name":"선경유치원[아이행복]","tel":"031-403-6531","addr":"경기도 안산시 상록구 성포동 592번지 선경아파트","indutype":"학원 - 유치원","category":"study"},{"name":"하늘꿈어린이집[아이행복]","tel":"031-409-6219","addr":"경기도 안산시 상록구 성포동 592번지 선경상가 비동 3동 103호","indutype":"학원 - 유아원","category":"study"},{"name":"해냄수학교습소","tel":"031-402-2314","addr":"경기도 안산시 상록구 성포동 592번지 선경 상가 B동 201호","indutype":"학원 - 보습학원","category":"study"}]},{"lat":"37.325973684","long":"126.85090445","imageIndex":16,"items":[{"name":"성포고등학교","tel":"031-599-9283","addr":"경기도 안산시 상록구 성포동 594-1번지 성포고등학교","indutype":"학원 - 초중고교육기관","category":"study"},{"name":"성포고등학교_수업료","tel":"031-599-9283","addr":"경기도 안산시 상록구 성포동 594-1번지 성포고등학교","indutype":"학원 - 초중고교육기관","category":"study"}]},{"lat":"37.323953308","long":"126.84249188","imageIndex":16,"items":[{"name":"성포초등학교","tel":"031-487-4312","addr":"경기도 안산시 상록구 성포동 592-1번지 성포초등학교","indutype":"학원 - 초중고교육기관","category":"study"}]},{"lat":"37.3256121242","long":"126.8431878805","imageIndex":16,"items":[{"name":"성포해법학원","tel":"031-475-0599","addr":"경기도 안산시 상록구 성포동 592번지","indutype":"교육서비스업 - 학원","category":"study"},{"name":"예원음악학원","tel":"031-405-5353","addr":"경기도 안산시 상록구 성포동 592번지 선경아파트","indutype":"교육서비스업 - 음악학원","category":"study"}]},{"lat":"37.3201713480","long":"126.8442147539","imageIndex":16,"items":[{"name":"어린음악대성포예리원음악학원","tel":"031-484-2267","addr":"경기도 안산시 상록구 성포동 588-1번지","indutype":"교육서비스업 - 피아노학원,서점","category":"study"}]},{"lat":"37.326838736","long":"126.84409919","imageIndex":16,"items":[{"name":"우리언어심리센터","tel":"","addr":"경기도 안산시 상록구 성포동 593-11번지 경동프라자 306,307호","indutype":"학원 - 기타 교육기관","category":"study"},{"name":"지혜의숲 사고력논술학원","tel":"031-414-7555","addr":"경기도 안산시 상록구 성포동 593-11번지 경동프라자 401호 상가","indutype":"학원 - 보습학원","category":"study"}]},{"lat":"37.320064041","long":"126.8448242","imageIndex":16,"items":[{"name":"플레이팩토&다비수성포수학교습소","tel":"031-000-0000","addr":"경기도 안산시 상록구 성포동 588-2번지 주공4단지아파트 209호","indutype":"학원 - 보습학원","category":"study"}]},{"lat":"37.326392069","long":"126.84698851","imageIndex":16,"items":[{"name":"한뜻학원","tel":"031-401-8930","addr":"경기도 안산시 상록구 성포동 593-25번지","indutype":"학원 - 기타 교육기관","category":"study"}]},{"lat":"37.326838736","long":"126.84409919","imageIndex":13,"items":[{"name":"경동노래방","tel":"031-410-6115","addr":"경기도 안산시 상록구 성포동 593-11번지 경동빌딩 지하층 105호","indutype":"레저업소 - 노 래 방","category":"leisure"},{"name":"에프엠(FM)당구클럽","tel":"031-486-0006","addr":"경기도 안산시 상록구 성포동 593-11번지 경동프라자 406호","indutype":"레저업소 - 당 구 장","category":"leisure"}]},{"lat":"37.326645273","long":"126.84768751","imageIndex":13,"items":[{"name":"데일리PC","tel":"070-2747-9315","addr":"경기도 안산시 상록구 성포동 593-23번지 상희프라자 3층 301호-303호","indutype":"레저업소 - 기타레져업소","category":"leisure"},{"name":"롤킹롤러스케이트장","tel":"070-7872-6115","addr":"경기도 안산시 상록구 성포동 593-23번지 삼희프라자 지하층 101,101-1호","indutype":"레저업소 - 기타레져업소","category":"leisure"}]},{"lat":"37.320064041","long":"126.8448242","imageIndex":13,"items":[{"name":"바디챌린지","tel":"031-495-7797","addr":"경기도 안산시 상록구 성포동 588-2번지 주공4단지아파트 212호","indutype":"레저업소 - 헬스클럽","category":"leisure"}]},{"lat":"37.319283682","long":"126.8474883","imageIndex":13,"items":[{"name":"보라카이짐성포점","tel":"031-0000-0000","addr":"경기도 안산시 상록구 성포동 747번지 상가 311,312호","indutype":"레저업소 - 헬스클럽","category":"leisure"}]},{"lat":"37.320783661","long":"126.84393142","imageIndex":13,"items":[{"name":"심심타파PC방","tel":"","addr":"경기도 안산시 상록구 성포동 583-5번지 예술프라자 2층 202호","indutype":"레저업소 - 기타레져업소","category":"leisure"},{"name":"예술노래연습장","tel":"031-401-6630","addr":"경기도 안산시 상록구 성포동 583-5번지 예술프라자 210호","indutype":"레저업소 - 노 래 방","category":"leisure"},{"name":"예술노래연습장","tel":"031-401-6630","addr":"경기도 안산시 상록구 성포동 583-5번지 예술프라자 210호","indutype":"레저업소 - 노 래 방","category":"leisure"},{"name":"필라테스 바이청(pilates by cheong)","tel":"031-410-6768","addr":"경기도 안산시 상록구 성포동 583-5번지 예술프라자 3층 308호","indutype":"레저업소 - 헬스클럽","category":"leisure"}]},{"lat":"37.326806655","long":"126.84707791","imageIndex":13,"items":[{"name":"점핑월드","tel":"031-484-7376","addr":"경기도 안산시 상록구 성포동 593-17번지 성포타운 205,206호","indutype":"레저업소 - 기타레져업소","category":"leisure"},{"name":"크로우 요가","tel":"031-483-3008","addr":"경기도 안산시 상록구 성포동 593-17번지 302,303호","indutype":"레저업소 - 헬스클럽","category":"leisure"}]},{"lat":"37.324641449","long":"126.84499513","imageIndex":13,"items":[{"name":"정성욱탁구클럽","tel":"031-222-2222","addr":"경기도 안산시 상록구 성포동 592-2번지 안산현대1차아파트 지하 B1, B2, B3호","indutype":"레저업소 - 기타레져업소","category":"leisure"}]},{"lat":"37.320171348","long":"126.84421475","imageIndex":13,"items":[{"name":"크로스핏 엘(CrossFitL)","tel":"031-405-0486","addr":"경기도 안산시 상록구 성포동 588-1번지 예일빌딩 지하전부","indutype":"레저업소 - 헬스클럽","category":"leisure"}]},{"lat":"37.326671101","long":"126.84677356","imageIndex":13,"items":[{"name":"파브노래뮤비방","tel":"031-486-6142","addr":"경기도 안산시 상록구 성포동 593-16 209","indutype":"레저업소 - 노 래 방","category":"leisure"}]},{"lat":"37.320783661","long":"126.84393142","imageIndex":7,"items":[{"name":"고기의 품격","tel":"031-403-0695","addr":"경기도 안산시 상록구 성포동 583-5번지 예술프라자 101호","indutype":"음료식품 - 정육점","category":"food"},{"name":"마미샵","tel":"031-484-3131","addr":"경기도 안산시 상록구 성포동 583-5번지 예술프라자 302호","indutype":"회원제형태 - 건강식품","category":"food"},{"name":"파리바게뜨안산예술인점","tel":"031-484-3282","addr":"경기도 안산시 상록구 성포동 583-5번지 예술프라자 106호","indutype":"음료식품 - 제과점","category":"food"}]},{"lat":"37.320936106","long":"126.84338957","imageIndex":7,"items":[{"name":"고려인삼방","tel":"031-480-8975","addr":"경기도 안산시 상록구 성포동 583번지 스타프라자 1동 24호","indutype":"건강식품 - 기타건강식품","category":"food"}]},{"lat":"37.323091248","long":"126.8446599","imageIndex":7,"items":[{"name":"그라샤 지사","tel":"","addr":"경기도 안산시 상록구 성포동 583-4번지 사이버스튜디오 311호","indutype":"건강식품 - 기타건강식품","category":"food"},{"name":"붐붐점핑다이어트","tel":"","addr":"경기도 안산시 상록구 성포동 583-4번지 사이버스튜디오 208호","indutype":"건강식품 - 기타건강식품","category":"food"}]},{"lat":"37.325612124","long":"126.84318788","imageIndex":7,"items":[{"name":"낙원떡집","tel":"031-482-8778","addr":"경기도 안산시 상록구 성포동 592선경에이상가","indutype":"음료식품 - 기타음료식품","category":"food"},{"name":"파리바게뜨","tel":"031-403-1551","addr":"경기도 안산시 상록구 성포동 592번지 선경상가 A동 101,136호","indutype":"음료식품 - 제과점","category":"food"},{"name":"파리바게뜨안산성포점","tel":"031-403-1551","addr":"경기도 안산시 상록구 성포동 592번지 선경상가 A-101호","indutype":"음료식품 - 제과점","category":"food"}]},{"lat":"37.325391836","long":"126.8469116","imageIndex":7,"items":[{"name":"대호유통","tel":"031-484-0017","addr":"경기도 안산시 상록구 성포동 591번지 주공11단지아파트","indutype":"음료식품 - 농·축·수산품","category":"food"},{"name":"수지네야채","tel":"031-405-1333","addr":"경기도 안산시 상록구 성포동 591번지 주공11단지아파트 상가동 1층 105호","indutype":"음료식품 - 농·축·수산품","category":"food"}]},{"lat":"37.326645273","long":"126.84768751","imageIndex":7,"items":[{"name":"롤킹롤러스케이트장 (매점)","tel":"070-7872-6115","addr":"경기도 안산시 상록구 성포동 593-23번지 삼희프라자 지하 102호","indutype":"음료식품 - 기타음료식품","category":"food"}]},{"lat":"37.3207836613","long":"126.8439314197","imageIndex":7,"items":[{"name":"마미샵","tel":"031-484-3131","addr":"경기도 안산시 상록구 성포동 583-5번지","indutype":"도매 및 소매업 - 건강식품","category":"food"}]},{"lat":"37.326615126","long":"126.84532948","imageIndex":7,"items":[{"name":"명품청과 앤로컬푸드","tel":"02-1111-1111","addr":"경기도 안산시 상록구 성포동 593-6번지 성포프라자 101,102호","indutype":"음료식품 - 농·축·수산품","category":"food"},{"name":"중원소림","tel":"031-410-1168","addr":"경기도 안산시 상록구 성포동 593-6번지 성포프라자 2층 204호","indutype":"회원제형태 - 건강식품","category":"food"},{"name":"초우소돼지도매센타","tel":"031-413-8284","addr":"경기도 안산시 상록구 성포동 593-6번지 성포프라자 103호","indutype":"음료식품 - 정육점","category":"food"}]},{"lat":"37.321729593","long":"126.84382789","imageIndex":7,"items":[{"name":"민속쌀집","tel":"031-482-8804","addr":"경기도 안산시 상록구 성포동 583번지 스타프라자 17호","indutype":"음료식품 - 미곡상","category":"food"},{"name":"믿음반찬","tel":"031-414-3853","addr":"경기도 안산시 상록구 성포동 583번지 스타프라자 지층19호,22호","indutype":"음료식품 - 기타음료식품","category":"food"},{"name":"스타정육점","tel":"031-480-9559","addr":"경기도 안산시 상록구 성포동 583번지 스타프라자 지층 14호","indutype":"음료식품 - 정육점","category":"food"}]},{"lat":"37.317337188","long":"126.84726668","imageIndex":7,"items":[{"name":"배스킨라빈스안산롯데마트점","tel":"031-439-5080","addr":"경기도 안산시 상록구 성포동 590번지 롯데마트 F동 1층","indutype":"음료식품 - 제과점","category":"food"}]},{"lat":"37.318413714","long":"126.85058123","imageIndex":7,"items":[{"name":"서해유통","tel":"031-407-4040","addr":"경기도 안산시 상록구 성포동 585-4번지 신우연립 9동 202호","indutype":"음료식품 - 기타음료식품","category":"food"}]},{"lat":"37.32662146","long":"126.84333242","imageIndex":7,"items":[{"name":"선경인삼","tel":"031-486-4606","addr":"경기도 안산시 상록구 성포동 592선경상가A동104호","indutype":"건강식품 - 기타건강식품","category":"food"}]},{"lat":"37.325973684","long":"126.85090445","imageIndex":7,"items":[{"name":"성포고등학교 매점","tel":"","addr":"경기도 안산시 상록구 성포동 594-1번지 성포고등학교 매점","indutype":"음료식품 - 기타음료식품","category":"food"}]},{"lat":"37.320507101","long":"126.84599658","imageIndex":7,"items":[{"name":"성포정육점","tel":"031-480-8829","addr":"경기도 안산시 상록구 성포동 584-2번지 주공10단지 상가 104호","indutype":"음료식품 - 정육점","category":"food"}]},{"lat":"37.3217295929","long":"126.8438278893","imageIndex":7,"items":[{"name":"세모스쿠알렌 단원점","tel":"031-487-0208","addr":"경기도 안산시 상록구 성포동 583번지","indutype":"도매 및 소매업 - 건강보조식품","category":"food"},{"name":"오스코","tel":"031-410-8296","addr":"경기도 안산시 상록구 성포동 583번지","indutype":"도매 및 소매업 - 건강식품","category":"food"}]},{"lat":"37.325225623","long":"126.85073672","imageIndex":7,"items":[{"name":"씨푸드","tel":"","addr":"경기도 안산시 상록구 성포동 594-4번지 지하","indutype":"음료식품 - 기타음료식품","category":"food"}]},{"lat":"37.326806655","long":"126.84707791","imageIndex":7,"items":[{"name":"안산건강생활","tel":"031-439-4568","addr":"경기도 안산시 상록구 성포동 593-17번지 성포타운 3층 307호","indutype":"건강식품 - 기타건강식품","category":"food"}]},{"lat":"37.324641449","long":"126.84499513","imageIndex":7,"items":[{"name":"약초건강원","tel":"031-411-0900","addr":"경기도 안산시 상록구 성포동 592-2번지 (112-104호)","indutype":"건강식품 - 기타건강식품","category":"food"}]},{"lat":"37.320171348","long":"126.84421475","imageIndex":7,"items":[{"name":"오혜숙생활단식안산쉐마지사","tel":"031-487-0153","addr":"경기도 안산시 상록구 성포동 588-1번지 예일빌딩 2층","indutype":"건강식품 - 기타건강식품","category":"food"}]},{"lat":"37.3246414488","long":"126.8449951281","imageIndex":7,"items":[{"name":"이든네이처","tel":"031-403-2033","addr":"경기도 안산시 상록구 성포동 592-2번지","indutype":"도매 및 소매업 - 건강보조식품","category":"food"}]},{"lat":"37.326838736","long":"126.84409919","imageIndex":7,"items":[{"name":"정관장홍삼성포점","tel":"031-414-2304","addr":"경기도 안산시 상록구 성포동 593-11번지 경동 상가 105호","indutype":"건강식품 - 홍삼제품","category":"food"},{"name":"정관장홍삼성포점","tel":"031-414-2304","addr":"경기도 안산시 상록구 성포동 593-11번지 경동 상가 105호","indutype":"건강식품 - 홍삼제품","category":"food"}]},{"lat":"37.324529652","long":"126.84904576","imageIndex":7,"items":[{"name":"쿨 아이스크림할인점","tel":"","addr":"경기도 안산시 상록구 성포동 591-3번지 정수빌딩 102-1호","indutype":"음료식품 - 기타음료식품","category":"food"}]},{"lat":"37.317337188","long":"126.84726668","imageIndex":0,"items":[{"name":"롯데쇼핑(주)롯데마트안산점/주차장","tel":"02-1577-2500","addr":"경기도 안산시 상록구 성포동 590번지","indutype":"자동차정비 유지 - 주차장","category":"car"}]},{"lat":"37.317558352","long":"126.8441864","imageIndex":0,"items":[{"name":"은빛세차사업단","tel":"031-482-4546","addr":"경기도 안산시 상록구 성포동 589번지","indutype":"자동차정비 유지 - 세차장","category":"car"}]}]