[{"lat":"37.291650581","long":"127.14284751","imageIndex":7,"items":[{"name":"GOOD PLAN (굿플랜)","tel":"02-1522-9942","addr":"경기도 용인시 기흥구 청덕동 529-3번지 102호","indutype":"음료식품 - 기타음료식품","category":"food"}]},{"lat":"37.292042737","long":"127.14643452","imageIndex":7,"items":[{"name":"감동수산","tel":"070-2570-9142","addr":"경기도 용인시 기흥구 청덕동 547-5번지 1층 일부","indutype":"음료식품 - 농·축·수산품","category":"food"}]},{"lat":"37.297906446","long":"127.15520902","imageIndex":7,"items":[{"name":"농업회사법인 성진축산 주식회사","tel":"02-2038-0075","addr":"경기도 용인시 기흥구 청덕동 49-1번지","indutype":"음료식품 - 정육점","category":"food"}]},{"lat":"37.294712012","long":"127.15190941","imageIndex":7,"items":[{"name":"농협목우촌웰빙마을구성청덕점","tel":"031-286-8887","addr":"경기도 용인시 기흥구 청덕동 502-8번지 청덕프라자 102호","indutype":"음료식품 - 정육점","category":"food"}]},{"lat":"37.291629967","long":"127.14502404","imageIndex":7,"items":[{"name":"누아즈(NUAGE)","tel":"031-286-5026","addr":"경기도 용인시 기흥구 청덕동 546-1번지 주공프라자 102호","indutype":"음료식품 - 제과점","category":"food"}]},{"lat":"37.287161597","long":"127.14442924","imageIndex":7,"items":[{"name":"동부급식","tel":"031-287-4323","addr":"경기도 용인시 기흥구 청덕동 482청덕마을광도와이드빌102-901","indutype":"음료식품 - 기타음료식품","category":"food"}]},{"lat":"37.290295671","long":"127.13799575","imageIndex":7,"items":[{"name":"떡낭자","tel":"031-284-7942","addr":"경기도 용인시 기흥구 청덕동 540-1번지 근린상가 1","indutype":"음료식품 - 제과점","category":"food"}]},{"lat":"37.292133822","long":"127.15290803","imageIndex":7,"items":[{"name":"롯데칠성남대문상회","tel":"02-3474-9512","addr":"경기도 용인시 기흥구 청덕동 569 휴먼시아물푸레마을 906-401","indutype":"음료식품 - 기타음료식품","category":"food"}]},{"lat":"37.289767302","long":"127.13513039","imageIndex":7,"items":[{"name":"매일유업구성보급소","tel":"031-283-0588","addr":"경기도 용인시 기흥구 청덕동 383-2번지","indutype":"음료식품 - 기타음료식품","category":"food"}]},{"lat":"37.29551368","long":"127.15210272","imageIndex":7,"items":[{"name":"물푸레건강","tel":"031-275-7848","addr":"경기도 용인시 기흥구 청덕동 502-4번지 가나프라자 1차","indutype":"회원제형태 - 건강식품","category":"food"},{"name":"파리바게트 용인청덕점","tel":"031-285-8253","addr":"경기도 용인시 기흥구 청덕동 502-4번지 가나프라자1차 106호","indutype":"음료식품 - 제과점","category":"food"}]},{"lat":"37.291290917","long":"127.14221531","imageIndex":7,"items":[{"name":"바다를담다 용인점","tel":"02-111-1111","addr":"경기도 용인시 기흥구 청덕동 528-9번지 1층 102호","indutype":"음료식품 - 농·축·수산품","category":"food"}]},{"lat":"37.29435227","long":"127.15137864","imageIndex":7,"items":[{"name":"백운한우축산","tel":"031-285-4381","addr":"경기도 용인시 기흥구 청덕동 502-10번지","indutype":"음료식품 - 정육점","category":"food"}]},{"lat":"37.296288558","long":"127.15210425","imageIndex":7,"items":[{"name":"베스트축산","tel":"031-287-9990","addr":"경기도 용인시 기흥구 청덕동 502-1번지 103호","indutype":"음료식품 - 정육점","category":"food"}]},{"lat":"37.292711985","long":"127.15171375","imageIndex":7,"items":[{"name":"소우리축산","tel":"031-287-9211","addr":"경기도 용인시 기흥구 청덕동 565번지 휴먼시아물푸레마을 상가동 103호","indutype":"음료식품 - 정육점","category":"food"}]},{"lat":"37.289207479","long":"127.13618946","imageIndex":7,"items":[{"name":"신성미트마켓","tel":"031-265-0475","addr":"경기도 용인시 기흥구 청덕동 389-14번지","indutype":"음료식품 - 정육점","category":"food"}]},{"lat":"37.295818514","long":"127.15329881","imageIndex":7,"items":[{"name":"엄마손반찬","tel":"031-287-7544","addr":"경기도 용인시 기흥구 청덕동 499번지 휴먼시아물푸레마을 104호","indutype":"음료식품 - 기타음료식품","category":"food"}]},{"lat":"37.290317906","long":"127.14213457","imageIndex":7,"items":[{"name":"웰빙산약초건강원","tel":"070-8876-1771","addr":"경기도 용인시 기흥구 청덕동 542-4번지 101호","indutype":"건강식품 - 기타건강식품","category":"food"}]},{"lat":"37.292294196","long":"127.15432933","imageIndex":7,"items":[{"name":"제주수산","tel":"031-284-3412","addr":"경기도 용인시 기흥구 청덕동 569번지 휴먼시아물푸레마을9단지아파트","indutype":"음료식품 - 농·축·수산품","category":"food"}]},{"lat":"37.291320021","long":"127.14798944","imageIndex":7,"items":[{"name":"주식회사 교아당","tel":"","addr":"경기도 용인시 기흥구 청덕동 556번지 용인테크노밸리 A동 901호","indutype":"음료식품 - 기타음료식품","category":"food"},{"name":"황제황칠","tel":"","addr":"경기도 용인시 기흥구 청덕동 556번지 용인테크노밸리 C동 910호","indutype":"음료식품 - 기타음료식품","category":"food"}]},{"lat":"37.287900827","long":"127.14410359","imageIndex":7,"items":[{"name":"주식회사 니드플러스","tel":"031-263-8828","addr":"경기도 용인시 기흥구 청덕동 203-2번지 나동","indutype":"음료식품 - 기타음료식품","category":"food"}]},{"lat":"37.297905792","long":"127.15571655","imageIndex":7,"items":[{"name":"참우돈가/주식회사 청덕에프엔비","tel":"031-274-2128","addr":"경기도 용인시 기흥구 청덕동 50-1번지","indutype":"음료식품 - 정육점","category":"food"}]},{"lat":"37.295153271","long":"127.15210201","imageIndex":7,"items":[{"name":"초원축산","tel":"031-274-1599","addr":"경기도 용인시 기흥구 청덕동 502-6번지 가나프라자 101호","indutype":"음료식품 - 정육점","category":"food"}]},{"lat":"37.290235401","long":"127.14332982","imageIndex":7,"items":[{"name":"풀무원녹즙 용인기흥북부오피스가맹점","tel":"031-000-0000","addr":"경기도 용인시 기흥구 청덕동 406-5번지 203호","indutype":"건강식품 - 기타건강식품","category":"food"}]},{"lat":"37.297014391","long":"127.15524106","imageIndex":7,"items":[{"name":"한기성 궁중병과","tel":"031-281-0525","addr":"경기도 용인시 기흥구 청덕동 309-2번지","indutype":"음료식품 - 기타음료식품","category":"food"}]},{"lat":"37.296027305","long":"127.1520699","imageIndex":7,"items":[{"name":"햇살떡","tel":"031-285-3001","addr":"경기도 용인시 기흥구 청덕동 502-2번지 구성프라자 103호","indutype":"음료식품 - 제과점","category":"food"}]}]