[{"lat":"37.000994656","long":"127.0795011","imageIndex":8,"items":[{"name":"나.오치과의원","tel":"031-618-7007","addr":"경기도 평택시 세교동 560번지 현대아파트","indutype":"의원 - 치과의원","category":"medical"},{"name":"한라약국","tel":"031-655-5581","addr":"경기도 평택시 세교동 560번지 향촌 상가 105호","indutype":"약국 - 약국","category":"medical"}]},{"lat":"37.003080939","long":"127.08574973","imageIndex":8,"items":[{"name":"사랑의의원","tel":"031-654-0654","addr":"경기도 평택시 세교동 555번지 부영 상가 205호","indutype":"의원 - 의원","category":"medical"},{"name":"성신당한의원","tel":"031-692-7777","addr":"경기도 평택시 세교동 555번지 부영아파트 상가 204호","indutype":"서비스업 - 병원","category":"medical"},{"name":"조수현치과","tel":"031-655-8566","addr":"경기도 평택시 세교동 555번지 부영2상가 2동 302호","indutype":"의원 - 치과의원","category":"medical"}]},{"lat":"36.99912913","long":"127.0799823","imageIndex":8,"items":[{"name":"세교한의원","tel":"031-656-7575","addr":"경기도 평택시 세교동 569-4번지 2층","indutype":"서비스업 - 병원","category":"medical"},{"name":"세교한의원","tel":"031-653-7512","addr":"경기도 평택시 세교동 569-4번지 2층","indutype":"의원 - 한의원","category":"medical"}]},{"lat":"37.011099485","long":"127.08711798","imageIndex":8,"items":[{"name":"세교현대치과의원","tel":"031-656-7588","addr":"경기도 평택시 세교동 303-1번지 힐스테이트평택2차 204호","indutype":"의원 - 치과의원","category":"medical"},{"name":"우리동네현대약국","tel":"031-8094-0110","addr":"경기도 평택시 세교동 303-1번지 힐스테이트평택2차 상가동 205호","indutype":"약국 - 약국","category":"medical"}]},{"lat":"37.000048562","long":"127.07945521","imageIndex":8,"items":[{"name":"유명약국","tel":"031-654-0109","addr":"경기도 평택시 세교동 561-14번지","indutype":"소매업 - 약국","category":"medical"},{"name":"유명약국","tel":"031-655-7925","addr":"경기도 평택시 세교동 561-14번지 102호","indutype":"약국 - 약국","category":"medical"}]},{"lat":"37.008774716","long":"127.07330684","imageIndex":8,"items":[{"name":"참바른약국","tel":"031-652-0420","addr":"경기도 평택시 세교동 439번지 1층 102호","indutype":"약국 - 약국","category":"medical"},{"name":"참바른약국","tel":"031-655-5581","addr":"경기도 평택시 세교동 439번지 동진빌딩 102호","indutype":"소매업 - 약국","category":"medical"}]},{"lat":"37.003408138","long":"127.08161567","imageIndex":8,"items":[{"name":"평택바른한의원","tel":"031-618-9111","addr":"경기도 평택시 세교동 557번지 부영2차 상가 206호","indutype":"서비스업 - 병원","category":"medical"}]},{"lat":"37.00829715","long":"127.0733064","imageIndex":8,"items":[{"name":"평택정문약국","tel":"031-652-0420","addr":"경기도 평택시 세교동 439-14번지 1층","indutype":"소매업 - 약국","category":"medical"}]},{"lat":"36.99991351","long":"127.07928656","imageIndex":8,"items":[{"name":"한마음의원","tel":"031-658-7999","addr":"경기도 평택시 세교동 569번지 개암빌딩","indutype":"의원 - 의원","category":"medical"}]}]