[{"lat":"37.133753879","long":"126.90970957","imageIndex":7,"items":[{"name":"고향마트","tel":"031-297-6055","addr":"경기도 화성시 향남읍 평리 32-1번지 1층 104호","indutype":"유통업 영리 - 슈퍼마켓","category":"mart"}]},{"lat":"37.133366366","long":"126.90963127","imageIndex":7,"items":[{"name":"굿마트 화성발안점","tel":"031-353-1802","addr":"경기도 화성시 향남읍 평리 35-14번지 외2필지 1층 102호","indutype":"유통업 영리 - 슈퍼마켓","category":"mart"}]},{"lat":"37.131609233","long":"126.90952089","imageIndex":7,"items":[{"name":"라이컨비니언스스토어(Lye convenience sto","tel":"070-4042-6438","addr":"경기도 화성시 향남읍 평리 81-57번지","indutype":"유통업 영리 - 슈퍼마켓","category":"mart"}]},{"lat":"37.1333661","long":"126.90929365","imageIndex":7,"items":[{"name":"보물마트","tel":"031-354-5419","addr":"경기도 화성시 향남읍 평리 88-8","indutype":"유통업 영리 - 슈퍼마켓","category":"mart"}]},{"lat":"37.133610476","long":"126.91068885","imageIndex":7,"items":[{"name":"보이타이마트 (PLOY THAI)","tel":"070-8171-6701","addr":"경기도 화성시 향남읍 평리 35-1번지 1층 회춘빌딩","indutype":"유통업 영리 - 슈퍼마켓","category":"mart"}]},{"lat":"37.13291496","long":"126.90851768","imageIndex":7,"items":[{"name":"슈퍼","tel":"031-000-0000","addr":"경기도 화성시 향남읍 평리 89-8번지","indutype":"유통업 영리 - 슈퍼마켓","category":"mart"}]},{"lat":"37.131832674","long":"126.9072361","imageIndex":7,"items":[{"name":"원마트","tel":"","addr":"경기도 화성시 향남읍 평리 104-7번지","indutype":"유통업 영리 - 슈퍼마켓","category":"mart"}]},{"lat":"37.133059832","long":"126.90940657","imageIndex":7,"items":[{"name":"월드푸드마트","tel":"031-366-6667","addr":"경기도 화성시 향남읍 평리 87번지 외1필지","indutype":"유통업 영리 - 슈퍼마켓","category":"mart"}]},{"lat":"37.130780436","long":"126.90973572","imageIndex":7,"items":[{"name":"중국식품","tel":"031-352-4040","addr":"경기도 화성시 향남읍 평리 76-26번지 1층 A호","indutype":"유통업 영리 - 슈퍼마켓","category":"mart"}]},{"lat":"37.132365383","long":"126.90859714","imageIndex":7,"items":[{"name":"편의점사랑(향남평리점)","tel":"031-353-3492","addr":"경기도 화성시 향남읍 평리 110-4번지","indutype":"유통업 영리 - 슈퍼마켓","category":"mart"}]},{"lat":"37.13430402","long":"126.91035038","imageIndex":7,"items":[{"name":"포린푸드마트","tel":"031-0000-0000","addr":"경기도 화성시 향남읍 평리 30-36번지","indutype":"유통업 영리 - 슈퍼마켓","category":"mart"}]},{"lat":"37.130472335","long":"126.90754165","imageIndex":7,"items":[{"name":"포유25발안2호점","tel":"031-352-1613","addr":"경기도 화성시 향남읍 평리 122-1번지 라벤다테라스1층101호102호","indutype":"유통업 영리 - 슈퍼마켓","category":"mart"}]},{"lat":"37.129139781","long":"126.90879245","imageIndex":7,"items":[{"name":"현대아울렛디씨백화점","tel":"031-426-8212","addr":"경기도 화성시 향남읍 평리 137-3번지 137-48,137-58","indutype":"유통업 영리 - 슈퍼마켓","category":"mart"}]}]