[{"lat":"37.901081268","long":"127.05317093","imageIndex":5,"items":[{"name":"E모텔","tel":"031-858-5531","addr":"경기도 동두천시 생연동 689-28번지 센츄럴시티 601호","indutype":"숙박업 - 여관/기타숙박업","category":"hotel"}]},{"lat":"37.902910265","long":"127.05292203","imageIndex":5,"items":[{"name":"그린파크모텔","tel":"031-862-1497","addr":"경기도 동두천시 생연동 690-8번지","indutype":"숙박업 - 여관/기타숙박업","category":"hotel"}]},{"lat":"37.903296993","long":"127.05448001","imageIndex":5,"items":[{"name":"렉시모텔","tel":"031-864-7088","addr":"경기도 동두천시 생연동 672-8번지","indutype":"숙박업 - 여관/기타숙박업","category":"hotel"}]},{"lat":"37.908298169","long":"127.05211833","imageIndex":5,"items":[{"name":"로즈모텔","tel":"031-862-8644","addr":"경기도 동두천시 생연동 585-88번지","indutype":"숙박업 - 여관/기타숙박업","category":"hotel"}]},{"lat":"37.894827164","long":"127.07384675","imageIndex":5,"items":[{"name":"리노모텔","tel":"031-865-3636","addr":"경기도 동두천시 생연동 39-10번지","indutype":"숙박업 - 여관/기타숙박업","category":"hotel"}]},{"lat":"37.911161933","long":"127.05489487","imageIndex":5,"items":[{"name":"리도모텔","tel":"031-861-4868","addr":"경기도 동두천시 생연동 570-43번지","indutype":"숙박업 - 여관/기타숙박업","category":"hotel"}]},{"lat":"37.910828503","long":"127.05508795","imageIndex":5,"items":[{"name":"모텔밀란","tel":"031-863-2100","addr":"경기도 동두천시 생연동 555-10번지","indutype":"숙박업 - 여관/기타숙박업","category":"hotel"},{"name":"모텔밀란","tel":"031-863-2100","addr":"경기도 동두천시 생연동 555-10번지","indutype":"숙박업 - 여관/기타숙박업","category":"hotel"}]},{"lat":"37.9058564","long":"127.05270798","imageIndex":5,"items":[{"name":"모텔카라","tel":"031-864-4918","addr":"경기도 동두천시 생연동 590-14번지","indutype":"숙박업 - 여관/기타숙박업","category":"hotel"}]},{"lat":"37.903802815","long":"127.05142175","imageIndex":5,"items":[{"name":"빅토리아모텔","tel":"031-861-0505","addr":"경기도 동두천시 생연동 823-156번지","indutype":"숙박업 - 여관/기타숙박업","category":"hotel"}]},{"lat":"37.905081834","long":"127.0521503","imageIndex":5,"items":[{"name":"샵 모텔","tel":"031-858-1239","addr":"경기도 동두천시 생연동 823-1번지","indutype":"숙박업 - 여관/기타숙박업","category":"hotel"}]},{"lat":"37.896664499","long":"127.05809079","imageIndex":5,"items":[{"name":"세인트","tel":"031-866-7331","addr":"경기도 동두천시 생연동 365-1번지","indutype":"숙박업 - 여관/기타숙박업","category":"hotel"}]},{"lat":"37.912629263","long":"127.05751139","imageIndex":5,"items":[{"name":"소풍","tel":"031-865-5141","addr":"경기도 동두천시 생연동 540-1번지","indutype":"숙박업 - 여관/기타숙박업","category":"hotel"}]},{"lat":"37.9059907","long":"127.05465245","imageIndex":5,"items":[{"name":"시마","tel":"031-865-3200","addr":"경기도 동두천시 생연동 595-8번지","indutype":"숙박업 - 여관/기타숙박업","category":"hotel"}]},{"lat":"37.913188639","long":"127.05576055","imageIndex":5,"items":[{"name":"아도니스모텔","tel":"031-861-0745","addr":"경기도 동두천시 생연동 571-2번지","indutype":"숙박업 - 여관/기타숙박업","category":"hotel"}]},{"lat":"37.905053314","long":"127.05559555","imageIndex":5,"items":[{"name":"어수장여관","tel":"031-862-7974","addr":"경기도 동두천시 생연동 644-2번지","indutype":"숙박업 - 여관/기타숙박업","category":"hotel"}]},{"lat":"37.908216182","long":"127.05423328","imageIndex":5,"items":[{"name":"우일여인숙","tel":"031-865-2278","addr":"경기도 동두천시 생연동 611-48","indutype":"숙박업 - 여관/기타숙박업","category":"hotel"}]},{"lat":"37.905244416","long":"127.0511498","imageIndex":5,"items":[{"name":"이화여관","tel":"031-865-4060","addr":"경기도 동두천시 생연동 818-44번지","indutype":"숙박업 - 여관/기타숙박업","category":"hotel"}]},{"lat":"37.903603114","long":"127.05492367","imageIndex":5,"items":[{"name":"제이(J) 모텔","tel":"031-864-4235","addr":"경기도 동두천시 생연동 673-5번지","indutype":"숙박업 - 여관/기타숙박업","category":"hotel"}]},{"lat":"37.91074775","long":"127.05433738","imageIndex":5,"items":[{"name":"제일모텔","tel":"070-4800-4200","addr":"경기도 동두천시 생연동 577-1번지","indutype":"숙박업 - 여관/기타숙박업","category":"hotel"}]},{"lat":"37.911358942","long":"127.05753319","imageIndex":5,"items":[{"name":"젠","tel":"","addr":"경기도 동두천시 생연동 548-12번지","indutype":"숙박업 - 여관/기타숙박업","category":"hotel"}]},{"lat":"37.908938164","long":"127.05131141","imageIndex":5,"items":[{"name":"중앙여인숙","tel":"031-865-2871","addr":"경기도 동두천시 생연동 830-48","indutype":"숙박업 - 여관/기타숙박업","category":"hotel"}]},{"lat":"37.900936806","long":"127.0538985","imageIndex":5,"items":[{"name":"캐슬모텔","tel":"031-866-2080","addr":"경기도 동두천시 생연동 686-49번지","indutype":"숙박업 - 여관/기타숙박업","category":"hotel"}]},{"lat":"37.912855397","long":"127.05553288","imageIndex":5,"items":[{"name":"하나장","tel":"031-864-7478","addr":"경기도 동두천시 생연동 570-53번지","indutype":"숙박업 - 여관/기타숙박업","category":"hotel"}]},{"lat":"37.905604009","long":"127.05301482","imageIndex":5,"items":[{"name":"호텔 더 그레이/리즈컴퍼니 주식회사","tel":"031-863-7087","addr":"경기도 동두천시 생연동 659-1번지 304호","indutype":"숙박업 - 여관/기타숙박업","category":"hotel"}]},{"lat":"37.902081558","long":"127.052569","imageIndex":5,"items":[{"name":"힐링","tel":"031-857-3900","addr":"경기도 동두천시 생연동 690-15번지","indutype":"숙박업 - 여관/기타숙박업","category":"hotel"},{"name":"힐링","tel":"031-857-3900","addr":"경기도 동두천시 생연동 690-15번지 1층","indutype":"숙박업 - 여관/기타숙박업","category":"hotel"}]}]