[{"lat":"37.747659265","long":"127.42837012","imageIndex":17,"items":[{"name":"MJ공조","tel":"031-1577-3914","addr":"경기도 가평군 청평면 하천리 505-9번지","indutype":"용역 서비스 - 기타용역서비스","category":"other"}]},{"lat":"37.741719009","long":"127.45106093","imageIndex":17,"items":[{"name":"감로사","tel":"031-584-0117","addr":"경기도 가평군 청평면 하천리 산1-4","indutype":"기타 - 비영리/대상","category":"other"}]},{"lat":"37.752492457","long":"127.43467271","imageIndex":17,"items":[{"name":"경기철물농자재센타 유한회사 농업회사법인","tel":"031-585-3389","addr":"경기도 가평군 청평면 하천리 251-7번지","indutype":"농업 - 농기계","category":"other"}]},{"lat":"37.755825186","long":"127.43733605","imageIndex":17,"items":[{"name":"로빈스파","tel":"031-585-4900","addr":"경기도 가평군 청평면 하천리 105-23","indutype":"건축자재 - 건축용 요업제품","category":"other"}]},{"lat":"37.755377235","long":"127.43909229","imageIndex":17,"items":[{"name":"모모","tel":"031-584-5828","addr":"경기도 가평군 청평면 하천리 92-3","indutype":"신변잡화 - 기타잡화","category":"other"}]},{"lat":"37.758015776","long":"127.43942552","imageIndex":17,"items":[{"name":"보현버티칼","tel":"031-584-6034","addr":"경기도 가평군 청평면 하천리 43-7번지","indutype":"회원제형태 - 기타4","category":"other"}]},{"lat":"37.747134717","long":"127.42892309","imageIndex":17,"items":[{"name":"삼경휀스","tel":"031-585-1401","addr":"경기도 가평군 청평면 하천리 496-4번지","indutype":"건축자재 - 인테리어전문","category":"other"}]},{"lat":"37.747435342","long":"127.42800576","imageIndex":17,"items":[{"name":"씨유가평하천점","tel":"031-584-0601","addr":"경기도 가평군 청평면 하천리 503-31번지","indutype":"유통업 영리 - 편 의 점","category":"other"}]},{"lat":"37.747655369","long":"127.429448","imageIndex":17,"items":[{"name":"주식회사하이렉스","tel":"02-553-6640","addr":"경기도 가평군 청평면 하천리 493-1번지","indutype":"용역 서비스 - 기타용역서비스","category":"other"}]},{"lat":"37.747377189","long":"127.42914005","imageIndex":17,"items":[{"name":"창대종합공구철물","tel":"031-584-3309","addr":"경기도 가평군 청평면 하천리 495번지","indutype":"기타 - 기계공구","category":"other"}]},{"lat":"37.748378704","long":"127.43122219","imageIndex":17,"items":[{"name":"청평제재소","tel":"031-585-9990","addr":"경기도 가평군 청평면 하천리 481-3번지","indutype":"건축자재 - 목재·석재·철물","category":"other"}]},{"lat":"37.759297953","long":"127.43375902","imageIndex":17,"items":[{"name":"포시즌버티칼","tel":"031-584-0884","addr":"경기도 가평군 청평면 하천리 324번지 16/5","indutype":"직물 - 카페트,커튼,천막,지물","category":"other"}]},{"lat":"37.761632437","long":"127.43100355","imageIndex":17,"items":[{"name":"해바라기","tel":"031-471-3036","addr":"경기도 가평군 청평면 하천리 426-1","indutype":"신변잡화 - 신발","category":"other"}]},{"lat":"37.760215551","long":"127.43902992","imageIndex":17,"items":[{"name":"홍아트","tel":"031-584-9394","addr":"경기도 가평군 청평면 하천리 7번지","indutype":"가구 - 기타가구","category":"other"}]}]