[{"lat":"37.4145652","long":"127.1516946","imageIndex":17,"items":[{"name":"good안경원","tel":"031-718-9006","addr":"경기도 성남시 중원구 도촌동 568번지","indutype":"","category":"other"},{"name":"키움영어학원","tel":"031-723-9097","addr":"경기도 성남시 중원구 도촌동 568번지","indutype":"","category":"other"}]},{"lat":"37.414613","long":"127.1495146","imageIndex":17,"items":[{"name":"김해본가뒷고기","tel":"031-722-4522","addr":"경기도 성남시 중원구 도촌동 521번지","indutype":"","category":"other"}]},{"lat":"37.4149169","long":"127.151492","imageIndex":17,"items":[{"name":"농민식자재마트","tel":"031-723-7890","addr":"경기도 성남시 중원구 도촌동 580번지","indutype":"","category":"other"}]},{"lat":"37.4148633","long":"127.1510739","imageIndex":17,"items":[{"name":"농부의선물 도촌동점","tel":"031-759-1108","addr":"경기도 성남시 중원구 도촌동 579번지","indutype":"","category":"other"}]},{"lat":"37.4148099","long":"127.1505994","imageIndex":17,"items":[{"name":"다섯손가락","tel":"","addr":"경기도 성남시 중원구 도촌동 565번지","indutype":"","category":"other"},{"name":"도드람미트마켓","tel":"031-751-0232","addr":"경기도 성남시 중원구 도촌동 565번지","indutype":"","category":"other"},{"name":"아이스크림 할인점","tel":"","addr":"경기도 성남시 중원구 도촌동 565번지","indutype":"","category":"other"}]},{"lat":"37.4158642","long":"127.150432","imageIndex":17,"items":[{"name":"도담도담식빵 도촌점","tel":"031-603-0445","addr":"경기도 성남시 중원구 도촌동 557번지","indutype":"","category":"other"}]},{"lat":"37.415107","long":"127.1507129","imageIndex":17,"items":[{"name":"도촌골화로구이","tel":"031-723-9787","addr":"경기도 성남시 중원구 도촌동 563번지","indutype":"","category":"other"},{"name":"도촌골화로구이 도촌점","tel":"031-723-9787","addr":"경기도 성남시 중원구 도촌동 563번지","indutype":"","category":"other"},{"name":"신현미디어","tel":"031-758-2114","addr":"경기도 성남시 중원구 도촌동 563번지","indutype":"","category":"other"},{"name":"올래할인마트","tel":"031-751-5949","addr":"경기도 성남시 중원구 도촌동 563번지","indutype":"","category":"other"},{"name":"후라이드 짱","tel":"031-758-8292","addr":"경기도 성남시 중원구 도촌동 563번지","indutype":"","category":"other"}]},{"lat":"37.4144494","long":"127.1506552","imageIndex":17,"items":[{"name":"도촌문고","tel":"031-753-8890","addr":"경기도 성남시 중원구 도촌동 566번지","indutype":"","category":"other"},{"name":"미소야(도촌점)","tel":"031-756-5222","addr":"경기도 성남시 중원구 도촌동 566번지","indutype":"","category":"other"},{"name":"본죽","tel":"031-758-6288","addr":"경기도 성남시 중원구 도촌동 566번지","indutype":"","category":"other"},{"name":"아리따움 성남도촌점","tel":"031-755-2393","addr":"경기도 성남시 중원구 도촌동 566번지","indutype":"","category":"other"},{"name":"이네이쳐 PC방","tel":"","addr":"경기도 성남시 중원구 도촌동 566번지","indutype":"","category":"other"},{"name":"커피 566","tel":"031-758-5959","addr":"경기도 성남시 중원구 도촌동 566번지","indutype":"","category":"other"},{"name":"홍짜장","tel":"031-722-0996","addr":"경기도 성남시 중원구 도촌동 566번지","indutype":"","category":"other"}]},{"lat":"37.4144759","long":"127.1510958","imageIndex":17,"items":[{"name":"떡집프린스","tel":"031-751-7737","addr":"경기도 성남시 중원구 도촌동 567번지","indutype":"","category":"other"},{"name":"라 파린느","tel":"070-4897-0404","addr":"경기도 성남시 중원구 도촌동 567번지","indutype":"","category":"other"},{"name":"안경마을 도촌점","tel":"031-725-8555","addr":"경기도 성남시 중원구 도촌동 567번지","indutype":"","category":"other"}]},{"lat":"37.4148349","long":"127.152147","imageIndex":17,"items":[{"name":"리틀비틀키즈카페 도촌점","tel":"031-747-7661","addr":"경기도 성남시 중원구 도촌동 569번지","indutype":"","category":"other"},{"name":"블럭제빵소 도촌점","tel":"031-722-2922","addr":"경기도 성남시 중원구 도촌동 569번지","indutype":"","category":"other"},{"name":"주식회사 엠플러스","tel":"031-1544-3616","addr":"경기도 성남시 중원구 도촌동 569번지","indutype":"","category":"other"},{"name":"커피에 반하다","tel":"031-754-1644","addr":"경기도 성남시 중원구 도촌동 569번지","indutype":"","category":"other"}]},{"lat":"37.4151347","long":"127.1502047","imageIndex":17,"items":[{"name":"명인만두 도촌점","tel":"031-755-0311","addr":"경기도 성남시 중원구 도촌동 545번지","indutype":"","category":"other"}]},{"lat":"37.4153071","long":"127.149211","imageIndex":17,"items":[{"name":"백현명차","tel":"031-8016-1613","addr":"경기도 성남시 중원구 도촌동 529번지","indutype":"","category":"other"}]},{"lat":"37.4144053","long":"127.1498418","imageIndex":17,"items":[{"name":"전주해장국","tel":"031-758-3076","addr":"경기도 성남시 중원구 도촌동 509번지","indutype":"","category":"other"}]},{"lat":"37.4143877","long":"127.1495706","imageIndex":17,"items":[{"name":"팔진","tel":"031-751-2998","addr":"경기도 성남시 중원구 도촌동 510번지","indutype":"","category":"other"}]},{"lat":"37.4156401","long":"127.1495731","imageIndex":17,"items":[{"name":"한가득","tel":"031-722-3390","addr":"경기도 성남시 중원구 도촌동 552번지","indutype":"","category":"other"}]}]