[{"lat":"37.760403721","long":"127.04095555","imageIndex":16,"items":[{"name":"MTA청도태권도","tel":"031-875-7751","addr":"경기도 의정부시 녹양동 412-3번지 현대프라자 202호","indutype":"학원 - 예·체능계학원","category":"study"}]},{"lat":"37.760872106","long":"127.04129624","imageIndex":16,"items":[{"name":"경희음악학원","tel":"031-829-8465","addr":"경기도 의정부시 녹양동 412-12번지 녹양프라자 7층 703호","indutype":"학원 - 예·체능계학원","category":"study"},{"name":"녹양경기태권도체육관","tel":"031-855-6900","addr":"경기도 의정부시 녹양동 412-12번지 녹양프라자 701호","indutype":"학원 - 예·체능계학원","category":"study"}]},{"lat":"37.758124885","long":"127.03912736","imageIndex":16,"items":[{"name":"꿈이자라는음악학원","tel":"031-836-7780","addr":"경기도 의정부시 녹양동 328번지 화인빌딩 3층","indutype":"학원 - 예·체능계학원","category":"study"},{"name":"신우회 나토얀 태권도","tel":"031-875-2116","addr":"경기도 의정부시 녹양동 328번지 화인빌딩 3층","indutype":"학원 - 예·체능계학원","category":"study"}]},{"lat":"37.758487043","long":"127.03279533","imageIndex":16,"items":[{"name":"녹양라온학원","tel":"031-879-0579","addr":"경기도 의정부시 녹양동 388-8번지 상승빌딩 2층","indutype":"학원 - 보습학원","category":"study"},{"name":"에셀학원","tel":"031-829-0502","addr":"경기도 의정부시 녹양동 388-8번지 상승빌딩 6층 302호","indutype":"학원 - 보습학원","category":"study"},{"name":"용인대인성태권도","tel":"031-829-0827","addr":"경기도 의정부시 녹양동 388-8번지 4층","indutype":"학원 - 예·체능계학원","category":"study"}]},{"lat":"37.759649287","long":"127.03273906","imageIndex":16,"items":[{"name":"녹양비전이레학원","tel":"031-855-5406","addr":"경기도 의정부시 녹양동 381-1번지 엘지스빌딩 2층","indutype":"학원 - 보습학원","category":"study"}]},{"lat":"37.759901569","long":"127.03268242","imageIndex":16,"items":[{"name":"녹양아트앤하트","tel":"031-826-5668","addr":"경기도 의정부시 녹양동 375-7번지","indutype":"학원 - 예·체능계학원","category":"study"}]},{"lat":"37.75967645","long":"127.0322057","imageIndex":16,"items":[{"name":"녹양이레학원","tel":"031-855-5406","addr":"경기도 의정부시 녹양동 382-14번지 2층","indutype":"학원 - 보습학원","category":"study"}]},{"lat":"37.755846799","long":"127.03451911","imageIndex":16,"items":[{"name":"녹양해법수학교습소","tel":"031-824-0590","addr":"경기도 의정부시 녹양동 355번지 녹양힐스테이트 상가동 110호","indutype":"회원제형태 - 학원","category":"study"},{"name":"리얼잉글리쉬영어교습소","tel":"","addr":"경기도 의정부시 녹양동 355번지 녹양힐스테이트 상가 203호","indutype":"학원 - 외국어학원","category":"study"},{"name":"용인대현일태권도장","tel":"031-873-4200","addr":"경기도 의정부시 녹양동 355번지 녹양힐스테이트 2층 201,202호","indutype":"학원 - 예·체능계학원","category":"study"},{"name":"창작미술교습소","tel":"031-877-8820","addr":"경기도 의정부시 녹양동 355번지 녹양힐스테이트 단지 상가 1층 105호","indutype":"회원제형태 - 학원","category":"study"},{"name":"카일리의 리딩아이 영어교습소","tel":"","addr":"경기도 의정부시 녹양동 355번지 녹양힐스테이트 제상가동 2층 205호","indutype":"학원 - 외국어학원","category":"study"},{"name":"클라비음악학원","tel":"031-829-5919","addr":"경기도 의정부시 녹양동 355번지 녹양힐스테이트 2층 202호","indutype":"학원 - 예·체능계학원","category":"study"},{"name":"해법영어교실","tel":"031-875-5105","addr":"경기도 의정부시 녹양동 355번지 녹양힐스테이트 107호","indutype":"회원제형태 - 학원","category":"study"}]},{"lat":"37.759649558","long":"127.03164963","imageIndex":16,"items":[{"name":"늘푸른음악학원","tel":"031-829-0109","addr":"경기도 의정부시 녹양동 382-3번지 2층","indutype":"학원 - 예·체능계학원","category":"study"}]},{"lat":"37.756928351","long":"127.03296492","imageIndex":16,"items":[{"name":"닥터피앤알(P&R)영수학원","tel":"031-871-1300","addr":"경기도 의정부시 녹양동 146-12번지 3층","indutype":"학원 - 보습학원","category":"study"}]},{"lat":"37.761396415","long":"127.03546339","imageIndex":16,"items":[{"name":"대장간미술학원","tel":"031-855-1101","addr":"경기도 의정부시 녹양동 400-20번지 1층","indutype":"학원 - 예·체능계학원","category":"study"}]},{"lat":"37.758315149","long":"127.03548474","imageIndex":16,"items":[{"name":"대하서예","tel":"031-876-7308","addr":"경기도 의정부시 녹양동 83-36 3층전부","indutype":"학원 - 예·체능계학원","category":"study"}]},{"lat":"37.759424565","long":"127.03062821","imageIndex":16,"items":[{"name":"대하서예교습소","tel":"031-876-7308","addr":"경기도 의정부시 녹양동 384-16번지","indutype":"학원 - 예·체능계학원","category":"study"}]},{"lat":"37.759675799","long":"127.03471366","imageIndex":16,"items":[{"name":"대한예수교장로회생명샘교회","tel":"031-878-8669","addr":"경기도 의정부시 녹양동 158-4번지","indutype":"학원 - 기타 교육기관","category":"study"}]},{"lat":"37.75662209","long":"127.03271515","imageIndex":16,"items":[{"name":"두드림 음악학원","tel":"031-876-3060","addr":"경기도 의정부시 녹양동 146-14번지 4층","indutype":"학원 - 예·체능계학원","category":"study"},{"name":"잘나가는학원","tel":"031-838-1555","addr":"경기도 의정부시 녹양동 146-14번지 301호","indutype":"학원 - 보습학원","category":"study"}]},{"lat":"37.758901482","long":"127.0327955","imageIndex":16,"items":[{"name":"라온학원","tel":"031-879-0579","addr":"경기도 의정부시 녹양동 388-1번지 원민빌딩 3층","indutype":"학원 - 보습학원","category":"study"},{"name":"새롬독서실","tel":"031-826-1001","addr":"경기도 의정부시 녹양동 388-1번지 원민빌딩 5층","indutype":"학원 - 독서실","category":"study"},{"name":"용인대은혜태권도","tel":"031-829-2113","addr":"경기도 의정부시 녹양동 388-1번지 4층","indutype":"학원 - 예·체능계학원","category":"study"}]},{"lat":"37.756820274","long":"127.03281736","imageIndex":16,"items":[{"name":"레벨업수학학원","tel":"031-837-6791","addr":"경기도 의정부시 녹양동 146-13번지 201호","indutype":"학원 - 보습학원","category":"study"},{"name":"잉글리쉬 블러썸 어학원","tel":"","addr":"경기도 의정부시 녹양동 146-13번지 3층","indutype":"학원 - 외국어학원","category":"study"}]},{"lat":"37.758153397","long":"127.03393","imageIndex":16,"items":[{"name":"멘토학원","tel":"","addr":"경기도 의정부시 녹양동 154-9번지 2층","indutype":"학원 - 보습학원","category":"study"}]},{"lat":"37.757820231","long":"127.03321494","imageIndex":16,"items":[{"name":"모양필아트미술학원","tel":"031-876-5935","addr":"경기도 의정부시 녹양동 154-42번지 인창빌딩","indutype":"학원 - 예·체능계학원","category":"study"},{"name":"와이지(YG)실용음악학원","tel":"031-829-0089","addr":"경기도 의정부시 녹양동 154-42번지 인창빌딩 4층","indutype":"회원제형태 - 학원","category":"study"}]},{"lat":"37.760619949","long":"127.04095566","imageIndex":16,"items":[{"name":"변형과연관성","tel":"031-826-0177","addr":"경기도 의정부시 녹양동 412-2번지 크로바프라자 201호","indutype":"회원제형태 - 학원","category":"study"}]},{"lat":"37.759234858","long":"127.03270485","imageIndex":16,"items":[{"name":"본 수학 전문학원","tel":"031-826-5020","addr":"경기도 의정부시 녹양동 381-10번지 3층 전체","indutype":"학원 - 보습학원","category":"study"},{"name":"용비합기도 해동검도","tel":"031-837-8882","addr":"경기도 의정부시 녹양동 381-10번지 2층","indutype":"학원 - 예·체능계학원","category":"study"}]},{"lat":"37.758539947","long":"127.03703952","imageIndex":16,"items":[{"name":"본투톡영어회화학원","tel":"070-7797-7774","addr":"경기도 의정부시 녹양동 83-89번지 2층","indutype":"학원 - 외국어학원","category":"study"}]},{"lat":"37.759998141","long":"127.04142062","imageIndex":16,"items":[{"name":"브이아이피(VIP)간호학원","tel":"031-871-0207","addr":"경기도 의정부시 녹양동 412-8번지 굿모닝프라자 3층 301호","indutype":"학원 - 기능학원","category":"study"}]},{"lat":"37.759541182","long":"127.03270497","imageIndex":16,"items":[{"name":"비전이레학원","tel":"031-855-5406","addr":"경기도 의정부시 녹양동 381-13번지 에벤에셀빌딩 2층","indutype":"학원 - 보습학원","category":"study"}]},{"lat":"37.755630345","long":"127.03534739","imageIndex":16,"items":[{"name":"비트켄슈타인","tel":"","addr":"경기도 의정부시 녹양동 355번지 녹양힐스테이트 111동 2004호","indutype":"학원 - 기타 교육기관","category":"study"}]},{"lat":"37.759649619","long":"127.03139997","imageIndex":16,"items":[{"name":"삼성영어 녹양캠퍼스","tel":"031-847-7834","addr":"경기도 의정부시 녹양동 382-1번지","indutype":"학원 - 보습학원","category":"study"}]},{"lat":"37.761981243","long":"127.03821","imageIndex":16,"items":[{"name":"쇼핑피아노교습소","tel":"","addr":"경기도 의정부시 녹양동 401번지 휴먼시아 상가동 1층 101호 휴먼시아 상가","indutype":"학원 - 예·체능계학원","category":"study"}]},{"lat":"37.761618172","long":"127.04626727","imageIndex":16,"items":[{"name":"스카이짐유소년스포츠클럽(녹양점)","tel":"031-796-2554","addr":"경기도 의정부시 녹양동 1-3번지","indutype":"학원 - 예·체능계학원","category":"study"}]},{"lat":"37.757071383","long":"127.03707289","imageIndex":16,"items":[{"name":"알제이(RJ)커뮤니케이션","tel":"","addr":"경기도 의정부시 녹양동 341-4번지 302호","indutype":"학원 - 기타 교육기관","category":"study"}]},{"lat":"37.756621883","long":"127.03352084","imageIndex":16,"items":[{"name":"어린음악대녹양원음악학원","tel":"031-871-2339","addr":"경기도 의정부시 녹양동 354-6번지","indutype":"학원 - 예·체능계학원","category":"study"}]},{"lat":"37.756623433","long":"127.02682567","imageIndex":16,"items":[{"name":"연세 패밀리 스포츠","tel":"031-878-2541","addr":"경기도 의정부시 녹양동 산89-15번지","indutype":"학원 - 예·체능계학원","category":"study"}]},{"lat":"37.757020943","long":"127.02066393","imageIndex":16,"items":[{"name":"옐로우 스포츠","tel":"070-7166-7189","addr":"경기도 의정부시 녹양동 315-4번지 호명산빌리지 113동 306호","indutype":"학원 - 기타 교육기관","category":"study"}]},{"lat":"37.76276514","long":"127.0379834","imageIndex":16,"items":[{"name":"윤선생우리집앞영어교실","tel":"031-878-4559","addr":"경기도 의정부시 녹양동 401번지 휴먼시아 307동 402호","indutype":"학원 - 보습학원","category":"study"}]},{"lat":"37.758677516","long":"127.0272689","imageIndex":16,"items":[{"name":"의정부시유도회관","tel":"031-855-6565","addr":"경기도 의정부시 녹양동 산80-1종합운동장내","indutype":"학원 - 예·체능계학원","category":"study"}]},{"lat":"37.758288429","long":"127.03434993","imageIndex":16,"items":[{"name":"장원독서실","tel":"031-829-0988","addr":"경기도 의정부시 녹양동 83-13번지 태경빌딩 5,6층","indutype":"학원 - 독서실","category":"study"}]},{"lat":"37.758126449","long":"127.03362359","imageIndex":16,"items":[{"name":"쟈마음악학원","tel":"031-878-0202","addr":"경기도 의정부시 녹양동 154-16번지 리더스빌딩 3층","indutype":"학원 - 예·체능계학원","category":"study"},{"name":"탑아이네트학원","tel":"031-877-5706","addr":"경기도 의정부시 녹양동 154-16번지 외2필지리더스빌딩 4층","indutype":"학원 - 보습학원","category":"study"}]},{"lat":"37.759835995","long":"127.0413411","imageIndex":16,"items":[{"name":"정스피치","tel":"031-836-8037","addr":"경기도 의정부시 녹양동 412-7번지 키움프라자 5층","indutype":"회원제형태 - 학원","category":"study"}]},{"lat":"37.75962293","long":"127.02995874","imageIndex":16,"items":[{"name":"지플러스수학교습소","tel":"031-838-7576","addr":"경기도 의정부시 녹양동 384-3번지 선경하이빌 101호","indutype":"회원제형태 - 학원","category":"study"}]},{"lat":"37.760673881","long":"127.04134153","imageIndex":16,"items":[{"name":"진연희영어학원","tel":"031-855-2011","addr":"경기도 의정부시 녹양동 412-11번지 경원빌딩 4층 401호","indutype":"학원 - 외국어학원","category":"study"}]},{"lat":"37.758926996","long":"127.03826529","imageIndex":16,"items":[{"name":"참다운학원","tel":"031-879-8566","addr":"경기도 의정부시 녹양동 83-93번지","indutype":"회원제형태 - 학원","category":"study"}]},{"lat":"37.75820749","long":"127.03379384","imageIndex":16,"items":[{"name":"토즈스터디센터 녹양점","tel":"031-871-6753","addr":"경기도 의정부시 녹양동 154-11번지 3,4층","indutype":"학원 - 독서실","category":"study"}]},{"lat":"37.759063986","long":"127.03145649","imageIndex":16,"items":[{"name":"트윈스체육교실","tel":"","addr":"경기도 의정부시 녹양동 386-17번지 B04호","indutype":"학원 - 기타 교육기관","category":"study"}]},{"lat":"37.755909987","long":"127.03406523","imageIndex":16,"items":[{"name":"포커스공부방","tel":"031-855-0503","addr":"경기도 의정부시 녹양동 355번지 녹양힐스테이트 105동 1003호","indutype":"회원제형태 - 학원","category":"study"}]},{"lat":"37.75651263","long":"127.03762867","imageIndex":16,"items":[{"name":"하늘공방미술교습소","tel":"031-825-9387","addr":"경기도 의정부시 녹양동 125-24 동원상가1층1호","indutype":"학원 - 예·체능계학원","category":"study"}]},{"lat":"37.760043229","long":"127.04129581","imageIndex":16,"items":[{"name":"한국복지 에듀","tel":"031-855-3665","addr":"경기도 의정부시 녹양동 412-9번지 성해프라자 401호","indutype":"학원 - 기타 교육기관","category":"study"}]},{"lat":"37.756549013","long":"127.03643717","imageIndex":16,"items":[{"name":"효과영어(Effect English)","tel":"","addr":"경기도 의정부시 녹양동 355번지 녹양힐스테이트 115동 801호","indutype":"학원 - 기타 교육기관","category":"study"}]}]