[{"lat":"37.351564413","long":"127.06185391","imageIndex":17,"items":[{"name":"(사)파라미타청소년연합회 용인지회","tel":"031-111-1111","addr":"경기도 용인시 수지구 고기동 213-50번지 전체","indutype":"기타 - 비영리/대상","category":"other"},{"name":"대한불교 조계종 좋은절","tel":"031-263-4360","addr":"경기도 용인시 수지구 고기동 213-50번지","indutype":"기타 - 비영리/대상","category":"other"}]},{"lat":"37.355114688","long":"127.06130363","imageIndex":17,"items":[{"name":"(주)선진렌탈","tel":"02-6340-5359","addr":"경기도 용인시 수지구 고기동 213-57번지","indutype":"기타 - 기계공구","category":"other"}]},{"lat":"37.354315935","long":"127.07216101","imageIndex":17,"items":[{"name":"SY골프","tel":"031-266-6222","addr":"경기도 용인시 수지구 고기동 44-8번지 판교 레이크 골프클럽내","indutype":"레져용품 - 골프용품 전문점","category":"other"},{"name":"갤러리 아나","tel":"031-548-2680","addr":"경기도 용인시 수지구 고기동 44-8번지 외8필지 판교레이크 골프클럽내 2층 공간 일부","indutype":"문화.취미 - 화랑","category":"other"}]},{"lat":"37.359502917","long":"127.06072007","imageIndex":17,"items":[{"name":"구름이네","tel":"031-266-1665","addr":"경기도 용인시 수지구 고기동 196-1번지","indutype":"문화.취미 - 애완동물","category":"other"},{"name":"반려동물훈련학교","tel":"031-266-4665","addr":"경기도 용인시 수지구 고기동 196-1번지 제1동호","indutype":"문화.취미 - 애완동물","category":"other"}]},{"lat":"37.353533442","long":"127.06974492","imageIndex":17,"items":[{"name":"넷스쿨(NETSCHOOL)","tel":"031-4811-5971","addr":"경기도 용인시 수지구 고기동 30-78번지","indutype":"문화.취미 - 민예·공예품","category":"other"}]},{"lat":"37.357507787","long":"127.06819079","imageIndex":17,"items":[{"name":"농업회사법인 고기리농장 주식회사","tel":"031-262-8071","addr":"경기도 용인시 수지구 고기동 132-3번지","indutype":"문화.취미 - 화원","category":"other"}]},{"lat":"37.362254964","long":"127.0519739","imageIndex":17,"items":[{"name":"디에스플로라","tel":"031-266-4874","addr":"경기도 용인시 수지구 고기동 478-5번지","indutype":"가구 - 일반가구","category":"other"}]},{"lat":"37.353201042","long":"127.06799518","imageIndex":17,"items":[{"name":"라켄하임","tel":"031-262-8075","addr":"경기도 용인시 수지구 고기동 30-137번지","indutype":"가구 - 일반가구","category":"other"}]},{"lat":"37.349757362","long":"127.07118621","imageIndex":17,"items":[{"name":"리드디자인그룹 주식회사","tel":"031-898-4800","addr":"경기도 용인시 수지구 고기동 14-37번지","indutype":"용역 서비스 - 사무서비스","category":"other"}]},{"lat":"37.358172184","long":"127.05474797","imageIndex":17,"items":[{"name":"매직캠프","tel":"070-7404-0844","addr":"경기도 용인시 수지구 고기동 214-2번지 신정","indutype":"레져용품 - 스포츠·레져용품","category":"other"}]},{"lat":"37.350368397","long":"127.07399706","imageIndex":17,"items":[{"name":"모네(Monet)","tel":"031-262-7383","addr":"경기도 용인시 수지구 고기동 10-4번지","indutype":"건축자재 - 인테리어전문","category":"other"}]},{"lat":"37.356257257","long":"127.04396737","imageIndex":17,"items":[{"name":"뮤지엄 그라운드","tel":"","addr":"경기도 용인시 수지구 고기동 400-5번지 1층","indutype":"용역 서비스 - 종합용역","category":"other"}]},{"lat":"37.361333621","long":"127.03158725","imageIndex":17,"items":[{"name":"미디어팝콘","tel":"","addr":"경기도 용인시 수지구 고기동 651-2번지","indutype":"용역 서비스 - 종합용역","category":"other"}]},{"lat":"37.368222764","long":"127.04386101","imageIndex":17,"items":[{"name":"벤스튜디오","tel":"031-265-0934","addr":"경기도 용인시 수지구 고기동 502-17번지","indutype":"광학제품 - 사진관","category":"other"},{"name":"주식회사 벤스튜디오(BENSTUDIO)","tel":"031-265-0934","addr":"경기도 용인시 수지구 고기동 502-17번지","indutype":"광학제품 - 사진관","category":"other"},{"name":"토이카메라","tel":"031-265-0934","addr":"경기도 용인시 수지구 고기동 502-17번지","indutype":"광학제품 - 사진관","category":"other"}]},{"lat":"37.349307959","long":"127.06924458","imageIndex":17,"items":[{"name":"비앙컨테템포러리(BIEN CONTEMPORARY)","tel":"","addr":"경기도 용인시 수지구 고기동 15-57번지","indutype":"문화.취미 - 화랑","category":"other"}]},{"lat":"37.355426055","long":"127.06888878","imageIndex":17,"items":[{"name":"산호상회","tel":"","addr":"경기도 용인시 수지구 고기동 32-1번지","indutype":"문화.취미 - 수족관","category":"other"}]},{"lat":"37.355140274","long":"127.06415927","imageIndex":17,"items":[{"name":"세라미공방","tel":"","addr":"경기도 용인시 수지구 고기동 158-22번지","indutype":"문화.취미 - 문화취미기타","category":"other"}]},{"lat":"37.359009113","long":"127.03113486","imageIndex":17,"items":[{"name":"소스코(Sanha Outdoor System)","tel":"031-263-2463","addr":"경기도 용인시 수지구 고기동 645-7","indutype":"건축자재 - 조명기구","category":"other"}]},{"lat":"37.358834519","long":"127.04291903","imageIndex":17,"items":[{"name":"수우드 목공방","tel":"031-262-9028","addr":"경기도 용인시 수지구 고기동 425-1번지","indutype":"가구 - 일반가구","category":"other"}]},{"lat":"37.355814821","long":"127.04658575","imageIndex":17,"items":[{"name":"슈앤트리","tel":"070-4095-0217","addr":"경기도 용인시 수지구 고기동 259-129번지","indutype":"문화.취미 - 애완동물","category":"other"}]},{"lat":"37.350369502","long":"127.07213482","imageIndex":17,"items":[{"name":"씨엔티교역/원격지","tel":"031-262-7781","addr":"경기도 용인시 수지구 고기동 14-8번지","indutype":"기타 - 기타 전문점","category":"other"}]},{"lat":"37.358697676","long":"127.06718723","imageIndex":17,"items":[{"name":"씨유수지고기프리미엄점","tel":"080-080-3663","addr":"경기도 용인시 수지구 고기동 109-2번지","indutype":"유통업 영리 - 편 의 점","category":"other"}]},{"lat":"37.359925651","long":"127.06222166","imageIndex":17,"items":[{"name":"에이알(AR)의류잡화","tel":"031-262-1539","addr":"경기도 용인시 수지구 고기동 184-2번지 1층","indutype":"의류 - 정장","category":"other"}]},{"lat":"37.359672691","long":"127.06355341","imageIndex":17,"items":[{"name":"엘제이","tel":"070-4649-1102","addr":"경기도 용인시 수지구 고기동 185-2번지","indutype":"의류 - 정장","category":"other"}]},{"lat":"37.358168427","long":"127.04092079","imageIndex":17,"items":[{"name":"엘테크","tel":"031-262-7191","addr":"경기도 용인시 수지구 고기동 612-2번지","indutype":"전기제품 - 기타전기제품","category":"other"}]},{"lat":"37.359176152","long":"127.06543805","imageIndex":17,"items":[{"name":"예쁜옷집","tel":"031-261-0459","addr":"경기도 용인시 수지구 고기동 173-4번지","indutype":"회원제형태 - 기타4","category":"other"},{"name":"포근한집","tel":"031-334-1190","addr":"경기도 용인시 수지구 고기동 173-4번지 1층3호일부분","indutype":"직물 - 침구·수예점","category":"other"}]},{"lat":"37.351478967","long":"127.07002526","imageIndex":17,"items":[{"name":"올드레이디(바인스)앤틱","tel":"031-713-7010","addr":"경기도 용인시 수지구 고기동 17-8번지","indutype":"건축자재 - 인테리어전문","category":"other"}]},{"lat":"37.355948021","long":"127.05158603","imageIndex":17,"items":[{"name":"원강우주지구박물관","tel":"031-262-8111","addr":"경기도 용인시 수지구 고기동 255번지","indutype":"문화.취미 - 문화취미기타","category":"other"}]},{"lat":"37.368529186","long":"127.04363539","imageIndex":17,"items":[{"name":"위즈아이","tel":"070-4254-1146","addr":"경기도 용인시 수지구 고기동 502번지","indutype":"건축자재 - 인테리어전문","category":"other"}]},{"lat":"37.359257404","long":"127.06513335","imageIndex":17,"items":[{"name":"윤퍼피 하우스","tel":"031-898-1666","addr":"경기도 용인시 수지구 고기동 174-3번지 104호","indutype":"문화.취미 - 애완동물","category":"other"}]},{"lat":"37.356615003","long":"127.0510221","imageIndex":17,"items":[{"name":"이안바베큐장","tel":"031-000-0000","addr":"경기도 용인시 수지구 고기동 241번지","indutype":"신변잡화 - 기타잡화","category":"other"}]},{"lat":"37.351812202","long":"127.07027386","imageIndex":17,"items":[{"name":"자작마을","tel":"070-4274-3384","addr":"경기도 용인시 수지구 고기동 18","indutype":"가구 - 일반가구","category":"other"}]},{"lat":"37.356435517","long":"127.06830273","imageIndex":17,"items":[{"name":"자평원","tel":"031-0000-0000","addr":"경기도 용인시 수지구 고기동 125-2번지 에코리움 가동 2층 202호","indutype":"광학제품 - 사진관","category":"other"}]},{"lat":"37.359640048","long":"127.05652115","imageIndex":17,"items":[{"name":"작은북유럽","tel":"031-000-0000","addr":"경기도 용인시 수지구 고기동 217번지","indutype":"가구 - 기타가구","category":"other"}]},{"lat":"37.35145096","long":"127.053942","imageIndex":17,"items":[{"name":"제나","tel":"031-781-7626","addr":"경기도 용인시 수지구 고기동 339-2번지","indutype":"의류 - 정장","category":"other"}]},{"lat":"37.364895916","long":"127.0495486","imageIndex":17,"items":[{"name":"주식회사 고블링","tel":"031-306-1671","addr":"경기도 용인시 수지구 고기동 489-22번지 1층 104호","indutype":"서적문구 - 완구점","category":"other"}]},{"lat":"37.359863378","long":"127.06060747","imageIndex":17,"items":[{"name":"주식회사 한신디엠","tel":"","addr":"경기도 용인시 수지구 고기동 196-4번지","indutype":"건축자재 - 부동산 분양","category":"other"}]},{"lat":"37.351370317","long":"127.05289231","imageIndex":17,"items":[{"name":"주식회사 힐포인트","tel":"070-7761-4882","addr":"경기도 용인시 수지구 고기동 346-1번지","indutype":"레져용품 - 스포츠·레져용품","category":"other"}]},{"lat":"37.347475412","long":"127.07519063","imageIndex":17,"items":[{"name":"준 하우징","tel":"031-258-7766","addr":"경기도 용인시 수지구 고기동 2-12번지","indutype":"건축자재 - 인테리어전문","category":"other"}]},{"lat":"37.356147329","long":"127.06805416","imageIndex":17,"items":[{"name":"지승민 Pottery","tel":"02-794-0128","addr":"경기도 용인시 수지구 고기동 124번지","indutype":"주방용구 - 주방용식기","category":"other"}]},{"lat":"37.353229205","long":"127.0457716","imageIndex":17,"items":[{"name":"쭈구리옷집","tel":"031-111-1111","addr":"경기도 용인시 수지구 고기동 372번지","indutype":"의류 - 정장","category":"other"}]},{"lat":"37.355645916","long":"127.06204899","imageIndex":17,"items":[{"name":"코나스(KSUYEON)","tel":"","addr":"경기도 용인시 수지구 고기동 213-70번지","indutype":"주방용구 - 정수기","category":"other"}]},{"lat":"37.363561745","long":"127.05121844","imageIndex":17,"items":[{"name":"쿨(KUL)","tel":"070-7799-3022","addr":"경기도 용인시 수지구 고기동 477번지","indutype":"용역 서비스 - 사무서비스","category":"other"}]},{"lat":"37.370027351","long":"127.0356434","imageIndex":17,"items":[{"name":"키움애견스쿨","tel":"031-262-0922","addr":"경기도 용인시 수지구 고기동 519-1번지","indutype":"문화.취미 - 애완동물","category":"other"}]},{"lat":"37.359917577","long":"127.06032532","imageIndex":17,"items":[{"name":"팜카밀레","tel":"031-265-3705","addr":"경기도 용인시 수지구 고기동 196-3번지","indutype":"신변잡화 - 기타잡화","category":"other"},{"name":"팜카밀레가든인허브","tel":"031-265-3705","addr":"경기도 용인시 수지구 고기동 196-3번지","indutype":"신변잡화 - 기타잡화","category":"other"}]},{"lat":"37.358839225","long":"127.05408246","imageIndex":17,"items":[{"name":"플라워14","tel":"031-276-9544","addr":"경기도 용인시 수지구 고기동 215번지 고기리노인회관","indutype":"문화.취미 - 화원","category":"other"}]},{"lat":"37.35839423","long":"127.06161093","imageIndex":17,"items":[{"name":"향풍화원","tel":"031-263-0898","addr":"경기도 용인시 수지구 고기동 204-4번지","indutype":"문화.취미 - 화원","category":"other"}]},{"lat":"37.353370977","long":"127.0702414","imageIndex":17,"items":[{"name":"홈씨앤에스","tel":"","addr":"경기도 용인시 수지구 고기동 40-19번지","indutype":"용역 서비스 - 기타용역서비스","category":"other"}]},{"lat":"37.35158668","long":"127.05261029","imageIndex":17,"items":[{"name":"힐포인트키친","tel":"","addr":"경기도 용인시 수지구 고기동 346번지 외4필지","indutype":"레져용품 - 스포츠·레져용품","category":"other"}]}]