[{"lat":"37.688513521","long":"126.86472487","imageIndex":17,"items":[{"name":"(신)남경","tel":"031-969-2325","addr":"경기도 고양시 덕양구 관산동 228-3번지","indutype":"","category":"other"},{"name":"남경","tel":"031-969-2325","addr":"경기도 고양시 덕양구 관산동 228-3번지","indutype":"","category":"other"},{"name":"먹거리마실거리","tel":"031-963-5950","addr":"경기도 고양시 덕양구 관산동 228-3번지","indutype":"","category":"other"},{"name":"벽화침구","tel":"031-962-8201","addr":"경기도 고양시 덕양구 관산동 228-3번지","indutype":"직물 - 옷감·직물","category":"other"},{"name":"벽화침구","tel":"031-962-8201","addr":"경기도 고양시 덕양구 관산동 228-3번지","indutype":"","category":"other"}]},{"lat":"37.712709466","long":"126.86144776","imageIndex":17,"items":[{"name":"(주)나인플러스","tel":"031-965-2024","addr":"경기도 고양시 덕양구 관산동 574-1번지","indutype":"용역 서비스 - 보관및 창고업","category":"other"}]},{"lat":"37.710983836","long":"126.85750445","imageIndex":17,"items":[{"name":"(주)내셔널오렌지","tel":"031-963-4241","addr":"경기도 고양시 덕양구 관산동 665-1번지","indutype":"","category":"other"},{"name":"(주)내셔널오렌지","tel":"031-963-4241","addr":"경기도 고양시 덕양구 관산동 665-1번지","indutype":"용역 서비스 - 종합용역","category":"other"}]},{"lat":"37.711655019","long":"126.86117758","imageIndex":17,"items":[{"name":"(주)런라이트코리아","tel":"031-902-6688","addr":"경기도 고양시 덕양구 관산동 576-3번지","indutype":"","category":"other"},{"name":"(주)런라이트코리아","tel":"031-902-6688","addr":"경기도 고양시 덕양구 관산동 576-3번지","indutype":"건축자재 - 조명기구","category":"other"},{"name":"다원테크","tel":"031-962-2606","addr":"경기도 고양시 덕양구 관산동 576-3번지","indutype":"","category":"other"},{"name":"다원테크","tel":"031-962-2606","addr":"경기도 고양시 덕양구 관산동 576-3번지","indutype":"가구 - 기타가구","category":"other"},{"name":"주식회사 아이엔지나라","tel":"080-8807-6119","addr":"경기도 고양시 덕양구 관산동 576-3번지","indutype":"","category":"other"},{"name":"주식회사 아이엔지나라","tel":"080-8807-6119","addr":"경기도 고양시 덕양구 관산동 576-3번지","indutype":"주방용구 - 주방용구","category":"other"}]},{"lat":"37.712932666","long":"126.85975751","imageIndex":17,"items":[{"name":"(주)브루원","tel":"031-967-7138","addr":"경기도 고양시 덕양구 관산동 574-13번지","indutype":"","category":"other"},{"name":"도깨비중고","tel":"","addr":"경기도 고양시 덕양구 관산동 574-13번지","indutype":"","category":"other"},{"name":"성원이엔지(ENG)","tel":"031-963-5224","addr":"경기도 고양시 덕양구 관산동 574-13번지","indutype":"건축자재 - 기타건축자재","category":"other"},{"name":"성원이엔지(ENG)","tel":"031-963-5224","addr":"경기도 고양시 덕양구 관산동 574-13번지","indutype":"","category":"other"},{"name":"한마음중고가전","tel":"070-8108-9899","addr":"경기도 고양시 덕양구 관산동 574-13번지","indutype":"","category":"other"},{"name":"한마음중고가전","tel":"070-8108-9899","addr":"경기도 고양시 덕양구 관산동 574-13번지","indutype":"전기제품 - 가전제품","category":"other"}]},{"lat":"37.687710332","long":"126.86359263","imageIndex":17,"items":[{"name":"(주)양평돔벨리","tel":"031-775-3314","addr":"경기도 고양시 덕양구 관산동 235-3번지","indutype":"","category":"other"},{"name":"(주)양평돔벨리","tel":"031-775-3314","addr":"경기도 고양시 덕양구 관산동 235-3번지","indutype":"건축자재 - 부동산 분양","category":"other"},{"name":"w2rm한방","tel":"","addr":"경기도 고양시 덕양구 관산동 235-3번지","indutype":"","category":"other"},{"name":"거부정","tel":"031-963-6732","addr":"경기도 고양시 덕양구 관산동 235-3번지","indutype":"","category":"other"},{"name":"마실","tel":"031-963-2280","addr":"경기도 고양시 덕양구 관산동 235-3번지","indutype":"","category":"other"},{"name":"스타그다방","tel":"031-964-2230","addr":"경기도 고양시 덕양구 관산동 235-3번지","indutype":"","category":"other"},{"name":"정미용실","tel":"031-963-7423","addr":"경기도 고양시 덕양구 관산동 235-3번지","indutype":"","category":"other"},{"name":"주연테크컴퓨터(관산점)","tel":"031-962-3345","addr":"경기도 고양시 덕양구 관산동 235-3번지","indutype":"","category":"other"},{"name":"하민텔레콤","tel":"031-962-5922","addr":"경기도 고양시 덕양구 관산동 235-3번지","indutype":"","category":"other"},{"name":"하민텔레콤","tel":"031-962-5922","addr":"경기도 고양시 덕양구 관산동 235-3번지","indutype":"사무통신 - 통신기기","category":"other"},{"name":"혜인정보통신","tel":"031-964-6015","addr":"경기도 고양시 덕양구 관산동 235-3번지","indutype":"","category":"other"},{"name":"혜인정보통신","tel":"031-964-6015","addr":"경기도 고양시 덕양구 관산동 235-3번지","indutype":"사무통신 - 통신기기","category":"other"},{"name":"혜인정보통신","tel":"031-964-6015","addr":"경기도 고양시 덕양구 관산동 235-3번지","indutype":"","category":"other"}]},{"lat":"37.689906226","long":"126.85420102","imageIndex":17,"items":[{"name":"(주)쥬쥬컨설팅","tel":"031-962-4500","addr":"경기도 고양시 덕양구 관산동 290번지","indutype":"","category":"other"},{"name":"(주)쥬쥬컨설팅","tel":"031-962-4500","addr":"경기도 고양시 덕양구 관산동","indutype":"용역 서비스 - 종합용역","category":"other"}]},{"lat":"37.706067544","long":"126.85991814","imageIndex":17,"items":[{"name":"(주)핸즈","tel":"02-387-4800","addr":"경기도 고양시 덕양구 관산동 542-2번지","indutype":"건축자재 - 보일러·펌프·샷시","category":"other"},{"name":"(주)핸즈","tel":"02-387-4800","addr":"경기도 고양시 덕양구 관산동 542-2번지","indutype":"","category":"other"}]},{"lat":"37.690901983","long":"126.86550274","imageIndex":17,"items":[{"name":"119운동화빨래방","tel":"031-968-4991","addr":"경기도 고양시 덕양구 관산동 1009번지","indutype":"","category":"other"},{"name":"W커뮤니케이션 관산점","tel":"031-962-6552","addr":"경기도 고양시 덕양구 관산동 1009번지","indutype":"","category":"other"},{"name":"관산뮤엠영어교습소","tel":"031-962-6155","addr":"경기도 고양시 덕양구 관산동 1009번지","indutype":"","category":"other"},{"name":"관산뮤엠영어교습소","tel":"031-962-6154","addr":"경기도 고양시 덕양구 관산동 1009번지","indutype":"","category":"other"},{"name":"로덴음악학원","tel":"031-964-2165","addr":"경기도 고양시 덕양구 관산동 1009번지","indutype":"","category":"other"},{"name":"로덴피아노교습소","tel":"031-964-2165","addr":"경기도 고양시 덕양구 관산동 1009번지","indutype":"","category":"other"},{"name":"바비헤어클리닉","tel":"070-8156-3087","addr":"경기도 고양시 덕양구 관산동 1009번지","indutype":"","category":"other"},{"name":"알레프헤어","tel":"031-964-6477","addr":"경기도 고양시 덕양구 관산동 1009번지","indutype":"","category":"other"},{"name":"우리분식","tel":"031-962-2534","addr":"경기도 고양시 덕양구 관산동 1009번지","indutype":"","category":"other"},{"name":"페리카나치킨 관산점","tel":"031-963-2740","addr":"경기도 고양시 덕양구 관산동 1009번지","indutype":"","category":"other"},{"name":"피씨벨리","tel":"031-964-3119","addr":"경기도 고양시 덕양구 관산동 1009번지","indutype":"","category":"other"},{"name":"한솔플러스관산수학교습소","tel":"031-965-0945","addr":"경기도 고양시 덕양구 관산동 1009번지","indutype":"","category":"other"}]},{"lat":"37.687907953","long":"126.86309342","imageIndex":17,"items":[{"name":"1박2일PC방","tel":"070-7684-3525","addr":"경기도 고양시 덕양구 관산동 236-1번지","indutype":"","category":"other"},{"name":"Y&CAR","tel":"031-964-5551","addr":"경기도 고양시 덕양구 관산동 236-1번지","indutype":"","category":"other"},{"name":"김귀자미용실","tel":"031-964-5743","addr":"경기도 고양시 덕양구 관산동 236-1번지","indutype":"","category":"other"},{"name":"디자인눈","tel":"031-963-4230","addr":"경기도 고양시 덕양구 관산동 236-1번지","indutype":"","category":"other"},{"name":"디자인눈","tel":"031-963-4230","addr":"경기도 고양시 덕양구 관산동 236-1번지","indutype":"용역 서비스 - 종합용역","category":"other"},{"name":"쁘띠끄송","tel":"031-962-8887","addr":"경기도 고양시 덕양구 관산동 236-1번지","indutype":"","category":"other"},{"name":"산촌식당","tel":"031-962-9580","addr":"경기도 고양시 덕양구 관산동 236-1번지","indutype":"","category":"other"},{"name":"소문난집밥","tel":"031-962-7207","addr":"경기도 고양시 덕양구 관산동 236-1번지","indutype":"","category":"other"},{"name":"예일상사","tel":"031-962-9580","addr":"경기도 고양시 덕양구 관산동 236-1번지","indutype":"","category":"other"}]},{"lat":"37.687296771","long":"126.86434166","imageIndex":17,"items":[{"name":"21세기축산물백화점","tel":"031-963-9955","addr":"경기도 고양시 덕양구 관산동 226-1번지","indutype":"","category":"other"},{"name":"궁 노래연습장","tel":"031-969-6780","addr":"경기도 고양시 덕양구 관산동 226-1번지","indutype":"","category":"other"},{"name":"궁노래연습장","tel":"031-969-6780","addr":"경기도 고양시 덕양구 관산동 226-1번지","indutype":"","category":"other"},{"name":"동원문구","tel":"031-962-5181","addr":"경기도 고양시 덕양구 관산동 226-1번지","indutype":"서적문구 - 문구용품","category":"other"},{"name":"동원문구","tel":"031-962-5181","addr":"경기도 고양시 덕양구 관산동 226-1번지","indutype":"","category":"other"},{"name":"벽제화장품","tel":"031-964-2159","addr":"경기도 고양시 덕양구 관산동 226-1번지","indutype":"","category":"other"},{"name":"에쿠스호프","tel":"031-969-6780","addr":"경기도 고양시 덕양구 관산동 226-1번지","indutype":"","category":"other"},{"name":"에쿠스호프","tel":"031-969-6780","addr":"경기도 고양시 덕양구 관산동 226-1번지","indutype":"","category":"other"},{"name":"열린의원","tel":"031-963-3223","addr":"경기도 고양시 덕양구 관산동 226-1번지","indutype":"","category":"other"},{"name":"열린의원","tel":"031-963-3223","addr":"경기도 고양시 덕양구 관산동 226-1번지","indutype":"","category":"other"},{"name":"우정파전","tel":"031-926-3471","addr":"경기도 고양시 덕양구 관산동 226-1번지","indutype":"","category":"other"},{"name":"정 인테리어","tel":"031-964-0403","addr":"경기도 고양시 덕양구 관산동 226-1번지","indutype":"건축자재 - 인테리어전문","category":"other"},{"name":"정 인테리어","tel":"031-964-0403","addr":"경기도 고양시 덕양구 관산동 226-1번지","indutype":"","category":"other"},{"name":"진순대국","tel":"031-962-6976","addr":"경기도 고양시 덕양구 관산동 226-1번지","indutype":"","category":"other"},{"name":"착한빵집","tel":"031-962-8887","addr":"경기도 고양시 덕양구 관산동 226-1번지","indutype":"","category":"other"},{"name":"푸른온누리약국","tel":"031-963-3030","addr":"경기도 고양시 덕양구 관산동 226-1번지","indutype":"","category":"other"},{"name":"혜인치과의원","tel":"031-963-2433","addr":"경기도 고양시 덕양구 관산동 226-1번지","indutype":"","category":"other"}]},{"lat":"37.688630061","long":"126.86422581","imageIndex":17,"items":[{"name":"613해법보습학원","tel":"031-962-4582","addr":"경기도 고양시 덕양구 관산동 231-4번지","indutype":"","category":"other"},{"name":"BHC치킨","tel":"031-841-9922","addr":"경기도 고양시 덕양구 관산동 231-4번지","indutype":"","category":"other"},{"name":"가정식백반","tel":"02-388-5885","addr":"경기도 고양시 덕양구 관산동 231-4번지","indutype":"","category":"other"},{"name":"걸스카우트 경기북부수품보급소","tel":"031-962-1649","addr":"경기도 고양시 덕양구 관산동 231-4번지","indutype":"의류 - 단체복","category":"other"},{"name":"걸스카우트 경기북부수품보급소","tel":"031-962-1649","addr":"경기도 고양시 덕양구 관산동 231-4번지","indutype":"","category":"other"},{"name":"금촌뼈다귀감자탕","tel":"","addr":"경기도 고양시 덕양구 관산동 231-4번지","indutype":"","category":"other"},{"name":"네네치킨","tel":"031-969-2225","addr":"경기도 고양시 덕양구 관산동 231-4번지","indutype":"","category":"other"},{"name":"대가떡집","tel":"031-964-1660","addr":"경기도 고양시 덕양구 관산동 231-4번지","indutype":"","category":"other"},{"name":"보글보글","tel":"031-962-5537","addr":"경기도 고양시 덕양구 관산동 231-4번지","indutype":"","category":"other"},{"name":"보글보글","tel":"031-966-3476","addr":"경기도 고양시 덕양구 관산동 231-4번지","indutype":"","category":"other"},{"name":"비에이치씨치킨","tel":"031-814-9922","addr":"경기도 고양시 덕양구 관산동 231-4번지","indutype":"","category":"other"},{"name":"비엔비헤어","tel":"031-968-8925","addr":"경기도 고양시 덕양구 관산동 231-4번지","indutype":"","category":"other"},{"name":"뽀글뽀글","tel":"","addr":"경기도 고양시 덕양구 관산동 231-4번지","indutype":"","category":"other"},{"name":"사랑채의료기","tel":"031-962-9922","addr":"경기도 고양시 덕양구 관산동 231-4번지","indutype":"","category":"other"},{"name":"오르비스관산학원","tel":"031-969-4276","addr":"경기도 고양시 덕양구 관산동 231-4번지","indutype":"","category":"other"},{"name":"우리텔레콤관산점","tel":"031-963-5010","addr":"경기도 고양시 덕양구 관산동 231-4번지","indutype":"","category":"other"},{"name":"위풍당당 막창대장","tel":"","addr":"경기도 고양시 덕양구 관산동 231-4번지","indutype":"","category":"other"},{"name":"은하수산","tel":"070-6253-3253","addr":"경기도 고양시 덕양구 관산동 231-4번지","indutype":"","category":"other"},{"name":"종로김밥","tel":"031-962-1123","addr":"경기도 고양시 덕양구 관산동 231-4번지","indutype":"","category":"other"},{"name":"파리비엔남","tel":"02-854-8255","addr":"경기도 고양시 덕양구 관산동 231-4번지","indutype":"","category":"other"},{"name":"프로당구클럽","tel":"031-962-2194","addr":"경기도 고양시 덕양구 관산동 231-4번지","indutype":"","category":"other"},{"name":"해동검도영웅관","tel":"031-962-4574","addr":"경기도 고양시 덕양구 관산동 231-4번지","indutype":"","category":"other"},{"name":"행복한국수","tel":"031-966-7366","addr":"경기도 고양시 덕양구 관산동 231-4번지","indutype":"","category":"other"}]},{"lat":"37.688657675","long":"126.8647246","imageIndex":17,"items":[{"name":"69대통령","tel":"031-964-6992","addr":"경기도 고양시 덕양구 관산동 228-1번지","indutype":"","category":"other"},{"name":"69대통령","tel":"031-964-6992","addr":"경기도 고양시 덕양구 관산동 228-1번지","indutype":"","category":"other"},{"name":"GS25관산드림점","tel":"","addr":"경기도 고양시 덕양구 관산동 228-1번지","indutype":"유통업 영리 - 편 의 점","category":"other"}]},{"lat":"37.709071073","long":"126.85530813","imageIndex":17,"items":[{"name":"79 (칠구)","tel":"070-8118-9201","addr":"경기도 고양시 덕양구 관산동 672-4번지","indutype":"","category":"other"},{"name":"로데미용실","tel":"031-969-9991","addr":"경기도 고양시 덕양구 관산동 672-4번지","indutype":"","category":"other"},{"name":"빨래터","tel":"031-964-1170","addr":"경기도 고양시 덕양구 관산동 672-4번지","indutype":"","category":"other"},{"name":"빨래터","tel":"031-964-1170","addr":"경기도 고양시 덕양구 관산동 672-4번지","indutype":"수리서비스 - 세탁소","category":"other"},{"name":"우리종합카센타","tel":"031-976-9258","addr":"경기도 고양시 덕양구 관산동 672-4번지","indutype":"","category":"other"},{"name":"위드미 고양관산점","tel":"","addr":"경기도 고양시 덕양구 관산동 672-4번지","indutype":"","category":"other"},{"name":"위드미 고양관산점","tel":"","addr":"경기도 고양시 덕양구 관산동 672-4번지","indutype":"유통업 영리 - 편 의 점","category":"other"},{"name":"위드미고양관산점","tel":"02-6916-1500","addr":"경기도 고양시 덕양구 관산동 672-4번지","indutype":"","category":"other"},{"name":"주가리막곱창부속구이","tel":"031-964-5640","addr":"경기도 고양시 덕양구 관산동 672-4번지","indutype":"","category":"other"}]},{"lat":"37.6889644","long":"126.86506415","imageIndex":17,"items":[{"name":"Adamo Coffee","tel":"031-964-1134","addr":"경기도 고양시 덕양구 관산동 112-41번지","indutype":"","category":"other"},{"name":"관산한양발레학원","tel":"031-969-9935","addr":"경기도 고양시 덕양구 관산동 112-41번지","indutype":"","category":"other"},{"name":"리치헤어","tel":"031-964-8686","addr":"경기도 고양시 덕양구 관산동 112-41번지","indutype":"","category":"other"},{"name":"미인","tel":"070-4319-2084","addr":"경기도 고양시 덕양구 관산동 112-41번지","indutype":"","category":"other"},{"name":"소나무칼국수","tel":"031-969-4119","addr":"경기도 고양시 덕양구 관산동 112-41번지","indutype":"","category":"other"},{"name":"쎄븐","tel":"031-815-1236","addr":"경기도 고양시 덕양구 관산동 112-41번지","indutype":"","category":"other"},{"name":"이쌤학원","tel":"070-7609-9332","addr":"경기도 고양시 덕양구 관산동 112-41번지","indutype":"","category":"other"},{"name":"이진선헤어샵#","tel":"031-964-8686","addr":"경기도 고양시 덕양구 관산동 112-41번지","indutype":"","category":"other"},{"name":"준","tel":"070-7652-8110","addr":"경기도 고양시 덕양구 관산동 112-41번지","indutype":"","category":"other"},{"name":"준","tel":"031-964-0827","addr":"경기도 고양시 덕양구 관산동 112-41번지","indutype":"","category":"other"},{"name":"치먹데이","tel":"031-964-9915","addr":"경기도 고양시 덕양구 관산동 112-41번지","indutype":"","category":"other"}]},{"lat":"37.687099952","long":"126.86553243","imageIndex":17,"items":[{"name":"CKT(씨케이티)","tel":"031-962-8997","addr":"경기도 고양시 덕양구 관산동 188-1번지","indutype":"","category":"other"},{"name":"S2Jewelry(쥬얼리)","tel":"031-962-4241","addr":"경기도 고양시 덕양구 관산동 188-1번지","indutype":"","category":"other"},{"name":"경일사","tel":"031-962-8973","addr":"경기도 고양시 덕양구 관산동 188-1번지","indutype":"","category":"other"},{"name":"금은보석","tel":"","addr":"경기도 고양시 덕양구 관산동 188-1번지","indutype":"","category":"other"},{"name":"금은보석","tel":"02-111-1111","addr":"경기도 고양시 덕양구 관산동 188-1번지","indutype":"신변잡화 - 귀금속","category":"other"},{"name":"김밥천국","tel":"031-963-5566","addr":"경기도 고양시 덕양구 관산동 188-1번지","indutype":"","category":"other"},{"name":"더시오헤어살롱","tel":"","addr":"경기도 고양시 덕양구 관산동 188-1번지","indutype":"","category":"other"},{"name":"바버독","tel":"031-966-4021","addr":"경기도 고양시 덕양구 관산동 188-1번지","indutype":"","category":"other"},{"name":"바버독","tel":"031-966-4021","addr":"경기도 고양시 덕양구 관산동 188-1번지","indutype":"문화.취미 - 애완동물","category":"other"},{"name":"백송왕만두","tel":"031-962-2020","addr":"경기도 고양시 덕양구 관산동 188-1번지","indutype":"","category":"other"},{"name":"본죽관산점","tel":"031-962-6279","addr":"경기도 고양시 덕양구 관산동 188-1번지","indutype":"","category":"other"},{"name":"비어타운","tel":"031-964-1641","addr":"경기도 고양시 덕양구 관산동 188-1번지","indutype":"","category":"other"},{"name":"사계절","tel":"031-962-8946","addr":"경기도 고양시 덕양구 관산동 188-1번지","indutype":"","category":"other"},{"name":"아트안경관산점","tel":"031-963-2530","addr":"경기도 고양시 덕양구 관산동 188-1번지","indutype":"","category":"other"},{"name":"우동돈가스","tel":"031-963-5566","addr":"경기도 고양시 덕양구 관산동 188-1번지","indutype":"","category":"other"},{"name":"쥬씨","tel":"070-4115-1028","addr":"경기도 고양시 덕양구 관산동 188-1번지","indutype":"","category":"other"},{"name":"지리산흑돼지","tel":"031-963-4544","addr":"경기도 고양시 덕양구 관산동 188-1번지","indutype":"","category":"other"},{"name":"청춘뼈다귀감자탕","tel":"","addr":"경기도 고양시 덕양구 관산동 188-1번지","indutype":"","category":"other"},{"name":"한울COMPANY","tel":"031-967-1116","addr":"경기도 고양시 덕양구 관산동 188-1번지","indutype":"","category":"other"}]},{"lat":"37.704982992","long":"126.85714195","imageIndex":17,"items":[{"name":"D.C마트","tel":"031-982-5419","addr":"경기도 고양시 덕양구 관산동 690-10번지","indutype":"","category":"other"},{"name":"거성도장","tel":"031-963-7130","addr":"경기도 고양시 덕양구 관산동 690-10번지","indutype":"","category":"other"},{"name":"그녀들의비밀스캔앤바디","tel":"031-962-9538","addr":"경기도 고양시 덕양구 관산동 690-10번지","indutype":"","category":"other"},{"name":"녹보옛날통닭","tel":"031-966-4331","addr":"경기도 고양시 덕양구 관산동 690-10번지","indutype":"","category":"other"},{"name":"벽제타이어","tel":"031-962-8640","addr":"경기도 고양시 덕양구 관산동 690-10번지","indutype":"","category":"other"},{"name":"원'S 뷰티","tel":"031-962-9538","addr":"경기도 고양시 덕양구 관산동 690-10번지","indutype":"","category":"other"},{"name":"이병장푸드","tel":"031-966-7479","addr":"경기도 고양시 덕양구 관산동 690-10번지","indutype":"","category":"other"},{"name":"타이어시티","tel":"031-975-9516","addr":"경기도 고양시 덕양구 관산동 690-10번지","indutype":"","category":"other"}]},{"lat":"37.687767243","long":"126.86603003","imageIndex":17,"items":[{"name":"Diana's(다이아나)","tel":"070-8800-3243","addr":"경기도 고양시 덕양구 관산동 1015번지 더퍼스트프라임","indutype":"","category":"other"},{"name":"감자는우리가지킨다(관산점)","tel":"031-964-0855","addr":"경기도 고양시 덕양구 관산동 1015번지 더퍼스트프라임","indutype":"","category":"other"},{"name":"공간예술","tel":"031-962-8824","addr":"경기도 고양시 덕양구 관산동 1015번지 더퍼스트프라임","indutype":"","category":"other"},{"name":"관산원어민해법중국어교습소","tel":"031-963-1698","addr":"경기도 고양시 덕양구 관산동 1015번지 더퍼스트프라임","indutype":"","category":"other"},{"name":"나실약국","tel":"031-968-8696","addr":"경기도 고양시 덕양구 관산동 1015번지 더퍼스트프라임","indutype":"","category":"other"},{"name":"돈파티","tel":"031-816-1588","addr":"경기도 고양시 덕양구 관산동 1015번지 더퍼스트프라임","indutype":"","category":"other"},{"name":"라라케이크","tel":"031-963-9005","addr":"경기도 고양시 덕양구 관산동 1015번지 더퍼스트프라임","indutype":"문화.취미 - 문화취미기타","category":"other"},{"name":"라라케이크","tel":"031-963-9005","addr":"경기도 고양시 덕양구 관산동 1015번지 더퍼스트프라임","indutype":"","category":"other"},{"name":"라온기획","tel":"","addr":"경기도 고양시 덕양구 관산동 1015번지 더퍼스트프라임","indutype":"서적문구 - 출판 및 인쇄물","category":"other"},{"name":"라온기획","tel":"","addr":"경기도 고양시 덕양구 관산동 1015번지 더퍼스트프라임","indutype":"","category":"other"},{"name":"맘스터치관산점","tel":"031-963-9005","addr":"경기도 고양시 덕양구 관산동 1015번지 더퍼스트프라임","indutype":"","category":"other"},{"name":"매니아안경","tel":"031-963-9959","addr":"경기도 고양시 덕양구 관산동 1015번지 더퍼스트프라임","indutype":"","category":"other"},{"name":"매니아안경","tel":"031-963-9959","addr":"경기도 고양시 덕양구 관산동 1015번지 더퍼스트프라임","indutype":"","category":"other"},{"name":"복음 메디 의료기","tel":"031-966-0400","addr":"경기도 고양시 덕양구 관산동 1015번지 더퍼스트프라임","indutype":"","category":"other"},{"name":"복음의료기(관산점)","tel":"031-966-0400","addr":"경기도 고양시 덕양구 관산동 1015번지 더퍼스트프라임","indutype":"","category":"other"},{"name":"불떡볶이 (관산점)","tel":"031-966-2253","addr":"경기도 고양시 덕양구 관산동 1015번지 더퍼스트프라임","indutype":"","category":"other"},{"name":"블루스크린골프","tel":"031-969-7553","addr":"경기도 고양시 덕양구 관산동 1015번지 더퍼스트프라임","indutype":"회원제형태 - 레져업소","category":"other"},{"name":"블루스크린골프","tel":"031-969-7553","addr":"경기도 고양시 덕양구 관산동 1015번지 더퍼스트프라임","indutype":"","category":"other"},{"name":"뿌리사랑치과","tel":"031-963-2291","addr":"경기도 고양시 덕양구 관산동 1015번지 더퍼스트프라임","indutype":"","category":"other"},{"name":"살롱드에스에이 (Salon de SA)","tel":"070-4046-6843","addr":"경기도 고양시 덕양구 관산동 1015번지 더퍼스트프라임","indutype":"","category":"other"},{"name":"씨엘에프","tel":"","addr":"경기도 고양시 덕양구 관산동 1015번지 더퍼스트프라임","indutype":"","category":"other"},{"name":"씨유고양관산점","tel":"031-969-9658","addr":"경기도 고양시 덕양구 관산동 1015번지 더퍼스트프라임","indutype":"","category":"other"},{"name":"씨유고양관산점","tel":"031-969-9658","addr":"경기도 고양시 덕양구 관산동 1015번지 더퍼스트프라임","indutype":"유통업 영리 - 편 의 점","category":"other"},{"name":"씨유고양관산프라임점","tel":"080-080-3663","addr":"경기도 고양시 덕양구 관산동 1015번지 더퍼스트프라임","indutype":"유통업 영리 - 편 의 점","category":"other"},{"name":"아라음악교습소","tel":"070-6550-7970","addr":"경기도 고양시 덕양구 관산동 1015번지 더퍼스트프라임","indutype":"","category":"other"},{"name":"아이공감발달상담센터","tel":"","addr":"경기도 고양시 덕양구 관산동 1015번지 더퍼스트프라임","indutype":"","category":"other"},{"name":"에셈플러스","tel":"031-964-8113","addr":"경기도 고양시 덕양구 관산동 1015번지 더퍼스트프라임","indutype":"","category":"other"},{"name":"엣지","tel":"","addr":"경기도 고양시 덕양구 관산동 1015번지 더퍼스트프라임","indutype":"의류 - 정장","category":"other"},{"name":"오븐마루 관산더퍼스트프라임점","tel":"031-962-2282","addr":"경기도 고양시 덕양구 관산동 1015번지 더퍼스트프라임","indutype":"","category":"other"},{"name":"오븐마루 관산더퍼스트프라임점","tel":"031-962-2292","addr":"경기도 고양시 덕양구 관산동 1015번지 더퍼스트프라임","indutype":"","category":"other"},{"name":"월드원예","tel":"031-911-2515","addr":"경기도 고양시 덕양구 관산동 1015번지 더퍼스트프라임","indutype":"문화.취미 - 화원","category":"other"},{"name":"제이짐휘트니스","tel":"070-2645-6012","addr":"경기도 고양시 덕양구 관산동 1015번지 더퍼스트프라임","indutype":"","category":"other"},{"name":"주식회사강산커뮤니케이션","tel":"031-964-3353","addr":"경기도 고양시 덕양구 관산동 1015번지 더퍼스트프라임","indutype":"사무통신 - 통신기기","category":"other"},{"name":"주식회사강산커뮤니케이션","tel":"031-964-3353","addr":"경기도 고양시 덕양구 관산동 1015번지 더퍼스트프라임","indutype":"","category":"other"},{"name":"주식회사강산커뮤니케이션","tel":"031-964-3353","addr":"경기도 고양시 덕양구 관산동 1015번지 더퍼스트프라임","indutype":"","category":"other"},{"name":"주식회사강산커뮤니케이션","tel":"031-964-3353","addr":"경기도 고양시 덕양구 관산동 1015번지 더퍼스트프라임","indutype":"사무통신 - 통신기기","category":"other"},{"name":"준헤어","tel":"031-964-2949","addr":"경기도 고양시 덕양구 관산동 1015번지 더퍼스트프라임","indutype":"","category":"other"},{"name":"지리산흑돼지","tel":"031-816-1588","addr":"경기도 고양시 덕양구 관산동 1015번지 더퍼스트프라임","indutype":"","category":"other"},{"name":"차이피부앤네일","tel":"031-969-4003","addr":"경기도 고양시 덕양구 관산동 1015번지 더퍼스트프라임","indutype":"","category":"other"},{"name":"청년식당","tel":"031-967-9293","addr":"경기도 고양시 덕양구 관산동 1015번지 더퍼스트프라임","indutype":"","category":"other"},{"name":"카페에슬로우","tel":"031-943-1047","addr":"경기도 고양시 덕양구 관산동 1015번지 더퍼스트프라임","indutype":"","category":"other"},{"name":"카페에이프릴","tel":"070-4121-2459","addr":"경기도 고양시 덕양구 관산동 1015번지 더퍼스트프라임","indutype":"","category":"other"},{"name":"칸과함께","tel":"031-966-4711","addr":"경기도 고양시 덕양구 관산동 1015번지 더퍼스트프라임","indutype":"","category":"other"},{"name":"케이탑피씨 (K-TOP PC)","tel":"070-9867-3000","addr":"경기도 고양시 덕양구 관산동 1015번지 더퍼스트프라임","indutype":"수리서비스 - 사무·통신기기수리","category":"other"},{"name":"키즈빌리지큐브","tel":"031-965-2233","addr":"경기도 고양시 덕양구 관산동 1015번지 더퍼스트프라임","indutype":"","category":"other"},{"name":"타임이비인후과","tel":"031-963-1089","addr":"경기도 고양시 덕양구 관산동 1015번지 더퍼스트프라임","indutype":"","category":"other"},{"name":"통일로한의원","tel":"031-967-3137","addr":"경기도 고양시 덕양구 관산동 1015번지 더퍼스트프라임","indutype":"","category":"other"},{"name":"퍼스트프라임 공인중개사사무소","tel":"031-816-9092","addr":"경기도 고양시 덕양구 관산동 1015번지 더퍼스트프라임","indutype":"","category":"other"},{"name":"프라임가전아울렛","tel":"031-914-8989","addr":"경기도 고양시 덕양구 관산동 1015번지 더퍼스트프라임","indutype":"","category":"other"},{"name":"프라임떡담","tel":"031-963-2524","addr":"경기도 고양시 덕양구 관산동 1015번지 더퍼스트프라임","indutype":"","category":"other"},{"name":"프라임블럭파크","tel":"031-912-1253","addr":"경기도 고양시 덕양구 관산동 1015번지 더퍼스트프라임","indutype":"","category":"other"},{"name":"프로 라이프","tel":"031-964-0882","addr":"경기도 고양시 덕양구 관산동 1015번지 더퍼스트프라임","indutype":"","category":"other"}]},{"lat":"37.712212943","long":"126.86062081","imageIndex":17,"items":[{"name":"EDP고양장흥점","tel":"070-7425-4545","addr":"경기도 고양시 덕양구 관산동 576-2번지","indutype":"","category":"other"},{"name":"EDP장흥고양점","tel":"031-926-9642","addr":"경기도 고양시 덕양구 관산동 576-2번지","indutype":"","category":"other"},{"name":"Health 119","tel":"031-964-7911","addr":"경기도 고양시 덕양구 관산동 576-2번지","indutype":"","category":"other"},{"name":"Health 119","tel":"031-964-7911","addr":"경기도 고양시 덕양구 관산동 576-2번지","indutype":"레져용품 - 스포츠·레져용품","category":"other"},{"name":"이디피(EDP)고양장홍점","tel":"031-962-8704","addr":"경기도 고양시 덕양구 관산동 576-2번지","indutype":"","category":"other"}]},{"lat":"37.692234637","long":"126.86484268","imageIndex":17,"items":[{"name":"GS25관산그린점","tel":"","addr":"경기도 고양시 덕양구 관산동 996번지","indutype":"유통업 영리 - 편 의 점","category":"other"},{"name":"디아망네일","tel":"","addr":"경기도 고양시 덕양구 관산동 996번지","indutype":"","category":"other"},{"name":"비상잉글리시아이","tel":"031-964-0535","addr":"경기도 고양시 덕양구 관산동 996번지","indutype":"","category":"other"},{"name":"빅토리아헤어","tel":"031-969-7215","addr":"경기도 고양시 덕양구 관산동 996번지","indutype":"","category":"other"},{"name":"에이스수학교습소","tel":"031-969-6332","addr":"경기도 고양시 덕양구 관산동 996번지","indutype":"","category":"other"},{"name":"와와109문방구","tel":"031-962-6643","addr":"경기도 고양시 덕양구 관산동 996번지 주공그린빌아파트","indutype":"","category":"other"},{"name":"와와109문방구","tel":"031-962-6643","addr":"경기도 고양시 덕양구 관산동 996번지 주공그린빌아파트","indutype":"서적문구 - 문구용품","category":"other"},{"name":"와와문구","tel":"031-962-6643","addr":"경기도 고양시 덕양구 관산동 996번지 주공그린빌아파트","indutype":"","category":"other"},{"name":"우리세탁소","tel":"031-962-2323","addr":"경기도 고양시 덕양구 관산동 996번지 주공그린빌아파트","indutype":"","category":"other"},{"name":"주공수선","tel":"031-965-3065","addr":"경기도 고양시 덕양구 관산동 996번지","indutype":"","category":"other"},{"name":"주공수선","tel":"031-965-3065","addr":"경기도 고양시 덕양구 관산동 996번지","indutype":"수리서비스 - 세탁소","category":"other"}]},{"lat":"37.704983915","long":"126.85789038","imageIndex":17,"items":[{"name":"GS25관산럭키점","tel":"","addr":"경기도 고양시 덕양구 관산동 687-56번지","indutype":"유통업 영리 - 편 의 점","category":"other"},{"name":"GS25관산럭키점","tel":"","addr":"경기도 고양시 덕양구 관산동 687-56번지","indutype":"","category":"other"},{"name":"GS25관산럭키점","tel":"","addr":"경기도 고양시 덕양구 관산동 687-56번지","indutype":"","category":"other"},{"name":"시골식당","tel":"031-962-9951","addr":"경기도 고양시 덕양구 관산동 687-56번지","indutype":"","category":"other"},{"name":"영미용실","tel":"031-962-9986","addr":"경기도 고양시 덕양구 관산동 687-56번지","indutype":"","category":"other"},{"name":"올레당구장","tel":"031-964-2322","addr":"경기도 고양시 덕양구 관산동 687-56번지","indutype":"","category":"other"}]},{"lat":"37.713542989","long":"126.86537022","imageIndex":17,"items":[{"name":"GS25관산수향점","tel":"","addr":"경기도 고양시 덕양구 관산동 626-1번지","indutype":"유통업 영리 - 편 의 점","category":"other"},{"name":"GS25관산수향점","tel":"","addr":"경기도 고양시 덕양구 관산동 626-1번지","indutype":"","category":"other"},{"name":"GS25관산수향점","tel":"","addr":"경기도 고양시 덕양구 관산동 626-1번지","indutype":"","category":"other"},{"name":"신가네가든","tel":"031-962-5950","addr":"경기도 고양시 덕양구 관산동 626-1번지","indutype":"","category":"other"},{"name":"우리동네","tel":"031-962-0402","addr":"경기도 고양시 덕양구 관산동 626-1번지","indutype":"","category":"other"}]},{"lat":"37.687515552","long":"126.86652933","imageIndex":17,"items":[{"name":"GS25덕양관산점","tel":"031-964-3604","addr":"경기도 고양시 덕양구 관산동","indutype":"유통업 영리 - 편 의 점","category":"other"},{"name":"GS25덕양관산점","tel":"031-964-3604","addr":"경기도 고양시 덕양구 관산동 178-6","indutype":"","category":"other"},{"name":"GS25덕양관산점","tel":"031-964-3604","addr":"경기도 고양시 덕양구 관산동 178-6","indutype":"","category":"other"},{"name":"벽제우체국","tel":"031-962-8002","addr":"경기도 고양시 덕양구 관산동 178-6번지","indutype":"","category":"other"},{"name":"벽제우체국","tel":"031-962-8002","addr":"경기도 고양시 덕양구 관산동","indutype":"용역 서비스 - 공공요금대행서비스/소","category":"other"},{"name":"벽제정육점","tel":"031-964-3604","addr":"경기도 고양시 덕양구 관산동 178-6번지","indutype":"","category":"other"}]},{"lat":"37.689213398","long":"126.854928","imageIndex":17,"items":[{"name":"GS25테마동물원쥬쥬점","tel":"02-2006-2485","addr":"경기도 고양시 덕양구 관산동 290번지","indutype":"","category":"other"},{"name":"스투디아일산","tel":"02-2156-3040","addr":"경기도 고양시 덕양구 관산동 290번지","indutype":"","category":"other"},{"name":"쥬쥬랜드","tel":"","addr":"경기도 고양시 덕양구 관산동 290번지","indutype":"","category":"other"},{"name":"쥬쥬미니마트","tel":"","addr":"경기도 고양시 덕양구 관산동 290번지","indutype":"","category":"other"}]},{"lat":"37.688604306","long":"126.86531424","imageIndex":17,"items":[{"name":"Gf(지에프)","tel":"031-962-1990","addr":"경기도 고양시 덕양구 관산동 181-2번지","indutype":"","category":"other"},{"name":"만두빚는집","tel":"031-969-6267","addr":"경기도 고양시 덕양구 관산동 181-2번지","indutype":"","category":"other"},{"name":"비비큐관산동점","tel":"031-964-9295","addr":"경기도 고양시 덕양구 관산동 181-2번지","indutype":"","category":"other"},{"name":"슈가앤코","tel":"031-962-8026","addr":"경기도 고양시 덕양구 관산동 181-2번지","indutype":"","category":"other"},{"name":"써니","tel":"031-962-2949","addr":"경기도 고양시 덕양구 관산동 181-2번지","indutype":"","category":"other"},{"name":"예지헤어","tel":"031-962-6511","addr":"경기도 고양시 덕양구 관산동 181-2번지","indutype":"","category":"other"},{"name":"투다리","tel":"","addr":"경기도 고양시 덕양구 관산동 181-2번지","indutype":"","category":"other"},{"name":"피자","tel":"031-964-3445","addr":"경기도 고양시 덕양구 관산동 181-2번지","indutype":"","category":"other"},{"name":"헤어까페","tel":"","addr":"경기도 고양시 덕양구 관산동 181-2번지","indutype":"","category":"other"}]},{"lat":"37.692973995","long":"126.86532884","imageIndex":17,"items":[{"name":"HK에어컨","tel":"070-7868-3834","addr":"경기도 고양시 덕양구 관산동 996번지 주공그린빌아파트","indutype":"","category":"other"},{"name":"팅커벨","tel":"070-7533-1388","addr":"경기도 고양시 덕양구 관산동 996번지 주공그린빌아파트","indutype":"","category":"other"},{"name":"팅커벨","tel":"070-7533-1388","addr":"경기도 고양시 덕양구 관산동 996번지 주공그린빌아파트","indutype":"신변잡화 - 기타잡화","category":"other"}]},{"lat":"37.689153337","long":"126.86483705","imageIndex":17,"items":[{"name":"J&J 네일","tel":"031-969-1274","addr":"경기도 고양시 덕양구 관산동 112-24번지","indutype":"","category":"other"},{"name":"국수랑전이랑","tel":"","addr":"경기도 고양시 덕양구 관산동 112-24번지","indutype":"","category":"other"},{"name":"제이마르","tel":"031-0-0000","addr":"경기도 고양시 덕양구 관산동 112-24번지","indutype":"","category":"other"},{"name":"제이마르","tel":"031-000-0000","addr":"경기도 고양시 덕양구 관산동 112-24번지","indutype":"수리서비스 - 세탁소","category":"other"},{"name":"쪼리","tel":"070-7565-8771","addr":"경기도 고양시 덕양구 관산동 112-24번지","indutype":"","category":"other"},{"name":"쪼리","tel":"031-962-8155","addr":"경기도 고양시 덕양구 관산동 112-24번지","indutype":"","category":"other"},{"name":"쪼리","tel":"070-7565-8771","addr":"경기도 고양시 덕양구 관산동 112-24번지","indutype":"의류 - 정장","category":"other"},{"name":"쭈니빠숑","tel":"070-4900-5343","addr":"경기도 고양시 덕양구 관산동 112-24번지","indutype":"의류 - 아동의류","category":"other"},{"name":"쭈니빠숑","tel":"070-4900-5343","addr":"경기도 고양시 덕양구 관산동 112-24번지","indutype":"","category":"other"},{"name":"황금곱창","tel":"070-4193-4490","addr":"경기도 고양시 덕양구 관산동 112-24번지","indutype":"","category":"other"}]},{"lat":"37.692569413","long":"126.85850413","imageIndex":17,"items":[{"name":"J&PMOTORSCOMPANY","tel":"031-964-9859","addr":"경기도 고양시 덕양구 관산동 331-3","indutype":"","category":"other"}]},{"lat":"37.70076236","long":"126.86114162","imageIndex":17,"items":[{"name":"K대리운전","tel":"070-8992-9294","addr":"경기도 고양시 덕양구 관산동 469번지","indutype":"","category":"other"}]},{"lat":"37.704876426","long":"126.85840089","imageIndex":17,"items":[{"name":"LaLa (라라)","tel":"031-970-4385","addr":"경기도 고양시 덕양구 관산동 540-5번지","indutype":"","category":"other"},{"name":"간촌설비공사","tel":"031-963-0111","addr":"경기도 고양시 덕양구 관산동 540-5번지","indutype":"건축자재 - 보일러·펌프·샷시","category":"other"},{"name":"간촌설비공사","tel":"031-963-0111","addr":"경기도 고양시 덕양구 관산동 540-5번지","indutype":"","category":"other"},{"name":"봉바위정육점","tel":"031-963-5059","addr":"경기도 고양시 덕양구 관산동 540-5번지","indutype":"","category":"other"},{"name":"조미영헤어클럽","tel":"031-963-3543","addr":"경기도 고양시 덕양구 관산동 540-5번지","indutype":"","category":"other"}]},{"lat":"37.714267093","long":"126.8682609","imageIndex":17,"items":[{"name":"Music Space(뮤직스페이스)","tel":"070-8235-3450","addr":"경기도 고양시 덕양구 관산동 633-3번지","indutype":"","category":"other"},{"name":"Music Space(뮤직스페이스)","tel":"070-8235-3450","addr":"경기도 고양시 덕양구 관산동 633-3번지","indutype":"건축자재 - 인테리어전문","category":"other"}]},{"lat":"37.705623737","long":"126.86553227","imageIndex":17,"items":[{"name":"PANDA LIGHT","tel":"070-7382-8690","addr":"경기도 고양시 덕양구 관산동 46-4번지","indutype":"건축자재 - 조명기구","category":"other"},{"name":"PANDA LIGHT","tel":"070-7382-8690","addr":"경기도 고양시 덕양구 관산동 46-4번지","indutype":"","category":"other"}]},{"lat":"37.687270685","long":"126.86514665","imageIndex":17,"items":[{"name":"SBS","tel":"031-962-8036","addr":"경기도 고양시 덕양구 관산동 188-2번지","indutype":"","category":"other"},{"name":"누리미용재료","tel":"070-8259-0062","addr":"경기도 고양시 덕양구 관산동 188-2번지","indutype":"","category":"other"},{"name":"디엔코스(D&N Cos)","tel":"031-991-0033","addr":"경기도 고양시 덕양구 관산동 188-2번지","indutype":"","category":"other"},{"name":"벽제농약사","tel":"031-964-9999","addr":"경기도 고양시 덕양구 관산동 188-2번지","indutype":"","category":"other"},{"name":"벽제농약사","tel":"031-964-9999","addr":"경기도 고양시 덕양구 관산동 188-2번지","indutype":"","category":"other"},{"name":"벽제농약사","tel":"031-964-9999","addr":"경기도 고양시 덕양구 관산동 188-2번지","indutype":"농업 - 비료,사료,종자","category":"other"},{"name":"빈티지","tel":"031-966-7223","addr":"경기도 고양시 덕양구 관산동 188-2번지","indutype":"","category":"other"},{"name":"삼화인테리어","tel":"031-962-8066","addr":"경기도 고양시 덕양구 관산동 188-2번지","indutype":"","category":"other"},{"name":"삼화인테리어","tel":"031-962-8066","addr":"경기도 고양시 덕양구 관산동 188-2번지","indutype":"건축자재 - 기타건축자재","category":"other"},{"name":"장미","tel":"031-0-0000","addr":"경기도 고양시 덕양구 관산동 188-2번지","indutype":"","category":"other"},{"name":"장미","tel":"031-000-0000","addr":"경기도 고양시 덕양구 관산동 188-2번지","indutype":"의류 - 정장","category":"other"},{"name":"통큰고기무한리필","tel":"031-962-9780","addr":"경기도 고양시 덕양구 관산동 188-2번지","indutype":"","category":"other"},{"name":"포토월드사진관","tel":"031-963-8686","addr":"경기도 고양시 덕양구 관산동 188-2번지","indutype":"광학제품 - 사진관","category":"other"},{"name":"포토월드사진관","tel":"031-963-8686","addr":"경기도 고양시 덕양구 관산동 188-2번지","indutype":"","category":"other"}]},{"lat":"37.685847284","long":"126.86525131","imageIndex":17,"items":[{"name":"SHARK(샤크)","tel":"","addr":"경기도 고양시 덕양구 관산동 193-1번지","indutype":"용역 서비스 - 종합용역","category":"other"},{"name":"SHARK(샤크)","tel":"","addr":"경기도 고양시 덕양구 관산동 193-1번지","indutype":"","category":"other"},{"name":"고양남양가정우유","tel":"031-966-6507","addr":"경기도 고양시 덕양구 관산동 193-1번지","indutype":"","category":"other"},{"name":"깨끗한세상","tel":"031-963-3677","addr":"경기도 고양시 덕양구 관산동 193-1번지","indutype":"수리서비스 - 세탁소","category":"other"},{"name":"깨끗한세상","tel":"031-963-3677","addr":"경기도 고양시 덕양구 관산동 193-1번지","indutype":"","category":"other"},{"name":"아성네스트쇼파","tel":"031-964-4965","addr":"경기도 고양시 덕양구 관산동 193-1번지","indutype":"수리서비스 - 가정용품수리","category":"other"},{"name":"아성네스트쇼파","tel":"031-964-4965","addr":"경기도 고양시 덕양구 관산동 193-1번지","indutype":"","category":"other"},{"name":"플러스외국어학원","tel":"031-963-8113","addr":"경기도 고양시 덕양구 관산동 193-1번지","indutype":"","category":"other"},{"name":"홍익목재상사","tel":"031-963-4193","addr":"경기도 고양시 덕양구 관산동 193-1번지","indutype":"","category":"other"}]},{"lat":"37.689937928","long":"126.86548184","imageIndex":17,"items":[{"name":"SK건강체험센타","tel":"031-963-1779","addr":"경기도 고양시 덕양구 관산동 112-22번지","indutype":"","category":"other"},{"name":"대원돈장군","tel":"031-969-1300","addr":"경기도 고양시 덕양구 관산동 112-22번지","indutype":"","category":"other"},{"name":"박터진흥부네","tel":"031-962-4929","addr":"경기도 고양시 덕양구 관산동 112-22번지","indutype":"","category":"other"},{"name":"에이스","tel":"031-963-0036","addr":"경기도 고양시 덕양구 관산동 112-22번지","indutype":"","category":"other"},{"name":"한아름푸드시스템","tel":"031-968-6432","addr":"경기도 고양시 덕양구 관산동 112-22번지","indutype":"","category":"other"},{"name":"회먹는날","tel":"031-969-9138","addr":"경기도 고양시 덕양구 관산동 112-22번지","indutype":"","category":"other"}]},{"lat":"37.708792922","long":"126.85622726","imageIndex":17,"items":[{"name":"Y2아트컴퍼니","tel":"031-977-3333","addr":"경기도 고양시 덕양구 관산동 685-103번지","indutype":"전기제품 - 가전제품","category":"other"},{"name":"Y2아트컴퍼니","tel":"031-977-3333","addr":"경기도 고양시 덕양구 관산동 685-103번지","indutype":"","category":"other"}]},{"lat":"37.688072633","long":"126.86522453","imageIndex":17,"items":[{"name":"Y하우스","tel":"031-963-1138","addr":"경기도 고양시 덕양구 관산동 180-30번지","indutype":"","category":"other"},{"name":"보물섬","tel":"031-962-5973","addr":"경기도 고양시 덕양구 관산동 180-30번지","indutype":"의류 - 기타의류","category":"other"},{"name":"보물섬","tel":"031-962-5973","addr":"경기도 고양시 덕양구 관산동 180-30번지","indutype":"","category":"other"},{"name":"샹떼PC방","tel":"070-4258-0012","addr":"경기도 고양시 덕양구 관산동 180-30번지","indutype":"","category":"other"},{"name":"와이와니","tel":"031-963-7275","addr":"경기도 고양시 덕양구 관산동 180-30번지","indutype":"","category":"other"},{"name":"피자스쿨","tel":"031-964-8181","addr":"경기도 고양시 덕양구 관산동 180-30번지","indutype":"","category":"other"},{"name":"한유엘앤에스대리점(관산점)","tel":"070-7814-1066","addr":"경기도 고양시 덕양구 관산동 180-30번지","indutype":"사무통신 - 통신기기","category":"other"},{"name":"한유엘앤에스대리점(관산점)","tel":"070-7814-1066","addr":"경기도 고양시 덕양구 관산동 180-30번지","indutype":"","category":"other"}]},{"lat":"37.685603905","long":"126.86514973","imageIndex":17,"items":[{"name":"yebon","tel":"031-926-3110","addr":"경기도 고양시 덕양구 관산동 193-4번지 청풍빌라","indutype":"회원제형태 - 기타4","category":"other"},{"name":"yebon","tel":"031-926-3110","addr":"경기도 고양시 덕양구 관산동 193-4번지 청풍빌라","indutype":"","category":"other"}]},{"lat":"37.707406164","long":"126.85680834","imageIndex":17,"items":[{"name":"가구대통령","tel":"031-969-8653","addr":"경기도 고양시 덕양구 관산동 685-58번지","indutype":"","category":"other"},{"name":"골드스타 당구장","tel":"031-962-2131","addr":"경기도 고양시 덕양구 관산동 685-58번지","indutype":"","category":"other"},{"name":"골드스타당구장","tel":"070-4122-2131","addr":"경기도 고양시 덕양구 관산동 685-58번지","indutype":"","category":"other"},{"name":"오복정","tel":"031-963-8858","addr":"경기도 고양시 덕양구 관산동 685-58번지","indutype":"","category":"other"}]},{"lat":"37.705127733","long":"126.85761795","imageIndex":17,"items":[{"name":"가장약국","tel":"031-962-4810","addr":"경기도 고양시 덕양구 관산동 687-48번지","indutype":"","category":"other"},{"name":"가장약국","tel":"031-962-4810","addr":"경기도 고양시 덕양구 관산동 687-48번지","indutype":"","category":"other"},{"name":"가장약국","tel":"031-962-4810","addr":"경기도 고양시 덕양구 관산동 687-48번지","indutype":"","category":"other"},{"name":"가좌치킨2호점","tel":"031-963-7070","addr":"경기도 고양시 덕양구 관산동 687-48번지","indutype":"","category":"other"},{"name":"돼지나라","tel":"031-963-3093","addr":"경기도 고양시 덕양구 관산동 687-48번지","indutype":"","category":"other"},{"name":"장금이네찌게찌게","tel":"031-962-6935","addr":"경기도 고양시 덕양구 관산동 687-48번지","indutype":"","category":"other"},{"name":"주태배기","tel":"031-969-0784","addr":"경기도 고양시 덕양구 관산동 687-48번지","indutype":"","category":"other"},{"name":"참좋은인태리","tel":"031-964-6035","addr":"경기도 고양시 덕양구 관산동 687-48번지","indutype":"직물 - 카페트,커튼,천막,지물","category":"other"},{"name":"참좋은인태리","tel":"031-964-6035","addr":"경기도 고양시 덕양구 관산동 687-48번지","indutype":"","category":"other"}]},{"lat":"37.688963909","long":"126.86464467","imageIndex":17,"items":[{"name":"갈비&등갈비","tel":"031-964-1411","addr":"경기도 고양시 덕양구 관산동 910-31번지","indutype":"","category":"other"},{"name":"돈벼락","tel":"031-964-1411","addr":"경기도 고양시 덕양구 관산동 910-31번지","indutype":"","category":"other"},{"name":"벽제감자국","tel":"031-964-1411","addr":"경기도 고양시 덕양구 관산동 910-31번지","indutype":"","category":"other"},{"name":"콩이랑두부랑","tel":"031-964-1411","addr":"경기도 고양시 덕양구 관산동 910-31번지","indutype":"","category":"other"}]},{"lat":"37.688630938","long":"126.86497407","imageIndex":17,"items":[{"name":"갈비데이","tel":"031-966-8745","addr":"경기도 고양시 덕양구 관산동 181-1번지","indutype":"","category":"other"},{"name":"갈비데이","tel":"031-966-8745","addr":"경기도 고양시 덕양구 관산동 181-1번지","indutype":"","category":"other"},{"name":"대팔이네","tel":"031-962-2309","addr":"경기도 고양시 덕양구 관산동 181-1번지","indutype":"","category":"other"},{"name":"새살림센타","tel":"031-962-7723","addr":"경기도 고양시 덕양구 관산동 181-1번지","indutype":"기타 - 기타 전문점","category":"other"},{"name":"새살림센타","tel":"031-962-7723","addr":"경기도 고양시 덕양구 관산동 181-1번지","indutype":"","category":"other"},{"name":"성준식당","tel":"031-969-4113","addr":"경기도 고양시 덕양구 관산동 181-1번지","indutype":"","category":"other"},{"name":"연희네식당","tel":"031-964-4227","addr":"경기도 고양시 덕양구 관산동 181-1번지","indutype":"","category":"other"},{"name":"코코자리","tel":"031-964-6807","addr":"경기도 고양시 덕양구 관산동 181-1번지","indutype":"","category":"other"},{"name":"코코자리","tel":"031-964-6807","addr":"경기도 고양시 덕양구 관산동","indutype":"직물 - 침구·수예점","category":"other"},{"name":"호식이두마리치킨","tel":"031-965-9668","addr":"경기도 고양시 덕양구 관산동 181-1번지","indutype":"","category":"other"},{"name":"호식이두마리치킨 관산점","tel":"031-965-9668","addr":"경기도 고양시 덕양구 관산동 181-1번지","indutype":"","category":"other"},{"name":"홍반장 포차","tel":"","addr":"경기도 고양시 덕양구 관산동 181-1번지","indutype":"","category":"other"}]},{"lat":"37.687324252","long":"126.86472707","imageIndex":17,"items":[{"name":"강남스타일 옷","tel":"031-966-4310","addr":"경기도 고양시 덕양구 관산동 196-1번지","indutype":"의류 - 정장","category":"other"},{"name":"강남스타일 옷","tel":"031-966-4310","addr":"경기도 고양시 덕양구 관산동 196-1번지","indutype":"","category":"other"},{"name":"도연","tel":"031-968-6755","addr":"경기도 고양시 덕양구 관산동 196-1번지","indutype":"","category":"other"},{"name":"아이사랑약국","tel":"031-964-7545","addr":"경기도 고양시 덕양구 관산동 196-1번지","indutype":"","category":"other"},{"name":"태평한의원","tel":"031-962-3399","addr":"경기도 고양시 덕양구 관산동 196-1번지","indutype":"","category":"other"},{"name":"하늘꿈이브자리","tel":"031-962-0488","addr":"경기도 고양시 덕양구 관산동 196-1번지","indutype":"","category":"other"}]},{"lat":"37.714426568","long":"126.858371","imageIndex":17,"items":[{"name":"강정창호","tel":"031-966-9114","addr":"경기도 고양시 덕양구 관산동 654-1번지","indutype":"","category":"other"}]},{"lat":"37.688378841","long":"126.86512192","imageIndex":17,"items":[{"name":"건강지킴이기름집","tel":"031-962-8147","addr":"경기도 고양시 덕양구 관산동 181-55번지","indutype":"","category":"other"},{"name":"벽제떡건강지킴이방앗간","tel":"031-962-8147","addr":"경기도 고양시 덕양구 관산동 181-55번지","indutype":"","category":"other"}]},{"lat":"37.686017565","long":"126.86448008","imageIndex":17,"items":[{"name":"걸음동무","tel":"031-962-0966","addr":"경기도 고양시 덕양구 관산동 210-13번지 대도빌라","indutype":"","category":"other"}]},{"lat":"37.713351832","long":"126.86370342","imageIndex":17,"items":[{"name":"경성기업","tel":"02-375-6714","addr":"경기도 고양시 덕양구 관산동 587-2번지","indutype":"직물 - 침구·수예점","category":"other"},{"name":"경성기업","tel":"02-375-6714","addr":"경기도 고양시 덕양구 관산동 587-2번지","indutype":"","category":"other"}]},{"lat":"37.686493214","long":"126.86290335","imageIndex":17,"items":[{"name":"경희상회","tel":"","addr":"경기도 고양시 덕양구 관산동 217번지 삼성다세대","indutype":"","category":"other"},{"name":"경희상회","tel":"","addr":"경기도 고양시 덕양구 관산동 217번지 삼성다세대","indutype":"회원제형태 - 기타1","category":"other"}]},{"lat":"37.70926149","long":"126.85628304","imageIndex":17,"items":[{"name":"고골돼지부속구이","tel":"031-965-8933","addr":"경기도 고양시 덕양구 관산동 685-106번지","indutype":"","category":"other"},{"name":"명가묵은지감자탕","tel":"031-964-9183","addr":"경기도 고양시 덕양구 관산동 685-106번지","indutype":"","category":"other"}]},{"lat":"37.711877053","long":"126.85853473","imageIndex":17,"items":[{"name":"고골마당","tel":"031-969-9949","addr":"경기도 고양시 덕양구 관산동 660-8번지","indutype":"","category":"other"}]},{"lat":"37.708899578","long":"126.85505898","imageIndex":17,"items":[{"name":"고골마을","tel":"031-964-3609","addr":"경기도 고양시 덕양구 관산동 672-34번지","indutype":"","category":"other"},{"name":"고골마을","tel":"031-964-3609","addr":"경기도 고양시 덕양구 관산동 672-34번지","indutype":"","category":"other"},{"name":"고골애","tel":"031-968-1277","addr":"경기도 고양시 덕양구 관산동 672-34번지","indutype":"","category":"other"},{"name":"동원노래연습장","tel":"031-968-6533","addr":"경기도 고양시 덕양구 관산동 672-34번지","indutype":"","category":"other"},{"name":"쏭이네포차로와","tel":"031-964-6803","addr":"경기도 고양시 덕양구 관산동 672-34번지","indutype":"","category":"other"}]},{"lat":"37.712210954","long":"126.86656348","imageIndex":17,"items":[{"name":"고골명가든","tel":"031-962-8251","addr":"경기도 고양시 덕양구 관산동 605-6번지","indutype":"","category":"other"},{"name":"자매식당","tel":"031-962-8251","addr":"경기도 고양시 덕양구 관산동 605-6번지","indutype":"","category":"other"}]},{"lat":"37.712572751","long":"126.8601438","imageIndex":17,"items":[{"name":"고골식당","tel":"031-969-8999","addr":"경기도 고양시 덕양구 관산동 574-11번지","indutype":"","category":"other"},{"name":"양지정육점","tel":"031-969-8948","addr":"경기도 고양시 덕양구 관산동 574-11번지","indutype":"","category":"other"}]},{"lat":"37.68896355","long":"126.86433856","imageIndex":17,"items":[{"name":"고기마니아","tel":"031-964-5244","addr":"경기도 고양시 덕양구 관산동 230-2번지","indutype":"","category":"other"},{"name":"두리헤어샵","tel":"031-969-4288","addr":"경기도 고양시 덕양구 관산동 230-2번지","indutype":"","category":"other"},{"name":"바인헤어","tel":"031-969-7771","addr":"경기도 고양시 덕양구 관산동 230-2번지","indutype":"","category":"other"},{"name":"수제돈까스 or 부대찌개","tel":"031-962-2012","addr":"경기도 고양시 덕양구 관산동 230-2번지","indutype":"","category":"other"},{"name":"스마일찹쌀꽈배기","tel":"031-965-4393","addr":"경기도 고양시 덕양구 관산동 230-2번지","indutype":"","category":"other"}]},{"lat":"37.709792816","long":"126.8560892","imageIndex":17,"items":[{"name":"고기마루","tel":"031-969-2994","addr":"경기도 고양시 덕양구 관산동 672-32번지","indutype":"","category":"other"}]},{"lat":"37.688324903","long":"126.86522406","imageIndex":17,"items":[{"name":"고담","tel":"031-964-9658","addr":"경기도 고양시 덕양구 관산동 181-15번지","indutype":"","category":"other"},{"name":"관산블록피아","tel":"031-962-6215","addr":"경기도 고양시 덕양구 관산동 181-15번지","indutype":"","category":"other"},{"name":"뉴 성진상사","tel":"070-4138-9690","addr":"경기도 고양시 덕양구 관산동 181-15번지","indutype":"","category":"other"},{"name":"민속떡전문점","tel":"031-963-2425","addr":"경기도 고양시 덕양구 관산동 181-15번지","indutype":"","category":"other"},{"name":"성진","tel":"070-4138-9690","addr":"경기도 고양시 덕양구 관산동 181-15번지","indutype":"","category":"other"},{"name":"팡팡가족","tel":"031-962-7759","addr":"경기도 고양시 덕양구 관산동 181-15번지","indutype":"","category":"other"},{"name":"팡팡가족노래방","tel":"031-962-7759","addr":"경기도 고양시 덕양구 관산동 181-15번지","indutype":"","category":"other"},{"name":"힐링","tel":"070-7539-9547","addr":"경기도 고양시 덕양구 관산동 181-15번지","indutype":"","category":"other"}]},{"lat":"37.687991229","long":"126.86495258","imageIndex":17,"items":[{"name":"고담시티","tel":"031-0-0000","addr":"경기도 고양시 덕양구 관산동 182-3번지","indutype":"","category":"other"},{"name":"네이처시가 우리동네 담뱃잎가게","tel":"","addr":"경기도 고양시 덕양구 관산동 182-3번지","indutype":"","category":"other"},{"name":"뉴풀하우스","tel":"031-962-8961","addr":"경기도 고양시 덕양구 관산동 182-3번지","indutype":"","category":"other"},{"name":"다온 머리방","tel":"031-963-0959","addr":"경기도 고양시 덕양구 관산동 182-3번지","indutype":"","category":"other"},{"name":"머리하러","tel":"031-963-0959","addr":"경기도 고양시 덕양구 관산동 182-3번지","indutype":"","category":"other"},{"name":"몽니스코스메틱","tel":"031-922-7755","addr":"경기도 고양시 덕양구 관산동 182-3번지","indutype":"","category":"other"},{"name":"손톱 까끼","tel":"070-4241-8826","addr":"경기도 고양시 덕양구 관산동 182-3번지","indutype":"","category":"other"},{"name":"한진화장품","tel":"031-964-5222","addr":"경기도 고양시 덕양구 관산동 182-3번지","indutype":"","category":"other"},{"name":"협신","tel":"031-963-9702","addr":"경기도 고양시 덕양구 관산동 182-3번지","indutype":"","category":"other"}]},{"lat":"37.707268725","long":"126.84795191","imageIndex":17,"items":[{"name":"고양TMF","tel":"","addr":"경기도 고양시 덕양구 관산동 832-1번지","indutype":"","category":"other"},{"name":"고양TMF","tel":"","addr":"경기도 고양시 덕양구 관산동 832-1번지","indutype":"농업 - 비료,사료,종자","category":"other"}]},{"lat":"37.708017999","long":"126.8561494","imageIndex":17,"items":[{"name":"고양가전총판","tel":"031-914-8989","addr":"경기도 고양시 덕양구 관산동 679-6번지","indutype":"전기제품 - 가전제품","category":"other"},{"name":"또봉이통닭고양관산점","tel":"031-965-0929","addr":"경기도 고양시 덕양구 관산동 679-6번지","indutype":"","category":"other"}]},{"lat":"37.697680725","long":"126.85356187","imageIndex":17,"items":[{"name":"고양낙농치즈테마체험장","tel":"031-964-3057","addr":"경기도 고양시 덕양구 관산동 847-158번지","indutype":"","category":"other"}]},{"lat":"37.708017442","long":"126.87092585","imageIndex":17,"items":[{"name":"고양노블요양원","tel":"031-963-3028","addr":"경기도 고양시 덕양구 관산동 17-51번지","indutype":"기타의료기관 - 기타의료기관 및 기타","category":"other"},{"name":"고양노블요양원","tel":"031-963-3028","addr":"경기도 고양시 덕양구 관산동 17-51번지","indutype":"","category":"other"},{"name":"한울꼬마김치서부사업소","tel":"070-4119-1212","addr":"경기도 고양시 덕양구 관산동 17-51번지","indutype":"","category":"other"}]},{"lat":"37.690104811","long":"126.86958574","imageIndex":17,"items":[{"name":"고양농장","tel":"031-964-8261","addr":"경기도 고양시 덕양구 관산동 150-2번지","indutype":"","category":"other"}]},{"lat":"37.686791736","long":"126.85647466","imageIndex":17,"items":[{"name":"고양물류","tel":"031-969-1818","addr":"경기도 고양시 덕양구 관산동 275-5번지","indutype":"","category":"other"}]},{"lat":"37.688351348","long":"126.86472517","imageIndex":17,"items":[{"name":"고양신발","tel":"031-963-2182","addr":"경기도 고양시 덕양구 관산동 228-2번지","indutype":"신변잡화 - 신발","category":"other"},{"name":"고양신발","tel":"031-963-2182","addr":"경기도 고양시 덕양구 관산동 228-2번지","indutype":"","category":"other"},{"name":"벽제순대국","tel":"031-964-6370","addr":"경기도 고양시 덕양구 관산동 228-2번지","indutype":"","category":"other"},{"name":"성사마을분식","tel":"031-964-6936","addr":"경기도 고양시 덕양구 관산동 228-2번지","indutype":"","category":"other"},{"name":"이화머리여행","tel":"031-962-2402","addr":"경기도 고양시 덕양구 관산동 228-2번지","indutype":"","category":"other"}]},{"lat":"37.708323773","long":"126.85570653","imageIndex":17,"items":[{"name":"고양장갑","tel":"031-964-2336","addr":"경기도 고양시 덕양구 관산동 685-32번지","indutype":"","category":"other"},{"name":"세븐일레븐고양통일로점","tel":"031-962-3385","addr":"경기도 고양시 덕양구 관산동 685-32번지","indutype":"","category":"other"},{"name":"세븐일레븐고양통일로점","tel":"031-962-3385","addr":"경기도 고양시 덕양구 관산동","indutype":"유통업 영리 - 편 의 점","category":"other"}]},{"lat":"37.709153206","long":"126.85614717","imageIndex":17,"items":[{"name":"고양족발","tel":"031-963-5525","addr":"경기도 고양시 덕양구 관산동 685-107번지","indutype":"","category":"other"},{"name":"고양족발","tel":"031-963-5525","addr":"경기도 고양시 덕양구 관산동 685-107번지","indutype":"","category":"other"},{"name":"달수네","tel":"031-966-5677","addr":"경기도 고양시 덕양구 관산동 685-107번지","indutype":"","category":"other"},{"name":"바다향","tel":"031-968-2744","addr":"경기도 고양시 덕양구 관산동 685-107번지","indutype":"","category":"other"},{"name":"신통치킨","tel":"031-964-2788","addr":"경기도 고양시 덕양구 관산동 685-107번지","indutype":"","category":"other"}]},{"lat":"37.705378839","long":"126.85667624","imageIndex":17,"items":[{"name":"고양철물.건재","tel":"031-962-4982","addr":"경기도 고양시 덕양구 관산동 691-7번지","indutype":"","category":"other"},{"name":"고양철물.건재","tel":"031-962-4982","addr":"경기도 고양시 덕양구 관산동 691-7번지","indutype":"기타 - 기계공구","category":"other"},{"name":"찬찬찬","tel":"031-969-7755","addr":"경기도 고양시 덕양구 관산동 691-7번지","indutype":"","category":"other"}]},{"lat":"37.687046408","long":"126.86597467","imageIndex":17,"items":[{"name":"고양한우정육식당","tel":"031-964-9200","addr":"경기도 고양시 덕양구 관산동 188-9번지","indutype":"","category":"other"},{"name":"고양한우촌정육식당","tel":"031-964-9200","addr":"경기도 고양시 덕양구 관산동 188-9번지","indutype":"","category":"other"},{"name":"관산한의원","tel":"031-964-5067","addr":"경기도 고양시 덕양구 관산동 188-9번지","indutype":"","category":"other"},{"name":"리더스학원","tel":"031-963-7888","addr":"경기도 고양시 덕양구 관산동 188-9번지","indutype":"","category":"other"},{"name":"먹고갈래지고갈래","tel":"031-969-8562","addr":"경기도 고양시 덕양구 관산동 188-9번지","indutype":"","category":"other"},{"name":"벽제","tel":"031-962-1061","addr":"경기도 고양시 덕양구 관산동 188-9번지","indutype":"","category":"other"},{"name":"장군족발보쌈","tel":"031-969-1364","addr":"경기도 고양시 덕양구 관산동 188-9번지","indutype":"","category":"other"},{"name":"탑당구클럽","tel":"070-7627-3204","addr":"경기도 고양시 덕양구 관산동 188-9번지","indutype":"","category":"other"},{"name":"태후사랑","tel":"031-964-0016","addr":"경기도 고양시 덕양구 관산동 188-9번지","indutype":"","category":"other"},{"name":"피쉬앤그릴","tel":"031-964-4529","addr":"경기도 고양시 덕양구 관산동 188-9번지","indutype":"","category":"other"},{"name":"한진노래연습장","tel":"","addr":"경기도 고양시 덕양구 관산동 188-9번지","indutype":"","category":"other"}]},{"lat":"37.690154251","long":"126.86556081","imageIndex":17,"items":[{"name":"골드","tel":"031-963-4347","addr":"경기도 고양시 덕양구 관산동 112-6번지","indutype":"","category":"other"},{"name":"왕짜왕족발","tel":"031-964-6811","addr":"경기도 고양시 덕양구 관산동 112-6번지","indutype":"","category":"other"}]},{"lat":"37.689747293","long":"126.86425774","imageIndex":17,"items":[{"name":"골프공방","tel":"031-964-4149","addr":"경기도 고양시 덕양구 관산동 338-39번지 중앙아파트","indutype":"레져용품 - 골프용품 전문점","category":"other"},{"name":"태양설비","tel":"031-964-0408","addr":"경기도 고양시 덕양구 관산동 338-4번지 중앙아파트","indutype":"건축자재 - 인테리어전문","category":"other"}]},{"lat":"37.68801734","long":"126.86417026","imageIndex":17,"items":[{"name":"곰미커피 관산점","tel":"031-1111-1111","addr":"경기도 고양시 덕양구 관산동 231-14번지","indutype":"","category":"other"},{"name":"또래오래치킨","tel":"031-962-4861","addr":"경기도 고양시 덕양구 관산동 231-14번지","indutype":"","category":"other"},{"name":"벽제열쇠","tel":"031-963-4578","addr":"경기도 고양시 덕양구 관산동 231-14번지","indutype":"","category":"other"},{"name":"벽제열쇠","tel":"031-963-4578","addr":"경기도 고양시 덕양구 관산동 231-14번지","indutype":"수리서비스 - 기타수리서비스","category":"other"},{"name":"부산어묵","tel":"031-963-1624","addr":"경기도 고양시 덕양구 관산동 231-14번지","indutype":"","category":"other"},{"name":"엉뚱한 상상","tel":"031-963-1624","addr":"경기도 고양시 덕양구 관산동 231-14번지","indutype":"","category":"other"},{"name":"여우노래연습장","tel":"031-962-0108","addr":"경기도 고양시 덕양구 관산동 231-14번지","indutype":"","category":"other"},{"name":"제이케이정보통신","tel":"0031-0962-9949","addr":"경기도 고양시 덕양구 관산동","indutype":"별도관리 - 자체물품대금","category":"other"},{"name":"제이케이정보통신","tel":"031-963-5016","addr":"경기도 고양시 덕양구 관산동 231-14번지","indutype":"사무통신 - 통신기기","category":"other"},{"name":"제이케이정보통신","tel":"031-963-5016","addr":"경기도 고양시 덕양구 관산동 231-14번지","indutype":"","category":"other"},{"name":"제이케이정보통신","tel":"031-962-9949","addr":"경기도 고양시 덕양구 관산동 231-14번지","indutype":"","category":"other"},{"name":"째즈","tel":"031-962-7874","addr":"경기도 고양시 덕양구 관산동 231-14번지","indutype":"의류 - 정장","category":"other"},{"name":"째즈","tel":"031-962-7874","addr":"경기도 고양시 덕양구 관산동 231-14번지","indutype":"","category":"other"},{"name":"커트클럽","tel":"031-969-5253","addr":"경기도 고양시 덕양구 관산동 231-14번지","indutype":"","category":"other"},{"name":"향다방","tel":"031-962-3982","addr":"경기도 고양시 덕양구 관산동 231-14번지","indutype":"","category":"other"},{"name":"향다방","tel":"031-962-3982","addr":"경기도 고양시 덕양구 관산동 231-14번지","indutype":"","category":"other"}]},{"lat":"37.687629111","long":"126.86347941","imageIndex":17,"items":[{"name":"공간화","tel":"","addr":"경기도 고양시 덕양구 관산동 236-3번지","indutype":"","category":"other"}]},{"lat":"37.69027082","long":"126.86508441","imageIndex":17,"items":[{"name":"공감","tel":"031-812-9288","addr":"경기도 고양시 덕양구 관산동 113-2번지","indutype":"","category":"other"},{"name":"레니식탁","tel":"02-2252-9966","addr":"경기도 고양시 덕양구 관산동 113-2번지","indutype":"","category":"other"},{"name":"리틀캐나다관산점영어학원","tel":"031-991-1953","addr":"경기도 고양시 덕양구 관산동 113-2번지","indutype":"","category":"other"},{"name":"리틀캐나다관산점영어학원","tel":"031-911-1935","addr":"경기도 고양시 덕양구 관산동 113-2번지","indutype":"","category":"other"},{"name":"리틀캐나다관산점영어학원","tel":"031-969-1935","addr":"경기도 고양시 덕양구 관산동 113-2번지","indutype":"","category":"other"},{"name":"모꼬지","tel":"031-962-4725","addr":"경기도 고양시 덕양구 관산동 113-2번지","indutype":"","category":"other"},{"name":"산야초건강원","tel":"031-962-1812","addr":"경기도 고양시 덕양구 관산동 113-2번지","indutype":"","category":"other"},{"name":"소소테이블","tel":"","addr":"경기도 고양시 덕양구 관산동 113-2번지","indutype":"","category":"other"},{"name":"신짱구네집","tel":"031-963-1844","addr":"경기도 고양시 덕양구 관산동 113-2번지","indutype":"","category":"other"},{"name":"씨즐","tel":"031-967-9123","addr":"경기도 고양시 덕양구 관산동 113-2번지","indutype":"","category":"other"},{"name":"엘리제이","tel":"031-905-5447","addr":"경기도 고양시 덕양구 관산동 113-2번지","indutype":"","category":"other"},{"name":"엘리제이","tel":"031-818-5162","addr":"경기도 고양시 덕양구 관산동 113-2번지","indutype":"","category":"other"},{"name":"오페라돈까스","tel":"031-963-1844","addr":"경기도 고양시 덕양구 관산동 113-2번지","indutype":"","category":"other"},{"name":"코인워시 일산관산주공그린빌점","tel":"031-963-9410","addr":"경기도 고양시 덕양구 관산동 113-2번지","indutype":"","category":"other"},{"name":"코인워시 일산관산주공그린빌점","tel":"031-963-9410","addr":"경기도 고양시 덕양구 관산동 113-2번지","indutype":"수리서비스 - 세탁소","category":"other"},{"name":"페밀리돈가스햄버거","tel":"031-963-1844","addr":"경기도 고양시 덕양구 관산동 113-2번지","indutype":"","category":"other"},{"name":"황태마을","tel":"031-963-2943","addr":"경기도 고양시 덕양구 관산동 113-2번지","indutype":"","category":"other"}]},{"lat":"37.685567296","long":"126.86466231","imageIndex":17,"items":[{"name":"과일나라","tel":"070-4324-5080","addr":"경기도 고양시 덕양구 관산동 193-17번지 희망빌라","indutype":"","category":"other"}]},{"lat":"37.698012639","long":"126.85242732","imageIndex":17,"items":[{"name":"관산공업사","tel":"031-962-0666","addr":"경기도 고양시 덕양구 관산동 774-2","indutype":"","category":"other"},{"name":"관산공업사","tel":"031-962-0666","addr":"경기도 고양시 덕양구 관산동","indutype":"수리서비스 - 기타수리서비스","category":"other"}]},{"lat":"37.688934888","long":"126.86295545","imageIndex":17,"items":[{"name":"관산동양푼이김치찌개동태탕","tel":"031-962-3392","addr":"경기도 고양시 덕양구 관산동 231-31번지","indutype":"","category":"other"},{"name":"삼순이낙지잡네","tel":"031-962-3392","addr":"경기도 고양시 덕양구 관산동 231-31번지","indutype":"","category":"other"},{"name":"시묘골숯불갈비","tel":"031-962-3392","addr":"경기도 고양시 덕양구 관산동 231-31번지","indutype":"","category":"other"},{"name":"신동태탕아구찜","tel":"031-962-3392","addr":"경기도 고양시 덕양구 관산동 231-31번지","indutype":"","category":"other"},{"name":"신동태탕아구찜","tel":"031-962-3392","addr":"경기도 고양시 덕양구 관산동 231-31번지","indutype":"","category":"other"}]},{"lat":"37.688326679","long":"126.86675459","imageIndex":17,"items":[{"name":"관산마트","tel":"031-964-5310","addr":"경기도 고양시 덕양구 관산동 180-32번지","indutype":"","category":"other"},{"name":"관산마트","tel":"031-964-5310","addr":"경기도 고양시 덕양구 관산동 180-32번지","indutype":"","category":"other"},{"name":"광장치킨","tel":"031-969-9199","addr":"경기도 고양시 덕양구 관산동 180-32번지","indutype":"","category":"other"},{"name":"성호미용실","tel":"031-967-2965","addr":"경기도 고양시 덕양구 관산동 180-32번지","indutype":"","category":"other"},{"name":"에이펙스영어교습소","tel":"031-965-6922","addr":"경기도 고양시 덕양구 관산동 180-32번지","indutype":"","category":"other"},{"name":"웅진유니아이수학교습소","tel":"031-963-8591","addr":"경기도 고양시 덕양구 관산동 180-32번지","indutype":"","category":"other"},{"name":"은지피아노","tel":"031-964-0550","addr":"경기도 고양시 덕양구 관산동 180-32번지","indutype":"","category":"other"},{"name":"일일공부벽제지사","tel":"031-962-2886","addr":"경기도 고양시 덕양구 관산동 180-32번지","indutype":"서적문구 - 일반서적","category":"other"},{"name":"일일공부벽제지사","tel":"031-962-2886","addr":"경기도 고양시 덕양구 관산동 180-32번지","indutype":"","category":"other"}]},{"lat":"37.688126148","long":"126.8647596","imageIndex":17,"items":[{"name":"관산술고래","tel":"031-966-3681","addr":"경기도 고양시 덕양구 관산동 227-1번지","indutype":"","category":"other"},{"name":"마을웰빙센타","tel":"031-962-6338","addr":"경기도 고양시 덕양구 관산동 227-1번지","indutype":"","category":"other"},{"name":"미오기삼계탕","tel":"031-963-4985","addr":"경기도 고양시 덕양구 관산동 227-1번지","indutype":"","category":"other"},{"name":"스타노래방","tel":"031-969-6304","addr":"경기도 고양시 덕양구 관산동 227-1번지","indutype":"","category":"other"},{"name":"아사모","tel":"031-963-7065","addr":"경기도 고양시 덕양구 관산동 227-1번지","indutype":"","category":"other"},{"name":"지짐동동","tel":"031-962-8398","addr":"경기도 고양시 덕양구 관산동 227-1번지","indutype":"","category":"other"},{"name":"큰손집","tel":"031-921-1438","addr":"경기도 고양시 덕양구 관산동 227-1번지","indutype":"","category":"other"}]},{"lat":"37.688790922","long":"126.86311444","imageIndex":17,"items":[{"name":"관산지앤비어학학원","tel":"031-964-0532","addr":"경기도 고양시 덕양구 관산동 231-11번지","indutype":"","category":"other"},{"name":"벽제중앙미술학원","tel":"031-964-1786","addr":"경기도 고양시 덕양구 관산동 231-11번지","indutype":"","category":"other"},{"name":"벽제중앙보습학원","tel":"031-964-1785","addr":"경기도 고양시 덕양구 관산동 231-11번지","indutype":"","category":"other"},{"name":"벽제중앙음악학원","tel":"031-962-4404","addr":"경기도 고양시 덕양구 관산동 231-11번지","indutype":"","category":"other"},{"name":"벽제중앙음악학원","tel":"031-964-0532","addr":"경기도 고양시 덕양구 관산동 231-11번지","indutype":"","category":"other"},{"name":"비 612","tel":"031-962-4404","addr":"경기도 고양시 덕양구 관산동 231-11번지","indutype":"","category":"other"},{"name":"비612","tel":"031-962-4404","addr":"경기도 고양시 덕양구 관산동 231-11번지","indutype":"","category":"other"},{"name":"선일컴퓨터교습소","tel":"031-963-2636","addr":"경기도 고양시 덕양구 관산동 231-11번지","indutype":"","category":"other"}]},{"lat":"37.68699319","long":"126.86670035","imageIndex":17,"items":[{"name":"관산카써비스","tel":"031-963-7474","addr":"경기도 고양시 덕양구 관산동 185번지","indutype":"","category":"other"},{"name":"대현상사","tel":"031-961-1588","addr":"경기도 고양시 덕양구 관산동 185번지","indutype":"문화.취미 - 애완동물","category":"other"},{"name":"대현상사","tel":"031-962-1588","addr":"경기도 고양시 덕양구 관산동 185번지","indutype":"","category":"other"},{"name":"더바삭","tel":"031-962-7917","addr":"경기도 고양시 덕양구 관산동 185번지","indutype":"","category":"other"},{"name":"더술집","tel":"031-962-7911","addr":"경기도 고양시 덕양구 관산동 185번지","indutype":"","category":"other"},{"name":"성신기획","tel":"031-964-4581","addr":"경기도 고양시 덕양구 관산동","indutype":"서적문구 - 출판 및 인쇄물","category":"other"},{"name":"성신기획","tel":"031-964-4581","addr":"경기도 고양시 덕양구 관산동 185번지","indutype":"","category":"other"},{"name":"성화전기조명","tel":"031-963-5111","addr":"경기도 고양시 덕양구 관산동","indutype":"건축자재 - 조명기구","category":"other"},{"name":"성화전기조명","tel":"031-963-5111","addr":"경기도 고양시 덕양구 관산동 185번지","indutype":"","category":"other"},{"name":"원당동물병원","tel":"031-962-1588","addr":"경기도 고양시 덕양구 관산동 185번지","indutype":"","category":"other"}]},{"lat":"37.706289494","long":"126.85723012","imageIndex":17,"items":[{"name":"굴렁쇠","tel":"031-967-1957","addr":"경기도 고양시 덕양구 관산동 688-3번지","indutype":"","category":"other"},{"name":"묘음노래방","tel":"031-962-3088","addr":"경기도 고양시 덕양구 관산동 688-3번지","indutype":"","category":"other"},{"name":"언니쓰","tel":"031-969-7303","addr":"경기도 고양시 덕양구 관산동 688-3번지","indutype":"","category":"other"},{"name":"은혜상사","tel":"031-969-9786","addr":"경기도 고양시 덕양구 관산동 688-3번지","indutype":"","category":"other"},{"name":"은혜상사","tel":"031-969-9786","addr":"경기도 고양시 덕양구 관산동 688-3번지","indutype":"건축자재 - 페인트","category":"other"},{"name":"키친스토리'상상'","tel":"02-356-3861","addr":"경기도 고양시 덕양구 관산동 688-3번지","indutype":"","category":"other"},{"name":"피자나라치킨공주 관산점","tel":"031-965-9284","addr":"경기도 고양시 덕양구 관산동 688-3번지","indutype":"","category":"other"}]},{"lat":"37.688432275","long":"126.86458897","imageIndex":17,"items":[{"name":"굿맘할매순대국","tel":"070-8201-1724","addr":"경기도 고양시 덕양구 관산동 228-6번지","indutype":"","category":"other"},{"name":"마산원조아구찜","tel":"031-969-0702","addr":"경기도 고양시 덕양구 관산동 228-6번지","indutype":"","category":"other"},{"name":"마산원조아구찜","tel":"031-969-0702","addr":"경기도 고양시 덕양구 관산동 228-6번지","indutype":"","category":"other"},{"name":"사시사철","tel":"031-964-4122","addr":"경기도 고양시 덕양구 관산동 228-6번지","indutype":"","category":"other"},{"name":"연포차","tel":"031-964-4585","addr":"경기도 고양시 덕양구 관산동 228-6번지","indutype":"","category":"other"}]},{"lat":"37.686767688","long":"126.86647402","imageIndex":17,"items":[{"name":"귀족","tel":"031-964-3003","addr":"경기도 고양시 덕양구 관산동 186번지","indutype":"","category":"other"},{"name":"돈바가지","tel":"031-964-1181","addr":"경기도 고양시 덕양구 관산동 186","indutype":"","category":"other"},{"name":"전주식당","tel":"031-963-3585","addr":"경기도 고양시 덕양구 관산동 186번지","indutype":"","category":"other"},{"name":"정다운관산슈퍼","tel":"031-964-3232","addr":"경기도 고양시 덕양구 관산동 186번지","indutype":"","category":"other"},{"name":"헤이치 (heych)","tel":"","addr":"경기도 고양시 덕양구 관산동 186번지","indutype":"","category":"other"},{"name":"헤이치 (heych)","tel":"","addr":"경기도 고양시 덕양구 관산동 186번지","indutype":"의류 - 정장","category":"other"}]},{"lat":"37.686323439","long":"126.86409406","imageIndex":17,"items":[{"name":"그곳에가면","tel":"031-962-0688","addr":"경기도 고양시 덕양구 관산동 211-2번지 102동","indutype":"","category":"other"},{"name":"주식회사 자연플러스","tel":"031-989-5561","addr":"경기도 고양시 덕양구 관산동 211-2번지","indutype":"","category":"other"}]},{"lat":"37.710099621","long":"126.85647418","imageIndex":17,"items":[{"name":"그린나래","tel":"031-963-2331","addr":"경기도 고양시 덕양구 관산동 671-4번지","indutype":"","category":"other"},{"name":"대명 인테리어","tel":"031-964-7006","addr":"경기도 고양시 덕양구 관산동 671-4번지","indutype":"건축자재 - 인테리어전문","category":"other"},{"name":"대명 인테리어","tel":"031-964-7006","addr":"경기도 고양시 덕양구 관산동 671-4번지","indutype":"","category":"other"},{"name":"봉주식당","tel":"031-962-2399","addr":"경기도 고양시 덕양구 관산동 671-4번지","indutype":"","category":"other"},{"name":"소바식당","tel":"031-962-2399","addr":"경기도 고양시 덕양구 관산동 671-4번지","indutype":"","category":"other"},{"name":"아르떼","tel":"02-1111-1111","addr":"경기도 고양시 덕양구 관산동 671-4번지","indutype":"의류 - 정장","category":"other"},{"name":"아르떼","tel":"","addr":"경기도 고양시 덕양구 관산동 671-4번지","indutype":"","category":"other"},{"name":"지니미용실","tel":"070-8161-6802","addr":"경기도 고양시 덕양구 관산동 671-4번지","indutype":"","category":"other"},{"name":"한마음세탁소","tel":"031-964-1097","addr":"경기도 고양시 덕양구 관산동 671-4번지","indutype":"","category":"other"},{"name":"한마음세탁소","tel":"031-964-1097","addr":"경기도 고양시 덕양구 관산동 671-4번지","indutype":"수리서비스 - 세탁소","category":"other"},{"name":"행복한미용실","tel":"031-962-1326","addr":"경기도 고양시 덕양구 관산동 671-4번지","indutype":"","category":"other"}]},{"lat":"37.705212306","long":"126.86047543","imageIndex":17,"items":[{"name":"그린인견","tel":"02-388-0848","addr":"경기도 고양시 덕양구 관산동 538-43번지 뉴한솔하이츠빌라","indutype":"","category":"other"}]},{"lat":"37.69040558","long":"126.86475537","imageIndex":17,"items":[{"name":"그옛날통닭","tel":"031-272-7410","addr":"경기도 고양시 덕양구 관산동 338-1번지","indutype":"","category":"other"},{"name":"김말자부엌","tel":"031-965-7658","addr":"경기도 고양시 덕양구 관산동 338-1번지","indutype":"","category":"other"},{"name":"나나공방","tel":"070-8868-3867","addr":"경기도 고양시 덕양구 관산동 338-1번지","indutype":"","category":"other"},{"name":"놀코치킨","tel":"031-965-9289","addr":"경기도 고양시 덕양구 관산동 338-1번지","indutype":"","category":"other"},{"name":"다린","tel":"031-969-8530","addr":"경기도 고양시 덕양구 관산동 338-1번지","indutype":"","category":"other"},{"name":"만석칼국수","tel":"031-965-9289","addr":"경기도 고양시 덕양구 관산동 338-1번지","indutype":"","category":"other"},{"name":"명문학원","tel":"031-964-9100","addr":"경기도 고양시 덕양구 관산동 338-1번지","indutype":"","category":"other"},{"name":"모모헤어","tel":"031-964-8381","addr":"경기도 고양시 덕양구 관산동 338-1번지","indutype":"","category":"other"},{"name":"상상가.커필.동의백세","tel":"070-8813-1914","addr":"경기도 고양시 덕양구 관산동 338-1번지","indutype":"","category":"other"},{"name":"수연헤어","tel":"031-964-7129","addr":"경기도 고양시 덕양구 관산동 338-1번지","indutype":"","category":"other"},{"name":"아맵다떡볶이","tel":"031-0-0000","addr":"경기도 고양시 덕양구 관산동 338-1번지","indutype":"","category":"other"},{"name":"용인대세심태권도장","tel":"031-963-0220","addr":"경기도 고양시 덕양구 관산동 338-1번지","indutype":"","category":"other"},{"name":"유앤아이","tel":"031-963-2346","addr":"경기도 고양시 덕양구 관산동 338-1번지","indutype":"","category":"other"},{"name":"장충동진족발","tel":"031-965-9289","addr":"경기도 고양시 덕양구 관산동 338-1번지","indutype":"","category":"other"},{"name":"지혜의샘논술교습소","tel":"031-969-0927","addr":"경기도 고양시 덕양구 관산동 338-1번지","indutype":"","category":"other"},{"name":"치킨플러스 관산점","tel":"031-2734-8887","addr":"경기도 고양시 덕양구 관산동 338-1번지","indutype":"","category":"other"},{"name":"하모닉스음악학원","tel":"031-964-7776","addr":"경기도 고양시 덕양구 관산동 338-1번지","indutype":"","category":"other"},{"name":"한우야 돼지야","tel":"031-969-9293","addr":"경기도 고양시 덕양구 관산동 338-1번지","indutype":"","category":"other"},{"name":"한우야돼지야","tel":"031-969-9293","addr":"경기도 고양시 덕양구 관산동 338-1번지","indutype":"","category":"other"},{"name":"현당구장","tel":"031-969-3978","addr":"경기도 고양시 덕양구 관산동 338-1번지","indutype":"","category":"other"},{"name":"현당구장","tel":"031-969-3978","addr":"경기도 고양시 덕양구 관산동 338-1번지","indutype":"","category":"other"},{"name":"현당구장","tel":"031-969-3978","addr":"경기도 고양시 덕양구 관산동 338-1번지","indutype":"","category":"other"},{"name":"호호 닭발","tel":"031-962-2841","addr":"경기도 고양시 덕양구 관산동 338-1번지","indutype":"","category":"other"}]},{"lat":"37.687846849","long":"126.86476012","imageIndex":17,"items":[{"name":"글라스스토리","tel":"031-962-3331","addr":"경기도 고양시 덕양구 관산동 227-11번지","indutype":"","category":"other"},{"name":"백민당구장","tel":"031-964-9904","addr":"경기도 고양시 덕양구 관산동 227-11번지","indutype":"","category":"other"},{"name":"통일로약국","tel":"031-969-3636","addr":"경기도 고양시 덕양구 관산동 227-11번지","indutype":"","category":"other"}]},{"lat":"37.711870976","long":"126.86095035","imageIndex":17,"items":[{"name":"금강아트컬쳐","tel":"","addr":"경기도 고양시 덕양구 관산동 576-12번지","indutype":"","category":"other"},{"name":"금강아트컬쳐","tel":"","addr":"경기도 고양시 덕양구 관산동 576-12번지","indutype":"전기제품 - 가전제품","category":"other"},{"name":"씨엔지엔","tel":"031-938-2112","addr":"경기도 고양시 덕양구 관산동 576-12번지","indutype":"","category":"other"},{"name":"주식회사 다사무역 지점","tel":"02-1899-0363","addr":"경기도 고양시 덕양구 관산동 576-12번지","indutype":"","category":"other"}]},{"lat":"37.686513771","long":"126.86505735","imageIndex":17,"items":[{"name":"금마루식당","tel":"031-962-7894","addr":"경기도 고양시 덕양구 관산동 196-2번지","indutype":"","category":"other"}]},{"lat":"37.688322868","long":"126.87133488","imageIndex":17,"items":[{"name":"금산철쭉원","tel":"031-964-7672","addr":"경기도 고양시 덕양구 관산동 154번지","indutype":"","category":"other"},{"name":"명화원","tel":"031-962-4001","addr":"경기도 고양시 덕양구 관산동 154번지","indutype":"","category":"other"},{"name":"명화원","tel":"031-962-4001","addr":"경기도 고양시 덕양구 관산동 154번지","indutype":"문화.취미 - 화원","category":"other"},{"name":"무지개","tel":"031-963-9324","addr":"경기도 고양시 덕양구 관산동 154번지","indutype":"","category":"other"},{"name":"무지개화원","tel":"031-963-9324","addr":"경기도 고양시 덕양구 관산동 154번지","indutype":"","category":"other"},{"name":"샬롬농원","tel":"031-962-9515","addr":"경기도 고양시 덕양구 관산동 154번지","indutype":"","category":"other"},{"name":"샬롬농원","tel":"031-962-9515","addr":"경기도 고양시 덕양구 관산동 154번지","indutype":"문화.취미 - 화원","category":"other"},{"name":"양한식물원","tel":"02-386-8888","addr":"경기도 고양시 덕양구 관산동 154번지","indutype":"","category":"other"},{"name":"양한식물원","tel":"02-386-8888","addr":"경기도 고양시 덕양구 관산동 154번지","indutype":"문화.취미 - 화원","category":"other"},{"name":"청안분재예술원","tel":"031-963-5255","addr":"경기도 고양시 덕양구 관산동 154번지","indutype":"","category":"other"},{"name":"흙,뿌리화원","tel":"031-969-6670","addr":"경기도 고양시 덕양구 관산동 154번지","indutype":"문화.취미 - 화원","category":"other"},{"name":"흙,뿌리화원","tel":"031-969-6670","addr":"경기도 고양시 덕양구 관산동 154번지","indutype":"","category":"other"}]},{"lat":"37.705570941","long":"126.85903458","imageIndex":17,"items":[{"name":"기로스그릴치킨","tel":"031-963-2987","addr":"경기도 고양시 덕양구 관산동 540번지 비채빌","indutype":"","category":"other"}]},{"lat":"37.687378601","long":"126.86497639","imageIndex":17,"items":[{"name":"길","tel":"031-964-8085","addr":"경기도 고양시 덕양구 관산동 188-22번지","indutype":"","category":"other"},{"name":"은방울 머리방","tel":"031-964-9097","addr":"경기도 고양시 덕양구 관산동 188-22번지","indutype":"","category":"other"},{"name":"착한김밥","tel":"031-964-3822","addr":"경기도 고양시 덕양구 관산동 188-22번지","indutype":"","category":"other"},{"name":"프루트랜드","tel":"031-962-0942","addr":"경기도 고양시 덕양구 관산동 188-22번지","indutype":"","category":"other"}]},{"lat":"37.690269984","long":"126.86437014","imageIndex":17,"items":[{"name":"김쌤이랑학원","tel":"031-964-6008","addr":"경기도 고양시 덕양구 관산동 1005번지","indutype":"","category":"other"},{"name":"스윙스커피로스터스","tel":"031-963-0531","addr":"경기도 고양시 덕양구 관산동 1005번지","indutype":"","category":"other"},{"name":"아이스크림할인점","tel":"02-1234-1234","addr":"경기도 고양시 덕양구 관산동 1005번지","indutype":"","category":"other"}]},{"lat":"37.689180591","long":"126.86502974","imageIndex":17,"items":[{"name":"김옥순헤어샵","tel":"031-964-8686","addr":"경기도 고양시 덕양구 관산동 114-1번지","indutype":"","category":"other"},{"name":"남도찬방","tel":"031-969-3983","addr":"경기도 고양시 덕양구 관산동 114-1번지","indutype":"","category":"other"},{"name":"친구네","tel":"031-969-3983","addr":"경기도 고양시 덕양구 관산동 114-1번지","indutype":"","category":"other"},{"name":"테라","tel":"031-812-3107","addr":"경기도 고양시 덕양구 관산동 114-1번지","indutype":"","category":"other"}]},{"lat":"37.705598416","long":"126.86700651","imageIndex":17,"items":[{"name":"까밀라","tel":"031-963-5374","addr":"경기도 고양시 덕양구 관산동 33-1번지","indutype":"직물 - 침구·수예점","category":"other"},{"name":"까밀라","tel":"031-963-5374","addr":"경기도 고양시 덕양구 관산동 33-1번지","indutype":"","category":"other"}]},{"lat":"37.705099949","long":"126.85700565","imageIndex":17,"items":[{"name":"까치슈퍼","tel":"031-968-8914","addr":"경기도 고양시 덕양구 관산동 690-11번지","indutype":"","category":"other"},{"name":"아리치킨","tel":"031-969-3392","addr":"경기도 고양시 덕양구 관산동 690-11번지","indutype":"","category":"other"},{"name":"용화루","tel":"031-962-4433","addr":"경기도 고양시 덕양구 관산동 690-11번지","indutype":"","category":"other"},{"name":"용화루","tel":"031-962-4433","addr":"경기도 고양시 덕양구 관산동 690-11번지","indutype":"","category":"other"}]},{"lat":"37.686656755","long":"126.86405942","imageIndex":17,"items":[{"name":"꼬꼬네닭갈비","tel":"031-964-4906","addr":"경기도 고양시 덕양구 관산동 222-2번지","indutype":"","category":"other"},{"name":"머리끄댕이","tel":"031-964-1002","addr":"경기도 고양시 덕양구 관산동 222-2번지","indutype":"","category":"other"},{"name":"유진미용실","tel":"031-966-5385","addr":"경기도 고양시 덕양구 관산동 222-2번지","indutype":"","category":"other"},{"name":"행신건축설비","tel":"031-970-7267","addr":"경기도 고양시 덕양구 관산동 222-2번지","indutype":"","category":"other"},{"name":"행신건축설비","tel":"031-970-7267","addr":"경기도 고양시 덕양구 관산동","indutype":"용역 서비스 - 기타용역서비스","category":"other"}]},{"lat":"37.705901155","long":"126.85648244","imageIndex":17,"items":[{"name":"꼬끼오 삼계탕","tel":"031-963-9009","addr":"경기도 고양시 덕양구 관산동 692-8번지","indutype":"","category":"other"},{"name":"백가네","tel":"031-966-8808","addr":"경기도 고양시 덕양구 관산동 692-8번지","indutype":"","category":"other"},{"name":"삼오설비공사","tel":"031-964-3504","addr":"경기도 고양시 덕양구 관산동 692-8번지","indutype":"수리서비스 - 기타수리서비스","category":"other"},{"name":"삼오설비공사","tel":"031-964-3504","addr":"경기도 고양시 덕양구 관산동 692-8번지","indutype":"","category":"other"}]},{"lat":"37.688153362","long":"126.86491827","imageIndex":17,"items":[{"name":"꿈의대화","tel":"031-969-3400","addr":"경기도 고양시 덕양구 관산동 182-6번지","indutype":"","category":"other"},{"name":"성심포목","tel":"031-963-3266","addr":"경기도 고양시 덕양구 관산동 182-6번지","indutype":"","category":"other"},{"name":"아이비","tel":"031-962-9366","addr":"경기도 고양시 덕양구 관산동 182-6번지","indutype":"","category":"other"}]},{"lat":"37.687744728","long":"126.86220943","imageIndex":17,"items":[{"name":"나무스케치","tel":"070-4038-7056","addr":"경기도 고양시 덕양구 관산동 247-3번지 금강빌라","indutype":"","category":"other"},{"name":"나무스케치","tel":"070-4038-7056","addr":"경기도 고양시 덕양구 관산동 247-3번지 금강빌라","indutype":"가구 - 기타가구","category":"other"}]},{"lat":"37.714621009","long":"126.87050585","imageIndex":17,"items":[{"name":"나무앤퍼니(namu&funi)","tel":"070-8257-8730","addr":"경기도 고양시 덕양구 관산동 635-2번지","indutype":"","category":"other"}]},{"lat":"37.68621519","long":"126.86398089","imageIndex":17,"items":[{"name":"남도반찬","tel":"","addr":"경기도 고양시 덕양구 관산동 210번지 대도빌라","indutype":"","category":"other"}]},{"lat":"37.686684409","long":"126.86459221","imageIndex":17,"items":[{"name":"남도아구찜백반","tel":"031-963-8082","addr":"경기도 고양시 덕양구 관산동 224-2번지","indutype":"","category":"other"},{"name":"주식회사 오성드림라이프","tel":"02-1661-4607","addr":"경기도 고양시 덕양구 관산동 224-2번지","indutype":"용역 서비스 - 가례서비스업","category":"other"},{"name":"주식회사 오성드림라이프","tel":"02-1661-4607","addr":"경기도 고양시 덕양구 관산동 224-2번지","indutype":"","category":"other"},{"name":"티엔백","tel":"031-964-1999","addr":"경기도 고양시 덕양구 관산동 224-2번지","indutype":"","category":"other"}]},{"lat":"37.7126834","long":"126.86225302","imageIndex":17,"items":[{"name":"남문세차","tel":"031-0-0000","addr":"경기도 고양시 덕양구 관산동 565-5번지","indutype":"","category":"other"}]},{"lat":"37.686938174","long":"126.86587284","imageIndex":17,"items":[{"name":"내맘대로","tel":"031-962-2646","addr":"경기도 고양시 덕양구 관산동 188-11번지","indutype":"","category":"other"},{"name":"빨강앤노랑치킨","tel":"031-962-2646","addr":"경기도 고양시 덕양구 관산동 188-11번지","indutype":"","category":"other"},{"name":"영커피숍","tel":"031-962-4303","addr":"경기도 고양시 덕양구 관산동 188-11번지","indutype":"","category":"other"},{"name":"우리동네","tel":"031-962-4807","addr":"경기도 고양시 덕양구 관산동 188-11번지","indutype":"","category":"other"},{"name":"패리김미용실","tel":"031-962-7827","addr":"경기도 고양시 덕양구 관산동 188-11번지","indutype":"","category":"other"}]},{"lat":"37.693127439","long":"126.85803819","imageIndex":17,"items":[{"name":"네비하우스","tel":"02-382-0799","addr":"경기도 고양시 덕양구 관산동 355번지","indutype":"","category":"other"},{"name":"벽제타이어","tel":"031-963-4938","addr":"경기도 고양시 덕양구 관산동 355번지","indutype":"","category":"other"},{"name":"유성(위플러스 통일점)","tel":"031-962-8055","addr":"경기도 고양시 덕양구 관산동 355번지","indutype":"유통업 영리 - 편 의 점","category":"other"},{"name":"유성(위플러스 통일점)","tel":"031-962-8055","addr":"경기도 고양시 덕양구 관산동 355번지","indutype":"","category":"other"}]},{"lat":"37.688933862","long":"126.86209381","imageIndex":17,"items":[{"name":"노마진아이스크림관산점","tel":"","addr":"경기도 고양시 덕양구 관산동 231-55번지","indutype":"","category":"other"},{"name":"로니잉글리쉬학원","tel":"070-7794-7546","addr":"경기도 고양시 덕양구 관산동 231-55번지","indutype":"","category":"other"},{"name":"양지공인중개사사무소","tel":"031-962-8549","addr":"경기도 고양시 덕양구 관산동 231-55번지","indutype":"","category":"other"},{"name":"양지공인중개사사무소","tel":"031-962-8549","addr":"경기도 고양시 덕양구 관산동 231-55번지","indutype":"용역 서비스 - 부동산 중개·임대","category":"other"},{"name":"토스트굽는사람들(벽제점)","tel":"031-963-2300","addr":"경기도 고양시 덕양구 관산동 231-55번지","indutype":"","category":"other"}]},{"lat":"37.68801774","long":"126.86451038","imageIndex":17,"items":[{"name":"놀부부대찌개&놀부보쌈","tel":"031-962-8287","addr":"경기도 고양시 덕양구 관산동 227-6번지","indutype":"","category":"other"},{"name":"떡볶이나라","tel":"031-964-8182","addr":"경기도 고양시 덕양구 관산동 227-6번지","indutype":"","category":"other"},{"name":"이디야 고양관산점","tel":"031-969-8284","addr":"경기도 고양시 덕양구 관산동 227-6번지","indutype":"","category":"other"},{"name":"파리바게트고양관산점","tel":"031-962-8284","addr":"경기도 고양시 덕양구 관산동 227-6번지","indutype":"","category":"other"},{"name":"현대상사(Mr.리인테리어)","tel":"031-963-9613","addr":"경기도 고양시 덕양구 관산동 227-6번지","indutype":"","category":"other"},{"name":"화장품마트","tel":"031-963-8310","addr":"경기도 고양시 덕양구 관산동 227-6번지","indutype":"","category":"other"}]},{"lat":"37.709685363","long":"126.85662242","imageIndex":17,"items":[{"name":"눈꽃향기미용실","tel":"031-962-6240","addr":"경기도 고양시 덕양구 관산동 685-108번지","indutype":"","category":"other"},{"name":"대성구제","tel":"070-5022-4846","addr":"경기도 고양시 덕양구 관산동 685-108번지","indutype":"","category":"other"},{"name":"티트리","tel":"070-5022-4846","addr":"경기도 고양시 덕양구 관산동 685-108번지","indutype":"","category":"other"}]},{"lat":"37.713650707","long":"126.86502978","imageIndex":17,"items":[{"name":"뉴 중앙 캐노피","tel":"031-963-7091","addr":"경기도 고양시 덕양구 관산동 626-3번지","indutype":"직물 - 기타직물","category":"other"},{"name":"뉴 중앙 캐노피","tel":"031-963-7091","addr":"경기도 고양시 덕양구 관산동 626-3번지","indutype":"","category":"other"},{"name":"이레콤","tel":"031-962-4525","addr":"경기도 고양시 덕양구 관산동 626-3번지","indutype":"","category":"other"},{"name":"이레콤","tel":"031-962-4525","addr":"경기도 고양시 덕양구 관산동 626-3번지","indutype":"기타 - 기계공구","category":"other"},{"name":"코리엘","tel":"031-962-4525","addr":"경기도 고양시 덕양구 관산동 626-3번지","indutype":"기타 - 기타 전문점","category":"other"},{"name":"코리엘","tel":"031-962-4525","addr":"경기도 고양시 덕양구 관산동 626-3번지","indutype":"","category":"other"},{"name":"코미얀 테크","tel":"031-962-2483","addr":"경기도 고양시 덕양구 관산동 626-3번지","indutype":"기타 - 기계공구","category":"other"},{"name":"코미얀 테크","tel":"031-962-2483","addr":"경기도 고양시 덕양구 관산동 626-3번지","indutype":"","category":"other"}]},{"lat":"37.70887178","long":"126.85444665","imageIndex":17,"items":[{"name":"다연마트","tel":"031-962-2544","addr":"경기도 고양시 덕양구 관산동 672-47번지","indutype":"","category":"other"},{"name":"다연마트","tel":"031-962-2544","addr":"경기도 고양시 덕양구 관산동 672-47번지","indutype":"유통업 영리 - 편 의 점","category":"other"},{"name":"베로스트커피 (VEROAST COFFEE)","tel":"031-963-4340","addr":"경기도 고양시 덕양구 관산동 672-47번지","indutype":"","category":"other"},{"name":"오땡큐","tel":"031-962-2198","addr":"경기도 고양시 덕양구 관산동 672-47번지","indutype":"","category":"other"},{"name":"진칼국수","tel":"031-967-5533","addr":"경기도 고양시 덕양구 관산동 672-47번지","indutype":"","category":"other"}]},{"lat":"37.712219943","long":"126.85896502","imageIndex":17,"items":[{"name":"닥터리의레시피(Dr.Lee's Recipe)","tel":"070-4179-5575","addr":"경기도 고양시 덕양구 관산동 657-31번지 훼미리빌","indutype":"","category":"other"}]},{"lat":"37.692748132","long":"126.86479638","imageIndex":17,"items":[{"name":"단비","tel":"031-963-4461","addr":"경기도 고양시 덕양구 관산동 996번지 주공그린빌아파트","indutype":"의류 - 정장","category":"other"},{"name":"단비","tel":"031-963-4461","addr":"경기도 고양시 덕양구 관산동 996번지 주공그린빌아파트","indutype":"","category":"other"},{"name":"단비","tel":"031-963-4461","addr":"경기도 고양시 덕양구 관산동 996번지 주공그린빌아파트","indutype":"","category":"other"}]},{"lat":"37.708737064","long":"126.85478713","imageIndex":17,"items":[{"name":"대광전기","tel":"031-963-5826","addr":"경기도 고양시 덕양구 관산동 674-6번지","indutype":"","category":"other"},{"name":"대광전기","tel":"031-963-5826","addr":"경기도 고양시 덕양구 관산동 674-6번지","indutype":"수리서비스 - 기타수리서비스","category":"other"},{"name":"땡초식당","tel":"031-963-2746","addr":"경기도 고양시 덕양구 관산동 674-6번지","indutype":"","category":"other"},{"name":"땡초식당","tel":"031-963-2746","addr":"경기도 고양시 덕양구 관산동 674-6번지","indutype":"","category":"other"},{"name":"레인보우(옷가게)구제","tel":"031-969-0609","addr":"경기도 고양시 덕양구 관산동 674-6번지","indutype":"","category":"other"},{"name":"우진열기","tel":"031-964-5164","addr":"경기도 고양시 덕양구 관산동 674-6번지","indutype":"","category":"other"},{"name":"우진열기","tel":"031-964-5164","addr":"경기도 고양시 덕양구 관산동 674-6번지","indutype":"기타 - 기계공구","category":"other"}]},{"lat":"37.688271492","long":"126.86577969","imageIndex":17,"items":[{"name":"대명노래방","tel":"031-964-5832","addr":"경기도 고양시 덕양구 관산동 179-6번지","indutype":"","category":"other"},{"name":"명동감자탕","tel":"031-962-8069","addr":"경기도 고양시 덕양구 관산동 179-6번지","indutype":"","category":"other"},{"name":"솔로몬문구","tel":"031-964-2212","addr":"경기도 고양시 덕양구 관산동 179-6번지","indutype":"","category":"other"},{"name":"시즌PC카페","tel":"","addr":"경기도 고양시 덕양구 관산동 179-6번지","indutype":"","category":"other"},{"name":"심야식당","tel":"031-967-7525","addr":"경기도 고양시 덕양구 관산동 179-6번지","indutype":"","category":"other"},{"name":"이롬고양관산지점","tel":"031-966-7332","addr":"경기도 고양시 덕양구 관산동 179-6번지","indutype":"","category":"other"},{"name":"이모네포장마차","tel":"031-968-6664","addr":"경기도 고양시 덕양구 관산동 179-6번지","indutype":"","category":"other"},{"name":"이탈리안 피자 앤 족발","tel":"031-962-8078","addr":"경기도 고양시 덕양구 관산동 179-6번지","indutype":"","category":"other"},{"name":"일단한끼때워","tel":"031-847-5258","addr":"경기도 고양시 덕양구 관산동 179-6번지","indutype":"","category":"other"},{"name":"장사부오떡순","tel":"070-4308-9095","addr":"경기도 고양시 덕양구 관산동 179-6번지","indutype":"","category":"other"},{"name":"헤어클럽지오","tel":"031-962-8770","addr":"경기도 고양시 덕양구 관산동 179-6번지","indutype":"","category":"other"}]},{"lat":"37.688215004","long":"126.86370506","imageIndex":17,"items":[{"name":"대명종합상사","tel":"031-964-9000","addr":"경기도 고양시 덕양구 관산동 231-16번지","indutype":"","category":"other"},{"name":"벽제흑염소","tel":"031-962-8827","addr":"경기도 고양시 덕양구 관산동 231-16번지","indutype":"","category":"other"},{"name":"서울연합의원","tel":"031-962-3280","addr":"경기도 고양시 덕양구 관산동 231-16번지","indutype":"","category":"other"}]},{"lat":"37.688319904","long":"126.86870463","imageIndex":17,"items":[{"name":"대성우리농산","tel":"031-964-1532","addr":"경기도 고양시 덕양구 관산동 162-1번지","indutype":"","category":"other"},{"name":"대성우리농산","tel":"031-963-1532","addr":"경기도 고양시 덕양구 관산동 162-1번지","indutype":"","category":"other"}]},{"lat":"37.68832002","long":"126.86880666","imageIndex":17,"items":[{"name":"대성우리농산","tel":"031-962-8185","addr":"경기도 고양시 덕양구 관산동 161-3 외1필지 1층","indutype":"","category":"other"}]},{"lat":"37.701268133","long":"126.86217254","imageIndex":17,"items":[{"name":"대신운수","tel":"070-7854-4383","addr":"경기도 고양시 덕양구 관산동 437-1번지","indutype":"","category":"other"}]},{"lat":"37.708566848","long":"126.85555862","imageIndex":17,"items":[{"name":"대신택배 고양벽제점","tel":"031-962-3662","addr":"경기도 고양시 덕양구 관산동 685-30번지","indutype":"","category":"other"}]},{"lat":"37.687351639","long":"126.86503313","imageIndex":17,"items":[{"name":"대영열쇠","tel":"031-966-1304","addr":"경기도 고양시 덕양구 관산동 188-5번지","indutype":"","category":"other"},{"name":"대영열쇠","tel":"031-966-1304","addr":"경기도 고양시 덕양구 관산동 188-5번지","indutype":"건축자재 - 목재·석재·철물","category":"other"}]},{"lat":"37.709541097","long":"126.85653198","imageIndex":17,"items":[{"name":"대영철물건재","tel":"031-963-1129","addr":"경기도 고양시 덕양구 관산동 685-69번지","indutype":"건축자재 - 기타건축자재","category":"other"},{"name":"대영철물건재","tel":"031-963-1129","addr":"경기도 고양시 덕양구 관산동 685-69번지","indutype":"","category":"other"},{"name":"주영공업사","tel":"031-969-1688","addr":"경기도 고양시 덕양구 관산동 685-69번지","indutype":"","category":"other"}]},{"lat":"37.688568757","long":"126.86573379","imageIndex":17,"items":[{"name":"대원세차장","tel":"031-964-1145","addr":"경기도 고양시 덕양구 관산동 181-50번지","indutype":"","category":"other"},{"name":"잔머리앤손장난","tel":"031-962-7337","addr":"경기도 고양시 덕양구 관산동 181-50번지","indutype":"","category":"other"},{"name":"잔머리앤손장난","tel":"031-962-7337","addr":"경기도 고양시 덕양구 관산동 181-50번지","indutype":"","category":"other"},{"name":"참사랑노인요양센터","tel":"031-962-3155","addr":"경기도 고양시 덕양구 관산동 181-50번지","indutype":"기타의료기관 - 기타의료기관 및 기타","category":"other"},{"name":"참사랑노인요양센터","tel":"031-962-3155","addr":"경기도 고양시 덕양구 관산동 181-50번지","indutype":"","category":"other"}]},{"lat":"37.712510082","long":"126.86813933","imageIndex":17,"items":[{"name":"대일공예","tel":"02-2272-9690","addr":"경기도 고양시 덕양구 관산동","indutype":"건축자재 - 인테리어전문","category":"other"},{"name":"대일공예","tel":"02-2272-9690","addr":"경기도 고양시 덕양구 관산동 605-1번지","indutype":"","category":"other"},{"name":"자연과휴식","tel":"02-400-0910","addr":"경기도 고양시 덕양구 관산동 605-1번지","indutype":"건축자재 - 인테리어전문","category":"other"},{"name":"자연과휴식","tel":"02-400-0910","addr":"경기도 고양시 덕양구 관산동 605-1번지","indutype":"","category":"other"}]},{"lat":"37.687875713","long":"126.86633594","imageIndex":17,"items":[{"name":"대한종합상사","tel":"031-962-4679","addr":"경기도 고양시 덕양구 관산동 178-1번지","indutype":"","category":"other"},{"name":"대한종합상사","tel":"031-962-4679","addr":"경기도 고양시 덕양구 관산동","indutype":"사무통신 - 사무용 OA기기","category":"other"}]},{"lat":"37.70179602","long":"126.85912125","imageIndex":17,"items":[{"name":"덕수당153","tel":"031-967-2474","addr":"경기도 고양시 덕양구 관산동 487-1번지","indutype":"","category":"other"},{"name":"소나무숲카페","tel":"031-967-6572","addr":"경기도 고양시 덕양구 관산동 487-1번지","indutype":"","category":"other"}]},{"lat":"37.708234186","long":"126.85611496","imageIndex":17,"items":[{"name":"도깨비장작구이","tel":"031-969-8295","addr":"경기도 고양시 덕양구 관산동 685-79번지","indutype":"","category":"other"},{"name":"발해윤활유","tel":"031-968-5185","addr":"경기도 고양시 덕양구 관산동 685-79번지","indutype":"","category":"other"},{"name":"백향목","tel":"031-965-2252","addr":"경기도 고양시 덕양구 관산동 685-79번지","indutype":"","category":"other"},{"name":"오토오아시스","tel":"031-966-0841","addr":"경기도 고양시 덕양구 관산동 685-79번지","indutype":"","category":"other"},{"name":"우진테크","tel":"031-969-8741","addr":"경기도 고양시 덕양구 관산동 685-79번지","indutype":"","category":"other"},{"name":"우진테크","tel":"031-969-8741","addr":"경기도 고양시 덕양구 관산동 685-79번지","indutype":"수리서비스 - 기타수리서비스","category":"other"}]},{"lat":"37.706487677","long":"126.85720705","imageIndex":17,"items":[{"name":"도날드돈까스식당","tel":"031-962-9066","addr":"경기도 고양시 덕양구 관산동 688-1번지","indutype":"","category":"other"},{"name":"벧엘하우스","tel":"031-967-1582","addr":"경기도 고양시 덕양구 관산동 688-1번지","indutype":"건축자재 - 인테리어전문","category":"other"},{"name":"벧엘하우스","tel":"031-967-1582","addr":"경기도 고양시 덕양구 관산동 688-1번지","indutype":"","category":"other"}]},{"lat":"37.688851252","long":"126.86851093","imageIndex":17,"items":[{"name":"도넛 스토리","tel":"031-964-6156","addr":"경기도 고양시 덕양구 관산동 115-3번지","indutype":"","category":"other"}]},{"lat":"37.71054028","long":"126.86323237","imageIndex":17,"items":[{"name":"도시바다","tel":"031-962-8853","addr":"경기도 고양시 덕양구 관산동 559-13번지","indutype":"","category":"other"}]},{"lat":"37.688823252","long":"126.86766068","imageIndex":17,"items":[{"name":"독곶이","tel":"070-2699-0807","addr":"경기도 고양시 덕양구 관산동 178-57번지 새서울아파트","indutype":"의류 - 정장","category":"other"},{"name":"아르엠(Allem)","tel":"","addr":"경기도 고양시 덕양구 관산동 178-57번지 새서울아파트","indutype":"의류 - 정장","category":"other"}]},{"lat":"37.68890165","long":"126.86533637","imageIndex":17,"items":[{"name":"돈바가지","tel":"031-964-1181","addr":"경기도 고양시 덕양구 관산동 181-51번지","indutype":"","category":"other"},{"name":"산카이덕양관산점","tel":"031-811-1182","addr":"경기도 고양시 덕양구 관산동 181-51번지","indutype":"","category":"other"},{"name":"요술(요리하는술집)","tel":"070-5025-1981","addr":"경기도 고양시 덕양구 관산동 181-51번지","indutype":"","category":"other"},{"name":"제주생고기","tel":"","addr":"경기도 고양시 덕양구 관산동 181-51번지","indutype":"","category":"other"}]},{"lat":"37.704931661","long":"126.85936467","imageIndex":17,"items":[{"name":"동그라미","tel":"031-962-9542","addr":"경기도 고양시 덕양구 관산동 539-1번지","indutype":"","category":"other"},{"name":"바람개비","tel":"031-963-2793","addr":"경기도 고양시 덕양구 관산동 539-1번지","indutype":"","category":"other"}]},{"lat":"37.688152524","long":"126.86420402","imageIndex":17,"items":[{"name":"동네왕노가리","tel":"031-962-0003","addr":"경기도 고양시 덕양구 관산동 231-1번지","indutype":"","category":"other"},{"name":"동네왕노가리","tel":"031-962-0003","addr":"경기도 고양시 덕양구 관산동 231-1번지","indutype":"","category":"other"},{"name":"애주가개근상","tel":"031-966-1445","addr":"경기도 고양시 덕양구 관산동 231-1번지","indutype":"","category":"other"},{"name":"야채랑청과","tel":"031-966-1445","addr":"경기도 고양시 덕양구 관산동 231-1번지","indutype":"","category":"other"},{"name":"커피에반하다 고양관산점","tel":"031-968-1517","addr":"경기도 고양시 덕양구 관산동 231-1번지","indutype":"","category":"other"},{"name":"헤어노블레스","tel":"031-964-3722","addr":"경기도 고양시 덕양구 관산동 231-1번지","indutype":"","category":"other"},{"name":"헤어노블레스(HAIRNOBLESS)","tel":"031-964-3722","addr":"경기도 고양시 덕양구 관산동 231-1번지","indutype":"","category":"other"}]},{"lat":"37.687766015","long":"126.86497567","imageIndex":17,"items":[{"name":"동희약국","tel":"031-963-8029","addr":"경기도 고양시 덕양구 관산동 182-2번지","indutype":"","category":"other"},{"name":"모모의다락방","tel":"031-962-6904","addr":"경기도 고양시 덕양구 관산동 182-2번지","indutype":"","category":"other"},{"name":"배스킨라빈스 고양관산점","tel":"031-963-3130","addr":"경기도 고양시 덕양구 관산동 182-2번지","indutype":"","category":"other"},{"name":"실내포장마차","tel":"031-962-8837","addr":"경기도 고양시 덕양구 관산동 182-2번지","indutype":"","category":"other"}]},{"lat":"37.709621464","long":"126.85595345","imageIndex":17,"items":[{"name":"두배로마트(관산점)","tel":"031-964-6077","addr":"경기도 고양시 덕양구 관산동 672-1번지","indutype":"","category":"other"}]},{"lat":"37.686405337","long":"126.86478546","imageIndex":17,"items":[{"name":"두배로마트(벽제점)","tel":"031-963-0709","addr":"경기도 고양시 덕양구 관산동 211-4번지","indutype":"","category":"other"}]},{"lat":"37.690076017","long":"126.86803254","imageIndex":17,"items":[{"name":"두원전자","tel":"031-969-8219","addr":"경기도 고양시 덕양구 관산동 118-2번지 삼성타운","indutype":"","category":"other"},{"name":"두원전자","tel":"031-969-8219","addr":"경기도 고양시 덕양구 관산동 118-2번지 삼성타운","indutype":"전기제품 - 냉열기기","category":"other"}]},{"lat":"37.701158413","long":"126.86083471","imageIndex":17,"items":[{"name":"두포동슈퍼","tel":"","addr":"경기도 고양시 덕양구 관산동 479-2번지","indutype":"","category":"other"}]},{"lat":"37.706019305","long":"126.85731003","imageIndex":17,"items":[{"name":"드림기획","tel":"031-969-8661","addr":"경기도 고양시 덕양구 관산동 688-5번지","indutype":"건축자재 - 인테리어전문","category":"other"},{"name":"드림기획","tel":"031-969-8661","addr":"경기도 고양시 덕양구 관산동 688-5번지","indutype":"","category":"other"},{"name":"모어라이팅","tel":"031-964-1021","addr":"경기도 고양시 덕양구 관산동 688-5번지","indutype":"건축자재 - 조명기구","category":"other"},{"name":"봉타일","tel":"031-964-4412","addr":"경기도 고양시 덕양구 관산동 688-5번지","indutype":"건축자재 - 기타건축자재","category":"other"},{"name":"봉타일","tel":"031-964-4412","addr":"경기도 고양시 덕양구 관산동 688-5번지","indutype":"","category":"other"},{"name":"이레곰탕보리밥집","tel":"031-964-7859","addr":"경기도 고양시 덕양구 관산동 688-5번지","indutype":"","category":"other"}]},{"lat":"37.693379745","long":"126.86560021","imageIndex":17,"items":[{"name":"디앤트리","tel":"031-962-4539","addr":"경기도 고양시 덕양구 관산동 996번지 주공그린빌아파트","indutype":"문화.취미 - 화원","category":"other"},{"name":"디앤트리","tel":"031-962-4539","addr":"경기도 고양시 덕양구 관산동 996번지 주공그린빌아파트","indutype":"","category":"other"},{"name":"바디톡스","tel":"031-111-1111","addr":"경기도 고양시 덕양구 관산동 996번지 주공그린빌아파트","indutype":"","category":"other"},{"name":"아브라삭스스톤","tel":"","addr":"경기도 고양시 덕양구 관산동 996번지 주공그린빌아파트","indutype":"","category":"other"},{"name":"아브라삭스스톤","tel":"","addr":"경기도 고양시 덕양구 관산동 996번지 주공그린빌아파트","indutype":"신변잡화 - 액세서리","category":"other"}]},{"lat":"37.686417071","long":"126.86713221","imageIndex":17,"items":[{"name":"디자인담다","tel":"","addr":"경기도 고양시 덕양구 관산동 981번지 신성아파트","indutype":"용역 서비스 - 사무서비스","category":"other"}]},{"lat":"37.687071304","long":"126.86414935","imageIndex":17,"items":[{"name":"똥돼지삼겹살","tel":"031-964-4297","addr":"경기도 고양시 덕양구 관산동 226-7번지","indutype":"","category":"other"}]},{"lat":"37.687793216","long":"126.86512301","imageIndex":17,"items":[{"name":"뚜레쥬르 고양관산(4)","tel":"031-963-0453","addr":"경기도 고양시 덕양구 관산동 910-1번지","indutype":"","category":"other"},{"name":"뚜레쥬르 고양관산점","tel":"031-963-0453","addr":"경기도 고양시 덕양구 관산동 910-1번지","indutype":"","category":"other"},{"name":"먹보왕만두","tel":"031-962-8035","addr":"경기도 고양시 덕양구 관산동 910-1번지","indutype":"","category":"other"},{"name":"미니통신","tel":"031-969-9112","addr":"경기도 고양시 덕양구 관산동 910-1번지","indutype":"","category":"other"},{"name":"미니통신","tel":"031-969-9112","addr":"경기도 고양시 덕양구 관산동 910-1번지","indutype":"사무통신 - 통신기기","category":"other"},{"name":"속옷할인매장","tel":"031-964-1986","addr":"경기도 고양시 덕양구 관산동 910-1번지","indutype":"의류 - 내의판매","category":"other"},{"name":"속옷할인매장","tel":"031-964-1986","addr":"경기도 고양시 덕양구 관산동 910-1번지","indutype":"","category":"other"},{"name":"수정미용실","tel":"031-962-8673","addr":"경기도 고양시 덕양구 관산동 910-1번지","indutype":"","category":"other"}]},{"lat":"37.71584739","long":"126.86361937","imageIndex":17,"items":[{"name":"라이팅디퍼","tel":"031-963-9618","addr":"경기도 고양시 덕양구 관산동 642-2","indutype":"","category":"other"},{"name":"라이팅디퍼","tel":"031-963-9618","addr":"경기도 고양시 덕양구 관산동","indutype":"건축자재 - 조명기구","category":"other"}]},{"lat":"37.712184361","long":"126.85933934","imageIndex":17,"items":[{"name":"라이프케어","tel":"031-962-3351","addr":"경기도 고양시 덕양구 관산동 657-25번지","indutype":"","category":"other"},{"name":"세진통상","tel":"031-969-9694","addr":"경기도 고양시 덕양구 관산동 657-25번지","indutype":"","category":"other"}]},{"lat":"37.689657689","long":"126.86467739","imageIndex":17,"items":[{"name":"레일라","tel":"031-962-0240","addr":"경기도 고양시 덕양구 관산동 338-43번지","indutype":"","category":"other"},{"name":"레일라","tel":"031-962-0240","addr":"경기도 고양시 덕양구 관산동 338-43번지","indutype":"","category":"other"},{"name":"이쌤수학","tel":"031-533-2124","addr":"경기도 고양시 덕양구 관산동 338-43번지","indutype":"","category":"other"}]},{"lat":"37.688631137","long":"126.86514413","imageIndex":17,"items":[{"name":"로뎀나무","tel":"031-962-6039","addr":"경기도 고양시 덕양구 관산동 181-11번지","indutype":"의류 - 아동의류","category":"other"},{"name":"로뎀나무","tel":"031-962-6039","addr":"경기도 고양시 덕양구 관산동 181-11번지","indutype":"","category":"other"}]},{"lat":"37.686853178","long":"126.85517077","imageIndex":17,"items":[{"name":"로폼","tel":"031-962-4024","addr":"경기도 고양시 덕양구 관산동 291-3번지","indutype":"","category":"other"},{"name":"로폼","tel":"031-962-4024","addr":"경기도 고양시 덕양구 관산동 291-3번지","indutype":"건축자재 - 건축용 요업제품","category":"other"}]},{"lat":"37.688655482","long":"126.86286527","imageIndex":17,"items":[{"name":"롯데리아 고양관산점","tel":"031-964-9339","addr":"경기도 고양시 덕양구 관산동 231-29번지","indutype":"","category":"other"}]},{"lat":"37.689457338","long":"126.86286377","imageIndex":17,"items":[{"name":"루 뷰티","tel":"031-877-5844","addr":"경기도 고양시 덕양구 관산동 338-15번지 동우빌라","indutype":"","category":"other"}]},{"lat":"37.688099437","long":"126.86503174","imageIndex":17,"items":[{"name":"루디아속옷나라","tel":"031-962-9587","addr":"경기도 고양시 덕양구 관산동 181-12번지","indutype":"","category":"other"},{"name":"루디아속옷나라","tel":"031-962-9587","addr":"경기도 고양시 덕양구 관산동 181-12번지","indutype":"의류 - 내의판매","category":"other"},{"name":"빅타임","tel":"031-963-6352","addr":"경기도 고양시 덕양구 관산동 181-12번지","indutype":"","category":"other"},{"name":"빅타임","tel":"031-963-6352","addr":"경기도 고양시 덕양구 관산동 181-12번지","indutype":"","category":"other"},{"name":"신흥상회","tel":"031-962-8086","addr":"경기도 고양시 덕양구 관산동 181-12번지","indutype":"","category":"other"},{"name":"인생술집","tel":"031-963-6352","addr":"경기도 고양시 덕양구 관산동 181-12번지","indutype":"","category":"other"},{"name":"제이,벨헤어","tel":"070-5197-3476","addr":"경기도 고양시 덕양구 관산동 181-12번지","indutype":"","category":"other"}]},{"lat":"37.688210416","long":"126.86750307","imageIndex":17,"items":[{"name":"루미에르","tel":"031-968-4880","addr":"경기도 고양시 덕양구 관산동 178-57번지","indutype":"의류 - 정장","category":"other"},{"name":"루미에르","tel":"031-968-4880","addr":"경기도 고양시 덕양구 관산동 178-57번지","indutype":"","category":"other"},{"name":"선영미용실","tel":"031-962-8782","addr":"경기도 고양시 덕양구 관산동 178-57번지","indutype":"","category":"other"},{"name":"청아음악학원","tel":"031-963-0740","addr":"경기도 고양시 덕양구 관산동 178-57 새서울상가2층","indutype":"","category":"other"}]},{"lat":"37.713405259","long":"126.86317029","imageIndex":17,"items":[{"name":"룬코리아 주식회사","tel":"","addr":"경기도 고양시 덕양구 관산동 586-5번지","indutype":"","category":"other"},{"name":"룬코리아 주식회사","tel":"02-111-1111","addr":"경기도 고양시 덕양구 관산동 586-5번지","indutype":"의류 - 정장","category":"other"}]},{"lat":"37.705352735","long":"126.85742473","imageIndex":17,"items":[{"name":"마로예쁜손피아노교습소","tel":"031-963-7495","addr":"경기도 고양시 덕양구 관산동 687-47번지","indutype":"","category":"other"},{"name":"마로음악학원","tel":"031-963-7495","addr":"경기도 고양시 덕양구 관산동 687-47번지","indutype":"","category":"other"},{"name":"마로학원","tel":"031-963-7495","addr":"경기도 고양시 덕양구 관산동 687-47번지","indutype":"","category":"other"},{"name":"치킨마루(가장점)","tel":"031-969-8292","addr":"경기도 고양시 덕양구 관산동 687-47번지","indutype":"","category":"other"},{"name":"태공낚시마트","tel":"031-963-3359","addr":"경기도 고양시 덕양구 관산동 687-47번지","indutype":"","category":"other"},{"name":"태공낚시마트","tel":"031-963-3359","addr":"경기도 고양시 덕양구 관산동 687-47번지","indutype":"레져용품 - 스포츠·레져용품","category":"other"}]},{"lat":"37.687461952","long":"126.86692623","imageIndex":17,"items":[{"name":"마이산건강원","tel":"031-963-6688","addr":"경기도 고양시 덕양구 관산동 178-29번지","indutype":"","category":"other"},{"name":"벽제바이크","tel":"031-964-5567","addr":"경기도 고양시 덕양구 관산동 178-29번지","indutype":"","category":"other"},{"name":"아이네오실용음악학원","tel":"031-962-8689","addr":"경기도 고양시 덕양구 관산동 178-29번지","indutype":"","category":"other"},{"name":"중앙부동산","tel":"031-962-8945","addr":"경기도 고양시 덕양구 관산동 178-29번지","indutype":"용역 서비스 - 부동산 중개·임대","category":"other"}]},{"lat":"37.689837988","long":"126.86476776","imageIndex":17,"items":[{"name":"마이홈 익스프레스","tel":"031-964-8851","addr":"경기도 고양시 덕양구 관산동 338-52번지 기용빌라","indutype":"","category":"other"}]},{"lat":"37.688433546","long":"126.86567735","imageIndex":17,"items":[{"name":"만세인생 요양보호사 교육원","tel":"031-964-3311","addr":"경기도 고양시 덕양구 관산동 180-1번지","indutype":"","category":"other"},{"name":"맥스터디카페지점","tel":"031-819-9090","addr":"경기도 고양시 덕양구 관산동 180-1번지","indutype":"용역 서비스 - 사무서비스","category":"other"},{"name":"참사랑요양원","tel":"031-962-3155","addr":"경기도 고양시 덕양구 관산동 180-1번지","indutype":"","category":"other"}]},{"lat":"37.688271241","long":"126.86556428","imageIndex":17,"items":[{"name":"맛있는밥집","tel":"031-962-8202","addr":"경기도 고양시 덕양구 관산동 179-7번지","indutype":"","category":"other"},{"name":"벽제족발","tel":"031-962-9876","addr":"경기도 고양시 덕양구 관산동 179-7번지","indutype":"","category":"other"},{"name":"봉구스밥버거관산점","tel":"031-818-1345","addr":"경기도 고양시 덕양구 관산동 179-7번지","indutype":"","category":"other"},{"name":"삼촌부대찌개","tel":"031-963-1504","addr":"경기도 고양시 덕양구 관산동 179-7번지","indutype":"","category":"other"},{"name":"신발할인매장","tel":"031-969-5058","addr":"경기도 고양시 덕양구 관산동 179-7번지","indutype":"","category":"other"},{"name":"옛날정","tel":"031-63-0744","addr":"경기도 고양시 덕양구 관산동 179-7번지","indutype":"","category":"other"},{"name":"추억의왕만두","tel":"031-963-0511","addr":"경기도 고양시 덕양구 관산동 179-7번지","indutype":"","category":"other"},{"name":"프린스턴영재교육학원","tel":"031-963-9800","addr":"경기도 고양시 덕양구 관산동 179-7번지","indutype":"","category":"other"}]},{"lat":"37.688406834","long":"126.8659495","imageIndex":17,"items":[{"name":"맛있는파닭","tel":"031-963-1884","addr":"경기도 고양시 덕양구 관산동 179-2번지","indutype":"","category":"other"},{"name":"초원식당","tel":"031-963-4232","addr":"경기도 고양시 덕양구 관산동 179-2번지","indutype":"","category":"other"}]},{"lat":"37.68662891","long":"126.86336791","imageIndex":17,"items":[{"name":"메리베리","tel":"02-2671-8080","addr":"경기도 고양시 덕양구 관산동 220-1번지","indutype":"","category":"other"},{"name":"벽제공구","tel":"031-962-8018","addr":"경기도 고양시 덕양구 관산동 220-1번지","indutype":"","category":"other"},{"name":"벽제공구","tel":"031-962-8018","addr":"경기도 고양시 덕양구 관산동","indutype":"기타 - 기계공구","category":"other"}]},{"lat":"37.688328695","long":"126.86851188","imageIndex":17,"items":[{"name":"명화농산","tel":"070-7312-7965","addr":"경기도 고양시 덕양구 관산동 163-6번지","indutype":"","category":"other"},{"name":"명화농산","tel":"","addr":"경기도 고양시 덕양구 관산동 163-6번지","indutype":"","category":"other"},{"name":"명화농산","tel":"070-4312-7965","addr":"경기도 고양시 덕양구 관산동 163-6번지","indutype":"","category":"other"}]},{"lat":"37.689432608","long":"126.86481386","imageIndex":17,"items":[{"name":"모모스토어","tel":"","addr":"경기도 고양시 덕양구 관산동 114번지","indutype":"","category":"other"},{"name":"모모스토어","tel":"","addr":"경기도 고양시 덕양구 관산동 114번지","indutype":"의류 - 정장","category":"other"},{"name":"모모의다락방","tel":"031-962-6904","addr":"경기도 고양시 덕양구 관산동 114번지","indutype":"","category":"other"},{"name":"블럭아이","tel":"031-811-4926","addr":"경기도 고양시 덕양구 관산동 114번지","indutype":"","category":"other"},{"name":"주식회사 다온시스템","tel":"031-962-2001","addr":"경기도 고양시 덕양구 관산동 114번지","indutype":"전기제품 - 가전제품","category":"other"},{"name":"타이거태권도장","tel":"031-969-1020","addr":"경기도 고양시 덕양구 관산동 114번지","indutype":"","category":"other"}]},{"lat":"37.707122078","long":"126.86025632","imageIndex":17,"items":[{"name":"모비상사","tel":"02-3418-1224","addr":"경기도 고양시 덕양구 관산동 543-10번지","indutype":"","category":"other"}]},{"lat":"37.713379448","long":"126.86420238","imageIndex":17,"items":[{"name":"무한텍","tel":"031-964-7511","addr":"경기도 고양시 덕양구 관산동 587-6번지","indutype":"","category":"other"},{"name":"푸른솔유통","tel":"031-964-7511","addr":"경기도 고양시 덕양구 관산동 587-6번지","indutype":"","category":"other"}]},{"lat":"37.691049831","long":"126.86871105","imageIndex":17,"items":[{"name":"미리내토너","tel":"070-8868-4943","addr":"경기도 고양시 덕양구 관산동 126번지 유승아파트","indutype":"회원제형태 - 기타3","category":"other"}]},{"lat":"37.689125856","long":"126.86445163","imageIndex":17,"items":[{"name":"미소집","tel":"031-964-7672","addr":"경기도 고양시 덕양구 관산동 337번지","indutype":"","category":"other"}]},{"lat":"37.69068599","long":"126.86570721","imageIndex":17,"items":[{"name":"미소코킹","tel":"070-7778-5925","addr":"경기도 고양시 덕양구 관산동 112-5번지 삼성벨라지오빌","indutype":"건축자재 - 인테리어전문","category":"other"},{"name":"미소코킹","tel":"070-7778-5925","addr":"경기도 고양시 덕양구 관산동 112-5번지 삼성벨라지오빌","indutype":"","category":"other"}]},{"lat":"37.688460047","long":"126.86522381","imageIndex":17,"items":[{"name":"바다로가자","tel":"031-963-0844","addr":"경기도 고양시 덕양구 관산동 181-19번지","indutype":"","category":"other"},{"name":"복순대국","tel":"031-962-3442","addr":"경기도 고양시 덕양구 관산동 181-19번지","indutype":"","category":"other"},{"name":"복순대국","tel":"031-962-3442","addr":"경기도 고양시 덕양구 관산동 181-19번지","indutype":"","category":"other"},{"name":"복순대국","tel":"031-962-3442","addr":"경기도 고양시 덕양구 관산동 181-19번지","indutype":"","category":"other"},{"name":"한앤둘치킨","tel":"031-964-7727","addr":"경기도 고양시 덕양구 관산동 181-19번지","indutype":"","category":"other"}]},{"lat":"37.688908316","long":"126.86334097","imageIndex":17,"items":[{"name":"바다향","tel":"031-962-8939","addr":"경기도 고양시 덕양구 관산동 231-12번지","indutype":"","category":"other"},{"name":"생각하는수학페르마학원","tel":"031-971-9353","addr":"경기도 고양시 덕양구 관산동 231-12번지","indutype":"","category":"other"},{"name":"좋은나무학원","tel":"031-969-7738","addr":"경기도 고양시 덕양구 관산동 231-12번지","indutype":"","category":"other"},{"name":"짬뽕애","tel":"031-965-8883","addr":"경기도 고양시 덕양구 관산동 231-12번지","indutype":"","category":"other"}]},{"lat":"37.712760604","long":"126.86661918","imageIndex":17,"items":[{"name":"반석산업","tel":"031-963-7540","addr":"경기도 고양시 덕양구 관산동 620번지","indutype":"","category":"other"}]},{"lat":"37.690932267","long":"126.86832578","imageIndex":17,"items":[{"name":"발도르프JOY","tel":"031-969-5066","addr":"경기도 고양시 덕양구 관산동 126번지 유승아파트","indutype":"문화.취미 - 문화취미기타","category":"other"},{"name":"애성 포토","tel":"02-860-3500","addr":"경기도 고양시 덕양구 관산동 126번지 유승아파트","indutype":"용역 서비스 - 혼례서비스","category":"other"}]},{"lat":"37.710349581","long":"126.86197391","imageIndex":17,"items":[{"name":"밝은세상","tel":"031-7483-3838","addr":"경기도 고양시 덕양구 관산동 559-8번지","indutype":"","category":"other"}]},{"lat":"37.688375334","long":"126.86215155","imageIndex":17,"items":[{"name":"밝은연세안과","tel":"031-969-0806","addr":"경기도 고양시 덕양구 관산동 238-7번지","indutype":"","category":"other"}]},{"lat":"37.699214455","long":"126.85522562","imageIndex":17,"items":[{"name":"방원농장","tel":"031-962-9695","addr":"경기도 고양시 덕양구 관산동 847-44번지","indutype":"문화.취미 - 화원","category":"other"},{"name":"방원농장","tel":"031-962-9695","addr":"경기도 고양시 덕양구 관산동 847-44번지","indutype":"","category":"other"}]},{"lat":"37.711656714","long":"126.86259519","imageIndex":17,"items":[{"name":"백야퍼니처","tel":"070-4922-1261","addr":"경기도 고양시 덕양구 관산동 563-2번지","indutype":"가구 - 일반가구","category":"other"},{"name":"지원이엔씨","tel":"","addr":"경기도 고양시 덕양구 관산동 563-2번지 2동","indutype":"","category":"other"},{"name":"지원이엔씨","tel":"","addr":"경기도 고양시 덕양구 관산동 563-2번지","indutype":"용역 서비스 - 기타용역서비스","category":"other"}]},{"lat":"37.710706251","long":"126.8588999","imageIndex":17,"items":[{"name":"베리굿타일기술학원","tel":"031-968-2483","addr":"경기도 고양시 덕양구 관산동 668번지","indutype":"","category":"other"}]},{"lat":"37.687798029","long":"126.86930644","imageIndex":17,"items":[{"name":"베이스캠프","tel":"031-964-2258","addr":"경기도 고양시 덕양구 관산동 163-16번지","indutype":"","category":"other"},{"name":"통일로동물병원","tel":"031-963-4934","addr":"경기도 고양시 덕양구 관산동 163-16번지","indutype":"","category":"other"}]},{"lat":"37.686766952","long":"126.86583914","imageIndex":17,"items":[{"name":"벽제 여관","tel":"031-962-8587","addr":"경기도 고양시 덕양구 관산동 188-12번지","indutype":"","category":"other"},{"name":"벽제여관","tel":"031-962-8587","addr":"경기도 고양시 덕양구 관산동 188-12번지","indutype":"","category":"other"}]},{"lat":"37.686791351","long":"126.86359435","imageIndex":17,"items":[{"name":"벽제로컬푸드가공센터","tel":"031-965-4162","addr":"경기도 고양시 덕양구 관산동 221-4번지","indutype":"","category":"other"},{"name":"벽제로컬푸드레스토랑","tel":"031-965-4162","addr":"경기도 고양시 덕양구 관산동 221-4번지","indutype":"","category":"other"}]},{"lat":"37.686937064","long":"126.86492052","imageIndex":17,"items":[{"name":"벽제아구","tel":"031-963-4332","addr":"경기도 고양시 덕양구 관산동 196-5번지","indutype":"","category":"other"},{"name":"이소영미용실","tel":"031-969-0223","addr":"경기도 고양시 덕양구 관산동 196-5번지","indutype":"","category":"other"}]},{"lat":"37.705714831","long":"126.85881884","imageIndex":17,"items":[{"name":"보배마트","tel":"031-926-6192","addr":"경기도 고양시 덕양구 관산동 541-19번지","indutype":"","category":"other"}]},{"lat":"37.712460924","long":"126.86458969","imageIndex":17,"items":[{"name":"보현각","tel":"031-962-4711","addr":"경기도 고양시 덕양구 관산동 622-2번지","indutype":"","category":"other"}]},{"lat":"37.704957165","long":"126.85811723","imageIndex":17,"items":[{"name":"봉바위생고기","tel":"031-969-9228","addr":"경기도 고양시 덕양구 관산동 540-87번지","indutype":"","category":"other"},{"name":"우연히","tel":"","addr":"경기도 고양시 덕양구 관산동 540-87번지","indutype":"","category":"other"},{"name":"청운태권도체육관","tel":"031-969-1217","addr":"경기도 고양시 덕양구 관산동 540-87번지","indutype":"","category":"other"}]},{"lat":"37.705816427","long":"126.86087118","imageIndex":17,"items":[{"name":"부자슈퍼","tel":"031-962-7358","addr":"경기도 고양시 덕양구 관산동 538-3번지","indutype":"","category":"other"},{"name":"부자슈퍼","tel":"031-969-6136","addr":"경기도 고양시 덕양구 관산동 538-3번지","indutype":"","category":"other"},{"name":"부자슈퍼","tel":"031-969-6136","addr":"경기도 고양시 덕양구 관산동 538-3번지","indutype":"","category":"other"}]},{"lat":"37.712319229","long":"126.85911226","imageIndex":17,"items":[{"name":"뷰티카라","tel":"070-8959-5085","addr":"경기도 고양시 덕양구 관산동 657-29번지 훼미리빌","indutype":"","category":"other"}]},{"lat":"37.688826274","long":"126.86253617","imageIndex":17,"items":[{"name":"뷰티펫 하우스","tel":"031-969-5479","addr":"경기도 고양시 덕양구 관산동 231-42번지","indutype":"문화.취미 - 애완동물","category":"other"},{"name":"뷰티펫애견미용","tel":"031-969-5479","addr":"경기도 고양시 덕양구 관산동 231-42번지","indutype":"","category":"other"},{"name":"뷰티펫하우스","tel":"031-969-5479","addr":"경기도 고양시 덕양구 관산동 231-42번지","indutype":"","category":"other"},{"name":"신용전기조명","tel":"031-973-0209","addr":"경기도 고양시 덕양구 관산동","indutype":"전기제품 - 기타전기제품","category":"other"},{"name":"신용전기조명","tel":"031-973-0209","addr":"경기도 고양시 덕양구 관산동 231-42번지","indutype":"","category":"other"}]},{"lat":"37.711958424","long":"126.86633712","imageIndex":17,"items":[{"name":"블루현대자동차공업소","tel":"031-923-4900","addr":"경기도 고양시 덕양구 관산동 602-6번지","indutype":"","category":"other"}]},{"lat":"37.709655442","long":"126.854309","imageIndex":17,"items":[{"name":"비앤에이","tel":"","addr":"경기도 고양시 덕양구 관산동 672-65번지 청담힐타운2단지","indutype":"신변잡화 - 액세서리","category":"other"},{"name":"비앤에이","tel":"","addr":"경기도 고양시 덕양구 관산동 672-65번지 청담힐타운2단지","indutype":"","category":"other"}]},{"lat":"37.705567927","long":"126.85658515","imageIndex":17,"items":[{"name":"비케이정보통신","tel":"070-1600-5624","addr":"경기도 고양시 덕양구 관산동 691-6번지","indutype":"","category":"other"}]},{"lat":"37.687770717","long":"126.86905707","imageIndex":17,"items":[{"name":"삐에로모텔","tel":"","addr":"경기도 고양시 덕양구 관산동 163-1번지","indutype":"","category":"other"}]},{"lat":"37.687295366","long":"126.86315126","imageIndex":17,"items":[{"name":"사랑슈퍼","tel":"031-964-8848","addr":"경기도 고양시 덕양구 관산동 248-7번지 사랑빌라","indutype":"","category":"other"},{"name":"에이프릴(April)","tel":"","addr":"경기도 고양시 덕양구 관산동 248-7번지 사랑빌라","indutype":"문화.취미 - 문화취미기타","category":"other"},{"name":"에이프릴(April)","tel":"","addr":"경기도 고양시 덕양구 관산동 248-7번지 사랑빌라","indutype":"","category":"other"}]},{"lat":"37.687742772","long":"126.86825218","imageIndex":17,"items":[{"name":"산드라","tel":"031-963-2003","addr":"경기도 고양시 덕양구 관산동 175-11번지","indutype":"","category":"other"}]},{"lat":"37.68835164","long":"126.86497459","imageIndex":17,"items":[{"name":"산야초서서갈비","tel":"031-111-1111","addr":"경기도 고양시 덕양구 관산동 181-20번지","indutype":"","category":"other"},{"name":"신쫄매쭈꾸미","tel":"031-963-5254","addr":"경기도 고양시 덕양구 관산동 181-20번지","indutype":"","category":"other"},{"name":"유경토박이","tel":"031-963-5254","addr":"경기도 고양시 덕양구 관산동 181-20번지","indutype":"","category":"other"},{"name":"화정노래연습장","tel":"031-969-9559","addr":"경기도 고양시 덕양구 관산동 181-20번지","indutype":"","category":"other"}]},{"lat":"37.686297712","long":"126.86520513","imageIndex":17,"items":[{"name":"산책로마차","tel":"031-969-2640","addr":"경기도 고양시 덕양구 관산동 210-7번지","indutype":"","category":"other"}]},{"lat":"37.708127379","long":"126.85716982","imageIndex":17,"items":[{"name":"삼광가설시스템 주식회사","tel":"031-969-3115","addr":"경기도 고양시 덕양구 관산동 685-74번지","indutype":"건축자재 - 기타건축자재","category":"other"},{"name":"삼광가설시스템 주식회사","tel":"031-969-3115","addr":"경기도 고양시 덕양구 관산동 685-74번지","indutype":"","category":"other"}]},{"lat":"37.688907131","long":"126.86234328","imageIndex":17,"items":[{"name":"삼보화학","tel":"031-942-5920","addr":"경기도 고양시 덕양구 관산동 231-41번지","indutype":"","category":"other"},{"name":"월드짐휘트니스","tel":"031-963-8988","addr":"경기도 고양시 덕양구 관산동 231-41번지","indutype":"","category":"other"},{"name":"월드짐휘트니스","tel":"031-963-8988","addr":"경기도 고양시 덕양구 관산동 231-41번지","indutype":"회원제형태 - 레져업소","category":"other"}]},{"lat":"37.697769799","long":"126.85275664","imageIndex":17,"items":[{"name":"삼성문화사","tel":"031-964-5548","addr":"경기도 고양시 덕양구 관산동 775-2번지","indutype":"","category":"other"}]},{"lat":"37.690103963","long":"126.86883746","imageIndex":17,"items":[{"name":"삼양마트","tel":"031-962-5955","addr":"경기도 고양시 덕양구 관산동 137번지","indutype":"","category":"other"},{"name":"진훈사","tel":"031-964-5006","addr":"경기도 고양시 덕양구 관산동","indutype":"레져용품 - 스포츠·레져용품","category":"other"},{"name":"진훈사","tel":"031-964-5006","addr":"경기도 고양시 덕양구 관산동 137번지","indutype":"","category":"other"},{"name":"현푸드시스템","tel":"031-962-7868","addr":"경기도 고양시 덕양구 관산동 137번지","indutype":"","category":"other"}]},{"lat":"37.692830593","long":"126.86597538","imageIndex":17,"items":[{"name":"새롬독서논술","tel":"070-8183-2486","addr":"경기도 고양시 덕양구 관산동 996번지","indutype":"","category":"other"}]},{"lat":"37.68849212","long":"126.86186789","imageIndex":17,"items":[{"name":"서울종합장식","tel":"031-962-7273","addr":"경기도 고양시 덕양구 관산동 238-10번지","indutype":"","category":"other"},{"name":"성동치과의원","tel":"031-963-5643","addr":"경기도 고양시 덕양구 관산동 238-10번지","indutype":"","category":"other"},{"name":"싱글골프연습장","tel":"031-964-1117","addr":"경기도 고양시 덕양구 관산동 238-10번지","indutype":"","category":"other"},{"name":"윤선생영어교실","tel":"031-963-0550","addr":"경기도 고양시 덕양구 관산동 238-10번지","indutype":"","category":"other"},{"name":"윤선생영어교실","tel":"031-963-0550","addr":"경기도 고양시 덕양구 관산동 238-10번지","indutype":"","category":"other"},{"name":"즐거운 인생","tel":"031-967-8065","addr":"경기도 고양시 덕양구 관산동 238-10번지","indutype":"","category":"other"},{"name":"헤어샬롱","tel":"031-964-7843","addr":"경기도 고양시 덕양구 관산동 238-10번지","indutype":"","category":"other"}]},{"lat":"37.706599987","long":"126.86064288","imageIndex":17,"items":[{"name":"서초동작CS-A","tel":"02-588-3651","addr":"경기도 고양시 덕양구 관산동 544-5번지","indutype":"건축자재 - 보일러·펌프·샷시","category":"other"}]},{"lat":"37.705931228","long":"126.8589545","imageIndex":17,"items":[{"name":"서초동작CS-A","tel":"02-588-3651","addr":"경기도 고양시 덕양구 관산동 541-10번지 간촌반도빌리지","indutype":"","category":"other"},{"name":"탑 (TOP TV)가전설치 수리","tel":"","addr":"경기도 고양시 덕양구 관산동 541-10번지","indutype":"용역 서비스 - 기타용역서비스","category":"other"},{"name":"탑 (TOP TV)가전설치 수리","tel":"","addr":"경기도 고양시 덕양구 관산동 541-10번지","indutype":"","category":"other"}]},{"lat":"37.687963164","long":"126.87194773","imageIndex":17,"items":[{"name":"석원갤러리","tel":"","addr":"경기도 고양시 덕양구 관산동 154번지","indutype":"문화.취미 - 화원","category":"other"},{"name":"석원갤러리","tel":"","addr":"경기도 고양시 덕양구 관산동 154번지","indutype":"","category":"other"}]},{"lat":"37.686182981","long":"126.85965021","imageIndex":17,"items":[{"name":"석이네막창","tel":"031-962-3819","addr":"경기도 고양시 덕양구 관산동 203-2번지","indutype":"","category":"other"}]},{"lat":"37.713393976","long":"126.861265","imageIndex":17,"items":[{"name":"세림이벤트","tel":"070-4190-0565","addr":"경기도 고양시 덕양구 관산동 579-2번지 청원스타빌","indutype":"","category":"other"},{"name":"카앤피플 덕양2호점","tel":"","addr":"경기도 고양시 덕양구 관산동 579-2번지 청원스타빌","indutype":"","category":"other"}]},{"lat":"37.705044056","long":"126.86292517","imageIndex":17,"items":[{"name":"세빌리아미용실","tel":"031-970-1435","addr":"경기도 고양시 덕양구 관산동 533-2번지","indutype":"","category":"other"}]},{"lat":"37.687211023","long":"126.86809442","imageIndex":17,"items":[{"name":"세일경정비","tel":"031-969-1238","addr":"경기도 고양시 덕양구 관산동 172-2번지","indutype":"","category":"other"},{"name":"세일세차장","tel":"031-963-5204","addr":"경기도 고양시 덕양구 관산동 172-2번지","indutype":"","category":"other"},{"name":"충의사","tel":"031-962-2043","addr":"경기도 고양시 덕양구 관산동 172-2번지","indutype":"","category":"other"}]},{"lat":"37.688031944","long":"126.86901125","imageIndex":17,"items":[{"name":"세형유리샷시","tel":"031-963-5513","addr":"경기도 고양시 덕양구 관산동 163-24번지","indutype":"","category":"other"},{"name":"세형유리샷시","tel":"031-963-5513","addr":"경기도 고양시 덕양구 관산동 163-24번지","indutype":"용역 서비스 - 기타용역서비스","category":"other"}]},{"lat":"37.687906439","long":"126.869567","imageIndex":17,"items":[{"name":"솔모텔","tel":"031-964-8820","addr":"경기도 고양시 덕양구 관산동 163-17번지","indutype":"","category":"other"}]},{"lat":"37.687597096","long":"126.86692599","imageIndex":17,"items":[{"name":"솜씨방가구","tel":"031-969-8836","addr":"경기도 고양시 덕양구 관산동 178-46번지","indutype":"","category":"other"},{"name":"솜씨방가구","tel":"031-969-8836","addr":"경기도 고양시 덕양구 관산동","indutype":"가구 - 일반가구","category":"other"},{"name":"엘리트피자","tel":"031-964-3260","addr":"경기도 고양시 덕양구 관산동 178-46번지","indutype":"","category":"other"},{"name":"해진금속","tel":"031-964-1356","addr":"경기도 고양시 덕양구 관산동 178-46번지","indutype":"","category":"other"},{"name":"해진금속","tel":"031-964-1356","addr":"경기도 고양시 덕양구 관산동 178-46번지","indutype":"용역 서비스 - 기타용역서비스","category":"other"}]},{"lat":"37.690261493","long":"126.86481232","imageIndex":17,"items":[{"name":"슈앤미(구둣방)","tel":"070-7071-7071","addr":"경기도 고양시 덕양구 관산동 338-24번지 동남빌라","indutype":"","category":"other"}]},{"lat":"37.711345112","long":"126.85822956","imageIndex":17,"items":[{"name":"스마트치킨참숯바베큐","tel":"031-964-2772","addr":"경기도 고양시 덕양구 관산동 659-3번지","indutype":"","category":"other"}]},{"lat":"37.688908611","long":"126.86359039","imageIndex":17,"items":[{"name":"시실리","tel":"070-8251-1935","addr":"경기도 고양시 덕양구 관산동 231-59번지","indutype":"","category":"other"},{"name":"시실리","tel":"","addr":"경기도 고양시 덕양구 관산동 231-59번지","indutype":"의류 - 정장","category":"other"},{"name":"시실리 (시간을잃어버린마을)","tel":"055-111-1111","addr":"경기도 고양시 덕양구 관산동 231-59번지","indutype":"","category":"other"},{"name":"전주집","tel":"031-969-8351","addr":"경기도 고양시 덕양구 관산동 231-59번지","indutype":"","category":"other"},{"name":"전주집","tel":"070-8973-7822","addr":"경기도 고양시 덕양구 관산동 231-59번지","indutype":"","category":"other"}]},{"lat":"37.693991943","long":"126.85769636","imageIndex":17,"items":[{"name":"신사복할인매장","tel":"031-969-5796","addr":"경기도 고양시 덕양구 관산동 360-13번지","indutype":"","category":"other"},{"name":"찰스맨하탄","tel":"031-963-0850","addr":"경기도 고양시 덕양구 관산동 360-13번지","indutype":"","category":"other"}]},{"lat":"37.705766279","long":"126.85669816","imageIndex":17,"items":[{"name":"신일천막","tel":"031-964-3778","addr":"경기도 고양시 덕양구 관산동 691-1번지","indutype":"","category":"other"},{"name":"신일천막","tel":"031-964-3778","addr":"경기도 고양시 덕양구 관산동 691-1번지","indutype":"직물 - 카페트,커튼,천막,지물","category":"other"},{"name":"한국타이어T-station벽제관산점","tel":"031-962-7022","addr":"경기도 고양시 덕양구 관산동 691-1번지","indutype":"","category":"other"}]},{"lat":"37.704347061","long":"126.85294749","imageIndex":17,"items":[{"name":"신한하우징","tel":"031-963-6778","addr":"경기도 고양시 덕양구 관산동","indutype":"건축자재 - 기타건축자재","category":"other"},{"name":"신한하우징","tel":"031-963-6778","addr":"경기도 고양시 덕양구 관산동 388-1","indutype":"","category":"other"}]},{"lat":"37.68590771","long":"126.86300648","imageIndex":17,"items":[{"name":"싱싱마트","tel":"031-111-1111","addr":"경기도 고양시 덕양구 관산동 207-7번지 삼성빌라","indutype":"","category":"other"}]},{"lat":"37.686124733","long":"126.86367496","imageIndex":17,"items":[{"name":"쏭마","tel":"031-556-9751","addr":"경기도 고양시 덕양구 관산동 214-1번지","indutype":"","category":"other"},{"name":"쏭마","tel":"031-556-9751","addr":"경기도 고양시 덕양구 관산동 214-1번지","indutype":"의류 - 정장","category":"other"}]},{"lat":"37.709321944","long":"126.85419626","imageIndex":17,"items":[{"name":"쑤살롱","tel":"031-963-1623","addr":"경기도 고양시 덕양구 관산동 672-66번지","indutype":"","category":"other"},{"name":"요거프레소 고양 내유점","tel":"","addr":"경기도 고양시 덕양구 관산동 672-66번지","indutype":"","category":"other"}]},{"lat":"37.686723385","long":"126.86712031","imageIndex":17,"items":[{"name":"씨앤지알","tel":"031-962-7840","addr":"경기도 고양시 덕양구 관산동 981번지 신성아파트","indutype":"회원제형태 - 기타4","category":"other"},{"name":"제이제이","tel":"","addr":"경기도 고양시 덕양구 관산동 981번지 신성아파트","indutype":"의류 - 내의판매","category":"other"}]},{"lat":"37.710822181","long":"126.85792437","imageIndex":17,"items":[{"name":"씨유관산고골마을점","tel":"031-969-0992","addr":"경기도 고양시 덕양구 관산동 669-4번지","indutype":"","category":"other"},{"name":"씨유관산고골마을점","tel":"031-969-0992","addr":"경기도 고양시 덕양구 관산동 669-4번지","indutype":"유통업 영리 - 편 의 점","category":"other"}]},{"lat":"37.704959571","long":"126.86009036","imageIndex":17,"items":[{"name":"씨유관산삼거리점","tel":"031-964-5785","addr":"경기도 고양시 덕양구 관산동","indutype":"유통업 영리 - 편 의 점","category":"other"},{"name":"씨유관산삼거리점","tel":"031-964-5785","addr":"경기도 고양시 덕양구 관산동 538-22번지","indutype":"","category":"other"},{"name":"현대25시","tel":"031-964-5785","addr":"경기도 고양시 덕양구 관산동 538-22번지","indutype":"","category":"other"}]},{"lat":"37.688709405","long":"126.8627518","imageIndex":17,"items":[{"name":"씨유벽제통일로점","tel":"031-963-4866","addr":"경기도 고양시 덕양구 관산동 231-28번지","indutype":"유통업 영리 - 편 의 점","category":"other"},{"name":"씨유벽제통일로점","tel":"031-962-3793","addr":"경기도 고양시 덕양구 관산동 231-28번지","indutype":"","category":"other"},{"name":"일품축산마트","tel":"031-963-7111","addr":"경기도 고양시 덕양구 관산동 231-28번지","indutype":"","category":"other"},{"name":"일품축산마트","tel":"031-963-7111","addr":"경기도 고양시 덕양구 관산동 231-28번지","indutype":"","category":"other"}]},{"lat":"37.712707826","long":"126.86008684","imageIndex":17,"items":[{"name":"아더르키친","tel":"070-4187-5579","addr":"경기도 고양시 덕양구 관산동 574-9번지","indutype":"","category":"other"},{"name":"중고리싸이클","tel":"032-962-6334","addr":"경기도 고양시 덕양구 관산동 574-9번지","indutype":"","category":"other"}]},{"lat":"37.713739832","long":"126.86420171","imageIndex":17,"items":[{"name":"아이엘테크","tel":"02-3296-5790","addr":"경기도 고양시 덕양구 관산동 587번지","indutype":"","category":"other"}]},{"lat":"37.713213024","long":"126.86830818","imageIndex":17,"items":[{"name":"아이플러스","tel":"031-907-9240","addr":"경기도 고양시 덕양구 관산동 614-9번지","indutype":"","category":"other"}]},{"lat":"37.712816952","long":"126.8686151","imageIndex":17,"items":[{"name":"아트포인트","tel":"031-962-2196","addr":"경기도 고양시 덕양구 관산동 606번지","indutype":"건축자재 - 기타건축자재","category":"other"},{"name":"아트포인트","tel":"031-962-2196","addr":"경기도 고양시 덕양구 관산동 606번지","indutype":"","category":"other"},{"name":"주식회사 미승","tel":"031-962-8436","addr":"경기도 고양시 덕양구 관산동 606번지","indutype":"","category":"other"}]},{"lat":"37.687323346","long":"126.86395615","imageIndex":17,"items":[{"name":"안기동치과의원","tel":"031-963-2876","addr":"경기도 고양시 덕양구 관산동 226-2번지","indutype":"","category":"other"}]},{"lat":"37.688459755","long":"126.86497439","imageIndex":17,"items":[{"name":"알콜충전소","tel":"031-966-9759","addr":"경기도 고양시 덕양구 관산동 181번지","indutype":"","category":"other"},{"name":"퓨전포차","tel":"070-7590-4625","addr":"경기도 고양시 덕양구 관산동 181번지","indutype":"","category":"other"}]},{"lat":"37.711732663","long":"126.85834221","imageIndex":17,"items":[{"name":"야단법석","tel":"031-969-0503","addr":"경기도 고양시 덕양구 관산동 660-5번지","indutype":"","category":"other"},{"name":"야단법석","tel":"031-969-0503","addr":"경기도 고양시 덕양구 관산동 660-5번지","indutype":"신변잡화 - 기타잡화","category":"other"}]},{"lat":"37.688059128","long":"126.86914725","imageIndex":17,"items":[{"name":"양지농원","tel":"","addr":"경기도 고양시 덕양구 관산동 163-25번지","indutype":"","category":"other"},{"name":"양지농원","tel":"02-1111-1111","addr":"경기도 고양시 덕양구 관산동 163-25번지","indutype":"문화.취미 - 화원","category":"other"}]},{"lat":"37.712593966","long":"126.8628089","imageIndex":17,"items":[{"name":"에덴산업","tel":"031-962-0803","addr":"경기도 고양시 덕양구 관산동 565-3번지","indutype":"","category":"other"},{"name":"에덴산업","tel":"031-962-0803","addr":"경기도 고양시 덕양구 관산동 565-3번지","indutype":"기타 - 기타 전문점","category":"other"}]},{"lat":"37.713545716","long":"126.86008523","imageIndex":17,"items":[{"name":"에스앤피(S&P)","tel":"070-8871-2800","addr":"경기도 고양시 덕양구 관산동 581-3번지","indutype":"","category":"other"}]},{"lat":"37.713142957","long":"126.86230886","imageIndex":17,"items":[{"name":"에스제이네트웍스","tel":"070-8227-0352","addr":"경기도 고양시 덕양구 관산동 584번지 드림팰리스","indutype":"","category":"other"},{"name":"에스제이네트웍스","tel":"070-8227-0352","addr":"경기도 고양시 덕양구 관산동 584번지 드림팰리스","indutype":"전기제품 - 가전제품","category":"other"}]},{"lat":"37.712959834","long":"126.86750342","imageIndex":17,"items":[{"name":"에스테이지","tel":"031-965-2015","addr":"경기도 고양시 덕양구 관산동 619-2번지","indutype":"","category":"other"},{"name":"에스테이지","tel":"031-965-2015","addr":"경기도 고양시 덕양구 관산동","indutype":"건축자재 - 인테리어전문","category":"other"}]},{"lat":"37.713718348","long":"126.86128706","imageIndex":17,"items":[{"name":"에쓰엔씨이엔씨","tel":"031-819-2071","addr":"경기도 고양시 덕양구 관산동 579-1번지 가야그린빌","indutype":"","category":"other"},{"name":"에쓰엔씨이엔씨","tel":"031-819-2071","addr":"경기도 고양시 덕양구 관산동 579-1번지 가야그린빌","indutype":"용역 서비스 - 기타용역서비스","category":"other"}]},{"lat":"37.713223813","long":"126.86211591","imageIndex":17,"items":[{"name":"에어더스페어","tel":"031-969-7412","addr":"경기도 고양시 덕양구 관산동 584-4번지 드림팰리스","indutype":"기타 - 기계공구","category":"other"},{"name":"에어더스페어","tel":"031-969-7412","addr":"경기도 고양시 덕양구 관산동 584-4번지 드림팰리스","indutype":"","category":"other"}]},{"lat":"37.715039622","long":"126.85869871","imageIndex":17,"items":[{"name":"에이스닥트공조","tel":"","addr":"경기도 고양시 덕양구 관산동 652-3번지","indutype":"전기제품 - 기타전기제품","category":"other"}]},{"lat":"37.715066623","long":"126.85867598","imageIndex":17,"items":[{"name":"에이스닥트공조","tel":"","addr":"경기도 고양시 덕양구 관산동 652-3번지","indutype":"","category":"other"}]},{"lat":"37.709656738","long":"126.85534099","imageIndex":17,"items":[{"name":"엘지 토탈 하우스","tel":"","addr":"경기도 고양시 덕양구 관산동 672-39번지","indutype":"용역 서비스 - 기타용역서비스","category":"other"}]},{"lat":"37.71265149","long":"126.86575746","imageIndex":17,"items":[{"name":"엘케이호이스트(북부점)","tel":"070-8163-1129","addr":"경기도 고양시 덕양구 관산동 599번지 다빈치하우스","indutype":"","category":"other"},{"name":"엘케이호이스트(북부점)","tel":"070-8163-1129","addr":"경기도 고양시 덕양구 관산동 599번지 다빈치하우스","indutype":"기타 - 기계공구","category":"other"}]},{"lat":"37.705208262","long":"126.86464852","imageIndex":17,"items":[{"name":"연안중장비운전학원","tel":"031-969-6933","addr":"경기도 고양시 덕양구 관산동 47-1번지","indutype":"","category":"other"}]},{"lat":"37.693485524","long":"126.85617805","imageIndex":17,"items":[{"name":"영광농원","tel":"031-964-5701","addr":"경기도 고양시 덕양구 관산동","indutype":"문화.취미 - 화원","category":"other"},{"name":"영광농원","tel":"031-964-5701","addr":"경기도 고양시 덕양구 관산동 358-6번지","indutype":"","category":"other"},{"name":"향춘농원","tel":"031-964-7976","addr":"경기도 고양시 덕양구 관산동 358-6번지","indutype":"","category":"other"},{"name":"향춘농원","tel":"031-964-7976","addr":"경기도 고양시 덕양구 관산동","indutype":"문화.취미 - 화원","category":"other"}]},{"lat":"37.708405439","long":"126.85617132","imageIndex":17,"items":[{"name":"영패션","tel":"","addr":"경기도 고양시 덕양구 관산동 685-71번지 청보하이츠빌","indutype":"","category":"other"}]},{"lat":"37.687462277","long":"126.85959107","imageIndex":17,"items":[{"name":"예담농원","tel":"02-304-5955","addr":"경기도 고양시 덕양구 관산동 255","indutype":"","category":"other"}]},{"lat":"37.708261455","long":"126.85630769","imageIndex":17,"items":[{"name":"예손건축설비인테리어","tel":"070-8118-0192","addr":"경기도 고양시 덕양구 관산동 685-114번지","indutype":"건축자재 - 인테리어전문","category":"other"},{"name":"예손건축설비인테리어","tel":"070-8118-0192","addr":"경기도 고양시 덕양구 관산동 685-114번지","indutype":"","category":"other"}]},{"lat":"37.714513985","long":"126.87148139","imageIndex":17,"items":[{"name":"예원인테리어","tel":"031-978-1817","addr":"경기도 고양시 덕양구 관산동 9-5번지","indutype":"건축자재 - 인테리어전문","category":"other"},{"name":"예원인테리어","tel":"031-978-1817","addr":"경기도 고양시 덕양구 관산동 9-5번지","indutype":"","category":"other"}]},{"lat":"37.703068864","long":"126.85386857","imageIndex":17,"items":[{"name":"예지식물원&원예치료센터","tel":"031-964-2448","addr":"경기도 고양시 덕양구 관산동 722-2번지","indutype":"문화.취미 - 화원","category":"other"},{"name":"예지식물원&원예치료센터","tel":"031-964-2448","addr":"경기도 고양시 덕양구 관산동 722-2번지","indutype":"","category":"other"}]},{"lat":"37.688215951","long":"126.86451001","imageIndex":17,"items":[{"name":"오륙도회센타","tel":"031-964-0056","addr":"경기도 고양시 덕양구 관산동 228-9번지","indutype":"","category":"other"},{"name":"황토해물갈비찜","tel":"031-964-9242","addr":"경기도 고양시 덕양구 관산동 228-9번지","indutype":"","category":"other"}]},{"lat":"37.688576176","long":"126.86437329","imageIndex":17,"items":[{"name":"오봉자싸롱관산점","tel":"031-966-9300","addr":"경기도 고양시 덕양구 관산동 229-2번지","indutype":"","category":"other"}]},{"lat":"37.711429806","long":"126.86120069","imageIndex":17,"items":[{"name":"오퍼스원","tel":"02-522-1296","addr":"경기도 고양시 덕양구 관산동 576-8번지","indutype":"건축자재 - 인테리어전문","category":"other"},{"name":"오퍼스원","tel":"02-522-1296","addr":"경기도 고양시 덕양구 관산동 576-8번지","indutype":"","category":"other"}]},{"lat":"37.686576227","long":"126.86453573","imageIndex":17,"items":[{"name":"우렁이쌈밥","tel":"031-963-8963","addr":"경기도 고양시 덕양구 관산동 222-1번지","indutype":"","category":"other"}]},{"lat":"37.708927797","long":"126.85601152","imageIndex":17,"items":[{"name":"원일종합공사","tel":"032-501-7108","addr":"경기도 고양시 덕양구 관산동 685-72번지","indutype":"","category":"other"},{"name":"원일종합공사","tel":"032-501-7108","addr":"경기도 고양시 덕양구 관산동 685-72번지","indutype":"건축자재 - 기타건축자재","category":"other"},{"name":"응답하라 고골","tel":"031-966-2016","addr":"경기도 고양시 덕양구 관산동 685-72번지","indutype":"","category":"other"},{"name":"커피하우스","tel":"031-962-7764","addr":"경기도 고양시 덕양구 관산동 685-72번지","indutype":"","category":"other"},{"name":"커피하우스","tel":"","addr":"경기도 고양시 덕양구 관산동 685-72번지 명지빌딩","indutype":"","category":"other"}]},{"lat":"37.689241336","long":"126.86305691","imageIndex":17,"items":[{"name":"월드무역","tel":"031-908-0149","addr":"경기도 고양시 덕양구 관산동 336-29번지 중앙가든","indutype":"문화.취미 - 화원","category":"other"},{"name":"월드무역","tel":"031-908-0149","addr":"경기도 고양시 덕양구 관산동 336-29번지 중앙가든","indutype":"","category":"other"}]},{"lat":"37.711823978","long":"126.85934003","imageIndex":17,"items":[{"name":"월드소이빈","tel":"032-362-1155","addr":"경기도 고양시 덕양구 관산동 574-3번지","indutype":"","category":"other"}]},{"lat":"37.707043132","long":"126.86203688","imageIndex":17,"items":[{"name":"웰스텍","tel":"031-911-4740","addr":"경기도 고양시 덕양구 관산동 548-2번지 정우주택","indutype":"","category":"other"},{"name":"웰스텍","tel":"031-911-4740","addr":"경기도 고양시 덕양구 관산동 548-2번지 정우주택","indutype":"사무통신 - 기타 사무용품","category":"other"}]},{"lat":"37.687072022","long":"126.86476155","imageIndex":17,"items":[{"name":"유베라아동복","tel":"031-962-6182","addr":"경기도 고양시 덕양구 관산동 196-3번지","indutype":"의류 - 아동의류","category":"other"},{"name":"유베라아동복","tel":"031-962-6182","addr":"경기도 고양시 덕양구 관산동 196-3번지","indutype":"","category":"other"}]},{"lat":"37.706889439","long":"126.8615949","imageIndex":17,"items":[{"name":"유토피아","tel":"031-962-7938","addr":"경기도 고양시 덕양구 관산동 548-11번지 정우주택","indutype":"건축자재 - 인테리어전문","category":"other"}]},{"lat":"37.706093843","long":"126.85931707","imageIndex":17,"items":[{"name":"윤영설비","tel":"","addr":"경기도 고양시 덕양구 관산동 541-12번지","indutype":"용역 서비스 - 기타용역서비스","category":"other"}]},{"lat":"37.688269716","long":"126.86426049","imageIndex":17,"items":[{"name":"윤이패션","tel":"031-962-8824","addr":"경기도 고양시 덕양구 관산동 229-7번지","indutype":"의류 - 정장","category":"other"},{"name":"윤이패션","tel":"031-962-8824","addr":"경기도 고양시 덕양구 관산동 229-7번지","indutype":"","category":"other"},{"name":"윤이패션","tel":"031-962-8824","addr":"경기도 고양시 덕양구 관산동 229-7번지","indutype":"","category":"other"},{"name":"하나로부속구이","tel":"031-963-2236","addr":"경기도 고양시 덕양구 관산동 229-7번지","indutype":"","category":"other"}]},{"lat":"37.708846188","long":"126.85559209","imageIndex":17,"items":[{"name":"은성카센타","tel":"031-964-7970","addr":"경기도 고양시 덕양구 관산동 685-29번지 뉴한솔타워빌리지","indutype":"","category":"other"}]},{"lat":"37.688936947","long":"126.86470141","imageIndex":17,"items":[{"name":"이쁘지오","tel":"031-962-2631","addr":"경기도 고양시 덕양구 관산동 910-68번지","indutype":"","category":"other"},{"name":"희망꽃방","tel":"031-962-2631","addr":"경기도 고양시 덕양구 관산동 910-68번지","indutype":"","category":"other"},{"name":"희망꽃집","tel":"031-962-2631","addr":"경기도 고양시 덕양구 관산동 910-68번지","indutype":"","category":"other"},{"name":"희망꽃집","tel":"031-962-2631","addr":"경기도 고양시 덕양구 관산동 910-68번지","indutype":"문화.취미 - 화원","category":"other"}]},{"lat":"37.692575563","long":"126.86361755","imageIndex":17,"items":[{"name":"이쌤영어","tel":"070-7609-9872","addr":"경기도 고양시 덕양구 관산동 996번지 주공그린빌아파트","indutype":"","category":"other"}]},{"lat":"37.712935045","long":"126.86173086","imageIndex":17,"items":[{"name":"이전유통","tel":"031-964-3394","addr":"경기도 고양시 덕양구 관산동 578번지","indutype":"","category":"other"},{"name":"홈플러스365Plus덕양관산점","tel":"02-3459-8000","addr":"경기도 고양시 덕양구 관산동 578번지","indutype":"","category":"other"},{"name":"홈플러스365Plus덕양관산점/상품권","tel":"02-3459-8000","addr":"경기도 고양시 덕양구 관산동 578번지","indutype":"","category":"other"}]},{"lat":"37.715751932","long":"126.85915099","imageIndex":17,"items":[{"name":"이지힐통상","tel":"","addr":"경기도 고양시 덕양구 관산동 655-12번지 청솔빌","indutype":"","category":"other"}]},{"lat":"37.713212778","long":"126.8680927","imageIndex":17,"items":[{"name":"인디자인","tel":"031-4661-4011","addr":"경기도 고양시 덕양구 관산동 617-12번지 엘리시아","indutype":"","category":"other"},{"name":"인디자인","tel":"031-4661-4011","addr":"경기도 고양시 덕양구 관산동 617-12번지 엘리시아","indutype":"사무통신 - 컴퓨터","category":"other"}]},{"lat":"37.713040281","long":"126.86694756","imageIndex":17,"items":[{"name":"일렉스코리아","tel":"031-817-9327","addr":"경기도 고양시 덕양구 관산동 617-7번지","indutype":"","category":"other"},{"name":"한우리도재","tel":"031-968-5004","addr":"경기도 고양시 덕양구 관산동 617-7번지","indutype":"문화.취미 - 민예·공예품","category":"other"},{"name":"한우리도재","tel":"031-968-5004","addr":"경기도 고양시 덕양구 관산동 617-7번지","indutype":"","category":"other"}]},{"lat":"37.714182046","long":"126.864836","imageIndex":17,"items":[{"name":"일산냉동시스템","tel":"","addr":"경기도 고양시 덕양구 관산동 625-2번지","indutype":"용역 서비스 - 기타용역서비스","category":"other"}]},{"lat":"37.713212427","long":"126.86778649","imageIndex":17,"items":[{"name":"일산파주가맹점","tel":"","addr":"경기도 고양시 덕양구 관산동 617-10번지 엘리시아","indutype":"유통업 영리 - 기타유통업","category":"other"}]},{"lat":"37.706154379","long":"126.85725306","imageIndex":17,"items":[{"name":"일신철재","tel":"031-963-2866","addr":"경기도 고양시 덕양구 관산동 688-4번지","indutype":"기타 - 기타 전문점","category":"other"},{"name":"일신철재","tel":"031-963-2866","addr":"경기도 고양시 덕양구 관산동 688-4번지","indutype":"","category":"other"}]},{"lat":"37.690604123","long":"126.86503844","imageIndex":17,"items":[{"name":"임소주얼리","tel":"070-8824-3963","addr":"경기도 고양시 덕양구 관산동 910-119번지","indutype":"","category":"other"},{"name":"임소주얼리","tel":"070-8824-3963","addr":"경기도 고양시 덕양구 관산동 910-119번지","indutype":"신변잡화 - 기타잡화","category":"other"}]},{"lat":"37.688431956","long":"126.86431687","imageIndex":17,"items":[{"name":"잉글리쉬무무관산제1학습관학원","tel":"031-969-9755","addr":"경기도 고양시 덕양구 관산동 229-3번지","indutype":"","category":"other"},{"name":"잉글리쉬무무관산제1학습관학원","tel":"031-969-9755","addr":"경기도 고양시 덕양구 관산동 229-3번지","indutype":"","category":"other"}]},{"lat":"37.708485521","long":"126.85536599","imageIndex":17,"items":[{"name":"자동차카마을","tel":"031-3102-0177","addr":"경기도 고양시 덕양구 관산동 675-2번지","indutype":"","category":"other"},{"name":"현대전기","tel":"031-964-4088","addr":"경기도 고양시 덕양구 관산동 675-2번지","indutype":"","category":"other"},{"name":"현대전기","tel":"031-964-4088","addr":"경기도 고양시 덕양구 관산동 675-2번지","indutype":"수리서비스 - 기타수리서비스","category":"other"}]},{"lat":"37.686513479","long":"126.86480794","imageIndex":17,"items":[{"name":"자성암","tel":"070-4193-1885","addr":"경기도 고양시 덕양구 관산동 196-14번지 한진빌라","indutype":"","category":"other"}]},{"lat":"37.705180768","long":"126.85679003","imageIndex":17,"items":[{"name":"장길수피자","tel":"031-964-0042","addr":"경기도 고양시 덕양구 관산동 690-12번지","indutype":"","category":"other"}]},{"lat":"37.712988204","long":"126.86098224","imageIndex":17,"items":[{"name":"장수순대국","tel":"031-969-7799","addr":"경기도 고양시 덕양구 관산동 579-8번지","indutype":"","category":"other"},{"name":"장수순대국","tel":"031-969-7799","addr":"경기도 고양시 덕양구 관산동 579-8번지","indutype":"","category":"other"}]},{"lat":"37.688767836","long":"126.86648169","imageIndex":17,"items":[{"name":"정가네식당","tel":"031-963-4043","addr":"경기도 고양시 덕양구 관산동 180-5번지","indutype":"","category":"other"}]},{"lat":"37.715680131","long":"126.85937796","imageIndex":17,"items":[{"name":"정국진","tel":"","addr":"경기도 고양시 덕양구 관산동 655-12번지 청솔빌","indutype":"","category":"other"}]},{"lat":"37.701600688","long":"126.86150289","imageIndex":17,"items":[{"name":"정패션","tel":"070-4028-0848","addr":"경기도 고양시 덕양구 관산동 433-1번지","indutype":"","category":"other"},{"name":"정패션","tel":"070-4028-0848","addr":"경기도 고양시 덕양구 관산동 433-1번지","indutype":"의류 - 정장","category":"other"}]},{"lat":"37.708990892","long":"126.85603408","imageIndex":17,"items":[{"name":"제이아이 사운드","tel":"031-962-7775","addr":"경기도 고양시 덕양구 관산동 685-118번지","indutype":"","category":"other"}]},{"lat":"37.70935","long":"126.85501272","imageIndex":17,"items":[{"name":"제이엠독(JM DOG)","tel":"02-912-8294","addr":"경기도 고양시 덕양구 관산동 672-45번지","indutype":"","category":"other"}]},{"lat":"37.702901987","long":"126.85731612","imageIndex":17,"items":[{"name":"조은농원","tel":"031-962-1890","addr":"경기도 고양시 덕양구 관산동 740-2번지","indutype":"","category":"other"}]},{"lat":"37.703018045","long":"126.85645409","imageIndex":17,"items":[{"name":"조은농원","tel":"031-962-1890","addr":"경기도 고양시 덕양구 관산동 727-4번지","indutype":"","category":"other"}]},{"lat":"37.712789214","long":"126.86033618","imageIndex":17,"items":[{"name":"조은화장품","tel":"070-4018-2124","addr":"경기도 고양시 덕양구 관산동 580-11번지 요산아트빌","indutype":"","category":"other"}]},{"lat":"37.688071077","long":"126.86389807","imageIndex":17,"items":[{"name":"조이컴퓨터","tel":"031-963-1513","addr":"경기도 고양시 덕양구 관산동 231-24번지","indutype":"","category":"other"},{"name":"조이컴퓨터","tel":"031-963-1513","addr":"경기도 고양시 덕양구 관산동 231-24번지","indutype":"","category":"other"},{"name":"풀하우스","tel":"031-964-2121","addr":"경기도 고양시 덕양구 관산동 231-24번지","indutype":"","category":"other"}]},{"lat":"37.706013366","long":"126.86744801","imageIndex":17,"items":[{"name":"주식회사 가문피앤피","tel":"031-973-9400","addr":"경기도 고양시 덕양구 관산동 38-2번지","indutype":"","category":"other"}]},{"lat":"37.709038172","long":"126.85783712","imageIndex":17,"items":[{"name":"주식회사 디노팩토리","tel":"02-1899-0363","addr":"경기도 고양시 덕양구 관산동 685-41번지","indutype":"신변잡화 - 기타잡화","category":"other"}]},{"lat":"37.715124372","long":"126.8617267","imageIndex":17,"items":[{"name":"준크리스탈","tel":"031-938-1073","addr":"경기도 고양시 덕양구 관산동 642번지","indutype":"","category":"other"},{"name":"준크리스탈","tel":"031-938-1073","addr":"경기도 고양시 덕양구 관산동 642번지","indutype":"신변잡화 - 기념품점","category":"other"},{"name":"하윤 상패","tel":"02-6952-9064","addr":"경기도 고양시 덕양구 관산동 642번지","indutype":"","category":"other"},{"name":"하윤 상패","tel":"02-6952-9064","addr":"경기도 고양시 덕양구 관산동 642번지","indutype":"신변잡화 - 기념품점","category":"other"}]},{"lat":"37.709432785","long":"126.85637342","imageIndex":17,"items":[{"name":"차이나 하오치","tel":"031-963-3061","addr":"경기도 고양시 덕양구 관산동 685-105번지","indutype":"","category":"other"},{"name":"참나무 닭굼터","tel":"031-968-9282","addr":"경기도 고양시 덕양구 관산동 685-105번지","indutype":"","category":"other"},{"name":"황금농자재","tel":"031-967-7300","addr":"경기도 고양시 덕양구 관산동 685-105번지","indutype":"농업 - 기타농업관련","category":"other"},{"name":"황금농자재","tel":"031-967-7300","addr":"경기도 고양시 덕양구 관산동 685-105번지","indutype":"","category":"other"}]},{"lat":"37.686792125","long":"126.8642519","imageIndex":17,"items":[{"name":"착한쭈꾸미","tel":"031-969-9233","addr":"경기도 고양시 덕양구 관산동 224-3번지","indutype":"","category":"other"},{"name":"한양전통육개장돼지부속","tel":"031-962-4081","addr":"경기도 고양시 덕양구 관산동 224-3번지","indutype":"","category":"other"}]},{"lat":"37.714202644","long":"126.85944886","imageIndex":17,"items":[{"name":"청룡유통","tel":"070-4710-5545","addr":"경기도 고양시 덕양구 관산동 655-20번지 청솔빌리지","indutype":"","category":"other"}]},{"lat":"37.688017966","long":"126.86470311","imageIndex":17,"items":[{"name":"청수목욕탕","tel":"031-964-8877","addr":"경기도 고양시 덕양구 관산동 227-4번지","indutype":"","category":"other"},{"name":"청수여관","tel":"031-966-5462","addr":"경기도 고양시 덕양구 관산동 227-4번지","indutype":"","category":"other"},{"name":"청수탕","tel":"031-832-8822","addr":"경기도 고양시 덕양구 관산동 227-4번지","indutype":"","category":"other"},{"name":"허브노래연습장","tel":"031-961-0550","addr":"경기도 고양시 덕양구 관산동 227-4번지","indutype":"","category":"other"}]},{"lat":"37.707651212","long":"126.85825942","imageIndex":17,"items":[{"name":"초록기획","tel":"031-963-9293","addr":"경기도 고양시 덕양구 관산동 686-5번지","indutype":"","category":"other"}]},{"lat":"37.688071443","long":"126.87209492","imageIndex":17,"items":[{"name":"초록화원","tel":"031-964-7073","addr":"경기도 고양시 덕양구 관산동","indutype":"문화.취미 - 화원","category":"other"},{"name":"초록화원","tel":"031-964-7073","addr":"경기도 고양시 덕양구 관산동 154-5","indutype":"","category":"other"}]},{"lat":"37.712374773","long":"126.86033698","imageIndex":17,"items":[{"name":"초이스할인마트","tel":"031-962-8385","addr":"경기도 고양시 덕양구 관산동 574-20번지","indutype":"","category":"other"}]},{"lat":"37.69087531","long":"126.86580891","imageIndex":17,"items":[{"name":"충무태권도장","tel":"031-969-8145","addr":"경기도 고양시 덕양구 관산동 1011번지","indutype":"","category":"other"}]},{"lat":"37.690518573","long":"126.86898411","imageIndex":17,"items":[{"name":"칠보석재","tel":"031-962-7580","addr":"경기도 고양시 덕양구 관산동 137-1번지 유승아파트","indutype":"회원제형태 - 기타4","category":"other"}]},{"lat":"37.713041336","long":"126.86786618","imageIndex":17,"items":[{"name":"컴퓨터수리","tel":"","addr":"경기도 고양시 덕양구 관산동 617-11번지 엘리시아","indutype":"수리서비스 - 사무·통신기기수리","category":"other"}]},{"lat":"37.708489506","long":"126.85858666","imageIndex":17,"items":[{"name":"케이웍스","tel":"031-922-6080","addr":"경기도 고양시 덕양구 관산동 685-126번지","indutype":"","category":"other"}]},{"lat":"37.687021055","long":"126.86742587","imageIndex":17,"items":[{"name":"코다리유통","tel":"031-969-3305","addr":"경기도 고양시 덕양구 관산동 992-1번지","indutype":"","category":"other"},{"name":"코다리포차","tel":"070-4922-1261","addr":"경기도 고양시 덕양구 관산동 992-1번지","indutype":"","category":"other"}]},{"lat":"37.715402169","long":"126.86047862","imageIndex":17,"items":[{"name":"코라이징","tel":"031-111-1111","addr":"경기도 고양시 덕양구 관산동 646-2번지 다울숲","indutype":"","category":"other"},{"name":"코라이징","tel":"031-111-1111","addr":"경기도 고양시 덕양구 관산동 646-2번지 다울숲","indutype":"용역 서비스 - 종합용역","category":"other"}]},{"lat":"37.690987291","long":"126.86917601","imageIndex":17,"items":[{"name":"큐티랜드","tel":"070-7685-7451","addr":"경기도 고양시 덕양구 관산동 141-14번지","indutype":"","category":"other"},{"name":"큐티랜드","tel":"070-7685-7451","addr":"경기도 고양시 덕양구 관산동 141-14번지","indutype":"의류 - 아동의류","category":"other"}]},{"lat":"37.711435347","long":"126.85834279","imageIndex":17,"items":[{"name":"클린히어로 주식회사","tel":"031-962-1044","addr":"경기도 고양시 덕양구 관산동 659-11번지","indutype":"","category":"other"},{"name":"클린히어로 주식회사","tel":"031-962-1044","addr":"경기도 고양시 덕양구 관산동 659-11번지","indutype":"용역 서비스 - 종합용역","category":"other"}]},{"lat":"37.714627502","long":"126.86828294","imageIndex":17,"items":[{"name":"태영보일러","tel":"031-968-4624","addr":"경기도 고양시 덕양구 관산동 638-2번지","indutype":"","category":"other"},{"name":"태영보일러","tel":"031-968-4624","addr":"경기도 고양시 덕양구 관산동 638-2번지","indutype":"건축자재 - 보일러·펌프·샷시","category":"other"}]},{"lat":"37.687881179","long":"126.86330888","imageIndex":17,"items":[{"name":"통일로목욕탕","tel":"031-964-8833","addr":"경기도 고양시 덕양구 관산동 236-1번지","indutype":"","category":"other"}]},{"lat":"37.688212599","long":"126.86941907","imageIndex":17,"items":[{"name":"통일로장어촌","tel":"031-964-5009","addr":"경기도 고양시 덕양구 관산동 164-1번지","indutype":"","category":"other"}]},{"lat":"37.706928895","long":"126.85700206","imageIndex":17,"items":[{"name":"통일로점현대자동차","tel":"031-969-7307","addr":"경기도 고양시 덕양구 관산동 685-60번지","indutype":"","category":"other"}]},{"lat":"37.700654313","long":"126.86119852","imageIndex":17,"items":[{"name":"파이팅치킨","tel":"031-969-1888","addr":"경기도 고양시 덕양구 관산동 468번지","indutype":"","category":"other"}]},{"lat":"37.706653949","long":"126.8605634","imageIndex":17,"items":[{"name":"피그말리온","tel":"031-964-9679","addr":"경기도 고양시 덕양구 관산동 543-1번지","indutype":"","category":"other"},{"name":"피그말리온","tel":"031-964-9679","addr":"경기도 고양시 덕양구 관산동 543-1번지","indutype":"서적문구 - 출판 및 인쇄물","category":"other"}]},{"lat":"37.701988756","long":"126.85469851","imageIndex":17,"items":[{"name":"피씨밸리향떼PC방","tel":"031-967-1179","addr":"경기도 고양시 덕양구 관산동","indutype":"사무통신 - 컴퓨터","category":"other"},{"name":"피씨밸리향떼PC방","tel":"031-967-1179","addr":"경기도 고양시 덕양구 관산동 751-1","indutype":"","category":"other"}]},{"lat":"37.705713021","long":"126.85734464","imageIndex":17,"items":[{"name":"하나휀스","tel":"","addr":"경기도 고양시 덕양구 관산동 688-7번지","indutype":"용역 서비스 - 기타용역서비스","category":"other"},{"name":"하나휀스","tel":"","addr":"경기도 고양시 덕양구 관산동 688-7번지","indutype":"","category":"other"}]},{"lat":"37.688097323","long":"126.87106318","imageIndex":17,"items":[{"name":"하돕","tel":"","addr":"경기도 고양시 덕양구 관산동 154번지","indutype":"문화.취미 - 화원","category":"other"}]},{"lat":"37.713434158","long":"126.864758","imageIndex":17,"items":[{"name":"하정무역","tel":"031-964-0496","addr":"경기도 고양시 덕양구 관산동 624-1번지","indutype":"","category":"other"},{"name":"하정무역","tel":"031-964-0496","addr":"경기도 고양시 덕양구 관산동 624-1번지","indutype":"신변잡화 - 신발","category":"other"}]},{"lat":"37.693459045","long":"126.85662028","imageIndex":17,"items":[{"name":"한라웰스텍고양점","tel":"031-963-2651","addr":"경기도 고양시 덕양구 관산동 358-3번지","indutype":"","category":"other"},{"name":"한라웰스텍고양점","tel":"031-963-2651","addr":"경기도 고양시 덕양구 관산동 358-3번지","indutype":"주방용구 - 정수기","category":"other"}]},{"lat":"37.710680972","long":"126.86034022","imageIndex":17,"items":[{"name":"한성유통","tel":"031-1800-7511","addr":"경기도 고양시 덕양구 관산동 573-12번지","indutype":"","category":"other"},{"name":"한성유통","tel":"031-1800-7511","addr":"경기도 고양시 덕양구 관산동 573-12번지","indutype":"신변잡화 - 기타잡화","category":"other"},{"name":"화인푸드","tel":"031-962-6222","addr":"경기도 고양시 덕양구 관산동 573-12번지","indutype":"","category":"other"}]},{"lat":"37.704792934","long":"126.8564506","imageIndex":17,"items":[{"name":"한솔가구","tel":"031-962-1855","addr":"경기도 고양시 덕양구 관산동 887-4번지","indutype":"","category":"other"},{"name":"한솔가구","tel":"031-962-1855","addr":"경기도 고양시 덕양구 관산동","indutype":"가구 - 일반가구","category":"other"}]},{"lat":"37.712150913","long":"126.86148284","imageIndex":17,"items":[{"name":"한영아크릴","tel":"031-969-8581","addr":"경기도 고양시 덕양구 관산동 576-7번지","indutype":"","category":"other"}]},{"lat":"37.713433866","long":"126.86450849","imageIndex":17,"items":[{"name":"한우리키친아트","tel":"031-964-3114","addr":"경기도 고양시 덕양구 관산동 589-1번지","indutype":"주방용구 - 주방용구","category":"other"},{"name":"한우리키친아트","tel":"031-964-3114","addr":"경기도 고양시 덕양구 관산동 589-1번지","indutype":"","category":"other"}]},{"lat":"37.704074698","long":"126.8585045","imageIndex":17,"items":[{"name":"한우천국","tel":"031-1666-1592","addr":"경기도 고양시 덕양구 관산동 493-17번지","indutype":"","category":"other"}]},{"lat":"37.690352238","long":"126.8653677","imageIndex":17,"items":[{"name":"한울음악학원","tel":"031-969-2088","addr":"경기도 고양시 덕양구 관산동 113-1번지","indutype":"","category":"other"}]},{"lat":"37.700880788","long":"126.86222996","imageIndex":17,"items":[{"name":"한일종합식품","tel":"031-964-9967","addr":"경기도 고양시 덕양구 관산동 440번지","indutype":"","category":"other"}]},{"lat":"37.708208284","long":"126.87239975","imageIndex":17,"items":[{"name":"해비치어패럴","tel":"031-813-6661","addr":"경기도 고양시 덕양구 관산동 16번지","indutype":"","category":"other"}]},{"lat":"37.70532685","long":"126.85835465","imageIndex":17,"items":[{"name":"해원의료기 서대문지점","tel":"02-358-0417","addr":"경기도 고양시 덕양구 관산동 540-88번지 리더스빌","indutype":"","category":"other"}]},{"lat":"37.69676199","long":"126.85375647","imageIndex":17,"items":[{"name":"핸디로밸리","tel":"031-964-2415","addr":"경기도 고양시 덕양구 관산동 847-129번지","indutype":"","category":"other"}]},{"lat":"37.707740149","long":"126.857318","imageIndex":17,"items":[{"name":"허니 허니","tel":"070-8201-6440","addr":"경기도 고양시 덕양구 관산동 684-3번지 동화빌라","indutype":"","category":"other"}]},{"lat":"37.688905877","long":"126.86900968","imageIndex":17,"items":[{"name":"허스슈퍼","tel":"031-962-8544","addr":"경기도 고양시 덕양구 관산동 151-3번지","indutype":"","category":"other"}]},{"lat":"37.705624722","long":"126.85880767","imageIndex":17,"items":[{"name":"헤어죤미용실","tel":"031-962-6684","addr":"경기도 고양시 덕양구 관산동 541-19번지","indutype":"","category":"other"}]},{"lat":"37.689770826","long":"126.8690308","imageIndex":17,"items":[{"name":"현대그린자동차공업사","tel":"031-962-7049","addr":"경기도 고양시 덕양구 관산동 135-1번지","indutype":"","category":"other"}]},{"lat":"37.688461732","long":"126.86667499","imageIndex":17,"items":[{"name":"현대자동차관산점","tel":"031-916-1554","addr":"경기도 고양시 덕양구 관산동 180-44번지","indutype":"","category":"other"}]},{"lat":"37.712489773","long":"126.85859024","imageIndex":17,"items":[{"name":"형제식품","tel":"031-963-7571","addr":"경기도 고양시 덕양구 관산동 657-7번지","indutype":"","category":"other"}]},{"lat":"37.694568766","long":"126.85786531","imageIndex":17,"items":[{"name":"화덕구이하나","tel":"031-962-8010","addr":"경기도 고양시 덕양구 관산동 360-10번지","indutype":"","category":"other"}]},{"lat":"37.691325448","long":"126.85798501","imageIndex":17,"items":[{"name":"휴먼펫","tel":"031-977-2004","addr":"경기도 고양시 덕양구 관산동 319-12번지","indutype":"","category":"other"},{"name":"휴먼펫","tel":"031-977-2004","addr":"경기도 고양시 덕양구 관산동 319-12번지","indutype":"문화.취미 - 애완동물","category":"other"}]},{"lat":"37.708044712","long":"126.87114126","imageIndex":17,"items":[{"name":"희망식당","tel":"031-969-2787","addr":"경기도 고양시 덕양구 관산동 17-4번지","indutype":"","category":"other"}]}]