[{"lat":"37.218719053","long":"127.05786336","imageIndex":17,"items":[{"name":"(주)에스앤에스(지점)","tel":"031-8003-4352","addr":"경기도 화성시 능동 1065-2번지 우남퍼스트빌스타B타워 1층","indutype":"용역 서비스 - 종합용역","category":"other"},{"name":"GS25동탄우남점","tel":"","addr":"경기도 화성시 능동 1065-2번지 우남퍼스트빌 상가동 111호","indutype":"유통업 영리 - 편 의 점","category":"other"},{"name":"우남세탁소","tel":"031-8003-6003","addr":"경기도 화성시 능동 1065-2번지 동탄퍼스트빌스타 B동 109호","indutype":"수리서비스 - 세탁소","category":"other"}]},{"lat":"37.218187068","long":"127.0586629","imageIndex":17,"items":[{"name":"(주)에스피케이","tel":"031-477-9874","addr":"경기도 화성시 능동 1064-5번지 이너매스 306호","indutype":"건축자재 - 조명기구","category":"other"},{"name":"두인에스제이테크","tel":"02-555-1185","addr":"경기도 화성시 능동 1064-5번지 이너메스 306층 14호","indutype":"기타 - 기계공구","category":"other"},{"name":"신동건축","tel":"031-205-8160","addr":"경기도 화성시 능동 1064-5번지 이너매스오피스텔 713호","indutype":"건축자재 - 인테리어전문","category":"other"},{"name":"에이티솔루션","tel":"070-4110-5227","addr":"경기도 화성시 능동 1064-5번지 306호 동탄이너매스 비즈센터3호전부","indutype":"문화.취미 - 화방·표구점","category":"other"},{"name":"엠코리아라이팅","tel":"031-213-3462","addr":"경기도 화성시 능동 1064-5번지 이너매스 9층 915호","indutype":"건축자재 - 조명기구","category":"other"},{"name":"위드미동탄그린점","tel":"031-8015-0119","addr":"경기도 화성시 능동 1064-5번지 이너매스 108","indutype":"유통업 영리 - 편 의 점","category":"other"},{"name":"이너매스","tel":"","addr":"경기도 화성시 능동 1064-5번지 이너매스 3층 306호","indutype":"사무통신 - 컴퓨터","category":"other"},{"name":"주식회사 가승엘앤에이치","tel":"02-1670-8492","addr":"경기도 화성시 능동 1064-5번지 3층 305호 이너매스","indutype":"용역 서비스 - 기타용역서비스","category":"other"},{"name":"코인워시 화성동탄능동점","tel":"031-8003-1091","addr":"경기도 화성시 능동 1064-5번지 이너매스 1층 109호","indutype":"수리서비스 - 세탁소","category":"other"}]},{"lat":"37.218358857","long":"127.0573899","imageIndex":17,"items":[{"name":"(주)에코이앤피","tel":"031-831-3848","addr":"경기도 화성시 능동 1065-3번지 동탄푸르지오시티 934호","indutype":"건축자재 - 기타건축자재","category":"other"}]},{"lat":"37.214630397","long":"127.05325257","imageIndex":17,"items":[{"name":"(주)이마트24 G동탄주유소점","tel":"","addr":"경기도 화성시 능동 1105번지","indutype":"유통업 영리 - 편 의 점","category":"other"}]},{"lat":"37.209797734","long":"127.06008743","imageIndex":17,"items":[{"name":"(주)좋은생각","tel":"0031-8003-7271","addr":"경기도 화성시 능동 1113-3번지 에이엔비프라자 102호","indutype":"별도관리 - 자체물품대금","category":"other"},{"name":"(주)좋은생각","tel":"0010-8003-7271","addr":"경기도 화성시 능동 1113-3번지 ANB프라자 102호","indutype":"별도관리 - 자체물품대금","category":"other"}]},{"lat":"37.199024489","long":"127.05308451","imageIndex":17,"items":[{"name":"(주)콘도르","tel":"031-8003-2265","addr":"경기도 화성시 능동 1153-1번지 중앙프라자 305호","indutype":"사무통신 - 사무용 OA기기","category":"other"},{"name":"주식회사 대경테크랜드시스템","tel":"031-8015-0530","addr":"경기도 화성시 능동 1153-1번지 중앙프라자 401호","indutype":"신변잡화 - 기타잡화","category":"other"},{"name":"탑스크린","tel":"031-8003-5363","addr":"경기도 화성시 능동 1153-1번지 중앙프라자 5층","indutype":"회원제형태 - 레져업소","category":"other"}]},{"lat":"37.209130836","long":"127.06035729","imageIndex":17,"items":[{"name":"12일","tel":"","addr":"경기도 화성시 능동 1114-5번지 동탄엠플렉스 1층 104호","indutype":"의류 - 정장","category":"other"},{"name":"홀릭스터다카페","tel":"031-8015-4340","addr":"경기도 화성시 능동 1114-5번지 동탄엠플렉스 202호,203호","indutype":"용역 서비스 - 사무서비스","category":"other"}]},{"lat":"37.20122299","long":"127.05316482","imageIndex":17,"items":[{"name":"C&C인테리어","tel":"031-8800-1186","addr":"경기도 화성시 능동 1145-1번지 103호","indutype":"직물 - 카페트,커튼,천막,지물","category":"other"},{"name":"꽃담","tel":"031-8015-5130","addr":"경기도 화성시 능동 1145-1번지","indutype":"문화.취미 - 화원","category":"other"},{"name":"엘림컴퓨터","tel":"031-7363-8690","addr":"경기도 화성시 능동 1145-1번지 301호","indutype":"수리서비스 - 사무·통신기기수리","category":"other"}]},{"lat":"37.203133216","long":"127.05310976","imageIndex":17,"items":[{"name":"ECO전기조명","tel":"031-613-3573","addr":"경기도 화성시 능동 1143-5번지 102, 103호","indutype":"건축자재 - 조명기구","category":"other"},{"name":"메가미디어","tel":"031-613-6114","addr":"경기도 화성시 능동 1143-5번지 101호","indutype":"용역 서비스 - 종합용역","category":"other"},{"name":"엠에스텍","tel":"031-613-3573","addr":"경기도 화성시 능동 1143-5번지 102호","indutype":"건축자재 - 조명기구","category":"other"}]},{"lat":"37.197528634","long":"127.05338764","imageIndex":17,"items":[{"name":"ECO프린텍","tel":"031-205-9247","addr":"경기도 화성시 능동 1159-8번지 1층","indutype":"사무통신 - 기타 사무용품","category":"other"}]},{"lat":"37.217880673","long":"127.05875281","imageIndex":17,"items":[{"name":"GS25능동이너메스","tel":"","addr":"경기도 화성시 능동 1064-4번지 익현오피스텔 1층 103호","indutype":"유통업 영리 - 편 의 점","category":"other"},{"name":"나무(NAMU)","tel":"070-8754-5011","addr":"경기도 화성시 능동 1064-4번지 익현오피스텔 908호","indutype":"가구 - 기타가구","category":"other"},{"name":"다인테크","tel":"031-613-3505","addr":"경기도 화성시 능동 1064-4번지 익현오피스텔 218호","indutype":"전기제품 - 기타전기제품","category":"other"},{"name":"바른가스","tel":"031-000-0000","addr":"경기도 화성시 능동 1064-4번지 익현오피스텔 220호","indutype":"용역 서비스 - 기타용역서비스","category":"other"},{"name":"이너매스세탁소","tel":"031-8015-2128","addr":"경기도 화성시 능동 1064-4번지 익현오피스텔 107호","indutype":"수리서비스 - 세탁소","category":"other"}]},{"lat":"37.207025237","long":"127.05419377","imageIndex":17,"items":[{"name":"GS25동탄데시앙점","tel":"02-2006-2485","addr":"경기도 화성시 능동 1131 숲속마을자연앤데시앙@1층","indutype":"유통업 영리 - 편 의 점","category":"other"}]},{"lat":"37.212439249","long":"127.05694628","imageIndex":17,"items":[{"name":"GS25동탄이지점","tel":"02-2006-2485","addr":"경기도 화성시 능동 1109 이지더원상가 101호","indutype":"유통업 영리 - 편 의 점","category":"other"}]},{"lat":"37.213742974","long":"127.06272663","imageIndex":17,"items":[{"name":"GS25동탄하나점","tel":"","addr":"경기도 화성시 능동 1076-2번지 1층","indutype":"유통업 영리 - 편 의 점","category":"other"}]},{"lat":"37.219079247","long":"127.05833682","imageIndex":17,"items":[{"name":"GS25동탄헤리움점","tel":"","addr":"경기도 화성시 능동 1065-1번지 동탄헤리움 103호","indutype":"유통업 영리 - 편 의 점","category":"other"},{"name":"세븐일레븐동탄헤리움점","tel":"031-1577-0711","addr":"경기도 화성시 능동 1065-1번지 118호 119호","indutype":"유통업 영리 - 편 의 점","category":"other"}]},{"lat":"37.21132994","long":"127.05916481","imageIndex":17,"items":[{"name":"GS25화성능동점","tel":"","addr":"경기도 화성시 능동 1110번지 동탄능동마을주공아파트 상가 102호","indutype":"유통업 영리 - 편 의 점","category":"other"}]},{"lat":"37.217359301","long":"127.05608227","imageIndex":17,"items":[{"name":"HOTECH(에이치오테크)","tel":"031-624-2765","addr":"경기도 화성시 능동 1094-5번지 202호","indutype":"서적문구 - 과학기자재","category":"other"}]},{"lat":"37.198860663","long":"127.0568127","imageIndex":17,"items":[{"name":"TS인테리어","tel":"031-8003-5380","addr":"경기도 화성시 능동 978번지 103호","indutype":"건축자재 - 인테리어전문","category":"other"}]},{"lat":"37.213688729","long":"127.0630871","imageIndex":17,"items":[{"name":"ei 온새미로","tel":"031-8015-5557","addr":"경기도 화성시 능동 1078-8번지 1층","indutype":"건축자재 - 페인트","category":"other"}]},{"lat":"37.198024858","long":"127.05183359","imageIndex":17,"items":[{"name":"가나시스템","tel":"031-216-9900","addr":"경기도 화성시 능동 1164-18번지","indutype":"농업 - 기타농업관련","category":"other"}]},{"lat":"37.200665503","long":"127.05035971","imageIndex":17,"items":[{"name":"가나중고재활용총판","tel":"031-898-8860","addr":"경기도 화성시 능동 633번지","indutype":"전기제품 - 가전제품","category":"other"}]},{"lat":"37.217664814","long":"127.05791893","imageIndex":17,"items":[{"name":"감성디자인제작소 더지인","tel":"070-7676-9242","addr":"경기도 화성시 능동 1066-8번지 에스원스마트빌 1212호","indutype":"용역 서비스 - 사무서비스","category":"other"},{"name":"토탈 맘스 케어","tel":"031-8003-4726","addr":"경기도 화성시 능동 1066-8번지 에스원스마트빌 203호","indutype":"주방용구 - 주방용구","category":"other"}]},{"lat":"37.20052027","long":"127.05295033","imageIndex":17,"items":[{"name":"갤러리옷수선","tel":"070-8860-8856","addr":"경기도 화성시 능동 1146-1번지 101호","indutype":"수리서비스 - 세탁소","category":"other"},{"name":"전자담배멀티플러스","tel":"070-4244-2206","addr":"경기도 화성시 능동 1146-1번지 103호","indutype":"기타 - 기타 전문점","category":"other"}]},{"lat":"37.200853607","long":"127.05306319","imageIndex":17,"items":[{"name":"경기디자인","tel":"031-613-0481","addr":"경기도 화성시 능동 1145-4번지","indutype":"건축자재 - 인테리어전문","category":"other"},{"name":"신영유리샤시","tel":"031-2003-6202","addr":"경기도 화성시 능동 1145-4번지","indutype":"건축자재 - 유리","category":"other"},{"name":"컴퓨터119","tel":"0505-8383-119","addr":"경기도 화성시 능동 1145-4번지 컴퓨터 119호","indutype":"사무통신 - 컴퓨터","category":"other"}]},{"lat":"37.214214956","long":"127.0554717","imageIndex":17,"items":[{"name":"경신사","tel":"031-613-0959","addr":"경기도 화성시 능동 1104-11번지 101호","indutype":"수리서비스 - 세탁소","category":"other"},{"name":"하얀크리닝","tel":"031-8015-5958","addr":"경기도 화성시 능동 1104-11번지 101호","indutype":"수리서비스 - 세탁소","category":"other"}]},{"lat":"37.199745529","long":"127.05258938","imageIndex":17,"items":[{"name":"골프부킹번개","tel":"","addr":"경기도 화성시 능동 1149-6번지 1동","indutype":"용역 서비스 - 사무서비스","category":"other"}]},{"lat":"37.200333846","long":"127.0458314","imageIndex":17,"items":[{"name":"공존","tel":"070-8668-9966","addr":"경기도 화성시 능동 683번지","indutype":"레져용품 - 골프용품 전문점","category":"other"}]},{"lat":"37.202775281","long":"127.0468691","imageIndex":17,"items":[{"name":"구봉산골프샵(동탄골프랜드)","tel":"031-224-9030","addr":"경기도 화성시 능동 697-16번지","indutype":"레져용품 - 스포츠·레져용품","category":"other"}]},{"lat":"37.209554843","long":"127.05927614","imageIndex":17,"items":[{"name":"굿샵 동탄점","tel":"031-8015-9104","addr":"경기도 화성시 능동 1114-1번지 107호","indutype":"유통업 영리 - 편 의 점","category":"other"},{"name":"세븐일레븐동탄숲속마을점","tel":"","addr":"경기도 화성시 능동 1114-1번지 108호","indutype":"유통업 영리 - 편 의 점","category":"other"}]},{"lat":"37.199943677","long":"127.052781","imageIndex":17,"items":[{"name":"글로벌키탑","tel":"031-613-6464","addr":"경기도 화성시 능동 1146-6번지 101호","indutype":"건축자재 - 목재·석재·철물","category":"other"},{"name":"꿈꾸는솜사탕","tel":"031-8003-8182","addr":"경기도 화성시 능동 1146-6번지 201호","indutype":"용역 서비스 - 종합용역","category":"other"}]},{"lat":"37.202520423","long":"127.05331211","imageIndex":17,"items":[{"name":"금강토탈인테리어","tel":"031-226-3630","addr":"경기도 화성시 능동 1143-10번지 1층 101호","indutype":"건축자재 - 인테리어전문","category":"other"}]},{"lat":"37.215773452","long":"127.05613749","imageIndex":17,"items":[{"name":"나눔로또신동탄점","tel":"031-8015-0645","addr":"경기도 화성시 능동 1098-8번지 1층","indutype":"유통업 영리 - 편 의 점","category":"other"}]},{"lat":"37.201721078","long":"127.04683469","imageIndex":17,"items":[{"name":"나도기획","tel":"070-8243-2860","addr":"경기도 화성시 능동 1283번지 서동탄역파크자이2차 204동 1303호","indutype":"용역 서비스 - 종합용역","category":"other"}]},{"lat":"37.220637436","long":"127.05961113","imageIndex":17,"items":[{"name":"나루마루","tel":"031-8003-6166","addr":"경기도 화성시 능동 1052-1번지 104호","indutype":"건축자재 - 인테리어전문","category":"other"},{"name":"모던스토리","tel":"031-613-1139","addr":"경기도 화성시 능동 1052-1번지 1층 101호 ,102,103호","indutype":"가구 - 일반가구","category":"other"}]},{"lat":"37.202277133","long":"127.05333448","imageIndex":17,"items":[{"name":"나무엔","tel":"070-8887-1741","addr":"경기도 화성시 능동 1143-12번지","indutype":"문화.취미 - 문화취미기타","category":"other"}]},{"lat":"37.198663463","long":"127.0545035","imageIndex":17,"items":[{"name":"남광조명","tel":"031-613-7513","addr":"경기도 화성시 능동 1153-11번지 1층 103호","indutype":"건축자재 - 조명기구","category":"other"},{"name":"잉크와컴퓨터","tel":"031-613-9782","addr":"경기도 화성시 능동 1153-11번지 1층","indutype":"사무통신 - 컴퓨터","category":"other"},{"name":"킴스윈드","tel":"","addr":"경기도 화성시 능동 1153-11번지 101호","indutype":"수리서비스 - 기타수리서비스","category":"other"}]},{"lat":"37.197745923","long":"127.05088727","imageIndex":17,"items":[{"name":"노비타 경기남부점","tel":"031-8003-1307","addr":"경기도 화성시 능동 1171-1번지 101호","indutype":"전기제품 - 기타전기제품","category":"other"}]},{"lat":"37.198186929","long":"127.05211529","imageIndex":17,"items":[{"name":"느낌있는 아이","tel":"031-000-0000","addr":"경기도 화성시 능동 1164-20번지 103호","indutype":"의류 - 정장","category":"other"},{"name":"에이디 기획","tel":"031-221-1448","addr":"경기도 화성시 능동 1164-20번지 101호","indutype":"용역 서비스 - 종합용역","category":"other"},{"name":"작은별서점","tel":"031-111-1111","addr":"경기도 화성시 능동 1164-20번지 103호","indutype":"서적문구 - 일반서적","category":"other"}]},{"lat":"37.202743232","long":"127.05877545","imageIndex":17,"items":[{"name":"늘푸른공예","tel":"","addr":"경기도 화성시 능동 1134번지 푸른마을포스코더샵2차 902동 1304호","indutype":"문화.취미 - 문화취미기타","category":"other"}]},{"lat":"37.217412883","long":"127.05714136","imageIndex":17,"items":[{"name":"다올","tel":"031-613-4210","addr":"경기도 화성시 능동 1091-10번지 1층","indutype":"용역 서비스 - 종합용역","category":"other"}]},{"lat":"37.199251078","long":"127.04984069","imageIndex":17,"items":[{"name":"다인기획","tel":"031-252-8600","addr":"경기도 화성시 능동 1040 우남드림밸리2차 202/906","indutype":"회원제형태 - 기타4","category":"other"},{"name":"컴네트119","tel":"031-225-0249","addr":"경기도 화성시 능동 1040번지 우남퍼스트빌2차단지 상가 106호","indutype":"사무통신 - 컴퓨터","category":"other"}]},{"lat":"37.199856778","long":"127.04447946","imageIndex":17,"items":[{"name":"닥터프로코리아","tel":"070-7011-5882","addr":"경기도 화성시 능동 692-1번지","indutype":"레져용품 - 스포츠·레져용품","category":"other"}]},{"lat":"37.199802628","long":"127.04472724","imageIndex":17,"items":[{"name":"단(da:n)","tel":"070-4215-1708","addr":"경기도 화성시 능동 691-4번지","indutype":"의류 - 정장","category":"other"},{"name":"씨앗책방 (아이서적)","tel":"","addr":"경기도 화성시 능동 691-4번지 1층 3호","indutype":"서적문구 - 일반서적","category":"other"}]},{"lat":"37.214386579","long":"127.05450294","imageIndex":17,"items":[{"name":"담을","tel":"031-613-3982","addr":"경기도 화성시 능동 1103-13번지","indutype":"문화.취미 - 민예·공예품","category":"other"}]},{"lat":"37.1989099","long":"127.04666411","imageIndex":17,"items":[{"name":"대명기업","tel":"031-222-8532","addr":"경기도 화성시 능동 668-5번지","indutype":"용역 서비스 - 종합용역","category":"other"}]},{"lat":"37.217746635","long":"127.05633041","imageIndex":17,"items":[{"name":"대웅기업","tel":"031-8015-2916","addr":"경기도 화성시 능동 1094-1번지 1층","indutype":"가구 - 일반가구","category":"other"}]},{"lat":"37.216691899","long":"127.05747883","imageIndex":17,"items":[{"name":"더퍼스트피플(THE 1ST PEOPLE)","tel":"031-292-6938","addr":"경기도 화성시 능동 1095-10번지 1층상가","indutype":"용역 서비스 - 종합용역","category":"other"}]},{"lat":"37.214828423","long":"127.05372588","imageIndex":17,"items":[{"name":"도담펫","tel":"","addr":"경기도 화성시 능동 1100-12번지 102호","indutype":"문화.취미 - 애완동물","category":"other"},{"name":"디유(Du)웨딩스튜디오","tel":"031-8003-2860","addr":"경기도 화성시 능동 1100-12번지 ,2,3층","indutype":"광학제품 - 사진관","category":"other"},{"name":"펫마트 동탄점","tel":"02-2662-5755","addr":"경기도 화성시 능동 1100-12번지","indutype":"문화.취미 - 애완동물","category":"other"}]},{"lat":"37.199025021","long":"127.05181171","imageIndex":17,"items":[{"name":"동서에프앤씨","tel":"070-4189-4278","addr":"경기도 화성시 능동 1156-2번지 1층","indutype":"기타 - 기계공구","category":"other"},{"name":"케이트우드","tel":"031-000-0000","addr":"경기도 화성시 능동 1156-2번지 1층","indutype":"문화.취미 - 문화취미기타","category":"other"}]},{"lat":"37.200159902","long":"127.05283746","imageIndex":17,"items":[{"name":"동탄MTB클럽","tel":"031-8015-0037","addr":"경기도 화성시 능동 1146-4번지","indutype":"레져용품 - 스포츠·레져용품","category":"other"}]},{"lat":"37.199444829","long":"127.06003456","imageIndex":17,"items":[{"name":"동탄골프","tel":"031-8015-1872","addr":"경기도 화성시 능동 988번지","indutype":"레져용품 - 골프용품 전문점","category":"other"}]},{"lat":"37.209527018","long":"127.06092086","imageIndex":17,"items":[{"name":"동탄마음수련회","tel":"031-613-9939","addr":"경기도 화성시 능동 1113-6번지 한솔프라자 501호","indutype":"회원제형태 - 레져업소","category":"other"},{"name":"제이와이엠","tel":"","addr":"경기도 화성시 능동 1113-6번지 한솔프라자 103호","indutype":"의류 - 정장","category":"other"},{"name":"탑스터디카페","tel":"","addr":"경기도 화성시 능동 1113-6번지 한솔프라자 502호","indutype":"용역 서비스 - 사무서비스","category":"other"}]},{"lat":"37.209052963","long":"127.05328266","imageIndex":17,"items":[{"name":"동탄신도시능동주유소/편의점","tel":"031-224-5189","addr":"경기도 화성시 능동 508-3번지","indutype":"유통업 영리 - 편 의 점","category":"other"}]},{"lat":"37.218188178","long":"127.05625185","imageIndex":17,"items":[{"name":"동탄인테리어","tel":"031-613-0482","addr":"경기도 화성시 능동 1091-1번지 101,102호","indutype":"건축자재 - 인테리어전문","category":"other"},{"name":"동탄코맥스","tel":"031-360-0011","addr":"경기도 화성시 능동 1091-1번지 101호","indutype":"전기제품 - 기타전기제품","category":"other"}]},{"lat":"37.21513365","long":"127.0562835","imageIndex":17,"items":[{"name":"동탄전기조명","tel":"031-8050-8059","addr":"경기도 화성시 능동 1104-2번지","indutype":"건축자재 - 조명기구","category":"other"},{"name":"동탄전기조명","tel":"031-8050-8059","addr":"경기도 화성시 능동 1104-2번지","indutype":"건축자재 - 조명기구","category":"other"}]},{"lat":"37.204331805","long":"127.05261492","imageIndex":17,"items":[{"name":"등불조명","tel":"031-000-0000","addr":"경기도 화성시 능동 1138-4번지 1층","indutype":"건축자재 - 조명기구","category":"other"},{"name":"등불조명","tel":"031-8015-1569","addr":"경기도 화성시 능동 1138-4번지","indutype":"건축자재 - 조명기구","category":"other"}]},{"lat":"37.213580536","long":"127.06322221","imageIndex":17,"items":[{"name":"디자인 그루","tel":"031-8015-0182","addr":"경기도 화성시 능동 1078-3번지 101호","indutype":"용역 서비스 - 사무서비스","category":"other"}]},{"lat":"37.21502321","long":"127.06119545","imageIndex":17,"items":[{"name":"라무통","tel":"070-4799-2230","addr":"경기도 화성시 능동 1071-9번지","indutype":"문화.취미 - 화원","category":"other"}]},{"lat":"37.215719227","long":"127.05649797","imageIndex":17,"items":[{"name":"라보떼인테리어디자인","tel":"070-7532-7677","addr":"경기도 화성시 능동 1098-5번지 1층","indutype":"건축자재 - 인테리어전문","category":"other"}]},{"lat":"37.199248416","long":"127.05613714","imageIndex":17,"items":[{"name":"라임(숙녀복)","tel":"031-613-6153","addr":"경기도 화성시 능동 1152-4번지 엘리트타워 102호","indutype":"의류 - 정장","category":"other"},{"name":"엘리짐(Elly Gym)","tel":"031-613-0371","addr":"경기도 화성시 능동 1152-4번지 엘리트타워 204호","indutype":"회원제형태 - 레져업소","category":"other"}]},{"lat":"37.209329314","long":"127.05983924","imageIndex":17,"items":[{"name":"라임나무공방","tel":"","addr":"경기도 화성시 능동 1114-3번지 아크리아 1층 106호","indutype":"문화.취미 - 문화취미기타","category":"other"},{"name":"아우라골드","tel":"031-613-7799","addr":"경기도 화성시 능동 1114-3번지 아크리아 105호","indutype":"신변잡화 - 액세서리","category":"other"}]},{"lat":"37.20402579","long":"127.05180367","imageIndex":17,"items":[{"name":"라켓마켓 (racket market)","tel":"031-8015-0657","addr":"경기도 화성시 능동 1140-5번지 101호","indutype":"레져용품 - 스포츠·레져용품","category":"other"}]},{"lat":"37.214962681","long":"127.0557764","imageIndex":17,"items":[{"name":"로그인테리어/주식회사 로그","tel":"031-8003-4539","addr":"경기도 화성시 능동 1101-5번지 101호","indutype":"건축자재 - 인테리어전문","category":"other"}]},{"lat":"37.213134628","long":"127.05336424","imageIndex":17,"items":[{"name":"로코코쇼파 동탄전시장","tel":"031-232-1366","addr":"경기도 화성시 능동 468-1번지","indutype":"가구 - 일반가구","category":"other"}]},{"lat":"37.206356915","long":"127.05766289","imageIndex":17,"items":[{"name":"롯데쥬얼리","tel":"031-8058-5993","addr":"경기도 화성시 능동 1132번지 숲속마을모아852동2303~2303호 852동 2303호","indutype":"신변잡화 - 액세서리","category":"other"}]},{"lat":"37.209437574","long":"127.05955769","imageIndex":17,"items":[{"name":"리즈베리","tel":"02-1522-7022","addr":"경기도 화성시 능동 1114-2번지 에버스티 1층 108호","indutype":"의류 - 정장","category":"other"},{"name":"예인에스테틱","tel":"031-613-5188","addr":"경기도 화성시 능동 1114-2번지 에버스타 303호","indutype":"회원제형태 - 기타4","category":"other"}]},{"lat":"37.20971651","long":"127.06035773","imageIndex":17,"items":[{"name":"리플라워","tel":"031-8015-2820","addr":"경기도 화성시 능동 1113-4번지 더드림시티오피스텔 108호","indutype":"문화.취미 - 화원","category":"other"},{"name":"유앤아이(uni)","tel":"070-7796-5196","addr":"경기도 화성시 능동 1113-4번지 103호","indutype":"의류 - 내의판매","category":"other"}]},{"lat":"37.216853971","long":"127.05772681","imageIndex":17,"items":[{"name":"마스터칸","tel":"031-8003-6835","addr":"경기도 화성시 능동 1091-17번지 102호","indutype":"건축자재 - 인테리어전문","category":"other"}]},{"lat":"37.202386631","long":"127.05000033","imageIndex":17,"items":[{"name":"만지작 Lab","tel":"","addr":"경기도 화성시 능동 1282번지 서동탄역파크자이 109동 302호","indutype":"문화.취미 - 민예·공예품","category":"other"},{"name":"시온모바일 서동탄점","tel":"031-898-5563","addr":"경기도 화성시 능동 1282번지 서동탄역파크자이1차 상가동 102호","indutype":"사무통신 - 통신기기","category":"other"},{"name":"하얀크리닝","tel":"031-234-6912","addr":"경기도 화성시 능동 1282번지 서동탄역파크자이 302동 1층 103호","indutype":"수리서비스 - 세탁소","category":"other"},{"name":"현대인테리어","tel":"","addr":"경기도 화성시 능동 1282번지 서동탄역파크자이 104동 801호","indutype":"건축자재 - 인테리어전문","category":"other"}]},{"lat":"37.215241729","long":"127.05638497","imageIndex":17,"items":[{"name":"망고","tel":"031-8003-5513","addr":"경기도 화성시 능동 1104-1번지 101호","indutype":"신변잡화 - 기타잡화","category":"other"},{"name":"메이","tel":"","addr":"경기도 화성시 능동 1104-1번지 104호","indutype":"의류 - 정장","category":"other"},{"name":"주식회사 히어로스포츠","tel":"031-613-9346","addr":"경기도 화성시 능동 1104-1번지 103호","indutype":"레져용품 - 골프용품 전문점","category":"other"}]},{"lat":"37.213770243","long":"127.06225349","imageIndex":17,"items":[{"name":"메종","tel":"031-8003-8394","addr":"경기도 화성시 능동 1073-6번지 1층","indutype":"직물 - 침구·수예점","category":"other"}]},{"lat":"37.197941132","long":"127.05783703","imageIndex":17,"items":[{"name":"명품가구갤러리","tel":"031-8003-4921","addr":"경기도 화성시 능동 995번지","indutype":"가구 - 일반가구","category":"other"}]},{"lat":"37.209521421","long":"127.05347448","imageIndex":17,"items":[{"name":"몬테소리키즈에이원  동탄지사","tel":"031-222-0973","addr":"경기도 화성시 능동 528-3번지 201호","indutype":"서적문구 - 일반서적","category":"other"}]},{"lat":"37.209915005","long":"127.05980588","imageIndex":17,"items":[{"name":"몽글몽글펫","tel":"031-8868-9709","addr":"경기도 화성시 능동 1113-2번지 아이비타워 108호","indutype":"문화.취미 - 애완동물","category":"other"}]},{"lat":"37.198493478","long":"127.05164241","imageIndex":17,"items":[{"name":"뮤지엄","tel":"031-000-0000","addr":"경기도 화성시 능동 1165-7번지 102호","indutype":"가구 - 기타가구","category":"other"}]},{"lat":"37.218051436","long":"127.05966553","imageIndex":17,"items":[{"name":"미니스톱동탄골드점","tel":"031-1577-9621","addr":"경기도 화성시 능동 1063-1번지 103,104,105호","indutype":"유통업 영리 - 편 의 점","category":"other"},{"name":"비포코리아","tel":"031-613-9490","addr":"경기도 화성시 능동 1063-1번지 에이치오엔빌딩 7층 704호","indutype":"용역 서비스 - 종합용역","category":"other"},{"name":"에스유켐텍/원격지","tel":"031-8003-6675","addr":"경기도 화성시 능동 1063-1번지 에이치오엔빌딩 413호","indutype":"기타 - 기타 전문점","category":"other"}]},{"lat":"37.197664884","long":"127.05075206","imageIndex":17,"items":[{"name":"미래시스템","tel":"031-295-2900","addr":"경기도 화성시 능동 1171-8번지 1층","indutype":"수리서비스 - 기타수리서비스","category":"other"},{"name":"클로토","tel":"","addr":"경기도 화성시 능동 1171-8번지 2동 202호","indutype":"의류 - 아동의류","category":"other"}]},{"lat":"37.215025576","long":"127.05617076","imageIndex":17,"items":[{"name":"미래중고컴퓨터","tel":"070-7722-7533","addr":"경기도 화성시 능동 1104-3번지 1층 102호","indutype":"사무통신 - 컴퓨터","category":"other"},{"name":"중앙건재상사","tel":"031-375-0136","addr":"경기도 화성시 능동 1104-3번지 103호","indutype":"건축자재 - 목재·석재·철물","category":"other"},{"name":"프롬디","tel":"031-8015-2926","addr":"경기도 화성시 능동 1104-3번지 101호","indutype":"용역 서비스 - 사무서비스","category":"other"}]},{"lat":"37.214106866","long":"127.05539276","imageIndex":17,"items":[{"name":"미와창동탄점","tel":"031-8015-1098","addr":"경기도 화성시 능동 1104-12 / 상가제1층","indutype":"직물 - 카페트,커튼,천막,지물","category":"other"}]},{"lat":"37.216998396","long":"127.05716359","imageIndex":17,"items":[{"name":"바늘스케치","tel":"031-8003-1151","addr":"경기도 화성시 능동 1095-6번지 1층","indutype":"직물 - 옷감·직물","category":"other"}]},{"lat":"37.214527367","long":"127.06174711","imageIndex":17,"items":[{"name":"바이크웍스","tel":"031-613-1849","addr":"경기도 화성시 능동 1074-7번지","indutype":"레져용품 - 스포츠·레져용품","category":"other"}]},{"lat":"37.20285445","long":"127.05178039","imageIndex":17,"items":[{"name":"배움아이","tel":"02-1111-1111","addr":"경기도 화성시 능동 589-1번지","indutype":"서적문구 - 기타서적문구","category":"other"}]},{"lat":"37.202996002","long":"127.05775058","imageIndex":17,"items":[{"name":"백마크리닝 능동점","tel":"031-8015-8669","addr":"경기도 화성시 능동 1134번지 푸른마을포스코더샵2차 상가동 103호","indutype":"수리서비스 - 세탁소","category":"other"},{"name":"씨유동탄포스코점","tel":"031-8003-0767","addr":"경기도 화성시 능동 1134번지 포스코APT내상가 101호","indutype":"유통업 영리 - 편 의 점","category":"other"}]},{"lat":"37.198826469","long":"127.05258878","imageIndex":17,"items":[{"name":"베아띠","tel":"031-613-1307","addr":"경기도 화성시 능동 1156-8번지 103호","indutype":"의류 - 기타의류","category":"other"}]},{"lat":"37.199743987","long":"127.05613749","imageIndex":17,"items":[{"name":"별텔레콤","tel":"","addr":"경기도 화성시 능동 1152-2번지 세란메디 104호","indutype":"사무통신 - 통신기기","category":"other"}]},{"lat":"37.199388316","long":"127.04425393","imageIndex":17,"items":[{"name":"병점맥가이버전자","tel":"031-225-3893","addr":"경기도 화성시 능동 677-2번지 1층","indutype":"전기제품 - 가전제품","category":"other"}]},{"lat":"37.21440949","long":"127.06322287","imageIndex":17,"items":[{"name":"비케이디자인","tel":"031-613-3682","addr":"경기도 화성시 능동 1077-1번지","indutype":"건축자재 - 인테리어전문","category":"other"}]},{"lat":"37.197610287","long":"127.05205859","imageIndex":17,"items":[{"name":"비피트렌드","tel":"031-375-9432","addr":"경기도 화성시 능동 1162-9번지 1층","indutype":"신변잡화 - 기타잡화","category":"other"},{"name":"휴디자인","tel":"031-8015-4423","addr":"경기도 화성시 능동 1162-9번지","indutype":"용역 서비스 - 종합용역","category":"other"}]},{"lat":"37.198214632","long":"127.05047081","imageIndex":17,"items":[{"name":"빈어스","tel":"031-1111-1111","addr":"경기도 화성시 능동 1168-3번지 1층","indutype":"가구 - 일반가구","category":"other"}]},{"lat":"37.214022674","long":"127.06197203","imageIndex":17,"items":[{"name":"쁘뽕","tel":"031-613-1183","addr":"경기도 화성시 능동 1073-4번지","indutype":"광학제품 - 사진관","category":"other"},{"name":"쁘뽕","tel":"031-613-1183","addr":"경기도 화성시 능동 1073-4번지","indutype":"광학제품 - 사진관","category":"other"}]},{"lat":"37.197825857","long":"127.05366942","imageIndex":17,"items":[{"name":"사랑을보다(동탄점)","tel":"031-8015-2932","addr":"경기도 화성시 능동 1159-5번지 1층 전체","indutype":"광학제품 - 사진관","category":"other"},{"name":"사랑을보다-Vanesse","tel":"031-8015-2932","addr":"경기도 화성시 능동 1159-5번지 1층 전체","indutype":"광학제품 - 사진관","category":"other"}]},{"lat":"37.209359186","long":"127.05358703","imageIndex":17,"items":[{"name":"산들미니식물원","tel":"031-222-4304","addr":"경기도 화성시 능동 508-5","indutype":"문화.취미 - 화원","category":"other"}]},{"lat":"37.203385554","long":"127.05299728","imageIndex":17,"items":[{"name":"삼성종합주방","tel":"031-8003-0057","addr":"경기도 화성시 능동 1143-3번지","indutype":"주방용구 - 주방용식기","category":"other"},{"name":"흥안세라믹상사","tel":"031-613-3815","addr":"경기도 화성시 능동 1143-3번지","indutype":"건축자재 - 건축용 요업제품","category":"other"}]},{"lat":"37.215051667","long":"127.05822122","imageIndex":17,"items":[{"name":"상록 세탁소","tel":"031-613-2330","addr":"경기도 화성시 능동 1087 동탄능동마을상록예가 상가-102","indutype":"수리서비스 - 세탁소","category":"other"},{"name":"예가공예","tel":"031-8043-9913","addr":"경기도 화성시 능동 1087번지 동탄능동마을상록예가 745동 701호","indutype":"문화.취미 - 문화취미기타","category":"other"}]},{"lat":"37.199500707","long":"127.05613732","imageIndex":17,"items":[{"name":"색연필푸른마을점","tel":"031-8015-1069","addr":"경기도 화성시 능동 1152-3번지 스타타워 108호","indutype":"서적문구 - 문구용품","category":"other"}]},{"lat":"37.213998782","long":"127.05530256","imageIndex":17,"items":[{"name":"샵플레이","tel":"","addr":"경기도 화성시 능동 1104-13번지 103호","indutype":"의류 - 정장","category":"other"},{"name":"엄마뽀뽀","tel":"070-4201-2244","addr":"경기도 화성시 능동 1104-13번지 103호","indutype":"의류 - 정장","category":"other"}]},{"lat":"37.21433205","long":"127.05556191","imageIndex":17,"items":[{"name":"선진디자인","tel":"031-224-3955","addr":"경기도 화성시 능동 1104-10번지 1층","indutype":"가구 - 일반가구","category":"other"}]},{"lat":"37.198636324","long":"127.05475128","imageIndex":17,"items":[{"name":"성일철물장식","tel":"031-613-3514","addr":"경기도 화성시 능동 799-3번지","indutype":"건축자재 - 목재·석재·철물","category":"other"}]},{"lat":"37.200330375","long":"127.05452716","imageIndex":17,"items":[{"name":"세븐일레븐동탄신일해피점","tel":"031-1577-0711","addr":"경기도 화성시 능동 1150번지 상가동 101,102호","indutype":"유통업 영리 - 편 의 점","category":"other"}]},{"lat":"37.197917311","long":"127.05041431","imageIndex":17,"items":[{"name":"세븐일레븐서동탄점","tel":"031-1577-0711","addr":"경기도 화성시 능동 1169-5번지","indutype":"유통업 영리 - 편 의 점","category":"other"},{"name":"아이지에이마트 서동탄점","tel":"031-768-0708","addr":"경기도 화성시 능동 1169-5번지 1층","indutype":"유통업 영리 - 편 의 점","category":"other"}]},{"lat":"37.20916165","long":"127.05194217","imageIndex":17,"items":[{"name":"세종엠텍","tel":"031-222-7708","addr":"경기도 화성시 능동 540-3번지","indutype":"기타 - 기계공구","category":"other"},{"name":"세종엠텍/원격지","tel":"031-222-7708","addr":"경기도 화성시 능동 540-3번지","indutype":"기타 - 기타 전문점","category":"other"}]},{"lat":"37.198716666","long":"127.05644089","imageIndex":17,"items":[{"name":"송월타월 능동점","tel":"031-8003-9494","addr":"경기도 화성시 능동 813-2번지 1층","indutype":"직물 - 옷감·직물","category":"other"}]},{"lat":"37.1995774","long":"127.044637","imageIndex":17,"items":[{"name":"수작","tel":"031-234-0004","addr":"경기도 화성시 능동 677-3번지","indutype":"사무통신 - 컴퓨터","category":"other"}]},{"lat":"37.216691695","long":"127.05791822","imageIndex":17,"items":[{"name":"슈가디자인","tel":"031-613-0314","addr":"경기도 화성시 능동 1091-19번지 102호","indutype":"건축자재 - 인테리어전문","category":"other"}]},{"lat":"37.213409224","long":"127.06344739","imageIndex":17,"items":[{"name":"스튜디오 스냅진","tel":"031-000-0000","addr":"경기도 화성시 능동 1079-1번지 101호","indutype":"광학제품 - 사진관","category":"other"}]},{"lat":"37.197861719","long":"127.0540862","imageIndex":17,"items":[{"name":"시원크린","tel":"031-1522-5635","addr":"경기도 화성시 능동 802번지 103호","indutype":"용역 서비스 - 종합용역","category":"other"},{"name":"에덴음향","tel":"031-8003-6987","addr":"경기도 화성시 능동 802번지","indutype":"전기제품 - 가전제품","category":"other"}]},{"lat":"37.204611302","long":"127.05219831","imageIndex":17,"items":[{"name":"신영스포츠","tel":"031-613-8386","addr":"경기도 화성시 능동 1139-2번지 1층","indutype":"레져용품 - 스포츠·레져용품","category":"other"}]},{"lat":"37.213413664","long":"127.05402911","imageIndex":17,"items":[{"name":"신원기공","tel":"031-232-0516","addr":"경기도 화성시 능동 158-5번지","indutype":"기타 - 기계공구","category":"other"}]},{"lat":"37.200775983","long":"127.0440632","imageIndex":17,"items":[{"name":"신원브라인드","tel":"031-235-9090","addr":"경기도 화성시 능동 704-3번지","indutype":"직물 - 카페트,커튼,천막,지물","category":"other"},{"name":"아이앤드베이비(IANDBABY)","tel":"031-234-9753","addr":"경기도 화성시 능동 704-3번지","indutype":"의류 - 아동의류","category":"other"}]},{"lat":"37.217437976","long":"127.06121984","imageIndex":17,"items":[{"name":"신형F.A","tel":"031-8015-4915","addr":"경기도 화성시 능동 1059-2번지","indutype":"기타 - 기계공구","category":"other"}]},{"lat":"37.216962667","long":"127.05647632","imageIndex":17,"items":[{"name":"씨드","tel":"031-111-1111","addr":"경기도 화성시 능동 1096-4번지 101호","indutype":"용역 서비스 - 종합용역","category":"other"}]},{"lat":"37.213607693","long":"127.06297438","imageIndex":17,"items":[{"name":"씨유화성능동원룸점","tel":"031-8003-6674","addr":"경기도 화성시 능동 1078-7번지 1층상가","indutype":"유통업 영리 - 편 의 점","category":"other"}]},{"lat":"37.215439865","long":"127.0565879","imageIndex":17,"items":[{"name":"씨유화성능동점","tel":"031-8015-1171","addr":"경기도 화성시 능동 1092-11번지 102호","indutype":"유통업 영리 - 편 의 점","category":"other"}]},{"lat":"37.212715443","long":"127.06341304","imageIndex":17,"items":[{"name":"씨유화성삼성전자후문점","tel":"031-8003-6674","addr":"경기도 화성시 능동 1080-8번지","indutype":"유통업 영리 - 편 의 점","category":"other"}]},{"lat":"37.217799865","long":"127.05814436","imageIndex":17,"items":[{"name":"씨유화성아르젠점","tel":"031-8003-7955","addr":"경기도 화성시 능동 1066-1번지 아르젠오피스텔2차103,104호","indutype":"유통업 영리 - 편 의 점","category":"other"},{"name":"씨유화성아르젠점","tel":"031-8003-7955","addr":"경기도 화성시 능동 1066-1번지 동탄아르젠오피스텔 1층 103호, 104호","indutype":"유통업 영리 - 편 의 점","category":"other"},{"name":"준플라워","tel":"031-8003-5116","addr":"경기도 화성시 능동 1066-1번지 102호","indutype":"문화.취미 - 화원","category":"other"}]},{"lat":"37.197971328","long":"127.05052698","imageIndex":17,"items":[{"name":"아기랜드","tel":"050-5999-7777","addr":"경기도 화성시 능동 1169-6번지","indutype":"의류 - 아동의류","category":"other"}]},{"lat":"37.216692331","long":"127.05653246","imageIndex":17,"items":[{"name":"아빠가꾸며주는집","tel":"031-8043-7422","addr":"경기도 화성시 능동 1096-18번지 101호","indutype":"가구 - 일반가구","category":"other"}]},{"lat":"37.199356702","long":"127.05577678","imageIndex":17,"items":[{"name":"아이리스","tel":"031-0000-0000","addr":"경기도 화성시 능동 1152-5번지 폴리클리닉 1층 109호","indutype":"의류 - 정장","category":"other"},{"name":"코리아특공무술아카데미","tel":"031-8003-8822","addr":"경기도 화성시 능동 1152-5번지 폴리크리닉센터 701호","indutype":"회원제형태 - 레져업소","category":"other"}]},{"lat":"37.214049086","long":"127.06320005","imageIndex":17,"items":[{"name":"아이린 앤 다나(Eileen＆Dana)","tel":"031-234-5521","addr":"경기도 화성시 능동 1077-4번지 101호","indutype":"의류 - 정장","category":"other"}]},{"lat":"37.214410327","long":"127.06155549","imageIndex":17,"items":[{"name":"아이원디자인","tel":"031-8003-2135","addr":"경기도 화성시 능동 1073-1번지 1층 101호","indutype":"용역 서비스 - 종합용역","category":"other"}]},{"lat":"37.197276672","long":"127.05261029","imageIndex":17,"items":[{"name":"아트팩토리걸","tel":"070-8847-8220","addr":"경기도 화성시 능동 1162-5번지 105호","indutype":"가구 - 기타가구","category":"other"}]},{"lat":"37.200385129","long":"127.05291645","imageIndex":17,"items":[{"name":"안흥상사","tel":"031-273-3215","addr":"경기도 화성시 능동 1146-2번지 1층","indutype":"기타 - 기계공구","category":"other"}]},{"lat":"37.217854622","long":"127.05663468","imageIndex":17,"items":[{"name":"에스제이피코퍼레이션(SJP Corporation)","tel":"031-8077-9858","addr":"경기도 화성시 능동 1091-5번지","indutype":"레져용품 - 스포츠·레져용품","category":"other"}]},{"lat":"37.199048523","long":"127.05971888","imageIndex":17,"items":[{"name":"에스티코동탄상설점(STCO)","tel":"031-8015-3359","addr":"경기도 화성시 능동 992-1번지 992-2,992-4,992-6","indutype":"의류 - 스포츠의류","category":"other"}]},{"lat":"37.220106178","long":"127.05886712","imageIndex":17,"items":[{"name":"에어컨테크","tel":"031-8015-3462","addr":"경기도 화성시 능동 1052-4번지 이너매스골드 1층 108호","indutype":"전기제품 - 가전제품","category":"other"},{"name":"한국에너텍","tel":"031-206-8234","addr":"경기도 화성시 능동 1052-4번지 114호","indutype":"건축자재 - 보일러·펌프·샷시","category":"other"}]},{"lat":"37.197276329","long":"127.05342126","imageIndex":17,"items":[{"name":"에이치알글로벌","tel":"070-7579-6295","addr":"경기도 화성시 능동 803-1 외1필지","indutype":"직물 - 침구·수예점","category":"other"}]},{"lat":"37.214548936","long":"127.05410874","imageIndex":17,"items":[{"name":"에이치피 화성센터","tel":"031-613-4846","addr":"경기도 화성시 능동 1103-16번지 1층 101호","indutype":"수리서비스 - 사무·통신기기수리","category":"other"}]},{"lat":"37.218105804","long":"127.05902337","imageIndex":17,"items":[{"name":"엘이디넷(LEDNET)","tel":"070-4151-9030","addr":"경기도 화성시 능동 1064-3번지 삼성시티오피스텔 812호","indutype":"건축자재 - 조명기구","category":"other"}]},{"lat":"37.209720373","long":"127.05175102","imageIndex":17,"items":[{"name":"엠투 오피스 동탄화방점","tel":"031-326-0980","addr":"경기도 화성시 능동 534-8번지 1,2층","indutype":"서적문구 - 문구용품","category":"other"}]},{"lat":"37.217629546","long":"127.05622893","imageIndex":17,"items":[{"name":"예스플랜 우주상패트로피 송월타올백화점","tel":"031-293-0088","addr":"경기도 화성시 능동 1094-7번지 102호","indutype":"직물 - 기타직물","category":"other"}]},{"lat":"37.210413065","long":"127.05436505","imageIndex":17,"items":[{"name":"오프로드","tel":"0505-330-7252","addr":"경기도 화성시 능동 484-1번지","indutype":"용역 서비스 - 종합용역","category":"other"}]},{"lat":"37.217852668","long":"127.06078077","imageIndex":17,"items":[{"name":"와이케이원","tel":"070-4063-1277","addr":"경기도 화성시 능동 1059-1번지 2층","indutype":"전기제품 - 기타전기제품","category":"other"}]},{"lat":"37.20963528","long":"127.06063931","imageIndex":17,"items":[{"name":"우노캔들 (unocandle)","tel":"031-000-0000","addr":"경기도 화성시 능동 1113-5번지 우리프라자 3동 106호","indutype":"문화.취미 - 문화취미기타","category":"other"}]},{"lat":"37.198609169","long":"127.05503285","imageIndex":17,"items":[{"name":"월드모아","tel":"031-613-8292","addr":"경기도 화성시 능동 800-2번지 2층","indutype":"기타 - 기계공구","category":"other"},{"name":"제일전기조명","tel":"031-8015-0470","addr":"경기도 화성시 능동 800-2번지","indutype":"건축자재 - 조명기구","category":"other"}]},{"lat":"37.198078244","long":"127.05344432","imageIndex":17,"items":[{"name":"유한크린텍","tel":"031-377-0547","addr":"경기도 화성시 능동 1160-3번지 101호","indutype":"신변잡화 - 기타잡화","category":"other"},{"name":"한결 쇼파천갈이","tel":"031-613-5863","addr":"경기도 화성시 능동 1160-3번지 101호","indutype":"수리서비스 - 기타수리서비스","category":"other"}]},{"lat":"37.216601748","long":"127.05758017","imageIndex":17,"items":[{"name":"이마트24 동탄능동점","tel":"","addr":"경기도 화성시 능동 1095-11번지 1층","indutype":"유통업 영리 - 편 의 점","category":"other"}]},{"lat":"37.204106513","long":"127.05269362","imageIndex":17,"items":[{"name":"잉크가이동탄점","tel":"031-613-6113","addr":"경기도 화성시 능동 1138-6번지 101호","indutype":"사무통신 - 기타 사무용품","category":"other"}]},{"lat":"37.214800403","long":"127.05597908","imageIndex":17,"items":[{"name":"자미온","tel":"031-613-8676","addr":"경기도 화성시 능동 1104-5번지 1층","indutype":"직물 - 침구·수예점","category":"other"}]},{"lat":"37.212746726","long":"127.05442296","imageIndex":17,"items":[{"name":"자인우드","tel":"031-225-8730","addr":"경기도 화성시 능동 158-14번지 제에이동","indutype":"건축자재 - 목재·석재·철물","category":"other"}]},{"lat":"37.215908353","long":"127.0567009","imageIndex":17,"items":[{"name":"제이진옴므(동탄점)","tel":"031-613-5885","addr":"경기도 화성시 능동 1097-6번지 1층","indutype":"의류 - 정장","category":"other"}]},{"lat":"37.198693791","long":"127.04628102","imageIndex":17,"items":[{"name":"제일종합건재","tel":"031-234-3652","addr":"경기도 화성시 능동 669번지","indutype":"건축자재 - 기타건축자재","category":"other"}]},{"lat":"37.199744159","long":"127.05575452","imageIndex":17,"items":[{"name":"주니버스 동탄점","tel":"031-613-6099","addr":"경기도 화성시 능동 1152-7번지 정문빌딩 303호","indutype":"서적문구 - 완구점","category":"other"},{"name":"크린토피아 동탄푸른마을점","tel":"031-613-2483","addr":"경기도 화성시 능동 1152-7번지 정문빌딩 105호","indutype":"수리서비스 - 세탁소","category":"other"}]},{"lat":"37.198439299","long":"127.05192397","imageIndex":17,"items":[{"name":"주식회사 데즐인더스트리(Dazzle Industry","tel":"031-1111-1111","addr":"경기도 화성시 능동 1165-5번지 102호","indutype":"건축자재 - 조명기구","category":"other"}]},{"lat":"37.198610534","long":"127.05183397","imageIndex":17,"items":[{"name":"주식회사 디엘산업","tel":"031-613-0721","addr":"경기도 화성시 능동 1165-3번지 1층","indutype":"용역 서비스 - 기타용역서비스","category":"other"}]},{"lat":"37.219772991","long":"127.05845","imageIndex":17,"items":[{"name":"주식회사 디자인하람 동탄점","tel":"031-613-9969","addr":"경기도 화성시 능동 1052-6번지","indutype":"가구 - 일반가구","category":"other"}]},{"lat":"37.198555602","long":"127.05389519","imageIndex":17,"items":[{"name":"주식회사 문화다움","tel":"070-4300-6335","addr":"경기도 화성시 능동 1158-1번지 102호","indutype":"용역 서비스 - 종합용역","category":"other"}]},{"lat":"37.220691096","long":"127.06044493","imageIndex":17,"items":[{"name":"주식회사 태명이앤이","tel":"031-8003-8489","addr":"경기도 화성시 능동 1051-2번지 3층 일부","indutype":"서적문구 - 과학기자재","category":"other"}]},{"lat":"37.19982674","long":"127.05230784","imageIndex":17,"items":[{"name":"지더블유디자인","tel":"070-4140-3309","addr":"경기도 화성시 능동 1149-4번지 B101호","indutype":"기타 - 기계공구","category":"other"}]},{"lat":"37.202853855","long":"127.05319969","imageIndex":17,"items":[{"name":"지아(zia)인테리어","tel":"031-8003-3169","addr":"경기도 화성시 능동 1143-7번지 1층 103호 104호","indutype":"건축자재 - 인테리어전문","category":"other"}]},{"lat":"37.198522129","long":"127.04753119","imageIndex":17,"items":[{"name":"최정희뷰티샵","tel":"031-225-6167","addr":"경기도 화성시 능동 1041 송골마을우남퍼스트빌3차아 303-1601 18/","indutype":"회원제형태 - 기타1","category":"other"}]},{"lat":"37.210050279","long":"127.05955815","imageIndex":17,"items":[{"name":"추억공장","tel":"070-4203-3657","addr":"경기도 화성시 능동 1113-1번지 제이스프라자 303호","indutype":"광학제품 - 사진관","category":"other"},{"name":"행복한사진관","tel":"031-8003-4725","addr":"경기도 화성시 능동 1113-1번지 제이스프라자 105호","indutype":"광학제품 - 사진관","category":"other"},{"name":"행복한사진관","tel":"031-8003-4725","addr":"경기도 화성시 능동 1113-1번지 제이스프라자 105호","indutype":"광학제품 - 사진관","category":"other"}]},{"lat":"37.208665598","long":"127.0530909","imageIndex":17,"items":[{"name":"코콤 화성지점","tel":"031-224-0771","addr":"경기도 화성시 능동 527-3번지 1층","indutype":"건축자재 - 조명기구","category":"other"},{"name":"하나유통","tel":"031-226-7477","addr":"경기도 화성시 능동 527-3번지","indutype":"의류 - 정장","category":"other"}]},{"lat":"37.215547928","long":"127.05672317","imageIndex":17,"items":[{"name":"크린토피아동탄상록점","tel":"031-8003-1232","addr":"경기도 화성시 능동 1092-10번지","indutype":"수리서비스 - 세탁소","category":"other"}]},{"lat":"37.216025914","long":"127.05575461","imageIndex":17,"items":[{"name":"테마스쿠버","tel":"031-242-3475","addr":"경기도 화성시 능동 1093-13번지 2층 201호","indutype":"레져용품 - 스포츠·레져용품","category":"other"}]},{"lat":"37.217241927","long":"127.05661171","imageIndex":17,"items":[{"name":"테이블소잉","tel":"031-8003-4485","addr":"경기도 화성시 능동 1095-20번지 101호","indutype":"문화.취미 - 문화취미기타","category":"other"}]},{"lat":"37.214275104","long":"127.06169058","imageIndex":17,"items":[{"name":"트랜디펫(주)","tel":"031-8003-1369","addr":"경기도 화성시 능동 1073-2번지 1층","indutype":"문화.취미 - 애완동물","category":"other"}]},{"lat":"37.211332731","long":"127.05294621","imageIndex":17,"items":[{"name":"팬스토리","tel":"070-4226-6332","addr":"경기도 화성시 능동 476-3번지 2층","indutype":"서적문구 - 완구점","category":"other"}]},{"lat":"37.216331411","long":"127.0576363","imageIndex":17,"items":[{"name":"펫아일랜드-동탄점","tel":"031-8050-3250","addr":"경기도 화성시 능동 1092-2번지 1층 101호","indutype":"문화.취미 - 애완동물","category":"other"}]},{"lat":"37.204439954","long":"127.05255866","imageIndex":17,"items":[{"name":"푸른펫살롱","tel":"031-613-2647","addr":"경기도 화성시 능동 1138-3번지 102호","indutype":"문화.취미 - 애완동물","category":"other"},{"name":"화성스포츠","tel":"031-222-3180","addr":"경기도 화성시 능동 1138-3번지 101호","indutype":"레져용품 - 스포츠·레져용품","category":"other"}]},{"lat":"37.198520564","long":"127.05150726","imageIndex":17,"items":[{"name":"프라임기획","tel":"031-8003-4300","addr":"경기도 화성시 능동 1165-8번지 1층 102호","indutype":"건축자재 - 인테리어전문","category":"other"}]},{"lat":"37.216187715","long":"127.05661096","imageIndex":17,"items":[{"name":"프라임조명","tel":"070-7672-9672","addr":"경기도 화성시 능동 1097-3번지 1층","indutype":"건축자재 - 조명기구","category":"other"}]},{"lat":"37.200412783","long":"127.05141837","imageIndex":17,"items":[{"name":"플러스원","tel":"031-222-6855","addr":"경기도 화성시 능동 635-1,C호","indutype":"건축자재 - 인테리어전문","category":"other"}]},{"lat":"37.198331644","long":"127.05077501","imageIndex":17,"items":[{"name":"플레르스튜디오","tel":"031-613-9012","addr":"경기도 화성시 능동 1168-1번지 1층","indutype":"광학제품 - 사진관","category":"other"}]},{"lat":"37.198276521","long":"127.05333182","imageIndex":17,"items":[{"name":"플레이독","tel":"031-8015-1232","addr":"경기도 화성시 능동 1160-1번지 1층 101호","indutype":"문화.취미 - 애완동물","category":"other"}]},{"lat":"37.215185396","long":"127.06119558","imageIndex":17,"items":[{"name":"하얀크리닝","tel":"031-613-5898","addr":"경기도 화성시 능동 1071-1번지","indutype":"수리서비스 - 세탁소","category":"other"}]},{"lat":"37.209385666","long":"127.05486002","imageIndex":17,"items":[{"name":"한마음문구팬시","tel":"031-613-2066","addr":"경기도 화성시 능동 1124 자연앤경남아너스빌상가103호","indutype":"서적문구 - 문구용품","category":"other"}]},{"lat":"37.200970732","long":"127.0530858","imageIndex":17,"items":[{"name":"해상건축디자인","tel":"","addr":"경기도 화성시 능동 1145-3번지","indutype":"건축자재 - 인테리어전문","category":"other"}]},{"lat":"37.216493686","long":"127.05744489","imageIndex":17,"items":[{"name":"해피 트레이닝","tel":"031-613-3339","addr":"경기도 화성시 능동 1095-12번지 1층","indutype":"의류 - 기타의류","category":"other"}]},{"lat":"37.215854126","long":"127.05706138","imageIndex":17,"items":[{"name":"허니머쉬","tel":"031-8015-8004","addr":"경기도 화성시 능동 1092-7번지 102호","indutype":"문화.취미 - 화원","category":"other"}]},{"lat":"37.215665012","long":"127.05683592","imageIndex":17,"items":[{"name":"헬로우컴","tel":"031-8015-0119","addr":"경기도 화성시 능동 1092-9번지 102호","indutype":"사무통신 - 컴퓨터","category":"other"}]},{"lat":"37.198995655","long":"127.05717323","imageIndex":17,"items":[{"name":"현대종합건철","tel":"031-8003-2741","addr":"경기도 화성시 능동 976-2번지 컨테이너내","indutype":"건축자재 - 목재·석재·철물","category":"other"}]},{"lat":"37.216881194","long":"127.05730997","imageIndex":17,"items":[{"name":"현대토탈주식회사","tel":"031-8015-3900","addr":"경기도 화성시 능동 1095-8번지 1층","indutype":"주방용구 - 주방용구","category":"other"}]},{"lat":"37.214689815","long":"127.06121773","imageIndex":17,"items":[{"name":"형제자전거","tel":"","addr":"경기도 화성시 능동 1072-3번지","indutype":"레져용품 - 스포츠·레져용품","category":"other"}]},{"lat":"37.217051799","long":"127.0585832","imageIndex":17,"items":[{"name":"화성전자담배다니엘","tel":"031-613-7648","addr":"경기도 화성시 능동 1066-5번지 동탄포레스트프라자 105호","indutype":"기타 - 기타 전문점","category":"other"}]},{"lat":"37.200550629","long":"127.04433341","imageIndex":17,"items":[{"name":"화성중고사랑","tel":"070-7737-8059","addr":"경기도 화성시 능동 693-3번지 가동 1층","indutype":"신변잡화 - 기타잡화","category":"other"}]},{"lat":"37.199159938","long":"127.05238625","imageIndex":17,"items":[{"name":"황실침구","tel":"031-613-2912","addr":"경기도 화성시 능동 1154-7번지 다건빌딩 102호","indutype":"직물 - 침구·수예점","category":"other"}]},{"lat":"37.198940742","long":"127.05899792","imageIndex":17,"items":[{"name":"흙표 흙침대 동탄대리점","tel":"031-8003-7584","addr":"경기도 화성시 능동 986번지","indutype":"가구 - 일반가구","category":"other"}]}]