[{"lat":"36.961524844","long":"127.05045789","imageIndex":0,"items":[{"name":"KR모터스","tel":"031-653-5547","addr":"경기도 평택시 팽성읍 안정리 27-4","indutype":"자동차정비 유지 - 자동차정비","category":"car"}]},{"lat":"36.958968726","long":"127.04245052","imageIndex":0,"items":[{"name":"M&M 모터스","tel":"031-692-1502","addr":"경기도 평택시 팽성읍 안정리 113-221번지","indutype":"자동차정비 유지 - 자동차정비","category":"car"}]},{"lat":"36.959807179","long":"127.04106986","imageIndex":0,"items":[{"name":"OMG MOTORS","tel":"031-655-7911","addr":"경기도 평택시 팽성읍 안정리 118번지","indutype":"자동차정비 유지 - 자동차정비","category":"car"},{"name":"오엠지모터스매매상사","tel":"031-655-7911","addr":"경기도 평택시 팽성읍 안정리 118번지","indutype":"자동차판매 - 중고자동차판매","category":"car"},{"name":"주식회사 오엠지모터스(OMG MOTORS Co.Ltd)","tel":"031-655-7911","addr":"경기도 평택시 팽성읍 안정리 118번지","indutype":"자동차정비 유지 - 자동차정비","category":"car"}]},{"lat":"36.957805761","long":"127.04414537","imageIndex":0,"items":[{"name":"리스자동차매매상사","tel":"031-691-0117","addr":"경기도 평택시 팽성읍 안정리 128-14번지","indutype":"자동차판매 - 중고자동차판매","category":"car"}]},{"lat":"36.96230048","long":"127.04865053","imageIndex":0,"items":[{"name":"에이스세차장","tel":"031-691-2992","addr":"경기도 평택시 팽성읍 안정리 34-12","indutype":"자동차정비 유지 - 세차장","category":"car"}]},{"lat":"36.962110221","long":"127.05125549","imageIndex":0,"items":[{"name":"엠제이상사","tel":"031-657-1234","addr":"경기도 평택시 팽성읍 안정리 26-27번지","indutype":"자동차정비 유지 - 자동차부품","category":"car"}]},{"lat":"36.958030356","long":"127.04604305","imageIndex":0,"items":[{"name":"워시랜드","tel":"031-655-8819","addr":"경기도 평택시 팽성읍 안정리 191-1번지 외1필지","indutype":"자동차정비 유지 - 세차장","category":"car"}]},{"lat":"36.962194615","long":"127.0423399","imageIndex":0,"items":[{"name":"카맥스 (CARMAX)","tel":"031-656-8898","addr":"경기도 평택시 팽성읍 안정리 102-14번지","indutype":"자동차판매 - 중고자동차판매","category":"car"}]},{"lat":"36.962410943","long":"127.04212667","imageIndex":0,"items":[{"name":"카맥스센터","tel":"031-656-8898","addr":"경기도 평택시 팽성읍 안정리 102-1번지","indutype":"자동차정비 유지 - 자동차정비","category":"car"}]}]