[{"lat":"37.012441376","long":"127.26612242","imageIndex":4,"items":[{"name":"(주)","tel":"031-674-0789","addr":"경기도 안성시 금산동 193번지 1층","indutype":"일반휴게음식 - 주점","category":"restaurant"}]},{"lat":"37.010721034","long":"127.2698468","imageIndex":4,"items":[{"name":"N카페","tel":"031-673-0712","addr":"경기도 안성시 금산동 134-1번지","indutype":"일반휴게음식 - 일반한식","category":"restaurant"},{"name":"한잔의 추억","tel":"031-672-6354","addr":"경기도 안성시 금산동 134-1번지 B호","indutype":"일반휴게음식 - 주점","category":"restaurant"}]},{"lat":"37.012297207","long":"127.26612193","imageIndex":4,"items":[{"name":"가장맛있는족발(한경대점)","tel":"031-672-7773","addr":"경기도 안성시 금산동 193-3번지 1층","indutype":"일반휴게음식 - 일반한식","category":"restaurant"}]},{"lat":"37.010163615","long":"127.2692943","imageIndex":4,"items":[{"name":"갈막구이","tel":"031-672-7644","addr":"경기도 안성시 금산동 153번지 1층","indutype":"일반휴게음식 - 일반한식","category":"restaurant"}]},{"lat":"37.011413483","long":"127.27045596","imageIndex":4,"items":[{"name":"국가대표 금산점","tel":"031-672-1190","addr":"경기도 안성시 금산동 46-5번지 1층","indutype":"일반휴게음식 - 일반한식","category":"restaurant"}]},{"lat":"37.011019393","long":"127.26939841","imageIndex":4,"items":[{"name":"금산아구찜","tel":"031-672-6629","addr":"경기도 안성시 금산동 129-3번지","indutype":"일반휴게음식 - 일반한식","category":"restaurant"},{"name":"오랍드리","tel":"031-675-7001","addr":"경기도 안성시 금산동 129-3번지","indutype":"일반휴게음식 - 주점","category":"restaurant"}]},{"lat":"37.010936732","long":"127.27009474","imageIndex":4,"items":[{"name":"김밥천국","tel":"031-677-8806","addr":"경기도 안성시 금산동 47-2번지","indutype":"일반휴게음식 - 일반한식","category":"restaurant"}]},{"lat":"37.013913805","long":"127.26850961","imageIndex":4,"items":[{"name":"까치네분식","tel":"031-674-3757","addr":"경기도 안성시 금산동 76-1번지","indutype":"일반휴게음식 - 일반한식","category":"restaurant"},{"name":"송남길카페","tel":"031-674-0413","addr":"경기도 안성시 금산동 76-1번지 2층","indutype":"일반휴게음식 - 서양음식","category":"restaurant"}]},{"lat":"37.01096394","long":"127.27001619","imageIndex":4,"items":[{"name":"꼬마김밥","tel":"031-672-9120","addr":"경기도 안성시 금산동 47-1번지","indutype":"일반휴게음식 - 일반한식","category":"restaurant"},{"name":"꼬마김밥","tel":"070-8187-1160","addr":"경기도 안성시 금산동 47-1번지","indutype":"일반휴게음식 - 일반한식","category":"restaurant"}]},{"lat":"37.011109297","long":"127.26948861","imageIndex":4,"items":[{"name":"꿀꿀이숯불구이","tel":"031-673-0733","addr":"경기도 안성시 금산동 129-1번지 1층","indutype":"일반휴게음식 - 일반한식","category":"restaurant"}]},{"lat":"37.011387438","long":"127.27001767","imageIndex":4,"items":[{"name":"냉면만두대박","tel":"031-676-3640","addr":"경기도 안성시 금산동 42번지 1층","indutype":"일반휴게음식 - 일반한식","category":"restaurant"}]},{"lat":"37.011324996","long":"127.26973655","imageIndex":4,"items":[{"name":"네네치킨안성1호점","tel":"031-674-4430","addr":"경기도 안성시 금산동 30-2번지","indutype":"일반휴게음식 - 스넥","category":"restaurant"}]},{"lat":"37.015637986","long":"127.26709979","imageIndex":4,"items":[{"name":"도미노피자 안성금산점","tel":"031-677-3082","addr":"경기도 안성시 금산동 186-4번지 1층 우측호","indutype":"일반휴게음식 - 서양음식","category":"restaurant"}]},{"lat":"37.011998537","long":"127.27073892","imageIndex":4,"items":[{"name":"등대","tel":"031-675-9296","addr":"경기도 안성시 금산동 2-1번지","indutype":"일반휴게음식 - 일식·회집","category":"restaurant"}]},{"lat":"37.011769638","long":"127.26834484","imageIndex":4,"items":[{"name":"등대일식","tel":"031-675-9296","addr":"경기도 안성시 금산동 126-2번지","indutype":"일반휴게음식 - 일식·회집","category":"restaurant"}]},{"lat":"37.010352459","long":"127.26946349","imageIndex":4,"items":[{"name":"마니또감자탕","tel":"031-676-1603","addr":"경기도 안성시 금산동 135-5번지","indutype":"일반휴게음식 - 일반한식","category":"restaurant"}]},{"lat":"37.01135233","long":"127.26960182","imageIndex":4,"items":[{"name":"만복식당","tel":"031-674-6741","addr":"경기도 안성시 금산동 31-2번지","indutype":"일반휴게음식 - 일반한식","category":"restaurant"}]},{"lat":"37.010633173","long":"127.2688465","imageIndex":4,"items":[{"name":"맛있는까닭","tel":"031-671-4945","addr":"경기도 안성시 금산동 146-3번지","indutype":"일반휴게음식 - 스넥","category":"restaurant"}]},{"lat":"37.010547532","long":"127.26684622","imageIndex":4,"items":[{"name":"미쳐버린파닭","tel":"031-673-6799","addr":"경기도 안성시 금산동 22-7번지 1층","indutype":"일반휴게음식 - 스넥","category":"restaurant"}]},{"lat":"37.011191149","long":"127.26915182","imageIndex":4,"items":[{"name":"민속촌","tel":"031-671-1261","addr":"경기도 안성시 금산동 141-3번지","indutype":"일반휴게음식 - 일반한식","category":"restaurant"},{"name":"아이씨지(I.C.G)치킨버거","tel":"031-677-9944","addr":"경기도 안성시 금산동 141-3번지","indutype":"일반휴게음식 - 서양음식","category":"restaurant"}]},{"lat":"37.012215239","long":"127.26651491","imageIndex":4,"items":[{"name":"박군치킨(한경대점)","tel":"070-4300-5783","addr":"경기도 안성시 금산동 194-2번지 1층","indutype":"일반휴게음식 - 스넥","category":"restaurant"}]},{"lat":"37.015880595","long":"127.26740402","imageIndex":4,"items":[{"name":"배달의쌀국수 안성금산점","tel":"031-672-1313","addr":"경기도 안성시 금산동 186-1번지","indutype":"일반휴게음식 - 일반한식","category":"restaurant"}]},{"lat":"37.011243218","long":"127.27003964","imageIndex":4,"items":[{"name":"배터지는 생 동가스","tel":"031-677-6788","addr":"경기도 안성시 금산동 32-2번지 1층","indutype":"일반휴게음식 - 서양음식","category":"restaurant"},{"name":"배터지는생동가스","tel":"031-677-6788","addr":"경기도 안성시 금산동 32-2번지","indutype":"일반휴게음식 - 일반한식","category":"restaurant"},{"name":"통닭원5900","tel":"031-676-5995","addr":"경기도 안성시 금산동 32-2번지","indutype":"일반휴게음식 - 스넥","category":"restaurant"}]},{"lat":"37.008770067","long":"127.26790746","imageIndex":4,"items":[{"name":"벌집삼겹살","tel":"031-671-8592","addr":"경기도 안성시 금산동 165-3번지","indutype":"일반휴게음식 - 일반한식","category":"restaurant"},{"name":"비로고프(Pirogoff)","tel":"02-1111-1111","addr":"경기도 안성시 금산동 165-3번지 1층","indutype":"일반휴게음식 - 서양음식","category":"restaurant"}]},{"lat":"37.011054729","long":"127.26971314","imageIndex":4,"items":[{"name":"별이 빛나는 금산동","tel":"031-672-9025","addr":"경기도 안성시 금산동 48번지 2층","indutype":"일반휴게음식 - 일반한식","category":"restaurant"},{"name":"봉구스밥버거(한경대점)","tel":"031-675-3382","addr":"경기도 안성시 금산동 48번지","indutype":"일반휴게음식 - 일반한식","category":"restaurant"},{"name":"허니닭강정","tel":"031-671-9993","addr":"경기도 안성시 금산동 48번지","indutype":"일반휴게음식 - 스넥","category":"restaurant"}]},{"lat":"37.012269801","long":"127.26629037","imageIndex":4,"items":[{"name":"별이네","tel":"031-675-8253","addr":"경기도 안성시 금산동 193-2번지 1층","indutype":"일반휴게음식 - 일반한식","category":"restaurant"}]},{"lat":"37.00891574","long":"127.26723383","imageIndex":4,"items":[{"name":"본가","tel":"031-676-7752","addr":"경기도 안성시 금산동 167-1번지","indutype":"일반휴게음식 - 일반한식","category":"restaurant"}]},{"lat":"37.015746063","long":"127.26712264","imageIndex":4,"items":[{"name":"본수원갈비","tel":"031-676-4776","addr":"경기도 안성시 금산동 186-3번지","indutype":"일반휴게음식 - 일반한식","category":"restaurant"}]},{"lat":"37.01049814","long":"127.26878985","imageIndex":4,"items":[{"name":"부산족발","tel":"031-671-5882","addr":"경기도 안성시 금산동 146-4번지","indutype":"일반휴게음식 - 일반한식","category":"restaurant"}]},{"lat":"37.011270427","long":"127.26996108","imageIndex":4,"items":[{"name":"불타는토스트안성점","tel":"031-671-1090","addr":"경기도 안성시 금산동 32-1번지","indutype":"일반휴게음식 - 스넥","category":"restaurant"}]},{"lat":"37.014194063","long":"127.26809483","imageIndex":4,"items":[{"name":"블랙데이","tel":"031-111-1111","addr":"경기도 안성시 금산동 74-2번지","indutype":"일반휴게음식 - 일반한식","category":"restaurant"},{"name":"서해","tel":"031-671-8392","addr":"경기도 안성시 금산동 74-2번지","indutype":"일반휴게음식 - 일반한식","category":"restaurant"}]},{"lat":"37.01126987","long":"127.27020827","imageIndex":4,"items":[{"name":"비비큐","tel":"031-677-9292","addr":"경기도 안성시 금산동 43번지","indutype":"일반휴게음식 - 스넥","category":"restaurant"}]},{"lat":"37.012715247","long":"127.26857285","imageIndex":4,"items":[{"name":"소년,부엌","tel":"070-8623-9239","addr":"경기도 안성시 금산동 57-5번지 1층","indutype":"일반휴게음식 - 일반한식","category":"restaurant"}]},{"lat":"37.011748569","long":"127.26970432","imageIndex":4,"items":[{"name":"소드랭이","tel":"031-675-1576","addr":"경기도 안성시 금산동 7번지 삼부 상가 201동 208호","indutype":"일반휴게음식 - 일반한식","category":"restaurant"}]},{"lat":"37.011800328","long":"127.26670449","imageIndex":4,"items":[{"name":"소문난감자탕","tel":"031-671-1960","addr":"경기도 안성시 금산동 118-1번지","indutype":"일반휴게음식 - 일반한식","category":"restaurant"},{"name":"와우소문난감자탕","tel":"031-671-1960","addr":"경기도 안성시 금산동 118-1번지 1층","indutype":"일반휴게음식 - 일반한식","category":"restaurant"}]},{"lat":"37.009138397","long":"127.2684031","imageIndex":4,"items":[{"name":"수마린레스토랑","tel":"031-671-0221","addr":"경기도 안성시 금산동 161-2번지 다올오피스텔 1층 102호","indutype":"일반휴게음식 - 서양음식","category":"restaurant"}]},{"lat":"37.010884588","long":"127.26924063","imageIndex":4,"items":[{"name":"순살로만치킨","tel":"031-675-5984","addr":"경기도 안성시 금산동 131번지","indutype":"일반휴게음식 - 서양음식","category":"restaurant"}]},{"lat":"37.011774286","long":"127.27028869","imageIndex":4,"items":[{"name":"스토리텔러","tel":"031-111-1111","addr":"경기도 안성시 금산동 45번지","indutype":"일반휴게음식 - 서양음식","category":"restaurant"}]},{"lat":"37.015276812","long":"127.26743564","imageIndex":4,"items":[{"name":"신대포차","tel":"031-677-8787","addr":"경기도 안성시 금산동 188-2번지","indutype":"일반휴게음식 - 일반한식","category":"restaurant"}]},{"lat":"37.012435667","long":"127.26868424","imageIndex":4,"items":[{"name":"안성소바","tel":"031-674-9200","addr":"경기도 안성시 금산동 107-7번지","indutype":"일반휴게음식 - 일식·회집","category":"restaurant"}]},{"lat":"37.015384813","long":"127.2674922","imageIndex":4,"items":[{"name":"약산골","tel":"031-672-8245","addr":"경기도 안성시 금산동 188-1번지","indutype":"일반휴게음식 - 일반한식","category":"restaurant"}]},{"lat":"37.012472087","long":"127.26851582","imageIndex":4,"items":[{"name":"양박사","tel":"031-677-0673","addr":"경기도 안성시 금산동 107-3번지","indutype":"일반휴게음식 - 일반한식","category":"restaurant"}]},{"lat":"37.012107237","long":"127.26645835","imageIndex":4,"items":[{"name":"언니네 순대국밥","tel":"031-675-7746","addr":"경기도 안성시 금산동 194-3번지 1층","indutype":"일반휴게음식 - 일반한식","category":"restaurant"}]},{"lat":"37.016330021","long":"127.2679","imageIndex":4,"items":[{"name":"옛날장터 순대국밥","tel":"031-677-5333","addr":"경기도 안성시 금산동 73-3번지","indutype":"일반휴게음식 - 일반한식","category":"restaurant"}]},{"lat":"37.008777722","long":"127.2685142","imageIndex":4,"items":[{"name":"오늘한잔","tel":"031-674-0789","addr":"경기도 안성시 금산동 163-2번지 1층","indutype":"일반휴게음식 - 주점","category":"restaurant"},{"name":"치킨포차","tel":"031-677-3642","addr":"경기도 안성시 금산동 163-2번지 2동 1층","indutype":"일반휴게음식 - 일반한식","category":"restaurant"}]},{"lat":"37.014526901","long":"127.26834319","imageIndex":4,"items":[{"name":"오리섬","tel":"031-674-0609","addr":"경기도 안성시 금산동 71-3번지","indutype":"일반휴게음식 - 일반한식","category":"restaurant"}]},{"lat":"37.012133769","long":"127.26668317","imageIndex":4,"items":[{"name":"와우소문난감자탕","tel":"031-671-1960","addr":"경기도 안성시 금산동 194-4번지 1층","indutype":"일반휴게음식 - 일반한식","category":"restaurant"}]},{"lat":"37.015133218","long":"127.2671767","imageIndex":4,"items":[{"name":"용두동안성쭈꾸미","tel":"031-677-5553","addr":"경기도 안성시 금산동 197-1번지","indutype":"일반휴게음식 - 일반한식","category":"restaurant"}]},{"lat":"37.011299956","long":"127.26884882","imageIndex":4,"items":[{"name":"원조닭모래집닭내장전문점","tel":"031-677-2392","addr":"경기도 안성시 금산동 141-8번지","indutype":"일반휴게음식 - 일반한식","category":"restaurant"}]},{"lat":"37.011579486","long":"127.26875991","imageIndex":4,"items":[{"name":"이락/주식회사 마을도시락","tel":"","addr":"경기도 안성시 금산동 14번지 1층 102호","indutype":"일반휴게음식 - 일반한식","category":"restaurant"}]},{"lat":"37.012994776","long":"127.26848393","imageIndex":4,"items":[{"name":"장군수산","tel":"031-672-7662","addr":"경기도 안성시 금산동 59-4번지","indutype":"일반휴게음식 - 일식·회집","category":"restaurant"},{"name":"참좋은한우","tel":"031-672-7644","addr":"경기도 안성시 금산동 59-4번지 가동 1층 3호","indutype":"일반휴게음식 - 일반한식","category":"restaurant"}]},{"lat":"37.011297711","long":"127.26984882","imageIndex":4,"items":[{"name":"족불장군 (안성점)","tel":"031-675-3838","addr":"경기도 안성시 금산동 32번지 1층","indutype":"일반휴게음식 - 일반한식","category":"restaurant"},{"name":"희래등","tel":"031-672-6656","addr":"경기도 안성시 금산동 32번지","indutype":"일반휴게음식 - 중국식","category":"restaurant"}]},{"lat":"37.014358233","long":"127.26720773","imageIndex":4,"items":[{"name":"죽마을","tel":"031-671-3688","addr":"경기도 안성시 금산동 81-2주은청설상가B동105호","indutype":"일반휴게음식 - 일반한식","category":"restaurant"},{"name":"카페125","tel":"070-8966-1983","addr":"경기도 안성시 금산동 81-2번지 주은청설 상가 B동 104호","indutype":"일반휴게음식 - 스넥","category":"restaurant"},{"name":"코바코","tel":"031-671-2332","addr":"경기도 안성시 금산동 81-2주은청설상가A-106","indutype":"일반휴게음식 - 일반한식","category":"restaurant"},{"name":"황소곱창구이전문점","tel":"031-671-5966","addr":"경기도 안성시 금산동 81-2주은청설상가A-101","indutype":"일반휴게음식 - 일반한식","category":"restaurant"}]},{"lat":"37.01588022","long":"127.26757257","imageIndex":4,"items":[{"name":"죽플러스카페","tel":"031-8052-8059","addr":"경기도 안성시 금산동 186번지 1층","indutype":"일반휴게음식 - 일반한식","category":"restaurant"}]},{"lat":"37.012075118","long":"127.26873916","imageIndex":4,"items":[{"name":"지코바(안성1호점)","tel":"031-673-7989","addr":"경기도 안성시 금산동 11-2번지","indutype":"일반휴게음식 - 스넥","category":"restaurant"}]},{"lat":"37.013968798","long":"127.26809405","imageIndex":4,"items":[{"name":"청정바지락칼국수","tel":"031-676-3788","addr":"경기도 안성시 금산동 75-3번지 1층","indutype":"일반휴게음식 - 일반한식","category":"restaurant"}]},{"lat":"37.01191609","long":"127.26732287","imageIndex":4,"items":[{"name":"커피꽃향기","tel":"031-676-5989","addr":"경기도 안성시 금산동 114-2번지 ,1,2층","indutype":"일반휴게음식 - 서양음식","category":"restaurant"}]},{"lat":"37.015853864","long":"127.26726909","imageIndex":4,"items":[{"name":"파저리삼겹살","tel":"031-672-0408","addr":"경기도 안성시 금산동 186-2번지","indutype":"일반휴게음식 - 일반한식","category":"restaurant"}]},{"lat":"37.013770314","long":"127.26820573","imageIndex":4,"items":[{"name":"패밀리파닭","tel":"031-671-2988","addr":"경기도 안성시 금산동 76-5번지","indutype":"일반휴게음식 - 스넥","category":"restaurant"}]},{"lat":"37.013301312","long":"127.26840635","imageIndex":4,"items":[{"name":"하롱베이","tel":"031-673-9602","addr":"경기도 안성시 금산동 59-3번지","indutype":"일반휴게음식 - 일반한식","category":"restaurant"}]},{"lat":"37.015331801","long":"127.26702008","imageIndex":4,"items":[{"name":"해미수산","tel":"031-677-9435","addr":"경기도 안성시 금산동 186-7번지 1층","indutype":"일반휴게음식 - 일식·회집","category":"restaurant"},{"name":"해미칼국수","tel":"031-677-9435","addr":"경기도 안성시 금산동 186-7번지 1층","indutype":"일반휴게음식 - 일반한식","category":"restaurant"}]},{"lat":"37.011163613","long":"127.26937644","imageIndex":4,"items":[{"name":"해와달","tel":"031-672-1817","addr":"경기도 안성시 금산동 129번지","indutype":"일반휴게음식 - 주점","category":"restaurant"}]},{"lat":"37.011659825","long":"127.26909727","imageIndex":4,"items":[{"name":"형님막창","tel":"031-674-1386","addr":"경기도 안성시 금산동 15-1번지","indutype":"일반휴게음식 - 일반한식","category":"restaurant"}]},{"lat":"37.010775527","long":"127.26965598","imageIndex":4,"items":[{"name":"호식이두마리치킨안성2호점","tel":"031-671-9989","addr":"경기도 안성시 금산동 129-9번지 1층","indutype":"일반휴게음식 - 스넥","category":"restaurant"}]},{"lat":"37.012024122","long":"127.27137946","imageIndex":4,"items":[{"name":"회나라","tel":"031-376-0122","addr":"경기도 안성시 금산동 205-1번지 1층","indutype":"일반휴게음식 - 일식·회집","category":"restaurant"}]}]