[{"lat":"37.680800798","long":"127.37179485","imageIndex":5,"items":[{"name":"뜨락펜션","tel":"031-511-9195","addr":"경기도 남양주시 화도읍 구암리 224-1번지 1층","indutype":"숙박업 - 여관/기타숙박업","category":"hotel"}]},{"lat":"37.663668335","long":"127.36473994","imageIndex":5,"items":[{"name":"레인보우모텔","tel":"031-592-0131","addr":"경기도 남양주시 화도읍 구암리 392-5번지","indutype":"숙박업 - 여관/기타숙박업","category":"hotel"},{"name":"레인보우호텔","tel":"031-592-0131","addr":"경기도 남양주시 화도읍 구암리 392-5번지","indutype":"숙박업 - 여관/기타숙박업","category":"hotel"}]},{"lat":"37.67305223","long":"127.37476025","imageIndex":5,"items":[{"name":"썸","tel":"031-592-2341","addr":"경기도 남양주시 화도읍 구암리 6-16번지","indutype":"숙박업 - 여관/기타숙박업","category":"hotel"},{"name":"흐르는강물처럼","tel":"031-592-2341","addr":"경기도 남양주시 화도읍 구암리 6-16,6-38","indutype":"숙박업 - 여관/기타숙박업","category":"hotel"}]},{"lat":"37.683778593","long":"127.37031317","imageIndex":5,"items":[{"name":"아인티오2펜션","tel":"031-594-7784","addr":"경기도 남양주시 화도읍 구암리 276-1 외2필지","indutype":"숙박업 - 여관/기타숙박업","category":"hotel"}]},{"lat":"37.683723582","long":"127.37061899","imageIndex":5,"items":[{"name":"아인티오펜션","tel":"031-594-7784","addr":"경기도 남양주시 화도읍 구암리 277, 263-1","indutype":"숙박업 - 여관/기타숙박업","category":"hotel"},{"name":"주식회사 아인티오펜션","tel":"031-594-7784","addr":"경기도 남양주시 화도읍 구암리 277번지","indutype":"숙박업 - 여관/기타숙박업","category":"hotel"}]},{"lat":"37.661086037","long":"127.36945332","imageIndex":5,"items":[{"name":"유니온호텔","tel":"031-592-2233","addr":"경기도 남양주시 화도읍 구암리 61-6번지","indutype":"숙박업 - 2급 호텔","category":"hotel"}]},{"lat":"37.663839094","long":"127.36193005","imageIndex":5,"items":[{"name":"휠사이드","tel":"031-591-4020","addr":"경기도 남양주시 화도읍 구암리 470번지","indutype":"숙박업 - 여관/기타숙박업","category":"hotel"}]}]