[{"lat":"37.048986398","long":"127.13878095","imageIndex":17,"items":[{"name":"(주) 삼일정공","tel":"031-664-5571","addr":"경기도 안성시 원곡면 지문리 65-8","indutype":"주방용구 - 주방용구","category":"other"}]},{"lat":"37.068704856","long":"127.15110629","imageIndex":17,"items":[{"name":"(주)나루예","tel":"032-652-2730","addr":"경기도 안성시 원곡면 지문리 307-7번지","indutype":"레져용품 - 스포츠·레져용품","category":"other"}]},{"lat":"37.055685436","long":"127.13510535","imageIndex":17,"items":[{"name":"(주)키친탑","tel":"031-653-5800","addr":"경기도 안성시 원곡면 지문리 438-1번지 외1필지","indutype":"주방용구 - 주방용구","category":"other"},{"name":"키친탑","tel":"031-655-3680","addr":"경기도 안성시 원곡면 지문리 438-1","indutype":"주방용구 - 주방용구","category":"other"}]},{"lat":"37.064235498","long":"127.1359972","imageIndex":17,"items":[{"name":"두루기계주식회사","tel":"031-656-8421","addr":"경기도 안성시 원곡면 지문리 402번지","indutype":"농업 - 농기계","category":"other"}]},{"lat":"37.061101477","long":"127.14238918","imageIndex":17,"items":[{"name":"디에스엠 주식회사","tel":"031-656-0163","addr":"경기도 안성시 원곡면 지문리 329-4번지","indutype":"기타 - 기타 전문점","category":"other"},{"name":"디에스엠 주식회사","tel":"032-815-0163","addr":"경기도 안성시 원곡면 지문리 329-4번지","indutype":"기타 - 기타 전문점","category":"other"}]},{"lat":"37.062769252","long":"127.14169513","imageIndex":17,"items":[{"name":"서안성Par3골프클럽","tel":"031-658-0759","addr":"경기도 안성시 원곡면 지문리 산 39-1 외10필지","indutype":"회원제형태 - 레져업소","category":"other"}]},{"lat":"37.0524296","long":"127.13777531","imageIndex":17,"items":[{"name":"세븐일레븐안성지문산단점","tel":"031-1577-0711","addr":"경기도 안성시 원곡면 지문리 467-1번지","indutype":"유통업 영리 - 편 의 점","category":"other"}]},{"lat":"37.062212981","long":"127.13158622","imageIndex":17,"items":[{"name":"영진냉동(주)","tel":"031-618-1270","addr":"경기도 안성시 원곡면 지문리 413-5번지 1층","indutype":"전기제품 - 냉열기기","category":"other"}]},{"lat":"37.06831743","long":"127.15108305","imageIndex":17,"items":[{"name":"우진ACT","tel":"070-4048-7903","addr":"경기도 안성시 원곡면 지문리 307-25번지","indutype":"기타 - 기타 전문점","category":"other"}]},{"lat":"37.042353323","long":"127.13183371","imageIndex":17,"items":[{"name":"원곡농기계","tel":"031-652-6254","addr":"경기도 안성시 원곡면 지문리 594-6번지","indutype":"수리서비스 - 기타수리서비스","category":"other"}]},{"lat":"37.058181619","long":"127.13488482","imageIndex":17,"items":[{"name":"원일상사","tel":"070-8825-8068","addr":"경기도 안성시 원곡면 지문리 379번지","indutype":"신변잡화 - 기타잡화","category":"other"}]},{"lat":"37.050096328","long":"127.13735524","imageIndex":17,"items":[{"name":"한솔코리아","tel":"031-657-0011","addr":"경기도 안성시 원곡면 지문리 477-5번지","indutype":"농업 - 농기계","category":"other"}]}]