[{"lat":"37.298427463","long":"127.06905324","imageIndex":7,"items":[{"name":"가두리유통","tel":"031-241-1665","addr":"경기도 용인시 수지구 상현동 1117번지 광교스타천빌딩 110호","indutype":"음료식품 - 농·축·수산품","category":"food"}]},{"lat":"37.306761029","long":"127.0848861","imageIndex":7,"items":[{"name":"가또마들렌","tel":"031-265-2785","addr":"경기도 용인시 수지구 상현동 254-3원희캐슬프라자B동1층10호","indutype":"음료식품 - 제과점","category":"food"}]},{"lat":"37.307292263","long":"127.08541683","imageIndex":7,"items":[{"name":"고미선 건강한 다이어트 스쿨","tel":"070-4242-6849","addr":"경기도 용인시 수지구 상현동 259번지 한길프라자 105호","indutype":"건강식품 - 기타건강식품","category":"food"}]},{"lat":"37.308202898","long":"127.08454926","imageIndex":7,"items":[{"name":"고향바다","tel":"","addr":"경기도 용인시 수지구 상현동 257-32번지 파크빌딩 105호","indutype":"음료식품 - 농·축·수산품","category":"food"}]},{"lat":"37.297986024","long":"127.06894007","imageIndex":7,"items":[{"name":"국가대표점핑다이어트","tel":"031-111-1111","addr":"경기도 용인시 수지구 상현동 1117-2번지 502호","indutype":"건강식품 - 기타건강식품","category":"food"},{"name":"주식회사엔에스에이치","tel":"031-8003-9214","addr":"경기도 용인시 수지구 상현동 1117-2번지 프리미어타워 5층 505호","indutype":"음료식품 - 정육점","category":"food"}]},{"lat":"37.298291827","long":"127.06991029","imageIndex":7,"items":[{"name":"꾸떼드미엘(Gouter du miel)","tel":"031-215-8253","addr":"경기도 용인시 수지구 상현동 1131번지 광교스타지 109호","indutype":"음료식품 - 제과점","category":"food"},{"name":"파리바게트 (광교상현역점)","tel":"031-213-8204","addr":"경기도 용인시 수지구 상현동 1131번지 105호,504호","indutype":"음료식품 - 제과점","category":"food"}]},{"lat":"37.297682072","long":"127.0644961","imageIndex":7,"items":[{"name":"남자의 손길","tel":"031-216-8560","addr":"경기도 용인시 수지구 상현동 1113번지 광교마을45단지 1층 104호 상가동","indutype":"음료식품 - 정육점","category":"food"},{"name":"설찬","tel":"031-214-2579","addr":"경기도 용인시 수지구 상현동 1113번지 광교마을45단지 상가동 102호","indutype":"음료식품 - 기타음료식품","category":"food"}]},{"lat":"37.307761335","long":"127.08463903","imageIndex":7,"items":[{"name":"농산물공판장","tel":"031-266-1446","addr":"경기도 용인시 수지구 상현동 257-22번지 거묵프라자 103호","indutype":"음료식품 - 농·축·수산품","category":"food"},{"name":"베스킨라빈스용인상현점","tel":"031-264-3191","addr":"경기도 용인시 수지구 상현동 257-22번지 134호 거묵푸라자","indutype":"음료식품 - 제과점","category":"food"},{"name":"웁스마마(oops mama)","tel":"","addr":"경기도 용인시 수지구 상현동 257-22번지 거묵푸라자 132호","indutype":"음료식품 - 기타음료식품","category":"food"},{"name":"이:두부야","tel":"031-265-3897","addr":"경기도 용인시 수지구 상현동 257-22번지 거묵푸라자 137호","indutype":"음료식품 - 기타음료식품","category":"food"},{"name":"종로떡방앗간","tel":"031-263-7789","addr":"경기도 용인시 수지구 상현동 257-22번지 거묵프라자 1층 102호","indutype":"음료식품 - 제과점","category":"food"},{"name":"파리바게뜨(수지만현점)","tel":"031-272-8211","addr":"경기도 용인시 수지구 상현동 257-22번지 거묵프라자 106동 107호","indutype":"음료식품 - 제과점","category":"food"},{"name":"파리바게뜨수지만현점","tel":"031-272-8211","addr":"경기도 용인시 수지구 상현동 257-22번지 거묵프라자 1층 106,107호","indutype":"음료식품 - 제과점","category":"food"}]},{"lat":"37.307726876","long":"127.08231532","imageIndex":7,"items":[{"name":"대교식품64","tel":"031-265-7413","addr":"경기도 용인시 수지구 상현동 842번지 상현마을수지센트럴아이파크 113동 1201호","indutype":"음료식품 - 기타음료식품","category":"food"}]},{"lat":"37.296238501","long":"127.06810396","imageIndex":7,"items":[{"name":"델리봉봉(Deli Bon Bon)","tel":"031-216-7004","addr":"경기도 용인시 수지구 상현동 1118번지 1층 106호","indutype":"음료식품 - 제과점","category":"food"}]},{"lat":"37.299925035","long":"127.06561453","imageIndex":7,"items":[{"name":"독바위찻집","tel":"031-262-0891","addr":"경기도 용인시 수지구 상현동 414-9번지","indutype":"음료식품 - 기타음료식품","category":"food"}]},{"lat":"37.306734287","long":"127.08446872","imageIndex":7,"items":[{"name":"두부장수","tel":"031-276-8855","addr":"경기도 용인시 수지구 상현동 254-14번지 원희캐슬프라자 108호","indutype":"음료식품 - 기타음료식품","category":"food"},{"name":"롱드메이","tel":"","addr":"경기도 용인시 수지구 상현동 254-14번지 원희캐슬프라자 121호","indutype":"음료식품 - 기타음료식품","category":"food"},{"name":"미담","tel":"031-262-9529","addr":"경기도 용인시 수지구 상현동 254-14번지 원희캐슬프라자 121호","indutype":"음료식품 - 기타음료식품","category":"food"},{"name":"아이스월드","tel":"070-4522-4988","addr":"경기도 용인시 수지구 상현동 254-14번지 원희캐슬프라자 A동 105호","indutype":"음료식품 - 기타음료식품","category":"food"},{"name":"플라츠베이커리","tel":"070-4196-1514","addr":"경기도 용인시 수지구 상현동 254-14번지 원희캐슬프라자 A층 103호","indutype":"음료식품 - 제과점","category":"food"}]},{"lat":"37.29806625","long":"127.07047402","imageIndex":7,"items":[{"name":"떡마당","tel":"031-213-3578","addr":"경기도 용인시 수지구 상현동 1132번지 SB타운 105호","indutype":"음료식품 - 제과점","category":"food"}]},{"lat":"37.304095855","long":"127.08216487","imageIndex":7,"items":[{"name":"떡이랑","tel":"031-261-6787","addr":"경기도 용인시 수지구 상현동 838,동일스위트상가208","indutype":"음료식품 - 제과점","category":"food"},{"name":"파리바게뜨수지상현점","tel":"031-263-0448","addr":"경기도 용인시 수지구 상현동 838상현마을동일스위트상가204","indutype":"음료식품 - 제과점","category":"food"}]},{"lat":"37.309262257","long":"127.07668813","imageIndex":7,"items":[{"name":"뚜레쥬르수지힐스테이트점","tel":"031-264-8811","addr":"경기도 용인시 수지구 상현동 107-4번지 성진빌딩 1층 102호","indutype":"음료식품 - 제과점","category":"food"},{"name":"파리바게트상현힐스테이트점","tel":"031-265-8280","addr":"경기도 용인시 수지구 상현동 107-4번지 성진빌딩 1층 101,102호","indutype":"음료식품 - 제과점","category":"food"}]},{"lat":"37.303257051","long":"127.08342727","imageIndex":7,"items":[{"name":"띄우지 꽃차","tel":"070-3702-9595","addr":"경기도 용인시 수지구 상현동 855번지 상현마을현대성우3차아파트","indutype":"음료식품 - 기타음료식품","category":"food"}]},{"lat":"37.298316853","long":"127.07336155","imageIndex":7,"items":[{"name":"르뺑지앵","tel":"031-8013-5603","addr":"경기도 용인시 수지구 상현동 1127-3번지 1층","indutype":"음료식품 - 제과점","category":"food"}]},{"lat":"37.30723697","long":"127.08716515","imageIndex":7,"items":[{"name":"만물상사","tel":"031-272-6318","addr":"경기도 용인시 수지구 상현동 852번지 만현마을쌍용3차아파트","indutype":"음료식품 - 기타음료식품","category":"food"}]},{"lat":"37.305014542","long":"127.08269597","imageIndex":7,"items":[{"name":"맘스마레","tel":"031-261-7077","addr":"경기도 용인시 수지구 상현동 244-2번지 외2필지 6층","indutype":"음료식품 - 제과점","category":"food"}]},{"lat":"37.307265757","long":"127.08466105","imageIndex":7,"items":[{"name":"목우촌웰빙마을","tel":"031-248-8877","addr":"경기도 용인시 수지구 상현동 255번지 Top헤어뱅크 1호","indutype":"음료식품 - 정육점","category":"food"},{"name":"별미찬방","tel":"031-266-9909","addr":"경기도 용인시 수지구 상현동 255번지 Top헤어뱅크 3호","indutype":"음료식품 - 기타음료식품","category":"food"}]},{"lat":"37.312732773","long":"127.08776916","imageIndex":7,"items":[{"name":"미소찬방","tel":"031-265-6376","addr":"경기도 용인시 수지구 상현동 12번지 토마토프라자 105호","indutype":"음료식품 - 기타음료식품","category":"food"},{"name":"파리바게트 (수지롯데점)","tel":"02-0000-0000","addr":"경기도 용인시 수지구 상현동 12번지 111,112호","indutype":"음료식품 - 제과점","category":"food"}]},{"lat":"37.30901016","long":"127.07638332","imageIndex":7,"items":[{"name":"밥만퍼#","tel":"031-891-2220","addr":"경기도 용인시 수지구 상현동 107-5번지 신성프라자 108호","indutype":"음료식품 - 기타음료식품","category":"food"}]},{"lat":"37.296625692","long":"127.06855542","imageIndex":7,"items":[{"name":"베스트팜","tel":"031-211-5312","addr":"경기도 용인시 수지구 상현동 1117-8번지 상가 D동 104호 상현동","indutype":"음료식품 - 농·축·수산품","category":"food"},{"name":"카카오농산물","tel":"031-211-1325","addr":"경기도 용인시 수지구 상현동 1117-8번지 푸르지오시티 D동 104호","indutype":"음료식품 - 농·축·수산품","category":"food"}]},{"lat":"37.297676361","long":"127.07463541","imageIndex":7,"items":[{"name":"브레드에비뉴85","tel":"031-224-1094","addr":"경기도 용인시 수지구 상현동 1130-2번지 신우프라자 106호","indutype":"음료식품 - 제과점","category":"food"}]},{"lat":"37.302125423","long":"127.07785418","imageIndex":7,"items":[{"name":"상현떡방","tel":"031-896-6767","addr":"경기도 용인시 수지구 상현동 830번지 성진프라자 104호","indutype":"음료식품 - 제과점","category":"food"},{"name":"코끼리 아이스바","tel":"031-261-0111","addr":"경기도 용인시 수지구 상현동 830번지 성진프라자 105호","indutype":"음료식품 - 기타음료식품","category":"food"}]},{"lat":"37.299351582","long":"127.0757536","imageIndex":7,"items":[{"name":"상현유통","tel":"","addr":"경기도 용인시 수지구 상현동 866번지 상현마을성원상떼빌아파트","indutype":"음료식품 - 농·축·수산품","category":"food"}]},{"lat":"37.296877935","long":"127.06863459","imageIndex":7,"items":[{"name":"서민반찬","tel":"031-000-0000","addr":"경기도 용인시 수지구 상현동 1117-7번지 103호 일부","indutype":"음료식품 - 기타음료식품","category":"food"}]},{"lat":"37.297766932","long":"127.07385729","imageIndex":7,"items":[{"name":"설아할인마트 상현점","tel":"031-211-5987","addr":"경기도 용인시 수지구 상현동 1130번지 106호","indutype":"음료식품 - 기타음료식품","category":"food"}]},{"lat":"37.306094444","long":"127.08463722","imageIndex":7,"items":[{"name":"스카이점핑다이어트","tel":"031-276-1577","addr":"경기도 용인시 수지구 상현동 252번지 SR프라자 2층 203호","indutype":"건강식품 - 기타건강식품","category":"food"},{"name":"안심축산판매점","tel":"031-265-2389","addr":"경기도 용인시 수지구 상현동 252번지 SR프라자 1층 123호","indutype":"음료식품 - 정육점","category":"food"},{"name":"우리돈축산","tel":"031-266-3562","addr":"경기도 용인시 수지구 상현동 252번지 SR프라자 111호","indutype":"음료식품 - 정육점","category":"food"},{"name":"착한시루","tel":"031-264-5577","addr":"경기도 용인시 수지구 상현동 252번지 SR프라자 1층 120호","indutype":"음료식품 - 제과점","category":"food"},{"name":"헬스토피아","tel":"070-7571-1122","addr":"경기도 용인시 수지구 상현동 252번지 SR프라자 1층 115호","indutype":"건강식품 - 기타건강식품","category":"food"}]},{"lat":"37.297118128","long":"127.07396946","imageIndex":7,"items":[{"name":"시에스알비즈","tel":"070-8286-8470","addr":"경기도 용인시 수지구 상현동 1135번지 광교마을휴먼시아41단지","indutype":"음료식품 - 기타음료식품","category":"food"}]},{"lat":"37.297959319","long":"127.06835357","imageIndex":7,"items":[{"name":"식.빵(영컴퍼니)","tel":"031-212-3542","addr":"경기도 용인시 수지구 상현동 1116-1번지 110호","indutype":"음료식품 - 제과점","category":"food"},{"name":"식빵이 맛있는집 네모 (광교상현역점)","tel":"","addr":"경기도 용인시 수지구 상현동 1116-1번지 푸르지오시티1단지 104호","indutype":"음료식품 - 제과점","category":"food"}]},{"lat":"37.304514568","long":"127.07555555","imageIndex":7,"items":[{"name":"아슬란","tel":"031-8002-5577","addr":"경기도 용인시 수지구 상현동 345-2번지","indutype":"음료식품 - 기타음료식품","category":"food"}]},{"lat":"37.308901883","long":"127.07663138","imageIndex":7,"items":[{"name":"아이스 빙고","tel":"","addr":"경기도 용인시 수지구 상현동 107-14번지 중앙프라자 104호","indutype":"음료식품 - 기타음료식품","category":"food"}]},{"lat":"37.300017008","long":"127.07788593","imageIndex":7,"items":[{"name":"안심뜰미트","tel":"031-266-2214","addr":"경기도 용인시 수지구 상현동 866번지 성원상떼빌 상가동 105호","indutype":"음료식품 - 정육점","category":"food"}]},{"lat":"37.306816738","long":"127.08247228","imageIndex":7,"items":[{"name":"오레시피 용인수지상현점","tel":"","addr":"경기도 용인시 수지구 상현동 842번지 상현마을수지센트럴아이파크 107호","indutype":"음료식품 - 기타음료식품","category":"food"}]},{"lat":"37.30942744","long":"127.08576885","imageIndex":7,"items":[{"name":"오롯이","tel":"","addr":"경기도 용인시 수지구 상현동 66-2번지 4층 402-1호","indutype":"음료식품 - 기타음료식품","category":"food"},{"name":"정읍축산","tel":"031-262-9166","addr":"경기도 용인시 수지구 상현동 66-2번지 외1필지헤르메스상가113호중일부(우측)","indutype":"음료식품 - 정육점","category":"food"},{"name":"회사가고싶은날","tel":"031-264-4314","addr":"경기도 용인시 수지구 상현동 66-2번지 헤르메스 상가 118호","indutype":"음료식품 - 농·축·수산품","category":"food"}]},{"lat":"37.308761086","long":"127.08519283","imageIndex":7,"items":[{"name":"오븐 온","tel":"031-889-5955","addr":"경기도 용인시 수지구 상현동 66-9번지 상현종합상가 1층 103호","indutype":"음료식품 - 제과점","category":"food"},{"name":"일등축산","tel":"031-266-3268","addr":"경기도 용인시 수지구 상현동 66-9번지 상현종합상가 1동 104호","indutype":"음료식품 - 정육점","category":"food"},{"name":"팔도명가","tel":"031-263-8563","addr":"경기도 용인시 수지구 상현동 66-9번지 상현종합상가 107호","indutype":"음료식품 - 제과점","category":"food"}]},{"lat":"37.309754273","long":"127.08217081","imageIndex":7,"items":[{"name":"와우팡(WOWPANG)","tel":"02-3789-2222","addr":"경기도 용인시 수지구 상현동 85-6번지","indutype":"음료식품 - 기타음료식품","category":"food"}]},{"lat":"37.31326469","long":"127.08732981","imageIndex":7,"items":[{"name":"우정유통","tel":"031-335-9583","addr":"경기도 용인시 수지구 상현동 1번지 동보2차 상가동 비05호","indutype":"음료식품 - 농·축·수산품","category":"food"}]},{"lat":"37.305449418","long":"127.07907568","imageIndex":7,"items":[{"name":"원조가평잣집","tel":"031-304-7465","addr":"경기도 용인시 수지구 상현동 827번지 금호베스트빌1단지아파트","indutype":"음료식품 - 미곡상","category":"food"}]},{"lat":"37.307094407","long":"127.08488646","imageIndex":7,"items":[{"name":"율고떡방","tel":"031-276-1233","addr":"경기도 용인시 수지구 상현동 254-1번지 만현프라자 103호","indutype":"음료식품 - 제과점","category":"food"},{"name":"하나축산","tel":"031-264-3330","addr":"경기도 용인시 수지구 상현동 254-1번지 외2필지만현프라자 106호","indutype":"음료식품 - 정육점","category":"food"}]},{"lat":"37.30287177","long":"127.08018972","imageIndex":7,"items":[{"name":"전주반찬. 먹거리","tel":"031-265-4700","addr":"경기도 용인시 수지구 상현동 832번지 상현마을금호베스트빌2단지 상가동 101호","indutype":"음료식품 - 기타음료식품","category":"food"}]},{"lat":"37.297598147","long":"127.06971795","imageIndex":7,"items":[{"name":"정관장 광교점","tel":"031-212-2303","addr":"경기도 용인시 수지구 상현동 1131-3번지 신명프라자 104호","indutype":"건강식품 - 홍삼제품","category":"food"},{"name":"정관장경기광교점","tel":"031-212-2303","addr":"경기도 용인시 수지구 상현동 1131-3번지 신명프라자 104호","indutype":"건강식품 - 홍삼제품","category":"food"}]},{"lat":"37.296985546","long":"127.06954823","imageIndex":7,"items":[{"name":"진이찬방","tel":"031-000-0000","addr":"경기도 용인시 수지구 상현동 1131-6번지 108호","indutype":"음료식품 - 기타음료식품","category":"food"}]},{"lat":"37.297373741","long":"127.06819516","imageIndex":7,"items":[{"name":"참치피크닉","tel":"031-215-3737","addr":"경기도 용인시 수지구 상현동 1116-3번지 광교2차푸르지오시티 B동 1층 102호","indutype":"음료식품 - 농·축·수산품","category":"food"}]},{"lat":"37.295708776","long":"127.07996811","imageIndex":7,"items":[{"name":"참품 정육점","tel":"031-216-2110","addr":"경기도 용인시 수지구 상현동 1161-5번지 1층 102호","indutype":"음료식품 - 정육점","category":"food"},{"name":"파리바게뜨 (광교마을점)","tel":"031-216-0482","addr":"경기도 용인시 수지구 상현동 1161-5번지 1층 일부","indutype":"음료식품 - 제과점","category":"food"}]},{"lat":"37.297814361","long":"127.06977453","imageIndex":7,"items":[{"name":"청년농부도시여행 주식회사","tel":"031-000-0000","addr":"경기도 용인시 수지구 상현동 1131-2번지 세현빌딩 745호","indutype":"음료식품 - 농·축·수산품","category":"food"}]},{"lat":"37.304517764","long":"127.0844776","imageIndex":7,"items":[{"name":"카트린의소망Cather ine'sWish","tel":"031-889-5091","addr":"경기도 용인시 수지구 상현동 851번지 상현마을현대성우아파트","indutype":"음료식품 - 기타음료식품","category":"food"}]},{"lat":"37.297789868","long":"127.08038753","imageIndex":7,"items":[{"name":"코니핑크","tel":"","addr":"경기도 용인시 수지구 상현동 1158-20번지 1층","indutype":"음료식품 - 기타음료식품","category":"food"}]},{"lat":"37.298931992","long":"127.06913264","imageIndex":7,"items":[{"name":"타르트팜카페 광교점","tel":"031-216-9629","addr":"경기도 용인시 수지구 상현동 1119-1번지 신대프라자 106호","indutype":"음료식품 - 제과점","category":"food"}]},{"lat":"37.31223487","long":"127.09097229","imageIndex":7,"items":[{"name":"파인HSC","tel":"070-4245-3202","addr":"경기도 용인시 수지구 상현동 17-1번지 상현프라자 114동 124호","indutype":"건강식품 - 기타건강식품","category":"food"}]},{"lat":"37.312774476","long":"127.09231533","imageIndex":7,"items":[{"name":"팔도상회","tel":"031-6242-0194","addr":"경기도 용인시 수지구 상현동 30번지 성원상떼빌아파트","indutype":"음료식품 - 농·축·수산품","category":"food"}]},{"lat":"37.298542075","long":"127.07341815","imageIndex":7,"items":[{"name":"홍박사정육도매","tel":"031-213-0708","addr":"경기도 용인시 수지구 상현동 1127-2번지 1층","indutype":"음료식품 - 정육점","category":"food"}]}]