[{"lat":"37.35545129","long":"127.3268884","imageIndex":13,"items":[{"name":"2차는 노래연습장","tel":"031-763-8773","addr":"경기도 광주시 곤지암읍 삼리 106-27번지 현진빌딩 2층 201호","indutype":"레저업소 - 노 래 방","category":"leisure"},{"name":"킴스당구장","tel":"031-797-9944","addr":"경기도 광주시 곤지암읍 삼리 106-27번지 현진빌딩 202호","indutype":"레저업소 - 당 구 장","category":"leisure"}]},{"lat":"37.35200956","long":"127.3235328","imageIndex":13,"items":[{"name":"ACTIVAR/(주) 에스씨지스포츠아카데미 팀업","tel":"031-763-4114","addr":"경기도 광주시 곤지암읍 삼리 430번지","indutype":"레저업소 - 기타레져업소","category":"leisure"}]},{"lat":"37.3502306","long":"127.3079954","imageIndex":13,"items":[{"name":"J.S골프크럽","tel":"031-762-0046","addr":"경기도 광주시 곤지암읍 삼리 588-4번지","indutype":"레저업소 - 골프연습장","category":"leisure"}]},{"lat":"37.35487622","long":"127.3263103","imageIndex":13,"items":[{"name":"김치빌리아드","tel":"070-7723-2207","addr":"경기도 광주시 곤지암읍 삼리 400-13번지 태영빌딩 2층","indutype":"레저업소 - 당 구 장","category":"leisure"}]},{"lat":"37.35592851","long":"127.3270033","imageIndex":13,"items":[{"name":"대한민국PC카페","tel":"02-1544-0128","addr":"경기도 광주시 곤지암읍 삼리 106-16번지 2층 크로바빌딩","indutype":"레저업소 - 기타레져업소","category":"leisure"}]},{"lat":"37.35414696","long":"127.3293885","imageIndex":13,"items":[{"name":"라이즈 짐(RISE GYM)","tel":"","addr":"경기도 광주시 곤지암읍 삼리 98-4번지 LK빌딩 2층","indutype":"레저업소 - 헬스클럽","category":"leisure"}]},{"lat":"37.35595693","long":"127.3264955","imageIndex":13,"items":[{"name":"락노래연습장","tel":"031-764-2062","addr":"경기도 광주시 곤지암읍 삼리 106-28번지 2층","indutype":"레저업소 - 노 래 방","category":"leisure"}]},{"lat":"37.35565059","long":"127.3264942","imageIndex":13,"items":[{"name":"만남노래연습장","tel":"031-761-7400","addr":"경기도 광주시 곤지암읍 삼리 106-25번지 지우빌딩 2층","indutype":"레저업소 - 노 래 방","category":"leisure"},{"name":"오케이(OK)당구클럽","tel":"031-769-7481","addr":"경기도 광주시 곤지암읍 삼리 106-25번지 지우빌딩","indutype":"레저업소 - 당 구 장","category":"leisure"}]},{"lat":"37.35587528","long":"127.3266984","imageIndex":13,"items":[{"name":"모이세노래연습장","tel":"031-764-7300","addr":"경기도 광주시 곤지암읍 삼리 106-15번지 2층 삼원빌딩","indutype":"레저업소 - 노 래 방","category":"leisure"}]},{"lat":"37.3557031","long":"127.3270588","imageIndex":13,"items":[{"name":"바운스노래연습장","tel":"031-762-6735","addr":"경기도 광주시 곤지암읍 삼리 106-19번지 2층","indutype":"레저업소 - 노 래 방","category":"leisure"}]},{"lat":"37.35279085","long":"127.334281","imageIndex":13,"items":[{"name":"본스크린","tel":"031-769-2100","addr":"경기도 광주시 곤지암읍 삼리 2-5번지 3~4층","indutype":"레저업소 - 스크린골프","category":"leisure"}]},{"lat":"37.35648247","long":"127.3254142","imageIndex":13,"items":[{"name":"삼리탁구장","tel":"031-798-4684","addr":"경기도 광주시 곤지암읍 삼리 134-10번지 3층","indutype":"레저업소 - 기타레져업소","category":"leisure"}]},{"lat":"37.35556894","long":"127.3266971","imageIndex":13,"items":[{"name":"신나고노래연습장","tel":"031-763-0300","addr":"경기도 광주시 곤지암읍 삼리 106-23번지 예선빌딩 2층","indutype":"레저업소 - 노 래 방","category":"leisure"}]},{"lat":"37.35978678","long":"127.3162515","imageIndex":13,"items":[{"name":"쌍쌍노래연습장","tel":"031-768-4529","addr":"경기도 광주시 곤지암읍 삼리 179-1번지 지층","indutype":"레저업소 - 노 래 방","category":"leisure"}]},{"lat":"37.35633997","long":"127.3248041","imageIndex":13,"items":[{"name":"애플 노래연습장","tel":"031-798-7882","addr":"경기도 광주시 곤지암읍 삼리 140-5번지 다모아빌딩 2층","indutype":"레저업소 - 노 래 방","category":"leisure"}]},{"lat":"37.3561188","long":"127.3266091","imageIndex":13,"items":[{"name":"앵콜노래연습장","tel":"031-761-6301","addr":"경기도 광주시 곤지암읍 삼리 106-13번지 2층","indutype":"레저업소 - 노 래 방","category":"leisure"}]},{"lat":"37.35586751","long":"127.3262468","imageIndex":13,"items":[{"name":"오 노래연습장","tel":"031-768-3872","addr":"경기도 광주시 곤지암읍 삼리 106-21번지 2층 보람빌딩","indutype":"레저업소 - 노 래 방","category":"leisure"}]},{"lat":"37.35578466","long":"127.3268899","imageIndex":13,"items":[{"name":"일억조 노래연습장","tel":"031-763-4982","addr":"경기도 광주시 곤지암읍 삼리 106-17번지 1층 예명빌딩","indutype":"레저업소 - 노 래 방","category":"leisure"},{"name":"지존PC cafe","tel":"070-7939-0271","addr":"경기도 광주시 곤지암읍 삼리 106-17번지 2층 예명빌딩","indutype":"레저업소 - 기타레져업소","category":"leisure"}]},{"lat":"37.35517938","long":"127.3274742","imageIndex":13,"items":[{"name":"제이제이 지와이엠 (JJ GYM)","tel":"031-763-0631","addr":"경기도 광주시 곤지암읍 삼리 105-2번지","indutype":"레저업소 - 헬스클럽","category":"leisure"}]},{"lat":"37.35656248","long":"127.3258096","imageIndex":13,"items":[{"name":"준당구클럽","tel":"070-5031-0327","addr":"경기도 광주시 곤지암읍 삼리 132-7번지","indutype":"레저업소 - 당 구 장","category":"leisure"}]},{"lat":"37.35614879","long":"127.3255257","imageIndex":13,"items":[{"name":"청춘불패노래연습장","tel":"031-882-9351","addr":"경기도 광주시 곤지암읍 삼리 139-1번지","indutype":"레저업소 - 노 래 방","category":"leisure"}]},{"lat":"37.35479031","long":"127.3247749","imageIndex":13,"items":[{"name":"큐당구장","tel":"031-769-1013","addr":"경기도 광주시 곤지암읍 삼리 405-15번지 건영빌딩 2층","indutype":"레저업소 - 당 구 장","category":"leisure"},{"name":"크리스탈노래연습장","tel":"","addr":"경기도 광주시 곤지암읍 삼리 405-15번지 건영빌딩 지층","indutype":"레저업소 - 노 래 방","category":"leisure"}]},{"lat":"37.3545125","long":"127.3242207","imageIndex":13,"items":[{"name":"필당구장","tel":"031-797-0143","addr":"경기도 광주시 곤지암읍 삼리 410-13번지","indutype":"레저업소 - 당 구 장","category":"leisure"}]},{"lat":"37.35489766","long":"127.3250576","imageIndex":13,"items":[{"name":"황금노래방","tel":"031-797-2277","addr":"경기도 광주시 곤지암읍 삼리 405-9","indutype":"레저업소 - 노 래 방","category":"leisure"}]}]