[{"lat":"37.701470266","long":"127.45661287","imageIndex":7,"items":[{"name":"교원매점","tel":"031-584-0145","addr":"경기도 가평군 설악면 회곡리 313-1번지 연구동 지하1층","indutype":"음료식품 - 기타음료식품","category":"food"}]},{"lat":"37.695420432","long":"127.46009088","imageIndex":7,"items":[{"name":"농업회사법인 보아스코리아 주식회사","tel":"02-6406-0163","addr":"경기도 가평군 설악면 회곡리 247번지","indutype":"음료식품 - 농·축·수산품","category":"food"},{"name":"이지캠핑장","tel":"031-581-3103","addr":"경기도 가평군 설악면 회곡리 247번지","indutype":"음료식품 - 기타음료식품","category":"food"},{"name":"주식회사 이지고캠핑","tel":"031-581-3103","addr":"경기도 가평군 설악면 회곡리 247번지","indutype":"음료식품 - 기타음료식품","category":"food"}]},{"lat":"37.713686991","long":"127.44239755","imageIndex":7,"items":[{"name":"돌고래수상레저","tel":"070-7728-2014","addr":"경기도 가평군 설악면 회곡리 738-3번지","indutype":"음료식품 - 기타음료식품","category":"food"}]},{"lat":"37.72085931","long":"127.42744553","imageIndex":7,"items":[{"name":"뾰루봉 편의점","tel":"031-000-0000","addr":"경기도 가평군 설악면 회곡리 744-31번지","indutype":"음료식품 - 기타음료식품","category":"food"},{"name":"신바람난찐빵","tel":"031-584-3025","addr":"경기도 가평군 설악면 회곡리 744-31번지","indutype":"음료식품 - 제과점","category":"food"}]},{"lat":"37.693417864","long":"127.46533943","imageIndex":7,"items":[{"name":"삼밭골계곡","tel":"031-584-5545","addr":"경기도 가평군 설악면 회곡리 산13-1번지 삼밭골계곡","indutype":"음료식품 - 기타음료식품","category":"food"}]},{"lat":"37.676478193","long":"127.47033522","imageIndex":7,"items":[{"name":"솔고개쉼터매점","tel":"031-584-6946","addr":"경기도 가평군 설악면 회곡리 49-2번지 솔고개쉼터","indutype":"음료식품 - 기타음료식품","category":"food"}]},{"lat":"37.722380295","long":"127.42538988","imageIndex":7,"items":[{"name":"이글스매점","tel":"031-585-3635","addr":"경기도 가평군 설악면 회곡리 산105-8번지","indutype":"음료식품 - 기타음료식품","category":"food"}]}]