[{"lat":"36.993048028","long":"127.11286726","imageIndex":5,"items":[{"name":"(주)가보호텔","tel":"031-658-7700","addr":"경기도 평택시 비전동 845-1번지","indutype":"숙박업 - 여관/기타숙박업","category":"hotel"},{"name":"가보호텔","tel":"031-658-7500","addr":"경기도 평택시 비전동 845-1번지","indutype":"숙박업 - 여관/기타숙박업","category":"hotel"},{"name":"주식회사가보개발","tel":"031-658-7700","addr":"경기도 평택시 비전동 845-1번지","indutype":"숙박업 - 여관/기타숙박업","category":"hotel"}]},{"lat":"36.993580488","long":"127.11196935","imageIndex":5,"items":[{"name":"거성","tel":"031-652-6580","addr":"경기도 평택시 비전동 834-10번지","indutype":"숙박업 - 여관/기타숙박업","category":"hotel"},{"name":"거성","tel":"031-652-6580","addr":"경기도 평택시 비전동 834-10번지","indutype":"숙박업 - 여관/기타숙박업","category":"hotel"}]},{"lat":"36.993408944","long":"127.11233981","imageIndex":5,"items":[{"name":"모텔마지아","tel":"031-658-6642","addr":"경기도 평택시 비전동 843번지 1층","indutype":"숙박업 - 여관/기타숙박업","category":"hotel"}]},{"lat":"36.995274828","long":"127.1116123","imageIndex":5,"items":[{"name":"월호텔","tel":"031-618-7911","addr":"경기도 평택시 비전동 832-1번지","indutype":"숙박업 - 여관/기타숙박업","category":"hotel"}]},{"lat":"36.995274343","long":"127.11214028","imageIndex":5,"items":[{"name":"이화모텔","tel":"031-653-0567","addr":"경기도 평택시 비전동 831-2번지","indutype":"숙박업 - 여관/기타숙박업","category":"hotel"}]},{"lat":"36.995220455","long":"127.11194923","imageIndex":5,"items":[{"name":"퀸스호텔","tel":"031-654-5994","addr":"경기도 평택시 비전동 831-3번지","indutype":"숙박업 - 여관/기타숙박업","category":"hotel"}]},{"lat":"36.993498771","long":"127.11264324","imageIndex":5,"items":[{"name":"피카소","tel":"031-692-1717","addr":"경기도 평택시 비전동 843-5번지","indutype":"숙박업 - 여관/기타숙박업","category":"hotel"}]},{"lat":"36.993715162","long":"127.11249752","imageIndex":5,"items":[{"name":"호텔베네","tel":"031-618-5312","addr":"경기도 평택시 비전동 842-4번지","indutype":"숙박업 - 여관/기타숙박업","category":"hotel"}]}]