[{"lat":"37.51992539","long":"126.79821754","imageIndex":13,"items":[{"name":"SBS노래연습장","tel":"032-675-8333","addr":"경기도 부천시 여월동 3-40번지 지하","indutype":"레저업소 - 노 래 방","category":"leisure"}]},{"lat":"37.520032192","long":"126.79745936","imageIndex":13,"items":[{"name":"고래고래노래연습장","tel":"032-683-5387","addr":"경기도 부천시 여월동 3-22번지 지하1층","indutype":"레저업소 - 노 래 방","category":"leisure"}]},{"lat":"37.52111948","long":"126.79579352","imageIndex":13,"items":[{"name":"길 당구클럽","tel":"031-111-1111","addr":"경기도 부천시 여월동 4번지 나성빌딩 지층 B1호","indutype":"레저업소 - 당 구 장","category":"leisure"},{"name":"썬노래연습장","tel":"","addr":"경기도 부천시 여월동 4번지 나성빌딩 2층","indutype":"레저업소 - 노 래 방","category":"leisure"}]},{"lat":"37.519701806","long":"126.79917965","imageIndex":13,"items":[{"name":"등룡체육관","tel":"032-674-6609","addr":"경기도 부천시 여월동 7-4번지","indutype":"레저업소 - 헬스클럽","category":"leisure"}]},{"lat":"37.519893645","long":"126.79551411","imageIndex":13,"items":[{"name":"따봉당구장","tel":"032-682-0750","addr":"경기도 부천시 여월동 52-13번지 지하","indutype":"레저업소 - 당 구 장","category":"leisure"}]},{"lat":"37.519893168","long":"126.79524263","imageIndex":13,"items":[{"name":"떴다노래방","tel":"032-677-8916","addr":"경기도 부천시 여월동 52번지","indutype":"레저업소 - 노 래 방","category":"leisure"}]},{"lat":"37.519731726","long":"126.79566161","imageIndex":13,"items":[{"name":"메아리노래방","tel":"032-684-9195","addr":"경기도 부천시 여월동 52-11번지","indutype":"레저업소 - 노 래 방","category":"leisure"}]},{"lat":"37.519122395","long":"126.79757497","imageIndex":13,"items":[{"name":"무지개노래연습장","tel":"","addr":"경기도 부천시 여월동 5-20번지 지하","indutype":"레저업소 - 노 래 방","category":"leisure"}]},{"lat":"37.519952125","long":"126.79804779","imageIndex":13,"items":[{"name":"별노래연습장","tel":"032-677-7885","addr":"경기도 부천시 여월동 3-39번지 지하층","indutype":"레저업소 - 노 래 방","category":"leisure"}]},{"lat":"37.516312294","long":"126.80340796","imageIndex":13,"items":[{"name":"세븐노래연습장","tel":"032-671-1390","addr":"경기도 부천시 여월동 10-37번지","indutype":"레저업소 - 노 래 방","category":"leisure"}]},{"lat":"37.519700673","long":"126.79852357","imageIndex":13,"items":[{"name":"세종노래연습장","tel":"032-681-0776","addr":"경기도 부천시 여월동 6-28번지 지층","indutype":"레저업소 - 노 래 방","category":"leisure"}]},{"lat":"37.520254971","long":"126.79604477","imageIndex":13,"items":[{"name":"신물보라노래연습장","tel":"032-681-8442","addr":"경기도 부천시 여월동 4-38번지","indutype":"레저업소 - 노 래 방","category":"leisure"}]},{"lat":"37.511676997","long":"126.80627055","imageIndex":13,"items":[{"name":"에스지제이티 스크린골프","tel":"070-7757-0753","addr":"경기도 부천시 여월동 334번지 여월프라자 5층 501호","indutype":"레저업소 - 스크린골프","category":"leisure"}]},{"lat":"37.519677265","long":"126.80062762","imageIndex":13,"items":[{"name":"여월노래연습장","tel":"032-681-1087","addr":"경기도 부천시 여월동 7-53번지 지층","indutype":"레저업소 - 노 래 방","category":"leisure"}]},{"lat":"37.520507147","long":"126.79598751","imageIndex":13,"items":[{"name":"제노피씨방(제노PC방)","tel":"070-3133-5745","addr":"경기도 부천시 여월동 4-32번지 대향빌딩 201호","indutype":"레저업소 - 기타레져업소","category":"leisure"}]},{"lat":"37.519976437","long":"126.7964867","imageIndex":13,"items":[{"name":"주주노래연습장","tel":"032-677-1626","addr":"경기도 부천시 여월동 6화창빌딩지하1층","indutype":"레저업소 - 노 래 방","category":"leisure"}]},{"lat":"37.515456301","long":"126.8033763","imageIndex":13,"items":[{"name":"지제이에스 스크린골프","tel":"032-682-4849","addr":"경기도 부천시 여월동 48-7번지 GJS빌딩 3층","indutype":"레저업소 - 스크린골프","category":"leisure"}]},{"lat":"37.520005694","long":"126.79776485","imageIndex":13,"items":[{"name":"칸 노래연습장","tel":"","addr":"경기도 부천시 여월동 3-30번지 주영빌딩 2층 202호","indutype":"레저업소 - 노 래 방","category":"leisure"}]},{"lat":"37.519899456","long":"126.79885107","imageIndex":13,"items":[{"name":"크로바노래연습장","tel":"032-684-3729","addr":"경기도 부천시 여월동 2-21번지 2층","indutype":"레저업소 - 노 래 방","category":"leisure"}]},{"lat":"37.518312235","long":"126.79799571","imageIndex":13,"items":[{"name":"트라이스톤주짓수","tel":"","addr":"경기도 부천시 여월동 47-16번지 가람채상가 3층","indutype":"레저업소 - 헬스클럽","category":"leisure"}]},{"lat":"37.519283982","long":"126.79723517","imageIndex":13,"items":[{"name":"행운당구장","tel":"070-4896-1482","addr":"경기도 부천시 여월동 5-2번지 지층","indutype":"레저업소 - 당 구 장","category":"leisure"}]},{"lat":"37.521588051","long":"126.79582616","imageIndex":13,"items":[{"name":"허슬핏","tel":"032-677-5151","addr":"경기도 부천시 여월동 1번지 3층","indutype":"레저업소 - 헬스클럽","category":"leisure"}]}]