[{"lat":"37.650274905","long":"127.2431672","imageIndex":17,"items":[{"name":"(주)디자인팩토리","tel":"031-595-5458","addr":"경기도 남양주시 평내동 140번지 리치플러스 412호","indutype":"건축자재 - 인테리어전문","category":"other"},{"name":"(주)뭉크","tel":"031-592-8616","addr":"경기도 남양주시 평내동 140번지 리치플러스 5층 504-6호","indutype":"건축자재 - 기타건축자재","category":"other"},{"name":"(주)인큐넥스","tel":"031-592-2508","addr":"경기도 남양주시 평내동 140번지 리치플러스 4층 408호","indutype":"사무통신 - 컴퓨터","category":"other"},{"name":"63휘트니스 골프클럽","tel":"031-559-7100","addr":"경기도 남양주시 평내동 140번지 평내리치플러스빌딩 B101호","indutype":"레져용품 - 스포츠·레져용품","category":"other"},{"name":"금산네트웍","tel":"031-591-6546","addr":"경기도 남양주시 평내동 140번지 리치플러스 상가 214호","indutype":"수리서비스 - 사무·통신기기수리","category":"other"},{"name":"세븐1961호(평내리치점)","tel":"02-2127-5850","addr":"경기도 남양주시 평내동 140번지 평내리치플러스 107호","indutype":"유통업 영리 - 편 의 점","category":"other"},{"name":"세븐일레븐평내리치플러스점","tel":"","addr":"경기도 남양주시 평내동 140번지 리치플러스 108호","indutype":"유통업 영리 - 편 의 점","category":"other"},{"name":"스타일인더룸","tel":"","addr":"경기도 남양주시 평내동 140번지 리치플러스 1층 124호","indutype":"의류 - 정장","category":"other"},{"name":"씨드에듀(Seed Edu)","tel":"070-4416-9928","addr":"경기도 남양주시 평내동 140번지 리치플러스 212호","indutype":"회원제형태 - 서적","category":"other"},{"name":"씨유평내효성점","tel":"02-1577-8007","addr":"경기도 남양주시 평내동 140번지 리치플러스 1층 117호","indutype":"유통업 영리 - 편 의 점","category":"other"},{"name":"일하는사람들","tel":"031-593-6422","addr":"경기도 남양주시 평내동 140번지 리치플러스 118호","indutype":"수리서비스 - 사무·통신기기수리","category":"other"},{"name":"주식회사블루나일네트웍스","tel":"031-593-7804","addr":"경기도 남양주시 평내동 140번지 리치플러스 412호","indutype":"사무통신 - 컴퓨터","category":"other"},{"name":"코알라공작소","tel":"","addr":"경기도 남양주시 평내동 140번지 리치플러스 1층 124호","indutype":"문화.취미 - 문화취미기타","category":"other"},{"name":"페리스","tel":"031-510-7570","addr":"경기도 남양주시 평내동 140번지 리치플러스 503-2호","indutype":"문화.취미 - 문화취미기타","category":"other"},{"name":"한결빌트인어플라이언스","tel":"070-8959-6508","addr":"경기도 남양주시 평내동 140번지 리치플러스 213호","indutype":"수리서비스 - 가정용품수리","category":"other"},{"name":"한국공예디자이너협동조합","tel":"031-510-7570","addr":"경기도 남양주시 평내동 140번지 리치플러스 503-2호","indutype":"신변잡화 - 가방","category":"other"},{"name":"함께하는 요양원","tel":"031-559-9495","addr":"경기도 남양주시 평내동 140번지 리치플러스 301호","indutype":"기타의료기관 - 기타의료기관 및 기타","category":"other"},{"name":"현진라이프","tel":"070-8836-4769","addr":"경기도 남양주시 평내동 140번지 리치플러스 304호","indutype":"전기제품 - 가전제품","category":"other"}]},{"lat":"37.646029015","long":"127.23533522","imageIndex":17,"items":[{"name":"(주)디펠리","tel":"031-511-1375","addr":"경기도 남양주시 평내동 579-2번지 강남프라자 306호","indutype":"유통업 영리 - 기타유통업","category":"other"},{"name":"JS어패럴","tel":"031-511-9375","addr":"경기도 남양주시 평내동 579-2번지 오렌지웰빙타워 1층 101호","indutype":"의류 - 내의판매","category":"other"},{"name":"분홍무지개 남양주평내점","tel":"031-595-8200","addr":"경기도 남양주시 평내동 579-2번지 오렌지웰빙타워 1층 122호","indutype":"신변잡화 - 기타잡화","category":"other"},{"name":"언니날다","tel":"031-591-4969","addr":"경기도 남양주시 평내동 579-2번지 오렌지웰빙타워 107호","indutype":"의류 - 정장","category":"other"},{"name":"조은산후조리원","tel":"031-511-1187","addr":"경기도 남양주시 평내동 579-2번지 오렌지웰빙타워 403호 ~ 408호","indutype":"기타의료기관 - 산후조리원","category":"other"}]},{"lat":"37.645279739","long":"127.22677816","imageIndex":17,"items":[{"name":"(주)보해물류","tel":"031-595-3693","addr":"경기도 남양주시 평내동 388-2번지","indutype":"용역 서비스 - 종합용역","category":"other"}]},{"lat":"37.645886821","long":"127.23433766","imageIndex":17,"items":[{"name":"(주)세미백아이엔씨","tel":"031-478-0740","addr":"경기도 남양주시 평내동 578-1번지 다모아프라자 704호","indutype":"용역 서비스 - 소프트웨어","category":"other"},{"name":"(주)탑스보안","tel":"031-559-8259","addr":"경기도 남양주시 평내동 578-1번지 다모아프라자 802호","indutype":"용역 서비스 - 종합용역","category":"other"},{"name":"건축사사무소오가","tel":"031-595-5882","addr":"경기도 남양주시 평내동 578-1번지 다모아프라자 210호","indutype":"용역 서비스 - 사무서비스","category":"other"},{"name":"디자인봄","tel":"070-8654-1263","addr":"경기도 남양주시 평내동 578-1번지 다모아프라자 308호","indutype":"광학제품 - 사진관","category":"other"},{"name":"르하임스터디카페 남양주평내점","tel":"031-000-0000","addr":"경기도 남양주시 평내동 578-1번지 다모아프라자 303호","indutype":"용역 서비스 - 사무서비스","category":"other"},{"name":"세븐일레븐평내지원점","tel":"","addr":"경기도 남양주시 평내동 578-1번지 다모아프라자 106호","indutype":"유통업 영리 - 편 의 점","category":"other"},{"name":"소노수(SONOSU)","tel":"031-8866-2636","addr":"경기도 남양주시 평내동 578-1번지 다모아프라자 409호","indutype":"광학제품 - 사진관","category":"other"},{"name":"열방네트웍스","tel":"070-7719-7951","addr":"경기도 남양주시 평내동 578-1번지 다모아프라자 804호","indutype":"사무통신 - 사무용 OA기기","category":"other"},{"name":"차크라요가","tel":"031-593-7988","addr":"경기도 남양주시 평내동 578-1번지 다모아프라자 408호","indutype":"회원제형태 - 레져업소","category":"other"}]},{"lat":"37.6466158","long":"127.23474784","imageIndex":17,"items":[{"name":"(주)에이제이오토카","tel":"031-564-5500","addr":"경기도 남양주시 평내동 579번지 하나프라자 403호","indutype":"여행 - 렌터카","category":"other"},{"name":"경신전기","tel":"031-592-4332","addr":"경기도 남양주시 평내동 579번지 하나프라자 113,114호","indutype":"전기제품 - 기타전기제품","category":"other"},{"name":"블루먼데이","tel":"","addr":"경기도 남양주시 평내동 579번지 하나프라자 1층 105호","indutype":"신변잡화 - 액세서리","category":"other"},{"name":"이현어패럴","tel":"031-595-6396","addr":"경기도 남양주시 평내동 579번지 지상동 1층 118호","indutype":"의류 - 정장","category":"other"},{"name":"정도 엘이디(LED)","tel":"031-591-2700","addr":"경기도 남양주시 평내동 579번지 하나프라자 117,118호","indutype":"건축자재 - 조명기구","category":"other"},{"name":"주소현세무회계사무소","tel":"031-591-2783","addr":"경기도 남양주시 평내동 579 하나플라자 405호","indutype":"용역 서비스 - 법률회계서비스(개인)","category":"other"},{"name":"주식회사 그린포레","tel":"031-877-1851","addr":"경기도 남양주시 평내동 579번지 하나프라자 605호","indutype":"용역 서비스 - 사무서비스","category":"other"},{"name":"퀸","tel":"070-2699-0807","addr":"경기도 남양주시 평내동 579번지 하나프라자 1층 110호","indutype":"의류 - 내의판매","category":"other"},{"name":"평안요양원","tel":"031-511-3900","addr":"경기도 남양주시 평내동 579번지 하나프라자 9층 901호","indutype":"기타의료기관 - 기타의료기관 및 기타","category":"other"}]},{"lat":"37.643084596","long":"127.22980813","imageIndex":17,"items":[{"name":"202호 공작소","tel":"031-246-7230","addr":"경기도 남양주시 평내동 556-3번지 102호","indutype":"문화.취미 - 민예·공예품","category":"other"},{"name":"생물나라","tel":"031-591-1265","addr":"경기도 남양주시 평내동 556-3번지 지층 B02호","indutype":"문화.취미 - 수족관","category":"other"}]},{"lat":"37.651003821","long":"127.23913549","imageIndex":17,"items":[{"name":"24시편의점","tel":"031-591-0449","addr":"경기도 남양주시 평내동 121-10번지","indutype":"유통업 영리 - 편 의 점","category":"other"},{"name":"경기서비스센타","tel":"031-594-0834","addr":"경기도 남양주시 평내동 121-10번지 유성빌딩 1층","indutype":"수리서비스 - 기타수리서비스","category":"other"},{"name":"리홈/쿠첸 남양주서비스","tel":"031-511-0824","addr":"경기도 남양주시 평내동 121-10번지","indutype":"수리서비스 - 가정용품수리","category":"other"},{"name":"주식회사 젯","tel":"031-595-9566","addr":"경기도 남양주시 평내동 121-10번지","indutype":"용역 서비스 - 사무서비스","category":"other"}]},{"lat":"37.643394076","long":"127.23741182","imageIndex":17,"items":[{"name":"D스튜디오","tel":"070-8956-7270","addr":"경기도 남양주시 평내동 603번지 평내동씨티프라자 204호","indutype":"광학제품 - 사진관","category":"other"},{"name":"베니샵","tel":"031-591-2702","addr":"경기도 남양주시 평내동 603번지 씨티프라자 108호","indutype":"의류 - 기타의류","category":"other"},{"name":"진구스짐","tel":"070-4045-9299","addr":"경기도 남양주시 평내동 603번지 평내동씨티프라자 402호","indutype":"회원제형태 - 레져업소","category":"other"},{"name":"케이라인 교육산업","tel":"070-4413-7799","addr":"경기도 남양주시 평내동 603번지 씨티프라자 4층 401호","indutype":"서적문구 - 기타서적문구","category":"other"},{"name":"필토탈인테리어","tel":"031-511-7714","addr":"경기도 남양주시 평내동 603번지 시티프라자 103호","indutype":"건축자재 - 인테리어전문","category":"other"}]},{"lat":"37.644270808","long":"127.24051916","imageIndex":17,"items":[{"name":"FH 천수누리","tel":"031-591-7970","addr":"경기도 남양주시 평내동 601번지 평내마을신명스카이뷰 1802동 1404호","indutype":"유통업 영리 - 기타유통업","category":"other"}]},{"lat":"37.649443816","long":"127.2397991","imageIndex":17,"items":[{"name":"GS25남양주대명점","tel":"02-2006-2485","addr":"경기도 남양주시 평내동 107-1 대평@2동1층4호","indutype":"유통업 영리 - 편 의 점","category":"other"}]},{"lat":"37.646976382","long":"127.23919072","imageIndex":17,"items":[{"name":"GS25평내데시앙점","tel":"02-2006-2118","addr":"경기도 남양주시 평내동 592 상록데시앙상가 105","indutype":"유통업 영리 - 편 의 점","category":"other"},{"name":"상록세탁소","tel":"031-511-9022","addr":"경기도 남양주시 평내동 592 평내마을상록데시앙103","indutype":"수리서비스 - 세탁소","category":"other"}]},{"lat":"37.643196898","long":"127.23689","imageIndex":17,"items":[{"name":"GS25평내드림점","tel":"","addr":"경기도 남양주시 평내동 604번지 104, 105호","indutype":"유통업 영리 - 편 의 점","category":"other"},{"name":"크린토피아마젤란점","tel":"031-511-0515","addr":"경기도 남양주시 평내동 604번지 드림코아 106호","indutype":"수리서비스 - 세탁소","category":"other"},{"name":"평내화원","tel":"031-591-5425","addr":"경기도 남양주시 평내동 604번지 드림코아 103호","indutype":"문화.취미 - 화원","category":"other"},{"name":"플로우요가원","tel":"031-559-6561","addr":"경기도 남양주시 평내동 604번지 드림코아 204호","indutype":"회원제형태 - 레져업소","category":"other"}]},{"lat":"37.643416249","long":"127.23069291","imageIndex":17,"items":[{"name":"GS25평내중앙점","tel":"","addr":"경기도 남양주시 평내동 559번지","indutype":"유통업 영리 - 편 의 점","category":"other"}]},{"lat":"37.645776254","long":"127.23558371","imageIndex":17,"items":[{"name":"GS25평내타운점","tel":"","addr":"경기도 남양주시 평내동 579-3번지 M2PLAZA 107호","indutype":"유통업 영리 - 편 의 점","category":"other"},{"name":"남양주평내 작심스페이스","tel":"031-000-0000","addr":"경기도 남양주시 평내동 579-3번지 평내엠투프라자 7층 711호","indutype":"용역 서비스 - 사무서비스","category":"other"},{"name":"명품수선","tel":"031-554-7775","addr":"경기도 남양주시 평내동 579-3번지 평내엠투프라자 1층 111호","indutype":"수리서비스 - 세탁소","category":"other"},{"name":"미니룸86","tel":"031-111-1111","addr":"경기도 남양주시 평내동 579-3번지 평내엠투프라자 116-2호","indutype":"의류 - 정장","category":"other"},{"name":"엠투프라자 관리단","tel":"031-591-2949","addr":"경기도 남양주시 평내동 579-3번지 평내엠투프라자 관리사무소","indutype":"용역 서비스 - 종합용역","category":"other"},{"name":"열쇠박사","tel":"031-594-1313","addr":"경기도 남양주시 평내동 579-3M2프라자1층111호중2호","indutype":"기타 - 기타 전문점","category":"other"},{"name":"와이비테크","tel":"031-559-6003","addr":"경기도 남양주시 평내동 579-3번지 엠푸프라자 관리사무소","indutype":"용역 서비스 - 종합용역","category":"other"},{"name":"커피랑도서관 평내1호점","tel":"","addr":"경기도 남양주시 평내동 579-3번지 평내엠투프라자 2층 209,210,211호","indutype":"용역 서비스 - 사무서비스","category":"other"},{"name":"크린청정","tel":"","addr":"경기도 남양주시 평내동 579-3번지 평내엠투프라자 9층 914호 903-14호","indutype":"주방용구 - 주방용구","category":"other"},{"name":"평안종합관리 주식회사","tel":"","addr":"경기도 남양주시 평내동 579-3번지 평내엠투프라자 904호","indutype":"용역 서비스 - 종합용역","category":"other"},{"name":"희망서적","tel":"031-594-1694","addr":"경기도 남양주시 평내동 579-3번지 평내엠투프라자 203호","indutype":"서적문구 - 일반서적","category":"other"}]},{"lat":"37.64044848","long":"127.22786267","imageIndex":17,"items":[{"name":"HR조명전기","tel":"031-555-5987","addr":"경기도 남양주시 평내동 370-7번지","indutype":"건축자재 - 조명기구","category":"other"}]},{"lat":"37.643308287","long":"127.23061327","imageIndex":17,"items":[{"name":"L K 냉동","tel":"","addr":"경기도 남양주시 평내동 559-5번지 103호","indutype":"용역 서비스 - 기타용역서비스","category":"other"}]},{"lat":"37.647391294","long":"127.24341853","imageIndex":17,"items":[{"name":"Lovely Pet(러블리펫)","tel":"031-559-9608","addr":"경기도 남양주시 평내동 597-2번지 늘봄프라자 1층 101호","indutype":"문화.취미 - 애완동물","category":"other"},{"name":"준인테리어","tel":"031-592-9727","addr":"경기도 남양주시 평내동 597-2번지 늘봄프라자109호~110호 109호","indutype":"건축자재 - 인테리어전문","category":"other"}]},{"lat":"37.648588106","long":"127.2396944","imageIndex":17,"items":[{"name":"YB일렉트로닉","tel":"02-2173-8145","addr":"경기도 남양주시 평내동 105번지 양지아파트 상가동 1층 103호","indutype":"수리서비스 - 가정용품수리","category":"other"}]},{"lat":"37.643354715","long":"127.23907728","imageIndex":17,"items":[{"name":"kind버스코리아","tel":"000-1600-4634","addr":"경기도 남양주시 평내동 602번지 평내마을평내2차대주파크빌 1905동 801호","indutype":"여행 - 관광여행","category":"other"}]},{"lat":"37.651691235","long":"127.24227656","imageIndex":17,"items":[{"name":"moons 디자인","tel":"031-595-1008","addr":"경기도 남양주시 평내동 130-10번지 평내유리샷시 101호","indutype":"가구 - 기타가구","category":"other"},{"name":"평내유리.샷시공업사","tel":"031-593-2252","addr":"경기도 남양주시 평내동 130-10번지 평내유리샷시 101호","indutype":"건축자재 - 유리","category":"other"}]},{"lat":"37.649810462","long":"127.23666146","imageIndex":17,"items":[{"name":"가남빌딩","tel":"02-466-7503","addr":"경기도 남양주시 평내동 204-1","indutype":"의류 - 기타의류","category":"other"}]},{"lat":"37.64514399","long":"127.23638622","imageIndex":17,"items":[{"name":"가현수제화","tel":"031-595-3379","addr":"경기도 남양주시 평내동 580-1번지 CH리베로2 114호","indutype":"신변잡화 - 제화","category":"other"},{"name":"건형정보통신","tel":"070-4231-7010","addr":"경기도 남양주시 평내동 580-1번지 CH리베로2 1층 107호","indutype":"사무통신 - 통신기기","category":"other"},{"name":"블로썸","tel":"","addr":"경기도 남양주시 평내동 580-1번지 CH리베로2 118호","indutype":"의류 - 정장","category":"other"},{"name":"평내 전자담배","tel":"031-1111-1111","addr":"경기도 남양주시 평내동 580-1번지 CH리베로2 104호","indutype":"기타 - 기타 전문점","category":"other"},{"name":"호평열쇠도장","tel":"031-513-3579","addr":"경기도 남양주시 평내동 580-1번지 CH리베로2 1층 118호","indutype":"건축자재 - 목재·석재·철물","category":"other"},{"name":"휴대폰마트","tel":"031-111-1111","addr":"경기도 남양주시 평내동 580-1번지 CH리베로2 1층 112호","indutype":"사무통신 - 통신기기","category":"other"}]},{"lat":"37.647613189","long":"127.23611068","imageIndex":17,"items":[{"name":"개벤져스","tel":"031-594-9669","addr":"경기도 남양주시 평내동 583-6번지","indutype":"문화.취미 - 애완동물","category":"other"},{"name":"우드앤디자인멜랑주","tel":"070-7557-4904","addr":"경기도 남양주시 평내동 583-6번지 1층 101호","indutype":"가구 - 일반가구","category":"other"},{"name":"장미농원","tel":"031-591-7667","addr":"경기도 남양주시 평내동 583-6번지","indutype":"문화.취미 - 화원","category":"other"}]},{"lat":"37.644492439","long":"127.23782318","imageIndex":17,"items":[{"name":"고려수도설비119","tel":"","addr":"경기도 남양주시 평내동 602번지 평내마을평내2차대주파크빌 1901동 701호","indutype":"용역 서비스 - 종합용역","category":"other"}]},{"lat":"37.641460034","long":"127.23587617","imageIndex":17,"items":[{"name":"골드마인","tel":"02-2273-8360","addr":"경기도 남양주시 평내동 564번지 평내화성파크힐즈 1703동 1402호","indutype":"직물 - 침구·수예점","category":"other"}]},{"lat":"37.651749619","long":"127.24013505","imageIndex":17,"items":[{"name":"국도SID","tel":"031-511-2535","addr":"경기도 남양주시 평내동 119-2,101","indutype":"건축자재 - 인테리어전문","category":"other"}]},{"lat":"37.650330368","long":"127.24247616","imageIndex":17,"items":[{"name":"국민에어컨","tel":"070-7878-5085","addr":"경기도 남양주시 평내동 132번지 효성문구 104호","indutype":"전기제품 - 냉열기기","category":"other"},{"name":"명품자연세탁소(평내점)","tel":"031-592-8562","addr":"경기도 남양주시 평내동 132번지 효성문구 1호","indutype":"수리서비스 - 세탁소","category":"other"}]},{"lat":"37.651696227","long":"127.2442483","imageIndex":17,"items":[{"name":"그라제가구","tel":"031-536-6699","addr":"경기도 남양주시 평내동 152-9번지","indutype":"가구 - 일반가구","category":"other"}]},{"lat":"37.649359464","long":"127.23692066","imageIndex":17,"items":[{"name":"그렘보(GREMBO)","tel":"031-595-0395","addr":"경기도 남양주시 평내동 203-2번지 헤림빌딩 214호","indutype":"전기제품 - 가전제품","category":"other"},{"name":"노엘금방","tel":"031-592-9991","addr":"경기도 남양주시 평내동 203-2번지 혜림빌딩 106호","indutype":"신변잡화 - 귀금속","category":"other"},{"name":"솰아있네평내점","tel":"070-7617-6079","addr":"경기도 남양주시 평내동 203-2번지 혜림빌딩 105호","indutype":"의류 - 정장","category":"other"},{"name":"스마트 호평내점","tel":"031-559-4050","addr":"경기도 남양주시 평내동 203-2번지 혜림빌딩 2층 206호","indutype":"의류 - 맞춤복점","category":"other"},{"name":"스카디","tel":"02-414-2152","addr":"경기도 남양주시 평내동 203-2번지 혜림빌딩 2층 217호","indutype":"여행 - 관광여행","category":"other"},{"name":"유솔평내점","tel":"031-559-7741","addr":"경기도 남양주시 평내동 203-2번지 혜림빌딩 1층 111-2호","indutype":"의류 - 정장","category":"other"},{"name":"이브자리평내점","tel":"031-592-2588","addr":"경기도 남양주시 평내동 203-2번지 혜림빌딩 117동 118호","indutype":"직물 - 침구·수예점","category":"other"},{"name":"진주주단","tel":"031-593-4200","addr":"경기도 남양주시 평내동 203-2번지 혜림빌딩 113-4호","indutype":"직물 - 침구·수예점","category":"other"},{"name":"컬리수/모이몰른 평내호평점","tel":"031-511-4426","addr":"경기도 남양주시 평내동 203-2번지 혜림빌딩","indutype":"레져용품 - 스포츠·레져용품","category":"other"}]},{"lat":"37.650059577","long":"127.23824864","imageIndex":17,"items":[{"name":"금성평내점","tel":"031-591-8532","addr":"경기도 남양주시 평내동 200-1번지","indutype":"전기제품 - 가전제품","category":"other"},{"name":"남양주국민병원장례식장","tel":"031-594-4442","addr":"경기도 남양주시 평내동 200-1번지 지층1, 지층2일부 지하1,2,층","indutype":"용역 서비스 - 가례서비스업","category":"other"}]},{"lat":"37.647664806","long":"127.24183306","imageIndex":17,"items":[{"name":"금천공조","tel":"031-1588-3366","addr":"경기도 남양주시 평내동 595-1번지 302 (302호~302호)","indutype":"회원제형태 - 기타4","category":"other"},{"name":"마이렌탈","tel":"070-8229-4297","addr":"경기도 남양주시 평내동 595-1번지 101호","indutype":"신변잡화 - 기타잡화","category":"other"}]},{"lat":"37.650418808","long":"127.23882769","imageIndex":17,"items":[{"name":"까끄애견샵","tel":"031-591-2199","addr":"경기도 남양주시 평내동 117-4번지 109호","indutype":"문화.취미 - 애완동물","category":"other"},{"name":"대성 철물","tel":"031-591-6699","addr":"경기도 남양주시 평내동 117-4번지","indutype":"건축자재 - 목재·석재·철물","category":"other"}]},{"lat":"37.642249446","long":"127.23761217","imageIndex":17,"items":[{"name":"꾸러기문구나라","tel":"031-595-0948","addr":"경기도 남양주시 평내동 45-8드림타워1층103호","indutype":"서적문구 - 문구용품","category":"other"},{"name":"라온제나","tel":"031-528-6263","addr":"경기도 남양주시 평내동 604-7번지 드림타워 109호","indutype":"문화.취미 - 화원","category":"other"},{"name":"미래산업","tel":"","addr":"경기도 남양주시 평내동 604-7번지 드림타워 304호","indutype":"주방용구 - 주방용구","category":"other"},{"name":"봄인테리어","tel":"031-511-1237","addr":"경기도 남양주시 평내동 604-7,외1필지(604-8번지)101","indutype":"직물 - 카페트,커튼,천막,지물","category":"other"},{"name":"블럭쟁이","tel":"031-594-2588","addr":"경기도 남양주시 평내동 604-7번지 드림타워 202호","indutype":"서적문구 - 완구점","category":"other"},{"name":"세븐일레븐평내드림타워점","tel":"","addr":"경기도 남양주시 평내동 604-7번지 드림타워 105호","indutype":"유통업 영리 - 편 의 점","category":"other"},{"name":"틴틴하우스","tel":"031-593-2084","addr":"경기도 남양주시 평내동 604-7번지 드림타워 109호","indutype":"의류 - 정장","category":"other"}]},{"lat":"37.643220328","long":"127.22950262","imageIndex":17,"items":[{"name":"꿈에커튼","tel":"031-593-9616","addr":"경기도 남양주시 평내동 556-1번지 1층","indutype":"직물 - 카페트,커튼,천막,지물","category":"other"},{"name":"두원공조시스템","tel":"031-575-3419","addr":"경기도 남양주시 평내동 556-1번지 1층","indutype":"전기제품 - 냉열기기","category":"other"}]},{"lat":"37.644246956","long":"127.23438923","imageIndex":17,"items":[{"name":"나루클래식","tel":"031-592-1279","addr":"경기도 남양주시 평내동 550번지 평내마을금호어울림아파트 1409동 901호","indutype":"회원제형태 - 서적","category":"other"}]},{"lat":"37.643859534","long":"127.22975383","imageIndex":17,"items":[{"name":"나르샤한복","tel":"031-511-3117","addr":"경기도 남양주시 평내동 558-1번지 101호","indutype":"의류 - 맞춤복점","category":"other"},{"name":"에버에이프릴","tel":"031-595-2558","addr":"경기도 남양주시 평내동 558-1번지 1층","indutype":"문화.취미 - 화원","category":"other"},{"name":"중고나라","tel":"031-511-4914","addr":"경기도 남양주시 평내동 558-1번지 101호","indutype":"신변잡화 - 기타잡화","category":"other"}]},{"lat":"37.645003387","long":"127.2345842","imageIndex":17,"items":[{"name":"남양사","tel":"031-559-9275","addr":"경기도 남양주시 평내동 577-9번지 SkyVill 102호","indutype":"신변잡화 - 제화","category":"other"}]},{"lat":"37.648804048","long":"127.23530988","imageIndex":17,"items":[{"name":"남양주애견샵","tel":"031-592-8577","addr":"경기도 남양주시 평내동 249-2번지 화성빌딩 103,104호","indutype":"문화.취미 - 애완동물","category":"other"},{"name":"드림종합사무기","tel":"031-511-9717","addr":"경기도 남양주시 평내동 249-2번지 화성빌딩 101호","indutype":"사무통신 - 사무용 OA기기","category":"other"}]},{"lat":"37.645336098","long":"127.23491382","imageIndex":17,"items":[{"name":"남양주어르신주간보호","tel":"031-591-5060","addr":"경기도 남양주시 평내동 578-3번지 메인프라자 4층 405-407호","indutype":"기타의료기관 - 기타의료기관 및 기타","category":"other"},{"name":"남양주어르신주간보호","tel":"031-591-5003","addr":"경기도 남양주시 평내동 578-3번지 메인프라자 405~407호","indutype":"기타의료기관 - 기타의료기관 및 기타","category":"other"},{"name":"더연세실버전문요양원(주)","tel":"031-595-2601","addr":"경기도 남양주시 평내동 578-3번지 평내메인프라자 801호","indutype":"기타의료기관 - 기타의료기관 및 기타","category":"other"},{"name":"뮤포토스튜디오","tel":"02-987-8728","addr":"경기도 남양주시 평내동 578-3번지 평내메인프라자 304호","indutype":"광학제품 - 사진관","category":"other"},{"name":"스마일휘트니스센터","tel":"031-513-0020","addr":"경기도 남양주시 평내동 578-3메인프라자10-1","indutype":"회원제형태 - 기타4","category":"other"},{"name":"씨유평내메인점","tel":"031-559-9711","addr":"경기도 남양주시 평내동 578-3번지 평내메인프라자 110호","indutype":"유통업 영리 - 편 의 점","category":"other"},{"name":"주식회사로하스텔레콤","tel":"031-559-1200","addr":"경기도 남양주시 평내동 578-3번지 평내메인프라자 120호","indutype":"사무통신 - 통신기기","category":"other"},{"name":"휴대폰DC마트","tel":"","addr":"경기도 남양주시 평내동 578-3번지 메인프라자 1층 104호","indutype":"사무통신 - 통신기기","category":"other"},{"name":"힐링엔젤스","tel":"031-516-1411","addr":"경기도 남양주시 평내동 578-3번지 메인프라자 404호","indutype":"신변잡화 - 기타잡화","category":"other"}]},{"lat":"37.646333328","long":"127.23635595","imageIndex":17,"items":[{"name":"늘푸른세상","tel":"031-529-4480","addr":"경기도 남양주시 평내동 586-1번지 래일스타 402호","indutype":"회원제형태 - 기타4","category":"other"}]},{"lat":"37.651282507","long":"127.23944233","imageIndex":17,"items":[{"name":"대명인테리어","tel":"031-592-5491","addr":"경기도 남양주시 평내동 120-1","indutype":"건축자재 - 인테리어전문","category":"other"},{"name":"씨앤씨","tel":"031-511-7074","addr":"경기도 남양주시 평내동 120-1번지","indutype":"의류 - 정장","category":"other"},{"name":"코렉스자전거","tel":"031-591-2063","addr":"경기도 남양주시 평내동 120-1번지","indutype":"레져용품 - 스포츠·레져용품","category":"other"},{"name":"호평장갑","tel":"031-559-1810","addr":"경기도 남양주시 평내동 120-1","indutype":"의류 - 기타의류","category":"other"}]},{"lat":"37.643768332","long":"127.23495427","imageIndex":17,"items":[{"name":"대성냉난방","tel":"031-511-3509","addr":"경기도 남양주시 평내동 550번지 평내마을금호어울림 1408동 603호","indutype":"회원제형태 - 기타4","category":"other"}]},{"lat":"37.6494184","long":"127.24783298","imageIndex":17,"items":[{"name":"대승주방","tel":"031-593-9264","addr":"경기도 남양주시 평내동 41-5번지","indutype":"주방용구 - 주방용구","category":"other"},{"name":"에띠임미라클","tel":"070-8445-0201","addr":"경기도 남양주시 평내동 41-5번지","indutype":"회원제형태 - 기타1","category":"other"},{"name":"영광공조","tel":"031-624-0124","addr":"경기도 남양주시 평내동 41-5번지","indutype":"전기제품 - 냉열기기","category":"other"}]},{"lat":"37.644558248","long":"127.24095064","imageIndex":17,"items":[{"name":"대주","tel":"","addr":"경기도 남양주시 평내동 601번지 평내마을신명스카이뷰 1801호 1501호","indutype":"직물 - 침구·수예점","category":"other"}]},{"lat":"37.647529157","long":"127.2420819","imageIndex":17,"items":[{"name":"대창건기(경기크레인)","tel":"031-559-0441","addr":"경기도 남양주시 평내동 595-10번지 203호","indutype":"기타 - 기계공구","category":"other"},{"name":"심심만물상","tel":"","addr":"경기도 남양주시 평내동 595-10번지","indutype":"가구 - 기타가구","category":"other"}]},{"lat":"37.649891594","long":"127.23663905","imageIndex":17,"items":[{"name":"대한노인복지센터","tel":"031-594-9090","addr":"경기도 남양주시 평내동 211-6번지 가남빌딩 301호","indutype":"기타의료기관 - 기타의료기관 및 기타","category":"other"},{"name":"덕앤샵","tel":"","addr":"경기도 남양주시 평내동 211-6번지 가남빌딩 104호","indutype":"의류 - 기타의류","category":"other"},{"name":"마모트(평내점)","tel":"031-529-8666","addr":"경기도 남양주시 평내동 211-6번지 211-6,193,194-5 1층 103호","indutype":"레져용품 - 스포츠·레져용품","category":"other"},{"name":"아이비클럽","tel":"031-593-1314","addr":"경기도 남양주시 평내동 211-6번지 가람빌딩 201호","indutype":"의류 - 단체복","category":"other"},{"name":"올포유 평내점","tel":"031-595-1517","addr":"경기도 남양주시 평내동 211-6번지 가남빌딩 102호","indutype":"의류 - 스포츠의류","category":"other"},{"name":"케이투 남양주평내점","tel":"031-559-7700","addr":"경기도 남양주시 평내동 211-6번지 가남빌딩 1층 103호","indutype":"레져용품 - 스포츠·레져용품","category":"other"}]},{"lat":"37.647277782","long":"127.24163919","imageIndex":17,"items":[{"name":"독스","tel":"031-511-7543","addr":"경기도 남양주시 평내동 594-2번지","indutype":"문화.취미 - 애완동물","category":"other"}]},{"lat":"37.641194158","long":"127.22897528","imageIndex":17,"items":[{"name":"동서가구","tel":"","addr":"경기도 남양주시 평내동 366-1번지 1층","indutype":"가구 - 일반가구","category":"other"}]},{"lat":"37.647973377","long":"127.24072359","imageIndex":17,"items":[{"name":"두레상사","tel":"031-593-5126","addr":"경기도 남양주시 평내동 103-2번지 삼창아파트","indutype":"유통업 영리 - 기타유통업","category":"other"}]},{"lat":"37.644751762","long":"127.23425483","imageIndex":17,"items":[{"name":"레노마키즈 평내점","tel":"070-8632-2620","addr":"경기도 남양주시 평내동 577-12번지","indutype":"의류 - 아동의류","category":"other"},{"name":"케이.MODE","tel":"","addr":"경기도 남양주시 평내동 577-12번지","indutype":"의류 - 정장","category":"other"}]},{"lat":"37.649639773","long":"127.23641163","imageIndex":17,"items":[{"name":"로가디스 남양주평내점","tel":"031-559-8747","addr":"경기도 남양주시 평내동 205-1번지 1층101-A호","indutype":"레져용품 - 스포츠·레져용품","category":"other"},{"name":"올리비아로렌평내점","tel":"031-559-8837","addr":"경기도 남양주시 평내동 205-1번지 1층 101-8호","indutype":"레져용품 - 스포츠·레져용품","category":"other"},{"name":"크로커다일 레이디 평내점","tel":"031-595-9801","addr":"경기도 남양주시 평내동 205-1번지 광명빌딩 1층","indutype":"레져용품 - 스포츠·레져용품","category":"other"}]},{"lat":"37.649914047","long":"127.24777795","imageIndex":17,"items":[{"name":"루미까사","tel":"031-000-0000","addr":"경기도 남양주시 평내동 산97-8번지","indutype":"가구 - 일반가구","category":"other"},{"name":"신유시스템","tel":"031-1644-4806","addr":"경기도 남양주시 평내동 산97-8번지 협동산업내 대성에어컨","indutype":"수리서비스 - 가정용품수리","category":"other"}]},{"lat":"37.64736168","long":"127.23572463","imageIndex":17,"items":[{"name":"마라톤상사","tel":"031-556-5211","addr":"경기도 남양주시 평내동 583-3번지 1층","indutype":"서적문구 - 문구용품","category":"other"}]},{"lat":"37.650862383","long":"127.23777525","imageIndex":17,"items":[{"name":"마코 삼패점","tel":"031-577-8508","addr":"경기도 남양주시 평내동 198번지 1층","indutype":"의류 - 스포츠의류","category":"other"}]},{"lat":"37.644832649","long":"127.23435705","imageIndex":17,"items":[{"name":"맘앤아이","tel":"070-8851-1712","addr":"경기도 남양주시 평내동 577-11번지 103호","indutype":"의류 - 정장","category":"other"},{"name":"크린토피아 코인워시 평내금호어울림점","tel":"031-559-5006","addr":"경기도 남양주시 평내동 577-11번지 102호","indutype":"수리서비스 - 세탁소","category":"other"}]},{"lat":"37.647864921","long":"127.23638341","imageIndex":17,"items":[{"name":"멀티글로벌(Multi global)","tel":"070-7531-2300","addr":"경기도 남양주시 평내동 588-7번지 1층 101호","indutype":"신변잡화 - 시계","category":"other"}]},{"lat":"37.651749391","long":"127.24024836","imageIndex":17,"items":[{"name":"멈스전자 남양주구리가평지점","tel":"02-1544-8630","addr":"경기도 남양주시 평내동 산87-25번지 대박곱창 104호","indutype":"주방용구 - 주방용구","category":"other"},{"name":"썬버티컬","tel":"031-591-8262","addr":"경기도 남양주시 평내동 산87-25번지 대박곱창 102호","indutype":"직물 - 카페트,커튼,천막,지물","category":"other"}]},{"lat":"37.648392684","long":"127.23830004","imageIndex":17,"items":[{"name":"멍스터치","tel":"031-576-7841","addr":"경기도 남양주시 평내동 593번지 우향빌딩 103호","indutype":"문화.취미 - 애완동물","category":"other"}]},{"lat":"37.642752262","long":"127.22927459","imageIndex":17,"items":[{"name":"메뉴박스","tel":"031-559-4364","addr":"경기도 남양주시 평내동 553-5번지 204호","indutype":"용역 서비스 - 종합용역","category":"other"},{"name":"준미디어","tel":"070-7658-6967","addr":"경기도 남양주시 평내동 553-5,303 35/4","indutype":"전기제품 - 가전제품","category":"other"}]},{"lat":"37.647060951","long":"127.23744601","imageIndex":17,"items":[{"name":"모닝글로리평내점","tel":"031-511-1995","addr":"경기도 남양주시 평내동 587-6번지","indutype":"서적문구 - 문구용품","category":"other"}]},{"lat":"37.649664756","long":"127.23744287","imageIndex":17,"items":[{"name":"모아 telecom","tel":"031-592-9011","addr":"경기도 남양주시 평내동 203-8번지 중앙 상가 1층 우측","indutype":"사무통신 - 통신기기","category":"other"},{"name":"숲(SOUP)","tel":"031-591-3260","addr":"경기도 남양주시 평내동 203-8번지 1층","indutype":"레져용품 - 스포츠·레져용품","category":"other"},{"name":"스쿨룩스평내점","tel":"031-592-1317","addr":"경기도 남양주시 평내동 203-8번지 2층","indutype":"의류 - 단체복","category":"other"}]},{"lat":"37.652030646","long":"127.23927473","imageIndex":17,"items":[{"name":"목양교회","tel":"031-555-1622","addr":"경기도 남양주시 평내동 122-1 3층","indutype":"기타 - 비영리/대상","category":"other"},{"name":"칠하는고양이","tel":"031-559-3000","addr":"경기도 남양주시 평내동 122-1번지 우측상가 1층","indutype":"건축자재 - 페인트","category":"other"}]},{"lat":"37.642944696","long":"127.23685522","imageIndex":17,"items":[{"name":"무냐무냐평내점","tel":"070-4642-0425","addr":"경기도 남양주시 평내동 604-10번지 우영프라자 111호","indutype":"의류 - 내의판매","category":"other"},{"name":"푸른나무","tel":"070-8616-9441","addr":"경기도 남양주시 평내동 604-10번지 우영프라자 113호","indutype":"가구 - 기타가구","category":"other"}]},{"lat":"37.642859137","long":"127.22992075","imageIndex":17,"items":[{"name":"물이랑 쌀이랑","tel":"031-1855-1270","addr":"경기도 남양주시 평내동 556-5번지","indutype":"유통업 영리 - 기타유통업","category":"other"}]},{"lat":"37.643560928","long":"127.23042142","imageIndex":17,"items":[{"name":"미도인테리어","tel":"031-593-4226","addr":"경기도 남양주시 평내동 558-5번지 102호","indutype":"건축자재 - 인테리어전문","category":"other"}]},{"lat":"37.646946409","long":"127.23614258","imageIndex":17,"items":[{"name":"미소인테리어","tel":"031-591-3131","addr":"경기도 남양주시 평내동 584-12번지 1층","indutype":"건축자재 - 인테리어전문","category":"other"}]},{"lat":"37.647608656","long":"127.24286401","imageIndex":17,"items":[{"name":"바론교육","tel":"031-591-7951","addr":"경기도 남양주시 평내동 596-3번지 부원빌딩 지하층 B호","indutype":"서적문구 - 일반서적","category":"other"}]},{"lat":"37.647302328","long":"127.24286302","imageIndex":17,"items":[{"name":"베델소방153","tel":"","addr":"경기도 남양주시 평내동 597번지 원프라자 302호","indutype":"기타 - 기계공구","category":"other"},{"name":"엘림조명","tel":"031-511-6256","addr":"경기도 남양주시 평내동 597번지 원프라자 2층","indutype":"기타 - 기타 전문점","category":"other"}]},{"lat":"37.651501642","long":"127.24246859","imageIndex":17,"items":[{"name":"블랙스완","tel":"031-511-5191","addr":"경기도 남양주시 평내동 130-26번지","indutype":"신변잡화 - 기타잡화","category":"other"}]},{"lat":"37.642502279","long":"127.2373297","imageIndex":17,"items":[{"name":"블레스","tel":"031-000-0000","addr":"경기도 남양주시 평내동 604-9번지 정환빌딩 101호","indutype":"의류 - 정장","category":"other"}]},{"lat":"37.652197472","long":"127.24143963","imageIndex":17,"items":[{"name":"비봉인테리어","tel":"031-591-7893","addr":"경기도 남양주시 평내동 129-7번지 써니블라인드버티칼 104호","indutype":"건축자재 - 인테리어전문","category":"other"},{"name":"써니블라인드버티칼","tel":"031-592-0362","addr":"경기도 남양주시 평내동 129-7번지 주까르시아 1동","indutype":"직물 - 카페트,커튼,천막,지물","category":"other"},{"name":"홈인테리어","tel":"031-572-9916","addr":"경기도 남양주시 평내동 129-7번지","indutype":"건축자재 - 인테리어전문","category":"other"}]},{"lat":"37.64450352","long":"127.23678079","imageIndex":17,"items":[{"name":"비제이(BJ)텔레콤","tel":"","addr":"경기도 남양주시 평내동 565-2번지","indutype":"사무통신 - 통신기기","category":"other"}]},{"lat":"37.645084696","long":"127.23447114","imageIndex":17,"items":[{"name":"빨간지붕 평내","tel":"031-594-7556","addr":"경기도 남양주시 평내동 577-8번지 1층 위너스하우젤","indutype":"의류 - 정장","category":"other"},{"name":"알파 인터내쇼날","tel":"070-7405-0533","addr":"경기도 남양주시 평내동 577-8번지 위너스하우젤B105","indutype":"레져용품 - 스포츠·레져용품","category":"other"}]},{"lat":"37.647810302","long":"127.23666652","imageIndex":17,"items":[{"name":"사진마당","tel":"031-592-3433","addr":"경기도 남양주시 평내동 588-5번지","indutype":"광학제품 - 사진관","category":"other"},{"name":"티트리","tel":"","addr":"경기도 남양주시 평내동 588-5번지 104호","indutype":"의류 - 정장","category":"other"},{"name":"힐바이크","tel":"031-528-6263","addr":"경기도 남양주시 평내동 588-5번지 101호","indutype":"레져용품 - 스포츠·레져용품","category":"other"}]},{"lat":"37.64586099","long":"127.23372572","imageIndex":17,"items":[{"name":"산과들","tel":"031-591-3136","addr":"경기도 남양주시 평내동 574-3번지 진승빌딩 1층","indutype":"의류 - 기타의류","category":"other"},{"name":"세븐일레븐남양주장내마을점","tel":"","addr":"경기도 남양주시 평내동 574-3번지 진승빌딩 1층","indutype":"유통업 영리 - 편 의 점","category":"other"}]},{"lat":"37.650616339","long":"127.23916826","imageIndex":17,"items":[{"name":"삼성인테리어","tel":"031-511-8995","addr":"경기도 남양주시 평내동 118-4번지","indutype":"건축자재 - 인테리어전문","category":"other"}]},{"lat":"37.648752616","long":"127.2385278","imageIndex":17,"items":[{"name":"서일자동문","tel":"031-511-7371","addr":"경기도 남양주시 평내동 269-13번지 1층 2호","indutype":"용역 서비스 - 기타용역서비스","category":"other"}]},{"lat":"37.647699443","long":"127.24252436","imageIndex":17,"items":[{"name":"선우","tel":"02-426-7933","addr":"경기도 남양주시 평내동 595-6번지","indutype":"전기제품 - 가전제품","category":"other"},{"name":"우리 인테리어","tel":"031-515-1884","addr":"경기도 남양주시 평내동 595-6번지 1층 1호","indutype":"건축자재 - 인테리어전문","category":"other"}]},{"lat":"37.64664167","long":"127.23533713","imageIndex":17,"items":[{"name":"선우인테리어","tel":"031-511-2405","addr":"경기도 남양주시 평내동 582-11번지 102호","indutype":"건축자재 - 인테리어전문","category":"other"}]},{"lat":"37.644021269","long":"127.2391587","imageIndex":17,"items":[{"name":"선인테리어","tel":"","addr":"경기도 남양주시 평내동 601번지 평내마을신명스카이뷰 1807동 1002호","indutype":"건축자재 - 인테리어전문","category":"other"}]},{"lat":"37.648334199","long":"127.24493996","imageIndex":17,"items":[{"name":"성덕문화사","tel":"031-591-7796","addr":"경기도 남양주시 평내동 59번지 세종아파트","indutype":"서적문구 - 출판 및 인쇄물","category":"other"}]},{"lat":"37.649220823","long":"127.24752638","imageIndex":17,"items":[{"name":"성음전자","tel":"031-000-0000","addr":"경기도 남양주시 평내동 41-2번지","indutype":"전기제품 - 기타전기제품","category":"other"}]},{"lat":"37.647001787","long":"127.23547423","imageIndex":17,"items":[{"name":"세븐일레븐평내으뜸점","tel":"","addr":"경기도 남양주시 평내동 583-15번지 1층","indutype":"유통업 영리 - 편 의 점","category":"other"}]},{"lat":"37.644914935","long":"127.23374545","imageIndex":17,"items":[{"name":"소울가구갤러리","tel":"031-637-6560","addr":"경기도 남양주시 평내동 576-8번지 1층","indutype":"가구 - 일반가구","category":"other"}]},{"lat":"37.64697108","long":"127.23733242","imageIndex":17,"items":[{"name":"스마트공조","tel":"031-1588-3366","addr":"경기도 남양주시 평내동 587-9번지","indutype":"용역 서비스 - 기타용역서비스","category":"other"},{"name":"아이비공방","tel":"","addr":"경기도 남양주시 평내동 587-9번지 301호","indutype":"문화.취미 - 문화취미기타","category":"other"}]},{"lat":"37.649280977","long":"127.23560598","imageIndex":17,"items":[{"name":"스카이","tel":"","addr":"경기도 남양주시 평내동 206-3번지 정우빌딩 401-17호","indutype":"전기제품 - 기타전기제품","category":"other"},{"name":"시그니처 컴퍼니","tel":"02-549-0951","addr":"경기도 남양주시 평내동 206-3번지 정우빌딩 603호","indutype":"용역 서비스 - 종합용역","category":"other"}]},{"lat":"37.648914563","long":"127.23864163","imageIndex":17,"items":[{"name":"스타일","tel":"031-592-0340","addr":"경기도 남양주시 평내동 269-20번지 대양빌딩 1층","indutype":"의류 - 정장","category":"other"}]},{"lat":"37.647422057","long":"127.23708455","imageIndex":17,"items":[{"name":"신나라기프트","tel":"031-511-5007","addr":"경기도 남양주시 평내동 587-3번지 1층","indutype":"유통업 영리 - 기타유통업","category":"other"}]},{"lat":"37.643913918","long":"127.22958404","imageIndex":17,"items":[{"name":"썬차일드 구리,남양주점","tel":"031-566-5425","addr":"경기도 남양주시 평내동 558번지 102호","indutype":"서적문구 - 기타서적문구","category":"other"},{"name":"오일코리아","tel":"070-8804-0512","addr":"경기도 남양주시 평내동 558번지 301호","indutype":"신변잡화 - 기타잡화","category":"other"}]},{"lat":"37.645973593","long":"127.23602623","imageIndex":17,"items":[{"name":"씨유평내로점","tel":"031-595-4332","addr":"경기도 남양주시 평내동 582-8번지 1층","indutype":"유통업 영리 - 편 의 점","category":"other"}]},{"lat":"37.641891758","long":"127.23625141","imageIndex":17,"items":[{"name":"씨유평내화성스타점","tel":"031-559-7189","addr":"경기도 남양주시 평내동 564번지 평내화성파크힐즈 상가동 104, 105호","indutype":"유통업 영리 - 편 의 점","category":"other"},{"name":"짱구문방구","tel":"031-511-2783","addr":"경기도 남양주시 평내동 564번지 평내화성파크힐즈 상가동 103호","indutype":"서적문구 - 문구용품","category":"other"}]},{"lat":"37.645671478","long":"127.23388376","imageIndex":17,"items":[{"name":"아뜰리에 공방","tel":"070-4237-7425","addr":"경기도 남양주시 평내동 575-4번지 네스트빌 102호","indutype":"문화.취미 - 문화취미기타","category":"other"}]},{"lat":"37.650610609","long":"127.23752516","imageIndex":17,"items":[{"name":"아이더평내점","tel":"031-591-3501","addr":"경기도 남양주시 평내동 199번지","indutype":"레져용품 - 스포츠·레져용품","category":"other"}]},{"lat":"37.644527232","long":"127.23389155","imageIndex":17,"items":[{"name":"아트플라워","tel":"031-977-7411","addr":"경기도 남양주시 평내동 577-15번지 별하람빌 102호","indutype":"문화.취미 - 화원","category":"other"}]},{"lat":"37.645588902","long":"127.23464267","imageIndex":17,"items":[{"name":"안상열 다이어트 복싱클럽","tel":"031-592-8279","addr":"경기도 남양주시 평내동 578-2번지 평내프라자 3층 306호","indutype":"회원제형태 - 레져업소","category":"other"},{"name":"인디라벨(평내점)","tel":"070-8612-9729","addr":"경기도 남양주시 평내동 578-2번지 평내프라자 102호","indutype":"의류 - 정장","category":"other"},{"name":"주니유니","tel":"031-592-3750","addr":"경기도 남양주시 평내동 578-2 113호~115호","indutype":"서적문구 - 문구용품","category":"other"},{"name":"주식회사 솔비정보통신","tel":"070-4112-5062","addr":"경기도 남양주시 평내동 578-2번지 평내프라자 306호","indutype":"사무통신 - 컴퓨터","category":"other"},{"name":"토즈 멤버십라운지 평내센터","tel":"031-595-9969","addr":"경기도 남양주시 평내동 578-2번지 평내프라자 601호","indutype":"용역 서비스 - 사무서비스","category":"other"},{"name":"플러스행복한요양원","tel":"031-558-3400","addr":"경기도 남양주시 평내동 578-2번지 평내프라자 502호","indutype":"기타의료기관 - 기타의료기관 및 기타","category":"other"}]},{"lat":"37.647665082","long":"127.24169708","imageIndex":17,"items":[{"name":"앙스엠(Angs' M)","tel":"070-7787-5580","addr":"경기도 남양주시 평내동 595번지","indutype":"의류 - 아동의류","category":"other"}]},{"lat":"37.643471007","long":"127.23033051","imageIndex":17,"items":[{"name":"어메이준","tel":"","addr":"경기도 남양주시 평내동 558-6번지 상가B호","indutype":"신변잡화 - 기타잡화","category":"other"},{"name":"지거스(ZIGUS)","tel":"070-4218-7600","addr":"경기도 남양주시 평내동 558-6번지 상가 B호","indutype":"기타 - 기계공구","category":"other"}]},{"lat":"37.646532347","long":"127.23594866","imageIndex":17,"items":[{"name":"에어포스밴","tel":"031-591-4263","addr":"경기도 남양주시 평내동 585번지 203호","indutype":"사무통신 - 통신기기","category":"other"}]},{"lat":"37.642467836","long":"127.23652514","imageIndex":17,"items":[{"name":"에이알랩","tel":"070-8839-6487","addr":"경기도 남양주시 평내동 564번지 평내화성파크힐즈 1702동 601호","indutype":"서적문구 - 과학기자재","category":"other"}]},{"lat":"37.647276497","long":"127.24227372","imageIndex":17,"items":[{"name":"엘르 평내점","tel":"031-592-5221","addr":"경기도 남양주시 평내동 594-7번지","indutype":"직물 - 침구·수예점","category":"other"}]},{"lat":"37.643780791","long":"127.23776428","imageIndex":17,"items":[{"name":"엘린퀼트","tel":"070-7762-8610","addr":"경기도 남양주시 평내동 602번지 평내마을대주파크빌 1909동 701호","indutype":"직물 - 침구·수예점","category":"other"}]},{"lat":"37.651941434","long":"127.2388325","imageIndex":17,"items":[{"name":"엘지전자(주) 남양주서비스센터","tel":"02-3777-1114","addr":"경기도 남양주시 평내동 121-4번지 LG BEST SHOP 2층","indutype":"수리서비스 - 가정용품수리","category":"other"},{"name":"쿠가 주식회사","tel":"031-591-5058","addr":"경기도 남양주시 평내동 121-4번지","indutype":"레져용품 - 스포츠·레져용품","category":"other"}]},{"lat":"37.651668646","long":"127.24007813","imageIndex":17,"items":[{"name":"영선커텐","tel":"031-591-8262","addr":"경기도 남양주시 평내동 119-8번지","indutype":"직물 - 카페트,커튼,천막,지물","category":"other"}]},{"lat":"37.648808327","long":"127.24658453","imageIndex":17,"items":[{"name":"영화침장","tel":"031-591-1856","addr":"경기도 남양주시 평내동 45-2번지 협동산업단지내3단지 49동 3층 301호","indutype":"직물 - 침구·수예점","category":"other"}]},{"lat":"37.644922523","long":"127.23447064","imageIndex":17,"items":[{"name":"예쁜여우","tel":"02-1111-1111","addr":"경기도 남양주시 평내동 577-10번지 1층 103호","indutype":"의류 - 정장","category":"other"}]},{"lat":"37.646755007","long":"127.23725242","imageIndex":17,"items":[{"name":"예성에이앤디","tel":"031-593-2194","addr":"경기도 남양주시 평내동 586-8번지 301호","indutype":"전기제품 - 냉열기기","category":"other"}]},{"lat":"37.650727283","long":"127.23775216","imageIndex":17,"items":[{"name":"예원악기","tel":"031-591-8215","addr":"경기도 남양주시 평내동 121-14번지","indutype":"레져용품 - 악기점","category":"other"}]},{"lat":"37.651719045","long":"127.24189137","imageIndex":17,"items":[{"name":"오케이(OK)재활용센터","tel":"031-559-7065","addr":"경기도 남양주시 평내동 130번지","indutype":"전기제품 - 가전제품","category":"other"}]},{"lat":"37.647278126","long":"127.24146922","imageIndex":17,"items":[{"name":"옴프인테리어","tel":"031-511-1631","addr":"경기도 남양주시 평내동 594-1번지","indutype":"건축자재 - 인테리어전문","category":"other"}]},{"lat":"37.651414231","long":"127.2411425","imageIndex":17,"items":[{"name":"우림산업","tel":"031-595-0942","addr":"경기도 남양주시 평내동 산87-1번지 진주종합상가 1층 30호","indutype":"용역 서비스 - 종합용역","category":"other"},{"name":"진주수예","tel":"031-591-1949","addr":"경기도 남양주시 평내동 산87-1번지","indutype":"직물 - 침구·수예점","category":"other"}]},{"lat":"37.647638737","long":"127.23685861","imageIndex":17,"items":[{"name":"우찬인테리어","tel":"031-563-0956","addr":"경기도 남양주시 평내동 587-1번지 103호","indutype":"직물 - 카페트,커튼,천막,지물","category":"other"}]},{"lat":"37.647144083","long":"127.23641515","imageIndex":17,"items":[{"name":"원더플라워","tel":"031-593-5737","addr":"경기도 남양주시 평내동 584-10번지 101호","indutype":"문화.취미 - 화원","category":"other"},{"name":"클린즈","tel":"031-594-6488","addr":"경기도 남양주시 평내동 584-10번지 303호","indutype":"신변잡화 - 기타잡화","category":"other"}]},{"lat":"37.645085563","long":"127.23402925","imageIndex":17,"items":[{"name":"은진설비","tel":"031-527-1852","addr":"경기도 남양주시 평내동 576-6번지","indutype":"용역 서비스 - 기타용역서비스","category":"other"}]},{"lat":"37.643805955","long":"127.2295044","imageIndex":17,"items":[{"name":"은호교육상사","tel":"031-559-7926","addr":"경기도 남양주시 평내동 558-11번지 지층","indutype":"서적문구 - 기타서적문구","category":"other"}]},{"lat":"37.646027427","long":"127.23613971","imageIndex":17,"items":[{"name":"이가보석","tel":"031-591-5685","addr":"경기도 남양주시 평내동 582-7번지 금광빌 102호","indutype":"신변잡화 - 귀금속","category":"other"}]},{"lat":"37.647332185","long":"127.23697096","imageIndex":17,"items":[{"name":"이레광고","tel":"031-592-5888","addr":"경기도 남양주시 평내동 587-12번지","indutype":"회원제형태 - 기타4","category":"other"}]},{"lat":"37.649254328","long":"127.23541326","imageIndex":17,"items":[{"name":"이지에스테틱","tel":"031-592-3133","addr":"경기도 남양주시 평내동 222-3번지 가람빌딩 201호","indutype":"회원제형태 - 기타4","category":"other"},{"name":"하나종합공구","tel":"031-592-0913","addr":"경기도 남양주시 평내동 222-3번지","indutype":"기타 - 기계공구","category":"other"}]},{"lat":"37.647280862","long":"127.23558841","imageIndex":17,"items":[{"name":"인리브","tel":"031-591-9794","addr":"경기도 남양주시 평내동 583-2번지 1층","indutype":"가구 - 일반가구","category":"other"}]},{"lat":"37.650138365","long":"127.23486077","imageIndex":17,"items":[{"name":"잇츠비(It's be)","tel":"070-7607-6261","addr":"경기도 남양주시 평내동 215번지 회산빌딩 2층","indutype":"의류 - 기타의류","category":"other"}]},{"lat":"37.652032703","long":"127.2427196","imageIndex":17,"items":[{"name":"정스포츠","tel":"031-566-0480","addr":"경기도 남양주시 평내동 151-4","indutype":"레져용품 - 스포츠·레져용품","category":"other"}]},{"lat":"37.652137761","long":"127.23977367","imageIndex":17,"items":[{"name":"제일공사","tel":"031-591-1001","addr":"경기도 남양주시 평내동 124-6번지 1층","indutype":"건축자재 - 기타건축자재","category":"other"}]},{"lat":"37.643558957","long":"127.23144116","imageIndex":17,"items":[{"name":"조은교육","tel":"031-591-5977","addr":"경기도 남양주시 평내동 572-2번지","indutype":"서적문구 - 기타서적문구","category":"other"}]},{"lat":"37.65022037","long":"127.23894037","imageIndex":17,"items":[{"name":"주식회사 레드뱅크","tel":"0505-911-6600","addr":"경기도 남양주시 평내동 117-5번지 진주상가 1층 16호","indutype":"회원제형태 - 사무서비스","category":"other"}]},{"lat":"37.647497317","long":"127.23547577","imageIndex":17,"items":[{"name":"주식회사 올댓마라톤","tel":"031-527-9742","addr":"경기도 남양주시 평내동 588-14번지 1층","indutype":"서적문구 - 출판 및 인쇄물","category":"other"}]},{"lat":"37.645113036","long":"127.23380272","imageIndex":17,"items":[{"name":"주식회사 유랑 (YOURANG Co.,Ltd,)","tel":"031-595-6575","addr":"경기도 남양주시 평내동 576-3번지 102호","indutype":"용역 서비스 - 종합용역","category":"other"}]},{"lat":"37.650668783","long":"127.23997297","imageIndex":17,"items":[{"name":"주식회사 제이피티에듀","tel":"031-577-9930","addr":"경기도 남양주시 평내동 산87-3번지 진주3차아파트 2층","indutype":"서적문구 - 기타서적문구","category":"other"}]},{"lat":"37.648610656","long":"127.2419154","imageIndex":17,"items":[{"name":"주식회사 진주소방","tel":"031-592-0796","addr":"경기도 남양주시 평내동 87-2번지 1층","indutype":"용역 서비스 - 기타용역서비스","category":"other"}]},{"lat":"37.651947329","long":"127.24038498","imageIndex":17,"items":[{"name":"주연테크평내점","tel":"031-559-9112","addr":"경기도 남양주시 평내동 산87-24번지 광인빌딩 1층 103호","indutype":"사무통신 - 컴퓨터","category":"other"}]},{"lat":"37.650805042","long":"127.23941815","imageIndex":17,"items":[{"name":"줌마렐라","tel":"031-591-3208","addr":"경기도 남양주시 평내동 118-2번지 태복빌딩 103호","indutype":"의류 - 정장","category":"other"}]},{"lat":"37.649113379","long":"127.23378111","imageIndex":17,"items":[{"name":"중고국대주방","tel":"031-592-0845","addr":"경기도 남양주시 평내동 238번지","indutype":"주방용구 - 주방용구","category":"other"}]},{"lat":"37.644446367","long":"127.23377799","imageIndex":17,"items":[{"name":"중앙인테리어","tel":"031-566-9595","addr":"경기도 남양주시 평내동 577-16번지","indutype":"건축자재 - 인테리어전문","category":"other"}]},{"lat":"37.645863041","long":"127.24174797","imageIndex":17,"items":[{"name":"중흥신창세탁소","tel":"031-593-6333","addr":"경기도 남양주시 평내동 599 중흥에스클래스상가203호","indutype":"수리서비스 - 세탁소","category":"other"},{"name":"크린토피아","tel":"031-559-6363","addr":"경기도 남양주시 평내동 599번지 중흥에스클래스 분산상가 110호","indutype":"수리서비스 - 세탁소","category":"other"},{"name":"한일1매트","tel":"031-592-5658","addr":"경기도 남양주시 평내동 599번지 중흥S-CLASS상가1동 109","indutype":"직물 - 침구·수예점","category":"other"}]},{"lat":"37.645240487","long":"127.23770089","imageIndex":17,"items":[{"name":"쥬비코스","tel":"031-594-6472","addr":"경기도 남양주시 평내동 581번지 평내마을대주파크질 1502동 1803호","indutype":"회원제형태 - 기타1","category":"other"}]},{"lat":"37.648334228","long":"127.23597695","imageIndex":17,"items":[{"name":"지니보드","tel":"","addr":"경기도 남양주시 평내동 588-2번지 평내동주민자치센터 1층 101호","indutype":"서적문구 - 완구점","category":"other"},{"name":"평내동주민센터","tel":"031-590-2962","addr":"경기도 남양주시 평내동 588-2번지 평내동주민센터","indutype":"용역 서비스 - 사무서비스","category":"other"}]},{"lat":"37.643769656","long":"127.23882932","imageIndex":17,"items":[{"name":"지하철광고","tel":"031-538-7549","addr":"경기도 남양주시 평내동 602번지 평내마을대주파크빌 1904동 1202호","indutype":"용역 서비스 - 종합용역","category":"other"}]},{"lat":"37.642007402","long":"127.23699957","imageIndex":17,"items":[{"name":"진성냉열","tel":"070-7761-1323","addr":"경기도 남양주시 평내동 564번지 평내마을화성파크힐즈 1705동 803호","indutype":"수리서비스 - 가정용품수리","category":"other"}]},{"lat":"37.642663957","long":"127.23757948","imageIndex":17,"items":[{"name":"카라","tel":"031-511-3201","addr":"경기도 남양주시 평내동 604-4번지 성원프라자 103호","indutype":"의류 - 정장","category":"other"},{"name":"화목금DIY","tel":"031-594-1913","addr":"경기도 남양주시 평내동 604-4번지 성원프라자 1층 102호","indutype":"문화.취미 - 화원","category":"other"}]},{"lat":"37.643670179","long":"127.22983257","imageIndex":17,"items":[{"name":"커피플로","tel":"031-565-7080","addr":"경기도 남양주시 평내동 558-9번지 202호","indutype":"문화.취미 - 화원","category":"other"}]},{"lat":"37.647199999","long":"127.23547484","imageIndex":17,"items":[{"name":"케이엘(KL)여성의류","tel":"031-963-7725","addr":"경기도 남양주시 평내동 583-1번지 빌리브 204호","indutype":"의류 - 정장","category":"other"}]},{"lat":"37.642555548","long":"127.23772643","imageIndex":17,"items":[{"name":"크레파스","tel":"031-594-5625","addr":"경기도 남양주시 평내동 604-5번지 외1필지동부프라자 101호","indutype":"서적문구 - 문구용품","category":"other"}]},{"lat":"37.644608607","long":"127.2337445","imageIndex":17,"items":[{"name":"크리에딧(CREE8)","tel":"031-584-1335","addr":"경기도 남양주시 평내동 577-2번지 1층 102호","indutype":"문화.취미 - 문화취미기타","category":"other"}]},{"lat":"37.644687204","long":"127.23501378","imageIndex":17,"items":[{"name":"타입디자인(TYPE DESIGN)","tel":"031-595-7680","addr":"경기도 남양주시 평내동 550번지 평내마을금호어울림 1406동 503호","indutype":"용역 서비스 - 사무서비스","category":"other"}]},{"lat":"37.646109006","long":"127.23589069","imageIndex":17,"items":[{"name":"토영건축철물","tel":"031-592-5920","addr":"경기도 남양주시 평내동 582-9번지","indutype":"건축자재 - 목재·석재·철물","category":"other"}]},{"lat":"37.647557875","long":"127.23674504","imageIndex":17,"items":[{"name":"퍼펙트데이","tel":"","addr":"경기도 남양주시 평내동 587번지 103호","indutype":"의류 - 정장","category":"other"}]},{"lat":"37.651218666","long":"127.2398274","imageIndex":17,"items":[{"name":"평내모타","tel":"031-591-5994","addr":"경기도 남양주시 평내동 산87-30번지 호평부동산 103호","indutype":"수리서비스 - 기타수리서비스","category":"other"}]},{"lat":"37.648413796","long":"127.24566541","imageIndex":17,"items":[{"name":"평내문고","tel":"031-559-7090","addr":"경기도 남양주시 평내동 48-1평내프라자2-202","indutype":"서적문구 - 일반서적","category":"other"}]},{"lat":"37.648975142","long":"127.23535573","imageIndex":17,"items":[{"name":"평내종합광고","tel":"031-559-4124","addr":"경기도 남양주시 평내동 250-7번지 구덕빌딩 103호","indutype":"용역 서비스 - 종합용역","category":"other"}]},{"lat":"37.647087539","long":"127.22366755","imageIndex":17,"items":[{"name":"포커스라이팅","tel":"031-551-6471","addr":"경기도 남양주시 평내동 508-3번지","indutype":"건축자재 - 조명기구","category":"other"}]},{"lat":"37.651560645","long":"127.24002113","imageIndex":17,"items":[{"name":"푸른시티","tel":"031-527-1077","addr":"경기도 남양주시 평내동 119-5번지 1층 30호,39호","indutype":"용역 서비스 - 종합용역","category":"other"}]},{"lat":"37.644334265","long":"127.23580583","imageIndex":17,"items":[{"name":"플레르안","tel":"","addr":"경기도 남양주시 평내동 550번지 평내마을금호어울림 상가 106호","indutype":"문화.취미 - 화원","category":"other"}]},{"lat":"37.642664835","long":"127.2371376","imageIndex":17,"items":[{"name":"하기오스킨더가든","tel":"031-595-2535","addr":"경기도 남양주시 평내동 604-10번지 외2필지평내택지개발지구우영프라자5층 상가-502","indutype":"회원제형태 - 기타4","category":"other"}]},{"lat":"37.648302361","long":"127.23841307","imageIndex":17,"items":[{"name":"하늘문고","tel":"070-8667-3725","addr":"경기도 남양주시 평내동 593-5번지 102호","indutype":"서적문구 - 일반서적","category":"other"}]},{"lat":"37.647503092","long":"127.24160591","imageIndex":17,"items":[{"name":"하이잉크","tel":"031-593-7040","addr":"경기도 남양주시 평내동 595-13번지","indutype":"사무통신 - 기타 사무용품","category":"other"}]},{"lat":"37.650581638","long":"127.23849959","imageIndex":17,"items":[{"name":"한국인테리어 남양주점","tel":"031-595-1912","addr":"경기도 남양주시 평내동 121-2번지 제일빌딩 1층 4호","indutype":"주방용구 - 주방용구","category":"other"},{"name":"행복한집자수,손뜨개","tel":"031-592-9791","addr":"경기도 남양주시 평내동 121-2번지 제일빌딩 1층 3호","indutype":"직물 - 침구·수예점","category":"other"}]},{"lat":"37.645167847","long":"127.23341764","imageIndex":17,"items":[{"name":"한별오에이(OA)","tel":"031-528-0067","addr":"경기도 남양주시 평내동 575-10번지 1층","indutype":"사무통신 - 사무용 OA기기","category":"other"}]},{"lat":"37.646830269","long":"127.23564366","imageIndex":17,"items":[{"name":"한솔아트","tel":"031-594-3243","addr":"경기도 남양주시 평내동 584번지","indutype":"문화.취미 - 화방·표구점","category":"other"}]},{"lat":"37.643442467","long":"127.23572373","imageIndex":17,"items":[{"name":"한울에프에스","tel":"031-510-4449","addr":"경기도 남양주시 평내동 551번지 평내마을유진마젤란21 1306동 202호","indutype":"용역 서비스 - 가례서비스업","category":"other"}]},{"lat":"37.648582654","long":"127.23791538","imageIndex":17,"items":[{"name":"해인스포츠","tel":"031-594-4867","addr":"경기도 남양주시 평내동 269-4번지 늘을빌딩 102호","indutype":"레져용품 - 스포츠·레져용품","category":"other"}]},{"lat":"37.647054256","long":"127.23627889","imageIndex":17,"items":[{"name":"행복한강아지","tel":"031-594-4977","addr":"경기도 남양주시 평내동 584-11번지 1층 상가","indutype":"문화.취미 - 애완동물","category":"other"}]},{"lat":"37.650752991","long":"127.24288546","imageIndex":17,"items":[{"name":"행운플라워","tel":"031-514-9292","addr":"경기도 남양주시 평내동 142번지 310호","indutype":"문화.취미 - 화원","category":"other"}]},{"lat":"37.649219004","long":"127.23505055","imageIndex":17,"items":[{"name":"혁신","tel":"070-8241-7844","addr":"경기도 남양주시 평내동 250-5번지 201호","indutype":"용역 서비스 - 기타용역서비스","category":"other"}]},{"lat":"37.64752826","long":"127.24252382","imageIndex":17,"items":[{"name":"현대세탁","tel":"031-511-0834","addr":"경기도 남양주시 평내동 595-7번지","indutype":"수리서비스 - 세탁소","category":"other"}]},{"lat":"37.649997863","long":"127.24205583","imageIndex":17,"items":[{"name":"효성지물,장식","tel":"031-592-5834","addr":"경기도 남양주시 평내동 131-1","indutype":"직물 - 카페트,커튼,천막,지물","category":"other"}]},{"lat":"37.648581886","long":"127.23830064","imageIndex":17,"items":[{"name":"훈남스포츠","tel":"070-7543-8543","addr":"경기도 남양주시 평내동 271-4번지 동성빌딩 102호","indutype":"레져용품 - 스포츠·레져용품","category":"other"}]}]