[{"lat":"37.507423553","long":"126.78043858","imageIndex":8,"items":[{"name":"강남치과의원","tel":"032-679-9753","addr":"경기도 부천시 도당동 275-9번지","indutype":"의원 - 의원","category":"medical"},{"name":"강남한의원","tel":"032-676-4621","addr":"경기도 부천시 도당동 275-9번지 202호","indutype":"의원 - 한의원","category":"medical"},{"name":"보건약국","tel":"032-675-4609","addr":"경기도 부천시 도당동 275-9번지","indutype":"약국 - 약국","category":"medical"}]},{"lat":"37.518758696","long":"126.78565353","imageIndex":8,"items":[{"name":"다스림한의원","tel":"032-678-8275","addr":"경기도 부천시 도당동 42-2번지 동아빌딩 2층 ,3,4층일부","indutype":"의원 - 한의원","category":"medical"}]},{"lat":"37.520232146","long":"126.79331868","imageIndex":8,"items":[{"name":"도당메디칼약국","tel":"032-684-1350","addr":"경기도 부천시 도당동 116-14번지 1층","indutype":"약국 - 약국","category":"medical"},{"name":"도당삼성의원","tel":"032-678-8119","addr":"경기도 부천시 도당동 116-14번지2층4층","indutype":"의원 - 의원","category":"medical"}]},{"lat":"37.519927833","long":"126.79446202","imageIndex":8,"items":[{"name":"도당미래치과의원","tel":"032-684-2275","addr":"경기도 부천시 도당동 131-11 2층","indutype":"의원 - 치과의원","category":"medical"}]},{"lat":"37.515396733","long":"126.78496198","imageIndex":8,"items":[{"name":"도당한의원","tel":"032-679-3254","addr":"경기도 부천시 도당동 73-8 부양빌딩201호~202호","indutype":"의원 - 한의원","category":"medical"}]},{"lat":"37.520232687","long":"126.7936241","imageIndex":8,"items":[{"name":"동인당한의원","tel":"032-684-6311","addr":"경기도 부천시 도당동 116-15번지","indutype":"의원 - 한의원","category":"medical"}]},{"lat":"37.516424022","long":"126.78504949","imageIndex":8,"items":[{"name":"바른연세외과의원","tel":"032-677-8822","addr":"경기도 부천시 도당동 32-1번지2.3층","indutype":"의원 - 의원","category":"medical"}]},{"lat":"37.51992394","long":"126.79226754","imageIndex":8,"items":[{"name":"봄온누리약국","tel":"032-683-1355","addr":"경기도 부천시 도당동 108-1번지 1층 일부","indutype":"약국 - 약국","category":"medical"},{"name":"현대의원","tel":"032-671-1764","addr":"경기도 부천시 도당동 108-1번지","indutype":"의원 - 의원","category":"medical"}]},{"lat":"37.516423709","long":"126.78487982","imageIndex":8,"items":[{"name":"선한약국","tel":"032-676-5381","addr":"경기도 부천시 도당동 32번지","indutype":"약국 - 약국","category":"medical"}]},{"lat":"37.505871691","long":"126.78410752","imageIndex":8,"items":[{"name":"성가약국","tel":"032-676-3200","addr":"경기도 부천시 도당동 265-39번지","indutype":"약국 - 약국","category":"medical"}]},{"lat":"37.514539948","long":"126.77496558","imageIndex":8,"items":[{"name":"약대원제한의원","tel":"032-675-1075","addr":"경기도 부천시 도당동 213번지 2층 일부","indutype":"의원 - 한의원","category":"medical"}]},{"lat":"37.507062263","long":"126.77996464","imageIndex":8,"items":[{"name":"양영환치과의원","tel":"032-675-2800","addr":"경기도 부천시 도당동 284-1번지","indutype":"의원 - 치과의원","category":"medical"}]},{"lat":"37.52022687","long":"126.79543401","imageIndex":8,"items":[{"name":"엘림동물병원","tel":"032-261-2612","addr":"경기도 부천시 도당동 141-3번지 성진그린타운","indutype":"기타의료기관 - 동물병원","category":"medical"}]},{"lat":"37.519837775","long":"126.78943984","imageIndex":8,"items":[{"name":"연세제일병원","tel":"032-661-9119","addr":"경기도 부천시 도당동 58-2번지 정남프라자 2층 일부와 5층 전부","indutype":"병원 - 병원","category":"medical"}]},{"lat":"37.51953696","long":"126.78751771","imageIndex":8,"items":[{"name":"은성약국","tel":"032-677-8106","addr":"경기도 부천시 도당동 43-3번지 은성프라자 105호","indutype":"약국 - 약국","category":"medical"}]},{"lat":"37.514340879","long":"126.77452505","imageIndex":8,"items":[{"name":"임경대치과의원","tel":"032-675-3052","addr":"경기도 부천시 도당동 214-3번지","indutype":"의원 - 치과의원","category":"medical"}]},{"lat":"37.507153257","long":"126.78043939","imageIndex":8,"items":[{"name":"중앙한의원","tel":"032-679-7533","addr":"경기도 부천시 도당동 279-1번지 2층","indutype":"의원 - 한의원","category":"medical"}]},{"lat":"37.512845505","long":"126.78418896","imageIndex":8,"items":[{"name":"플러스치과의원","tel":"032-682-2828","addr":"경기도 부천시 도당동 95-2번지 와이제니스파크 1층 107호","indutype":"의원 - 치과의원","category":"medical"}]},{"lat":"37.518397177","long":"126.78504375","imageIndex":8,"items":[{"name":"한솔치과","tel":"032-681-2275","addr":"경기도 부천시 도당동 29번지 계남랑데뷰 2층 203호","indutype":"의원 - 치과의원","category":"medical"}]},{"lat":"37.507261507","long":"126.78534755","imageIndex":8,"items":[{"name":"홈케어신태양약국","tel":"032-672-5447","addr":"경기도 부천시 도당동 264-13번지","indutype":"약국 - 약국","category":"medical"}]}]