[{"lat":"37.746370357","long":"126.95047391","imageIndex":17,"items":[{"name":"323아트스튜디오","tel":"031-847-8000","addr":"경기도 양주시 장흥면 석현리 323-2번지","indutype":"문화.취미 - 문화취미기타","category":"other"},{"name":"광문사","tel":"031-847-8000","addr":"경기도 양주시 장흥면 석현리 323-2번지 지하1층","indutype":"서적문구 - 출판 및 인쇄물","category":"other"}]},{"lat":"37.748232824","long":"126.94510572","imageIndex":17,"items":[{"name":"개명연수원","tel":"031-324-7489","addr":"경기도 양주시 장흥면 석현리 231번지","indutype":"용역 서비스 - 사무서비스","category":"other"}]},{"lat":"37.731044589","long":"126.94936167","imageIndex":17,"items":[{"name":"나전칠기전수관","tel":"031-867-3357","addr":"경기도 양주시 장흥면 석현리 394","indutype":"문화.취미 - 문화취미기타","category":"other"}]},{"lat":"37.75428774","long":"126.96977023","imageIndex":17,"items":[{"name":"삼일 중고 소품","tel":"031-855-8177","addr":"경기도 양주시 장흥면 석현리 42-6번지","indutype":"가구 - 기타가구","category":"other"}]},{"lat":"37.735739245","long":"126.95085578","imageIndex":17,"items":[{"name":"석현마을휴게소","tel":"031-855-6449","addr":"경기도 양주시 장흥면 석현리 373-2번지","indutype":"유통업 영리 - 기타유통업","category":"other"}]},{"lat":"37.730098444","long":"126.94905607","imageIndex":17,"items":[{"name":"아름다운 정원마켓 복지매점","tel":"031-847-9399","addr":"경기도 양주시 장흥면 석현리 392-3번지","indutype":"문화.취미 - 문화취미기타","category":"other"}]},{"lat":"37.731873164","long":"126.94869178","imageIndex":17,"items":[{"name":"양주시립 장욱진미술관","tel":"031-8082-4242","addr":"경기도 양주시 장흥면 석현리 산1번지 양주시립장욱진미술관","indutype":"문화.취미 - 티켓","category":"other"},{"name":"양주시청 양주시립장욱진미술관","tel":"031-8082-4242","addr":"경기도 양주시 장흥면 석현리 산1번지","indutype":"문화.취미 - 티켓","category":"other"}]},{"lat":"37.728953858","long":"126.94825151","imageIndex":17,"items":[{"name":"재단법인 천년고찰청련사","tel":"031-836-2439","addr":"경기도 양주시 장흥면 석현리 393-2번지","indutype":"신변잡화 - 기념품점","category":"other"},{"name":"한국불교태고종 청련사","tel":"031-836-2438","addr":"경기도 양주시 장흥면 석현리 393-2번지","indutype":"용역 서비스 - 가례서비스업","category":"other"}]},{"lat":"37.750232915","long":"126.96793387","imageIndex":17,"items":[{"name":"제네시스","tel":"031-872-6641","addr":"경기도 양주시 장흥면 석현리 63번지","indutype":"주방용구 - 주방용구","category":"other"}]}]