[{"lat":"37.37343006","long":"127.4049664","imageIndex":7,"items":[{"name":"건업농장유통","tel":"031-769-8437","addr":"경기도 광주시 곤지암읍 장심리 337-1번지","indutype":"음료식품 - 정육점","category":"food"},{"name":"자연이준선물","tel":"031-762-4272","addr":"경기도 광주시 곤지암읍 장심리 337-1번지 1층","indutype":"건강식품 - 기타건강식품","category":"food"}]},{"lat":"37.38562255","long":"127.3881619","imageIndex":17,"items":[{"name":"다선도예","tel":"031-763-9530","addr":"경기도 광주시 곤지암읍 장심리 44-5번지","indutype":"문화.취미 - 민예·공예품","category":"other"}]},{"lat":"37.3877556","long":"127.3916281","imageIndex":17,"items":[{"name":"백허요","tel":"031-764-7089","addr":"경기도 광주시 곤지암읍 장심리 84번지","indutype":"문화.취미 - 민예·공예품","category":"other"}]},{"lat":"37.37343006","long":"127.4049664","imageIndex":17,"items":[{"name":"제이에스(JS)유통","tel":"","addr":"경기도 광주시 곤지암읍 장심리 337-1번지 1층","indutype":"주방용구 - 주방용구","category":"other"}]},{"lat":"37.38583897","long":"127.3881066","imageIndex":17,"items":[{"name":"진묵도예","tel":"031-632-2230","addr":"경기도 광주시 곤지암읍 장심리 44-1번지","indutype":"문화.취미 - 민예·공예품","category":"other"}]},{"lat":"37.3725946","long":"127.4042394","imageIndex":0,"items":[{"name":"대성자동차공업사","tel":"031-762-4443","addr":"경기도 광주시 곤지암읍 장심리 341-2번지","indutype":"자동차정비 유지 - 자동차정비","category":"car"}]},{"lat":"37.37201083","long":"127.4036831","imageIndex":4,"items":[{"name":"신맛고닭발","tel":"031-765-4590","addr":"경기도 광주시 곤지암읍 장심리 343-10","indutype":"일반휴게음식 - 일반한식","category":"restaurant"}]},{"lat":"37.39308792","long":"127.3866078","imageIndex":5,"items":[{"name":"통나무집 민박","tel":"031-761-8212","addr":"경기도 광주시 곤지암읍 장심리 7번지","indutype":"숙박업 - 여관/기타숙박업","category":"hotel"}]}]