[{"lat":"37.393359044","long":"126.92289534","imageIndex":7,"items":[{"name":"5동소비자공판장","tel":"031-448-0642","addr":"경기도 안양시 만안구 안양동 627-149번지","indutype":"유통업 영리 - 슈퍼마켓","category":"mart"}]},{"lat":"37.392887915","long":"126.90725547","imageIndex":7,"items":[{"name":"IGA숲속마트점","tel":"031-441-6280","addr":"경기도 안양시 만안구 안양동 973-1번지 양지캐슬","indutype":"유통업 영리 - 슈퍼마켓","category":"mart"}]},{"lat":"37.387246129","long":"126.93056899","imageIndex":7,"items":[{"name":"J마트","tel":"031-468-7373","addr":"경기도 안양시 만안구 안양동 504-22번지","indutype":"유통업 영리 - 슈퍼마켓","category":"mart"}]},{"lat":"37.386498221","long":"126.9304568","imageIndex":7,"items":[{"name":"가고파할인마트","tel":"031-445-0300","addr":"경기도 안양시 만안구 안양동 503-26번지","indutype":"유통업 영리 - 슈퍼마켓","category":"mart"}]},{"lat":"37.392307358","long":"126.91378333","imageIndex":7,"items":[{"name":"고향농수산물직매장","tel":"031-448-8617","addr":"경기도 안양시 만안구 안양동 736-4번지","indutype":"유통업 영리 - 슈퍼마켓","category":"mart"}]},{"lat":"37.393693296","long":"126.92420495","imageIndex":7,"items":[{"name":"광일상회","tel":"031-443-1142","addr":"경기도 안양시 만안구 안양동 627-205번지","indutype":"유통업 영리 - 슈퍼마켓","category":"mart"}]},{"lat":"37.383166312","long":"126.93350863","imageIndex":7,"items":[{"name":"광일유통","tel":"031-466-2237","addr":"경기도 안양시 만안구 안양동 594-25번지","indutype":"유통업 영리 - 슈퍼마켓","category":"mart"}]},{"lat":"37.388636618","long":"126.93553616","imageIndex":7,"items":[{"name":"굿마트안양명학점","tel":"031-448-3998","addr":"경기도 안양시 만안구 안양동 195-47번지","indutype":"유통업 영리 - 슈퍼마켓","category":"mart"}]},{"lat":"37.403688592","long":"126.91579154","imageIndex":7,"items":[{"name":"그린마트","tel":"031-441-0221","addr":"경기도 안양시 만안구 안양동 839-1번지","indutype":"유통업 영리 - 슈퍼마켓","category":"mart"}]},{"lat":"37.393334366","long":"126.92645258","imageIndex":7,"items":[{"name":"그린하이퍼마켓","tel":"031-444-5355","addr":"경기도 안양시 만안구 안양동 389-3번지","indutype":"유통업 영리 - 슈퍼마켓","category":"mart"}]},{"lat":"37.387253672","long":"126.92820899","imageIndex":7,"items":[{"name":"기쁨이마트","tel":"031-443-6663","addr":"경기도 안양시 만안구 안양동 494-1번지","indutype":"유통업 영리 - 슈퍼마켓","category":"mart"}]},{"lat":"37.393971092","long":"126.92195738","imageIndex":7,"items":[{"name":"농민마트","tel":"031-466-3537","addr":"경기도 안양시 만안구 안양동 707-136번지","indutype":"유통업 영리 - 슈퍼마켓","category":"mart"}]},{"lat":"37.39527855","long":"126.92342407","imageIndex":7,"items":[{"name":"농민마트","tel":"031-442-6100","addr":"경기도 안양시 만안구 안양동 627-36번지","indutype":"유통업 영리 - 슈퍼마켓","category":"mart"}]},{"lat":"37.39805538","long":"126.91323444","imageIndex":7,"items":[{"name":"뉴그린마트","tel":"031-469-1413","addr":"경기도 안양시 만안구 안양동 914-7번지","indutype":"유통업 영리 - 슈퍼마켓","category":"mart"}]},{"lat":"37.386166973","long":"126.93401399","imageIndex":7,"items":[{"name":"늘사랑마트","tel":"031-464-7400","addr":"경기도 안양시 만안구 안양동 533-6번지 빌로채","indutype":"유통업 영리 - 슈퍼마켓","category":"mart"}]},{"lat":"37.406885965","long":"126.91417268","imageIndex":7,"items":[{"name":"다마요생활용품스토어","tel":"02-2605-8254","addr":"경기도 안양시 만안구 안양동 836-18번지","indutype":"유통업 영리 - 슈퍼마켓","category":"mart"}]},{"lat":"37.410219126","long":"126.91342326","imageIndex":7,"items":[{"name":"대교마트","tel":"031-471-1852","addr":"경기도 안양시 만안구 안양동","indutype":"유통업 영리 - 슈퍼마켓","category":"mart"}]},{"lat":"37.390305996","long":"126.92495378","imageIndex":7,"items":[{"name":"대림아이스크림마트","tel":"031-443-1163","addr":"경기도 안양시 만안구 안양동 470-15번지","indutype":"유통업 영리 - 슈퍼마켓","category":"mart"}]},{"lat":"37.390441966","long":"126.92620709","imageIndex":7,"items":[{"name":"대박DC마트","tel":"070-4222-5846","addr":"경기도 안양시 만안구 안양동 473-5번지","indutype":"유통업 영리 - 슈퍼마켓","category":"mart"}]},{"lat":"37.397693214","long":"126.92336506","imageIndex":7,"items":[{"name":"대영마트","tel":"031-443-7755","addr":"경기도 안양시 만안구 안양동 622-176번지","indutype":"유통업 영리 - 슈퍼마켓","category":"mart"}]},{"lat":"37.405747931","long":"126.92292735","imageIndex":7,"items":[{"name":"대우슈퍼","tel":"","addr":"경기도 안양시 만안구 안양동 70번지 대우아파트","indutype":"유통업 영리 - 슈퍼마켓","category":"mart"}]},{"lat":"37.388859458","long":"126.93142564","imageIndex":7,"items":[{"name":"동구마트","tel":"031-443-3227","addr":"경기도 안양시 만안구 안양동 511번지","indutype":"유통업 영리 - 슈퍼마켓","category":"mart"}]},{"lat":"37.390639695","long":"126.9254503","imageIndex":7,"items":[{"name":"돼지슈퍼","tel":"031-468-2782","addr":"경기도 안양시 만안구 안양동 469-21번지","indutype":"유통업 영리 - 슈퍼마켓","category":"mart"}]},{"lat":"37.393943927","long":"126.93617511","imageIndex":7,"items":[{"name":"래미안할인마트","tel":"031-347-1496","addr":"경기도 안양시 만안구 안양동 1393번지 래미안안양메가트리아","indutype":"유통업 영리 - 슈퍼마켓","category":"mart"}]},{"lat":"37.400661383","long":"126.91603221","imageIndex":7,"items":[{"name":"럭키슈퍼","tel":"031-465-1902","addr":"경기도 안양시 만안구 안양동 873-156번지","indutype":"유통업 영리 - 슈퍼마켓","category":"mart"}]},{"lat":"37.392085505","long":"126.9066241","imageIndex":7,"items":[{"name":"루디아슈퍼","tel":"070-8186-4845","addr":"경기도 안양시 만안구 안양동 991-29번지","indutype":"유통업 영리 - 슈퍼마켓","category":"mart"}]},{"lat":"37.392334473","long":"126.91389622","imageIndex":7,"items":[{"name":"만수슈퍼","tel":"031-443-8755","addr":"경기도 안양시 만안구 안양동 736-5번지","indutype":"유통업 영리 - 슈퍼마켓","category":"mart"}]},{"lat":"37.381113098","long":"126.93539611","imageIndex":7,"items":[{"name":"명학 슈퍼마켓","tel":"031-446-7077","addr":"경기도 안양시 만안구 안양동 353-4번지","indutype":"유통업 영리 - 슈퍼마켓","category":"mart"}]},{"lat":"37.396139213","long":"126.91725709","imageIndex":7,"items":[{"name":"백양슈퍼","tel":"031-443-0893","addr":"경기도 안양시 만안구 안양동 711-310번지","indutype":"유통업 영리 - 슈퍼마켓","category":"mart"}]},{"lat":"37.397694177","long":"126.92481061","imageIndex":7,"items":[{"name":"별마트","tel":"031-442-9596","addr":"경기도 안양시 만안구 안양동 622-17번지","indutype":"유통업 영리 - 슈퍼마켓","category":"mart"}]},{"lat":"37.401884808","long":"126.91342188","imageIndex":7,"items":[{"name":"보라매슈퍼","tel":"031-468-1671","addr":"경기도 안양시 만안구 안양동 900-52번지","indutype":"유통업 영리 - 슈퍼마켓","category":"mart"}]},{"lat":"37.393196436","long":"126.90998792","imageIndex":7,"items":[{"name":"보명슈퍼","tel":"031-466-3478","addr":"경기도 안양시 만안구 안양동 759-29번지","indutype":"유통업 영리 - 슈퍼마켓","category":"mart"}]},{"lat":"37.379473681","long":"126.93614276","imageIndex":7,"items":[{"name":"보훈마트","tel":"031-469-3172","addr":"경기도 안양시 만안구 안양동","indutype":"유통업 영리 - 슈퍼마켓","category":"mart"}]},{"lat":"37.384361302","long":"126.92800862","imageIndex":7,"items":[{"name":"부영마트","tel":"031-449-5766","addr":"경기도 안양시 만안구 안양동 541-11번지","indutype":"유통업 영리 - 슈퍼마켓","category":"mart"}]},{"lat":"37.418025533","long":"126.9321774","imageIndex":7,"items":[{"name":"산사랑편의점","tel":"031-471-5689","addr":"경기도 안양시 만안구 안양동 1367-2번지","indutype":"유통업 영리 - 슈퍼마켓","category":"mart"}]},{"lat":"37.385778322","long":"126.90648538","imageIndex":7,"items":[{"name":"삼거리마트","tel":"031-442-1428","addr":"경기도 안양시 만안구 안양동 1054-2번지","indutype":"유통업 영리 - 슈퍼마켓","category":"mart"}]},{"lat":"37.418053298","long":"126.91948014","imageIndex":7,"items":[{"name":"삼안상회","tel":"031-473-7355","addr":"경기도 안양시 만안구 안양동 1319-7번지","indutype":"유통업 영리 - 슈퍼마켓","category":"mart"}]},{"lat":"37.390305713","long":"126.93956602","imageIndex":7,"items":[{"name":"새로아마트","tel":"031-465-7178","addr":"경기도 안양시 만안구 안양동 190-14번지","indutype":"유통업 영리 - 슈퍼마켓","category":"mart"}]},{"lat":"37.403690485","long":"126.91840052","imageIndex":7,"items":[{"name":"성심유통","tel":"031-443-8145","addr":"경기도 안양시 만안구 안양동 688-17번지","indutype":"유통업 영리 - 슈퍼마켓","category":"mart"}]},{"lat":"37.392688653","long":"126.91767884","imageIndex":7,"items":[{"name":"성원마트","tel":"031-444-9199","addr":"경기도 안양시 만안구 안양동","indutype":"유통업 영리 - 슈퍼마켓","category":"mart"}]},{"lat":"37.385139867","long":"126.93409397","imageIndex":7,"items":[{"name":"성원슈퍼","tel":"031-441-2442","addr":"경기도 안양시 만안구 안양동 533-29번지","indutype":"유통업 영리 - 슈퍼마켓","category":"mart"}]},{"lat":"37.383858496","long":"126.93084324","imageIndex":7,"items":[{"name":"소망마트","tel":"031-466-5949","addr":"경기도 안양시 만안구 안양동","indutype":"유통업 영리 - 슈퍼마켓","category":"mart"}]},{"lat":"37.393749556","long":"126.91456083","imageIndex":7,"items":[{"name":"소비자유통마트","tel":"031-468-5702","addr":"경기도 안양시 만안구 안양동 771-1번지","indutype":"유통업 영리 - 슈퍼마켓","category":"mart"}]},{"lat":"37.393497316","long":"126.91461759","imageIndex":7,"items":[{"name":"소비자할인마트","tel":"031-468-5702","addr":"경기도 안양시 만안구 안양동 718-4번지","indutype":"유통업 영리 - 슈퍼마켓","category":"mart"}]},{"lat":"37.385525883","long":"126.90629374","imageIndex":7,"items":[{"name":"수리산슈퍼","tel":"031-441-4789","addr":"경기도 안양시 만안구 안양동","indutype":"유통업 영리 - 슈퍼마켓","category":"mart"}]},{"lat":"37.391276799","long":"126.9093692","imageIndex":7,"items":[{"name":"수원슈퍼","tel":"031-449-6657","addr":"경기도 안양시 만안구 안양동 1015-5번지","indutype":"유통업 영리 - 슈퍼마켓","category":"mart"}]},{"lat":"37.376610491","long":"126.93983721","imageIndex":7,"items":[{"name":"수정마트","tel":"031-449-4232","addr":"경기도 안양시 만안구 안양동 377-1번지","indutype":"유통업 영리 - 슈퍼마켓","category":"mart"}]},{"lat":"37.386253686","long":"126.92842453","imageIndex":7,"items":[{"name":"신성슈퍼","tel":"031-466-3313","addr":"경기도 안양시 만안구 안양동","indutype":"유통업 영리 - 슈퍼마켓","category":"mart"}]},{"lat":"37.385807824","long":"126.9362049","imageIndex":7,"items":[{"name":"아이지에이마트","tel":"031-441-5893","addr":"경기도 안양시 만안구 안양동 201-23번지","indutype":"유통업 영리 - 슈퍼마켓","category":"mart"}]},{"lat":"37.39677219","long":"126.92045237","imageIndex":7,"items":[{"name":"엔젤마트","tel":"","addr":"경기도 안양시 만안구 안양동 676-136번지","indutype":"유통업 영리 - 슈퍼마켓","category":"mart"}]},{"lat":"37.4005286","long":"126.91931887","imageIndex":7,"items":[{"name":"엘마트","tel":"031-442-4260","addr":"경기도 안양시 만안구 안양동","indutype":"유통업 영리 - 슈퍼마켓","category":"mart"}]},{"lat":"37.39161213","long":"126.92445556","imageIndex":7,"items":[{"name":"엠마트","tel":"031-466-9765","addr":"경기도 안양시 만안구 안양동 453-5번지","indutype":"유통업 영리 - 슈퍼마켓","category":"mart"}]},{"lat":"37.3950006","long":"126.92547969","imageIndex":7,"items":[{"name":"영광슈퍼","tel":"031-442-5331","addr":"경기도 안양시 만안구 안양동 622-231번지","indutype":"유통업 영리 - 슈퍼마켓","category":"mart"}]},{"lat":"37.395722221","long":"126.92673249","imageIndex":7,"items":[{"name":"영진슈퍼","tel":"031-442-1903","addr":"경기도 안양시 만안구 안양동 622-56번지","indutype":"유통업 영리 - 슈퍼마켓","category":"mart"}]},{"lat":"37.411165998","long":"126.9145065","imageIndex":7,"items":[{"name":"영화마트","tel":"031-473-9017","addr":"경기도 안양시 만안구 안양동 817-15번지 영화아이닉스아파트상가","indutype":"유통업 영리 - 슈퍼마켓","category":"mart"}]},{"lat":"37.393570674","long":"126.9163453","imageIndex":7,"items":[{"name":"왕궁슈퍼","tel":"031-444-2116","addr":"경기도 안양시 만안구 안양동 709-16번지 수리산성원상떼빌1차","indutype":"유통업 영리 - 슈퍼마켓","category":"mart"}]},{"lat":"37.396468462","long":"126.9242924","imageIndex":7,"items":[{"name":"우리 상회","tel":"031-466-8974","addr":"경기도 안양시 만안구 안양동 622-121번지","indutype":"유통업 영리 - 슈퍼마켓","category":"mart"}]},{"lat":"37.397466756","long":"126.92159224","imageIndex":7,"items":[{"name":"우리마트","tel":"031-464-2333","addr":"경기도 안양시 만안구 안양동 676-145번지","indutype":"유통업 영리 - 슈퍼마켓","category":"mart"}]},{"lat":"37.387581281","long":"126.93353844","imageIndex":7,"items":[{"name":"우리매점","tel":"031-442-9660","addr":"경기도 안양시 만안구 안양동 528-13번지","indutype":"유통업 영리 - 슈퍼마켓","category":"mart"}]},{"lat":"37.415077682","long":"126.91628667","imageIndex":7,"items":[{"name":"우리슈퍼","tel":"031-472-5510","addr":"경기도 안양시 만안구 안양동 30-11번지","indutype":"유통업 영리 - 슈퍼마켓","category":"mart"}]},{"lat":"37.385248244","long":"126.93453425","imageIndex":7,"items":[{"name":"우리할인마트","tel":"031-466-5850","addr":"경기도 안양시 만안구 안양동 533-31번지","indutype":"유통업 영리 - 슈퍼마켓","category":"mart"}]},{"lat":"37.389669948","long":"126.93073605","imageIndex":7,"items":[{"name":"우리홈마트","tel":"031-468-6704","addr":"경기도 안양시 만안구 안양동 508번지","indutype":"유통업 영리 - 슈퍼마켓","category":"mart"}]},{"lat":"37.396441914","long":"126.91236678","imageIndex":7,"items":[{"name":"원스(WON'S)","tel":"031-466-3993","addr":"경기도 안양시 만안구 안양동 959번지","indutype":"유통업 영리 - 슈퍼마켓","category":"mart"}]},{"lat":"37.396550046","long":"126.92503766","imageIndex":7,"items":[{"name":"웰빙스낵마켓","tel":"","addr":"경기도 안양시 만안구 안양동 1189-1번지","indutype":"유통업 영리 - 슈퍼마켓","category":"mart"}]},{"lat":"37.413636724","long":"126.9171807","imageIndex":7,"items":[{"name":"유원지 마트","tel":"031-472-6976","addr":"경기도 안양시 만안구 안양동 40-5번지","indutype":"유통업 영리 - 슈퍼마켓","category":"mart"}]},{"lat":"37.39761023","long":"126.92059826","imageIndex":7,"items":[{"name":"정일D.C마트","tel":"031-443-4001","addr":"경기도 안양시 만안구 안양동 676-126번지","indutype":"유통업 영리 - 슈퍼마켓","category":"mart"}]},{"lat":"37.398140134","long":"126.91820347","imageIndex":7,"items":[{"name":"주식회사 안양농민식자재마트","tel":"","addr":"경기도 안양시 만안구 안양동 711-2번지","indutype":"유통업 영리 - 슈퍼마켓","category":"mart"}]},{"lat":"37.40421913","long":"126.91436783","imageIndex":7,"items":[{"name":"준할인마트","tel":"031-468-7291","addr":"경기도 안양시 만안구 안양동 825-38번지","indutype":"유통업 영리 - 슈퍼마켓","category":"mart"}]},{"lat":"37.401022618","long":"126.91717248","imageIndex":7,"items":[{"name":"중국식품","tel":"","addr":"경기도 안양시 만안구 안양동 873-118번지","indutype":"유통업 영리 - 슈퍼마켓","category":"mart"}]},{"lat":"37.40275026","long":"126.91406461","imageIndex":7,"items":[{"name":"중국식품(한문)","tel":"00-7599-8698","addr":"경기도 안양시 만안구 안양동 693-11번지","indutype":"유통업 영리 - 슈퍼마켓","category":"mart"}]},{"lat":"37.396555466","long":"126.91976372","imageIndex":7,"items":[{"name":"중앙DC백화점","tel":"031-447-7202","addr":"경기도 안양시 만안구 안양동 711-51번지","indutype":"유통업 영리 - 슈퍼마켓","category":"mart"}]},{"lat":"37.397113621","long":"126.91909679","imageIndex":7,"items":[{"name":"중앙마트","tel":"031-442-7373","addr":"경기도 안양시 만안구 안양동 711-18번지","indutype":"유통업 영리 - 슈퍼마켓","category":"mart"}]},{"lat":"37.39849784","long":"126.92753152","imageIndex":7,"items":[{"name":"진흥슈퍼","tel":"031-466-1087","addr":"경기도 안양시 만안구 안양동","indutype":"유통업 영리 - 슈퍼마켓","category":"mart"}]},{"lat":"37.378861832","long":"126.93764495","imageIndex":7,"items":[{"name":"천수하이퍼마켓","tel":"031-441-2224","addr":"경기도 안양시 만안구 안양동 369-3번지","indutype":"유통업 영리 - 슈퍼마켓","category":"mart"}]},{"lat":"37.395553385","long":"126.93048196","imageIndex":7,"items":[{"name":"초록마을 안양덕천점","tel":"031-466-3567","addr":"경기도 안양시 만안구 안양동 1391번지","indutype":"유통업 영리 - 슈퍼마켓","category":"mart"}]},{"lat":"37.400748377","long":"126.92447992","imageIndex":7,"items":[{"name":"초록마을 안양역점","tel":"031-444-6249","addr":"경기도 안양시 만안구 안양동 1376번지","indutype":"유통업 영리 - 슈퍼마켓","category":"mart"}]},{"lat":"37.390195113","long":"126.93509437","imageIndex":7,"items":[{"name":"팔팔슈퍼","tel":"031-468-5440","addr":"경기도 안양시 만안구 안양동 194-27번지","indutype":"유통업 영리 - 슈퍼마켓","category":"mart"}]},{"lat":"37.389970349","long":"126.93595278","imageIndex":7,"items":[{"name":"팩토피아슈퍼","tel":"031-467-2828","addr":"경기도 안양시 만안구 안양동 196번지","indutype":"유통업 영리 - 슈퍼마켓","category":"mart"}]},{"lat":"37.383613513","long":"126.9280884","imageIndex":7,"items":[{"name":"푸른상회","tel":"031-449-5489","addr":"경기도 안양시 만안구 안양동 459-5번지","indutype":"유통업 영리 - 슈퍼마켓","category":"mart"}]},{"lat":"37.381415693","long":"126.92911806","imageIndex":7,"items":[{"name":"하나로마트","tel":"031-465-3336","addr":"경기도 안양시 만안구 안양동 401-2번지","indutype":"유통업 영리 - 슈퍼마켓","category":"mart"}]},{"lat":"37.39394333","long":"126.92089589","imageIndex":7,"items":[{"name":"하나로할인마트","tel":"031-446-2984","addr":"경기도 안양시 만안구 안양동 707-124번지","indutype":"유통업 영리 - 슈퍼마켓","category":"mart"}]},{"lat":"37.391719808","long":"126.92378919","imageIndex":7,"items":[{"name":"하나마트","tel":"031-464-8300","addr":"경기도 안양시 만안구 안양동 451-4번지","indutype":"유통업 영리 - 슈퍼마켓","category":"mart"}]},{"lat":"37.389691219","long":"126.9096196","imageIndex":7,"items":[{"name":"하이슈퍼","tel":"031-441-5810","addr":"경기도 안양시 만안구 안양동 1029-13번지","indutype":"유통업 영리 - 슈퍼마켓","category":"mart"}]},{"lat":"37.397744422","long":"126.91923161","imageIndex":7,"items":[{"name":"한라마트","tel":"031-464-1670","addr":"경기도 안양시 만안구 안양동 676-177번지","indutype":"유통업 영리 - 슈퍼마켓","category":"mart"}]},{"lat":"37.40014063","long":"126.91856262","imageIndex":7,"items":[{"name":"한사랑슈퍼","tel":"031-444-0781","addr":"경기도 안양시 만안구 안양동 695-188번지","indutype":"유통업 영리 - 슈퍼마켓","category":"mart"}]},{"lat":"37.388413989","long":"126.94031288","imageIndex":7,"items":[{"name":"한성슈퍼","tel":"031-442-4212","addr":"경기도 안양시 만안구 안양동 198-48번지","indutype":"유통업 영리 - 슈퍼마켓","category":"mart"}]},{"lat":"37.390472032","long":"126.93104017","imageIndex":7,"items":[{"name":"한아름마트","tel":"031-444-5007","addr":"경기도 안양시 만안구 안양동 437-1번지","indutype":"유통업 영리 - 슈퍼마켓","category":"mart"}]},{"lat":"37.387805058","long":"126.9310653","imageIndex":7,"items":[{"name":"한아름슈퍼","tel":"031-468-9570","addr":"경기도 안양시 만안구 안양동 510-38번지","indutype":"유통업 영리 - 슈퍼마켓","category":"mart"}]},{"lat":"37.40088727","long":"126.91690158","imageIndex":7,"items":[{"name":"한양코사마트","tel":"031-449-0155","addr":"경기도 안양시 만안구 안양동 873-117번지","indutype":"유통업 영리 - 슈퍼마켓","category":"mart"}]},{"lat":"37.40135879","long":"126.92112498","imageIndex":7,"items":[{"name":"한중상회","tel":"031-449-4930","addr":"경기도 안양시 만안구 안양동 668-43번지","indutype":"유통업 영리 - 슈퍼마켓","category":"mart"}]},{"lat":"37.392416839","long":"126.92881367","imageIndex":7,"items":[{"name":"해뜨는 마트","tel":"031-466-6285","addr":"경기도 안양시 만안구 안양동 397-20번지","indutype":"유통업 영리 - 슈퍼마켓","category":"mart"}]},{"lat":"37.396613511","long":"126.91289736","imageIndex":7,"items":[{"name":"현대슈퍼","tel":"031-447-6706","addr":"경기도 안양시 만안구 안양동 957-1번지","indutype":"유통업 영리 - 슈퍼마켓","category":"mart"}]},{"lat":"37.388501342","long":"126.90893226","imageIndex":7,"items":[{"name":"현대슈퍼","tel":"031-442-4201","addr":"경기도 안양시 만안구 안양동 1032-37번지","indutype":"유통업 영리 - 슈퍼마켓","category":"mart"}]},{"lat":"37.384551525","long":"126.9296231","imageIndex":7,"items":[{"name":"현진G마트","tel":"031-388-6964","addr":"경기도 안양시 만안구 안양동 543-2번지 현진그린빌","indutype":"유통업 영리 - 슈퍼마켓","category":"mart"}]},{"lat":"37.39257802","long":"126.92723254","imageIndex":7,"items":[{"name":"형제미니슈퍼","tel":"031-466-1727","addr":"경기도 안양시 만안구 안양동 414-1번지","indutype":"유통업 영리 - 슈퍼마켓","category":"mart"}]},{"lat":"37.396279415","long":"126.92454104","imageIndex":7,"items":[{"name":"형제슈퍼","tel":"031-449-5752","addr":"경기도 안양시 만안구 안양동 622-96번지","indutype":"유통업 영리 - 슈퍼마켓","category":"mart"}]},{"lat":"37.392636595","long":"126.90845281","imageIndex":7,"items":[{"name":"혜원수퍼","tel":"031-442-3002","addr":"경기도 안양시 만안구 안양동 994-12번지","indutype":"유통업 영리 - 슈퍼마켓","category":"mart"}]},{"lat":"37.40655361","long":"126.91553973","imageIndex":7,"items":[{"name":"화일슈퍼문구","tel":"031-469-2456","addr":"경기도 안양시 만안구 안양동 849-12번지","indutype":"유통업 영리 - 슈퍼마켓","category":"mart"}]}]