[{"lat":"36.978493984","long":"127.06573159","imageIndex":7,"items":[{"name":"(주)진미원","tel":"031-654-1631","addr":"경기도 평택시 팽성읍 두리 104-8번지","indutype":"음료식품 - 기타음료식품","category":"food"}]},{"lat":"36.969915867","long":"127.06553363","imageIndex":7,"items":[{"name":"주식회사 대가축산","tel":"031-656-0037","addr":"경기도 평택시 팽성읍 두리 33-21번지","indutype":"음료식품 - 정육점","category":"food"}]},{"lat":"36.968971131","long":"127.06283772","imageIndex":7,"items":[{"name":"카톡복권방","tel":"031-691-8758","addr":"경기도 평택시 팽성읍 두리 37-3번지 6호","indutype":"음료식품 - 기타음료식품","category":"food"}]},{"lat":"36.969556658","long":"127.06317507","imageIndex":17,"items":[{"name":"GS25팽성두리점","tel":"","addr":"경기도 평택시 팽성읍 두리 36-2번지 101호","indutype":"유통업 영리 - 편 의 점","category":"other"}]},{"lat":"36.971222542","long":"127.0653101","imageIndex":17,"items":[{"name":"대한화성","tel":"031-691-5621","addr":"경기도 평택시 팽성읍 두리 29-1","indutype":"유통업 영리 - 기타유통업","category":"other"}]},{"lat":"36.97829737","long":"127.06258672","imageIndex":17,"items":[{"name":"도서총판 대두","tel":"031-656-0396","addr":"경기도 평택시 팽성읍 두리 141-5번지","indutype":"서적문구 - 일반서적","category":"other"}]},{"lat":"36.96927808","long":"127.06167006","imageIndex":17,"items":[{"name":"모던주택관리","tel":"031-657-1879","addr":"경기도 평택시 팽성읍 두리 228-26번지 1호","indutype":"용역 서비스 - 종합용역","category":"other"},{"name":"씨유팽성안정로점","tel":"031-691-8304","addr":"경기도 평택시 팽성읍 두리 228-26번지 5호","indutype":"유통업 영리 - 편 의 점","category":"other"}]},{"lat":"36.977250283","long":"127.06614612","imageIndex":17,"items":[{"name":"모어댄플레이","tel":"031-654-4096","addr":"경기도 평택시 팽성읍 두리 95-2번지","indutype":"서적문구 - 기타서적문구","category":"other"}]},{"lat":"36.970522903","long":"127.05889721","imageIndex":17,"items":[{"name":"세븐일레븐팽성동우2호점","tel":"031-1577-0711","addr":"경기도 평택시 팽성읍 두리 237번지","indutype":"유통업 영리 - 편 의 점","category":"other"}]},{"lat":"36.975772373","long":"127.06642566","imageIndex":17,"items":[{"name":"세탁풍경","tel":"031-692-3110","addr":"경기도 평택시 팽성읍 두리 81-7번지 1층","indutype":"수리서비스 - 세탁소","category":"other"}]},{"lat":"36.968692459","long":"127.06151239","imageIndex":17,"items":[{"name":"신일특수목재","tel":"031-618-3648","addr":"경기도 평택시 팽성읍 두리 231-1번지","indutype":"건축자재 - 기타건축자재","category":"other"}]},{"lat":"36.970404831","long":"127.06083991","imageIndex":17,"items":[{"name":"에이치오투(HO2) Enterprise","tel":"031-8347-2082","addr":"경기도 평택시 팽성읍 두리 233번지 센테리움 B동 102호","indutype":"의류 - 내의판매","category":"other"}]},{"lat":"36.978412684","long":"127.06611339","imageIndex":17,"items":[{"name":"예진종합이앤시","tel":"031-656-1482","addr":"경기도 평택시 팽성읍 두리 106-7번지","indutype":"용역 서비스 - 기타용역서비스","category":"other"}]},{"lat":"36.970637975","long":"127.06311977","imageIndex":17,"items":[{"name":"이지컴퍼니","tel":"031-111-1111","addr":"경기도 평택시 팽성읍 두리 40-5번지","indutype":"유통업 영리 - 기타유통업","category":"other"}]},{"lat":"36.975439126","long":"127.06614462","imageIndex":17,"items":[{"name":"일출시스템","tel":"031-658-9752","addr":"경기도 평택시 팽성읍 두리 78번지","indutype":"전기제품 - 기타전기제품","category":"other"}]},{"lat":"36.969413085","long":"127.0619846","imageIndex":17,"items":[{"name":"종합신문팽성지국","tel":"031-691-3800","addr":"경기도 평택시 팽성읍 두리 37-1번지","indutype":"서적문구 - 정기간행물","category":"other"}]},{"lat":"36.971222174","long":"127.06600637","imageIndex":17,"items":[{"name":"현대칼라강판","tel":"031-652-2526","addr":"경기도 평택시 팽성읍 두리 72-1번지","indutype":"건축자재 - 기타건축자재","category":"other"}]},{"lat":"36.969719522","long":"127.06183885","imageIndex":17,"items":[{"name":"혜성종합설비","tel":"031-684-7564","addr":"경기도 평택시 팽성읍 두리 228-2번지 101호","indutype":"용역 서비스 - 기타용역서비스","category":"other"}]},{"lat":"36.969771825","long":"127.06528646","imageIndex":4,"items":[{"name":"김명자낙지마당 팽성점","tel":"031-652-3389","addr":"경기도 평택시 팽성읍 두리 33-2 1,2층","indutype":"일반휴게음식 - 일반한식","category":"restaurant"},{"name":"김명자낙지마당 팽성점","tel":"031-691-4322","addr":"경기도 평택시 팽성읍 두리 33-2번지","indutype":"음식점 - 한식","category":"restaurant"}]},{"lat":"36.968971131","long":"127.06283772","imageIndex":4,"items":[{"name":"비오비(B.O.B)","tel":"031-692-4618","addr":"경기도 평택시 팽성읍 두리 37-3번지","indutype":"일반휴게음식 - 스넥","category":"restaurant"},{"name":"장수촌팽성점","tel":"031-652-5258","addr":"경기도 평택시 팽성읍 두리 37-3번지","indutype":"일반휴게음식 - 일반한식","category":"restaurant"}]},{"lat":"36.970023877","long":"127.06575832","imageIndex":4,"items":[{"name":"아리랑","tel":"031-652-3389","addr":"경기도 평택시 팽성읍 두리 33-1번지","indutype":"음식점 - 한식","category":"restaurant"}]},{"lat":"36.969915867","long":"127.06553363","imageIndex":4,"items":[{"name":"주식회사 대가축산","tel":"031-656-0037","addr":"경기도 평택시 팽성읍 두리 33-21번지 1층","indutype":"일반휴게음식 - 일반한식","category":"restaurant"}]},{"lat":"36.970131875","long":"127.06600547","imageIndex":4,"items":[{"name":"주식회사 제이제이","tel":"031-658-5500","addr":"경기도 평택시 팽성읍 두리 27-3번지","indutype":"일반휴게음식 - 서양음식","category":"restaurant"}]},{"lat":"36.969556658","long":"127.06317507","imageIndex":0,"items":[{"name":"랩광고디자인","tel":"031-000-0000","addr":"경기도 평택시 팽성읍 두리 36-2번지 105호","indutype":"자동차정비 유지 - 카인테리어","category":"car"},{"name":"클래시오토 (classy Auto)","tel":"","addr":"경기도 평택시 팽성읍 두리 36-2번지 106호","indutype":"자동차정비 유지 - 카인테리어","category":"car"}]},{"lat":"36.9694934","long":"127.06353438","imageIndex":0,"items":[{"name":"팽성점현대자동차","tel":"031-691-4856","addr":"경기도 평택시 팽성읍 두리 36-22번지","indutype":"자동차정비 유지 - 자동차정비","category":"car"}]},{"lat":"36.968971131","long":"127.06283772","imageIndex":13,"items":[{"name":"살롱드제이미","tel":"031-651-3703","addr":"경기도 평택시 팽성읍 두리 37-3번지","indutype":"보건위생 - 미용원","category":"beauty"},{"name":"살롱드제이미네일","tel":"031-651-3703","addr":"경기도 평택시 팽성읍 두리 37-3번지 2동","indutype":"보건위생 - 피부미용실","category":"beauty"}]},{"lat":"36.968854519","long":"127.06178203","imageIndex":9,"items":[{"name":"현대드림주유소","tel":"031-691-7716","addr":"경기도 평택시 팽성읍 두리 231-8번지","indutype":"소매업 - 주유소","category":"oil"}]}]