[{"lat":"37.715715925","long":"127.20758465","imageIndex":16,"items":[{"name":"(시립)준비된어린이집[아이행복]","tel":"031-529-0271","addr":"경기도 남양주시 진접읍 금곡리 778-4번지","indutype":"학원 - 유아원","category":"study"}]},{"lat":"37.712769659","long":"127.1970067","imageIndex":16,"items":[{"name":"(시립)풍양어린이집[아이행복]","tel":"031-574-5901","addr":"경기도 남양주시 진접읍 금곡리 1098번지 휴먼시아17단지","indutype":"학원 - 유아원","category":"study"}]},{"lat":"37.717688854","long":"127.19703087","imageIndex":16,"items":[{"name":"1.618학원","tel":"031-575-1681","addr":"경기도 남양주시 진접읍 금곡리 1076-3번지 아트프라자 301호","indutype":"학원 - 보습학원","category":"study"},{"name":"뮤엠영어해밀초영어교습소","tel":"031-571-0508","addr":"경기도 남양주시 진접읍 금곡리 1076-3번지 아트프라자 3층 303호","indutype":"학원 - 외국어학원","category":"study"},{"name":"스위트어학원","tel":"031-572-0579","addr":"경기도 남양주시 진접읍 금곡리 1076-3번지 아트프라자 201호","indutype":"학원 - 외국어학원","category":"study"}]},{"lat":"37.724715524","long":"127.20814253","imageIndex":16,"items":[{"name":"C3영어학원","tel":"031-527-7233","addr":"경기도 남양주시 진접읍 금곡리 1002-1번지 새롬프라자 3층 301,302호","indutype":"학원 - 외국어학원","category":"study"},{"name":"INS미술교습소","tel":"031-575-4398","addr":"경기도 남양주시 진접읍 금곡리 1002-1번지 새롬프라자 404호","indutype":"학원 - 예·체능계학원","category":"study"},{"name":"e해법셀파수학학원","tel":"031-575-0133","addr":"경기도 남양주시 진접읍 금곡리 1002-1번지 새롬프라자 403호","indutype":"학원 - 보습학원","category":"study"},{"name":"멀티스터디수학교습소","tel":"","addr":"경기도 남양주시 진접읍 금곡리 1002-1번지 3층 304호","indutype":"학원 - 보습학원","category":"study"},{"name":"조민희뮤직캐슬음악학원","tel":"031-573-0302","addr":"경기도 남양주시 진접읍 금곡리 1002-1번지 3층 303호","indutype":"학원 - 예·체능계학원","category":"study"},{"name":"파워점핑줄넘기유아스포츠","tel":"031-528-7333","addr":"경기도 남양주시 진접읍 금곡리 1002-1번지 새롬프라자 4층 401,402호","indutype":"학원 - 기타 교육기관","category":"study"}]},{"lat":"37.714849556","long":"127.19780602","imageIndex":16,"items":[{"name":"GMS정훈도장","tel":"031-574-4059","addr":"경기도 남양주시 진접읍 금곡리 1094-1번지 폴리프라자II 401호","indutype":"학원 - 예·체능계학원","category":"study"},{"name":"소리엘어드벤쳐음악학원","tel":"031-529-0771","addr":"경기도 남양주시 진접읍 금곡리 1094-1번지 플리프라자2) 403호","indutype":"학원 - 예·체능계학원","category":"study"},{"name":"수와식영재학원","tel":"031-529-1319","addr":"경기도 남양주시 진접읍 금곡리 1094-1번지 (폴리프라자II 502호,503호)","indutype":"학원 - 보습학원","category":"study"},{"name":"진접 예당검도관","tel":"031-571-0086","addr":"경기도 남양주시 진접읍 금곡리 1094-1번지 폴리프라자II 301호","indutype":"학원 - 예·체능계학원","category":"study"},{"name":"진접아발론어학원","tel":"031-529-0584","addr":"경기도 남양주시 진접읍 금곡리 1094-1번지 폴리프라자2) 501호","indutype":"학원 - 외국어학원","category":"study"},{"name":"진접영재들의미술상자미술교습소","tel":"031-527-5560","addr":"경기도 남양주시 진접읍 금곡리 1094-1번지 폴리프라자II 402호","indutype":"학원 - 예·체능계학원","category":"study"}]},{"lat":"37.712244384","long":"127.18747892","imageIndex":16,"items":[{"name":"R모드 입시미술학원","tel":"031-575-5665","addr":"경기도 남양주시 진접읍 금곡리 1082-1번지 401호","indutype":"학원 - 예·체능계학원","category":"study"}]},{"lat":"37.723815064","long":"127.20785647","imageIndex":16,"items":[{"name":"SLT스카이학원","tel":"031-574-0577","addr":"경기도 남양주시 진접읍 금곡리 1117번지 신안안스빌 상가동 201호,202호의 1/2호","indutype":"학원 - 보습학원","category":"study"},{"name":"예당음악학원","tel":"031-527-2090","addr":"경기도 남양주시 진접읍 금곡리 1117","indutype":"학원 - 예·체능계학원","category":"study"},{"name":"용인대예당태권도","tel":"031-573-8200","addr":"경기도 남양주시 진접읍 금곡리 1117 신안인스빌 204호.205호","indutype":"학원 - 예·체능계학원","category":"study"},{"name":"은새어린이집[아이행복]","tel":"031-571-8854","addr":"경기도 남양주시 진접읍 금곡리 1117번지 신안인스빌","indutype":"학원 - 유아원","category":"study"}]},{"lat":"37.719959408","long":"127.19694606","imageIndex":16,"items":[{"name":"강무관합기도","tel":"031-529-3289","addr":"경기도 남양주시 진접읍 금곡리 974-1번지 401호","indutype":"학원 - 예·체능계학원","category":"study"},{"name":"두뇌로영재학원","tel":"031-572-0055","addr":"경기도 남양주시 진접읍 금곡리 974-1번지 금화프라자 502호","indutype":"학원 - 보습학원","category":"study"},{"name":"루트원영수학원","tel":"031-529-5505","addr":"경기도 남양주시 진접읍 금곡리 974-1번지 602호","indutype":"학원 - 보습학원","category":"study"},{"name":"린덴바움학원","tel":"070-7796-1115","addr":"경기도 남양주시 진접읍 금곡리 974-1번지 5층 501호","indutype":"학원 - 예·체능계학원","category":"study"},{"name":"아카데미라운지 진접독서실","tel":"031-528-1079","addr":"경기도 남양주시 진접읍 금곡리 974-1번지 603,604호","indutype":"학원 - 독서실","category":"study"},{"name":"위드플러스학원","tel":"","addr":"경기도 남양주시 진접읍 금곡리 974-1번지 204호","indutype":"학원 - 보습학원","category":"study"},{"name":"제이와이에스영어학원","tel":"031-528-0512","addr":"경기도 남양주시 진접읍 금곡리 974-1번지 5층 502호","indutype":"학원 - 보습학원","category":"study"},{"name":"폴수학학원","tel":"031-528-4689","addr":"경기도 남양주시 진접읍 금곡리 974-1번지 304호","indutype":"학원 - 보습학원","category":"study"},{"name":"표현미술학원","tel":"031-572-0730","addr":"경기도 남양주시 진접읍 금곡리 974-1번지 금화프라자 601호","indutype":"학원 - 예·체능계학원","category":"study"},{"name":"하이베스트학원","tel":"031-575-1228","addr":"경기도 남양주시 진접읍 금곡리 974-1번지 402호","indutype":"학원 - 보습학원","category":"study"},{"name":"하이클래스학원","tel":"031-527-2422","addr":"경기도 남양주시 진접읍 금곡리 974-1번지 금화프라자 203호 일부","indutype":"학원 - 보습학원","category":"study"},{"name":"현앤장수학진접학원","tel":"031-510-5020","addr":"경기도 남양주시 진접읍 금곡리 974-1번지 201,202호","indutype":"학원 - 보습학원","category":"study"}]},{"lat":"37.715128026","long":"127.19830577","imageIndex":16,"items":[{"name":"강의하는아이들 진접학원","tel":"031-528-9202","addr":"경기도 남양주시 진접읍 금곡리 1095번지 호평프라자 603호","indutype":"학원 - 보습학원","category":"study"},{"name":"경희대최강태권도장","tel":"031-528-1218","addr":"경기도 남양주시 진접읍 금곡리 1095번지 호평프라자 5층 504호","indutype":"학원 - 예·체능계학원","category":"study"},{"name":"제니영어","tel":"031-527-0204","addr":"경기도 남양주시 진접읍 금곡리 1095번지 호평프라자 603호","indutype":"학원 - 보습학원","category":"study"},{"name":"진접경희음악학원","tel":"031-529-0706","addr":"경기도 남양주시 진접읍 금곡리 1095번지 601호(외1필지호평프라자)","indutype":"학원 - 예·체능계학원","category":"study"},{"name":"진접삼성영어학원","tel":"031-529-3905","addr":"경기도 남양주시 진접읍 금곡리 1095번지 호평프라자 503호","indutype":"학원 - 외국어학원","category":"study"},{"name":"진접홍익미술학원","tel":"031-501-7796","addr":"경기도 남양주시 진접읍 금곡리 1095번지 호평프라자 602호","indutype":"학원 - 예·체능계학원","category":"study"}]},{"lat":"37.713934626","long":"127.18974001","imageIndex":16,"items":[{"name":"개인과외","tel":"","addr":"경기도 남양주시 진접읍 금곡리 1080번지 해밀마을신안인스빌아파트 1211동 102호","indutype":"학원 - 기타 교육기관","category":"study"}]},{"lat":"37.715321655","long":"127.2010509","imageIndex":16,"items":[{"name":"겨자씨어린이집[아이행복]","tel":"031-871-0091","addr":"경기도 남양주시 진접읍 금곡리 874번지","indutype":"학원 - 유아원","category":"study"}]},{"lat":"37.711551817","long":"127.1867287","imageIndex":16,"items":[{"name":"경쌤영어교습소","tel":"070-7536-6209","addr":"경기도 남양주시 진접읍 금곡리 1081-4번지 803-2호","indutype":"학원 - 외국어학원","category":"study"},{"name":"물감놀이터미술학원","tel":"070-8811-6546","addr":"경기도 남양주시 진접읍 금곡리 1081-4번지 폴리프라자 1층 703호","indutype":"학원 - 예·체능계학원","category":"study"}]},{"lat":"37.718130509","long":"127.19691861","imageIndex":16,"items":[{"name":"경희대 해밀 태권도","tel":"031-527-1582","addr":"경기도 남양주시 진접읍 금곡리 1076-1번지 403호","indutype":"학원 - 예·체능계학원","category":"study"},{"name":"삼성영어해밀학원","tel":"070-7405-0053","addr":"경기도 남양주시 진접읍 금곡리 1076-1번지 201호","indutype":"학원 - 외국어학원","category":"study"},{"name":"연세스피드학원","tel":"031-851-3265","addr":"경기도 남양주시 진접읍 금곡리 1076-1번지 해밀메디프라자 401호","indutype":"학원 - 보습학원","category":"study"},{"name":"진접열린음악학원","tel":"","addr":"경기도 남양주시 진접읍 금곡리 1076-1번지 402호","indutype":"학원 - 예·체능계학원","category":"study"},{"name":"카이퍼스트학원","tel":"031-529-4908","addr":"경기도 남양주시 진접읍 금곡리 1076-1번지 301호,302호","indutype":"학원 - 보습학원","category":"study"}]},{"lat":"37.715020831","long":"127.19774976","imageIndex":16,"items":[{"name":"고수회백호태권도","tel":"031-574-0605","addr":"경기도 남양주시 진접읍 금곡리 1094번지 중앙프라자 602호","indutype":"학원 - 예·체능계학원","category":"study"},{"name":"리드앤톡영어독서어학원","tel":"031-571-6202","addr":"경기도 남양주시 진접읍 금곡리 1094번지 502호","indutype":"학원 - 외국어학원","category":"study"},{"name":"쇼팽의빨강피아노학원","tel":"031-547-6000","addr":"경기도 남양주시 진접읍 금곡리 1094번지 601호","indutype":"학원 - 예·체능계학원","category":"study"}]},{"lat":"37.722915093","long":"127.20202391","imageIndex":16,"items":[{"name":"공감실용음악학원","tel":"031-529-3217","addr":"경기도 남양주시 진접읍 금곡리 647-5번지 101호","indutype":"회원제형태 - 학원","category":"study"}]},{"lat":"37.714794522","long":"127.19839562","imageIndex":16,"items":[{"name":"권대중 국어논술학원","tel":"031-527-4740","addr":"경기도 남양주시 진접읍 금곡리 1095-2번지 폴리프라자III 202호","indutype":"학원 - 보습학원","category":"study"},{"name":"두드림학원","tel":"031-575-3122","addr":"경기도 남양주시 진접읍 금곡리 1095-2번지 폴리프라자III 302호","indutype":"학원 - 보습학원","category":"study"},{"name":"수학서당수학교습소","tel":"031-527-3921","addr":"경기도 남양주시 진접읍 금곡리 1095-2번지 폴리프라자3) 301호","indutype":"학원 - 보습학원","category":"study"},{"name":"아이노스 음악학원","tel":"031-574-5501","addr":"경기도 남양주시 진접읍 금곡리 1095-2번지 303호(폴리프라자lll)","indutype":"학원 - 예·체능계학원","category":"study"},{"name":"예일피아노학원","tel":"031-527-3319","addr":"경기도 남양주시 진접읍 금곡리 1095-2번지 폴리프라자 503호","indutype":"학원 - 예·체능계학원","category":"study"},{"name":"이야기가있는 미술학원","tel":"031-574-7995","addr":"경기도 남양주시 진접읍 금곡리 1095-2번지 폴리프라자Ⅲ 602호","indutype":"학원 - 예·체능계학원","category":"study"},{"name":"해법영어학원","tel":"031-571-0308","addr":"경기도 남양주시 진접읍 금곡리 1095-2번지 폴리프라자 701동 702호","indutype":"학원 - 보습학원","category":"study"}]},{"lat":"37.719709817","long":"127.20075635","imageIndex":16,"items":[{"name":"꼬마숲다슬어린이집[아이행복]","tel":"031-527-6030","addr":"경기도 남양주시 진접읍 금곡리 1035-1번지","indutype":"학원 - 유아원","category":"study"}]},{"lat":"37.722129323","long":"127.20316739","imageIndex":16,"items":[{"name":"꼬맹이어린이집[아이행복]","tel":"031-575-4420","addr":"경기도 남양주시 진접읍 금곡리 1013-3번지","indutype":"학원 - 유아원","category":"study"}]},{"lat":"37.724191725","long":"127.20885568","imageIndex":16,"items":[{"name":"꿈땅어린이집[아이행복]","tel":"031-574-4113","addr":"경기도 남양주시 진접읍 금곡리 1117번지 신안인스빌 2313동 101호","indutype":"학원 - 유아원","category":"study"}]},{"lat":"37.720744654","long":"127.1960861","imageIndex":16,"items":[{"name":"남양주nny실용음악학원","tel":"031-572-0437","addr":"경기도 남양주시 진접읍 금곡리 973-3번지 602.603호","indutype":"학원 - 예·체능계학원","category":"study"},{"name":"목동최강학원","tel":"031-575-1043","addr":"경기도 남양주시 진접읍 금곡리 973-3번지 403호 402호,403호","indutype":"학원 - 보습학원","category":"study"},{"name":"뷰티원미용학원","tel":"031-856-2000","addr":"경기도 남양주시 진접읍 금곡리 973-3번지 세경프라자 703호","indutype":"회원제형태 - 학원","category":"study"},{"name":"하이두뇌로학원","tel":"031-572-5773","addr":"경기도 남양주시 진접읍 금곡리 973-3번지 세경프라자 203호 202호,203호","indutype":"학원 - 보습학원","category":"study"},{"name":"해동검도","tel":"031-573-2844","addr":"경기도 남양주시 진접읍 금곡리 973-3번지 701,702호","indutype":"학원 - 예·체능계학원","category":"study"}]},{"lat":"37.717466669","long":"127.20061429","imageIndex":16,"items":[{"name":"남양주도담유치원[아이행복]","tel":"031-574-7521","addr":"경기도 남양주시 진접읍 금곡리 1110번지","indutype":"학원 - 유치원","category":"study"}]},{"lat":"37.71724426","long":"127.19342304","imageIndex":16,"items":[{"name":"남양주시육아종합지원센터","tel":"031-528-4463","addr":"경기도 남양주시 진접읍 금곡리 1077번지 어린이비젼센터","indutype":"학원 - 기타 교육기관","category":"study"},{"name":"남양주시육아종합지원센터","tel":"031-528-4463","addr":"경기도 남양주시 진접읍 금곡리 1077번지 어린이비전센터 내","indutype":"학원 - 기타 교육기관","category":"study"},{"name":"남양주시육아종합지원센터[아이행복]","tel":"031-528-4463","addr":"경기도 남양주시 진접읍 금곡리 1077번지 어린이비전센터 내","indutype":"학원 - 유아원","category":"study"}]},{"lat":"37.721604644","long":"127.20441364","imageIndex":16,"items":[{"name":"노피노피","tel":"","addr":"경기도 남양주시 진접읍 금곡리 1017-5번지 401호","indutype":"학원 - 기타 교육기관","category":"study"}]},{"lat":"37.712019411","long":"127.18730825","imageIndex":16,"items":[{"name":"뉴발레학원","tel":"031-529-9888","addr":"경기도 남양주시 진접읍 금곡리 1082-2번지 3층 302호","indutype":"학원 - 예·체능계학원","category":"study"}]},{"lat":"37.727156453","long":"127.20852359","imageIndex":16,"items":[{"name":"늘푸른나무어린이집[아이행복]","tel":"031-528-2111","addr":"경기도 남양주시 진접읍 금곡리 580-2번지","indutype":"학원 - 유아원","category":"study"}]},{"lat":"37.71582846","long":"127.18858794","imageIndex":16,"items":[{"name":"도예와미술이야기미술학원","tel":"070-8210-6383","addr":"경기도 남양주시 진접읍 금곡리 967번지 201호 일부","indutype":"학원 - 예·체능계학원","category":"study"},{"name":"영수베스트학원","tel":"031-551-0538","addr":"경기도 남양주시 진접읍 금곡리 967번지 3층 303호","indutype":"학원 - 보습학원","category":"study"},{"name":"조이태권도","tel":"031-572-7887","addr":"경기도 남양주시 진접읍 금곡리 967번지 401호","indutype":"학원 - 예·체능계학원","category":"study"},{"name":"화랑태권도","tel":"031-572-7887","addr":"경기도 남양주시 진접읍 금곡리 967번지 한솔빌딩 4층","indutype":"학원 - 예·체능계학원","category":"study"},{"name":"화봉줄리어드음악학원","tel":"031-575-5303","addr":"경기도 남양주시 진접읍 금곡리 967번지 한솔빌딩 302호","indutype":"학원 - 예·체능계학원","category":"study"}]},{"lat":"37.71907071","long":"127.20041439","imageIndex":16,"items":[{"name":"라임어린이집[아이행복]","tel":"031-529-7942","addr":"경기도 남양주시 진접읍 금곡리 1034-3","indutype":"학원 - 유아원","category":"study"}]},{"lat":"37.72116028","long":"127.19536127","imageIndex":16,"items":[{"name":"레드엠수학학원","tel":"031-571-4416","addr":"경기도 남양주시 진접읍 금곡리 973번지 진접프라자 603호","indutype":"학원 - 보습학원","category":"study"},{"name":"진접종로엠학원","tel":"031-591-6388","addr":"경기도 남양주시 진접읍 금곡리 973번지 진접프라자 7층 701~704호","indutype":"학원 - 보습학원","category":"study"},{"name":"코리아헤럴드어학원","tel":"031-528-0532","addr":"경기도 남양주시 진접읍 금곡리 973번지 진접프라자 601,802호","indutype":"회원제형태 - 학원","category":"study"},{"name":"퍼니퍼니 키즈쿡(아이쿡)","tel":"031-524-9920","addr":"경기도 남양주시 진접읍 금곡리 973번지 진접프라자 304호","indutype":"학원 - 기능학원","category":"study"}]},{"lat":"37.714714356","long":"127.19783969","imageIndex":16,"items":[{"name":"레전드영어학원","tel":"031-528-3615","addr":"경기도 남양주시 진접읍 금곡리 1094-2번지 602호","indutype":"학원 - 보습학원","category":"study"},{"name":"로제타스톤에듀학원","tel":"031-575-8052","addr":"경기도 남양주시 진접읍 금곡리 1094-2번지 302호","indutype":"학원 - 보습학원","category":"study"},{"name":"엠토학원","tel":"031-573-1208","addr":"경기도 남양주시 진접읍 금곡리 1094-2번지 진원프라자 501호","indutype":"학원 - 보습학원","category":"study"}]},{"lat":"37.711921457","long":"127.18657084","imageIndex":16,"items":[{"name":"로봇&코딩","tel":"","addr":"경기도 남양주시 진접읍 금곡리 1081-2번지 래일스타 705호","indutype":"학원 - 기타 교육기관","category":"study"},{"name":"진접창조의아침미술학원","tel":"031-575-9901","addr":"경기도 남양주시 진접읍 금곡리 1081-2번지 701,702호","indutype":"학원 - 예·체능계학원","category":"study"}]},{"lat":"37.717905176","long":"127.19697473","imageIndex":16,"items":[{"name":"뮤직하임음악학원","tel":"031-575-3542","addr":"경기도 남양주시 진접읍 금곡리 1076-2번지 리원프라자 3층 302호","indutype":"학원 - 예·체능계학원","category":"study"}]},{"lat":"37.713075668","long":"127.18593859","imageIndex":16,"items":[{"name":"미소어린이집[아이행복]","tel":"031-529-5208","addr":"경기도 남양주시 진접읍 금곡리 961번지 남양휴튼아파트","indutype":"학원 - 유아원","category":"study"}]},{"lat":"37.709911927","long":"127.19803124","imageIndex":16,"items":[{"name":"미예뜰유치원","tel":"031-573-0883","addr":"경기도 남양주시 진접읍 금곡리 1104","indutype":"학원 - 유치원","category":"study"},{"name":"미예뜰유치원[아이행복]","tel":"031-573-0883","addr":"경기도 남양주시 진접읍 금곡리 1104번지","indutype":"학원 - 유치원","category":"study"}]},{"lat":"37.713078773","long":"127.20075006","imageIndex":16,"items":[{"name":"바하뮤직슐레음악학원","tel":"031-529-2750","addr":"경기도 남양주시 진접읍 금곡리 1107번지 제상가동 제1층 제102호","indutype":"학원 - 예·체능계학원","category":"study"},{"name":"비타고려학원","tel":"031-572-0911","addr":"경기도 남양주시 진접읍 금곡리 1107번지 부영사랑으로 상가 201호","indutype":"회원제형태 - 학원","category":"study"},{"name":"웃는아이어린이집[아이행복]","tel":"031-527-0207","addr":"경기도 남양주시 진접읍 금곡리 1107번지 부영사랑으로","indutype":"학원 - 유아원","category":"study"},{"name":"진접열린음악학원","tel":"031-529-5171","addr":"경기도 남양주시 진접읍 금곡리 1107번지 부영사랑으로 상가 102호","indutype":"학원 - 예·체능계학원","category":"study"}]},{"lat":"37.713378666","long":"127.19920846","imageIndex":16,"items":[{"name":"서영권 개인과외교습","tel":"","addr":"경기도 남양주시 진접읍 금곡리 1107번지 부영사랑으로 1811동 101호","indutype":"학원 - 기타 교육기관","category":"study"}]},{"lat":"37.71721463","long":"127.20047752","imageIndex":16,"items":[{"name":"서원유치원[아이행복]","tel":"031-573-2145","addr":"경기도 남양주시 진접읍 금곡리 878-5번지","indutype":"학원 - 유치원","category":"study"}]},{"lat":"37.716851788","long":"127.20193963","imageIndex":16,"items":[{"name":"솔로몬공부방","tel":"031-527-4717","addr":"경기도 남양주시 진접읍 금곡리 1052-12번지 2층","indutype":"학원 - 기타 교육기관","category":"study"}]},{"lat":"37.725525214","long":"127.208814","imageIndex":16,"items":[{"name":"시립 해밀어린이집[아이행복]","tel":"031-575-5902","addr":"경기도 남양주시 진접읍 금곡리 995번지","indutype":"학원 - 유아원","category":"study"}]},{"lat":"37.714680707","long":"127.19081931","imageIndex":16,"items":[{"name":"신안늘사랑 어린이집[아이행복]","tel":"031-515-7847","addr":"경기도 남양주시 진접읍 금곡리 1080번지 신안인스빌 1218동 101호","indutype":"학원 - 유아원","category":"study"}]},{"lat":"37.713799806","long":"127.18953553","imageIndex":16,"items":[{"name":"아이리더 화봉태권도장","tel":"031-528-2954","addr":"경기도 남양주시 진접읍 금곡리 1080번지 해밀마을신안인스빌아파트 204,205호","indutype":"학원 - 예·체능계학원","category":"study"},{"name":"이화숲음악학원","tel":"031-528-3634","addr":"경기도 남양주시 진접읍 금곡리 1080번지 202호,203호 신안인스빌상가1동","indutype":"학원 - 예·체능계학원","category":"study"}]},{"lat":"37.712182327","long":"127.18683233","imageIndex":16,"items":[{"name":"알파수학학원","tel":"031-529-3235","addr":"경기도 남양주시 진접읍 금곡리 1081-1번지 화성프라자 901호","indutype":"학원 - 보습학원","category":"study"},{"name":"알파영어학원","tel":"031-529-3205","addr":"경기도 남양주시 진접읍 금곡리 1081-1번지 화성프라자 901-1호","indutype":"학원 - 외국어학원","category":"study"},{"name":"어썸팩토리진접독서실","tel":"031-573-9606","addr":"경기도 남양주시 진접읍 금곡리 1081-1번지 화성프라자 702호 ,703,704호","indutype":"학원 - 독서실","category":"study"},{"name":"용인대 홍룡 태권도 체육관","tel":"031-575-3050","addr":"경기도 남양주시 진접읍 금곡리 1081-1번지 화성프라자 904동 903호","indutype":"학원 - 예·체능계학원","category":"study"},{"name":"주식회사 청림","tel":"031-527-3329","addr":"경기도 남양주시 진접읍 금곡리 1081-1번지 화성프라자 10층 1001~1004호","indutype":"학원 - 보습학원","category":"study"},{"name":"진접올가국어학원","tel":"031-529-7898","addr":"경기도 남양주시 진접읍 금곡리 1081-1번지 화성프라자 701호 일부","indutype":"학원 - 보습학원","category":"study"},{"name":"차수학학원","tel":"031-572-2992","addr":"경기도 남양주시 진접읍 금곡리 1081-1번지 화성프라자 404호","indutype":"학원 - 보습학원","category":"study"},{"name":"크리스티영어앤중국어학원","tel":"031-528-5825","addr":"경기도 남양주시 진접읍 금곡리 1081-1번지 화성프라자 504호","indutype":"학원 - 외국어학원","category":"study"}]},{"lat":"37.719742993","long":"127.19705892","imageIndex":16,"items":[{"name":"에덴음악학원","tel":"031-754-0093","addr":"경기도 남양주시 진접읍 금곡리 974-2번지","indutype":"학원 - 예·체능계학원","category":"study"},{"name":"용인대용호태권도장","tel":"031-575-5454","addr":"경기도 남양주시 진접읍 금곡리 974-2번지 501,502호","indutype":"학원 - 예·체능계학원","category":"study"},{"name":"제이와이에스영어2관학원","tel":"","addr":"경기도 남양주시 진접읍 금곡리 974-2번지 제일프라자 504호","indutype":"학원 - 보습학원","category":"study"},{"name":"진접ECC플러스어학원","tel":"031-573-7114","addr":"경기도 남양주시 진접읍 금곡리 974-2번지 제일프라자 402호 401호,402호","indutype":"학원 - 외국어학원","category":"study"},{"name":"현수학학원","tel":"031-529-4609","addr":"경기도 남양주시 진접읍 금곡리 974-2번지 3층 301호","indutype":"학원 - 보습학원","category":"study"},{"name":"홍익창조미술학원","tel":"031-529-2530","addr":"경기도 남양주시 진접읍 금곡리 974-2번지 제일프라자 503호","indutype":"학원 - 예·체능계학원","category":"study"}]},{"lat":"37.719910734","long":"127.20447711","imageIndex":16,"items":[{"name":"엘리에셀이화피아노교습소","tel":"031-513-8558","addr":"경기도 남양주시 진접읍 금곡리 1058-1번지 102호","indutype":"학원 - 예·체능계학원","category":"study"}]},{"lat":"37.714488066","long":"127.19847421","imageIndex":16,"items":[{"name":"엠베스트 SE큰샘학원","tel":"031-527-7823","addr":"경기도 남양주시 진접읍 금곡리 1096번지 으뜸빌딩 604호","indutype":"회원제형태 - 학원","category":"study"},{"name":"제이댄스무용학원","tel":"031-529-2883","addr":"경기도 남양주시 진접읍 금곡리 1096번지 으뜸빌딩 702호","indutype":"학원 - 예·체능계학원","category":"study"},{"name":"진접지앤비학원","tel":"031-527-8205","addr":"경기도 남양주시 진접읍 금곡리 1096번지 으뜸빌딩 503호 504호","indutype":"학원 - 보습학원","category":"study"},{"name":"진접창조댄스앤무용학원","tel":"031-529-2884","addr":"경기도 남양주시 진접읍 금곡리 1096번지 으뜸빌딩 501호","indutype":"학원 - 예·체능계학원","category":"study"},{"name":"한국체대 태권도","tel":"031-574-7411","addr":"경기도 남양주시 진접읍 금곡리 1096번지 으뜸빌딩602 603호","indutype":"학원 - 예·체능계학원","category":"study"}]},{"lat":"37.721015757","long":"127.19558774","imageIndex":16,"items":[{"name":"유투엠학원","tel":"031-573-0584","addr":"경기도 남양주시 진접읍 금곡리 973-1번지 신세계프라자 404호 일부 403","indutype":"학원 - 보습학원","category":"study"},{"name":"임쌤국어학원","tel":"","addr":"경기도 남양주시 진접읍 금곡리 973-1번지 신세계프라자 402호","indutype":"학원 - 보습학원","category":"study"},{"name":"진접유투엠아발론어학원","tel":"031-574-0584","addr":"경기도 남양주시 진접읍 금곡리 973-1번지 신세계프라자 4층 403호 404호 405호","indutype":"학원 - 외국어학원","category":"study"}]},{"lat":"37.712898544","long":"127.20077226","imageIndex":16,"items":[{"name":"장원홈스쿨","tel":"070-8688-2245","addr":"경기도 남양주시 진접읍 금곡리 1107번지 부영사랑으로 1815동 403호","indutype":"회원제형태 - 학원","category":"study"}]},{"lat":"37.714515679","long":"127.18691749","imageIndex":16,"items":[{"name":"젤예쁜어린이집[아이행복]","tel":"031-528-3347","addr":"경기도 남양주시 진접읍 금곡리 965번지 자연앤어울림아파트 1309-101 1층","indutype":"학원 - 유아원","category":"study"}]},{"lat":"37.724467165","long":"127.20588462","imageIndex":16,"items":[{"name":"주곡초등학교병설유치원[아이행복]","tel":"031-574-6184","addr":"경기도 남양주시 진접읍 금곡리 1004번지 주곡초등학교","indutype":"학원 - 유치원","category":"study"}]},{"lat":"37.717079289","long":"127.21610601","imageIndex":16,"items":[{"name":"주식회사 장민석 진접축구센터","tel":"031-527-9782","addr":"경기도 남양주시 진접읍 금곡리 195번지","indutype":"학원 - 예·체능계학원","category":"study"}]},{"lat":"37.73332247","long":"127.21167163","imageIndex":16,"items":[{"name":"진접간호학원","tel":"031-000-0000","addr":"경기도 남양주시 진접읍 금곡리 379번지 2층 201호","indutype":"학원 - 기능학원","category":"study"}]},{"lat":"37.715634366","long":"127.20785662","imageIndex":16,"items":[{"name":"진접마루어린이집[아이행복]","tel":"031-575-0307","addr":"경기도 남양주시 진접읍 금곡리 778-3번지","indutype":"학원 - 유아원","category":"study"}]},{"lat":"37.717436493","long":"127.19708692","imageIndex":16,"items":[{"name":"진접소래음악학원","tel":"031-528-8555","addr":"경기도 남양주시 진접읍 금곡리 1076-4번지 301호","indutype":"학원 - 예·체능계학원","category":"study"},{"name":"진접최상위수학학원","tel":"031-527-5911","addr":"경기도 남양주시 진접읍 금곡리 1076-4번지 402호","indutype":"학원 - 보습학원","category":"study"},{"name":"홍선생미술남양주서지사","tel":"031-527-3206","addr":"경기도 남양주시 진접읍 금곡리 1076-4번지 4동 401호","indutype":"학원 - 학습지 교육","category":"study"}]},{"lat":"37.725188298","long":"127.20567107","imageIndex":16,"items":[{"name":"진접예랑어린이집[아이행복]","tel":"031-528-0450","addr":"경기도 남양주시 진접읍 금곡리 551-3번지","indutype":"학원 - 유아원","category":"study"}]},{"lat":"37.716909709","long":"127.19963742","imageIndex":16,"items":[{"name":"진접초등학교병설유치원[아이행복]","tel":"031-529-0226","addr":"경기도 남양주시 진접읍 금곡리 1109번지 진접초등학교","indutype":"학원 - 유치원","category":"study"}]},{"lat":"37.718246385","long":"127.20305486","imageIndex":16,"items":[{"name":"한국태권도아카데미 주식회사","tel":"031-574-7749","addr":"경기도 남양주시 진접읍 금곡리 1044-4번지 2층","indutype":"학원 - 예·체능계학원","category":"study"}]},{"lat":"37.719911025","long":"127.20430697","imageIndex":16,"items":[{"name":"한우리독서토론논술금곡논술교습소","tel":"031-528-2320","addr":"경기도 남양주시 진접읍 금곡리 1058번지 101호","indutype":"학원 - 보습학원","category":"study"},{"name":"황금나무미술교습소","tel":"031-527-9455","addr":"경기도 남양주시 진접읍 금곡리 1058번지 102호","indutype":"학원 - 예·체능계학원","category":"study"}]},{"lat":"37.718600327","long":"127.19611455","imageIndex":16,"items":[{"name":"해밀초등학교병설유치원[아이행복]","tel":"031-570-3630","addr":"경기도 남양주시 진접읍 금곡리 1077-2번지 해밀초등학교","indutype":"학원 - 유치원","category":"study"}]},{"lat":"37.715571348","long":"127.19163815","imageIndex":16,"items":[{"name":"화봉초등학교병설유치원[아이행복]","tel":"031-573-2046","addr":"경기도 남양주시 진접읍 금곡리 1078번지 화봉초등학교","indutype":"학원 - 유치원","category":"study"}]}]