[{"lat":"37.382250815","long":"126.95991934","imageIndex":16,"items":[{"name":"(주)서브라임보습학원","tel":"031-385-6513","addr":"경기도 안양시 동안구 평촌대로","indutype":"학원 - 보습학원","category":"study"},{"name":"가온국어한빛수학학원","tel":"031-385-4333","addr":"경기도 안양시 동안구 평촌대로","indutype":"학원 - 기타 교육기관","category":"study"},{"name":"올인학원","tel":"031-476-5151","addr":"경기도 안양시 동안구 평촌대로","indutype":"회원제형태 - 학원","category":"study"}]},{"lat":"37.383998432","long":"126.95898117","imageIndex":16,"items":[{"name":"(주)정한","tel":"031-387-7117","addr":"경기도 안양시 동안구 평촌대로","indutype":"학원 - 예·체능계학원","category":"study"}]},{"lat":"37.381530149","long":"126.96031494","imageIndex":16,"items":[{"name":"김부섭수학학원","tel":"031-384-0090","addr":"경기도 안양시 동안구 평촌대로","indutype":"회원제형태 - 학원","category":"study"}]},{"lat":"37.382278322","long":"126.96125168","imageIndex":16,"items":[{"name":"디자인고흐미술학원","tel":"031-476-5111","addr":"경기도 안양시 동안구 평촌대로","indutype":"학원 - 예·체능계학원","category":"study"}]},{"lat":"37.382665202","long":"126.95970458","imageIndex":16,"items":[{"name":"마에스트로영어학원","tel":"031-388-7266","addr":"경기도 안양시 동안구 평촌대로","indutype":"회원제형태 - 학원","category":"study"}]},{"lat":"37.38330529","long":"126.96073171","imageIndex":16,"items":[{"name":"바슈영어학원","tel":"031-476-0502","addr":"경기도 안양시 동안구 평촌대로","indutype":"학원 - 보습학원","category":"study"},{"name":"자유수학학원","tel":"070-8277-4748","addr":"경기도 안양시 동안구 평촌대로","indutype":"학원 - 보습학원","category":"study"}]},{"lat":"37.390556403","long":"126.95539767","imageIndex":16,"items":[{"name":"부자뱅크경매학원","tel":"031-342-8887","addr":"경기도 안양시 동안구 평촌대로","indutype":"회원제형태 - 학원","category":"study"}]},{"lat":"37.384223642","long":"126.95886812","imageIndex":16,"items":[{"name":"세가쉬수학학원","tel":"031-386-0030","addr":"경기도 안양시 동안구 평촌대로","indutype":"학원 - 보습학원","category":"study"}]},{"lat":"37.382115696","long":"126.96000975","imageIndex":16,"items":[{"name":"송선생종합국어학원","tel":"031-381-1249","addr":"경기도 안양시 동안구 평촌대로","indutype":"학원 - 보습학원","category":"study"},{"name":"이쌤수학박쌤영어학원","tel":"031-382-2232","addr":"경기도 안양시 동안구 평촌대로","indutype":"회원제형태 - 학원","category":"study"}]},{"lat":"37.383863808","long":"126.96042653","imageIndex":16,"items":[{"name":"수학구루수학교습소","tel":"","addr":"경기도 안양시 동안구 평촌대로","indutype":"회원제형태 - 학원","category":"study"},{"name":"이혜영영어교습소","tel":"031-382-7905","addr":"경기도 안양시 동안구 평촌대로","indutype":"회원제형태 - 학원","category":"study"}]},{"lat":"37.383170159","long":"126.96078825","imageIndex":16,"items":[{"name":"심미선수학교습소","tel":"031-385-7739","addr":"경기도 안양시 동안구 평촌대로","indutype":"회원제형태 - 학원","category":"study"},{"name":"엠케이영어교습소","tel":"031-386-2940","addr":"경기도 안양시 동안구 평촌대로","indutype":"회원제형태 - 학원","category":"study"},{"name":"연이정영어교습소","tel":"031-383-0199","addr":"경기도 안양시 동안구 평촌대로","indutype":"회원제형태 - 학원","category":"study"},{"name":"정문수수학교습소","tel":"031-476-6678","addr":"경기도 안양시 동안구 평촌대로","indutype":"회원제형태 - 학원","category":"study"}]},{"lat":"37.382944954","long":"126.96092387","imageIndex":16,"items":[{"name":"엔알토학원","tel":"031-384-1793","addr":"경기도 안양시 동안구 평촌대로","indutype":"회원제형태 - 학원","category":"study"}]},{"lat":"37.384529923","long":"126.95869857","imageIndex":16,"items":[{"name":"여운영수학원","tel":"031-387-5936","addr":"경기도 안양시 동안구 평촌대로","indutype":"회원제형태 - 학원","category":"study"},{"name":"특작수학일대일학원","tel":"031-388-6318","addr":"경기도 안양시 동안구 평촌대로","indutype":"회원제형태 - 학원","category":"study"}]},{"lat":"37.384917778","long":"126.95983878","imageIndex":16,"items":[{"name":"이엔어법휘학원","tel":"031-444-6780","addr":"경기도 안양시 동안구 평촌대로","indutype":"학원 - 보습학원","category":"study"}]},{"lat":"37.383746199","long":"126.95911681","imageIndex":16,"items":[{"name":"지코스 수학영어학원","tel":"031-381-3415","addr":"경기도 안양시 동안구 평촌대로","indutype":"학원 - 보습학원","category":"study"}]},{"lat":"37.384746627","long":"126.9599518","imageIndex":16,"items":[{"name":"패러다임보습학원","tel":"031-476-8879","addr":"경기도 안양시 동안구 평촌대로","indutype":"회원제형태 - 학원","category":"study"}]},{"lat":"37.383413379","long":"126.96064132","imageIndex":16,"items":[{"name":"평촌제임스엠어학원","tel":"031-388-2345","addr":"경기도 안양시 동안구 평촌대로","indutype":"회원제형태 - 학원","category":"study"}]},{"lat":"37.383169677","long":"126.95945588","imageIndex":16,"items":[{"name":"홍영임피아노스튜디오피아노교습소","tel":"031-394-7747","addr":"경기도 안양시 동안구 평촌대로","indutype":"학원 - 예·체능계학원","category":"study"}]}]