[{"lat":"37.759065265","long":"126.77598775","imageIndex":17,"items":[{"name":"(사)임원경제연구소","tel":"031-946-6614","addr":"경기도 파주시 금촌동 765-19번지","indutype":"용역 서비스 - 사무서비스","category":"other"},{"name":"(주)새천년건축사사무소","tel":"031-946-0270","addr":"경기도 파주시 금촌동 765-19 603호,604호","indutype":"용역 서비스 - 사무서비스","category":"other"},{"name":"로즈브루니","tel":"","addr":"경기도 파주시 금촌동 765-19번지","indutype":"문화.취미 - 화원","category":"other"},{"name":"루씨바이제이","tel":"031-944-3434","addr":"경기도 파주시 금촌동 765-19번지 광우프라자104호전면","indutype":"신변잡화 - 시계","category":"other"},{"name":"미니스톱파주금촌점","tel":"031-1577-9621","addr":"경기도 파주시 금촌동 765-19번지","indutype":"유통업 영리 - 편 의 점","category":"other"},{"name":"법률사무소혜안","tel":"031-943-1199","addr":"경기도 파주시 금촌동 765-19번지","indutype":"용역 서비스 - 법률회계서비스(개인)","category":"other"},{"name":"법무사장동훈사무소","tel":"031-943-5331","addr":"경기도 파주시 금촌동 765-19 외 1필지 광우프라자 304","indutype":"용역 서비스 - 법률회계서비스(개인)","category":"other"},{"name":"볼케이노","tel":"031-947-5833","addr":"경기도 파주시 금촌동 765-19번지","indutype":"의류 - 내의판매","category":"other"},{"name":"비클린 홈케어(파주.일산점)","tel":"","addr":"경기도 파주시 금촌동 765-19번지","indutype":"용역 서비스 - 기타용역서비스","category":"other"},{"name":"파주조은여행주식회사","tel":"031-949-0777","addr":"경기도 파주시 금촌동 765-19번지","indutype":"여행 - 관광여행","category":"other"},{"name":"화이트앤블랙","tel":"031-949-8222","addr":"경기도 파주시 금촌동 765-19번지","indutype":"직물 - 침구·수예점","category":"other"}]},{"lat":"37.75420437","long":"126.77820398","imageIndex":17,"items":[{"name":"(주) 새오름기획","tel":"031-947-1806","addr":"경기도 파주시 금촌동 104-1번지","indutype":"용역 서비스 - 사무서비스","category":"other"},{"name":"준스포츠","tel":"031-945-2007","addr":"경기도 파주시 금촌동 104-1번지","indutype":"레져용품 - 스포츠·레져용품","category":"other"},{"name":"파주행정사부동산중개사사무소","tel":"031-948-0112","addr":"경기도 파주시 금촌동 104-1번지","indutype":"용역 서비스 - 부동산 중개·임대","category":"other"},{"name":"한결속기녹취사무소","tel":"031-942-0303","addr":"경기도 파주시 금촌동 104-1번지","indutype":"용역 서비스 - 사무서비스","category":"other"},{"name":"휩쉬코리아","tel":"031-945-6375","addr":"경기도 파주시 금촌동 104-1번지","indutype":"전기제품 - 가전제품","category":"other"}]},{"lat":"37.755393557","long":"126.76890676","imageIndex":17,"items":[{"name":"(주)건은기술단","tel":"031-948-6368","addr":"경기도 파주시 금촌동 237-1번지","indutype":"용역 서비스 - 종합용역","category":"other"},{"name":"슈가비","tel":"031-948-0620","addr":"경기도 파주시 금촌동 237-1번지","indutype":"문화.취미 - 문화취미기타","category":"other"},{"name":"슈가비","tel":"031-948-0620","addr":"경기도 파주시 금촌동 237-1번지","indutype":"의류 - 정장","category":"other"},{"name":"온세그린노인전문요양원","tel":"031-945-1812","addr":"경기도 파주시 금촌동 237-1번지","indutype":"기타의료기관 - 기타의료기관 및 기타","category":"other"},{"name":"와이제이제이","tel":"031-111-1111","addr":"경기도 파주시 금촌동 237-1번지","indutype":"의류 - 정장","category":"other"},{"name":"위드미파주베스트프라자점","tel":"02-6916-1500","addr":"경기도 파주시 금촌동 237-1번지","indutype":"유통업 영리 - 편 의 점","category":"other"},{"name":"체인지업파주금촌점","tel":"031-942-8249","addr":"경기도 파주시 금촌동 237-1번지 아이닷베스트프라자 307호~308호","indutype":"회원제형태 - 기타4","category":"other"},{"name":"크린크린 빨래방","tel":"031-943-9744","addr":"경기도 파주시 금촌동 237-1번지","indutype":"수리서비스 - 세탁소","category":"other"}]},{"lat":"37.757313435","long":"126.7739278","imageIndex":17,"items":[{"name":"(주)모바일에스더블유","tel":"0031-8071-4010","addr":"경기도 파주시 금촌동 952-1번지 파주우체국 경기빌딩 103호","indutype":"별도관리 - 자체물품대금","category":"other"},{"name":"주식회사모바일에스더블유","tel":"031-949-0051","addr":"경기도 파주시 금촌동 952-1번지","indutype":"사무통신 - 통신기기","category":"other"}]},{"lat":"37.755067111","long":"126.77706663","imageIndex":17,"items":[{"name":"(주)서진트레이드","tel":"070-7594-4970","addr":"경기도 파주시 금촌동 800-3번지","indutype":"레져용품 - 스포츠·레져용품","category":"other"}]},{"lat":"37.756037847","long":"126.76670329","imageIndex":17,"items":[{"name":"(주)수호천사노인복지센터","tel":"031-957-8440","addr":"경기도 파주시 금촌동 972번지 새꽃마을뜨란채주상가-204","indutype":"기타의료기관 - 기타의료기관 및 기타","category":"other"},{"name":"GS25새꽃천사점","tel":"","addr":"경기도 파주시 금촌동 972번지 새꽃마을뜨란채","indutype":"유통업 영리 - 편 의 점","category":"other"},{"name":"로뎀셀","tel":"031-946-2722","addr":"경기도 파주시 금촌동 972번지 새꽃마을뜨란채","indutype":"유통업 영리 - 기타유통업","category":"other"},{"name":"밥기프트","tel":"070-4047-8087","addr":"경기도 파주시 금촌동 972번지 새꽃마을뜨란채","indutype":"유통업 영리 - 기타유통업","category":"other"},{"name":"세기건설 M&A","tel":"031-944-4919","addr":"경기도 파주시 금촌동 972번지 새꽃마을뜨란채","indutype":"용역 서비스 - 사무서비스","category":"other"},{"name":"세탁캠프(뜨란채)","tel":"031-949-7270","addr":"경기도 파주시 금촌동 972번지 새꽃마을뜨란채","indutype":"수리서비스 - 세탁소","category":"other"},{"name":"종이문화재단 경기파주 종이문화교육원","tel":"070-5101-5569","addr":"경기도 파주시 금촌동 972번지 새꽃마을뜨란채","indutype":"문화.취미 - 문화취미기타","category":"other"},{"name":"해맑은","tel":"031-947-7829","addr":"경기도 파주시 금촌동 972번지 새꽃마을뜨란채","indutype":"회원제형태 - 기타1","category":"other"}]},{"lat":"37.758033239","long":"126.76885305","imageIndex":17,"items":[{"name":"(주)스마트종합에너지","tel":"031-947-3650","addr":"경기도 파주시 금촌동 942-8번지","indutype":"주방용구 - 주방용구","category":"other"}]},{"lat":"37.758230368","long":"126.77754497","imageIndex":17,"items":[{"name":"(주)아이피앤피","tel":"031-945-8833","addr":"경기도 파주시 금촌동 770-13번지","indutype":"건축자재 - 인테리어전문","category":"other"},{"name":"다다디자인","tel":"031-944-0465","addr":"경기도 파주시 금촌동 770-13번지 리모델링프라자","indutype":"건축자재 - 인테리어전문","category":"other"},{"name":"리모델링프라자","tel":"031-945-8833","addr":"경기도 파주시 금촌동 770-13번지","indutype":"용역 서비스 - 기타용역서비스","category":"other"}]},{"lat":"37.756816723","long":"126.77331655","imageIndex":17,"items":[{"name":"(주)언약의사람들","tel":"031-947-0188","addr":"경기도 파주시 금촌동 958-12 958-14","indutype":"회원제형태 - 레져업소","category":"other"}]},{"lat":"37.752174987","long":"126.76781623","imageIndex":17,"items":[{"name":"(주)에이치앤씨미디어테크","tel":"031-8070-6423","addr":"경기도 파주시 금촌동 987-5번지","indutype":"전기제품 - 기타전기제품","category":"other"},{"name":"(주)진흥이엔씨","tel":"031-957-0252","addr":"경기도 파주시 금촌동 987-5번지","indutype":"용역 서비스 - 종합용역","category":"other"},{"name":"정애영화의상","tel":"02-111-1111","addr":"경기도 파주시 금촌동 987-5번지","indutype":"의류 - 정장","category":"other"},{"name":"주식회사 코리아인투어","tel":"","addr":"경기도 파주시 금촌동 987-5번지","indutype":"여행 - 관광여행","category":"other"}]},{"lat":"37.75917621","long":"126.77746267","imageIndex":17,"items":[{"name":"(주)이화석측량설계사","tel":"031-944-4170","addr":"경기도 파주시 금촌동 770-1번지","indutype":"기타 - 기타 전문점","category":"other"},{"name":"(주)피앤앤미디어","tel":"031-943-5050","addr":"경기도 파주시 금촌동 770-1번지","indutype":"용역 서비스 - 종합용역","category":"other"},{"name":"건축사사무소정우건축","tel":"031-944-6343","addr":"경기도 파주시 금촌동 770-1번지","indutype":"용역 서비스 - 법률회계서비스(개인)","category":"other"},{"name":"경일전기","tel":"031-941-2216","addr":"경기도 파주시 금촌동 770-1번지","indutype":"전기제품 - 기타전기제품","category":"other"},{"name":"글로리어스","tel":"031-8070-8112","addr":"경기도 파주시 금촌동 770-1번지","indutype":"신변잡화 - 액세서리","category":"other"},{"name":"런커4050","tel":"031-111-1111","addr":"경기도 파주시 금촌동 770-1번지","indutype":"레져용품 - 스포츠·레져용품","category":"other"},{"name":"류성엔지니어링","tel":"031-949-6161","addr":"경기도 파주시 금촌동 770-1번지","indutype":"용역 서비스 - 사무서비스","category":"other"},{"name":"샘커뮤니케이션","tel":"031-944-2751","addr":"경기도 파주시 금촌동 770-1번지","indutype":"용역 서비스 - 종합용역","category":"other"},{"name":"세모건축사사무소","tel":"031-941-4642","addr":"경기도 파주시 금촌동 770-1번지","indutype":"용역 서비스 - 법률회계서비스(개인)","category":"other"}]},{"lat":"37.75878715","long":"126.7766014","imageIndex":17,"items":[{"name":"(주)제이제이정보통신","tel":"031-957-5350","addr":"경기도 파주시 금촌동 772-8번지","indutype":"사무통신 - 통신기기","category":"other"},{"name":"국제로타리파주클럽","tel":"031-944-0618","addr":"경기도 파주시 금촌동 772-8번지","indutype":"기타 - 비영리/대상","category":"other"}]},{"lat":"37.759979331","long":"126.77812978","imageIndex":17,"items":[{"name":"(주)조형건축사사무소","tel":"031-944-7188","addr":"경기도 파주시 금촌동 768-6번지","indutype":"용역 서비스 - 법률회계서비스(법인)","category":"other"},{"name":"강남측량설계사무소","tel":"031-943-2222","addr":"경기도 파주시 금촌동 768-6번지 2층","indutype":"용역 서비스 - 사무서비스","category":"other"},{"name":"대우측량설계공사","tel":"031-944-6641","addr":"경기도 파주시 금촌동 768-6번지","indutype":"기타 - 기타 전문점","category":"other"},{"name":"도시측량설계사무소","tel":"031-948-7942","addr":"경기도 파주시 금촌동 768-6번지","indutype":"용역 서비스 - 사무서비스","category":"other"},{"name":"알파문구파주시청","tel":"031-941-0609","addr":"경기도 파주시 금촌동 768-6번지","indutype":"서적문구 - 문구용품","category":"other"}]},{"lat":"37.760504325","long":"126.77471234","imageIndex":17,"items":[{"name":"(주)포비젼","tel":"031-948-5697","addr":"경기도 파주시 금촌동 72-25번지","indutype":"용역 서비스 - 종합용역","category":"other"},{"name":"망고디자인","tel":"","addr":"경기도 파주시 금촌동 72-25번지","indutype":"용역 서비스 - 사무서비스","category":"other"}]},{"lat":"37.760509176","long":"126.77723166","imageIndex":17,"items":[{"name":"119열쇠, 보수","tel":"031-945-1119","addr":"경기도 파주시 금촌동 768-17번지","indutype":"기타 - 기타 전문점","category":"other"},{"name":"씨유금촌평화점","tel":"031-946-8396","addr":"경기도 파주시 금촌동 768-17번지","indutype":"유통업 영리 - 편 의 점","category":"other"},{"name":"큐티켓","tel":"","addr":"경기도 파주시 금촌동 768-17번지","indutype":"문화.취미 - 애완동물","category":"other"}]},{"lat":"37.756482554","long":"126.77289772","imageIndex":17,"items":[{"name":"24시열쇠","tel":"031-943-7217","addr":"경기도 파주시 금촌동 957-5번지","indutype":"건축자재 - 목재·석재·철물","category":"other"}]},{"lat":"37.756479106","long":"126.76659975","imageIndex":17,"items":[{"name":"24시열쇠/둔나미스홈케어","tel":"031-957-9589","addr":"경기도 파주시 금촌동 972번지 새꽃마을뜨란채","indutype":"용역 서비스 - 기타용역서비스","category":"other"}]},{"lat":"37.76209021","long":"126.77482096","imageIndex":17,"items":[{"name":"601올(ALL)사이즈","tel":"031-945-5599","addr":"경기도 파주시 금촌동 66-5번지","indutype":"의류 - 정장","category":"other"}]},{"lat":"37.751868167","long":"126.76756756","imageIndex":17,"items":[{"name":"AM PM 편의점","tel":"031-949-8515","addr":"경기도 파주시 금촌동 988-4번지","indutype":"유통업 영리 - 편 의 점","category":"other"},{"name":"A짐","tel":"031-948-7547","addr":"경기도 파주시 금촌동 988-4번지","indutype":"회원제형태 - 레져업소","category":"other"},{"name":"계수나무공방","tel":"070-8880-6787","addr":"경기도 파주시 금촌동 988-4번지","indutype":"문화.취미 - 민예·공예품","category":"other"},{"name":"어바웃걸","tel":"031-943-8241","addr":"경기도 파주시 금촌동 988-4번지","indutype":"의류 - 정장","category":"other"},{"name":"팀맥스종합격투기","tel":"031-948-0727","addr":"경기도 파주시 금촌동 988-4번지 월드프라자601호~602호 601호","indutype":"회원제형태 - 레져업소","category":"other"},{"name":"팀에이스PT","tel":"031-947-7077","addr":"경기도 파주시 금촌동 988-4번지","indutype":"회원제형태 - 레져업소","category":"other"}]},{"lat":"37.756079221","long":"126.7693812","imageIndex":17,"items":[{"name":"ANYTECH","tel":"031-939-8759","addr":"경기도 파주시 금촌동 922번지 파주금촌주공아파트1단지","indutype":"사무통신 - 기타 사무용품","category":"other"}]},{"lat":"37.760256128","long":"126.77682389","imageIndex":17,"items":[{"name":"BYC금촌전문점","tel":"031-942-4274","addr":"경기도 파주시 금촌동 767-7번지","indutype":"의류 - 내의판매","category":"other"},{"name":"삼성전자남부대리점","tel":"031-945-3342","addr":"경기도 파주시 금촌동 767-7번지","indutype":"전기제품 - 가전제품","category":"other"},{"name":"주식회사 가자투어","tel":"031-948-5552","addr":"경기도 파주시 금촌동 767-7번지","indutype":"여행 - 관광여행","category":"other"}]},{"lat":"37.756820048","long":"126.77503005","imageIndex":17,"items":[{"name":"Dear Pink","tel":"031-941-5438","addr":"경기도 파주시 금촌동 951-5번지 장안4차아파트","indutype":"회원제형태 - 기타1","category":"other"}]},{"lat":"37.767921292","long":"126.76665415","imageIndex":17,"items":[{"name":"EG인터내셔널","tel":"070-4090-7351","addr":"경기도 파주시 금촌동 445-1번지","indutype":"서적문구 - 완구점","category":"other"}]},{"lat":"37.759508025","long":"126.77201454","imageIndex":17,"items":[{"name":"EIPSYSTEM","tel":"031-949-5912","addr":"경기도 파주시 금촌동 938-32번지","indutype":"사무통신 - 컴퓨터","category":"other"}]},{"lat":"37.761479314","long":"126.77110054","imageIndex":17,"items":[{"name":"EZ에너지","tel":"031-945-8535","addr":"경기도 파주시 금촌동 343-8번지","indutype":"건축자재 - 보일러·펌프·샷시","category":"other"},{"name":"염방ENG","tel":"031-877-3617","addr":"경기도 파주시 금촌동 343-8번지","indutype":"건축자재 - 보일러·펌프·샷시","category":"other"}]},{"lat":"37.752928549","long":"126.77534836","imageIndex":17,"items":[{"name":"GS25금촌2동귀빈점","tel":"02-2006-2485","addr":"경기도 파주시 금촌동 1003번지 쇠재마을뜨란채","indutype":"유통업 영리 - 편 의 점","category":"other"},{"name":"GS25금촌2동귀빈점","tel":"","addr":"경기도 파주시 금촌동 1003번지 쇠재마을뜨란채","indutype":"유통업 영리 - 편 의 점","category":"other"},{"name":"소보이엔지","tel":"031-942-2345","addr":"경기도 파주시 금촌동 1003번지 쇠재마을뜨란채","indutype":"신변잡화 - 기타잡화","category":"other"},{"name":"씨유금촌주공5단지점","tel":"031-942-6411","addr":"경기도 파주시 금촌동 1003번지 쇠재마을뜨란채","indutype":"유통업 영리 - 편 의 점","category":"other"},{"name":"주공세탁소","tel":"031-942-8862","addr":"경기도 파주시 금촌동 1003번지 쇠재마을뜨란채","indutype":"수리서비스 - 세탁소","category":"other"}]},{"lat":"37.761505494","long":"126.77528804","imageIndex":17,"items":[{"name":"GS25금촌로데오점","tel":"","addr":"경기도 파주시 금촌동 67-1번지","indutype":"유통업 영리 - 편 의 점","category":"other"}]},{"lat":"37.758616511","long":"126.77223293","imageIndex":17,"items":[{"name":"GS25금촌로타리점","tel":"","addr":"경기도 파주시 금촌동 938-17번지","indutype":"유통업 영리 - 편 의 점","category":"other"}]},{"lat":"37.755451382","long":"126.78015199","imageIndex":17,"items":[{"name":"GS25금촌병원점","tel":"","addr":"경기도 파주시 금촌동 792-4번지","indutype":"유통업 영리 - 편 의 점","category":"other"},{"name":"송월상사","tel":"031-944-3365","addr":"경기도 파주시 금촌동 792-4번지","indutype":"신변잡화 - 기타잡화","category":"other"}]},{"lat":"37.758754716","long":"126.76921391","imageIndex":17,"items":[{"name":"GS25금촌사랑점","tel":"02-2006-2485","addr":"경기도 파주시 금촌동 933-14번지","indutype":"유통업 영리 - 편 의 점","category":"other"}]},{"lat":"37.752892806","long":"126.77087769","imageIndex":17,"items":[{"name":"GS25금촌중앙점","tel":"080-555-2525","addr":"경기도 파주시 금촌동 992번지 후곡마을뜨란채","indutype":"유통업 영리 - 편 의 점","category":"other"},{"name":"Mobile Uplus","tel":"031-971-0119","addr":"경기도 파주시 금촌동 992번지 후곡마을뜨란채","indutype":"사무통신 - 통신기기","category":"other"},{"name":"금릉세탁소","tel":"031-957-0213","addr":"경기도 파주시 금촌동 992번지 후곡마을뜨란채","indutype":"수리서비스 - 세탁소","category":"other"},{"name":"씨유금촌중앙점","tel":"031-946-9843","addr":"경기도 파주시 금촌동 992번지 후곡마을뜨란채","indutype":"유통업 영리 - 편 의 점","category":"other"},{"name":"아이스크림","tel":"02-6340-5385","addr":"경기도 파주시 금촌동 992번지 후곡마을뜨란채","indutype":"의류 - 정장","category":"other"},{"name":"행복한인테리어","tel":"031-943-8911","addr":"경기도 파주시 금촌동 992번지 후곡마을뜨란채","indutype":"건축자재 - 인테리어전문","category":"other"},{"name":"향기로운 세탁","tel":"031-957-9123","addr":"경기도 파주시 금촌동 992번지 후곡마을뜨란채","indutype":"수리서비스 - 세탁소","category":"other"}]},{"lat":"37.760618028","long":"126.76837963","imageIndex":17,"items":[{"name":"GS25금촌초교점","tel":"","addr":"경기도 파주시 금촌동 288-4번지","indutype":"유통업 영리 - 편 의 점","category":"other"}]},{"lat":"37.755535163","long":"126.77218575","imageIndex":17,"items":[{"name":"GS25금촌한별점","tel":"","addr":"경기도 파주시 금촌동 234-17번지 두보아파트","indutype":"유통업 영리 - 편 의 점","category":"other"}]},{"lat":"37.751533433","long":"126.76687646","imageIndex":17,"items":[{"name":"GS25파주금릉점","tel":"02-2006-2118","addr":"경기도 파주시 금촌동 989-1번지","indutype":"유통업 영리 - 편 의 점","category":"other"},{"name":"두이세무회계사무소","tel":"031-948-8203","addr":"경기도 파주시 금촌동 989-1 금촌프라자4층 404","indutype":"용역 서비스 - 법률회계서비스(개인)","category":"other"},{"name":"사진이야기","tel":"031-945-7490","addr":"경기도 파주시 금촌동 989-1번지","indutype":"광학제품 - 사진관","category":"other"},{"name":"수연뷰띠","tel":"031-941-7072","addr":"경기도 파주시 금촌동 989-1번지 금촌프라자 4층 404호","indutype":"회원제형태 - 기타1","category":"other"}]},{"lat":"37.758058232","long":"126.77704619","imageIndex":17,"items":[{"name":"GS25파주금정공원점","tel":"","addr":"경기도 파주시 금촌동 773-5번지","indutype":"유통업 영리 - 편 의 점","category":"other"},{"name":"세븐 데이","tel":"031-957-2270","addr":"경기도 파주시 금촌동 773-5번지","indutype":"유통업 영리 - 편 의 점","category":"other"}]},{"lat":"37.752372652","long":"126.76754327","imageIndex":17,"items":[{"name":"GS25파주금촌점","tel":"02-2006-2118","addr":"경기도 파주시 금촌동 987-3,104~105호","indutype":"유통업 영리 - 편 의 점","category":"other"}]},{"lat":"37.75761978","long":"126.77862487","imageIndex":17,"items":[{"name":"J&J패키지","tel":"031-943-9745","addr":"경기도 파주시 금촌동 777-5번지","indutype":"서적문구 - 출판 및 인쇄물","category":"other"}]},{"lat":"37.751038457","long":"126.76715036","imageIndex":17,"items":[{"name":"KM세무회계사무소","tel":"031-945-4411","addr":"경기도 파주시 금촌동 990-3번지","indutype":"용역 서비스 - 법률회계서비스(개인)","category":"other"},{"name":"도준호세무사사무소","tel":"031-957-5651","addr":"경기도 파주시 금촌동 990-3번지","indutype":"용역 서비스 - 법률회계서비스(개인)","category":"other"},{"name":"라운드 북스","tel":"070-4254-2020","addr":"경기도 파주시 금촌동 990-3번지","indutype":"서적문구 - 출판 및 인쇄물","category":"other"},{"name":"민상운 세무회계","tel":"031-947-9898","addr":"경기도 파주시 금촌동 990-3번지","indutype":"용역 서비스 - 법률회계서비스(개인)","category":"other"},{"name":"바른경영세무회계사무소","tel":"031-942-2056","addr":"경기도 파주시 금촌동 990-3번지","indutype":"용역 서비스 - 법률회계서비스(개인)","category":"other"},{"name":"서영순세무회계사무소","tel":"031-948-6262","addr":"경기도 파주시 금촌동 990-3번지","indutype":"용역 서비스 - 법률회계서비스(개인)","category":"other"},{"name":"세무법인 광개토","tel":"031-943-6634","addr":"경기도 파주시 금촌동 990-3번지","indutype":"용역 서비스 - 법률회계서비스(법인)","category":"other"},{"name":"세무사이경훈세무회계사무소","tel":"031-941-3579","addr":"경기도 파주시 금촌동 990-3번지","indutype":"용역 서비스 - 법률회계서비스(개인)","category":"other"},{"name":"엔알프린팅 (NR프린팅)","tel":"031-000-0000","addr":"경기도 파주시 금촌동 990-3번지","indutype":"서적문구 - 출판 및 인쇄물","category":"other"},{"name":"이승용세무회계사무소","tel":"031-943-8090","addr":"경기도 파주시 금촌동 990-3번지","indutype":"용역 서비스 - 법률회계서비스(개인)","category":"other"},{"name":"제이케이 (JK) 에어솔루션","tel":"","addr":"경기도 파주시 금촌동 990-3번지","indutype":"용역 서비스 - 기타용역서비스","category":"other"},{"name":"한상근세무회계사무소","tel":"031-957-0234","addr":"경기도 파주시 금촌동 990-3번지","indutype":"용역 서비스 - 법률회계서비스(개인)","category":"other"}]},{"lat":"37.757787263","long":"126.77204259","imageIndex":17,"items":[{"name":"K통신","tel":"","addr":"경기도 파주시 금촌동 944-22번지","indutype":"사무통신 - 통신기기","category":"other"}]},{"lat":"37.756309741","long":"126.7814544","imageIndex":17,"items":[{"name":"LG냉열시스템","tel":"031-942-7027","addr":"경기도 파주시 금촌동 794-2번지 장인멘션","indutype":"회원제형태 - 기타4","category":"other"},{"name":"파주세탁소","tel":"031-943-2056","addr":"경기도 파주시 금촌동 794-2번지","indutype":"수리서비스 - 세탁소","category":"other"}]},{"lat":"37.763674752","long":"126.77423731","imageIndex":17,"items":[{"name":"NB금촌점","tel":"031-949-5220","addr":"경기도 파주시 금촌동 59-5번지","indutype":"레져용품 - 스포츠·레져용품","category":"other"}]},{"lat":"37.754471913","long":"126.77212097","imageIndex":17,"items":[{"name":"NEXTEDU넥스트에듀","tel":"070-7501-9699","addr":"경기도 파주시 금촌동 233-6번지 대영장미아파트","indutype":"서적문구 - 일반서적","category":"other"}]},{"lat":"37.755455364","long":"126.77284416","imageIndex":17,"items":[{"name":"OK","tel":"031-941-1518","addr":"경기도 파주시 금촌동 956-9번지","indutype":"신변잡화 - 액세서리","category":"other"}]},{"lat":"37.768612965","long":"126.77014761","imageIndex":17,"items":[{"name":"OK설비","tel":"031-941-0816","addr":"경기도 파주시 금촌동 398-2번지","indutype":"건축자재 - 보일러·펌프·샷시","category":"other"}]},{"lat":"37.75508922","long":"126.77451337","imageIndex":17,"items":[{"name":"OPEL경보기","tel":"031-944-5032","addr":"경기도 파주시 금촌동 802-1번지","indutype":"기타 - 기타 전문점","category":"other"}]},{"lat":"37.756921689","long":"126.77634608","imageIndex":17,"items":[{"name":"Point(포인트)","tel":"031-949-2232","addr":"경기도 파주시 금촌동 774-21번지","indutype":"건축자재 - 조명기구","category":"other"}]},{"lat":"37.763866257","long":"126.77542834","imageIndex":17,"items":[{"name":"RAMIYA문전성시","tel":"070-7808-1253","addr":"경기도 파주시 금촌동 51-9번지","indutype":"전기제품 - 가전제품","category":"other"}]},{"lat":"37.763757815","long":"126.77525844","imageIndex":17,"items":[{"name":"RETAIL OUTLET","tel":"031-945-2545","addr":"경기도 파주시 금촌동 51-12번지","indutype":"의류 - 정장","category":"other"}]},{"lat":"37.759864967","long":"126.77026581","imageIndex":17,"items":[{"name":"SIMPLE전자","tel":"","addr":"경기도 파주시 금촌동 935-5번지 화이트케슬","indutype":"용역 서비스 - 기타용역서비스","category":"other"}]},{"lat":"37.75186667","long":"126.76681867","imageIndex":17,"items":[{"name":"SNH(에스엔에이치)","tel":"031-989-7549","addr":"경기도 파주시 금촌동 988-1번지","indutype":"의류 - 정장","category":"other"},{"name":"금릉폰","tel":"070-4156-2575","addr":"경기도 파주시 금촌동 988-1번지","indutype":"사무통신 - 통신기기","category":"other"},{"name":"더블유짐","tel":"031-943-7910","addr":"경기도 파주시 금촌동 988-1번지","indutype":"회원제형태 - 레져업소","category":"other"}]},{"lat":"37.763259237","long":"126.7736825","imageIndex":17,"items":[{"name":"SUN무도학원","tel":"031-949-2794","addr":"경기도 파주시 금촌동 325-4번지","indutype":"회원제형태 - 레져업소","category":"other"},{"name":"디쎄(DEESSE)","tel":"031-943-4302","addr":"경기도 파주시 금촌동 325-4번지","indutype":"의류 - 정장","category":"other"}]},{"lat":"37.756670222","long":"126.77211414","imageIndex":17,"items":[{"name":"Shinjin","tel":"031-945-1259","addr":"경기도 파주시 금촌동 255-5번지 장미아파트","indutype":"신변잡화 - 액세서리","category":"other"},{"name":"시원한나라","tel":"070-7523-8310","addr":"경기도 파주시 금촌동 255-5번지 장미아파트","indutype":"회원제형태 - 기타4","category":"other"}]},{"lat":"37.766871188","long":"126.77324008","imageIndex":17,"items":[{"name":"T=열쇠","tel":"031-8071-3115","addr":"경기도 파주시 금촌동 390-102번지","indutype":"기타 - 기계공구","category":"other"},{"name":"신통일차유리","tel":"031-944-4700","addr":"경기도 파주시 금촌동 390-102번지","indutype":"건축자재 - 유리","category":"other"}]},{"lat":"37.76387719","long":"126.77642701","imageIndex":17,"items":[{"name":"TARMS (탐스)","tel":"031-941-3757","addr":"경기도 파주시 금촌동 51-49번지","indutype":"신변잡화 - 신발","category":"other"}]},{"lat":"37.768423723","long":"126.77473341","imageIndex":17,"items":[{"name":"THE 숲으로","tel":"031-957-4567","addr":"경기도 파주시 금촌동 20-23번지","indutype":"건축자재 - 인테리어전문","category":"other"}]},{"lat":"37.759480129","long":"126.77157205","imageIndex":17,"items":[{"name":"THE좋은상사","tel":"031-944-0828","addr":"경기도 파주시 금촌동 938-1번지 순흥","indutype":"건축자재 - 목재·석재·철물","category":"other"}]},{"lat":"37.755368013","long":"126.76965577","imageIndex":17,"items":[{"name":"Thank you(땡큐)","tel":"031-947-3242","addr":"경기도 파주시 금촌동 246-29번지","indutype":"의류 - 정장","category":"other"},{"name":"누보인테리어","tel":"031-947-2632","addr":"경기도 파주시 금촌동 246-29번지","indutype":"가구 - 일반가구","category":"other"},{"name":"크린에이드 금촌2호점","tel":"031-948-7643","addr":"경기도 파주시 금촌동 246-29번지","indutype":"수리서비스 - 세탁소","category":"other"}]},{"lat":"37.759593864","long":"126.77445413","imageIndex":17,"items":[{"name":"The 순이","tel":"02-385-8327","addr":"경기도 파주시 금촌동 77-5 101호","indutype":"의류 - 정장","category":"other"}]},{"lat":"37.755726819","long":"126.77811995","imageIndex":17,"items":[{"name":"U2금촌점","tel":"031-944-8818","addr":"경기도 파주시 금촌동 791-17번지 2층","indutype":"의류 - 정장","category":"other"}]},{"lat":"37.752035959","long":"126.76587633","imageIndex":17,"items":[{"name":"Wellsystem(웰시스템)","tel":"031-949-2492","addr":"경기도 파주시 금촌동 986-1번지","indutype":"신변잡화 - 기타잡화","category":"other"},{"name":"미열스튜디오","tel":"","addr":"경기도 파주시 금촌동 986-1번지","indutype":"광학제품 - 사진관","category":"other"}]},{"lat":"37.751868733","long":"126.76785124","imageIndex":17,"items":[{"name":"YEZAK(예작)","tel":"031-957-5388","addr":"경기도 파주시 금촌동 988-5번지","indutype":"신변잡화 - 귀금속","category":"other"},{"name":"풋풋한 슈즈 (FOOT FOOT한 SHOES)","tel":"070-4196-4292","addr":"경기도 파주시 금촌동 988-5번지","indutype":"신변잡화 - 신발","category":"other"}]},{"lat":"37.75773217","long":"126.77615069","imageIndex":17,"items":[{"name":"star종합인테리어","tel":"031-941-3534","addr":"경기도 파주시 금촌동 773-8번지","indutype":"건축자재 - 인테리어전문","category":"other"},{"name":"성심종합공구철물","tel":"031-941-3534","addr":"경기도 파주시 금촌동 773-8번지","indutype":"기타 - 기계공구","category":"other"}]},{"lat":"37.762614249","long":"126.76643271","imageIndex":17,"items":[{"name":"가나다천막","tel":"031-944-8352","addr":"경기도 파주시 금촌동 470-3번지","indutype":"직물 - 카페트,커튼,천막,지물","category":"other"},{"name":"금탑운수(주)금촌","tel":"031-948-1222","addr":"경기도 파주시 금촌동 470-3번지","indutype":"여행 - 렌터카","category":"other"}]},{"lat":"37.756257804","long":"126.77314806","imageIndex":17,"items":[{"name":"가남설비","tel":"031-944-2978","addr":"경기도 파주시 금촌동 956-2번지","indutype":"용역 서비스 - 기타용역서비스","category":"other"}]},{"lat":"37.760252631","long":"126.77500817","imageIndex":17,"items":[{"name":"가람광고","tel":"031-943-6188","addr":"경기도 파주시 금촌동 72-23번지","indutype":"건축자재 - 인테리어전문","category":"other"}]},{"lat":"37.757284265","long":"126.7774911","imageIndex":17,"items":[{"name":"가로수천막","tel":"031-944-1001","addr":"경기도 파주시 금촌동 775-3번지","indutype":"직물 - 카페트,커튼,천막,지물","category":"other"}]},{"lat":"37.76314282","long":"126.77404601","imageIndex":17,"items":[{"name":"가르데니아","tel":"070-8156-3446","addr":"경기도 파주시 금촌동 60-22번지","indutype":"신변잡화 - 신발","category":"other"}]},{"lat":"37.761559025","long":"126.77501551","imageIndex":17,"items":[{"name":"가온정보통신","tel":"031-947-4982","addr":"경기도 파주시 금촌동 67-9번지","indutype":"사무통신 - 통신기기","category":"other"},{"name":"라라라(LALALA0","tel":"031-000-0000","addr":"경기도 파주시 금촌동 67-9번지","indutype":"의류 - 정장","category":"other"},{"name":"만능열쇠","tel":"031-944-1313","addr":"경기도 파주시 금촌동 67-9번지","indutype":"건축자재 - 목재·석재·철물","category":"other"},{"name":"청바지아울렛쪼리(JJORI)","tel":"02-778-4169","addr":"경기도 파주시 금촌동 67-9번지","indutype":"의류 - 정장","category":"other"}]},{"lat":"37.758256223","long":"126.7769321","imageIndex":17,"items":[{"name":"가윤EST","tel":"031-943-9060","addr":"경기도 파주시 금촌동 773-4번지","indutype":"사무통신 - 컴퓨터","category":"other"},{"name":"광흥건축자재","tel":"031-947-7880","addr":"경기도 파주시 금촌동 773-4번지","indutype":"건축자재 - 목재·석재·철물","category":"other"},{"name":"두올인테리어","tel":"031-944-4378","addr":"경기도 파주시 금촌동 773-4번지","indutype":"직물 - 카페트,커튼,천막,지물","category":"other"},{"name":"하나건축사무소","tel":"031-949-9762","addr":"경기도 파주시 금촌동 773-4번지","indutype":"용역 서비스 - 사무서비스","category":"other"}]},{"lat":"37.76292507","long":"126.77326363","imageIndex":17,"items":[{"name":"가인FA전기SYSTEM","tel":"031-449-3434","addr":"경기도 파주시 금촌동 321-17번지","indutype":"전기제품 - 가전제품","category":"other"},{"name":"빙카","tel":"031-943-8838","addr":"경기도 파주시 금촌동 321-17번지","indutype":"의류 - 정장","category":"other"},{"name":"헌트인너웨어","tel":"031-941-5882","addr":"경기도 파주시 금촌동 321-17번지","indutype":"의류 - 내의판매","category":"other"}]},{"lat":"37.757169933","long":"126.77895532","imageIndex":17,"items":[{"name":"가전랜드","tel":"031-946-3159","addr":"경기도 파주시 금촌동 782-1번지","indutype":"수리서비스 - 가정용품수리","category":"other"},{"name":"세진전기","tel":"031-944-8390","addr":"경기도 파주시 금촌동 782-1번지","indutype":"전기제품 - 기타전기제품","category":"other"},{"name":"월드컴퓨터","tel":"031-941-9100","addr":"경기도 파주시 금촌동 782-1번지","indutype":"사무통신 - 컴퓨터","category":"other"}]},{"lat":"37.756920394","long":"126.77104667","imageIndex":17,"items":[{"name":"가정복지행복요양원","tel":"031-944-0086","addr":"경기도 파주시 금촌동 253-5번지","indutype":"기타의료기관 - 기타의료기관 및 기타","category":"other"},{"name":"레드칼라","tel":"031-947-6568","addr":"경기도 파주시 금촌동 253-5번지","indutype":"용역 서비스 - 종합용역","category":"other"},{"name":"베이비온","tel":"070-7569-0572","addr":"경기도 파주시 금촌동 253-5번지","indutype":"광학제품 - 사진관","category":"other"},{"name":"제일열쇠","tel":"031-8071-0991","addr":"경기도 파주시 금촌동 253-5번지","indutype":"기타 - 기계공구","category":"other"},{"name":"프리웨이","tel":"031-946-8898","addr":"경기도 파주시 금촌동 254-2골드시티프라자110~111호","indutype":"유통업 영리 - 편 의 점","category":"other"}]},{"lat":"37.757782885","long":"126.76981841","imageIndex":17,"items":[{"name":"갑진유통","tel":"031-957-9962","addr":"경기도 파주시 금촌동 943-18번지","indutype":"신변잡화 - 기타잡화","category":"other"},{"name":"밍크하우스","tel":"031-956-9962","addr":"경기도 파주시 금촌동 943-18번지","indutype":"의류 - 정장","category":"other"},{"name":"행복텔레콤","tel":"070-7567-9738","addr":"경기도 파주시 금촌동 943-18번지","indutype":"사무통신 - 통신기기","category":"other"}]},{"lat":"37.759894878","long":"126.77637106","imageIndex":17,"items":[{"name":"강남스타일","tel":"031-946-0979","addr":"경기도 파주시 금촌동 767-1번지","indutype":"의류 - 정장","category":"other"},{"name":"그린조이 파주금촌점","tel":"031-954-4949","addr":"경기도 파주시 금촌동 767-1번지","indutype":"레져용품 - 스포츠·레져용품","category":"other"},{"name":"마이웨이 브랜드 아울렛 편집샵","tel":"031-947-6254","addr":"경기도 파주시 금촌동 767-1번지","indutype":"의류 - 정장","category":"other"},{"name":"보석수재샵","tel":"","addr":"경기도 파주시 금촌동 767-1번지","indutype":"문화.취미 - 문화취미기타","category":"other"},{"name":"폰카페","tel":"031-947-4455","addr":"경기도 파주시 금촌동 767-1번지","indutype":"사무통신 - 통신기기","category":"other"}]},{"lat":"37.763758953","long":"126.77584858","imageIndex":17,"items":[{"name":"개그맨","tel":"031-947-4062","addr":"경기도 파주시 금촌동 52번지","indutype":"의류 - 정장","category":"other"}]},{"lat":"37.754563914","long":"126.77309656","imageIndex":17,"items":[{"name":"거북여행사","tel":"031-957-5518","addr":"경기도 파주시 금촌동 234-22번지 거북여행사","indutype":"여행 - 관광여행","category":"other"},{"name":"미래사진관","tel":"031-943-3824","addr":"경기도 파주시 금촌동 234-22번지 두보아파트","indutype":"광학제품 - 사진관","category":"other"},{"name":"파주고양이 미용실","tel":"","addr":"경기도 파주시 금촌동 234-22번지 두보아파트","indutype":"문화.취미 - 애완동물","category":"other"}]},{"lat":"37.755397801","long":"126.77568122","imageIndex":17,"items":[{"name":"건우냉열","tel":"031-948-3233","addr":"경기도 파주시 금촌동 789-3 디동 13호","indutype":"수리서비스 - 기타수리서비스","category":"other"},{"name":"금촌인테리어","tel":"031-943-3354","addr":"경기도 파주시 금촌동 789-3,다-4","indutype":"건축자재 - 인테리어전문","category":"other"},{"name":"동아미싱","tel":"031-948-1919","addr":"경기도 파주시 금촌동 789-3번지","indutype":"기타 - 기계공구","category":"other"}]},{"lat":"37.758315513","long":"126.77967814","imageIndex":17,"items":[{"name":"건화종합건축사사무소","tel":"031-8071-3230","addr":"경기도 파주시 금촌동 780-7번지","indutype":"용역 서비스 - 사무서비스","category":"other"},{"name":"국토토목설계사무소","tel":"031-949-7704","addr":"경기도 파주시 금촌동 780-7번지","indutype":"용역 서비스 - 사무서비스","category":"other"}]},{"lat":"37.769279731","long":"126.77017957","imageIndex":17,"items":[{"name":"걸","tel":"070-4212-3945","addr":"경기도 파주시 금촌동 1014-2번지 그린아파트","indutype":"의류 - 정장","category":"other"}]},{"lat":"37.751535383","long":"126.76785229","imageIndex":17,"items":[{"name":"게이트맨 파주대리점 행운사","tel":"031-944-1115","addr":"경기도 파주시 금촌동 989-5번지","indutype":"수리서비스 - 기타수리서비스","category":"other"},{"name":"비&2","tel":"","addr":"경기도 파주시 금촌동 989-5번지","indutype":"의류 - 정장","category":"other"},{"name":"세무사유주형사무소","tel":"031-944-2122","addr":"경기도 파주시 금촌동 989-5번지","indutype":"용역 서비스 - 법률회계서비스(개인)","category":"other"},{"name":"열린공인중개사무소","tel":"031-946-8999","addr":"경기도 파주시 금촌동 989-5번지","indutype":"용역 서비스 - 부동산 중개·임대","category":"other"},{"name":"제승훈세무회계사무소","tel":"031-943-1460","addr":"경기도 파주시 금촌동 989-5번지","indutype":"용역 서비스 - 법률회계서비스(개인)","category":"other"}]},{"lat":"37.761843765","long":"126.76860273","imageIndex":17,"items":[{"name":"경기꽃화훼","tel":"031-944-2929","addr":"경기도 파주시 금촌동 350-9번지","indutype":"문화.취미 - 화원","category":"other"}]},{"lat":"37.759312609","long":"126.77812045","imageIndex":17,"items":[{"name":"경기종합주방","tel":"031-943-6460","addr":"경기도 파주시 금촌동 769-13번지","indutype":"주방용구 - 주방용구","category":"other"}]},{"lat":"37.75923174","long":"126.77823417","imageIndex":17,"items":[{"name":"경기주방그릇","tel":"031-943-6460","addr":"경기도 파주시 금촌동 769-15번지","indutype":"주방용구 - 주방용식기","category":"other"}]},{"lat":"37.77041947","long":"126.77249136","imageIndex":17,"items":[{"name":"경동테크원","tel":"031-945-4100","addr":"경기도 파주시 금촌동 424-9번지 경신아파트","indutype":"용역 서비스 - 기타용역서비스","category":"other"}]},{"lat":"37.763341711","long":"126.77439721","imageIndex":17,"items":[{"name":"경민유통","tel":"031-000-0000","addr":"경기도 파주시 금촌동 61-4번지","indutype":"의류 - 정장","category":"other"}]},{"lat":"37.757645641","long":"126.77801201","imageIndex":17,"items":[{"name":"경은종합인테리어","tel":"031-941-8479","addr":"경기도 파주시 금촌동 776-6번지","indutype":"직물 - 카페트,커튼,천막,지물","category":"other"},{"name":"대광산업","tel":"031-941-2233","addr":"경기도 파주시 금촌동 776-6번지","indutype":"용역 서비스 - 종합용역","category":"other"}]},{"lat":"37.764537591","long":"126.76859423","imageIndex":17,"items":[{"name":"고려석재산업","tel":"031-941-4102","addr":"경기도 파주시 금촌동 443-1번지","indutype":"건축자재 - 목재·석재·철물","category":"other"}]},{"lat":"37.763504475","long":"126.77470313","imageIndex":17,"items":[{"name":"골드마인","tel":"031-946-1255","addr":"경기도 파주시 금촌동 54-27번지","indutype":"신변잡화 - 액세서리","category":"other"},{"name":"휴스킨앤바디","tel":"070-4809-5708","addr":"경기도 파주시 금촌동 54-27번지","indutype":"회원제형태 - 기타4","category":"other"}]},{"lat":"37.755755123","long":"126.77878937","imageIndex":17,"items":[{"name":"골드스토리","tel":"031-947-5556","addr":"경기도 파주시 금촌동 791-23번지 길산원룸","indutype":"신변잡화 - 귀금속","category":"other"}]},{"lat":"37.758960975","long":"126.77330992","imageIndex":17,"items":[{"name":"공조","tel":"031-111-1111","addr":"경기도 파주시 금촌동 946-5번지 한솔빌라","indutype":"용역 서비스 - 기타용역서비스","category":"other"}]},{"lat":"37.758531868","long":"126.77503615","imageIndex":17,"items":[{"name":"공증인방옥성사무소","tel":"031-948-8232","addr":"경기도 파주시 금촌동 947-30번지 4층 전체","indutype":"용역 서비스 - 사무서비스","category":"other"}]},{"lat":"37.758622248","long":"126.77518339","imageIndex":17,"items":[{"name":"공증인황도연사무소","tel":"031-948-9570","addr":"경기도 파주시 금촌동 947-29번지 고무래황소시골밥상 201호","indutype":"용역 서비스 - 법률회계서비스(개인)","category":"other"},{"name":"파주합동법률사무소","tel":"031-941-3388","addr":"경기도 파주시 금촌동 947-29번지","indutype":"용역 서비스 - 법률회계서비스(개인)","category":"other"}]},{"lat":"37.75851074","long":"126.76885155","imageIndex":17,"items":[{"name":"광동종합보수","tel":"031-8035-6146","addr":"경기도 파주시 금촌동 942-1번지","indutype":"용역 서비스 - 기타용역서비스","category":"other"},{"name":"미스터 컴","tel":"031-945-8741","addr":"경기도 파주시 금촌동 942-1번지","indutype":"수리서비스 - 사무·통신기기수리","category":"other"},{"name":"주식회사 제이와이상사","tel":"031-941-8830","addr":"경기도 파주시 금촌동 942-1번지","indutype":"건축자재 - 페인트","category":"other"}]},{"lat":"37.762148085","long":"126.77215387","imageIndex":17,"items":[{"name":"광성물산","tel":"031-941-2525","addr":"경기도 파주시 금촌동 337-16","indutype":"건축자재 - 목재·석재·철물","category":"other"}]},{"lat":"37.764226591","long":"126.77540454","imageIndex":17,"items":[{"name":"구제백화점","tel":"","addr":"경기도 파주시 금촌동 50-26번지","indutype":"의류 - 정장","category":"other"},{"name":"풀잎문화센터","tel":"031-946-7545","addr":"경기도 파주시 금촌동 50-26번지","indutype":"문화.취미 - 문화취미기타","category":"other"}]},{"lat":"37.762922965","long":"126.77218551","imageIndex":17,"items":[{"name":"구제옷나라","tel":"031-947-1545","addr":"경기도 파주시 금촌동 324-13번지","indutype":"의류 - 정장","category":"other"}]},{"lat":"37.763892759","long":"126.77515589","imageIndex":17,"items":[{"name":"국제마크사","tel":"031-941-3096","addr":"경기도 파주시 금촌동 50-33번지","indutype":"기타 - 기타 전문점","category":"other"},{"name":"밀크쥬얼리","tel":"031-947-6254","addr":"경기도 파주시 금촌동 50-33번지","indutype":"신변잡화 - 액세서리","category":"other"},{"name":"밀크쥬얼리","tel":"031-947-6254","addr":"경기도 파주시 금촌동 50-33번지","indutype":"의류 - 기타의류","category":"other"},{"name":"이공삼(203)","tel":"031-947-8252","addr":"경기도 파주시 금촌동 50-33번지","indutype":"의류 - 정장","category":"other"}]},{"lat":"37.755421271","long":"126.77384285","imageIndex":17,"items":[{"name":"궁 스킨케어","tel":"031-944-3489","addr":"경기도 파주시 금촌동 953-9번지","indutype":"회원제형태 - 기타4","category":"other"},{"name":"디자인플러스","tel":"031-944-7904","addr":"경기도 파주시 금촌동 953-9번지","indutype":"건축자재 - 인테리어전문","category":"other"},{"name":"이드","tel":"031-949-4050","addr":"경기도 파주시 금촌동 953-9,10,15번지104","indutype":"신변잡화 - 액세서리","category":"other"}]},{"lat":"37.762280016","long":"126.77051926","imageIndex":17,"items":[{"name":"귀뚜라미A/S","tel":"031-945-1122","addr":"경기도 파주시 금촌동 334-112번지","indutype":"수리서비스 - 기타수리서비스","category":"other"}]},{"lat":"37.765171136","long":"126.77465261","imageIndex":17,"items":[{"name":"귀빈당","tel":"031-944-3239","addr":"경기도 파주시 금촌동 329-223번지","indutype":"신변잡화 - 시계","category":"other"},{"name":"둥지","tel":"","addr":"경기도 파주시 금촌동 329-223","indutype":"의류 - 정장","category":"other"}]},{"lat":"37.762922186","long":"126.77178831","imageIndex":17,"items":[{"name":"규방","tel":"031-941-2137","addr":"경기도 파주시 금촌동 328-8번지","indutype":"수리서비스 - 세탁소","category":"other"}]},{"lat":"37.763840683","long":"126.77154712","imageIndex":17,"items":[{"name":"그라티아 여행사","tel":"031-957-4311","addr":"경기도 파주시 금촌동 329-314번지","indutype":"여행 - 관광여행","category":"other"}]},{"lat":"37.766890774","long":"126.77404582","imageIndex":17,"items":[{"name":"그린상사","tel":"070-7138-2229","addr":"경기도 파주시 금촌동 33-7번지","indutype":"회원제형태 - 기타4","category":"other"}]},{"lat":"37.755731875","long":"126.78078661","imageIndex":17,"items":[{"name":"그린아트인테리어","tel":"031-942-2580","addr":"경기도 파주시 금촌동 793-4번지","indutype":"건축자재 - 인테리어전문","category":"other"},{"name":"코스모","tel":"031-949-5911","addr":"경기도 파주시 금촌동 793-4번지","indutype":"사무통신 - 컴퓨터","category":"other"},{"name":"현대엠엔소프트파주점","tel":"031-943-2449","addr":"경기도 파주시 금촌동 793-4번지","indutype":"전기제품 - 가전제품","category":"other"}]},{"lat":"37.754395865","long":"126.77010137","imageIndex":17,"items":[{"name":"그린토피아","tel":"031-942-7997","addr":"경기도 파주시 금촌동 228-1번지","indutype":"수리서비스 - 세탁소","category":"other"}]},{"lat":"37.763145349","long":"126.77073218","imageIndex":17,"items":[{"name":"그림그리는 계란","tel":"","addr":"경기도 파주시 금촌동 334-204번지 대광","indutype":"문화.취미 - 화랑","category":"other"}]},{"lat":"37.753254241","long":"126.76687099","imageIndex":17,"items":[{"name":"글로벌리더스피치면접센터","tel":"031-941-8883","addr":"경기도 파주시 금촌동 984번지 새꽃마을주공아파트","indutype":"회원제형태 - 기타4","category":"other"},{"name":"미니스톱 새꽃마을점","tel":"031-1577-9621","addr":"경기도 파주시 금촌동 984번지 새꽃마을주공아파트","indutype":"유통업 영리 - 편 의 점","category":"other"},{"name":"아네스 퀼트","tel":"031-942-7813","addr":"경기도 파주시 금촌동 984번지 새꽃마을주공아파트","indutype":"직물 - 침구·수예점","category":"other"},{"name":"우리집 강아지","tel":"031-943-0042","addr":"경기도 파주시 금촌동 984번지 새꽃마을주공아파트","indutype":"문화.취미 - 애완동물","category":"other"}]},{"lat":"37.756644572","long":"126.7774817","imageIndex":17,"items":[{"name":"글로벌정보통신","tel":"031-905-9183","addr":"경기도 파주시 금촌동 785-1번지","indutype":"사무통신 - 통신기기","category":"other"}]},{"lat":"37.75083909","long":"126.7665723","imageIndex":17,"items":[{"name":"금릉역 전자담배 멀티샵","tel":"031-947-1934","addr":"경기도 파주시 금촌동 986-5번지","indutype":"기타 - 기타 전문점","category":"other"},{"name":"김유정세무회계사무소","tel":"031-947-1872","addr":"경기도 파주시 금촌동 986-5번지","indutype":"용역 서비스 - 법률회계서비스(개인)","category":"other"},{"name":"도움세무회계","tel":"031-942-7890","addr":"경기도 파주시 금촌동 986-5번지","indutype":"용역 서비스 - 법률회계서비스(개인)","category":"other"},{"name":"법무사장동호사무소","tel":"031-945-7100","addr":"경기도 파주시 금촌동 986-5번지","indutype":"용역 서비스 - 법률회계서비스(개인)","category":"other"},{"name":"삼천리자전거","tel":"031-941-4423","addr":"경기도 파주시 금촌동 986-5번지","indutype":"레져용품 - 스포츠·레져용품","category":"other"},{"name":"세무사최윤호사무소","tel":"031-946-7550","addr":"경기도 파주시 금촌동 986-5번지","indutype":"용역 서비스 - 법률회계서비스(개인)","category":"other"},{"name":"세븐아트스쿨","tel":"031-941-4275","addr":"경기도 파주시 금촌동 986-5번지 미라클프라자 1층 109호","indutype":"문화.취미 - 문화취미기타","category":"other"},{"name":"이순배세무회계사무소","tel":"031-957-0911","addr":"경기도 파주시 금촌동 986-5번지","indutype":"용역 서비스 - 법률회계서비스(개인)","category":"other"},{"name":"주영세무회계사무소","tel":"031-946-3001","addr":"경기도 파주시 금촌동 986-5번지 미라클프라자 303호","indutype":"용역 서비스 - 법률회계서비스(개인)","category":"other"},{"name":"투어365여행사","tel":"031-942-6399","addr":"경기도 파주시 금촌동 986-5번지","indutype":"여행 - 관광여행","category":"other"},{"name":"파주상공회의소","tel":"031-8071-4240","addr":"경기도 파주시 금촌동 986-5번지","indutype":"기타 - 비영리/비대상","category":"other"},{"name":"플레이스(PLACE)","tel":"031-946-0149","addr":"경기도 파주시 금촌동 986-5번지","indutype":"문화.취미 - 화원","category":"other"},{"name":"헬스&휘트니스오투존","tel":"031-942-0800","addr":"경기도 파주시 금촌동 986-5번지","indutype":"회원제형태 - 레져업소","category":"other"}]},{"lat":"37.751118042","long":"126.76640121","imageIndex":17,"items":[{"name":"금릉펫샵","tel":"031-948-5049","addr":"경기도 파주시 금촌동 986-4번지","indutype":"문화.취미 - 애완동물","category":"other"},{"name":"법무사 박용운 사무소","tel":"031-943-1112","addr":"경기도 파주시 금촌동 986-4번지","indutype":"용역 서비스 - 법률회계서비스(개인)","category":"other"},{"name":"이마트24 금릉역점","tel":"031-1111-1111","addr":"경기도 파주시 금촌동 986-4번지","indutype":"유통업 영리 - 편 의 점","category":"other"},{"name":"이마트24 금릉역점","tel":"","addr":"경기도 파주시 금촌동 986-4번지","indutype":"유통업 영리 - 편 의 점","category":"other"}]},{"lat":"37.763308903","long":"126.77143529","imageIndex":17,"items":[{"name":"금성새로나대리점","tel":"031-942-5454","addr":"경기도 파주시 금촌동 329-157번지","indutype":"전기제품 - 가전제품","category":"other"}]},{"lat":"37.76536853","long":"126.77423209","imageIndex":17,"items":[{"name":"금촌 봉사방 행정사 사무소","tel":"031-945-6123","addr":"경기도 파주시 금촌동 329-54번지","indutype":"용역 서비스 - 법률회계서비스(개인)","category":"other"},{"name":"새한건설M&A","tel":"031-941-5592","addr":"경기도 파주시 금촌동 329-54번지","indutype":"용역 서비스 - 사무서비스","category":"other"}]},{"lat":"37.756532965","long":"126.77103654","imageIndex":17,"items":[{"name":"금촌 삼성요양원","tel":"031-948-5522","addr":"경기도 파주시 금촌동 251-10번지","indutype":"기타의료기관 - 기타의료기관 및 기타","category":"other"}]},{"lat":"37.76295371","long":"126.77409199","imageIndex":17,"items":[{"name":"금촌DC백화점","tel":"031-949-1983","addr":"경기도 파주시 금촌동 63-1번지","indutype":"신변잡화 - 기타잡화","category":"other"},{"name":"마전우리옷맞춤","tel":"031-943-2779","addr":"경기도 파주시 금촌동 63-1번지","indutype":"의류 - 정장","category":"other"},{"name":"물댄동산","tel":"031-946-5369","addr":"경기도 파주시 금촌동 63-1번지","indutype":"의류 - 기타의류","category":"other"},{"name":"송희네","tel":"","addr":"경기도 파주시 금촌동 63-1번지","indutype":"의류 - 정장","category":"other"},{"name":"유니패션","tel":"031-111-1111","addr":"경기도 파주시 금촌동 63-1번지","indutype":"의류 - 정장","category":"other"},{"name":"휴피부관리실","tel":"031-8823-7337","addr":"경기도 파주시 금촌동 63-1번지 중앙상가 34호,35호","indutype":"회원제형태 - 기타4","category":"other"}]},{"lat":"37.765756858","long":"126.77009982","imageIndex":17,"items":[{"name":"금촌배드민턴 테니스전문점","tel":"031-946-7508","addr":"경기도 파주시 금촌동 386-4번지","indutype":"레져용품 - 스포츠·레져용품","category":"other"},{"name":"와이제이","tel":"031-944-5276","addr":"경기도 파주시 금촌동 386-4번지","indutype":"전기제품 - 기타전기제품","category":"other"}]},{"lat":"37.763449406","long":"126.77418125","imageIndex":17,"items":[{"name":"금촌비비안","tel":"031-000-0000","addr":"경기도 파주시 금촌동 60-11번지","indutype":"의류 - 내의판매","category":"other"},{"name":"더 로우프라이스클럽","tel":"031-958-3932","addr":"경기도 파주시 금촌동 60-11번지","indutype":"의류 - 정장","category":"other"}]},{"lat":"37.75942704","long":"126.77671293","imageIndex":17,"items":[{"name":"금촌빨래방","tel":"031-945-1899","addr":"경기도 파주시 금촌동 766번지","indutype":"수리서비스 - 세탁소","category":"other"}]},{"lat":"37.759122017","long":"126.77273067","imageIndex":17,"items":[{"name":"금촌사무용가구","tel":"031-941-9375","addr":"경기도 파주시 금촌동 307-47번지","indutype":"회원제형태 - 기타4","category":"other"}]},{"lat":"37.766728119","long":"126.77379663","imageIndex":17,"items":[{"name":"금촌세탁소","tel":"031-946-6118","addr":"경기도 파주시 금촌동 390-84번지","indutype":"수리서비스 - 세탁소","category":"other"}]},{"lat":"37.765476819","long":"126.77432255","imageIndex":17,"items":[{"name":"금촌애견","tel":"031-946-9912","addr":"경기도 파주시 금촌동 329-39번지","indutype":"문화.취미 - 애완동물","category":"other"}]},{"lat":"37.763060963","long":"126.77364906","imageIndex":17,"items":[{"name":"금촌열쇠백화점","tel":"031-941-1212","addr":"경기도 파주시 금촌동 325-3번지","indutype":"건축자재 - 목재·석재·철물","category":"other"},{"name":"이루다","tel":"031-975-4926","addr":"경기도 파주시 금촌동 325-3번지","indutype":"의류 - 내의판매","category":"other"}]},{"lat":"37.762779878","long":"126.77273069","imageIndex":17,"items":[{"name":"금촌유리","tel":"031-941-2493","addr":"경기도 파주시 금촌동 323-15번지","indutype":"건축자재 - 유리","category":"other"}]},{"lat":"37.762564427","long":"126.77312856","imageIndex":17,"items":[{"name":"금촌이불","tel":"031-946-1030","addr":"경기도 파주시 금촌동 321-24번지","indutype":"직물 - 침구·수예점","category":"other"}]},{"lat":"37.762423406","long":"126.7747405","imageIndex":17,"items":[{"name":"금촌잡화","tel":"031-1111-1111","addr":"경기도 파주시 금촌동 62-10번지","indutype":"신변잡화 - 가방","category":"other"},{"name":"로마의휴일","tel":"031-943-0085","addr":"경기도 파주시 금촌동 62-10번지","indutype":"신변잡화 - 가방","category":"other"},{"name":"제일","tel":"031-948-0508","addr":"경기도 파주시 금촌동 62-10번지","indutype":"신변잡화 - 액세서리","category":"other"}]},{"lat":"37.76817005","long":"126.77400783","imageIndex":17,"items":[{"name":"금촌전문서적","tel":"031-945-1656","addr":"경기도 파주시 금촌동 395-125번지","indutype":"회원제형태 - 서적","category":"other"}]},{"lat":"37.764003655","long":"126.77195517","imageIndex":17,"items":[{"name":"금촌전자담배","tel":"","addr":"경기도 파주시 금촌동 329-321번지","indutype":"기타 - 기타 전문점","category":"other"},{"name":"삼천리자전거","tel":"031-942-8727","addr":"경기도 파주시 금촌동 329-321번지","indutype":"레져용품 - 스포츠·레져용품","category":"other"}]},{"lat":"37.763255158","long":"126.77159434","imageIndex":17,"items":[{"name":"금촌젤로스가구","tel":"031-941-3860","addr":"경기도 파주시 금촌동 327-7번지","indutype":"가구 - 일반가구","category":"other"}]},{"lat":"37.766312791","long":"126.76875887","imageIndex":17,"items":[{"name":"금촌종합모타","tel":"031-945-3408","addr":"경기도 파주시 금촌동 374-1번지","indutype":"수리서비스 - 기타수리서비스","category":"other"},{"name":"에스케이에프(SKF)","tel":"031-957-8515","addr":"경기도 파주시 금촌동 374-1번지","indutype":"기타 - 기계공구","category":"other"},{"name":"태천농기계","tel":"031-943-4383","addr":"경기도 파주시 금촌동 374-1번지","indutype":"기타 - 기계공구","category":"other"}]},{"lat":"37.76364534","long":"126.77301173","imageIndex":17,"items":[{"name":"금촌종합주방그릇","tel":"031-941-5697","addr":"경기도 파주시 금촌동 325-28번지","indutype":"주방용구 - 주방용식기","category":"other"}]},{"lat":"37.75681424","long":"126.77204561","imageIndex":17,"items":[{"name":"금촌파주요양원","tel":"031-945-1333","addr":"경기도 파주시 금촌동 255-4번지","indutype":"기타의료기관 - 기타의료기관 및 기타","category":"other"}]},{"lat":"37.76336788","long":"126.77395453","imageIndex":17,"items":[{"name":"금촌패션","tel":"031-941-2591","addr":"경기도 파주시 금촌동 60-15","indutype":"의류 - 정장","category":"other"}]},{"lat":"37.764835958","long":"126.77371168","imageIndex":17,"items":[{"name":"금촌폰","tel":"070-8814-2575","addr":"경기도 파주시 금촌동 329-352번지","indutype":"사무통신 - 통신기기","category":"other"}]},{"lat":"37.759259673","long":"126.76942794","imageIndex":17,"items":[{"name":"기쁜날","tel":"","addr":"경기도 파주시 금촌동 934-8번지","indutype":"신변잡화 - 액세서리","category":"other"}]},{"lat":"37.74957362","long":"126.76901585","imageIndex":17,"items":[{"name":"기태글로벌","tel":"","addr":"경기도 파주시 금촌동 1019번지 서원마을뜨란채","indutype":"건축자재 - 건축용 요업제품","category":"other"}]},{"lat":"37.760982727","long":"126.77517616","imageIndex":17,"items":[{"name":"길벗여행사(주)","tel":"031-942-1365","addr":"경기도 파주시 금촌동 68-4번지","indutype":"여행 - 관광여행","category":"other"},{"name":"밝은유통","tel":"031-952-8220","addr":"경기도 파주시 금촌동 68-4번지","indutype":"기타 - 기계공구","category":"other"},{"name":"신광인테리어","tel":"031-941-6328","addr":"경기도 파주시 금촌동 68-4번지","indutype":"건축자재 - 인테리어전문","category":"other"},{"name":"올리비아로렌 파주금촌점","tel":"031-957-2311","addr":"경기도 파주시 금촌동 68-4번지","indutype":"레져용품 - 스포츠·레져용품","category":"other"},{"name":"조이너스 이도파주점","tel":"031-944-2575","addr":"경기도 파주시 금촌동 68-4번지","indutype":"레져용품 - 스포츠·레져용품","category":"other"},{"name":"하늘소리기독서점","tel":"031-943-6465","addr":"경기도 파주시 금촌동 68-4번지","indutype":"서적문구 - 일반서적","category":"other"},{"name":"한남","tel":"02-2608-5428","addr":"경기도 파주시 금촌동 68-4번지","indutype":"의류 - 와이셔츠·타이","category":"other"}]},{"lat":"37.759558596","long":"126.77485143","imageIndex":17,"items":[{"name":"김성주세무회계사무소","tel":"031-942-7477","addr":"경기도 파주시 금촌동 764-1번지","indutype":"용역 서비스 - 법률회계서비스(개인)","category":"other"}]},{"lat":"37.759756364","long":"126.77462386","imageIndex":17,"items":[{"name":"김영기세무회계사무소","tel":"031-957-7752","addr":"경기도 파주시 금촌동 73-5번지","indutype":"용역 서비스 - 법률회계서비스(개인)","category":"other"},{"name":"법무사김용식사무소","tel":"031-943-0098","addr":"경기도 파주시 금촌동 73-5번지","indutype":"용역 서비스 - 법률회계서비스(개인)","category":"other"}]},{"lat":"37.75945057","long":"126.77489715","imageIndex":17,"items":[{"name":"김영길법무사","tel":"031-941-8448","addr":"경기도 파주시 금촌동 764-14번지","indutype":"용역 서비스 - 법률회계서비스(개인)","category":"other"},{"name":"다금","tel":"031-948-3435","addr":"경기도 파주시 금촌동 764-14번지","indutype":"직물 - 침구·수예점","category":"other"},{"name":"미라클디자인 주식회사","tel":"02-325-1669","addr":"경기도 파주시 금촌동 764-14번지","indutype":"건축자재 - 인테리어전문","category":"other"}]},{"lat":"37.758504642","long":"126.7749341","imageIndex":17,"items":[{"name":"김용식법무사사무소","tel":"031-943-8500","addr":"경기도 파주시 금촌동 947-32번지","indutype":"용역 서비스 - 법률회계서비스(개인)","category":"other"},{"name":"법무법인덕양(파주분사무소)","tel":"031-948-2474","addr":"경기도 파주시 금촌동 947-32번지","indutype":"용역 서비스 - 법률회계서비스(법인)","category":"other"}]},{"lat":"37.760089341","long":"126.77442991","imageIndex":17,"items":[{"name":"김준식세무회계사무소","tel":"031-948-3582","addr":"경기도 파주시 금촌동 73-16번지","indutype":"용역 서비스 - 법률회계서비스(개인)","category":"other"},{"name":"이용욱세무회계사무소","tel":"031-948-7600","addr":"경기도 파주시 금촌동 73-16번지","indutype":"용역 서비스 - 법률회계서비스(개인)","category":"other"},{"name":"해피하우스","tel":"031-941-3231","addr":"경기도 파주시 금촌동 73-16번지","indutype":"신변잡화 - 기타잡화","category":"other"}]},{"lat":"37.76014511","long":"126.77531491","imageIndex":17,"items":[{"name":"김진웅세무회계사무소","tel":"031-941-3001","addr":"경기도 파주시 금촌동 71-32번지","indutype":"용역 서비스 - 법률회계서비스(개인)","category":"other"}]},{"lat":"37.763668612","long":"126.77109371","imageIndex":17,"items":[{"name":"까까독","tel":"031-947-9997","addr":"경기도 파주시 금촌동 329-15번지","indutype":"문화.취미 - 애완동물","category":"other"}]},{"lat":"37.753813305","long":"126.76710751","imageIndex":17,"items":[{"name":"꼬물이 공방","tel":"","addr":"경기도 파주시 금촌동 984번지 새꽃마을주공아파트","indutype":"신변잡화 - 기타잡화","category":"other"},{"name":"현대에어컨전문수리","tel":"031-946-1632","addr":"경기도 파주시 금촌동 987","indutype":"수리서비스 - 기타수리서비스","category":"other"}]},{"lat":"37.757814735","long":"126.77226946","imageIndex":17,"items":[{"name":"꽃,사 가게","tel":"031-941-2716","addr":"경기도 파주시 금촌동 945-32번지","indutype":"문화.취미 - 화원","category":"other"}]},{"lat":"37.756567031","long":"126.77934296","imageIndex":17,"items":[{"name":"꽃뜨락","tel":"031-944-5566","addr":"경기도 파주시 금촌동 782-6번지","indutype":"문화.취미 - 화원","category":"other"}]},{"lat":"37.762896425","long":"126.77243526","imageIndex":17,"items":[{"name":"꽃마루","tel":"031-946-3577","addr":"경기도 파주시 금촌동 324-24","indutype":"문화.취미 - 화원","category":"other"}]},{"lat":"37.757814391","long":"126.76753738","imageIndex":17,"items":[{"name":"꾸밈채","tel":"031-942-5744","addr":"경기도 파주시 금촌동 970번지","indutype":"건축자재 - 인테리어전문","category":"other"},{"name":"혜성홈인테리어","tel":"031-000-0000","addr":"경기도 파주시 금촌동 970번지","indutype":"건축자재 - 인테리어전문","category":"other"}]},{"lat":"37.753640692","long":"126.77555043","imageIndex":17,"items":[{"name":"나무와하나","tel":"031-8070-0052","addr":"경기도 파주시 금촌동 1003번지 쇠재마을뜨란채","indutype":"용역 서비스 - 종합용역","category":"other"}]},{"lat":"37.757114139","long":"126.76878786","imageIndex":17,"items":[{"name":"내강아지","tel":"031-957-1772","addr":"경기도 파주시 금촌동 961-6번지","indutype":"문화.취미 - 애완동물","category":"other"},{"name":"라이프","tel":"031-949-7333","addr":"경기도 파주시 금촌동 961-6번지 연세프라자 102호","indutype":"수리서비스 - 세탁소","category":"other"}]},{"lat":"37.759808043","long":"126.77807355","imageIndex":17,"items":[{"name":"네오OA","tel":"031-943-2128","addr":"경기도 파주시 금촌동 768-8번지","indutype":"사무통신 - 사무용 OA기기","category":"other"},{"name":"네오사진관","tel":"031-8071-4747","addr":"경기도 파주시 금촌동 768-8번지","indutype":"광학제품 - 사진관","category":"other"}]},{"lat":"37.763006597","long":"126.77349035","imageIndex":17,"items":[{"name":"노경순 콜렉션","tel":"031-943-2038","addr":"경기도 파주시 금촌동 321-8","indutype":"의류 - 정장","category":"other"},{"name":"아가방","tel":"031-941-0305","addr":"경기도 파주시 금촌동 321-8","indutype":"의류 - 아동의류","category":"other"}]},{"lat":"37.764093743","long":"126.77659658","imageIndex":17,"items":[{"name":"녹엽","tel":"","addr":"경기도 파주시 금촌동 51-49번지 장안아파트3차","indutype":"신변잡화 - 기타잡화","category":"other"},{"name":"대각불교 조계종","tel":"031-957-8480","addr":"경기도 파주시 금촌동 51-49 장안미래상가206호금당선원","indutype":"기타 - 비영리/대상","category":"other"},{"name":"러블리 펫","tel":"031-941-6600","addr":"경기도 파주시 금촌동 51-49번지","indutype":"문화.취미 - 애완동물","category":"other"},{"name":"신문협동조합파주에서","tel":"031-948-4900","addr":"경기도 파주시 금촌동 51-49번지","indutype":"서적문구 - 정기간행물","category":"other"},{"name":"에이오티(AOT)","tel":"","addr":"경기도 파주시 금촌동 51-49번지","indutype":"주방용구 - 주방용구","category":"other"},{"name":"이화철물","tel":"031-941-8717","addr":"경기도 파주시 금촌동 51-49 장안상가3차1동105호","indutype":"건축자재 - 목재·석재·철물","category":"other"},{"name":"피코그린","tel":"031-000-0000","addr":"경기도 파주시 금촌동 51-49번지 장안아파트3차","indutype":"의류 - 정장","category":"other"}]},{"lat":"37.764254516","long":"126.77123941","imageIndex":17,"items":[{"name":"늑대와여우컴퓨터","tel":"031-947-4003","addr":"경기도 파주시 금촌동 329-44번지 전승이코노","indutype":"사무통신 - 컴퓨터","category":"other"},{"name":"엔케이(NK)모바일","tel":"031-946-9230","addr":"경기도 파주시 금촌동 329-44번지 전승이코노","indutype":"사무통신 - 통신기기","category":"other"},{"name":"타올아울렛","tel":"031-947-3466","addr":"경기도 파주시 금촌동 329-44번지 전승이코노","indutype":"직물 - 옷감·직물","category":"other"}]},{"lat":"37.758811819","long":"126.77537573","imageIndex":17,"items":[{"name":"늘푸른나무","tel":"031-945-7133","addr":"경기도 파주시 금촌동 765-15번지","indutype":"건축자재 - 인테리어전문","category":"other"}]},{"lat":"37.760365459","long":"126.77745906","imageIndex":17,"items":[{"name":"니콜","tel":"031-949-3598","addr":"경기도 파주시 금촌동 768-15번지","indutype":"의류 - 정장","category":"other"}]},{"lat":"37.760782276","long":"126.77401924","imageIndex":17,"items":[{"name":"님프만파주대리점","tel":"031-941-2268","addr":"경기도 파주시 금촌동 311-31번지","indutype":"직물 - 침구·수예점","category":"other"}]},{"lat":"37.750845058","long":"126.76956785","imageIndex":17,"items":[{"name":"다니엘코리아파주점","tel":"031-000-0000","addr":"경기도 파주시 금촌동 1022번지 후곡마을주공아파트","indutype":"기타 - 기타 전문점","category":"other"},{"name":"희망세탁","tel":"031-948-5455","addr":"경기도 파주시 금촌동 1022번지 후곡마을주공아파트","indutype":"수리서비스 - 세탁소","category":"other"}]},{"lat":"37.766256573","long":"126.7722319","imageIndex":17,"items":[{"name":"다솜기획","tel":"031-943-7244","addr":"경기도 파주시 금촌동 369-5번지 백마광고,동양손세차장 B동","indutype":"용역 서비스 - 종합용역","category":"other"},{"name":"대하산업","tel":"031-944-4660","addr":"경기도 파주시 금촌동 369-5번지","indutype":"기타 - 기타 전문점","category":"other"},{"name":"백마광고간판","tel":"031-945-1111","addr":"경기도 파주시 금촌동 369-5 상가A동6호","indutype":"건축자재 - 인테리어전문","category":"other"},{"name":"올포스","tel":"031-945-7209","addr":"경기도 파주시 금촌동 369-5번지","indutype":"사무통신 - 통신기기","category":"other"},{"name":"지성상사","tel":"031-000-0000","addr":"경기도 파주시 금촌동 369-5번지","indutype":"유통업 영리 - 기타유통업","category":"other"}]},{"lat":"37.75628197","long":"126.77168414","imageIndex":17,"items":[{"name":"다온노인전문요양원","tel":"031-957-3270","addr":"경기도 파주시 금촌동 251-5번지","indutype":"기타의료기관 - 기타의료기관 및 기타","category":"other"},{"name":"스피드컴119","tel":"031-946-1901","addr":"경기도 파주시 금촌동 251-5번지","indutype":"수리서비스 - 사무·통신기기수리","category":"other"},{"name":"아도니스너싱홈","tel":"031-946-5388","addr":"경기도 파주시 금촌동 251-5번지","indutype":"기타의료기관 - 기타의료기관 및 기타","category":"other"},{"name":"헐리웃스킨케어","tel":"031-948-9331","addr":"경기도 파주시 금촌동 251-5번지","indutype":"회원제형태 - 기타4","category":"other"}]},{"lat":"37.763171344","long":"126.77481764","imageIndex":17,"items":[{"name":"다울","tel":"031-942-1045","addr":"경기도 파주시 금촌동 54-24번지","indutype":"의류 - 아동의류","category":"other"},{"name":"와이틴(YTEEN)","tel":"031-944-0248","addr":"경기도 파주시 금촌동 54-24번지","indutype":"신변잡화 - 기타잡화","category":"other"}]},{"lat":"37.751867396","long":"126.76718177","imageIndex":17,"items":[{"name":"다인에스테틱","tel":"031-948-0780","addr":"경기도 파주시 금촌동 988-2번지","indutype":"회원제형태 - 기타4","category":"other"},{"name":"마루텔레콤","tel":"070-8600-0187","addr":"경기도 파주시 금촌동 988-2번지","indutype":"사무통신 - 통신기기","category":"other"},{"name":"주식회사 제니스모바일","tel":"031-948-1618","addr":"경기도 파주시 금촌동 988-2번지","indutype":"사무통신 - 통신기기","category":"other"},{"name":"주식회사제니스모바일","tel":"031-948-1618","addr":"경기도 파주시 금촌동 988-2번지","indutype":"사무통신 - 통신기기","category":"other"},{"name":"주식회사제니스모바일","tel":"031-948-1618","addr":"경기도 파주시 금촌동 988-2번지","indutype":"사무통신 - 통신기기","category":"other"},{"name":"친절통신","tel":"031-975-5833","addr":"경기도 파주시 금촌동 988-2번지","indutype":"사무통신 - 통신기기","category":"other"},{"name":"컬리수아동복","tel":"031-946-0122","addr":"경기도 파주시 금촌동 988-2번지","indutype":"의류 - 아동의류","category":"other"},{"name":"피엘제이","tel":"031-942-3635","addr":"경기도 파주시 금촌동 988-2번지","indutype":"광학제품 - 사진관","category":"other"}]},{"lat":"37.755062521","long":"126.77468367","imageIndex":17,"items":[{"name":"달항(DARHANG)","tel":"","addr":"경기도 파주시 금촌동 802-3번지","indutype":"주방용구 - 주방용구","category":"other"}]},{"lat":"37.762809889","long":"126.77426266","imageIndex":17,"items":[{"name":"대경신발","tel":"031-942-4063","addr":"경기도 파주시 금촌동 62-12번지","indutype":"신변잡화 - 신발","category":"other"},{"name":"만물상","tel":"031-942-4063","addr":"경기도 파주시 금촌동 62-12번지","indutype":"주방용구 - 주방용구","category":"other"}]},{"lat":"37.758204596","long":"126.77820323","imageIndex":17,"items":[{"name":"대광측량설계사무소","tel":"031-944-2727","addr":"경기도 파주시 금촌동 777-2번지","indutype":"용역 서비스 - 사무서비스","category":"other"}]},{"lat":"37.75964959","long":"126.77531642","imageIndex":17,"items":[{"name":"대로개발","tel":"031-941-7739","addr":"경기도 파주시 금촌동 764-5번지","indutype":"용역 서비스 - 기타용역서비스","category":"other"}]},{"lat":"37.75778704","long":"126.77192911","imageIndex":17,"items":[{"name":"대림전자","tel":"031-944-6563","addr":"경기도 파주시 금촌동 944-23번지","indutype":"수리서비스 - 가정용품수리","category":"other"}]},{"lat":"37.764815088","long":"126.7769008","imageIndex":17,"items":[{"name":"대박구제알뜰매장","tel":"031-944-7357","addr":"경기도 파주시 금촌동 43-1","indutype":"의류 - 정장","category":"other"}]},{"lat":"37.761061239","long":"126.77384816","imageIndex":17,"items":[{"name":"대성이네","tel":"031-941-3114","addr":"경기도 파주시 금촌동 311-14번지","indutype":"의류 - 정장","category":"other"}]},{"lat":"37.758780956","long":"126.76881665","imageIndex":17,"items":[{"name":"대성재활용","tel":"070-8222-4141","addr":"경기도 파주시 금촌동 933-8번지","indutype":"신변잡화 - 기타잡화","category":"other"},{"name":"우신냉난방전문점","tel":"031-945-4985","addr":"경기도 파주시 금촌동 933-8번지","indutype":"전기제품 - 냉열기기","category":"other"}]},{"lat":"37.757226604","long":"126.77098898","imageIndex":17,"items":[{"name":"대성헬스","tel":"031-946-3170","addr":"경기도 파주시 금촌동 959-11번지","indutype":"회원제형태 - 레져업소","category":"other"},{"name":"실용대성요가","tel":"031-946-3170","addr":"경기도 파주시 금촌동 959-11번지","indutype":"회원제형태 - 레져업소","category":"other"}]},{"lat":"37.7520194","long":"126.7711414","imageIndex":17,"items":[{"name":"대신푸드","tel":"02-325-2535","addr":"경기도 파주시 금촌동 992번지 후곡마을뜨란채","indutype":"회원제형태 - 기타4","category":"other"}]},{"lat":"37.761592091","long":"126.77348337","imageIndex":17,"items":[{"name":"대원상회","tel":"031-941-3305","addr":"경기도 파주시 금촌동 70-8번지","indutype":"주방용구 - 주방용식기","category":"other"}]},{"lat":"37.755812051","long":"126.77095935","imageIndex":17,"items":[{"name":"대한예수교장로회그루터기교회","tel":"031-949-0194","addr":"경기도 파주시 금촌동 246-31번지","indutype":"기타 - 비영리/대상","category":"other"}]},{"lat":"37.758204419","long":"126.76885251","imageIndex":17,"items":[{"name":"대한전기","tel":"031-943-0842","addr":"경기도 파주시 금촌동 942-9번지","indutype":"전기제품 - 기타전기제품","category":"other"},{"name":"명품LED조명","tel":"031-111-1111","addr":"경기도 파주시 금촌동 942-9번지","indutype":"건축자재 - 조명기구","category":"other"}]},{"lat":"37.770532219","long":"126.77487448","imageIndex":17,"items":[{"name":"대흥전기공사","tel":"031-941-3399","addr":"경기도 파주시 금촌동 11-25번지","indutype":"용역 서비스 - 기타용역서비스","category":"other"}]},{"lat":"37.762176954","long":"126.77309571","imageIndex":17,"items":[{"name":"댑(dab)금촌점","tel":"031-957-0039","addr":"경기도 파주시 금촌동 64-60번지","indutype":"의류 - 내의판매","category":"other"}]},{"lat":"37.763922258","long":"126.77179654","imageIndex":17,"items":[{"name":"더블디","tel":"070-1111-1111","addr":"경기도 파주시 금촌동 329-292번지","indutype":"신변잡화 - 기타잡화","category":"other"},{"name":"해바라기","tel":"031-8071-1439","addr":"경기도 파주시 금촌동 329-292번지","indutype":"직물 - 침구·수예점","category":"other"}]},{"lat":"37.762144266","long":"126.77482079","imageIndex":17,"items":[{"name":"더샘","tel":"031-948-7989","addr":"경기도 파주시 금촌동 66-4번지","indutype":"신변잡화 - 기타잡화","category":"other"}]},{"lat":"37.765701814","long":"126.76960063","imageIndex":17,"items":[{"name":"더존환경","tel":"031-957-2100","addr":"경기도 파주시 금촌동 386-1번지","indutype":"용역 서비스 - 기타용역서비스","category":"other"}]},{"lat":"37.762225612","long":"126.76582112","imageIndex":17,"items":[{"name":"덕영철재","tel":"031-942-4010","addr":"경기도 파주시 금촌동 488번지","indutype":"건축자재 - 기타건축자재","category":"other"}]},{"lat":"37.76367539","long":"126.77456642","imageIndex":17,"items":[{"name":"데상트 파주금촌점","tel":"031-946-7666","addr":"경기도 파주시 금촌동 49-1번지","indutype":"의류 - 스포츠의류","category":"other"},{"name":"봉숭아 꽃","tel":"031-946-1459","addr":"경기도 파주시 금촌동 49-1번지","indutype":"의류 - 정장","category":"other"}]},{"lat":"37.759006547","long":"126.77825755","imageIndex":17,"items":[{"name":"도서출판 헵시바","tel":"031-943-2801","addr":"경기도 파주시 금촌동 769-14번지 동문빌딩 102호","indutype":"서적문구 - 출판 및 인쇄물","category":"other"},{"name":"동문기획인쇄","tel":"031-941-2802","addr":"경기도 파주시 금촌동 769-14번지","indutype":"서적문구 - 출판 및 인쇄물","category":"other"},{"name":"동문인쇄","tel":"031-941-2802","addr":"경기도 파주시 금촌동 769-14번지","indutype":"서적문구 - 출판 및 인쇄물","category":"other"}]},{"lat":"37.761121806","long":"126.7725656","imageIndex":17,"items":[{"name":"도토리","tel":"070-7585-7180","addr":"경기도 파주시 금촌동 341-41번지","indutype":"회원제형태 - 기타4","category":"other"}]},{"lat":"37.762474819","long":"126.7733785","imageIndex":17,"items":[{"name":"동경얼음","tel":"031-945-7998","addr":"경기도 파주시 금촌동 320-18번지","indutype":"유통업 영리 - 기타유통업","category":"other"}]},{"lat":"37.762952739","long":"126.77359265","imageIndex":17,"items":[{"name":"동방화랑","tel":"031-943-0130","addr":"경기도 파주시 금촌동 321-19번지","indutype":"문화.취미 - 화방·표구점","category":"other"}]},{"lat":"37.762590525","long":"126.77265183","imageIndex":17,"items":[{"name":"동신상회","tel":"031-941-2606","addr":"경기도 파주시 금촌동 322-2번지","indutype":"신변잡화 - 신발","category":"other"},{"name":"시대양품","tel":"031-941-8822","addr":"경기도 파주시 금촌동 322-2번지","indutype":"의류 - 정장","category":"other"}]},{"lat":"37.757506562","long":"126.77595847","imageIndex":17,"items":[{"name":"동아냉동재활용센타","tel":"031-942-7797","addr":"경기도 파주시 금촌동 949-15","indutype":"전기제품 - 가전제품","category":"other"}]},{"lat":"37.767946542","long":"126.76576881","imageIndex":17,"items":[{"name":"동아전기조명","tel":"031-957-8985","addr":"경기도 파주시 금촌동 446-1단층상가2","indutype":"전기제품 - 기타전기제품","category":"other"},{"name":"세호볼트","tel":"031-8071-3538","addr":"경기도 파주시 금촌동 446-1번지","indutype":"기타 - 기계공구","category":"other"}]},{"lat":"37.762065852","long":"126.77620556","imageIndex":17,"items":[{"name":"동익측량설계공사","tel":"031-942-7627","addr":"경기도 파주시 금촌동 56-60번지","indutype":"용역 서비스 - 사무서비스","category":"other"},{"name":"박수현우리옷","tel":"031-943-9850","addr":"경기도 파주시 금촌동 56-60번지","indutype":"의류 - 맞춤복점","category":"other"},{"name":"박수현한복대여점","tel":"031-943-9859","addr":"경기도 파주시 금촌동 56-60 서부빌딩107호108호","indutype":"의류 - 맞춤복점","category":"other"},{"name":"서부디지털OA","tel":"031-943-2200","addr":"경기도 파주시 금촌동 56-60번지","indutype":"사무통신 - 사무용 OA기기","category":"other"},{"name":"주식회사 월드관광","tel":"031-943-8001","addr":"경기도 파주시 금촌동 56-60번지","indutype":"여행 - 관광여행","category":"other"},{"name":"터보시스템","tel":"031-944-6272","addr":"경기도 파주시 금촌동 56-60번지","indutype":"사무통신 - 컴퓨터","category":"other"}]},{"lat":"37.756980949","long":"126.77906937","imageIndex":17,"items":[{"name":"동현세탁소","tel":"031-944-5198","addr":"경기도 파주시 금촌동 782-2 상가 107","indutype":"수리서비스 - 세탁소","category":"other"}]},{"lat":"37.764927066","long":"126.77423345","imageIndex":17,"items":[{"name":"동화사진관","tel":"031-941-2744","addr":"경기도 파주시 금촌동 329-33번지","indutype":"광학제품 - 사진관","category":"other"}]},{"lat":"37.757898074","long":"126.76884213","imageIndex":17,"items":[{"name":"두리기획","tel":"031-4045-3503","addr":"경기도 파주시 금촌동 942-7번지","indutype":"용역 서비스 - 종합용역","category":"other"}]},{"lat":"37.763007392","long":"126.7738989","imageIndex":17,"items":[{"name":"두발로","tel":"031-942-8048","addr":"경기도 파주시 금촌동 60-6 중앙시장내점포1층(6호,7호)","indutype":"의류 - 정장","category":"other"},{"name":"목화방","tel":"031-941-7142","addr":"경기도 파주시 금촌동 60-6","indutype":"신변잡화 - 액세서리","category":"other"},{"name":"수예림","tel":"031-941-3393","addr":"경기도 파주시 금촌동 60-6중앙상가","indutype":"직물 - 침구·수예점","category":"other"},{"name":"파스텔","tel":"031-943-1366","addr":"경기도 파주시 금촌동 60-6","indutype":"의류 - 정장","category":"other"}]},{"lat":"37.756178093","long":"126.77853844","imageIndex":17,"items":[{"name":"두주","tel":"031-941-1488","addr":"경기도 파주시 금촌동 784-8번지","indutype":"사무통신 - 통신기기","category":"other"}]},{"lat":"37.756648008","long":"126.77928598","imageIndex":17,"items":[{"name":"두주정보기술","tel":"031-945-3631","addr":"경기도 파주시 금촌동 782-5번지","indutype":"사무통신 - 컴퓨터","category":"other"}]},{"lat":"37.758006669","long":"126.77835136","imageIndex":17,"items":[{"name":"듀스코리아","tel":"031-111-1111","addr":"경기도 파주시 금촌동 777-3번지","indutype":"레져용품 - 스포츠·레져용품","category":"other"}]},{"lat":"37.757227318","long":"126.77135211","imageIndex":17,"items":[{"name":"드림 인테리어 디자인(DID)","tel":"031-948-8846","addr":"경기도 파주시 금촌동 959-10번지","indutype":"건축자재 - 인테리어전문","category":"other"}]},{"lat":"37.748011677","long":"126.7719141","imageIndex":17,"items":[{"name":"드림아트","tel":"03-111-1111","addr":"경기도 파주시 금촌동 1019번지 서원마을뜨란채","indutype":"서적문구 - 출판 및 인쇄물","category":"other"}]},{"lat":"37.76483783","long":"126.77467633","imageIndex":17,"items":[{"name":"디자인우먼","tel":"070-4406-6688","addr":"경기도 파주시 금촌동 329-158번지","indutype":"의류 - 정장","category":"other"},{"name":"머슬텐휘트니스","tel":"031-957-7576","addr":"경기도 파주시 금촌동 329-158번지","indutype":"회원제형태 - 레져업소","category":"other"},{"name":"씨비엠컨벤션 주식회사","tel":"080-941-6000","addr":"경기도 파주시 금촌동 329-158번지","indutype":"용역 서비스 - 혼례서비스","category":"other"},{"name":"위드미파주MH타워","tel":"031-941-6466","addr":"경기도 파주시 금촌동 329-158번지","indutype":"유통업 영리 - 편 의 점","category":"other"}]},{"lat":"37.754762587","long":"126.77333424","imageIndex":17,"items":[{"name":"라온 에어컨","tel":"","addr":"경기도 파주시 금촌동 234-22번지 두보아파트","indutype":"전기제품 - 냉열기기","category":"other"}]},{"lat":"37.763232032","long":"126.77359179","imageIndex":17,"items":[{"name":"랜드로바금촌점","tel":"031-941-2586","addr":"경기도 파주시 금촌동 325-10번지","indutype":"레져용품 - 스포츠·레져용품","category":"other"}]},{"lat":"37.752094784","long":"126.76825901","imageIndex":17,"items":[{"name":"러쉬","tel":"031-8071-0720","addr":"경기도 파주시 금촌동 988-7번지","indutype":"의류 - 기타의류","category":"other"},{"name":"문경혜 세무회계사무소","tel":"031-945-8138","addr":"경기도 파주시 금촌동 988-7번지 로얄프라자 601호","indutype":"용역 서비스 - 법률회계서비스(개인)","category":"other"},{"name":"신완식세무회계사무소","tel":"031-945-2181","addr":"경기도 파주시 금촌동 988-7번지","indutype":"용역 서비스 - 법률회계서비스(개인)","category":"other"},{"name":"화이트클럽(금촌점)","tel":"031-943-8000","addr":"경기도 파주시 금촌동 988-7번지","indutype":"회원제형태 - 기타4","category":"other"}]},{"lat":"37.759064456","long":"126.77556787","imageIndex":17,"items":[{"name":"럼덤(RUMDUM)","tel":"","addr":"경기도 파주시 금촌동 765-12번지","indutype":"신변잡화 - 가방","category":"other"}]},{"lat":"37.757780951","long":"126.7688425","imageIndex":17,"items":[{"name":"레드투","tel":"031-0000-0000","addr":"경기도 파주시 금촌동 942-6번지","indutype":"의류 - 정장","category":"other"},{"name":"하늘채","tel":"031-8071-0749","addr":"경기도 파주시 금촌동 942-6번지","indutype":"직물 - 카페트,커튼,천막,지물","category":"other"}]},{"lat":"37.757087978","long":"126.77381501","imageIndex":17,"items":[{"name":"로타리스크린골프","tel":"031-946-4567","addr":"경기도 파주시 금촌동 952-6번지","indutype":"회원제형태 - 레져업소","category":"other"}]},{"lat":"37.756258202","long":"126.77335232","imageIndex":17,"items":[{"name":"로타리주연꽃집","tel":"031-944-8989","addr":"경기도 파주시 금촌동 956-3","indutype":"문화.취미 - 화원","category":"other"},{"name":"수이불","tel":"031-957-1190","addr":"경기도 파주시 금촌동 956-3","indutype":"직물 - 침구·수예점","category":"other"}]},{"lat":"37.755421341","long":"126.77856342","imageIndex":17,"items":[{"name":"로타리화원","tel":"031-2678-7789","addr":"경기도 파주시 금촌동 791-14번지","indutype":"문화.취미 - 화원","category":"other"}]},{"lat":"37.762504315","long":"126.77464946","imageIndex":17,"items":[{"name":"롯데편의점","tel":"031-941-3094","addr":"경기도 파주시 금촌동 62-6번지","indutype":"유통업 영리 - 편 의 점","category":"other"}]},{"lat":"37.758843423","long":"126.77775873","imageIndex":17,"items":[{"name":"리버풀애완용품아울렛","tel":"031-945-7296","addr":"경기도 파주시 금촌동 770-4번지","indutype":"문화.취미 - 애완동물","category":"other"},{"name":"리버풀펫미용실","tel":"031-945-7297","addr":"경기도 파주시 금촌동 770-4번지","indutype":"문화.취미 - 애완동물","category":"other"},{"name":"터대광그룹건축사사무소","tel":"031-942-2773","addr":"경기도 파주시 금촌동 770-4번지","indutype":"용역 서비스 - 법률회계서비스(개인)","category":"other"}]},{"lat":"37.759308193","long":"126.77581679","imageIndex":17,"items":[{"name":"리움쇼핑몰","tel":"","addr":"경기도 파주시 금촌동 765-6번지","indutype":"의류 - 기타의류","category":"other"}]},{"lat":"37.763866147","long":"126.7753716","imageIndex":17,"items":[{"name":"리치","tel":"02-334-1253","addr":"경기도 파주시 금촌동 51-10번지","indutype":"의류 - 정장","category":"other"},{"name":"리치","tel":"02-335-1253","addr":"경기도 파주시 금촌동 51-10번지","indutype":"의류 - 정장","category":"other"}]},{"lat":"37.763476544","long":"126.77423792","imageIndex":17,"items":[{"name":"리트머스금촌점","tel":"031-944-4990","addr":"경기도 파주시 금촌동 60-9번지","indutype":"레져용품 - 스포츠·레져용품","category":"other"}]},{"lat":"37.76055983","long":"126.77546116","imageIndex":17,"items":[{"name":"리틀뱅뱅금촌점","tel":"031-711-4013","addr":"경기도 파주시 금촌동 71-7번지","indutype":"의류 - 아동의류","category":"other"}]},{"lat":"37.763281014","long":"126.77562306","imageIndex":17,"items":[{"name":"마더코아","tel":"031-943-8670","addr":"경기도 파주시 금촌동 52-39번지 금촌타워상가아파트","indutype":"주방용구 - 주방용구","category":"other"}]},{"lat":"37.749725806","long":"126.77310018","imageIndex":17,"items":[{"name":"마루공예","tel":"","addr":"경기도 파주시 금촌동 997번지 후곡마을중앙하이츠아파트","indutype":"문화.취미 - 민예·공예품","category":"other"}]},{"lat":"37.770946609","long":"126.77485051","imageIndex":17,"items":[{"name":"마루설비인테리어","tel":"031-944-1632","addr":"경기도 파주시 금촌동 11-10번지","indutype":"건축자재 - 보일러·펌프·샷시","category":"other"},{"name":"백윤정손뜨게방","tel":"031-943-5166","addr":"경기도 파주시 금촌동 11-10번지","indutype":"직물 - 침구·수예점","category":"other"}]},{"lat":"37.758452141","long":"126.77573997","imageIndex":17,"items":[{"name":"마마운동화이불빨래방","tel":"031-941-8485","addr":"경기도 파주시 금촌동 772-2번지","indutype":"수리서비스 - 세탁소","category":"other"},{"name":"제일아크릴","tel":"031-944-3264","addr":"경기도 파주시 금촌동 772-2번지","indutype":"용역 서비스 - 종합용역","category":"other"}]},{"lat":"37.752338062","long":"126.76826959","imageIndex":17,"items":[{"name":"마이제제","tel":"","addr":"경기도 파주시 금촌동 988-8번지","indutype":"의류 - 아동의류","category":"other"},{"name":"스마일샵","tel":"031-949-8875","addr":"경기도 파주시 금촌동 988-8번지","indutype":"문화.취미 - 애완동물","category":"other"},{"name":"에끌리에 파주금촌첨","tel":"031-948-5286","addr":"경기도 파주시 금촌동 988-8번지","indutype":"의류 - 아동의류","category":"other"},{"name":"에이플러스과학나라 파주지사","tel":"031-943-3090","addr":"경기도 파주시 금촌동 988-8번지","indutype":"서적문구 - 일반서적","category":"other"},{"name":"크리어넷금촌점","tel":"031-957-7002","addr":"경기도 파주시 금촌동 988-8번지 금촌크리닉센터 107호","indutype":"사무통신 - 통신기기","category":"other"},{"name":"티파니","tel":"","addr":"경기도 파주시 금촌동 988-8번지","indutype":"신변잡화 - 가방","category":"other"}]},{"lat":"37.760201753","long":"126.77201239","imageIndex":17,"items":[{"name":"마이펫월드","tel":"","addr":"경기도 파주시 금촌동 296-3번지","indutype":"문화.취미 - 애완동물","category":"other"}]},{"lat":"37.756064272","long":"126.77093587","imageIndex":17,"items":[{"name":"마카롱걸","tel":"","addr":"경기도 파주시 금촌동 246-38번지","indutype":"의류 - 정장","category":"other"}]},{"lat":"37.755060782","long":"126.77378722","imageIndex":17,"items":[{"name":"마틸다(MATILDA)","tel":"","addr":"경기도 파주시 금촌동 954-1번지","indutype":"의류 - 정장","category":"other"},{"name":"유원장식","tel":"031-941-9262","addr":"경기도 파주시 금촌동 954-1번지","indutype":"직물 - 카페트,커튼,천막,지물","category":"other"},{"name":"코코팸","tel":"031-944-6986","addr":"경기도 파주시 금촌동 954-1번지","indutype":"문화.취미 - 애완동물","category":"other"}]},{"lat":"37.762871279","long":"126.77339998","imageIndex":17,"items":[{"name":"막스까르띠지오 금촌점","tel":"031-945-0760","addr":"경기도 파주시 금촌동 321-9번지","indutype":"의류 - 내의판매","category":"other"}]},{"lat":"37.770802057","long":"126.7700386","imageIndex":17,"items":[{"name":"맘스리본","tel":"070-4829-9280","addr":"경기도 파주시 금촌동 1015번지 대방노블랜드아파트","indutype":"의류 - 기타의류","category":"other"}]},{"lat":"37.760811766","long":"126.77529017","imageIndex":17,"items":[{"name":"머피클럽","tel":"031-941-9999","addr":"경기도 파주시 금촌동 71-4번지","indutype":"의류 - 정장","category":"other"},{"name":"카카오(CaCaO)","tel":"031-946-2863","addr":"경기도 파주시 금촌동 71-4번지","indutype":"의류 - 정장","category":"other"}]},{"lat":"37.755092855","long":"126.77639705","imageIndex":17,"items":[{"name":"멀티전산","tel":"031-944-4929","addr":"경기도 파주시 금촌동 801-5번지","indutype":"사무통신 - 컴퓨터","category":"other"},{"name":"파주시약사회","tel":"031-941-7247","addr":"경기도 파주시 금촌동 801-5번지","indutype":"용역 서비스 - 사무서비스","category":"other"}]},{"lat":"37.761730621","long":"126.77523061","imageIndex":17,"items":[{"name":"명동의류","tel":"031-943-0041","addr":"경기도 파주시 금촌동 56-9번지","indutype":"의류 - 정장","category":"other"}]},{"lat":"37.758147631","long":"126.77668278","imageIndex":17,"items":[{"name":"명신냉동","tel":"031-942-0392","addr":"경기도 파주시 금촌동 773-3번지","indutype":"전기제품 - 가전제품","category":"other"}]},{"lat":"37.751311028","long":"126.76829553","imageIndex":17,"items":[{"name":"모닝글로리 금촌점","tel":"031-948-8305","addr":"경기도 파주시 금촌동 989-7번지 동원프라자 201","indutype":"서적문구 - 문구용품","category":"other"},{"name":"코베 BJ킥복싱","tel":"031-949-8796","addr":"경기도 파주시 금촌동 989-7번지","indutype":"회원제형태 - 레져업소","category":"other"}]},{"lat":"37.755649011","long":"126.77984501","imageIndex":17,"items":[{"name":"모리코트(MORICOAT)","tel":"031-944-5166","addr":"경기도 파주시 금촌동 792-3번지 보광그랑베르","indutype":"건축자재 - 페인트","category":"other"}]},{"lat":"37.751534817","long":"126.76756862","imageIndex":17,"items":[{"name":"못된고양이","tel":"070-4296-5507","addr":"경기도 파주시 금촌동 989-4번지","indutype":"신변잡화 - 액세서리","category":"other"}]},{"lat":"37.759732126","long":"126.77143509","imageIndex":17,"items":[{"name":"미니 하우스 옷가게. 오휘","tel":"","addr":"경기도 파주시 금촌동 937-35번지 하나빌","indutype":"의류 - 정장","category":"other"},{"name":"베스트인테리어","tel":"031-946-1403","addr":"경기도 파주시 금촌동 937-35번지 하나빌","indutype":"직물 - 카페트,커튼,천막,지물","category":"other"},{"name":"현진아이티 (IT)","tel":"031-942-4006","addr":"경기도 파주시 금촌동 937-35, 상가 4","indutype":"사무통신 - 컴퓨터","category":"other"}]},{"lat":"37.75786612","long":"126.77090755","imageIndex":17,"items":[{"name":"미니스톱금촌로터리점","tel":"031-1577-9621","addr":"경기도 파주시 금촌동 944-31번지","indutype":"유통업 영리 - 편 의 점","category":"other"},{"name":"셀폰(텔레콤)","tel":"031-8071-6688","addr":"경기도 파주시 금촌동 944-31번지","indutype":"사무통신 - 통신기기","category":"other"},{"name":"인오상가","tel":"","addr":"경기도 파주시 금촌동 944-31번지","indutype":"용역 서비스 - 부동산 중개·임대","category":"other"},{"name":"폰이야기","tel":"031-8071-6688","addr":"경기도 파주시 금촌동 944-31번지","indutype":"사무통신 - 통신기기","category":"other"}]},{"lat":"37.769477333","long":"126.76987251","imageIndex":17,"items":[{"name":"미니스톱파주그린점","tel":"","addr":"경기도 파주시 금촌동 415-8번지","indutype":"유통업 영리 - 편 의 점","category":"other"}]},{"lat":"37.768116876","long":"126.76534834","imageIndex":17,"items":[{"name":"미래상사","tel":"031-944-5201","addr":"경기도 파주시 금촌동 433-5번지","indutype":"농업 - 기타농업관련","category":"other"}]},{"lat":"37.760510569","long":"126.76870907","imageIndex":17,"items":[{"name":"미래앵글","tel":"031-957-7117","addr":"경기도 파주시 금촌동 932-9번지","indutype":"가구 - 철제가구","category":"other"}]},{"lat":"37.762891","long":"126.76967755","imageIndex":17,"items":[{"name":"미래페인트방수","tel":"031-949-7304","addr":"경기도 파주시 금촌동 928-2번지","indutype":"건축자재 - 페인트","category":"other"}]},{"lat":"37.751534091","long":"126.76720552","imageIndex":17,"items":[{"name":"미석21","tel":"031-942-2212","addr":"경기도 파주시 금촌동 989-2번지","indutype":"신변잡화 - 액세서리","category":"other"},{"name":"여우야","tel":"031-943-5456","addr":"경기도 파주시 금촌동 989-2번지","indutype":"의류 - 정장","category":"other"},{"name":"올인정보통신","tel":"031-946-3096","addr":"경기도 파주시 금촌동 989-2번지","indutype":"사무통신 - 통신기기","category":"other"}]},{"lat":"37.764697159","long":"126.77648125","imageIndex":17,"items":[{"name":"미선'S","tel":"031-919-1382","addr":"경기도 파주시 금촌동 50-13번지","indutype":"수리서비스 - 세탁소","category":"other"}]},{"lat":"37.759366481","long":"126.76876941","imageIndex":17,"items":[{"name":"미성공구","tel":"031-945-0969","addr":"경기도 파주시 금촌동 933-13번지","indutype":"기타 - 기계공구","category":"other"}]},{"lat":"37.762482145","long":"126.77251599","imageIndex":17,"items":[{"name":"미성상회","tel":"031-941-2611","addr":"경기도 파주시 금촌동 336-7","indutype":"직물 - 침구·수예점","category":"other"}]},{"lat":"37.757233803","long":"126.774677","imageIndex":17,"items":[{"name":"미소래병원","tel":"031-946-0202","addr":"경기도 파주시 금촌동 949-1번지","indutype":"기타의료기관 - 산후조리원","category":"other"},{"name":"미소래스킨케어","tel":"031-945-1834","addr":"경기도 파주시 금촌동 949-1번지","indutype":"회원제형태 - 기타4","category":"other"},{"name":"인컴24편의점","tel":"031-942-8778","addr":"경기도 파주시 금촌동 949-1번지","indutype":"유통업 영리 - 편 의 점","category":"other"}]},{"lat":"37.756091269","long":"126.78026355","imageIndex":17,"items":[{"name":"미소요양원","tel":"031-945-0101","addr":"경기도 파주시 금촌동 793-1번지","indutype":"기타의료기관 - 기타의료기관 및 기타","category":"other"}]},{"lat":"37.758591635","long":"126.77800915","imageIndex":17,"items":[{"name":"민들레의상실","tel":"031-947-1753","addr":"경기도 파주시 금촌동 770-8번지","indutype":"수리서비스 - 신변잡화수리","category":"other"},{"name":"협동상공사","tel":"031-941-2373","addr":"경기도 파주시 금촌동 770-8번지","indutype":"용역 서비스 - 기타용역서비스","category":"other"}]},{"lat":"37.752597321","long":"126.77180907","imageIndex":17,"items":[{"name":"밍밍 2","tel":"031-943-7520","addr":"경기도 파주시 금촌동 992번지 후곡마을뜨란채","indutype":"의류 - 정장","category":"other"},{"name":"신화세이프티","tel":"","addr":"경기도 파주시 금촌동 992번지 후곡마을뜨란채","indutype":"레져용품 - 스포츠·레져용품","category":"other"}]},{"lat":"37.752711401","long":"126.77487244","imageIndex":17,"items":[{"name":"밍밍's","tel":"031-943-7520","addr":"경기도 파주시 금촌동 1003번지 쇠재마을뜨란채","indutype":"의류 - 기타의류","category":"other"}]},{"lat":"37.755644477","long":"126.77746204","imageIndex":17,"items":[{"name":"바로컴","tel":"031-942-9636","addr":"경기도 파주시 금촌동 790-24번지","indutype":"사무통신 - 컴퓨터","category":"other"}]},{"lat":"37.770086009","long":"126.77243565","imageIndex":17,"items":[{"name":"바오하우징","tel":"031-944-8990","addr":"경기도 파주시 금촌동 424-9번지 경신아파트","indutype":"건축자재 - 인테리어전문","category":"other"},{"name":"유아몰","tel":"070-8612-3887","addr":"경기도 파주시 금촌동 424-9번지 경신아파트","indutype":"사무통신 - 컴퓨터","category":"other"}]},{"lat":"37.756976077","long":"126.77187489","imageIndex":17,"items":[{"name":"바이더웨이파주금촌점","tel":"","addr":"경기도 파주시 금촌동 254-1번지","indutype":"유통업 영리 - 편 의 점","category":"other"},{"name":"세븐일레븐파주금촌점","tel":"","addr":"경기도 파주시 금촌동 254-1번지","indutype":"유통업 영리 - 편 의 점","category":"other"}]},{"lat":"37.75558862","long":"126.78126364","imageIndex":17,"items":[{"name":"바이현인테리어","tel":"031-942-0411","addr":"경기도 파주시 금촌동 796-1번지","indutype":"건축자재 - 인테리어전문","category":"other"},{"name":"씨유파주금촌본점","tel":"031-945-8849","addr":"경기도 파주시 금촌동 796-1번지","indutype":"유통업 영리 - 편 의 점","category":"other"}]},{"lat":"37.759225663","long":"126.77506806","imageIndex":17,"items":[{"name":"박봉례세무회계사무소","tel":"031-944-0709","addr":"경기도 파주시 금촌동 764-12번지","indutype":"용역 서비스 - 사무서비스","category":"other"},{"name":"법무사고주영사무소","tel":"031-943-0762","addr":"경기도 파주시 금촌동 764-12번지","indutype":"용역 서비스 - 법률회계서비스(개인)","category":"other"},{"name":"법무사김영철사무소","tel":"031-945-0888","addr":"경기도 파주시 금촌동 764-12번지","indutype":"용역 서비스 - 법률회계서비스(개인)","category":"other"}]},{"lat":"37.761898633","long":"126.77359591","imageIndex":17,"items":[{"name":"반도열쇠","tel":"031-949-1313","addr":"경기도 파주시 금촌동 64-42번지","indutype":"건축자재 - 목재·석재·철물","category":"other"}]},{"lat":"37.758947255","long":"126.77090417","imageIndex":17,"items":[{"name":"반도종합사무기기","tel":"031-941-1700","addr":"경기도 파주시 금촌동 941-8번지","indutype":"사무통신 - 사무용 OA기기","category":"other"}]},{"lat":"37.762780167","long":"126.77287822","imageIndex":17,"items":[{"name":"백련건재","tel":"031-941-2256","addr":"경기도 파주시 금촌동 321-13번지","indutype":"건축자재 - 건축용 요업제품","category":"other"},{"name":"지우조경","tel":"031-957-3257","addr":"경기도 파주시 금촌동 321-13번지","indutype":"건축자재 - 인테리어전문","category":"other"}]},{"lat":"37.757475845","long":"126.77873879","imageIndex":17,"items":[{"name":"백승전자","tel":"031-944-9934","addr":"경기도 파주시 금촌동 777-14번지","indutype":"전기제품 - 가전제품","category":"other"},{"name":"우경건축사사무소","tel":"031-949-6227","addr":"경기도 파주시 금촌동 777-14 영화빌딩105호","indutype":"용역 서비스 - 사무서비스","category":"other"},{"name":"은애정보통신","tel":"031-943-0002","addr":"경기도 파주시 금촌동 777-14번지","indutype":"사무통신 - 통신기기","category":"other"},{"name":"주식회사 하이테크비젼","tel":"031-941-1007","addr":"경기도 파주시 금촌동 777-14번지","indutype":"전기제품 - 기타전기제품","category":"other"}]},{"lat":"37.759090959","long":"126.77529544","imageIndex":17,"items":[{"name":"법무사","tel":"031-942-5585","addr":"경기도 파주시 금촌동 765-2번지","indutype":"용역 서비스 - 법률회계서비스(개인)","category":"other"}]},{"lat":"37.759780733","long":"126.77792611","imageIndex":17,"items":[{"name":"법무사김완순사무소","tel":"031-943-1555","addr":"경기도 파주시 금촌동 768-9번지","indutype":"용역 서비스 - 법률회계서비스(개인)","category":"other"},{"name":"원사진관","tel":"","addr":"경기도 파주시 금촌동 768-9번지","indutype":"광학제품 - 사진관","category":"other"},{"name":"조한담건축사사무소","tel":"031-941-8555","addr":"경기도 파주시 금촌동 768-9번지","indutype":"용역 서비스 - 법률회계서비스(개인)","category":"other"}]},{"lat":"37.75898267","long":"126.77520499","imageIndex":17,"items":[{"name":"법무사김홍산사무소","tel":"031-957-3373","addr":"경기도 파주시 금촌동 765-1번지","indutype":"용역 서비스 - 법률회계서비스(개인)","category":"other"},{"name":"법무사최병기사무소","tel":"031-943-6161","addr":"경기도 파주시 금촌동 765-1번지","indutype":"용역 서비스 - 법률회계서비스(개인)","category":"other"},{"name":"복인당","tel":"031-941-0983","addr":"경기도 파주시 금촌동 765-1번지 1층","indutype":"건축자재 - 목재·석재·철물","category":"other"},{"name":"파주제1법무사","tel":"031-948-9449","addr":"경기도 파주시 금촌동 765-1번지 1층","indutype":"용역 서비스 - 법률회계서비스(개인)","category":"other"}]},{"lat":"37.759288948","long":"126.77518135","imageIndex":17,"items":[{"name":"법무사이원복사무소","tel":"031-945-4188","addr":"경기도 파주시 금촌동 764-11번지","indutype":"용역 서비스 - 법률회계서비스(개인)","category":"other"}]},{"lat":"37.763811235","long":"126.77492916","imageIndex":17,"items":[{"name":"베네코코","tel":"070-4414-1010","addr":"경기도 파주시 금촌동 50-8번지","indutype":"신변잡화 - 액세서리","category":"other"},{"name":"줄리엣금촌점","tel":"02-3463-1530","addr":"경기도 파주시 금촌동 50-8","indutype":"신변잡화 - 액세서리","category":"other"}]},{"lat":"37.757781735","long":"126.77851091","imageIndex":17,"items":[{"name":"베딩나라","tel":"031-944-0996","addr":"경기도 파주시 금촌동 777-4번지","indutype":"직물 - 침구·수예점","category":"other"},{"name":"파주한샘키친프라자","tel":"031-945-6300","addr":"경기도 파주시 금촌동 777-4번지","indutype":"주방용구 - 주방용구","category":"other"},{"name":"현측량설계사무소","tel":"031-943-7457","addr":"경기도 파주시 금촌동 777-4번지","indutype":"기타 - 기타 전문점","category":"other"}]},{"lat":"37.76400918","long":"126.77479237","imageIndex":17,"items":[{"name":"베스띠벨리","tel":"070-7593-7360","addr":"경기도 파주시 금촌동 44-21번지","indutype":"의류 - 스포츠의류","category":"other"}]},{"lat":"37.76289771","long":"126.77309348","imageIndex":17,"items":[{"name":"베스트","tel":"070-8950-2351","addr":"경기도 파주시 금촌동 321-18번지","indutype":"의류 - 정장","category":"other"}]},{"lat":"37.755844562","long":"126.77376211","imageIndex":17,"items":[{"name":"베이비데이","tel":"031-1111-1111","addr":"경기도 파주시 금촌동 953-3번지","indutype":"의류 - 아동의류","category":"other"}]},{"lat":"37.757562448","long":"126.77225889","imageIndex":17,"items":[{"name":"별텔레콤","tel":"031-944-9923","addr":"경기도 파주시 금촌동 958-1번지","indutype":"사무통신 - 통신기기","category":"other"}]},{"lat":"37.763422223","long":"126.7741019","imageIndex":17,"items":[{"name":"보곡금방","tel":"031-941-4477","addr":"경기도 파주시 금촌동 60-13번지","indutype":"신변잡화 - 귀금속","category":"other"}]},{"lat":"37.755506286","long":"126.7758738","imageIndex":17,"items":[{"name":"보국부동산스토리 공인중개사사무소","tel":"031-943-6062","addr":"경기도 파주시 금촌동 789-2번지","indutype":"용역 서비스 - 부동산 중개·임대","category":"other"}]},{"lat":"37.760530166","long":"126.77409946","imageIndex":17,"items":[{"name":"보금자리","tel":"031-942-5050","addr":"경기도 파주시 금촌동 74-1번지","indutype":"직물 - 침구·수예점","category":"other"},{"name":"중앙시스템","tel":"031-941-2848","addr":"경기도 파주시 금촌동 74-1번지","indutype":"사무통신 - 사무용 OA기기","category":"other"}]},{"lat":"37.755621869","long":"126.77046065","imageIndex":17,"items":[{"name":"보금자리노인전문요양원","tel":"031-949-6882","addr":"경기도 파주시 금촌동 246-23번지","indutype":"기타의료기관 - 기타의료기관 및 기타","category":"other"},{"name":"영스디자인","tel":"070-8119-7873","addr":"경기도 파주시 금촌동 246-23번지","indutype":"건축자재 - 인테리어전문","category":"other"},{"name":"호원","tel":"031-946-3557","addr":"경기도 파주시 금촌동 246-23번지","indutype":"레져용품 - 스포츠·레져용품","category":"other"}]},{"lat":"37.756669468","long":"126.77636954","imageIndex":17,"items":[{"name":"보람열쇠","tel":"031-946-8585","addr":"경기도 파주시 금촌동 774-20번지","indutype":"건축자재 - 목재·석재·철물","category":"other"}]},{"lat":"37.763093366","long":"126.77178777","imageIndex":17,"items":[{"name":"보물섬","tel":"031-942-7301","addr":"경기도 파주시 금촌동 327-11번지","indutype":"의류 - 정장","category":"other"}]},{"lat":"37.755117763","long":"126.77529626","imageIndex":17,"items":[{"name":"보성종합장식","tel":"031-944-7750","addr":"경기도 파주시 금촌동 802-7번지","indutype":"직물 - 카페트,커튼,천막,지물","category":"other"}]},{"lat":"37.76178586","long":"126.77584326","imageIndex":17,"items":[{"name":"본공인중개사사무소","tel":"031-943-3911","addr":"경기도 파주시 금촌동 56-27번지","indutype":"용역 서비스 - 부동산 중개·임대","category":"other"}]},{"lat":"37.761370419","long":"126.77070368","imageIndex":17,"items":[{"name":"봄스튜디오","tel":"031-944-8547","addr":"경기도 파주시 금촌동 930-4번지","indutype":"광학제품 - 사진관","category":"other"}]},{"lat":"37.76003087","long":"126.77681322","imageIndex":17,"items":[{"name":"봉성만물상","tel":"031-957-7270","addr":"경기도 파주시 금촌동 767-8번지","indutype":"신변잡화 - 기념품점","category":"other"},{"name":"인디안파주점","tel":"031-941-0104","addr":"경기도 파주시 금촌동 767-8광장빌딩동관1층104,105,106호","indutype":"레져용품 - 스포츠·레져용품","category":"other"}]},{"lat":"37.763008581","long":"126.77451172","imageIndex":17,"items":[{"name":"부부상회","tel":"031-941-3216","addr":"경기도 파주시 금촌동 62-37번지","indutype":"의류 - 내의판매","category":"other"}]},{"lat":"37.764173825","long":"126.77607429","imageIndex":17,"items":[{"name":"부일마크사","tel":"031-941-2551","addr":"경기도 파주시 금촌동 51-7번지","indutype":"서적문구 - 문구용품","category":"other"},{"name":"일류사","tel":"031-947-3433","addr":"경기도 파주시 금촌동 51-7번지","indutype":"수리서비스 - 세탁소","category":"other"}]},{"lat":"37.765808442","long":"126.76885125","imageIndex":17,"items":[{"name":"부자ENC","tel":"031-946-7920","addr":"경기도 파주시 금촌동 374-4번지","indutype":"기타 - 기계공구","category":"other"},{"name":"털보지물","tel":"031-967-0193","addr":"경기도 파주시 금촌동 374-4번지","indutype":"직물 - 카페트,커튼,천막,지물","category":"other"}]},{"lat":"37.760619719","long":"126.76923075","imageIndex":17,"items":[{"name":"부자인테리어","tel":"031-941-2718","addr":"경기도 파주시 금촌동 929-29번지","indutype":"건축자재 - 인테리어전문","category":"other"}]},{"lat":"37.763308705","long":"126.76679366","imageIndex":17,"items":[{"name":"부흥정밀","tel":"031-942-0983","addr":"경기도 파주시 금촌동 466-123번지","indutype":"기타 - 기계공구","category":"other"}]},{"lat":"37.756782611","long":"126.76970807","imageIndex":17,"items":[{"name":"브리스코리아","tel":"031-857-6889","addr":"경기도 파주시 금촌동 922번지 파주금촌주공아파트1단지","indutype":"회원제형태 - 기타4","category":"other"}]},{"lat":"37.757701393","long":"126.7742103","imageIndex":17,"items":[{"name":"블랙짐","tel":"031-948-1277","addr":"경기도 파주시 금촌동 948-1번지","indutype":"회원제형태 - 레져업소","category":"other"}]},{"lat":"37.754513145","long":"126.77018044","imageIndex":17,"items":[{"name":"비상도서","tel":"031-949-5555","addr":"경기도 파주시 금촌동 228-1번지","indutype":"회원제형태 - 서적","category":"other"},{"name":"성일수선","tel":"031-944-5717","addr":"경기도 파주시 금촌동 228-1번지","indutype":"회원제형태 - 기타4","category":"other"}]},{"lat":"37.751227338","long":"126.7669909","imageIndex":17,"items":[{"name":"비키앤","tel":"031-947-5529","addr":"경기도 파주시 금촌동 990-1번지","indutype":"의류 - 정장","category":"other"},{"name":"숲 파주금릉점","tel":"031-947-6050","addr":"경기도 파주시 금촌동 990-1번지","indutype":"의류 - 정장","category":"other"},{"name":"씨유금촌로데오점","tel":"031-941-9717","addr":"경기도 파주시 금촌동 990-1번지","indutype":"유통업 영리 - 편 의 점","category":"other"},{"name":"지티에스피 (GTSP)","tel":"031-946-0220","addr":"경기도 파주시 금촌동 990-1번지","indutype":"신변잡화 - 기타잡화","category":"other"}]},{"lat":"37.748978973","long":"126.76900638","imageIndex":17,"items":[{"name":"빈티지블라썸","tel":"070-7563-4225","addr":"경기도 파주시 금촌동 1019번지 서원마을뜨란채","indutype":"의류 - 정장","category":"other"}]},{"lat":"37.756367032","long":"126.7784017","imageIndex":17,"items":[{"name":"사계절","tel":"031-947-3938","addr":"경기도 파주시 금촌동 784-6번지","indutype":"의류 - 정장","category":"other"}]},{"lat":"37.751536084","long":"126.76820404","imageIndex":17,"items":[{"name":"사과나무","tel":"031-947-5341","addr":"경기도 파주시 금촌동 989-6번지","indutype":"의류 - 정장","category":"other"},{"name":"서누모바일","tel":"031-947-5010","addr":"경기도 파주시 금촌동 989-6번지","indutype":"사무통신 - 통신기기","category":"other"},{"name":"윤선생영어교실","tel":"031-944-4501","addr":"경기도 파주시 금촌동 989-6번지 우성메디피아 601호","indutype":"회원제형태 - 서적","category":"other"},{"name":"인토스터디플레이스(INTO STUDY PLACE)금릉","tel":"031-948-8465","addr":"경기도 파주시 금촌동 989-6번지","indutype":"용역 서비스 - 사무서비스","category":"other"}]},{"lat":"37.762954634","long":"126.77456863","imageIndex":17,"items":[{"name":"사라슈즈","tel":"031-957-9873","addr":"경기도 파주시 금촌동 62-15번지","indutype":"신변잡화 - 신발","category":"other"}]},{"lat":"37.759092544","long":"126.77148247","imageIndex":17,"items":[{"name":"삼성파주판매장","tel":"031-943-0419","addr":"경기도 파주시 금촌동 939-12번지","indutype":"전기제품 - 가전제품","category":"other"}]},{"lat":"37.754759898","long":"126.78134554","imageIndex":17,"items":[{"name":"삼성하우징","tel":"031-941-0877","addr":"경기도 파주시 금촌동 797-3번지","indutype":"건축자재 - 기타건축자재","category":"other"}]},{"lat":"37.759536371","long":"126.77734809","imageIndex":17,"items":[{"name":"삼익악기금촌특약점","tel":"031-943-3232","addr":"경기도 파주시 금촌동 767-11 억우빌딩","indutype":"레져용품 - 악기점","category":"other"},{"name":"스타일카페","tel":"031-947-6664","addr":"경기도 파주시 금촌동 767-11번지","indutype":"의류 - 정장","category":"other"},{"name":"씨유파주시청점","tel":"031-949-5587","addr":"경기도 파주시 금촌동 767-11번지","indutype":"유통업 영리 - 편 의 점","category":"other"}]},{"lat":"37.754202789","long":"126.77737563","imageIndex":17,"items":[{"name":"새금촌애견미용","tel":"031-942-4223","addr":"경기도 파주시 금촌동 106번지 금촌프라자 1층 정면중간","indutype":"문화.취미 - 애완동물","category":"other"}]},{"lat":"37.763732057","long":"126.77128644","imageIndex":17,"items":[{"name":"새로나종묘농약사","tel":"031-941-5842","addr":"경기도 파주시 금촌동 329-312번지","indutype":"농업 - 비료,사료,종자","category":"other"},{"name":"신화건설기계","tel":"031-944-2468","addr":"경기도 파주시 금촌동 329-312번지","indutype":"기타 - 기계공구","category":"other"}]},{"lat":"37.764371596","long":"126.7758467","imageIndex":17,"items":[{"name":"새빛마크사","tel":"031-941-2547","addr":"경기도 파주시 금촌동 50-22번지","indutype":"신변잡화 - 기타잡화","category":"other"}]},{"lat":"37.764007363","long":"126.76926548","imageIndex":17,"items":[{"name":"서부앵글","tel":"031-946-5565","addr":"경기도 파주시 금촌동 329-203번지","indutype":"건축자재 - 보일러·펌프·샷시","category":"other"},{"name":"파주천막사","tel":"031-941-9990","addr":"경기도 파주시 금촌동 329-203번지","indutype":"직물 - 카페트,커튼,천막,지물","category":"other"}]},{"lat":"37.755065292","long":"126.77148367","imageIndex":17,"items":[{"name":"서부유통","tel":"031-947-8797","addr":"경기도 파주시 금촌동 230-1번지 대영장미아파트","indutype":"유통업 영리 - 기타유통업","category":"other"},{"name":"조운인테리어","tel":"031-945-5712","addr":"경기도 파주시 금촌동 230-1번지 대영장미아파트","indutype":"주방용구 - 주방용구","category":"other"}]},{"lat":"37.755424501","long":"126.77551093","imageIndex":17,"items":[{"name":"서울교육연구원파주지점","tel":"031-944-2250","addr":"경기도 파주시 금촌동 789-4번지","indutype":"서적문구 - 전문서적","category":"other"}]},{"lat":"37.763671238","long":"126.76787064","imageIndex":17,"items":[{"name":"서울수도상사","tel":"031-943-9778","addr":"경기도 파주시 금촌동 466-49번지","indutype":"건축자재 - 건축용 요업제품","category":"other"}]},{"lat":"37.762225286","long":"126.7747865","imageIndex":17,"items":[{"name":"서정통신","tel":"031-953-0222","addr":"경기도 파주시 금촌동 66-3번지","indutype":"사무통신 - 통신기기","category":"other"}]},{"lat":"37.760203684","long":"126.76842633","imageIndex":17,"items":[{"name":"서진인테리어","tel":"02-1111-1111","addr":"경기도 파주시 금촌동 288-26번지","indutype":"건축자재 - 인테리어전문","category":"other"},{"name":"파워밧데리","tel":"","addr":"경기도 파주시 금촌동 288-26번지","indutype":"전기제품 - 기타전기제품","category":"other"}]},{"lat":"37.759059499","long":"126.77767864","imageIndex":17,"items":[{"name":"서희유통센타","tel":"031-941-8997","addr":"경기도 파주시 금촌동 770-2번지","indutype":"레져용품 - 스포츠·레져용품","category":"other"}]},{"lat":"37.763423119","long":"126.7699596","imageIndex":17,"items":[{"name":"선진특수건업","tel":"031-959-9904","addr":"경기도 파주시 금촌동 355-1번지","indutype":"용역 서비스 - 기타용역서비스","category":"other"}]},{"lat":"37.76602998","long":"126.7715403","imageIndex":17,"items":[{"name":"선한디자인","tel":"031-943-1482","addr":"경기도 파주시 금촌동 369-7번지","indutype":"건축자재 - 기타건축자재","category":"other"},{"name":"형제공업사","tel":"031-948-2017","addr":"경기도 파주시 금촌동 369-7번지","indutype":"건축자재 - 목재·석재·철물","category":"other"}]},{"lat":"37.766836465","long":"126.76932468","imageIndex":17,"items":[{"name":"성실철강샤링","tel":"031-943-6147","addr":"경기도 파주시 금촌동 375-1","indutype":"건축자재 - 기타건축자재","category":"other"}]},{"lat":"37.76519812","long":"126.77462983","imageIndex":17,"items":[{"name":"성심지물","tel":"031-943-7423","addr":"경기도 파주시 금촌동 329-19번지","indutype":"직물 - 카페트,커튼,천막,지물","category":"other"},{"name":"으뜸","tel":"070-7502-7010","addr":"경기도 파주시 금촌동 329-19번지","indutype":"신변잡화 - 기타잡화","category":"other"}]},{"lat":"37.758200772","long":"126.776206","imageIndex":17,"items":[{"name":"성창인쇄사","tel":"031-941-4489","addr":"경기도 파주시 금촌동 772-14번지","indutype":"서적문구 - 출판 및 인쇄물","category":"other"},{"name":"한라기획","tel":"031-947-8788","addr":"경기도 파주시 금촌동 772-14번지","indutype":"건축자재 - 인테리어전문","category":"other"}]},{"lat":"37.759177327","long":"126.76879271","imageIndex":17,"items":[{"name":"세발가락","tel":"031-946-0709","addr":"경기도 파주시 금촌동 933-11번지","indutype":"문화.취미 - 애완동물","category":"other"}]},{"lat":"37.755053713","long":"126.77017874","imageIndex":17,"items":[{"name":"세시 B&S","tel":"031-957-9199","addr":"경기도 파주시 금촌동 233-6번지 대영장미아파트","indutype":"신변잡화 - 기타잡화","category":"other"}]},{"lat":"37.754840044","long":"126.78084602","imageIndex":17,"items":[{"name":"소나무커텐","tel":"031-943-7731","addr":"경기도 파주시 금촌동 797-1번지","indutype":"직물 - 카페트,커튼,천막,지물","category":"other"}]},{"lat":"37.762728473","long":"126.77409269","imageIndex":17,"items":[{"name":"속옷나라","tel":"031-943-9812","addr":"경기도 파주시 금촌동 63-2번지","indutype":"의류 - 내의판매","category":"other"}]},{"lat":"37.762840076","long":"126.77589678","imageIndex":17,"items":[{"name":"솔로몬OA","tel":"031-943-9339","addr":"경기도 파주시 금촌동 54-54번지","indutype":"사무통신 - 사무용 OA기기","category":"other"},{"name":"오피스테크","tel":"031-954-0933","addr":"경기도 파주시 금촌동 54-54번지","indutype":"사무통신 - 컴퓨터","category":"other"},{"name":"주식회사 엠에이치씨","tel":"031-942-5358","addr":"경기도 파주시 금촌동 54-54번지","indutype":"용역 서비스 - 종합용역","category":"other"},{"name":"현성건축사사무소","tel":"031-949-8190","addr":"경기도 파주시 금촌동 54-54번지","indutype":"용역 서비스 - 사무서비스","category":"other"}]},{"lat":"37.76201079","long":"126.77568369","imageIndex":17,"items":[{"name":"솔바람","tel":"031-943-4002","addr":"경기도 파주시 금촌동 56-28번지","indutype":"의류 - 정장","category":"other"}]},{"lat":"37.751094733","long":"126.76826217","imageIndex":17,"items":[{"name":"솔연세무회계사무소","tel":"031-944-3267","addr":"경기도 파주시 금촌동 989-8번지","indutype":"용역 서비스 - 법률회계서비스(개인)","category":"other"},{"name":"신금촌종합철물","tel":"031-957-4779","addr":"경기도 파주시 금촌동 989-8번지","indutype":"기타 - 기계공구","category":"other"},{"name":"알파문구파주금촌점","tel":"031-943-4652","addr":"경기도 파주시 금촌동 989-8번지","indutype":"서적문구 - 문구용품","category":"other"},{"name":"황의엽세무회계사무소","tel":"031-957-7557","addr":"경기도 파주시 금촌동 989-8번지","indutype":"용역 서비스 - 법률회계서비스(개인)","category":"other"},{"name":"훤한사진 포토그라피","tel":"","addr":"경기도 파주시 금촌동 989-8번지","indutype":"광학제품 - 사진관","category":"other"}]},{"lat":"37.756897964","long":"126.77807101","imageIndex":17,"items":[{"name":"송현화원","tel":"031-945-9095","addr":"경기도 파주시 금촌동 784-1번지","indutype":"문화.취미 - 화원","category":"other"}]},{"lat":"37.75534224","long":"126.77029132","imageIndex":17,"items":[{"name":"수호천사주야간보호센터","tel":"031-8071-2261","addr":"경기도 파주시 금촌동 235-1번지","indutype":"기타의료기관 - 기타의료기관 및 기타","category":"other"},{"name":"파주금촌한빛철물마트냉동공조","tel":"031-946-0943","addr":"경기도 파주시 금촌동 235-1번지 주공프라자 106호","indutype":"건축자재 - 목재·석재·철물","category":"other"},{"name":"홍반장 인테리어","tel":"","addr":"경기도 파주시 금촌동 235-1번지","indutype":"건축자재 - 인테리어전문","category":"other"}]},{"lat":"37.752920087","long":"126.77563206","imageIndex":17,"items":[{"name":"순수맘테라피","tel":"","addr":"경기도 파주시 금촌동 1003번지 쇠재마을뜨란채","indutype":"신변잡화 - 기타잡화","category":"other"}]},{"lat":"37.755940445","long":"126.76755467","imageIndex":17,"items":[{"name":"슈가비","tel":"031-943-6913","addr":"경기도 파주시 금촌동 972번지 새꽃마을뜨란채","indutype":"회원제형태 - 기타4","category":"other"}]},{"lat":"37.761753265","long":"126.76839874","imageIndex":17,"items":[{"name":"스마일화원","tel":"031-942-1588","addr":"경기도 파주시 금촌동 350-7","indutype":"문화.취미 - 화원","category":"other"}]},{"lat":"37.757563601","long":"126.77284898","imageIndex":17,"items":[{"name":"스카이텔레콤","tel":"031-949-4666","addr":"경기도 파주시 금촌동 958-9번지","indutype":"사무통신 - 통신기기","category":"other"}]},{"lat":"37.757380848","long":"126.76699406","imageIndex":17,"items":[{"name":"스타인테리어","tel":"031-949-2030","addr":"경기도 파주시 금촌동 972번지 새꽃마을뜨란채","indutype":"건축자재 - 인테리어전문","category":"other"}]},{"lat":"37.75725504","long":"126.77634506","imageIndex":17,"items":[{"name":"스타일","tel":"031-945-4935","addr":"경기도 파주시 금촌동 774-19번지","indutype":"의류 - 정장","category":"other"}]},{"lat":"37.757784247","long":"126.76598282","imageIndex":17,"items":[{"name":"스피드중고가전","tel":"031-949-0509","addr":"경기도 파주시 금촌동 966-2번지","indutype":"전기제품 - 가전제품","category":"other"}]},{"lat":"37.764087246","long":"126.77323734","imageIndex":17,"items":[{"name":"승덕건재","tel":"031-943-2688","addr":"경기도 파주시 금촌동 329-183번지","indutype":"건축자재 - 기타건축자재","category":"other"}]},{"lat":"37.763476764","long":"126.7743514","imageIndex":17,"items":[{"name":"승우당","tel":"031-941-3333","addr":"경기도 파주시 금촌동 60-7번지","indutype":"신변잡화 - 귀금속","category":"other"},{"name":"튼튼체육사","tel":"031-941-3551","addr":"경기도 파주시 금촌동 60-7번지","indutype":"레져용품 - 스포츠·레져용품","category":"other"}]},{"lat":"37.764560794","long":"126.77584613","imageIndex":17,"items":[{"name":"시네마천국","tel":"031-941-5060","addr":"경기도 파주시 금촌동 42-3","indutype":"문화.취미 - 문화취미기타","category":"other"}]},{"lat":"37.75967269","long":"126.76871171","imageIndex":17,"items":[{"name":"시노스","tel":"031-945-1733","addr":"경기도 파주시 금촌동 932-24번지","indutype":"기타 - 기계공구","category":"other"}]},{"lat":"37.760952574","long":"126.77356478","imageIndex":17,"items":[{"name":"시온쇼핑","tel":"031-941-2002","addr":"경기도 파주시 금촌동 310-11번지","indutype":"의류 - 정장","category":"other"},{"name":"우진","tel":"031-945-1223","addr":"경기도 파주시 금촌동 310-11번지","indutype":"의류 - 정장","category":"other"},{"name":"우진","tel":"070-7872-8733","addr":"경기도 파주시 금촌동 310-11번지","indutype":"의류 - 정장","category":"other"}]},{"lat":"37.762644537","long":"126.77262897","imageIndex":17,"items":[{"name":"신광사","tel":"031-968-0724","addr":"경기도 파주시 금촌동 322-6번지","indutype":"의류 - 정장","category":"other"}]},{"lat":"37.763975112","long":"126.77118354","imageIndex":17,"items":[{"name":"신도종합OA기기","tel":"031-946-6191","addr":"경기도 파주시 금촌동 329-91번지","indutype":"사무통신 - 사무용 OA기기","category":"other"}]},{"lat":"37.76411714","long":"126.7747126","imageIndex":17,"items":[{"name":"신발마트","tel":"031-941-3757","addr":"경기도 파주시 금촌동 44-12번지","indutype":"신변잡화 - 신발","category":"other"},{"name":"클라이드 앤","tel":"031-944-2141","addr":"경기도 파주시 금촌동 44-12번지","indutype":"의류 - 스포츠의류","category":"other"}]},{"lat":"37.770028041","long":"126.77505763","imageIndex":17,"items":[{"name":"신우냉동","tel":"","addr":"경기도 파주시 금촌동 17-16번지 동문아파트","indutype":"용역 서비스 - 기타용역서비스","category":"other"}]},{"lat":"37.763146148","long":"126.76660124","imageIndex":17,"items":[{"name":"신풍금속","tel":"031-945-8952","addr":"경기도 파주시 금촌동 466-129번지","indutype":"건축자재 - 기타건축자재","category":"other"},{"name":"신풍종합철강","tel":"031-945-0445","addr":"경기도 파주시 금촌동 466-129번지","indutype":"기타 - 기계공구","category":"other"}]},{"lat":"37.756199532","long":"126.78034266","imageIndex":17,"items":[{"name":"신흥","tel":"031-1111-1111","addr":"경기도 파주시 금촌동 793-2번지 해피타운","indutype":"수리서비스 - 기타수리서비스","category":"other"}]},{"lat":"37.752144734","long":"126.76620504","imageIndex":17,"items":[{"name":"싱글골프연습장","tel":"031-944-0754","addr":"경기도 파주시 금촌동 986-2번지","indutype":"회원제형태 - 레져업소","category":"other"},{"name":"유사랑요양원","tel":"031-949-7181","addr":"경기도 파주시 금촌동 986-2번지","indutype":"기타의료기관 - 기타의료기관 및 기타","category":"other"},{"name":"크린토피아 금촌로데오점","tel":"031-943-8909","addr":"경기도 파주시 금촌동 986-2번지","indutype":"수리서비스 - 세탁소","category":"other"}]},{"lat":"37.759697276","long":"126.76748602","imageIndex":17,"items":[{"name":"씨앤에프","tel":"031-945-2871","addr":"경기도 파주시 금촌동 510-4번지","indutype":"신변잡화 - 기타잡화","category":"other"}]},{"lat":"37.759975983","long":"126.77174073","imageIndex":17,"items":[{"name":"씨유금촌소망점","tel":"031-908-1506","addr":"경기도 파주시 금촌동 937-26번지","indutype":"유통업 영리 - 편 의 점","category":"other"},{"name":"준인테리어자재","tel":"070-8232-3545","addr":"경기도 파주시 금촌동 937-26번지","indutype":"건축자재 - 인테리어전문","category":"other"},{"name":"한림엔지니어링주식회사","tel":"031-6679-1088","addr":"경기도 파주시 금촌동 937-26번지","indutype":"기타 - 기타 전문점","category":"other"},{"name":"한림엔지니어링주식회사/원격지","tel":"031-957-6527","addr":"경기도 파주시 금촌동 937-26번지","indutype":"기타 - 기타 전문점","category":"other"}]},{"lat":"37.76933609","long":"126.77134841","imageIndex":17,"items":[{"name":"씨유금촌유앤아이점","tel":"031-945-2675","addr":"경기도 파주시 금촌동 1014번지 한일유앤아이","indutype":"유통업 영리 - 편 의 점","category":"other"}]},{"lat":"37.750094331","long":"126.77265651","imageIndex":17,"items":[{"name":"씨유금촌하이츠점","tel":"031-957-3827","addr":"경기도 파주시 금촌동 997번지 후곡마을중앙하이츠아파트","indutype":"유통업 영리 - 편 의 점","category":"other"}]},{"lat":"37.756590102","long":"126.77726626","imageIndex":17,"items":[{"name":"씨유파주교육청점","tel":"031-944-0985","addr":"경기도 파주시 금촌동 786-1번지","indutype":"유통업 영리 - 편 의 점","category":"other"}]},{"lat":"37.759647657","long":"126.77431779","imageIndex":17,"items":[{"name":"씨유파주희망점","tel":"031-947-1358","addr":"경기도 파주시 금촌동 77-3번지","indutype":"유통업 영리 - 편 의 점","category":"other"}]},{"lat":"37.76319756","long":"126.77439766","imageIndex":17,"items":[{"name":"아디다스금촌대리점","tel":"031-943-3400","addr":"경기도 파주시 금촌동 62-1번지","indutype":"레져용품 - 스포츠·레져용품","category":"other"},{"name":"아이더 파주금촌점","tel":"031-941-1551","addr":"경기도 파주시 금촌동 62-1번지","indutype":"레져용품 - 스포츠·레져용품","category":"other"},{"name":"현대열쇠","tel":"031-944-1385","addr":"경기도 파주시 금촌동 62-1번지","indutype":"건축자재 - 목재·석재·철물","category":"other"}]},{"lat":"37.758642192","long":"126.77618196","imageIndex":17,"items":[{"name":"아르페지오","tel":"031-944-0905","addr":"경기도 파주시 금촌동 772-5,6","indutype":"의류 - 정장","category":"other"}]},{"lat":"37.756479003","long":"126.77571196","imageIndex":17,"items":[{"name":"아름다운옷가게","tel":"070-4400-6339","addr":"경기도 파주시 금촌동 950-8번지","indutype":"의류 - 정장","category":"other"}]},{"lat":"37.76442033","long":"126.77310012","imageIndex":17,"items":[{"name":"아미고 파주점","tel":"031-946-7651","addr":"경기도 파주시 금촌동 329-23번지","indutype":"의류 - 정장","category":"other"}]},{"lat":"37.769452543","long":"126.77100756","imageIndex":17,"items":[{"name":"아우라뷰티","tel":"031-943-0042","addr":"경기도 파주시 금촌동 1014번지 한일유앤아이","indutype":"회원제형태 - 기타1","category":"other"},{"name":"일이오(12 5)","tel":"031-941-6703","addr":"경기도 파주시 금촌동 1014번지 한일유앤아이","indutype":"회원제형태 - 기타4","category":"other"}]},{"lat":"37.76436903","long":"126.77451889","imageIndex":17,"items":[{"name":"아이리텍파주아이폰수리센터","tel":"070-8955-9042","addr":"경기도 파주시 금촌동 44-7번지","indutype":"수리서비스 - 기타수리서비스","category":"other"},{"name":"일프로통신","tel":"031-947-8979","addr":"경기도 파주시 금촌동 44-7번지","indutype":"사무통신 - 통신기기","category":"other"}]},{"lat":"37.754921029","long":"126.77142738","imageIndex":17,"items":[{"name":"아이맵시","tel":"031-948-7957","addr":"경기도 파주시 금촌동 230-1번지 대영장미아파트","indutype":"사무통신 - 전자(상우회)","category":"other"}]},{"lat":"37.764037327","long":"126.77537107","imageIndex":17,"items":[{"name":"아이비클럽파주점","tel":"031-944-4089","addr":"경기도 파주시 금촌동 50-3번지","indutype":"의류 - 기타의류","category":"other"}]},{"lat":"37.759371587","long":"126.77598682","imageIndex":17,"items":[{"name":"아이앤지산업","tel":"031-957-6984","addr":"경기도 파주시 금촌동 765-7번지","indutype":"건축자재 - 목재·석재·철물","category":"other"}]},{"lat":"37.759698216","long":"126.77717738","imageIndex":17,"items":[{"name":"아이올라(AIOLA)","tel":"031-946-5598","addr":"경기도 파주시 금촌동 767-10번지","indutype":"의류 - 정장","category":"other"}]},{"lat":"37.757423983","long":"126.7660407","imageIndex":17,"items":[{"name":"아이지미술파주문산지사","tel":"031-947-0292","addr":"경기도 파주시 금촌동 972번지 새꽃마을뜨란채","indutype":"회원제형태 - 서적","category":"other"},{"name":"엘리샤벳샵","tel":"031-942-1766","addr":"경기도 파주시 금촌동 972번지 새꽃마을뜨란채","indutype":"서적문구 - 문구용품","category":"other"},{"name":"이 버스로 닷컴","tel":"031-957-5584","addr":"경기도 파주시 금촌동 972번지 새꽃마을뜨란채","indutype":"여행 - 관광여행","category":"other"}]},{"lat":"37.764727955","long":"126.77376876","imageIndex":17,"items":[{"name":"아이템플","tel":"031-942-0222","addr":"경기도 파주시 금촌동 329-11번지","indutype":"서적문구 - 출판 및 인쇄물","category":"other"},{"name":"한국문화센터","tel":"031-947-7913","addr":"경기도 파주시 금촌동 329-11번지","indutype":"문화.취미 - 민예·공예품","category":"other"}]},{"lat":"37.748651261","long":"126.77186673","imageIndex":17,"items":[{"name":"아카이(akai trading)","tel":"02-745-1062","addr":"경기도 파주시 금촌동 1019번지 서원마을뜨란채","indutype":"전기제품 - 가전제품","category":"other"},{"name":"쿠키팬트리(Cookie Pantry)","tel":"","addr":"경기도 파주시 금촌동 1019번지 서원마을뜨란채","indutype":"문화.취미 - 문화취미기타","category":"other"}]},{"lat":"37.760395244","long":"126.77421335","imageIndex":17,"items":[{"name":"안승대세무사사무소","tel":"031-942-1900","addr":"경기도 파주시 금촌동 74-5번지","indutype":"용역 서비스 - 법률회계서비스(개인)","category":"other"},{"name":"풍기인견금촌점","tel":"031-946-1119","addr":"경기도 파주시 금촌동 74-5번지","indutype":"의류 - 정장","category":"other"}]},{"lat":"37.756816446","long":"126.7778443","imageIndex":17,"items":[{"name":"알뜰구제샵","tel":"031-942-8057","addr":"경기도 파주시 금촌동 785-3번지","indutype":"의류 - 정장","category":"other"}]},{"lat":"37.763397502","long":"126.77529359","imageIndex":17,"items":[{"name":"알레르망","tel":"031-944-2354","addr":"경기도 파주시 금촌동 51-43번지","indutype":"직물 - 침구·수예점","category":"other"},{"name":"퀸즈스킨앤바디","tel":"031-2772-8196","addr":"경기도 파주시 금촌동 51-43번지","indutype":"회원제형태 - 기타4","category":"other"}]},{"lat":"37.756563263","long":"126.77270456","imageIndex":17,"items":[{"name":"알로하뭉","tel":"031-000-0000","addr":"경기도 파주시 금촌동 957-4번지","indutype":"문화.취미 - 애완동물","category":"other"}]},{"lat":"37.763146063","long":"126.77109534","imageIndex":17,"items":[{"name":"애견나라","tel":"031-945-3790","addr":"경기도 파주시 금촌동 331-3번지","indutype":"신변잡화 - 기타잡화","category":"other"},{"name":"태성창호","tel":"031-952-3774","addr":"경기도 파주시 금촌동 331-3번지","indutype":"건축자재 - 보일러·펌프·샷시","category":"other"}]},{"lat":"37.756228331","long":"126.7765411","imageIndex":17,"items":[{"name":"애드원광고","tel":"031-946-1148","addr":"경기도 파주시 금촌동 786-21 가-102","indutype":"용역 서비스 - 종합용역","category":"other"},{"name":"우리광고기획","tel":"031-944-2181","addr":"경기도 파주시 금촌동 786-21번지가-8","indutype":"용역 서비스 - 종합용역","category":"other"}]},{"lat":"37.770069564","long":"126.77324154","imageIndex":17,"items":[{"name":"애플디자인","tel":"031-941-7974","addr":"경기도 파주시 금촌동 424-9번지 경신아파트","indutype":"용역 서비스 - 종합용역","category":"other"}]},{"lat":"37.757899357","long":"126.76948896","imageIndex":17,"items":[{"name":"애플편의점","tel":"031-943-3639","addr":"경기도 파주시 금촌동 943-26번지","indutype":"유통업 영리 - 편 의 점","category":"other"}]},{"lat":"37.763649394","long":"126.77509989","imageIndex":17,"items":[{"name":"앤 쥬얼","tel":"","addr":"경기도 파주시 금촌동 51-16번지","indutype":"신변잡화 - 귀금속","category":"other"},{"name":"예스","tel":"02-0000-0000","addr":"경기도 파주시 금촌동 51-16번지","indutype":"의류 - 내의판매","category":"other"},{"name":"코닥칼라현상소","tel":"031-942-5023","addr":"경기도 파주시 금촌동 51-16번지","indutype":"광학제품 - 사진관","category":"other"},{"name":"탑텔레콤","tel":"031-943-0325","addr":"경기도 파주시 금촌동 51-16번지","indutype":"사무통신 - 통신기기","category":"other"}]},{"lat":"37.762842079","long":"126.7722879","imageIndex":17,"items":[{"name":"양팔동공인중개사사무소","tel":"031-957-9600","addr":"경기도 파주시 금촌동 324-5","indutype":"용역 서비스 - 부동산 중개·임대","category":"other"}]},{"lat":"37.754594622","long":"126.77499149","imageIndex":17,"items":[{"name":"어반아울렛","tel":"070-4763-5091","addr":"경기도 파주시 금촌동 120-2번지","indutype":"의류 - 정장","category":"other"}]},{"lat":"37.762009124","long":"126.77482121","imageIndex":17,"items":[{"name":"에드윈","tel":"031-944-1439","addr":"경기도 파주시 금촌동 67번지","indutype":"의류 - 정장","category":"other"},{"name":"에드윈금촌점","tel":"031-944-1439","addr":"경기도 파주시 금촌동 67번지","indutype":"의류 - 스포츠의류","category":"other"}]},{"lat":"37.762119632","long":"126.77142765","imageIndex":17,"items":[{"name":"에어컨119","tel":"","addr":"경기도 파주시 금촌동 334-145번지","indutype":"용역 서비스 - 기타용역서비스","category":"other"}]},{"lat":"37.763980854","long":"126.77412287","imageIndex":17,"items":[{"name":"엘리트학생복파주점","tel":"031-941-6770","addr":"경기도 파주시 금촌동 59-9번지","indutype":"의류 - 맞춤복점","category":"other"}]},{"lat":"37.764644591","long":"126.77260007","imageIndex":17,"items":[{"name":"엘지전자 (주) 파주서비스센터","tel":"031-945-3035","addr":"경기도 파주시 금촌동 329-205번지","indutype":"수리서비스 - 가정용품수리","category":"other"}]},{"lat":"37.760199823","long":"126.77565519","imageIndex":17,"items":[{"name":"엡샵","tel":"031-942-5696","addr":"경기도 파주시 금촌동 71-26번지","indutype":"의류 - 정장","category":"other"}]},{"lat":"37.755338416","long":"126.77759914","imageIndex":17,"items":[{"name":"연플라워","tel":"031-939-7774","addr":"경기도 파주시 금촌동 790-16번지","indutype":"문화.취미 - 화원","category":"other"}]},{"lat":"37.759285396","long":"126.76876967","imageIndex":17,"items":[{"name":"영광종합공사","tel":"031-948-2797","addr":"경기도 파주시 금촌동 933-12번지","indutype":"건축자재 - 보일러·펌프·샷시","category":"other"}]},{"lat":"37.76625735","long":"126.77262912","imageIndex":17,"items":[{"name":"영송종합철물건재","tel":"031-944-5182","addr":"경기도 파주시 금촌동 369-6번지","indutype":"건축자재 - 기타건축자재","category":"other"}]},{"lat":"37.755481351","long":"126.77696324","imageIndex":17,"items":[{"name":"영신인쇄","tel":"02-2267-3550","addr":"경기도 파주시 금촌동 790-8번지","indutype":"서적문구 - 출판 및 인쇄물","category":"other"}]},{"lat":"37.758397865","long":"126.77562665","imageIndex":17,"items":[{"name":"영인상사","tel":"","addr":"경기도 파주시 금촌동 772-1번지","indutype":"건축자재 - 페인트","category":"other"}]},{"lat":"37.769920695","long":"126.7754552","imageIndex":17,"items":[{"name":"예성인테리어","tel":"","addr":"경기도 파주시 금촌동 18-3번지","indutype":"건축자재 - 인테리어전문","category":"other"}]},{"lat":"37.760391161","long":"126.77676673","imageIndex":17,"items":[{"name":"예전건축사사무소","tel":"031-945-8255","addr":"경기도 파주시 금촌동 767-6번지","indutype":"용역 서비스 - 법률회계서비스(개인)","category":"other"},{"name":"유일특수","tel":"031-948-4851","addr":"경기도 파주시 금촌동 767-6번지","indutype":"용역 서비스 - 가례서비스업","category":"other"},{"name":"이브자리금촌점","tel":"031-944-2393","addr":"경기도 파주시 금촌동 767-6번지 1층","indutype":"직물 - 침구·수예점","category":"other"}]},{"lat":"37.761677254","long":"126.77096374","imageIndex":17,"items":[{"name":"오늘부티크","tel":"031-000-0000","addr":"경기도 파주시 금촌동 344-1번지","indutype":"신변잡화 - 액세서리","category":"other"}]},{"lat":"37.762282893","long":"126.77198322","imageIndex":17,"items":[{"name":"오색광고","tel":"031-941-3755","addr":"경기도 파주시 금촌동 334-142번지","indutype":"용역 서비스 - 종합용역","category":"other"}]},{"lat":"37.75584161","long":"126.7816487","imageIndex":17,"items":[{"name":"온스타스킨케어","tel":"031-957-3007","addr":"경기도 파주시 금촌동 795-5번지","indutype":"회원제형태 - 기타4","category":"other"}]},{"lat":"37.76425491","long":"126.77607404","imageIndex":17,"items":[{"name":"올리브","tel":"031-949-1779","addr":"경기도 파주시 금촌동 51-6번지","indutype":"의류 - 정장","category":"other"},{"name":"전우사","tel":"031-945-0111","addr":"경기도 파주시 금촌동 51-6번지","indutype":"서적문구 - 문구용품","category":"other"}]},{"lat":"37.760478898","long":"126.77554085","imageIndex":17,"items":[{"name":"올포유 금촌점","tel":"031-949-1685","addr":"경기도 파주시 금촌동 71-15번지","indutype":"의류 - 스포츠의류","category":"other"},{"name":"유빅스금촌점","tel":"031-944-8818","addr":"경기도 파주시 금촌동 71-15번지","indutype":"의류 - 정장","category":"other"}]},{"lat":"37.757479694","long":"126.77140806","imageIndex":17,"items":[{"name":"옷수선","tel":"031-946-7523","addr":"경기도 파주시 금촌동 959-2번지","indutype":"수리서비스 - 세탁소","category":"other"}]},{"lat":"37.759865597","long":"126.77520228","imageIndex":17,"items":[{"name":"옷이야기","tel":"031-946-7010","addr":"경기도 파주시 금촌동 71-14번지","indutype":"의류 - 정장","category":"other"}]},{"lat":"37.75692367","long":"126.77737872","imageIndex":17,"items":[{"name":"옷장","tel":"","addr":"경기도 파주시 금촌동 775-8번지","indutype":"의류 - 정장","category":"other"}]},{"lat":"37.761564952","long":"126.77342671","imageIndex":17,"items":[{"name":"옹기종기","tel":"031-941-3305","addr":"경기도 파주시 금촌동 315-17","indutype":"문화.취미 - 민예·공예품","category":"other"}]},{"lat":"37.759448335","long":"126.77842644","imageIndex":17,"items":[{"name":"우정사진관","tel":"031-8070-7579","addr":"경기도 파주시 금촌동 769-3번지","indutype":"광학제품 - 사진관","category":"other"},{"name":"파주건축사사무소","tel":"031-941-9410","addr":"경기도 파주시 금촌동 769-3번지","indutype":"용역 서비스 - 법률회계서비스(개인)","category":"other"}]},{"lat":"37.759118185","long":"126.77539749","imageIndex":17,"items":[{"name":"우정세무회계사무소","tel":"031-942-1241","addr":"경기도 파주시 금촌동 765-3번지 경희빌딩 2층","indutype":"용역 서비스 - 법률회계서비스(개인)","category":"other"}]},{"lat":"37.758925062","long":"126.7687935","imageIndex":17,"items":[{"name":"운동화손세탁(금촌점)","tel":"031-948-8252","addr":"경기도 파주시 금촌동 933-9번지","indutype":"수리서비스 - 세탁소","category":"other"}]},{"lat":"37.759730521","long":"126.77523674","imageIndex":17,"items":[{"name":"워시타임 셀프빨래방","tel":"","addr":"경기도 파주시 금촌동 764-4번지","indutype":"수리서비스 - 세탁소","category":"other"}]},{"lat":"37.748289523","long":"126.77117572","imageIndex":17,"items":[{"name":"원텐ENG","tel":"","addr":"경기도 파주시 금촌동 1019번지 서원마을뜨란채","indutype":"전기제품 - 기타전기제품","category":"other"}]},{"lat":"37.75536475","long":"126.77723593","imageIndex":17,"items":[{"name":"월드중고가전","tel":"031-945-4335","addr":"경기도 파주시 금촌동 790-12번지","indutype":"전기제품 - 가전제품","category":"other"}]},{"lat":"37.760979557","long":"126.76895725","imageIndex":17,"items":[{"name":"웨이스탑 금촌점","tel":"070-4213-2679","addr":"경기도 파주시 금촌동 929-18번지","indutype":"유통업 영리 - 편 의 점","category":"other"},{"name":"파주행복한노인주간보호센터","tel":"031-941-4105","addr":"경기도 파주시 금촌동 929-18번지","indutype":"기타의료기관 - 기타의료기관 및 기타","category":"other"}]},{"lat":"37.756004993","long":"126.78229503","imageIndex":17,"items":[{"name":"위드미 파주금릉점","tel":"031-943-2104","addr":"경기도 파주시 금촌동 795-2번지 송학연립","indutype":"유통업 영리 - 편 의 점","category":"other"}]},{"lat":"37.768984989","long":"126.7714857","imageIndex":17,"items":[{"name":"윈드텍크","tel":"031-000-0000","addr":"경기도 파주시 금촌동 1014-1번지 한일유앤아이","indutype":"용역 서비스 - 기타용역서비스","category":"other"}]},{"lat":"37.762954829","long":"126.76554642","imageIndex":17,"items":[{"name":"유신측량설계사무소","tel":"031-947-8969","addr":"경기도 파주시 금촌동 466-87번지","indutype":"용역 서비스 - 사무서비스","category":"other"},{"name":"파주건설기계","tel":"031-941-2445","addr":"경기도 파주시 금촌동 466-87번지","indutype":"기타 - 기계공구","category":"other"},{"name":"파주골재","tel":"031-941-2445","addr":"경기도 파주시 금촌동 466-87번지","indutype":"건축자재 - 기타건축자재","category":"other"}]},{"lat":"37.755337178","long":"126.77695233","imageIndex":17,"items":[{"name":"유즈시스템(UseSystem)","tel":"031-8071-1119","addr":"경기도 파주시 금촌동 790-9번지","indutype":"사무통신 - 컴퓨터","category":"other"}]},{"lat":"37.758753116","long":"126.77298147","imageIndex":17,"items":[{"name":"윤승일건설기계","tel":"031-949-0057","addr":"경기도 파주시 금촌동 946-1번지","indutype":"기타 - 기계공구","category":"other"}]},{"lat":"37.7565088","long":"126.77715303","imageIndex":17,"items":[{"name":"으뜸전기.조명","tel":"031-945-4927","addr":"경기도 파주시 금촌동 786-11번지","indutype":"전기제품 - 기타전기제품","category":"other"}]},{"lat":"37.759172526","long":"126.77554485","imageIndex":17,"items":[{"name":"은혜광고기획","tel":"031-942-5916","addr":"경기도 파주시 금촌동 765-4번지","indutype":"용역 서비스 - 종합용역","category":"other"}]},{"lat":"37.758423272","long":"126.77478682","imageIndex":17,"items":[{"name":"이관수법무사사무소","tel":"031-943-8500","addr":"경기도 파주시 금촌동 947-34번지","indutype":"용역 서비스 - 법률회계서비스(개인)","category":"other"}]},{"lat":"37.75983734","long":"126.77456687","imageIndex":17,"items":[{"name":"이규관세무회계사무소","tel":"031-944-0741","addr":"경기도 파주시 금촌동 73-21번지","indutype":"용역 서비스 - 법률회계서비스(개인)","category":"other"}]},{"lat":"37.758676721","long":"126.77539884","imageIndex":17,"items":[{"name":"이길신세무회계사무소","tel":"031-943-0670","addr":"경기도 파주시 금촌동 765-24번지","indutype":"용역 서비스 - 법률회계서비스(개인)","category":"other"}]},{"lat":"37.771453977","long":"126.77168231","imageIndex":17,"items":[{"name":"이너벨리","tel":"070-6207-1972","addr":"경기도 파주시 금촌동 421-15번지","indutype":"회원제형태 - 기타1","category":"other"}]},{"lat":"37.760258304","long":"126.76870986","imageIndex":17,"items":[{"name":"이레중고재활용","tel":"031-977-5436","addr":"경기도 파주시 금촌동 932-13번지","indutype":"전기제품 - 가전제품","category":"other"}]},{"lat":"37.764808819","long":"126.77365502","imageIndex":17,"items":[{"name":"이마트24 금촌역점","tel":"","addr":"경기도 파주시 금촌동 329-30번지","indutype":"유통업 영리 - 편 의 점","category":"other"},{"name":"이마트24 금촌역점","tel":"","addr":"경기도 파주시 금촌동 329-30번지","indutype":"유통업 영리 - 편 의 점","category":"other"}]},{"lat":"37.761225828","long":"126.77509598","imageIndex":17,"items":[{"name":"이마트24 금촌일방로점","tel":"","addr":"경기도 파주시 금촌동 68-2번지","indutype":"유통업 영리 - 편 의 점","category":"other"}]},{"lat":"37.760114153","long":"126.76871032","imageIndex":17,"items":[{"name":"이마트24 금촌초교점","tel":"02-6916-1500","addr":"경기도 파주시 금촌동 932-29번지","indutype":"유통업 영리 - 편 의 점","category":"other"},{"name":"이마트24 금촌초교점","tel":"02-6916-1500","addr":"경기도 파주시 금촌동 932-29번지","indutype":"유통업 영리 - 편 의 점","category":"other"}]},{"lat":"37.757086838","long":"126.77790022","imageIndex":17,"items":[{"name":"이마트24 파주교육청점","tel":"","addr":"경기도 파주시 금촌동 776-11번지","indutype":"유통업 영리 - 편 의 점","category":"other"}]},{"lat":"37.757785591","long":"126.76665234","imageIndex":17,"items":[{"name":"이마트24 파주번영로점","tel":"","addr":"경기도 파주시 금촌동 967-4번지","indutype":"유통업 영리 - 편 의 점","category":"other"},{"name":"이마트24 파주번영로점","tel":"","addr":"경기도 파주시 금촌동 967-4번지","indutype":"유통업 영리 - 편 의 점","category":"other"}]},{"lat":"37.762978153","long":"126.77276412","imageIndex":17,"items":[{"name":"이브커튼","tel":"031-945-2095","addr":"경기도 파주시 금촌동 323-11번지","indutype":"직물 - 카페트,커튼,천막,지물","category":"other"}]},{"lat":"37.755781266","long":"126.77832404","imageIndex":17,"items":[{"name":"이화아트샵","tel":"031-946-6843","addr":"경기도 파주시 금촌동 791-1번지","indutype":"신변잡화 - 액세서리","category":"other"}]},{"lat":"37.766808188","long":"126.77327432","imageIndex":17,"items":[{"name":"인영유통","tel":"","addr":"경기도 파주시 금촌동 390-102번지","indutype":"기타 - 기계공구","category":"other"}]},{"lat":"37.755924876","long":"126.77803991","imageIndex":17,"items":[{"name":"일산파주대리점","tel":"031-946-2464","addr":"경기도 파주시 금촌동 785-14번지","indutype":"유통업 영리 - 기타유통업","category":"other"}]},{"lat":"37.754928146","long":"126.77979044","imageIndex":17,"items":[{"name":"임진","tel":"031-945-2026","addr":"경기도 파주시 금촌동 798번지","indutype":"의류 - 기타의류","category":"other"}]},{"lat":"37.759226736","long":"126.77562412","imageIndex":17,"items":[{"name":"임현진법무사사무소","tel":"031-941-2890","addr":"경기도 파주시 금촌동 765-5번지","indutype":"용역 서비스 - 법률회계서비스(개인)","category":"other"}]},{"lat":"37.762646639","long":"126.77370708","imageIndex":17,"items":[{"name":"자매뜨개방","tel":"031-941-2108","addr":"경기도 파주시 금촌동 320-10번지","indutype":"직물 - 침구·수예점","category":"other"}]},{"lat":"37.762780366","long":"126.77298036","imageIndex":17,"items":[{"name":"자미온이정심전통한복","tel":"031-944-3538","addr":"경기도 파주시 금촌동 321-11번지","indutype":"직물 - 침구·수예점","category":"other"},{"name":"파주사임당로타리클럽","tel":"031-941-5742","addr":"경기도 파주시 금촌동 321-11번지","indutype":"기타 - 비영리/비대상","category":"other"},{"name":"파주통일로로타리클럽","tel":"031-941-5742","addr":"경기도 파주시 금촌동 321-11번지","indutype":"기타 - 비영리/대상","category":"other"}]},{"lat":"37.763557498","long":"126.76957332","imageIndex":17,"items":[{"name":"자선종묘사","tel":"031-943-1209","addr":"경기도 파주시 금촌동 329-64","indutype":"농업 - 비료,사료,종자","category":"other"}]},{"lat":"37.760948403","long":"126.7714313","imageIndex":17,"items":[{"name":"자유로운수(주)","tel":"031-948-4746","addr":"경기도 파주시 금촌동 342-45번지","indutype":"여행 - 렌터카","category":"other"}]},{"lat":"37.75620267","long":"126.78201075","imageIndex":17,"items":[{"name":"정명건축사사무소","tel":"031-943-5770","addr":"경기도 파주시 금촌동 795-1번지","indutype":"용역 서비스 - 사무서비스","category":"other"}]},{"lat":"37.754983147","long":"126.77556901","imageIndex":17,"items":[{"name":"제비표페인트","tel":"031-945-7704","addr":"경기도 파주시 금촌동 801-2번지","indutype":"건축자재 - 페인트","category":"other"}]},{"lat":"37.760614786","long":"126.77129616","imageIndex":17,"items":[{"name":"제이광고","tel":"031-946-2207","addr":"경기도 파주시 금촌동 937-7번지","indutype":"용역 서비스 - 종합용역","category":"other"},{"name":"하영통신","tel":"070-8257-5959","addr":"경기도 파주시 금촌동 937-7번지","indutype":"사무통신 - 통신기기","category":"other"}]},{"lat":"37.756862684","long":"126.76919717","imageIndex":17,"items":[{"name":"제이앤에스","tel":"031-948-6393","addr":"경기도 파주시 금촌동 922번지 파주금촌주공아파트1단지","indutype":"용역 서비스 - 종합용역","category":"other"}]},{"lat":"37.754200983","long":"126.77643381","imageIndex":17,"items":[{"name":"제이컴퓨터","tel":"031-939-9179","addr":"경기도 파주시 금촌동 123-30번지","indutype":"사무통신 - 컴퓨터","category":"other"}]},{"lat":"37.755948929","long":"126.77648522","imageIndex":17,"items":[{"name":"제일설비","tel":"031-943-1504","addr":"경기도 파주시 금촌동 786-23,1층109호","indutype":"용역 서비스 - 기타용역서비스","category":"other"},{"name":"주식회사이에스테크","tel":"031-944-8111","addr":"경기도 파주시 금촌동 786-23번지","indutype":"용역 서비스 - 기타용역서비스","category":"other"}]},{"lat":"37.76300365","long":"126.77198098","imageIndex":17,"items":[{"name":"제일양품","tel":"031-942-7923","addr":"경기도 파주시 금촌동 324-7번지","indutype":"의류 - 정장","category":"other"}]},{"lat":"37.763116955","long":"126.77004","imageIndex":17,"items":[{"name":"젤로스가구","tel":"031-947-3870","addr":"경기도 파주시 금촌동 334-33번지","indutype":"가구 - 일반가구","category":"other"}]},{"lat":"37.760231206","long":"126.77792475","imageIndex":17,"items":[{"name":"좋은건축사사무소","tel":"031-941-3953","addr":"경기도 파주시 금촌동 768-4번지","indutype":"용역 서비스 - 법률회계서비스(개인)","category":"other"}]},{"lat":"37.756537996","long":"126.77828771","imageIndex":17,"items":[{"name":"주식회사 명승정보통신","tel":"031-948-7777","addr":"경기도 파주시 금촌동 784-4번지","indutype":"용역 서비스 - 기타용역서비스","category":"other"},{"name":"파주차일드","tel":"031-941-8072","addr":"경기도 파주시 금촌동 784-4번지","indutype":"서적문구 - 과학기자재","category":"other"}]},{"lat":"37.764063171","long":"126.77475816","imageIndex":17,"items":[{"name":"주식회사 와이네트워크","tel":"031-949-4016","addr":"경기도 파주시 금촌동 44-36번지","indutype":"사무통신 - 통신기기","category":"other"},{"name":"주식회사 와이네트워크","tel":"031-942-2722","addr":"경기도 파주시 금촌동 44-36번지","indutype":"사무통신 - 통신기기","category":"other"}]},{"lat":"37.763032431","long":"126.77287744","imageIndex":17,"items":[{"name":"줌마렐라","tel":"031-957-3939","addr":"경기도 파주시 금촌동 323-10번지","indutype":"의류 - 정장","category":"other"}]},{"lat":"37.762725511","long":"126.77257197","imageIndex":17,"items":[{"name":"줌마렐라","tel":"031-957-3939","addr":"경기도 파주시 금촌동 323-19번지","indutype":"의류 - 정장","category":"other"}]},{"lat":"37.76347513","long":"126.76892669","imageIndex":17,"items":[{"name":"중고세상","tel":"031-946-8967","addr":"경기도 파주시 금촌동 357-1","indutype":"수리서비스 - 기타수리서비스","category":"other"}]},{"lat":"37.760286256","long":"126.76917505","imageIndex":17,"items":[{"name":"중국발해대학출판부","tel":"031-941-2492","addr":"경기도 파주시 금촌동 932-16번지","indutype":"서적문구 - 출판 및 인쇄물","category":"other"}]},{"lat":"37.762898908","long":"126.76912144","imageIndex":17,"items":[{"name":"중소기업가구할인매장","tel":"031-948-3663","addr":"경기도 파주시 금촌동 354-2번지","indutype":"가구 - 일반가구","category":"other"}]},{"lat":"37.757561959","long":"126.77200924","imageIndex":17,"items":[{"name":"중앙로정보통신로타리점","tel":"031-945-5010","addr":"경기도 파주시 금촌동 959-5번지","indutype":"사무통신 - 통신기기","category":"other"}]},{"lat":"37.762424634","long":"126.77537601","imageIndex":17,"items":[{"name":"즐거운락스피닝","tel":"031-944-4224","addr":"경기도 파주시 금촌동 56-30번지","indutype":"회원제형태 - 레져업소","category":"other"}]},{"lat":"37.759474594","long":"126.76876907","imageIndex":17,"items":[{"name":"지켜줄개","tel":"","addr":"경기도 파주시 금촌동 933-1번지","indutype":"문화.취미 - 애완동물","category":"other"},{"name":"파주도어락","tel":"031-942-0112","addr":"경기도 파주시 금촌동 933-1번지","indutype":"건축자재 - 목재·석재·철물","category":"other"}]},{"lat":"37.748757369","long":"126.77084521","imageIndex":17,"items":[{"name":"진양컴퓨터세탁소","tel":"031-949-3845","addr":"경기도 파주시 금촌동 1019번지 서원마을뜨란채","indutype":"수리서비스 - 세탁소","category":"other"}]},{"lat":"37.760287285","long":"126.77429313","imageIndex":17,"items":[{"name":"진윤서컬렉션","tel":"","addr":"경기도 파주시 금촌동 73-1번지","indutype":"의류 - 정장","category":"other"}]},{"lat":"37.767062966","long":"126.77456735","imageIndex":17,"items":[{"name":"쭈#(쭈샵)","tel":"031-944-2137","addr":"경기도 파주시 금촌동 30-1번지","indutype":"의류 - 정장","category":"other"}]},{"lat":"37.76242032","long":"126.7731517","imageIndex":17,"items":[{"name":"천광당","tel":"031-941-7269","addr":"경기도 파주시 금촌동 319-16번지","indutype":"신변잡화 - 귀금속","category":"other"}]},{"lat":"37.761423782","long":"126.77035171","imageIndex":17,"items":[{"name":"천현드라이크리닝","tel":"031-944-4821","addr":"경기도 파주시 금촌동 929-6번지","indutype":"수리서비스 - 세탁소","category":"other"}]},{"lat":"37.759614799","long":"126.77596338","imageIndex":17,"items":[{"name":"청개구리(With Todak)","tel":"070-4174-0002","addr":"경기도 파주시 금촌동 764-15번지","indutype":"의류 - 기타의류","category":"other"}]},{"lat":"37.763232959","long":"126.77406843","imageIndex":17,"items":[{"name":"체이스컬트금촌","tel":"031-941-7959","addr":"경기도 파주시 금촌동 60-24번지","indutype":"의류 - 정장","category":"other"}]},{"lat":"37.763283628","long":"126.76776973","imageIndex":17,"items":[{"name":"충남석재","tel":"031-941-5401","addr":"경기도 파주시 금촌동 468-5번지","indutype":"기타 - 기타 전문점","category":"other"},{"name":"충남석재","tel":"031-932-1252","addr":"경기도 파주시 금촌동 468-5번지","indutype":"건축자재 - 목재·석재·철물","category":"other"}]},{"lat":"37.763168657","long":"126.7734331","imageIndex":17,"items":[{"name":"친선지물","tel":"031-941-1967","addr":"경기도 파주시 금촌동 324-4","indutype":"직물 - 카페트,커튼,천막,지물","category":"other"}]},{"lat":"37.756729756","long":"126.7749282","imageIndex":17,"items":[{"name":"카스저울유통시스템","tel":"031-8071-2250","addr":"경기도 파주시 금촌동 951-5번지 장안4차아파트","indutype":"전기제품 - 기타전기제품","category":"other"}]},{"lat":"37.752364186","long":"126.76781563","imageIndex":17,"items":[{"name":"캔들홀릭","tel":"031-946-7730","addr":"경기도 파주시 금촌동 987-4번지","indutype":"문화.취미 - 문화취미기타","category":"other"},{"name":"토즈멤버십라운지 금촌센터","tel":"031-943-1211","addr":"경기도 파주시 금촌동 987-4번지","indutype":"용역 서비스 - 사무서비스","category":"other"}]},{"lat":"37.755047034","long":"126.76681991","imageIndex":17,"items":[{"name":"캔디공작소","tel":"031-8035-5022","addr":"경기도 파주시 금촌동 972번지 새꽃마을뜨란채","indutype":"신변잡화 - 기타잡화","category":"other"}]},{"lat":"37.760899818","long":"126.7742345","imageIndex":17,"items":[{"name":"코리아빨래방","tel":"031-942-4509","addr":"경기도 파주시 금촌동 311-17번지","indutype":"수리서비스 - 세탁소","category":"other"}]},{"lat":"37.762288308","long":"126.77476361","imageIndex":17,"items":[{"name":"코코","tel":"","addr":"경기도 파주시 금촌동 66-2번지","indutype":"의류 - 정장","category":"other"}]},{"lat":"37.763783394","long":"126.77450934","imageIndex":17,"items":[{"name":"코튼","tel":"02-1111-1111","addr":"경기도 파주시 금촌동 47-3번지","indutype":"의류 - 정장","category":"other"},{"name":"후쿠","tel":"031-946-3568","addr":"경기도 파주시 금촌동 47-3번지","indutype":"의류 - 정장","category":"other"}]},{"lat":"37.76394786","long":"126.77107014","imageIndex":17,"items":[{"name":"크로바인테리어","tel":"031-946-9907","addr":"경기도 파주시 금촌동 329-109번지","indutype":"건축자재 - 인테리어전문","category":"other"}]},{"lat":"37.76230773","long":"126.77548986","imageIndex":17,"items":[{"name":"크로커다일금촌점","tel":"031-943-0152","addr":"경기도 파주시 금촌동 56-31번지","indutype":"레져용품 - 스포츠·레져용품","category":"other"}]},{"lat":"37.757339644","long":"126.77818315","imageIndex":17,"items":[{"name":"크린","tel":"031-942-8630","addr":"경기도 파주시 금촌동 776-8번지","indutype":"용역 서비스 - 종합용역","category":"other"}]},{"lat":"37.764759483","long":"126.7760952","imageIndex":17,"items":[{"name":"크린에이드금촌점","tel":"031-945-3782","addr":"경기도 파주시 금촌동 42-1번지","indutype":"수리서비스 - 세탁소","category":"other"},{"name":"파주청년회의소","tel":"031-942-2930","addr":"경기도 파주시 금촌동 42-1번지","indutype":"기타 - 비영리/대상","category":"other"},{"name":"파주청년회의소","tel":"031-945-2930","addr":"경기도 파주시 금촌동 42-1번지 4층","indutype":"용역 서비스 - 사무서비스","category":"other"}]},{"lat":"37.760315171","long":"126.77012822","imageIndex":17,"items":[{"name":"크린토피아파주지사","tel":"031-949-1990","addr":"경기도 파주시 금촌동 936-2번지","indutype":"수리서비스 - 세탁소","category":"other"}]},{"lat":"37.763116694","long":"126.77451139","imageIndex":17,"items":[{"name":"태양신발","tel":"031-941-8812","addr":"경기도 파주시 금촌동 62-2번지","indutype":"신변잡화 - 신발","category":"other"}]},{"lat":"37.75679542","long":"126.78101039","imageIndex":17,"items":[{"name":"태양포장","tel":"031-944-3600","addr":"경기도 파주시 금촌동 781-2번지 동현아파트","indutype":"회원제형태 - 기타4","category":"other"}]},{"lat":"37.755343372","long":"126.77548848","imageIndex":17,"items":[{"name":"태영","tel":"031-957-3700","addr":"경기도 파주시 금촌동 789-10번지","indutype":"의류 - 맞춤복점","category":"other"}]},{"lat":"37.762509883","long":"126.77287906","imageIndex":17,"items":[{"name":"태화신발","tel":"031-948-4278","addr":"경기도 파주시 금촌동 320-2번지","indutype":"신변잡화 - 신발","category":"other"}]},{"lat":"37.762482677","long":"126.77278835","imageIndex":17,"items":[{"name":"통일상회","tel":"031-941-0430","addr":"경기도 파주시 금촌동 318번지","indutype":"의류 - 정장","category":"other"}]},{"lat":"37.766564867","long":"126.77324102","imageIndex":17,"items":[{"name":"통일편의점","tel":"031-947-5525","addr":"경기도 파주시 금촌동 369-37번지","indutype":"유통업 영리 - 편 의 점","category":"other"}]},{"lat":"37.763314418","long":"126.77426111","imageIndex":17,"items":[{"name":"파비안느","tel":"031-946-6066","addr":"경기도 파주시 금촌동 60-4번지","indutype":"의류 - 정장","category":"other"}]},{"lat":"37.763142379","long":"126.77381904","imageIndex":17,"items":[{"name":"파월라","tel":"031-948-2329","addr":"경기도 파주시 금촌동 60-20번지","indutype":"의류 - 정장","category":"other"}]},{"lat":"37.76575867","long":"126.77101909","imageIndex":17,"items":[{"name":"파주 낭만기타","tel":"","addr":"경기도 파주시 금촌동 370-1번지","indutype":"용역 서비스 - 사무서비스","category":"other"}]},{"lat":"37.762533601","long":"126.77581828","imageIndex":17,"items":[{"name":"파주강아지","tel":"031-941-4123","addr":"경기도 파주시 금촌동 56-53번지","indutype":"문화.취미 - 애완동물","category":"other"},{"name":"파주강아지","tel":"031-941-4123","addr":"경기도 파주시 금촌동 56-53번지","indutype":"문화.취미 - 애완동물","category":"other"}]},{"lat":"37.748998856","long":"126.76994808","imageIndex":17,"items":[{"name":"파주고양대리점","tel":"031-000-0000","addr":"경기도 파주시 금촌동 1019번지 서원마을뜨란채","indutype":"유통업 영리 - 기타유통업","category":"other"}]},{"lat":"37.759421686","long":"126.76934799","imageIndex":17,"items":[{"name":"파주고양에어컨","tel":"","addr":"경기도 파주시 금촌동 934-10번지","indutype":"용역 서비스 - 기타용역서비스","category":"other"}]},{"lat":"37.759176606","long":"126.76842957","imageIndex":17,"items":[{"name":"파주광고재료","tel":"031-945-0995","addr":"경기도 파주시 금촌동 284-2번지","indutype":"용역 서비스 - 종합용역","category":"other"}]},{"lat":"37.763786448","long":"126.7714565","imageIndex":17,"items":[{"name":"파주바이크","tel":"031-944-9999","addr":"경기도 파주시 금촌동 329-313번지","indutype":"수리서비스 - 레져용품수리","category":"other"}]},{"lat":"37.75620494","long":"126.773761","imageIndex":17,"items":[{"name":"파주시보건소","tel":"031-940-4800","addr":"경기도 파주시 금촌동 953-1번지","indutype":"기타의료기관 - 기타의료기관 및 기타","category":"other"}]},{"lat":"37.763204474","long":"126.77331951","imageIndex":17,"items":[{"name":"파주시서점소상공인협동조합","tel":"031-942-5111","addr":"경기도 파주시 금촌동 323-1번지","indutype":"서적문구 - 일반서적","category":"other"},{"name":"현대서점","tel":"031-941-1351","addr":"경기도 파주시 금촌동 323-1번지","indutype":"서적문구 - 일반서적","category":"other"},{"name":"현대서점 - 문화비","tel":"031-941-1351","addr":"경기도 파주시 금촌동 323-1번지","indutype":"서적문구 - 일반서적","category":"other"}]},{"lat":"37.759561437","long":"126.77168528","imageIndex":17,"items":[{"name":"파주아쿠아","tel":"031-944-7702","addr":"경기도 파주시 금촌동 938-2번지","indutype":"문화.취미 - 수족관","category":"other"}]},{"lat":"37.768893509","long":"126.7754016","imageIndex":17,"items":[{"name":"파주에어컨","tel":"031-941-2889","addr":"경기도 파주시 금촌동 19-8번지 현대빌라트","indutype":"용역 서비스 - 기타용역서비스","category":"other"}]},{"lat":"37.755117105","long":"126.77495584","imageIndex":17,"items":[{"name":"파주열쇠","tel":"031-957-1616","addr":"경기도 파주시 금촌동 802-5번지","indutype":"기타 - 기계공구","category":"other"}]},{"lat":"37.754927424","long":"126.77009971","imageIndex":17,"items":[{"name":"파주탭댄스스튜디오","tel":"070-8119-0542","addr":"경기도 파주시 금촌동 231-2번지 지하상가","indutype":"문화.취미 - 티켓","category":"other"}]},{"lat":"37.75682035","long":"126.76604263","imageIndex":17,"items":[{"name":"판다언니","tel":"","addr":"경기도 파주시 금촌동 972번지 새꽃마을뜨란채","indutype":"의류 - 정장","category":"other"}]},{"lat":"37.763892211","long":"126.77487217","imageIndex":17,"items":[{"name":"패션 아울렛","tel":"","addr":"경기도 파주시 금촌동 46-8번지","indutype":"의류 - 정장","category":"other"}]},{"lat":"37.764085118","long":"126.77214785","imageIndex":17,"items":[{"name":"포그미 디자인 홈 하우스","tel":"031-948-8757","addr":"경기도 파주시 금촌동 329-322번지","indutype":"직물 - 침구·수예점","category":"other"},{"name":"포그미이불","tel":"031-948-8757","addr":"경기도 파주시 금촌동 329-322번지","indutype":"직물 - 침구·수예점","category":"other"}]},{"lat":"37.760309793","long":"126.77661945","imageIndex":17,"items":[{"name":"풍경","tel":"031-943-4749","addr":"경기도 파주시 금촌동 767-5번지","indutype":"의류 - 정장","category":"other"}]},{"lat":"37.765867966","long":"126.77162025","imageIndex":17,"items":[{"name":"프로농기계","tel":"031-944-0870","addr":"경기도 파주시 금촌동 369-36번지","indutype":"농업 - 농기계","category":"other"}]},{"lat":"37.762510038","long":"126.7729585","imageIndex":17,"items":[{"name":"프리덤엔터테인먼트","tel":"031-945-3939","addr":"경기도 파주시 금촌동 320-232번지 2층","indutype":"용역 서비스 - 종합용역","category":"other"}]},{"lat":"37.760399806","long":"126.77193233","imageIndex":17,"items":[{"name":"플라워수향","tel":"031-949-4410","addr":"경기도 파주시 금촌동 296번지","indutype":"문화.취미 - 화원","category":"other"}]},{"lat":"37.770782444","long":"126.76923282","imageIndex":17,"items":[{"name":"플러스 인테리어","tel":"031-8071-0442","addr":"경기도 파주시 금촌동 410-4번지","indutype":"건축자재 - 인테리어전문","category":"other"}]},{"lat":"37.770226819","long":"126.77073274","imageIndex":17,"items":[{"name":"피부 앤드 다이어트","tel":"070-7643-7523","addr":"경기도 파주시 금촌동 1015번지 대방노블랜드아파트","indutype":"회원제형태 - 기타4","category":"other"}]},{"lat":"37.755399199","long":"126.77640746","imageIndex":17,"items":[{"name":"필립조명","tel":"031-941-8680","addr":"경기도 파주시 금촌동 790-2번지","indutype":"기타 - 기타 전문점","category":"other"}]},{"lat":"37.756725167","long":"126.77256788","imageIndex":17,"items":[{"name":"핑크펫샵","tel":"031-943-0807","addr":"경기도 파주시 금촌동 957-2번지","indutype":"문화.취미 - 애완동물","category":"other"}]},{"lat":"37.75650769","long":"126.7765743","imageIndex":17,"items":[{"name":"하나가전","tel":"031-946-8273","addr":"경기도 파주시 금촌동 774-10번지","indutype":"전기제품 - 가전제품","category":"other"}]},{"lat":"37.759669929","long":"126.77187786","imageIndex":17,"items":[{"name":"하나광고산업","tel":"031-949-5127","addr":"경기도 파주시 금촌동 938-8번지","indutype":"건축자재 - 인테리어전문","category":"other"}]},{"lat":"37.763560963","long":"126.77596267","imageIndex":17,"items":[{"name":"하늘문열린교회","tel":"031-949-9144","addr":"경기도 파주시 금촌동 52-36번지","indutype":"기타 - 비영리/대상","category":"other"}]},{"lat":"37.759813746","long":"126.77170719","imageIndex":17,"items":[{"name":"하늘창꼬 인테리어","tel":"031-957-4002","addr":"경기도 파주시 금촌동 937-37번지","indutype":"건축자재 - 인테리어전문","category":"other"}]},{"lat":"37.770727364","long":"126.77329625","imageIndex":17,"items":[{"name":"하림출판사","tel":"031-944-7932","addr":"경기도 파주시 금촌동 424-6번지","indutype":"서적문구 - 출판 및 인쇄물","category":"other"}]},{"lat":"37.763700149","long":"126.77339742","imageIndex":17,"items":[{"name":"하이소스","tel":"031-944-5950","addr":"경기도 파주시 금촌동 325-26번지","indutype":"신변잡화 - 기타잡화","category":"other"}]},{"lat":"37.756207615","long":"126.76599919","imageIndex":17,"items":[{"name":"하현유통","tel":"031-941-0826","addr":"경기도 파주시 금촌동 972번지 새꽃마을뜨란채","indutype":"유통업 영리 - 기타유통업","category":"other"}]},{"lat":"37.765007777","long":"126.77404027","imageIndex":17,"items":[{"name":"한국샷시","tel":"031-946-0862","addr":"경기도 파주시 금촌동 329-8","indutype":"건축자재 - 목재·석재·철물","category":"other"},{"name":"한진공조닥트","tel":"031-947-5704","addr":"경기도 파주시 금촌동 329-8","indutype":"건축자재 - 기타건축자재","category":"other"}]},{"lat":"37.758703968","long":"126.77551224","imageIndex":17,"items":[{"name":"한국열쇠","tel":"031-945-6040","addr":"경기도 파주시 금촌동 765-23번지","indutype":"건축자재 - 목재·석재·철물","category":"other"}]},{"lat":"37.753009459","long":"126.77063903","imageIndex":17,"items":[{"name":"한국웰라이프","tel":"","addr":"경기도 파주시 금촌동 992번지 후곡마을뜨란채","indutype":"신변잡화 - 기타잡화","category":"other"}]},{"lat":"37.762926724","long":"126.76951855","imageIndex":17,"items":[{"name":"한국종합주방","tel":"031-941-2411","addr":"경기도 파주시 금촌동 928-1번지 1층","indutype":"주방용구 - 주방용구","category":"other"}]},{"lat":"37.759006641","long":"126.77362753","imageIndex":17,"items":[{"name":"한마음체육사","tel":"031-944-3533","addr":"경기도 파주시 금촌동 947-1번지","indutype":"레져용품 - 스포츠·레져용품","category":"other"}]},{"lat":"37.75564341","long":"126.7722535","imageIndex":17,"items":[{"name":"한사랑유통","tel":"0503-415-0058","addr":"경기도 파주시 금촌동 234-17번지 두보아파트 101동 305호","indutype":"유통업 영리 - 기타유통업","category":"other"}]},{"lat":"37.759283122","long":"126.77218546","imageIndex":17,"items":[{"name":"한샘키친파주대리점","tel":"031-948-1387","addr":"경기도 파주시 금촌동 938-11번지","indutype":"가구 - 일반가구","category":"other"}]},{"lat":"37.757233757","long":"126.77004709","imageIndex":17,"items":[{"name":"한성종합세탁수리","tel":"031-948-8373","addr":"경기도 파주시 금촌동 960-10번지","indutype":"수리서비스 - 세탁소","category":"other"}]},{"lat":"37.758841436","long":"126.77207335","imageIndex":17,"items":[{"name":"한수전기통신공사","tel":"031-938-5842","addr":"경기도 파주시 금촌동 938-20번지","indutype":"기타 - 기계공구","category":"other"}]},{"lat":"37.751869457","long":"126.76821434","imageIndex":17,"items":[{"name":"한양문고","tel":"031-942-5111","addr":"경기도 파주시 금촌동 988-6번지","indutype":"서적문구 - 일반서적","category":"other"}]},{"lat":"37.758366095","long":"126.77785096","imageIndex":17,"items":[{"name":"한양철물건재","tel":"","addr":"경기도 파주시 금촌동 770-11번지","indutype":"건축자재 - 목재·석재·철물","category":"other"}]},{"lat":"37.756031171","long":"126.78184105","imageIndex":17,"items":[{"name":"합주얼리","tel":"","addr":"경기도 파주시 금촌동 795-8번지 수아트빌","indutype":"신변잡화 - 액세서리","category":"other"}]},{"lat":"37.760035987","long":"126.77479322","imageIndex":17,"items":[{"name":"행복한사치","tel":"031-946-2947","addr":"경기도 파주시 금촌동 72-6번지 1층 102호","indutype":"의류 - 정장","category":"other"}]},{"lat":"37.756286055","long":"126.77845869","imageIndex":17,"items":[{"name":"허브사랑","tel":"031-941-2046","addr":"경기도 파주시 금촌동 784-7번지","indutype":"문화.취미 - 화원","category":"other"}]},{"lat":"37.760146837","long":"126.77621141","imageIndex":17,"items":[{"name":"헬로우 율스","tel":"031-943-7997","addr":"경기도 파주시 금촌동 767-2번지","indutype":"의류 - 정장","category":"other"}]},{"lat":"37.76597829","long":"126.76818111","imageIndex":17,"items":[{"name":"현대기계","tel":"031-949-1968","addr":"경기도 파주시 금촌동 374-11","indutype":"기타 - 기계공구","category":"other"}]},{"lat":"37.759033176","long":"126.76879316","imageIndex":17,"items":[{"name":"현대지물인테리어","tel":"031-948-0094","addr":"경기도 파주시 금촌동 933-10번지","indutype":"직물 - 카페트,커튼,천막,지물","category":"other"}]},{"lat":"37.75789582","long":"126.77226921","imageIndex":17,"items":[{"name":"현대측량설계사무소","tel":"031-945-4649","addr":"경기도 파주시 금촌동 945-33번지","indutype":"용역 서비스 - 사무서비스","category":"other"}]},{"lat":"37.763038173","long":"126.77120916","imageIndex":17,"items":[{"name":"현대타일상사","tel":"031-943-0220","addr":"경기도 파주시 금촌동 332-3번지","indutype":"건축자재 - 건축용 요업제품","category":"other"}]},{"lat":"37.758502429","long":"126.76920336","imageIndex":17,"items":[{"name":"현대휀스","tel":"031-945-0448","addr":"경기도 파주시 금촌동 942-14번지","indutype":"용역 서비스 - 기타용역서비스","category":"other"}]},{"lat":"37.760703214","long":"126.77506353","imageIndex":17,"items":[{"name":"협진상회","tel":"031-594-1717","addr":"경기도 파주시 금촌동 71-9번지 장안아파트","indutype":"직물 - 침구·수예점","category":"other"},{"name":"형제라사","tel":"031-941-3371","addr":"경기도 파주시 금촌동 71-9번지 장안아파트","indutype":"의류 - 맞춤복점","category":"other"}]},{"lat":"37.754786564","long":"126.78115256","imageIndex":17,"items":[{"name":"형제무선사","tel":"031-942-4101","addr":"경기도 파주시 금촌동 797-2번지","indutype":"전기제품 - 기타전기제품","category":"other"}]},{"lat":"37.763343244","long":"126.77057268","imageIndex":17,"items":[{"name":"형제오토바이","tel":"031-941-6495","addr":"경기도 파주시 금촌동 334-203번지","indutype":"수리서비스 - 레져용품수리","category":"other"}]},{"lat":"37.750881679","long":"126.76986275","imageIndex":17,"items":[{"name":"혜인교육","tel":"031-6407-9962","addr":"경기도 파주시 금촌동 1022번지 후곡마을주공아파트","indutype":"회원제형태 - 서적","category":"other"}]},{"lat":"37.7642822","long":"126.77621014","imageIndex":17,"items":[{"name":"호국마크사","tel":"031-942-6160","addr":"경기도 파주시 금촌동 51-2번지","indutype":"서적문구 - 문구용품","category":"other"}]},{"lat":"37.763506397","long":"126.77107151","imageIndex":17,"items":[{"name":"호동설비","tel":"031-944-0176","addr":"경기도 파주시 금촌동 329-154번지","indutype":"용역 서비스 - 기타용역서비스","category":"other"}]},{"lat":"37.759726308","long":"126.77773336","imageIndex":17,"items":[{"name":"홍익종합개발","tel":"031-958-7771","addr":"경기도 파주시 금촌동 768-16번지","indutype":"용역 서비스 - 종합용역","category":"other"}]},{"lat":"37.759422751","long":"126.7744887","imageIndex":17,"items":[{"name":"화이트뷰티샵","tel":"031-8071-3005","addr":"경기도 파주시 금촌동 947-23번지","indutype":"회원제형태 - 기타4","category":"other"}]},{"lat":"37.753763992","long":"126.77408625","imageIndex":17,"items":[{"name":"화훼판매","tel":"031-939-9615","addr":"경기도 파주시 금촌동 1003번지 쇠재마을뜨란채","indutype":"회원제형태 - 기타4","category":"other"}]},{"lat":"37.759449999","long":"126.7746021","imageIndex":17,"items":[{"name":"휴대폰가게","tel":"031-944-1109","addr":"경기도 파주시 금촌동 947-24번지","indutype":"사무통신 - 통신기기","category":"other"}]},{"lat":"37.758562175","long":"126.77673826","imageIndex":17,"items":[{"name":"힐링스킨케어","tel":"031-944-3782","addr":"경기도 파주시 금촌동 772-9번지","indutype":"회원제형태 - 기타4","category":"other"}]}]