[{"lat":"37.323091248","long":"126.8446599","imageIndex":7,"items":[{"name":"JOY 365","tel":"031-487-7553","addr":"경기도 안산시 상록구 성포동 583-4번지 연번지 107호","indutype":"유통업 영리 - 슈퍼마켓","category":"mart"},{"name":"경기남부두레생협 성포점","tel":"031-413-0038","addr":"경기도 안산시 상록구 성포동 583-4번지 1층 108-3호","indutype":"유통업 영리 - 슈퍼마켓","category":"mart"}]},{"lat":"37.3230912478","long":"126.8446599044","imageIndex":7,"items":[{"name":"경기남부두레소비자생활협동조합(성포점)","tel":"031-413-0038","addr":"경기도 안산시 상록구 성포동 583-4번지","indutype":"도매 및 소매업 - 슈퍼","category":"mart"}]},{"lat":"37.320064041","long":"126.8448242","imageIndex":7,"items":[{"name":"고층슈퍼","tel":"031-482-5111","addr":"경기도 안산시 상록구 성포동 588-2번지 주공 상가 105호","indutype":"유통업 영리 - 슈퍼마켓","category":"mart"}]},{"lat":"37.320783661","long":"126.84393142","imageIndex":7,"items":[{"name":"롯데마켓999안산성포가맹점","tel":"031-405-6199","addr":"경기도 안산시 상록구 성포동 583-5번지 예술프라자 114호","indutype":"유통업 영리 - 슈퍼마켓","category":"mart"}]},{"lat":"37.3246414488","long":"126.8449951281","imageIndex":7,"items":[{"name":"세미슈퍼","tel":"031-403-4502","addr":"경기도 안산시 상록구 성포동 592-2번지 안산현대1차아파트","indutype":"도매 및 소매업 - 슈퍼,담배","category":"mart"}]},{"lat":"37.324641449","long":"126.84499513","imageIndex":7,"items":[{"name":"세미슈퍼","tel":"031-403-4502","addr":"경기도 안산시 상록구 성포동 592-2번지 현대상가 111호","indutype":"유통업 영리 - 슈퍼마켓","category":"mart"}]},{"lat":"37.3217295929","long":"126.8438278893","imageIndex":7,"items":[{"name":"스타마트","tel":"031-405-7496","addr":"경기도 안산시 상록구 성포동 583번지","indutype":"도매 및 소매업 - 슈퍼마켓","category":"mart"}]},{"lat":"37.325391836","long":"126.8469116","imageIndex":7,"items":[{"name":"한아름슈퍼","tel":"031-486-1034","addr":"경기도 안산시 상록구 성포동 591번지 주공복합 101호","indutype":"유통업 영리 - 슈퍼마켓","category":"mart"}]},{"lat":"37.324529652","long":"126.84904576","imageIndex":7,"items":[{"name":"후레쉬마트","tel":"031-411-4907","addr":"경기도 안산시 상록구 성포동 591-3번지 정수빌딩 1동 104호","indutype":"유통업 영리 - 슈퍼마켓","category":"mart"}]},{"lat":"37.3245296518","long":"126.8490457589","imageIndex":7,"items":[{"name":"후레쉬마트","tel":"031-411-4907","addr":"경기도 안산시 상록구 성포동 591-3번지","indutype":"도매 및 소매업 - 슈퍼마켓,담배","category":"mart"}]}]