[{"lat":"36.964413629","long":"127.05887027","imageIndex":16,"items":[{"name":"고은빛음악학원","tel":"070-5044-5219","addr":"경기도 평택시 팽성읍 객사리 136-5번지 2층","indutype":"학원 - 예·체능계학원","category":"study"}]},{"lat":"36.965635717","long":"127.06561996","imageIndex":16,"items":[{"name":"나래아트앤빈(Fruits Palette)","tel":"","addr":"경기도 평택시 팽성읍 객사리 82-11번지 윈저시티빌 107호","indutype":"학원 - 기타 교육기관","category":"study"}]},{"lat":"36.964278856","long":"127.05803922","imageIndex":16,"items":[{"name":"박건영태권도아카데미","tel":"070-4257-9582","addr":"경기도 평택시 팽성읍 객사리 144-5번지","indutype":"학원 - 예·체능계학원","category":"study"},{"name":"성지학원","tel":"031-691-1462","addr":"경기도 평택시 팽성읍 객사리 144-5번지 3층","indutype":"학원 - 보습학원","category":"study"}]},{"lat":"36.965467706","long":"127.05925284","imageIndex":16,"items":[{"name":"부용초등학교","tel":"031-691-5945","addr":"경기도 평택시 팽성읍 객사리 160-1번지","indutype":"학원 - 초중고교육기관","category":"study"},{"name":"부용초등학교병설유치원[아이행복]","tel":"031-692-1380","addr":"경기도 평택시 팽성읍 객사리 160-1번지","indutype":"학원 - 유치원","category":"study"}]},{"lat":"36.965409976","long":"127.06650689","imageIndex":16,"items":[{"name":"자비동산어린이집[아이행복]","tel":"031-691-9016","addr":"경기도 평택시 팽성읍 객사리 75번지","indutype":"학원 - 유아원","category":"study"}]},{"lat":"36.965861134","long":"127.06533941","imageIndex":16,"items":[{"name":"팽성유치원[아이행복]","tel":"031-653-2663","addr":"경기도 평택시 팽성읍 객사리 83-3","indutype":"학원 - 유치원","category":"study"}]},{"lat":"36.964358873","long":"127.06031879","imageIndex":16,"items":[{"name":"팽성참좋은보습학원","tel":"031-691-1966","addr":"경기도 평택시 팽성읍 객사리 126-3번지 안트빌딩","indutype":"학원 - 보습학원","category":"study"}]},{"lat":"36.966772139","long":"127.06356591","imageIndex":16,"items":[{"name":"하늘사랑어린이집[아이행복]","tel":"031-654-2055","addr":"경기도 평택시 팽성읍 객사리 39-2번지","indutype":"학원 - 유아원","category":"study"}]},{"lat":"36.965278777","long":"127.05862386","imageIndex":16,"items":[{"name":"한울 태권도","tel":"031-618-2158","addr":"경기도 평택시 팽성읍 객사리 160-5번지","indutype":"학원 - 예·체능계학원","category":"study"}]}]