[{"lat":"37.3128406","long":"126.82757986","imageIndex":0,"items":[{"name":"(주) 제일개발","tel":"031-485-0195","addr":"경기도 안산시 단원구 고잔동 704-4번지 대원빌딩 305호","indutype":"자동차정비 유지 - 주차장","category":"car"},{"name":"(주)제일개발","tel":"031-485-0195","addr":"경기도 안산시 단원구 고잔동 704-4번지 대원빌딩 305호","indutype":"자동차정비 유지 - 주차장","category":"car"}]},{"lat":"37.317508737","long":"126.82815565","imageIndex":0,"items":[{"name":"(주)금강주택관리","tel":"031-405-4330","addr":"경기도 안산시 단원구 고잔동 526-4번지 201호, 205호","indutype":"자동차정비 유지 - 주차장","category":"car"},{"name":"월드타운주차장","tel":"031-405-4338","addr":"경기도 안산시 단원구 고잔동 526-4번지 201,205호","indutype":"자동차정비 유지 - 주차장","category":"car"}]},{"lat":"37.312725879","long":"126.82921582","imageIndex":0,"items":[{"name":"(주)비와이씨 안산사무소","tel":"031-4822-8512","addr":"경기도 안산시 단원구 고잔동 706-5번지 BYC빌딩","indutype":"자동차정비 유지 - 주차장","category":"car"}]},{"lat":"37.318974116","long":"126.83207826","imageIndex":0,"items":[{"name":"(주)선경엔씨에스렌트카","tel":"02-2683-5522","addr":"경기도 안산시 단원구 고잔동 529-1번지 에이스타워 503호","indutype":"자동차정비 유지 - 주차장","category":"car"},{"name":"(주)선경엔씨에스렌트카","tel":"02-2683-5522","addr":"경기도 안산시 단원구 고잔동 529-1번지 에이스타워 503호","indutype":"자동차정비 유지 - 주차장","category":"car"},{"name":"(주)선경엔씨에스렌트카","tel":"031-487-0001","addr":"경기도 안산시 단원구 고잔동 529-1번지 에이스타워 503호","indutype":"자동차정비 유지 - 주차장","category":"car"},{"name":"(주)선경엔씨에스렌트카_장릉공영주차장","tel":"031-487-0001","addr":"경기도 안산시 단원구 고잔동 529-1번지 에이스타워 503호","indutype":"자동차정비 유지 - 주차장","category":"car"},{"name":"레이버(labor)","tel":"031-414-9003","addr":"경기도 안산시 단원구 고잔동 529-1번지 에이스타워 805호","indutype":"자동차정비 유지 - 자동차부품","category":"car"}]},{"lat":"37.31417509","long":"126.82824233","imageIndex":0,"items":[{"name":"(주)지디주차타워 월드점","tel":"031-487-3030","addr":"경기도 안산시 단원구 고잔동 705-11번지 월드타워 301동 1001호","indutype":"자동차정비 유지 - 주차장","category":"car"}]},{"lat":"37.314147561","long":"126.82191382","imageIndex":0,"items":[{"name":"(주)토탈앨엔씨(TNT모터스)","tel":"031-413-6400","addr":"경기도 안산시 단원구 고잔동 692-4번지","indutype":"자동차정비 유지 - 자동차정비","category":"car"},{"name":"명성모터스","tel":"031-481-9305","addr":"경기도 안산시 단원구 고잔동 692-4번지 1층","indutype":"자동차정비 유지 - 자동차정비","category":"car"},{"name":"오일클릭","tel":"031-482-5144","addr":"경기도 안산시 단원구 고잔동 692-4번지 201호","indutype":"자동차정비 유지 - 윤활유 전문 판매","category":"car"}]},{"lat":"37.327559028","long":"126.81885784","imageIndex":0,"items":[{"name":"DM자동차광택외형복원점","tel":"031-487-9688","addr":"경기도 안산시 단원구 고잔동 659-7,103호105호전체","indutype":"자동차정비 유지 - 가타자동차서비스","category":"car"}]},{"lat":"37.330724093","long":"126.83893451","imageIndex":0,"items":[{"name":"HD모터스","tel":"031-494-7865","addr":"경기도 안산시 단원구 고잔동 643-1번지 1층 101호","indutype":"자동차판매 - 이륜차판매","category":"car"}]},{"lat":"37.313836671","long":"126.82485886","imageIndex":0,"items":[{"name":"PLUS카","tel":"031-405-6007","addr":"경기도 안산시 단원구 고잔동 685-6번지","indutype":"자동차정비 유지 - 자동차정비","category":"car"}]},{"lat":"37.318226922","long":"126.82638279","imageIndex":0,"items":[{"name":"SK네트웍스(주)고잔주유소","tel":"031-483-4144","addr":"경기도 안산시 단원구 고잔동 519-2번지","indutype":"자동차정비 유지 - 자동차정비","category":"car"},{"name":"스피드메이트 고잔","tel":"031-483-4144","addr":"경기도 안산시 단원구 고잔동 519-2번지","indutype":"자동차정비 유지 - 자동차정비","category":"car"},{"name":"스피드메이트고잔점","tel":"031-483-4144","addr":"경기도 안산시 단원구 고잔동 519-2번지","indutype":"자동차정비 유지 - 자동차정비","category":"car"}]},{"lat":"37.30808974","long":"126.83204648","imageIndex":0,"items":[{"name":"경서하우톤","tel":"031-475-5611","addr":"경기도 안산시 단원구 고잔동 775-3번지 로진프라자 407호","indutype":"자동차정비 유지 - 윤활유 전문 판매","category":"car"}]},{"lat":"37.308759255","long":"126.82776981","imageIndex":0,"items":[{"name":"고박사자동차병원부분정비공업사","tel":"031-401-6460","addr":"경기도 안산시 단원구 고잔동 716-6 MK타워 115호~118호","indutype":"자동차정비 유지 - 자동차정비","category":"car"},{"name":"부성자동차용품","tel":"031-409-5300","addr":"경기도 안산시 단원구 고잔동 716-6번지 MK타워, 1층119호","indutype":"자동차정비 유지 - 자동차부품","category":"car"},{"name":"주식회사하이파킹 (안산MK)","tel":"02-2648-8292","addr":"경기도 안산시 단원구 고잔동 716-6번지 MK타워","indutype":"자동차정비 유지 - 주차장","category":"car"}]},{"lat":"37.313532719","long":"126.83260949","imageIndex":0,"items":[{"name":"고잔 자동차 정비","tel":"031-437-8585","addr":"경기도 안산시 단원구 고잔동 727-1번지 제일프라자 102, 103호","indutype":"자동차정비 유지 - 자동차시트·타이어","category":"car"},{"name":"고잔점기아오토큐","tel":"031-437-8585","addr":"경기도 안산시 단원구 고잔동 727-1번지 (주)제일프라자 102호 103","indutype":"자동차정비 유지 - 자동차정비","category":"car"}]},{"lat":"37.312508881","long":"126.8414107","imageIndex":0,"items":[{"name":"고잔세차장","tel":"031-486-5252","addr":"경기도 안산시 단원구 고잔동 764-1번지","indutype":"자동차정비 유지 - 세차장","category":"car"}]},{"lat":"37.313480722","long":"126.82185901","imageIndex":0,"items":[{"name":"고잔중부점현대자동차","tel":"031-439-6777","addr":"경기도 안산시 단원구 고잔동 693-2번지","indutype":"자동차정비 유지 - 자동차정비","category":"car"}]},{"lat":"37.314453941","long":"126.82193564","imageIndex":0,"items":[{"name":"고잔하이테크샵","tel":"031-475-2291","addr":"경기도 안산시 단원구 고잔동 692-2번지","indutype":"자동차정비 유지 - 자동차정비","category":"car"}]},{"lat":"37.314647895","long":"126.83116301","imageIndex":0,"items":[{"name":"골든빌주차관리","tel":"031-486-4249","addr":"경기도 안산시 단원구 고잔동 724번지 골든빌 1층 주차장내","indutype":"자동차정비 유지 - 주차장","category":"car"}]},{"lat":"37.317921048","long":"126.83285906","imageIndex":0,"items":[{"name":"광복회안산지회","tel":"031-402-2508","addr":"경기도 안산시 단원구 고잔동 530-3번지 진양빌딩 B동 306호","indutype":"자동차정비 유지 - 주차장","category":"car"},{"name":"신흥밧데리","tel":"031-480-4350","addr":"경기도 안산시 단원구 고잔동 530-3번지 진양빌딩 1동 117호","indutype":"자동차정비 유지 - 자동차정비","category":"car"}]},{"lat":"37.31209136","long":"126.83918932","imageIndex":0,"items":[{"name":"광주오토바이","tel":"031-494-0372","addr":"경기도 안산시 단원구 고잔동 760번지 103호","indutype":"자동차판매 - 이륜차판매","category":"car"}]},{"lat":"37.316843884","long":"126.84221368","imageIndex":0,"items":[{"name":"금호","tel":"031-401-2000","addr":"경기도 안산시 단원구 고잔동 542-3번지 대원빌딩 308호","indutype":"자동차정비 유지 - 카인테리어","category":"car"},{"name":"주식회사고잔점현대자동차","tel":"031-484-8572","addr":"경기도 안산시 단원구 고잔동 542-3번지 대원빌딩 103호","indutype":"자동차정비 유지 - 자동차정비","category":"car"},{"name":"충남오토바이","tel":"031-439-6898","addr":"경기도 안산시 단원구 고잔동 542-3번지 대주빌딩 1층 116호","indutype":"자동차판매 - 이륜차판매","category":"car"}]},{"lat":"37.313752394","long":"126.841487","imageIndex":0,"items":[{"name":"금호상사","tel":"031-414-6680","addr":"경기도 안산시 단원구 고잔동 749-4번지 아이에스 102동 103호","indutype":"자동차정비 유지 - 자동차시트·타이어","category":"car"}]},{"lat":"37.314616176","long":"126.8219691","imageIndex":0,"items":[{"name":"꼼지락 카케어","tel":"031-439-0113","addr":"경기도 안산시 단원구 고잔동 692-1번지 1층","indutype":"자동차정비 유지 - 카인테리어","category":"car"}]},{"lat":"37.314391559","long":"126.82238703","imageIndex":0,"items":[{"name":"대경파츠","tel":"031-482-5171","addr":"경기도 안산시 단원구 고잔동 691-2번지","indutype":"자동차정비 유지 - 자동차부품","category":"car"}]},{"lat":"37.3233897205","long":"126.8204136803","imageIndex":0,"items":[{"name":"대일기아","tel":"031-494-4301","addr":"경기도 안산시 단원구 고잔동 664-1번지 효진빌라","indutype":"도매 및 소매업 - 자동차부품","category":"car"}]},{"lat":"37.317367422","long":"126.83638009","imageIndex":0,"items":[{"name":"대현실업","tel":"031-411-2426","addr":"경기도 안산시 단원구 고잔동 537-4번지 롯데프라자","indutype":"자동차정비 유지 - 주차장","category":"car"}]},{"lat":"37.31309462","long":"126.84146585","imageIndex":0,"items":[{"name":"더 방카","tel":"031-414-2669","addr":"경기도 안산시 단원구 고잔동 750-3번지 1층","indutype":"자동차정비 유지 - 자동차부품","category":"car"}]},{"lat":"37.327859574","long":"126.82689056","imageIndex":0,"items":[{"name":"도깨비 출장세차","tel":"","addr":"경기도 안산시 단원구 고잔동 606-3번지 광신7차빌라 가동 306호","indutype":"자동차정비 유지 - 세차장","category":"car"}]},{"lat":"37.313141714","long":"126.82408213","imageIndex":0,"items":[{"name":"동방라이텍","tel":"031-403-7159","addr":"경기도 안산시 단원구 고잔동 699-12,1층,2층","indutype":"자동차정비 유지 - 가타자동차서비스","category":"car"}]},{"lat":"37.317064651","long":"126.83894162","imageIndex":0,"items":[{"name":"동서코아주차관리 주식회사","tel":"031-484-6000","addr":"경기도 안산시 단원구 고잔동 541-1번지 동서코아 526호","indutype":"자동차정비 유지 - 주차장","category":"car"}]},{"lat":"37.317285459","long":"126.84226915","imageIndex":0,"items":[{"name":"동신카인테리어","tel":"031-401-6777","addr":"경기도 안산시 단원구 고잔동 542-2번지 우진빌딩 126호","indutype":"자동차정비 유지 - 자동차시트·타이어","category":"car"}]},{"lat":"37.318561649","long":"126.83988602","imageIndex":0,"items":[{"name":"동양카인테리어","tel":"031-484-1979","addr":"경기도 안산시 단원구 고잔동 539-6번지 유림빌딩","indutype":"자동차정비 유지 - 자동차시트·타이어","category":"car"}]},{"lat":"37.314035873","long":"126.83162691","imageIndex":0,"items":[{"name":"라테크(주)","tel":"031-487-4700","addr":"경기도 안산시 단원구 고잔동 726-11번지 삼성타운 404호","indutype":"자동차정비 유지 - 자동차부품","category":"car"}]},{"lat":"37.317923386","long":"126.83449487","imageIndex":0,"items":[{"name":"롯데쇼핑(주)안산점/주차장","tel":"031-412-1031","addr":"경기도 안산시 단원구 고잔동 536-2번지","indutype":"자동차정비 유지 - 주차장","category":"car"}]},{"lat":"37.314369244","long":"126.83796604","imageIndex":0,"items":[{"name":"마이카서비스","tel":"031-486-2533","addr":"경기도 안산시 단원구 고잔동 729-2,112호~113호","indutype":"자동차정비 유지 - 자동차정비","category":"car"}]},{"lat":"37.318140859","long":"126.84184991","imageIndex":0,"items":[{"name":"명품썬팅","tel":"031-407-0073","addr":"경기도 안산시 단원구 고잔동 539-10번지 중앙하이츠빌 418호","indutype":"자동차정비 유지 - 자동차부품","category":"car"}]},{"lat":"37.313836246","long":"126.82457684","imageIndex":0,"items":[{"name":"모터홀릭","tel":"070-8862-9262","addr":"경기도 안산시 단원구 고잔동 686-5번지","indutype":"자동차정비 유지 - 카인테리어","category":"car"}]},{"lat":"37.312899528","long":"126.82480467","imageIndex":0,"items":[{"name":"바이크스토리","tel":"031-483-1105","addr":"경기도 안산시 단원구 고잔동 700-7번지 1층 2호,3호","indutype":"자동차판매 - 이륜차판매","category":"car"}]},{"lat":"37.329507456","long":"126.83874534","imageIndex":0,"items":[{"name":"바이크포스","tel":"031-410-2153","addr":"경기도 안산시 단원구 고잔동 646-18번지 1층 101호","indutype":"자동차판매 - 이륜차판매","category":"car"}]},{"lat":"37.313585657","long":"126.83818208","imageIndex":0,"items":[{"name":"보헤미안 퍼포먼스 에스가드코리아","tel":"031-487-5880","addr":"경기도 안산시 단원구 고잔동 734-5번지 1층","indutype":"자동차정비 유지 - 자동차부품","category":"car"}]},{"lat":"37.314559879","long":"126.83260717","imageIndex":0,"items":[{"name":"부원프라자번영회","tel":"031-402-9977","addr":"경기도 안산시 단원구 고잔동 724-4번지 부원프라자 210호","indutype":"자동차정비 유지 - 주차장","category":"car"},{"name":"삼원주차시스템(주)","tel":"031-491-5240","addr":"경기도 안산시 단원구 고잔동 724-4번지 부원프라자 303호","indutype":"자동차정비 유지 - 주차장","category":"car"},{"name":"카포스안산","tel":"031-402-8600","addr":"경기도 안산시 단원구 고잔동 724-4번지 부원프라자 4층 406호","indutype":"자동차정비 유지 - 자동차부품","category":"car"},{"name":"카포스안산협동조합","tel":"031-402-8600","addr":"경기도 안산시 단원구 고잔동 724-4번지 부원프라자 406호","indutype":"자동차정비 유지 - 자동차부품","category":"car"}]},{"lat":"37.318201878","long":"126.84034934","imageIndex":0,"items":[{"name":"상아프라자관리소","tel":"031-402-4372","addr":"경기도 안산시 단원구 고잔동 539-14","indutype":"자동차정비 유지 - 주차장","category":"car"}]},{"lat":"37.313502515","long":"126.83671576","imageIndex":0,"items":[{"name":"쉐어나비","tel":"031-487-8494","addr":"경기도 안산시 단원구 고잔동 730-3번지","indutype":"자동차정비 유지 - 자동차부품","category":"car"}]},{"lat":"37.306865934","long":"126.83955032","imageIndex":0,"items":[{"name":"스피드메이트 안산공원점","tel":"","addr":"경기도 안산시 단원구 고잔동 779-1번지 공원주유소","indutype":"자동차정비 유지 - 자동차정비","category":"car"}]},{"lat":"37.317419794","long":"126.83518415","imageIndex":0,"items":[{"name":"신광시트카바","tel":"031-485-9977","addr":"경기도 안산시 단원구 고잔동 537-2번지 중앙상가 130호","indutype":"자동차정비 유지 - 자동차시트·타이어","category":"car"}]},{"lat":"37.31880792","long":"126.83557592","imageIndex":0,"items":[{"name":"신안산자동차정비","tel":"031-411-2525","addr":"경기도 안산시 단원구 고잔동 534번지 안유빌딩 1층","indutype":"자동차정비 유지 - 카인테리어","category":"car"}]},{"lat":"37.317870894","long":"126.83560056","imageIndex":0,"items":[{"name":"신양개발 (주)","tel":"031-480-7744","addr":"경기도 안산시 단원구 고잔동 535-1번지 신양복합빌딩","indutype":"자동차정비 유지 - 주차장","category":"car"}]},{"lat":"37.330563297","long":"126.83993908","imageIndex":0,"items":[{"name":"신흥상사","tel":"031-414-6815","addr":"경기도 안산시 단원구 고잔동 642-6번지 1층","indutype":"자동차정비 유지 - 자동차시트·타이어","category":"car"}]},{"lat":"37.313980672","long":"126.83715466","imageIndex":0,"items":[{"name":"써브카II","tel":"031-484-7333","addr":"경기도 안산시 단원구 고잔동 731-1번지","indutype":"자동차정비 유지 - 자동차정비","category":"car"},{"name":"알피엠모터스","tel":"031-410-6294","addr":"경기도 안산시 단원구 고잔동 731-1번지 1층","indutype":"자동차정비 유지 - 자동차정비","category":"car"},{"name":"하이테크카서비스","tel":"031-484-7333","addr":"경기도 안산시 단원구 고잔동 731-1번지","indutype":"자동차정비 유지 - 자동차정비","category":"car"}]},{"lat":"37.312978095","long":"126.82313494","imageIndex":0,"items":[{"name":"써브카센타","tel":"031-414-1900","addr":"경기도 안산시 단원구 고잔동 696-6번지 1층","indutype":"자동차정비 유지 - 자동차정비","category":"car"}]},{"lat":"37.314255374","long":"126.84032399","imageIndex":0,"items":[{"name":"아우토스토어","tel":"","addr":"경기도 안산시 단원구 고잔동 729-7번지 115,116호","indutype":"자동차정비 유지 - 자동차부품","category":"car"}]},{"lat":"37.314421902","long":"126.83696192","imageIndex":0,"items":[{"name":"안산과미래","tel":"031-405-8808","addr":"경기도 안산시 단원구 고잔동 729번지 밀레니엄프라자","indutype":"자동차정비 유지 - 주차장","category":"car"},{"name":"현대서비스","tel":"031-405-3883","addr":"경기도 안산시 단원구 고잔동 729번지 밀레니엄프라자","indutype":"자동차정비 유지 - 자동차부품","category":"car"}]},{"lat":"37.318704428","long":"126.82635911","imageIndex":0,"items":[{"name":"안산상공회의소","tel":"031-410-3030","addr":"경기도 안산시 단원구 고잔동 519-1번지","indutype":"자동차정비 유지 - 주차장","category":"car"}]},{"lat":"37.315978876","long":"126.82338726","imageIndex":0,"items":[{"name":"안산시9권역공영주차장","tel":"02-3465-3613","addr":"경기도 안산시 단원구 고잔동 679-1","indutype":"자동차정비 유지 - 주차장","category":"car"}]},{"lat":"37.328756851","long":"126.81851643","imageIndex":0,"items":[{"name":"안산자동차밧데리할인매장","tel":"031-405-8979","addr":"경기도 안산시 단원구 고잔동 650-11번지 101호","indutype":"자동차정비 유지 - 자동차부품","category":"car"}]},{"lat":"37.312337688","long":"126.84141106","imageIndex":0,"items":[{"name":"에너파워(enerpower)","tel":"031-481-9340","addr":"경기도 안산시 단원구 고잔동 764-2번지 덕암빌딩 4층","indutype":"자동차정비 유지 - 자동차부품","category":"car"},{"name":"티모터스(T-MOTORS)","tel":"031-414-0381","addr":"경기도 안산시 단원구 고잔동 764-2번지 덕암빌딩 1층","indutype":"자동차정비 유지 - 자동차정비","category":"car"}]},{"lat":"37.33111916","long":"126.83159943","imageIndex":0,"items":[{"name":"에스셀","tel":"031-401-1038","addr":"경기도 안산시 단원구 고잔동 618-16번지 4층 402호","indutype":"자동차정비 유지 - 자동차부품","category":"car"}]},{"lat":"37.3087855","long":"126.82723959","imageIndex":0,"items":[{"name":"에스엠(SM)모터스","tel":"031-402-0521","addr":"경기도 안산시 단원구 고잔동 715-3번지 양지주차빌딩 112호","indutype":"자동차정비 유지 - 세차장","category":"car"},{"name":"프로자동차공업사","tel":"031-482-2822","addr":"경기도 안산시 단원구 고잔동 715-3번지 양지주차빌딩 1층 101호","indutype":"자동차정비 유지 - 자동차정비","category":"car"}]},{"lat":"37.313786785","long":"126.82765663","imageIndex":0,"items":[{"name":"에이스타(A-STAR)","tel":"032-524-1245","addr":"경기도 안산시 단원구 고잔동 704-1번지 대우빌딩 104호","indutype":"자동차정비 유지 - 카인테리어","category":"car"},{"name":"주식회사 스마트종합관리","tel":"02-354-6606","addr":"경기도 안산시 단원구 고잔동 704-1번지 대우빌딩","indutype":"자동차정비 유지 - 주차장","category":"car"}]},{"lat":"37.307837455","long":"126.83204705","imageIndex":0,"items":[{"name":"에이원관광주식회사","tel":"031-411-1199","addr":"경기도 안산시 단원구 고잔동 775-4번지 대우프라자 602호","indutype":"자동차정비 유지 - 가타자동차서비스","category":"car"}]},{"lat":"37.311561388","long":"126.82774075","imageIndex":0,"items":[{"name":"에이제이파크주식회사","tel":"02-2007-7061","addr":"경기도 안산시 단원구 고잔동 707-3번지","indutype":"자동차정비 유지 - 주차장","category":"car"},{"name":"에이제이파크주식회사","tel":"02-6240-0153","addr":"경기도 안산시 단원구 고잔동 707-3번지","indutype":"자동차정비 유지 - 주차장","category":"car"},{"name":"에이제이파크주식회사","tel":"02-6240-0160","addr":"경기도 안산시 단원구 고잔동 707-3번지","indutype":"자동차정비 유지 - 주차장","category":"car"},{"name":"에이제이파크주식회사","tel":"02-6240-0168","addr":"경기도 안산시 단원구 고잔동 707-3번지","indutype":"자동차정비 유지 - 주차장","category":"car"},{"name":"에이제이파크주식회사","tel":"02-6240-0150","addr":"경기도 안산시 단원구 고잔동 707-3번지 대한법조","indutype":"자동차정비 유지 - 주차장","category":"car"}]},{"lat":"37.313143464","long":"126.82524404","imageIndex":0,"items":[{"name":"엠모터스","tel":"031-481-9211","addr":"경기도 안산시 단원구 고잔동 701-3번지 102호","indutype":"자동차정비 유지 - 자동차부품","category":"car"}]},{"lat":"37.308697831","long":"126.82888668","imageIndex":0,"items":[{"name":"엠카사운드","tel":"031-439-1377","addr":"경기도 안산시 단원구 고잔동 717-2.108호,111호","indutype":"자동차정비 유지 - 카인테리어","category":"car"}]},{"lat":"37.318698774","long":"126.83485415","imageIndex":0,"items":[{"name":"영풍맘모스프라자관리단","tel":"031-402-7982","addr":"경기도 안산시 단원구 고잔동 533-3번지 영풍빌딩 지하1층 20호","indutype":"자동차정비 유지 - 주차장","category":"car"},{"name":"영풍맘모스프라자주차장","tel":"031-402-7982","addr":"경기도 안산시 단원구 고잔동 533-3번지 영풍빌딩 지하 120호","indutype":"자동차정비 유지 - 주차장","category":"car"}]},{"lat":"37.329397779","long":"126.83762855","imageIndex":0,"items":[{"name":"예대카정비","tel":"031-402-8583","addr":"경기도 안산시 단원구 고잔동 633-3번지 1층","indutype":"자동차정비 유지 - 자동차정비","category":"car"}]},{"lat":"37.312003926","long":"126.84112976","imageIndex":0,"items":[{"name":"오토매니아","tel":"031-481-8875","addr":"경기도 안산시 단원구 고잔동 763-3번지 1층","indutype":"자동차정비 유지 - 자동차정비","category":"car"}]},{"lat":"37.329285373","long":"126.84104759","imageIndex":0,"items":[{"name":"오토월드자동차정비","tel":"031-482-7757","addr":"경기도 안산시 단원구 고잔동 645-22번지 1층","indutype":"자동차정비 유지 - 자동차정비","category":"car"}]},{"lat":"37.310923628","long":"126.82907332","imageIndex":0,"items":[{"name":"웅신아트프라자관리단","tel":"031-485-3344","addr":"경기도 안산시 단원구 고잔동 708번지 웅신아트프라자","indutype":"자동차정비 유지 - 주차장","category":"car"}]},{"lat":"37.315149513","long":"126.82310721","imageIndex":0,"items":[{"name":"유료주차장","tel":"031-000-0000","addr":"경기도 안산시 단원구 고잔동 681-2번지 부일프라자","indutype":"자동차정비 유지 - 주차장","category":"car"}]},{"lat":"37.329675499","long":"126.81826595","imageIndex":0,"items":[{"name":"유앤아이","tel":"031-482-1255","addr":"경기도 안산시 단원구 고잔동 650-16번지 지하층","indutype":"자동차정비 유지 - 카인테리어","category":"car"}]},{"lat":"37.305727699","long":"126.83110434","imageIndex":0,"items":[{"name":"으뜸버스썬팅","tel":"031-500-8726","addr":"경기도 안산시 단원구 고잔동 782번지 안산레이크타운푸르지오 108동 1502호","indutype":"자동차정비 유지 - 카인테리어","category":"car"}]},{"lat":"37.329279193","long":"126.81835719","imageIndex":0,"items":[{"name":"자동차외장관리","tel":"","addr":"경기도 안산시 단원구 고잔동 650-14번지 103호","indutype":"자동차정비 유지 - 카인테리어","category":"car"}]},{"lat":"37.313311623","long":"126.82927088","imageIndex":0,"items":[{"name":"장은타워관리단 운영위원회","tel":"031-413-1870","addr":"경기도 안산시 단원구 고잔동 706-3번지 장은타워","indutype":"자동차정비 유지 - 주차장","category":"car"}]},{"lat":"37.3142027187","long":"126.8413506700","imageIndex":0,"items":[{"name":"제이카 용품","tel":"031-411-6874","addr":"경기도 안산시 단원구 고잔동 729-9번지","indutype":"도매 및 소매업 - 자동차관련용품","category":"car"}]},{"lat":"37.315144889","long":"126.83851711","imageIndex":0,"items":[{"name":"주식회사 안산과 미래","tel":"031-405-8808","addr":"경기도 안산시 단원구 고잔동 723","indutype":"자동차정비 유지 - 주차장","category":"car"}]},{"lat":"37.309145958","long":"126.82727259","imageIndex":0,"items":[{"name":"주식회사 앙상블라이프","tel":"070-7745-5088","addr":"경기도 안산시 단원구 고잔동 715-2번지 우석프라자","indutype":"자동차정비 유지 - 자동차부품","category":"car"}]},{"lat":"37.314201337","long":"126.82771207","imageIndex":0,"items":[{"name":"주식회사 지디주차타워","tel":"031-487-3030","addr":"경기도 안산시 단원구 고잔동 704번지 화랑타워 202호","indutype":"자동차정비 유지 - 주차장","category":"car"},{"name":"탑모터스","tel":"031-413-1007","addr":"경기도 안산시 단원구 고잔동 704번지 화랑타워 1층 115호","indutype":"자동차정비 유지 - 자동차정비","category":"car"}]},{"lat":"37.320668467","long":"126.83237903","imageIndex":0,"items":[{"name":"주식회사 채울종합건설","tel":"031-357-4004","addr":"경기도 안산시 단원구 고잔동 527-8번지 신원빌딩 203-1호","indutype":"자동차정비 유지 - 주차장","category":"car"}]},{"lat":"37.32028064","long":"126.83210915","imageIndex":0,"items":[{"name":"주식회사 청림비엠씨","tel":"031-402-2229","addr":"경기도 안산시 단원구 고잔동 527-2번지 센터하임오피스텔 2층 203호","indutype":"자동차정비 유지 - 주차장","category":"car"}]},{"lat":"37.309865121","long":"126.83230191","imageIndex":0,"items":[{"name":"주식회사 현대한국윤활유","tel":"031-415-9000","addr":"경기도 안산시 단원구 고잔동 769-4번지 중앙프라자 202호","indutype":"자동차정비 유지 - 윤활유 전문 판매","category":"car"}]},{"lat":"37.312228025","long":"126.82766024","imageIndex":0,"items":[{"name":"주식회사나이스데이","tel":"031-402-0703","addr":"경기도 안산시 단원구 고잔동 707번지 안산법조타운 1004호 (1002호 내)","indutype":"자동차판매 - 기타운송","category":"car"}]},{"lat":"37.317951314","long":"126.83512657","imageIndex":0,"items":[{"name":"중앙마케이트(주)","tel":"031-485-9906","addr":"경기도 안산시 단원구 고잔동 535번지 중앙마케이트빌딩 관리사무소","indutype":"자동차정비 유지 - 주차장","category":"car"}]},{"lat":"37.318673356","long":"126.83599364","imageIndex":0,"items":[{"name":"지스타프라자","tel":"031-439-4511","addr":"경기도 안산시 단원구 고잔동 534-2번지 1108호","indutype":"자동차정비 유지 - 주차장","category":"car"}]},{"lat":"37.312923381","long":"126.84143237","imageIndex":0,"items":[{"name":"지앤비(G&V)타이어","tel":"031-439-0975","addr":"경기도 안산시 단원구 고잔동 750-4번지 덕양빌딩 1층","indutype":"자동차정비 유지 - 자동차시트·타이어","category":"car"}]},{"lat":"37.318675818","long":"126.83141332","imageIndex":0,"items":[{"name":"지에스파크24 (주) 안사문화광장주차장","tel":"02-3272-3500","addr":"경기도 안산시 단원구 고잔동 529-7번지","indutype":"자동차정비 유지 - 주차장","category":"car"}]},{"lat":"37.312647259","long":"126.8309081","imageIndex":0,"items":[{"name":"지에스파크24 (주) 안산고잔동주차장","tel":"02-3272-3500","addr":"경기도 안산시 단원구 고잔동 725-5번지","indutype":"자동차정비 유지 - 주차장","category":"car"}]},{"lat":"37.318894259","long":"126.83293584","imageIndex":0,"items":[{"name":"지에스파크24(주)국민은행안산지점주차장","tel":"031-3465-3607","addr":"경기도 안산시 단원구 고잔동 530번지","indutype":"자동차정비 유지 - 주차장","category":"car"}]},{"lat":"37.31356318","long":"126.84148741","imageIndex":0,"items":[{"name":"차와사람들","tel":"031-403-5109","addr":"경기도 안산시 단원구 고잔동 750번지","indutype":"자동차정비 유지 - 자동차정비","category":"car"}]},{"lat":"37.314007434","long":"126.83696283","imageIndex":0,"items":[{"name":"카맥스(중앙점)","tel":"031-480-9228","addr":"경기도 안산시 단원구 고잔동 731번지 대진빌딩 101호","indutype":"자동차정비 유지 - 카인테리어","category":"car"}]},{"lat":"37.313787911","long":"126.84110338","imageIndex":0,"items":[{"name":"카윤모터스","tel":"031-401-5244","addr":"경기도 안산시 단원구 고잔동 749-2번지 1층","indutype":"자동차정비 유지 - 자동차정비","category":"car"}]},{"lat":"37.314120944","long":"126.82218462","imageIndex":0,"items":[{"name":"카튜닝 틴마스터","tel":"031-414-6117","addr":"경기도 안산시 단원구 고잔동 691-7번지 101호","indutype":"자동차정비 유지 - 자동차부품","category":"car"}]},{"lat":"37.316843082","long":"126.82287755","imageIndex":0,"items":[{"name":"코레네트웍스(주)고잔","tel":"031-402-5642","addr":"경기도 안산시 단원구 고잔동 453-53번지","indutype":"자동차정비 유지 - 주차장","category":"car"}]},{"lat":"37.315866626","long":"126.83918113","imageIndex":0,"items":[{"name":"코레일네트웍스(주)중앙","tel":"02-3271-0715","addr":"경기도 안산시 단원구 고잔동 167-378번지","indutype":"자동차정비 유지 - 주차장","category":"car"}]},{"lat":"37.311842384","long":"126.82887944","imageIndex":0,"items":[{"name":"크린매직 고잔점","tel":"031-485-1958","addr":"경기도 안산시 단원구 고잔동 707-2번지 4층 주차장내 X6Y9호 라미CNP코너 홈플러스 고잔점","indutype":"자동차정비 유지 - 세차장","category":"car"}]},{"lat":"37.313336559","long":"126.82185936","imageIndex":0,"items":[{"name":"타이어마트","tel":"031-487-9559","addr":"경기도 안산시 단원구 고잔동 693-3번지 1층","indutype":"자동차정비 유지 - 자동차시트·타이어","category":"car"}]},{"lat":"37.312592677","long":"126.83685313","imageIndex":0,"items":[{"name":"탑오토바이","tel":"031-491-9150","addr":"경기도 안산시 단원구 고잔동 739-6번지","indutype":"자동차판매 - 이륜차판매","category":"car"}]},{"lat":"37.3123373027","long":"126.8411290488","imageIndex":0,"items":[{"name":"틴트홀릭","tel":"031-405-8468","addr":"경기도 안산시 단원구 고잔동 762-3번지","indutype":"도매 및 소매업 - 자동차용품","category":"car"}]},{"lat":"37.312337303","long":"126.84112905","imageIndex":0,"items":[{"name":"틴트홀릭","tel":"031-405-8468","addr":"경기도 안산시 단원구 고잔동 762-3번지 102호","indutype":"자동차정비 유지 - 자동차부품","category":"car"}]},{"lat":"37.313897368","long":"126.82932594","imageIndex":0,"items":[{"name":"패르가디(FERCADI) 안산","tel":"031-402-2015","addr":"경기도 안산시 단원구 고잔동 706-1번지 신양타운 128호","indutype":"자동차판매 - 이륜차판매","category":"car"}]},{"lat":"37.314760339","long":"126.82196875","imageIndex":0,"items":[{"name":"퍼스트 클래스 모터스","tel":"031-411-7780","addr":"경기도 안산시 단원구 고잔동 692번지 대양빌딩 101호","indutype":"자동차정비 유지 - 자동차정비","category":"car"}]},{"lat":"37.311894765","long":"126.82773998","imageIndex":0,"items":[{"name":"평화오토파츠주식회사","tel":"031-401-0823","addr":"경기도 안산시 단원구 고잔동 707-4번지 한남법조빌딩 2층 207호","indutype":"자동차정비 유지 - 자동차부품","category":"car"}]},{"lat":"37.320336129","long":"126.83310182","imageIndex":0,"items":[{"name":"프라움시티 관리단","tel":"031-410-0710","addr":"경기도 안산시 단원구 고잔동 528-1번지 프라움시티 101동 지하2층","indutype":"자동차정비 유지 - 주차장","category":"car"}]},{"lat":"37.313201355","long":"126.82182584","imageIndex":0,"items":[{"name":"프리미엄모터스","tel":"031-480-8525","addr":"경기도 안산시 단원구 고잔동 693-4,1층","indutype":"자동차정비 유지 - 자동차정비","category":"car"}]},{"lat":"37.313479893","long":"126.83988571","imageIndex":0,"items":[{"name":"한국친환경상품협회안산단원지부","tel":"070-8826-5010","addr":"경기도 안산시 단원구 고잔동 753-8번지","indutype":"자동차정비 유지 - 윤활유 전문 판매","category":"car"}]},{"lat":"37.317342346","long":"126.83143891","imageIndex":0,"items":[{"name":"한진사","tel":"031-482-9759","addr":"경기도 안산시 단원구 고잔동 531-5번지","indutype":"자동차정비 유지 - 자동차시트·타이어","category":"car"}]},{"lat":"37.329477363","long":"126.81832285","imageIndex":0,"items":[{"name":"현대카독크","tel":"031-405-5215","addr":"경기도 안산시 단원구 고잔동 650-15번지 연번지 103동 104호","indutype":"자동차정비 유지 - 자동차정비","category":"car"}]},{"lat":"37.319175752","long":"126.82824204","imageIndex":0,"items":[{"name":"호수기획 (주)","tel":"031-475-0486","addr":"경기도 안산시 단원구 고잔동 524번지 늘봄스위트빌 15층","indutype":"자동차정비 유지 - 주차장","category":"car"},{"name":"호수기획(주)","tel":"031-475-0425","addr":"경기도 안산시 단원구 고잔동 524번지 늘봄스위트 15층","indutype":"자동차정비 유지 - 주차장","category":"car"}]},{"lat":"37.312588862","long":"126.84059832","imageIndex":0,"items":[{"name":"호수자동차","tel":"031-401-9667","addr":"경기도 안산시 단원구 고잔동 761-7번지 401호","indutype":"자동차정비 유지 - 자동차정비","category":"car"}]}]