[{"lat":"37.236386957","long":"127.20726199","imageIndex":7,"items":[{"name":"D.C 땡백화점","tel":"031-337-2255","addr":"경기도 용인시 처인구 김량장동 133-17번지","indutype":"유통업 영리 - 슈퍼마켓","category":"mart"}]},{"lat":"37.232743493","long":"127.19854141","imageIndex":7,"items":[{"name":"농부의마을","tel":"031-339-0838","addr":"경기도 용인시 처인구 김량장동 504-3번지","indutype":"유통업 영리 - 슈퍼마켓","category":"mart"}]},{"lat":"37.234743479","long":"127.20410222","imageIndex":7,"items":[{"name":"다모아토바코 처인점","tel":"070-8269-1112","addr":"경기도 용인시 처인구 김량장동 296-28번지 1층","indutype":"유통업 영리 - 슈퍼마켓","category":"mart"}]},{"lat":"37.232521177","long":"127.20218063","imageIndex":7,"items":[{"name":"대승슈퍼","tel":"031-335-6575","addr":"경기도 용인시 처인구 김량장동 344-7번지","indutype":"유통업 영리 - 슈퍼마켓","category":"mart"}]},{"lat":"37.237242544","long":"127.20748968","imageIndex":7,"items":[{"name":"반지탄월드마트(Panjtan world Mart)","tel":"031-339-1214","addr":"경기도 용인시 처인구 김량장동 133-123번지 1층","indutype":"유통업 영리 - 슈퍼마켓","category":"mart"}]},{"lat":"37.238686208","long":"127.20632154","imageIndex":7,"items":[{"name":"부영미니슈퍼","tel":"031-335-2485","addr":"경기도 용인시 처인구 김량장동 154-15","indutype":"유통업 영리 - 슈퍼마켓","category":"mart"}]},{"lat":"37.236324449","long":"127.20693501","imageIndex":7,"items":[{"name":"시장미니마트","tel":"031-338-7079","addr":"경기도 용인시 처인구 김량장동 133-31번지","indutype":"유통업 영리 - 슈퍼마켓","category":"mart"}]},{"lat":"37.236938446","long":"127.20618162","imageIndex":7,"items":[{"name":"양지상회","tel":"031-335-3495","addr":"경기도 용인시 처인구 김량장동 133-44번지","indutype":"유통업 영리 - 슈퍼마켓","category":"mart"}]},{"lat":"37.23585969","long":"127.19937212","imageIndex":7,"items":[{"name":"용인가게맥주점","tel":"031-336-3040","addr":"경기도 용인시 처인구 김량장동 320-3 승정빌라상가1층","indutype":"유통업 영리 - 슈퍼마켓","category":"mart"}]},{"lat":"37.231773171","long":"127.20226881","imageIndex":7,"items":[{"name":"우리마트","tel":"031-335-5196","addr":"경기도 용인시 처인구 김량장동 351-11번지 현대하이츠 101호","indutype":"유통업 영리 - 슈퍼마켓","category":"mart"}]},{"lat":"37.233358276","long":"127.20796375","imageIndex":7,"items":[{"name":"전마트","tel":"070-4104-8076","addr":"경기도 용인시 처인구 김량장동 74-13번지 명빌딩","indutype":"유통업 영리 - 슈퍼마켓","category":"mart"}]},{"lat":"37.238574211","long":"127.2085639","imageIndex":7,"items":[{"name":"제이마트","tel":"","addr":"경기도 용인시 처인구 김량장동 162-4번지 용문빌딩","indutype":"유통업 영리 - 슈퍼마켓","category":"mart"}]},{"lat":"37.232471462","long":"127.21014747","imageIndex":7,"items":[{"name":"준매점","tel":"031-335-6665","addr":"경기도 용인시 처인구 김량장동 23-1번지","indutype":"유통업 영리 - 슈퍼마켓","category":"mart"}]},{"lat":"37.236718563","long":"127.20828839","imageIndex":7,"items":[{"name":"중국식품","tel":"070-4789-2381","addr":"경기도 용인시 처인구 김량장동 139-5번지 1층","indutype":"유통업 영리 - 슈퍼마켓","category":"mart"}]},{"lat":"37.238351489","long":"127.20709825","imageIndex":7,"items":[{"name":"토마토편의점","tel":"031-322-7297","addr":"경기도 용인시 처인구 김량장동 159-19번지","indutype":"유통업 영리 - 슈퍼마켓","category":"mart"}]},{"lat":"37.231748936","long":"127.200601","imageIndex":7,"items":[{"name":"한성마트","tel":"031-323-0202","addr":"경기도 용인시 처인구 김량장동 350-4번지","indutype":"유통업 영리 - 슈퍼마켓","category":"mart"}]},{"lat":"37.237026103","long":"127.20760179","imageIndex":7,"items":[{"name":"현대마트","tel":"031-335-2844","addr":"경기도 용인시 처인구 김량장동 133-8번지","indutype":"유통업 영리 - 슈퍼마켓","category":"mart"}]}]