[{"lat":"37.684876093","long":"126.71980211","imageIndex":0,"items":[{"name":"H.Y.S 모터스","tel":"031-924-0283","addr":"경기도 고양시 일산서구 가좌동 997번지","indutype":"자동차정비 유지 - 자동차정비","category":"car"}]},{"lat":"37.685431904","long":"126.72240748","imageIndex":0,"items":[{"name":"JUN오토샵","tel":"031-921-2630","addr":"경기도 고양시 일산서구 가좌동 362-1번지","indutype":"자동차정비 유지 - 자동차부품","category":"car"}]},{"lat":"37.702954465","long":"126.72574333","imageIndex":0,"items":[{"name":"OK1급자동차정비사업소","tel":"031-921-3900","addr":"경기도 고양시 일산서구 가좌동 6-1번지","indutype":"자동차정비 유지 - 자동차정비","category":"car"}]},{"lat":"37.685487281","long":"126.72296278","imageIndex":0,"items":[{"name":"SMART MOTORS","tel":"031-925-8290","addr":"경기도 고양시 일산서구 가좌동 202-6번지","indutype":"자동차정비 유지 - 자동차정비","category":"car"},{"name":"현진자동차","tel":"031-928-8204","addr":"경기도 고양시 일산서구 가좌동 202-6번지","indutype":"자동차정비 유지 - 자동차정비","category":"car"}]},{"lat":"37.68412355","long":"126.71783239","imageIndex":0,"items":[{"name":"TIRE PRO 서일산점","tel":"031-925-4251","addr":"경기도 고양시 일산서구 가좌동 990번지","indutype":"자동차정비 유지 - 자동차시트·타이어","category":"car"}]},{"lat":"37.691568851","long":"126.72299661","imageIndex":0,"items":[{"name":"stream company(스트림컴퍼니)","tel":"070-4148-2292","addr":"경기도 고양시 일산서구 가좌동 461-27번지","indutype":"자동차정비 유지 - 윤활유 전문 판매","category":"car"}]},{"lat":"37.690571479","long":"126.72413412","imageIndex":0,"items":[{"name":"가좌사랑자동차공업사","tel":"031-923-8255","addr":"경기도 고양시 일산서구 가좌동 145번지","indutype":"자동차정비 유지 - 자동차정비","category":"car"}]},{"lat":"37.685734616","long":"126.72468506","imageIndex":0,"items":[{"name":"가좌점현대자동차","tel":"031-923-8210","addr":"경기도 고양시 일산서구 가좌동 218-4번지","indutype":"자동차정비 유지 - 자동차부품","category":"car"}]},{"lat":"37.69284979","long":"126.72366073","imageIndex":0,"items":[{"name":"고양모터스","tel":"031-915-1888","addr":"경기도 고양시 일산서구 가좌동 130-2번지","indutype":"자동차정비 유지 - 자동차부품","category":"car"}]},{"lat":"37.683957669","long":"126.71630258","imageIndex":0,"items":[{"name":"남강덴트칼라","tel":"031-921-7117","addr":"경기도 고양시 일산서구 가좌동 778-11번지","indutype":"자동차정비 유지 - 카인테리어","category":"car"}]},{"lat":"37.699010819","long":"126.71551896","imageIndex":0,"items":[{"name":"라이더모터스","tel":"02-2271-2800","addr":"경기도 고양시 일산서구 가좌동 602-10번지","indutype":"자동차판매 - 이륜차판매","category":"car"}]},{"lat":"37.693041027","long":"126.71329707","imageIndex":0,"items":[{"name":"명민AUTO","tel":"031-914-8085","addr":"경기도 고양시 일산서구 가좌동 643-5번지","indutype":"자동차정비 유지 - 자동차부품","category":"car"}]},{"lat":"37.700347617","long":"126.71690851","imageIndex":0,"items":[{"name":"모터파크","tel":"031-957-9622","addr":"경기도 고양시 일산서구 가좌동 578-10번지","indutype":"자동차정비 유지 - 자동차정비","category":"car"}]},{"lat":"37.698093722","long":"126.720024","imageIndex":0,"items":[{"name":"보성자동차유리","tel":"031-914-7244","addr":"경기도 고양시 일산서구 가좌동 538-3번지","indutype":"자동차정비 유지 - 자동차부품","category":"car"}]},{"lat":"37.693763143","long":"126.71754606","imageIndex":0,"items":[{"name":"선명자동차써비스","tel":"031-923-8272","addr":"경기도 고양시 일산서구 가좌동 474-4번지","indutype":"자동차정비 유지 - 자동차정비","category":"car"}]},{"lat":"37.684598591","long":"126.72055139","imageIndex":0,"items":[{"name":"송산자동차공업사","tel":"031-923-1455","addr":"경기도 고양시 일산서구 가좌동 307-12번지","indutype":"자동차정비 유지 - 자동차정비","category":"car"},{"name":"엠제이모터스","tel":"031-925-0130","addr":"경기도 고양시 일산서구 가좌동 307-12번지","indutype":"자동차정비 유지 - 자동차정비","category":"car"}]},{"lat":"37.699489758","long":"126.71610674","imageIndex":0,"items":[{"name":"시트랩","tel":"031-923-1830","addr":"경기도 고양시 일산서구 가좌동 582-3번지","indutype":"자동차정비 유지 - 자동차시트·타이어","category":"car"}]},{"lat":"37.692124259","long":"126.72165665","imageIndex":0,"items":[{"name":"아우토하우스","tel":"031-925-7799","addr":"경기도 고양시 일산서구 가좌동 462-4번지","indutype":"자동차정비 유지 - 자동차정비","category":"car"}]},{"lat":"37.693795882","long":"126.71618536","imageIndex":0,"items":[{"name":"오버테이크 모터스(OvertakeMotors)","tel":"070-4225-8775","addr":"경기도 고양시 일산서구 가좌동 669번지","indutype":"자동차정비 유지 - 자동차부품","category":"car"}]},{"lat":"37.690400941","long":"126.72440686","imageIndex":0,"items":[{"name":"일산모터스","tel":"031-923-2255","addr":"경기도 고양시 일산서구 가좌동 145-1번지","indutype":"자동차정비 유지 - 자동차정비","category":"car"}]},{"lat":"37.685345305","long":"126.72388159","imageIndex":0,"items":[{"name":"일산케미칼","tel":"031-923-8222","addr":"경기도 고양시 일산서구 가좌동 220-1번지","indutype":"자동차정비 유지 - 세차장","category":"car"}]},{"lat":"37.694432886","long":"126.71880204","imageIndex":0,"items":[{"name":"주식회사 락슨모빌","tel":"","addr":"경기도 고양시 일산서구 가좌동 482-2번지","indutype":"자동차정비 유지 - 자동차부품","category":"car"}]},{"lat":"37.685098523","long":"126.71863358","imageIndex":0,"items":[{"name":"주식회사 에스클래스","tel":"031-918-4982","addr":"경기도 고양시 일산서구 가좌동 994번지","indutype":"자동차정비 유지 - 자동차정비","category":"car"},{"name":"커스텀 바이슨","tel":"031-966-7896","addr":"경기도 고양시 일산서구 가좌동 994번지","indutype":"자동차정비 유지 - 카인테리어","category":"car"}]},{"lat":"37.699654161","long":"126.72076644","imageIndex":0,"items":[{"name":"주식회사 우정","tel":"031-921-1122","addr":"경기도 고양시 일산서구 가좌동 567-4번지","indutype":"자동차판매 - 기타운송","category":"car"}]},{"lat":"37.700202997","long":"126.7167163","imageIndex":0,"items":[{"name":"주식회사 웨이브모터스(WAVEMOTORS Co,Ltd)","tel":"031-000-1212","addr":"경기도 고양시 일산서구 가좌동 581-1번지","indutype":"자동차정비 유지 - 자동차부품","category":"car"}]},{"lat":"37.694663297","long":"126.71351753","imageIndex":0,"items":[{"name":"주식회사 파인카","tel":"031-919-3756","addr":"경기도 고양시 일산서구 가좌동 638번지","indutype":"자동차정비 유지 - 자동차정비","category":"car"}]},{"lat":"37.693710758","long":"126.71823789","imageIndex":0,"items":[{"name":"주식회사 필립스 모터스","tel":"031-923-3812","addr":"경기도 고양시 일산서구 가좌동 474-6번지","indutype":"자동차판매 - 이륜차판매","category":"car"}]},{"lat":"37.683320808","long":"126.72121375","imageIndex":0,"items":[{"name":"카피플스토리","tel":"02-830-3690","addr":"경기도 고양시 일산서구 가좌동 1105번지 가좌마을7단지아파트","indutype":"자동차정비 유지 - 자동차부품","category":"car"}]},{"lat":"37.695014478","long":"126.71713308","imageIndex":0,"items":[{"name":"코닉모터스","tel":"031-922-0163","addr":"경기도 고양시 일산서구 가좌동 664-52번지","indutype":"자동차정비 유지 - 자동차정비","category":"car"}]},{"lat":"37.694627537","long":"126.71363105","imageIndex":0,"items":[{"name":"파인카","tel":"031-919-3755","addr":"경기도 고양시 일산서구 가좌동 638번지","indutype":"자동차정비 유지 - 가타자동차서비스","category":"car"}]}]