[{"lat":"37.143140218","long":"126.877575","imageIndex":17,"items":[{"name":"C.S콤푸텍","tel":"02-2213-1812","addr":"경기도 화성시 팔탄면 덕천리 244-9번지","indutype":"기타 - 기계공구","category":"other"}]},{"lat":"37.141663958","long":"126.87896183","imageIndex":17,"items":[{"name":"경진냉열시스템","tel":"031-8059-0179","addr":"경기도 화성시 팔탄면 덕천리 256-1번지 1층","indutype":"전기제품 - 냉열기기","category":"other"}]},{"lat":"37.142752625","long":"126.87744057","imageIndex":17,"items":[{"name":"동일ENG","tel":"031-353-2576","addr":"경기도 화성시 팔탄면 덕천리 240번지","indutype":"기타 - 기계공구","category":"other"}]},{"lat":"37.142971972","long":"126.87197007","imageIndex":17,"items":[{"name":"세븐일레븐화성팔탄덕천점","tel":"031-1577-0711","addr":"경기도 화성시 팔탄면 덕천리 360-8번지","indutype":"유통업 영리 - 편 의 점","category":"other"}]},{"lat":"37.152666413","long":"126.87960803","imageIndex":17,"items":[{"name":"엑스퍼트 그룹(Expert Group)","tel":"031-1111-1111","addr":"경기도 화성시 팔탄면 덕천리 67-9번지","indutype":"레져용품 - 스포츠·레져용품","category":"other"}]},{"lat":"37.140225057","long":"126.87313407","imageIndex":17,"items":[{"name":"태양공업","tel":"031-413-0949","addr":"경기도 화성시 팔탄면 덕천리 312-4번지","indutype":"기타 - 기계공구","category":"other"}]},{"lat":"37.151357738","long":"126.87755018","imageIndex":17,"items":[{"name":"하나크린텍(주)","tel":"031-351-5518","addr":"경기도 화성시 팔탄면 덕천리 65-5","indutype":"전기제품 - 기타전기제품","category":"other"}]},{"lat":"37.142000879","long":"126.87382887","imageIndex":17,"items":[{"name":"한일지하수개발","tel":"031-352-6788","addr":"경기도 화성시 팔탄면 덕천리 206","indutype":"용역 서비스 - 기타용역서비스","category":"other"}]},{"lat":"37.143693106","long":"126.87223896","imageIndex":17,"items":[{"name":"화성스톱","tel":"031-353-7883","addr":"경기도 화성시 팔탄면 덕천리 186-2번지","indutype":"유통업 영리 - 편 의 점","category":"other"}]}]