[{"lat":"37.538817472","long":"127.20325315","imageIndex":17,"items":[{"name":"(A)하모니 방문요양센터","tel":"031-793-0365","addr":"경기도 하남시 덕풍동 418-1번지 202호","indutype":"기타의료기관 - 기타의료기관 및 기타","category":"other"},{"name":"고래컴퍼니","tel":"031-8028-7010","addr":"경기도 하남시 덕풍동 418-1번지","indutype":"사무통신 - 통신기기","category":"other"},{"name":"수건나라","tel":"031-794-8282","addr":"경기도 하남시 덕풍동 418-1번지","indutype":"직물 - 옷감·직물","category":"other"}]},{"lat":"37.538294999","long":"127.20319518","imageIndex":17,"items":[{"name":"(연)스킨케어","tel":"031-796-8825","addr":"경기도 하남시 덕풍동 419-11번지","indutype":"회원제형태 - 기타4","category":"other"},{"name":"보디가드","tel":"02-792-7242","addr":"경기도 하남시 덕풍동 419-11번지","indutype":"의류 - 내의판매","category":"other"},{"name":"예스(YES)","tel":"031-792-7242","addr":"경기도 하남시 덕풍동 419-11번지","indutype":"의류 - 내의판매","category":"other"}]},{"lat":"37.534708457","long":"127.20355895","imageIndex":17,"items":[{"name":"(주)계성자활복지요양원","tel":"031-796-1396","addr":"경기도 하남시 덕풍동 512-1번지 삼보빌딩 4층","indutype":"기타의료기관 - 기타의료기관 및 기타","category":"other"}]},{"lat":"37.539873917","long":"127.2018982","imageIndex":17,"items":[{"name":"(주)동진통신랜드_PS","tel":"0347-793-3017","addr":"경기도 하남시 덕풍동 394-1번지","indutype":"사무통신 - 통신기기","category":"other"},{"name":"GS25하남프라자점","tel":"","addr":"경기도 하남시 덕풍동 394-1번지 하남프라자 1층 111호","indutype":"유통업 영리 - 편 의 점","category":"other"},{"name":"아날도바시니","tel":"031-793-2230","addr":"경기도 하남시 덕풍동 394-1번지 하남프라자 1층 102호","indutype":"의류 - 정장","category":"other"},{"name":"웰빙마사지","tel":"031-0000-0000","addr":"경기도 하남시 덕풍동 394-1번지 하남프라자 제 6층 601호","indutype":"회원제형태 - 기타4","category":"other"}]},{"lat":"37.552404597","long":"127.20833676","imageIndex":17,"items":[{"name":"(주)두송","tel":"031-1111-1111","addr":"경기도 하남시 덕풍동 741번지 하남푸르지오시티 315호","indutype":"신변잡화 - 기타잡화","category":"other"},{"name":"GS25하남푸르지오점","tel":"","addr":"경기도 하남시 덕풍동 741번지","indutype":"유통업 영리 - 편 의 점","category":"other"},{"name":"다원스테인레스산업","tel":"031-794-7250","addr":"경기도 하남시 덕풍동 741번지 하남푸르지오시티 8층 845호","indutype":"유통업 영리 - 기타유통업","category":"other"},{"name":"바비숑","tel":"070-8864-2875","addr":"경기도 하남시 덕풍동 741번지 하남푸르지오시티오피스텔 101동 10층 1023호","indutype":"문화.취미 - 애완동물","category":"other"}]},{"lat":"37.553607892","long":"127.19465796","imageIndex":17,"items":[{"name":"(주)머머코리아","tel":"070-7834-8550","addr":"경기도 하남시 덕풍동 762번지 아이테코블루존 917호","indutype":"신변잡화 - 기타잡화","category":"other"},{"name":"(주)보나","tel":"070-4465-5352","addr":"경기도 하남시 덕풍동 762번지 아이테코 1002호","indutype":"신변잡화 - 가방","category":"other"},{"name":"(주)신화물산","tel":"031-790-1003","addr":"경기도 하남시 덕풍동 762번지 아이테코 106호","indutype":"건축자재 - 건축용 요업제품","category":"other"},{"name":"(주)에스씨앤에스","tel":"031-721-1520","addr":"경기도 하남시 덕풍동 762번지 아이테코 453호","indutype":"용역 서비스 - 소프트웨어","category":"other"},{"name":"(주)에스앰엔에스","tel":"031-790-1985","addr":"경기도 하남시 덕풍동 762번지 아이테코 블루존 704A호","indutype":"사무통신 - 통신기기","category":"other"},{"name":"(주)엔지노믹스코리아","tel":"031-790-0631","addr":"경기도 하남시 덕풍동 762번지 아이테코 715호","indutype":"서적문구 - 과학기자재","category":"other"},{"name":"(주)엠티스포츠","tel":"031-790-4060","addr":"경기도 하남시 덕풍동 762번지 아이테코 731호","indutype":"레져용품 - 스포츠·레져용품","category":"other"},{"name":"(주)여름기획","tel":"031-790-1793","addr":"경기도 하남시 덕풍동 762번지 아이테코 알-비128호","indutype":"용역 서비스 - 종합용역","category":"other"},{"name":"(주)오믹스바이오텍","tel":"02-2245-5660","addr":"경기도 하남시 덕풍동 762번지 아이테코 9층 950호","indutype":"서적문구 - 과학기자재","category":"other"},{"name":"(주)유니온플러스","tel":"031-796-5707","addr":"경기도 하남시 덕풍동 762번지 아이테코 427호","indutype":"건축자재 - 기타건축자재","category":"other"},{"name":"(주)이지","tel":"031-790-3080","addr":"경기도 하남시 덕풍동 762번지 아이테코 오렌지동 8층 846호","indutype":"건축자재 - 조명기구","category":"other"},{"name":"(주)인씨스","tel":"02-508-2993","addr":"경기도 하남시 덕풍동 762번지 아이테코 655호","indutype":"기타 - 기계공구","category":"other"},{"name":"(주)카이로메드","tel":"031-794-0082","addr":"경기도 하남시 덕풍동 762 아이테코402호,404호","indutype":"기타의료기관 - 기타의료기관 및 기타","category":"other"},{"name":"(주)코네츠","tel":"031-790-4004","addr":"경기도 하남시 덕풍동 762번지 아이테코 763호","indutype":"용역 서비스 - 소프트웨어","category":"other"},{"name":"(주)한솔이십일","tel":"031-497-1151","addr":"경기도 하남시 덕풍동 762번지 아이테코 530호","indutype":"전기제품 - 기타전기제품","category":"other"},{"name":"GS25하남아이테코2점","tel":"","addr":"경기도 하남시 덕풍동 762번지 하남아이테코 R동 120호","indutype":"유통업 영리 - 편 의 점","category":"other"},{"name":"GS25하남아이테코점","tel":"","addr":"경기도 하남시 덕풍동 762번지 1층 105~106호","indutype":"유통업 영리 - 편 의 점","category":"other"},{"name":"강동B/S","tel":"02-488-5432","addr":"경기도 하남시 덕풍동 762번지 아이테코 829호","indutype":"사무통신 - 기타 사무용품","category":"other"},{"name":"구두를지배하는자","tel":"031-790-1550","addr":"경기도 하남시 덕풍동 762번지 ITECORB 118호","indutype":"수리서비스 - 신변잡화수리","category":"other"},{"name":"그린월드","tel":"","addr":"경기도 하남시 덕풍동 762번지 아이테코 4층 459호","indutype":"신변잡화 - 기타잡화","category":"other"},{"name":"내츄럴피아 주식회사","tel":"031-1522-3931","addr":"경기도 하남시 덕풍동 762번지 아이테코 102호","indutype":"건축자재 - 인테리어전문","category":"other"},{"name":"니들스미스","tel":"070-8228-6780","addr":"경기도 하남시 덕풍동 762번지 아이테코 745호","indutype":"레져용품 - 스포츠·레져용품","category":"other"},{"name":"대한전설(주)","tel":"02-412-9265","addr":"경기도 하남시 덕풍동 762번지 아이테코 621호","indutype":"건축자재 - 조명기구","category":"other"},{"name":"댄스위드드래곤/(주)동우컴퍼니","tel":"070-8233-7642","addr":"경기도 하남시 덕풍동 762번지 아이테코 626호","indutype":"의류 - 정장","category":"other"},{"name":"드림디포 하남아이테코점","tel":"031-790-4566","addr":"경기도 하남시 덕풍동 762번지 아이테코 1층 R118호","indutype":"서적문구 - 문구용품","category":"other"},{"name":"드림디포(아이테코점)","tel":"031-790-4566","addr":"경기도 하남시 덕풍동 762번지 아이테코 1층 118호","indutype":"서적문구 - 문구용품","category":"other"},{"name":"떠블유제이","tel":"031-791-5174","addr":"경기도 하남시 덕풍동 762번지 아이테크 3층 313호","indutype":"의류 - 정장","category":"other"},{"name":"로뎀나무","tel":"02-473-7939","addr":"경기도 하남시 덕풍동 762번지 아이테코 G동 1006호","indutype":"회원제형태 - 기타4","category":"other"},{"name":"모델워크","tel":"02-418-3548","addr":"경기도 하남시 덕풍동 762번지 아이테코 662동 664호","indutype":"용역 서비스 - 기타용역서비스","category":"other"},{"name":"모두시스템즈","tel":"031-790-0858","addr":"경기도 하남시 덕풍동 762번지 아이테코 1043호","indutype":"전기제품 - 기타전기제품","category":"other"},{"name":"모두시스템즈/원격지","tel":"031-790-0858","addr":"경기도 하남시 덕풍동 762번지 아이테코 10층 1043호","indutype":"기타 - 기타 전문점","category":"other"},{"name":"무즈앤뷰즈(moods&views)","tel":"031-398-3881","addr":"경기도 하남시 덕풍동 762 아이테코 455","indutype":"서적문구 - 문구용품","category":"other"},{"name":"반반상사","tel":"031-790-4030","addr":"경기도 하남시 덕풍동 762번지 B1층 RB 109호","indutype":"주방용구 - 주방용구","category":"other"},{"name":"보고상사","tel":"031-790-1417","addr":"경기도 하남시 덕풍동 762번지 아이테코 1021호","indutype":"유통업 영리 - 기타유통업","category":"other"},{"name":"사단법인 한국목조건축협회","tel":"02-518-0613","addr":"경기도 하남시 덕풍동 762번지 아이테코 759호","indutype":"기타 - 비영리/비대상","category":"other"},{"name":"삼호K.I.T주식회사","tel":"031-790-4545","addr":"경기도 하남시 덕풍동 762번지 아이테코 849호","indutype":"기타 - 기계공구","category":"other"},{"name":"서우텔레콤","tel":"070-4736-2607","addr":"경기도 하남시 덕풍동 762번지 아이테코 1층 R122호","indutype":"사무통신 - 통신기기","category":"other"},{"name":"성봉안전(주)","tel":"031-790-0607","addr":"경기도 하남시 덕풍동 762번지 아이테코 735호 아이테코","indutype":"기타 - 기계공구","category":"other"},{"name":"성진테크","tel":"031-790-3010","addr":"경기도 하남시 덕풍동 762번지 아이테코5층그린죤526호","indutype":"신변잡화 - 시계","category":"other"},{"name":"수수 (SU SU)","tel":"031-000-0000","addr":"경기도 하남시 덕풍동 762번지 아이테코 3층 364호","indutype":"문화.취미 - 애완동물","category":"other"},{"name":"아이테코 골프연습장","tel":"031-790-0566","addr":"경기도 하남시 덕풍동 762번지 아이테코","indutype":"회원제형태 - 레져업소","category":"other"},{"name":"아이테코플라워","tel":"031-790-4646","addr":"경기도 하남시 덕풍동 762번지 ITECOR 113호","indutype":"문화.취미 - 화원","category":"other"},{"name":"알레그로","tel":"031-791-2387","addr":"경기도 하남시 덕풍동 762번지 아이테코 1021호","indutype":"가구 - 일반가구","category":"other"},{"name":"엘에스바이오텍","tel":"070-7738-2383","addr":"경기도 하남시 덕풍동 762번지 아이테코 1003호 아이테코","indutype":"서적문구 - 과학기자재","category":"other"},{"name":"오렌지미디어(orangmedia)","tel":"031-790-4117","addr":"경기도 하남시 덕풍동 762번지 아이테코 738호","indutype":"전기제품 - 기타전기제품","category":"other"},{"name":"온빛테크닉스","tel":"031-790-1553","addr":"경기도 하남시 덕풍동 762번지 아이테코 619호","indutype":"기타 - 기계공구","category":"other"},{"name":"유니온아트닷컴 주식회사","tel":"070-7729-3209","addr":"경기도 하남시 덕풍동 762번지 아이테코 510호","indutype":"용역 서비스 - 사무서비스","category":"other"},{"name":"이노스타인터내셔날","tel":"02-3427-7100","addr":"경기도 하남시 덕풍동 762번지 아이테코 1024호","indutype":"의류 - 기타의류","category":"other"},{"name":"이에이코리아 주식회사","tel":"031-790-1308","addr":"경기도 하남시 덕풍동 762번지 아이테코 R동 202호","indutype":"전기제품 - 기타전기제품","category":"other"},{"name":"이지패브릭","tel":"02-512-1456","addr":"경기도 하남시 덕풍동 762번지 하남지식센터ITECO 401동 403호","indutype":"직물 - 카페트,커튼,천막,지물","category":"other"},{"name":"인텍시스템","tel":"031-790-4080","addr":"경기도 하남시 덕풍동 762번지 아이테코 561호","indutype":"기타 - 기계공구","category":"other"},{"name":"정진시스템","tel":"031-790-4090","addr":"경기도 하남시 덕풍동 762번지 아이테코 오렌지존 1024호","indutype":"기타 - 기계공구","category":"other"},{"name":"제이디솔루션주식회사","tel":"031-790-0548","addr":"경기도 하남시 덕풍동 762번지 그린존 522호","indutype":"전기제품 - 가전제품","category":"other"},{"name":"제이디에스유 에이에스피(JDSU ASP)","tel":"070-7526-1853","addr":"경기도 하남시 덕풍동 762번지 아이테코 421호","indutype":"수리서비스 - 기타수리서비스","category":"other"},{"name":"제이엘기업 주식회사","tel":"031-790-0776","addr":"경기도 하남시 덕풍동 762번지 아이테코 339호","indutype":"신변잡화 - 기타잡화","category":"other"},{"name":"종합전자","tel":"02-2272-9294","addr":"경기도 하남시 덕풍동 762번지 아이테코 704호 아이테코","indutype":"사무통신 - 기타 사무용품","category":"other"},{"name":"주식회사 그린솔루션코리아","tel":"031-790-1872","addr":"경기도 하남시 덕풍동 762번지 아이테코 521호 아이테코","indutype":"건축자재 - 조명기구","category":"other"},{"name":"주식회사 시야스포츠","tel":"070-8656-1635","addr":"경기도 하남시 덕풍동 762번지 그린존 728호","indutype":"레져용품 - 스포츠·레져용품","category":"other"},{"name":"주식회사 아이에코","tel":"031-790-1317","addr":"경기도 하남시 덕풍동 762번지 아이테코 1층 102호","indutype":"건축자재 - 기타건축자재","category":"other"},{"name":"주식회사 아이티컴","tel":"031-790-1866","addr":"경기도 하남시 덕풍동 762번지 하남지식산업센터 838호","indutype":"사무통신 - 컴퓨터","category":"other"},{"name":"주식회사 에이치에스글로벌","tel":"070-8740-8980","addr":"경기도 하남시 덕풍동 762번지 아이테코 913호","indutype":"용역 서비스 - 소프트웨어","category":"other"},{"name":"주식회사 엘파인","tel":"070-8650-5500","addr":"경기도 하남시 덕풍동 762번지 아이테코 8층 808호","indutype":"주방용구 - 주방용식기","category":"other"},{"name":"주식회사 진테크","tel":"02-486-7430","addr":"경기도 하남시 덕풍동 762번지 아이테코 8층 850호","indutype":"사무통신 - 기타 사무용품","category":"other"},{"name":"주식회사 키위수질시험센터(KIWI)","tel":"031-790-0030","addr":"경기도 하남시 덕풍동 762번지 아이테코 851호","indutype":"용역 서비스 - 사무서비스","category":"other"},{"name":"주식회사 파라앤에이치제이","tel":"031-790-1840","addr":"경기도 하남시 덕풍동 762번지 아이테코 632호","indutype":"기타 - 기계공구","category":"other"},{"name":"주식회사 풀하우스전람","tel":"031-8027-6734","addr":"경기도 하남시 덕풍동 762번지 아이테코 5층 555호","indutype":"용역 서비스 - 종합용역","category":"other"},{"name":"주식회사 한국태양에너지","tel":"031-790-3662","addr":"경기도 하남시 덕풍동 762번지 아이테코 434호","indutype":"전기제품 - 기타전기제품","category":"other"},{"name":"주식회사 현대한국에너지","tel":"031-790-4396","addr":"경기도 하남시 덕풍동 762번지 아이테코 521호","indutype":"용역 서비스 - 사무서비스","category":"other"},{"name":"주식회사공존컴퍼니","tel":"070-7708-2001","addr":"경기도 하남시 덕풍동 762번지 아이테코 223호","indutype":"기타 - 기계공구","category":"other"},{"name":"진모피","tel":"031-8028-7008","addr":"경기도 하남시 덕풍동 762번지 아이테코 524호","indutype":"의류 - 기타의류","category":"other"},{"name":"진테크","tel":"02-486-7430","addr":"경기도 하남시 덕풍동 762번지 아이테코 850호","indutype":"유통업 영리 - 기타유통업","category":"other"},{"name":"퀀텀바이오메디(주)","tel":"031-1644-9853","addr":"경기도 하남시 덕풍동 762번지 아이테코 211,212,214호","indutype":"용역 서비스 - 소프트웨어","category":"other"},{"name":"토탈마킹시스템","tel":"02-3427-4451","addr":"경기도 하남시 덕풍동 762번지 아이테코 725호","indutype":"사무통신 - 사무용 OA기기","category":"other"},{"name":"플래너스","tel":"02-780-6166","addr":"경기도 하남시 덕풍동 762번지 아이테코 10층 1040호","indutype":"전기제품 - 가전제품","category":"other"},{"name":"하남무지개마을주식회사","tel":"031-790-1609","addr":"경기도 하남시 덕풍동 762번지 아이테코 566호","indutype":"신변잡화 - 기타잡화","category":"other"},{"name":"한스무역","tel":"02-484-3773","addr":"경기도 하남시 덕풍동 762번지 하남지식간업센터 939호","indutype":"유통업 영리 - 기타유통업","category":"other"},{"name":"헬로그린 주식회사","tel":"031-790-0823","addr":"경기도 하남시 덕풍동 762번지 아이테코 5층 511호","indutype":"주방용구 - 주방용구","category":"other"},{"name":"호산정보통신","tel":"031-790-4577","addr":"경기도 하남시 덕풍동 762번지 아이테코 517호","indutype":"사무통신 - 사무용 OA기기","category":"other"}]},{"lat":"37.541150746","long":"127.2034178","imageIndex":17,"items":[{"name":"(주)봉황인터내셔널","tel":"031-795-1133","addr":"경기도 하남시 덕풍동 398-27번지","indutype":"건축자재 - 인테리어전문","category":"other"}]},{"lat":"37.542236232","long":"127.20617029","imageIndex":17,"items":[{"name":"(주)비우이엔씨","tel":"031-796-0119","addr":"경기도 하남시 덕풍동 317-8번지 2층","indutype":"용역 서비스 - 기타용역서비스","category":"other"},{"name":"성진","tel":"031-792-0945","addr":"경기도 하남시 덕풍동 317-8번지","indutype":"기타 - 기계공구","category":"other"},{"name":"태성","tel":"070-8241-0982","addr":"경기도 하남시 덕풍동 317-8번지 2층 우측","indutype":"신변잡화 - 기타잡화","category":"other"}]},{"lat":"37.548261897","long":"127.20201103","imageIndex":17,"items":[{"name":"(주)스타플러스","tel":"031-792-0946","addr":"경기도 하남시 덕풍동 300-4번지 1층","indutype":"용역 서비스 - 종합용역","category":"other"}]},{"lat":"37.551430068","long":"127.20395458","imageIndex":17,"items":[{"name":"(주)시몬스 하남미사점","tel":"02-3460-0402","addr":"경기도 하남시 덕풍동 224-6번지 1,2층","indutype":"가구 - 일반가구","category":"other"}]},{"lat":"37.550376335","long":"127.19833882","imageIndex":17,"items":[{"name":"(주)아리랑디앤씨","tel":"031-794-7383","addr":"경기도 하남시 덕풍동 205-2번지","indutype":"가구 - 기타가구","category":"other"}]},{"lat":"37.540320129","long":"127.2044226","imageIndex":17,"items":[{"name":"(주)아침","tel":"043-216-5536","addr":"경기도 하남시 덕풍동 413-1번지","indutype":"신변잡화 - 기타잡화","category":"other"},{"name":"씨유하남신평로점","tel":"031-239-6698","addr":"경기도 하남시 덕풍동 413-1번지 101호","indutype":"유통업 영리 - 편 의 점","category":"other"}]},{"lat":"37.555731763","long":"127.20158953","imageIndex":17,"items":[{"name":"(주)에스앤제이듀크","tel":"02-474-7052","addr":"경기도 하남시 덕풍동 706번지 4층","indutype":"신변잡화 - 기타잡화","category":"other"}]},{"lat":"37.54198559","long":"127.19988972","imageIndex":17,"items":[{"name":"(주)우드토픽하남대리점","tel":"031-793-4740","addr":"경기도 하남시 덕풍동 356-25번지","indutype":"가구 - 일반가구","category":"other"},{"name":"대승침구","tel":"031-794-3751","addr":"경기도 하남시 덕풍동 356-25번지","indutype":"직물 - 침구·수예점","category":"other"},{"name":"스튜디오 컬러바","tel":"031-792-4710","addr":"경기도 하남시 덕풍동 356-25번지 지하층","indutype":"광학제품 - 사진관","category":"other"}]},{"lat":"37.54762638","long":"127.21005499","imageIndex":17,"items":[{"name":"(주)위즈라인","tel":"031-796-6181","addr":"경기도 하남시 덕풍동 815번지","indutype":"가구 - 일반가구","category":"other"}]},{"lat":"37.55108","long":"127.20842366","imageIndex":17,"items":[{"name":"(주)풍산캐슬","tel":"031-791-8409","addr":"경기도 하남시 덕풍동 744-2번지 풍산캐슬빌딩 305호","indutype":"용역 서비스 - 사무서비스","category":"other"},{"name":"골드쉘 하남점","tel":"031-796-4937","addr":"경기도 하남시 덕풍동 744-2번지 풍산캐슬빌딩 103호","indutype":"신변잡화 - 귀금속","category":"other"},{"name":"글로시스엠앤디(GLOCES M&D)","tel":"02-556-1177","addr":"경기도 하남시 덕풍동 744-2번지 캐슬빌딩 507호","indutype":"신변잡화 - 가방","category":"other"},{"name":"법무사변주섭사무소","tel":"031-794-5830","addr":"경기도 하남시 덕풍동 744-2번지 풍산캐슬빌딩 307호","indutype":"용역 서비스 - 법률회계서비스(개인)","category":"other"},{"name":"씨유풍산캐슬점","tel":"0-0-0","addr":"경기도 하남시 덕풍동 744-2번지 캐슬빌딩 107호","indutype":"유통업 영리 - 편 의 점","category":"other"},{"name":"와이엔","tel":"031-794-6011","addr":"경기도 하남시 덕풍동 744-2번지 풍산캐슬빌딩 1층 105호","indutype":"사무통신 - 통신기기","category":"other"},{"name":"인디고","tel":"031-795-4013","addr":"경기도 하남시 덕풍동 744-2번지 풍산캐슬빌딩 207호","indutype":"레져용품 - 스포츠·레져용품","category":"other"},{"name":"창 하남점","tel":"031-792-9636","addr":"경기도 하남시 덕풍동 744-2번지 풍산캐슬빌딩 110호","indutype":"직물 - 카페트,커튼,천막,지물","category":"other"},{"name":"하남텔레콤","tel":"031-794-7766","addr":"경기도 하남시 덕풍동 744-2번지 풍산캐슬 103호","indutype":"사무통신 - 통신기기","category":"other"},{"name":"홀스퀘어","tel":"031-796-6344","addr":"경기도 하남시 덕풍동 744-2번지 풍산캐슬빌딩 8층 808호","indutype":"레져용품 - 스포츠·레져용품","category":"other"}]},{"lat":"37.538735192","long":"127.20395444","imageIndex":17,"items":[{"name":"(주)한강일보","tel":"02-375-1151","addr":"경기도 하남시 덕풍동 419-32 701호,702호","indutype":"서적문구 - 정기간행물","category":"other"},{"name":"돈가방을들고튀어라","tel":"031-792-7795","addr":"경기도 하남시 덕풍동 419-32번지 계명빌딩 1층","indutype":"의류 - 기타의류","category":"other"},{"name":"두물머리 미디어","tel":"031-791-3369","addr":"경기도 하남시 덕풍동 419-32번지 계명빌딩 5층","indutype":"건축자재 - 인테리어전문","category":"other"},{"name":"사단법인풀잎문화연합회","tel":"031-793-0992","addr":"경기도 하남시 덕풍동 419-32번지 계명빌딩 5동 502-1호","indutype":"문화.취미 - 문화취미기타","category":"other"},{"name":"신한엔지니어링","tel":"043-882-8553","addr":"경기도 하남시 덕풍동 419-32번지","indutype":"기타 - 기계공구","category":"other"},{"name":"풀잎문화센타","tel":"031-793-0992","addr":"경기도 하남시 덕풍동 419-32번지 계명빌딩 4층","indutype":"문화.취미 - 문화취미기타","category":"other"},{"name":"하남모범평생교육센터","tel":"031-794-4111","addr":"경기도 하남시 덕풍동 419-32번지 계명빌딩 602호","indutype":"서적문구 - 과학기자재","category":"other"}]},{"lat":"37.542849701","long":"127.20038987","imageIndex":17,"items":[{"name":"(주)휴먼코아인터네셔널","tel":"031-794-7979","addr":"경기도 하남시 덕풍동 352-2번지","indutype":"건축자재 - 인테리어전문","category":"other"}]},{"lat":"37.542482505","long":"127.19906502","imageIndex":17,"items":[{"name":"101마리(애견샵)","tel":"031-795-5515","addr":"경기도 하남시 덕풍동 348번지 1층","indutype":"문화.취미 - 애완동물","category":"other"}]},{"lat":"37.541956592","long":"127.20106642","imageIndex":17,"items":[{"name":"21세기컴닥터","tel":"","addr":"경기도 하남시 덕풍동 354-8번지","indutype":"수리서비스 - 사무·통신기기수리","category":"other"}]},{"lat":"37.551403781","long":"127.20875273","imageIndex":17,"items":[{"name":"BW모바일","tel":"031-795-8954","addr":"경기도 하남시 덕풍동 743-2번지","indutype":"사무통신 - 통신기기","category":"other"}]},{"lat":"37.53718635","long":"127.20345244","imageIndex":17,"items":[{"name":"CCOLORE(꼴로르)","tel":"031-8881-0052","addr":"경기도 하남시 덕풍동 421-6번지 다솔 제B동 3층 301호","indutype":"레져용품 - 스포츠·레져용품","category":"other"}]},{"lat":"37.538207291","long":"127.20178063","imageIndex":17,"items":[{"name":"DAVIDA가죽공방","tel":"031-794-9154","addr":"경기도 하남시 덕풍동 372-118번지","indutype":"신변잡화 - 제화","category":"other"}]},{"lat":"37.535261405","long":"127.19614969","imageIndex":17,"items":[{"name":"GS25덕풍한솔점","tel":"","addr":"경기도 하남시 덕풍동 558-27번지 1층 104,105호","indutype":"유통업 영리 - 편 의 점","category":"other"},{"name":"지니인터내셔널","tel":"031-792-0957","addr":"경기도 하남시 덕풍동 558-27번지","indutype":"기타 - 기계공구","category":"other"}]},{"lat":"37.544374138","long":"127.20467114","imageIndex":17,"items":[{"name":"GS25하남더샵점","tel":"","addr":"경기도 하남시 덕풍동 946번지 하남더샵센트럴뷰 상가동 105호","indutype":"유통업 영리 - 편 의 점","category":"other"},{"name":"더샵 명품세탁소","tel":"031-765-5602","addr":"경기도 하남시 덕풍동 946번지 하남더샵센트럴뷰 상가 203호","indutype":"수리서비스 - 세탁소","category":"other"},{"name":"솔예술기획","tel":"","addr":"경기도 하남시 덕풍동 946번지 하남더샵센트럴뷰 109동 404호","indutype":"문화.취미 - 티켓","category":"other"},{"name":"스타엠씨","tel":"070-8200-9983","addr":"경기도 하남시 덕풍동 946번지 하남더샵센트럴뷰 105동 902호","indutype":"용역 서비스 - 사무서비스","category":"other"}]},{"lat":"37.536296255","long":"127.20234126","imageIndex":17,"items":[{"name":"GS25하남동부점","tel":"080-555-2525","addr":"경기도 하남시 덕풍동 431-6번지 1층 상가","indutype":"유통업 영리 - 편 의 점","category":"other"}]},{"lat":"37.542592198","long":"127.19811483","imageIndex":17,"items":[{"name":"GS25하남서해점","tel":"","addr":"경기도 하남시 덕풍동 347-5번지 1층","indutype":"유통업 영리 - 편 의 점","category":"other"}]},{"lat":"37.532988102","long":"127.19786352","imageIndex":17,"items":[{"name":"GS25하남한솔점","tel":"","addr":"경기도 하남시 덕풍동 548-11번지","indutype":"유통업 영리 - 편 의 점","category":"other"}]},{"lat":"37.535678098","long":"127.20556415","imageIndex":17,"items":[{"name":"JOINING카오디오","tel":"031-791-8518","addr":"경기도 하남시 덕풍동 470-30번지 1층","indutype":"회원제형태 - 기타3","category":"other"},{"name":"하남종합사료","tel":"031-793-9300","addr":"경기도 하남시 덕풍동 470-30번지","indutype":"농업 - 비료,사료,종자","category":"other"}]},{"lat":"37.551265629","long":"127.20527817","imageIndex":17,"items":[{"name":"K텔레콤","tel":"031-795-5771","addr":"경기도 하남시 덕풍동 226-6번지 106호","indutype":"사무통신 - 통신기기","category":"other"}]},{"lat":"37.54806541","long":"127.21144808","imageIndex":17,"items":[{"name":"MOTHER 1946(마더 1946)","tel":"","addr":"경기도 하남시 덕풍동 809-1번지 102호","indutype":"문화.취미 - 문화취미기타","category":"other"},{"name":"마이리틀앤","tel":"","addr":"경기도 하남시 덕풍동 809-1번지 101호","indutype":"서적문구 - 일반서적","category":"other"}]},{"lat":"37.549258426","long":"127.1987546","imageIndex":17,"items":[{"name":"SUNNY(써니)","tel":"031-796-1921","addr":"경기도 하남시 덕풍동 782-3번지","indutype":"의류 - 정장","category":"other"}]},{"lat":"37.551953674","long":"127.20858449","imageIndex":17,"items":[{"name":"T-맥스 홀딩스","tel":"031-793-3723","addr":"경기도 하남시 덕풍동 742번지 트윈렉스오파스텔 B동 7층 13호","indutype":"전기제품 - 기타전기제품","category":"other"},{"name":"대가인테리어","tel":"070-8755-8222","addr":"경기도 하남시 덕풍동 742번지 트윈렉스2 B동 2층 204호","indutype":"건축자재 - 인테리어전문","category":"other"},{"name":"두뇌로 수학 미사지사","tel":"","addr":"경기도 하남시 덕풍동 742번지 트윈렉스2 7층 719호","indutype":"서적문구 - 일반서적","category":"other"},{"name":"알파 하남풍산점","tel":"031-793-2684","addr":"경기도 하남시 덕풍동 742번지 트윈렉스2 B동 209호","indutype":"서적문구 - 문구용품","category":"other"},{"name":"엔터페이스 경기동부지사","tel":"02-1661-3030","addr":"경기도 하남시 덕풍동 742번지 트윈렉스2 B동 8층 804호","indutype":"전기제품 - 기타전기제품","category":"other"},{"name":"하남문화평생교육원","tel":"031-795-3790","addr":"경기도 하남시 덕풍동 742번지 3층 B-305호","indutype":"문화.취미 - 문화취미기타","category":"other"},{"name":"하트레지던스공인중개사사무소","tel":"","addr":"경기도 하남시 덕풍동 742번지 트윈렉스2 3층 309호","indutype":"용역 서비스 - 부동산 중개·임대","category":"other"},{"name":"한국문화센터 하남지부","tel":"031-795-3790","addr":"경기도 하남시 덕풍동 742번지 트윈렉스2 3층 B-305호","indutype":"용역 서비스 - 사무서비스","category":"other"}]},{"lat":"37.555325063","long":"127.20233538","imageIndex":17,"items":[{"name":"The Bible 교회","tel":"031-792-3371","addr":"경기도 하남시 덕풍동 728번지 우남퍼스트빌리젠트 104동 B1층 201호","indutype":"기타 - 비영리/대상","category":"other"}]},{"lat":"37.550542452","long":"127.20666814","imageIndex":17,"items":[{"name":"WMDK하남점","tel":"031-322-9013","addr":"경기도 하남시 덕풍동 226-11번지 1층","indutype":"가구 - 일반가구","category":"other"}]},{"lat":"37.537293151","long":"127.19887039","imageIndex":17,"items":[{"name":"Y.G.에어컨","tel":"02-1111-1111","addr":"경기도 하남시 덕풍동 370-134번지 오성파크빌 301호","indutype":"용역 서비스 - 기타용역서비스","category":"other"}]},{"lat":"37.539704081","long":"127.2010944","imageIndex":17,"items":[{"name":"by 율리아(by yulia)","tel":"070-5022-4846","addr":"경기도 하남시 덕풍동 378-8번지","indutype":"신변잡화 - 기타잡화","category":"other"}]},{"lat":"37.538409447","long":"127.19942773","imageIndex":17,"items":[{"name":"stroll(스트롤)","tel":"031-791-5813","addr":"경기도 하남시 덕풍동 369-4번지 한솔파로스 101동 501호","indutype":"문화.취미 - 애완동물","category":"other"}]},{"lat":"37.537600571","long":"127.20358933","imageIndex":17,"items":[{"name":"가구리더","tel":"031-794-7128","addr":"경기도 하남시 덕풍동 420-26번지 산호하이츠빌라","indutype":"유통업 영리 - 통신판매업1","category":"other"},{"name":"가구리더","tel":"070-4419-7300","addr":"경기도 하남시 덕풍동 420-26번지 산호하이츠빌라 602호","indutype":"가구 - 일반가구","category":"other"}]},{"lat":"37.5417601","long":"127.20003622","imageIndex":17,"items":[{"name":"가구할인백화점","tel":"031-794-8376","addr":"경기도 하남시 덕풍동 356-4번지 1층","indutype":"가구 - 일반가구","category":"other"},{"name":"제이에스이피커뮤니케이션즈","tel":"","addr":"경기도 하남시 덕풍동 356-4번지 102동","indutype":"용역 서비스 - 종합용역","category":"other"}]},{"lat":"37.547815089","long":"127.21033841","imageIndex":17,"items":[{"name":"가람골프존","tel":"031-795-0759","addr":"경기도 하남시 덕풍동 814번지","indutype":"레져용품 - 골프용품 전문점","category":"other"}]},{"lat":"37.540711791","long":"127.20192306","imageIndex":17,"items":[{"name":"가방","tel":"031-791-4773","addr":"경기도 하남시 덕풍동 390-3번지","indutype":"신변잡화 - 가방","category":"other"}]},{"lat":"37.534739898","long":"127.20094549","imageIndex":17,"items":[{"name":"가온인테리어","tel":"031-794-7677","addr":"경기도 하남시 덕풍동 445-1번지 103호","indutype":"직물 - 카페트,커튼,천막,지물","category":"other"},{"name":"강쥐와냥이하남직영점","tel":"070-8862-8292","addr":"경기도 하남시 덕풍동 445-1번지 1층","indutype":"문화.취미 - 애완동물","category":"other"},{"name":"데코하우스","tel":"031-793-0073","addr":"경기도 하남시 덕풍동 445-1번지","indutype":"신변잡화 - 액세서리","category":"other"}]},{"lat":"37.549323424","long":"127.20822646","imageIndex":17,"items":[{"name":"강일상회","tel":"070-4129-9512","addr":"경기도 하남시 덕풍동 794번지 휴먼시아새뜰마을3단지 307동 1505호","indutype":"회원제형태 - 기타1","category":"other"},{"name":"청소대마왕","tel":"","addr":"경기도 하남시 덕풍동 794번지 휴먼시아세뜰마을3단지 307동 1201호","indutype":"회원제형태 - 기타4","category":"other"}]},{"lat":"37.54095618","long":"127.20125612","imageIndex":17,"items":[{"name":"거성기획","tel":"031-971-8657","addr":"경기도 하남시 덕풍동 387-9번지 1층","indutype":"건축자재 - 인테리어전문","category":"other"}]},{"lat":"37.536296145","long":"127.20767028","imageIndex":17,"items":[{"name":"거인상사","tel":"031-795-9199","addr":"경기도 하남시 덕풍동 467-7번지","indutype":"농업 - 기타농업관련","category":"other"},{"name":"동부유통애견용품","tel":"031-792-2572","addr":"경기도 하남시 덕풍동 467-7번지 외1필지","indutype":"문화.취미 - 애완동물","category":"other"},{"name":"보훈무도학원","tel":"031-795-8326","addr":"경기도 하남시 덕풍동 467-7번지","indutype":"회원제형태 - 레져업소","category":"other"},{"name":"현진건설","tel":"031-792-3866","addr":"경기도 하남시 덕풍동 467-7번지 1층","indutype":"건축자재 - 페인트","category":"other"}]},{"lat":"37.551288051","long":"127.20794894","imageIndex":17,"items":[{"name":"건강&덤","tel":"031-753-2189","addr":"경기도 하남시 덕풍동 744-1번지 리치플러스하남센터 110호","indutype":"가구 - 일반가구","category":"other"},{"name":"산모아기사랑(하남점)","tel":"031-795-9509","addr":"경기도 하남시 덕풍동 744-1번지 리치플러스하남센터 505호","indutype":"의류 - 아동의류","category":"other"},{"name":"씨제이올리브네트웍스(주)하남풍산점","tel":"031-791-2702","addr":"경기도 하남시 덕풍동 744-1번지","indutype":"유통업 영리 - 편 의 점","category":"other"},{"name":"주식회사 와이케이동그라미 하남지점","tel":"070-7836-6026","addr":"경기도 하남시 덕풍동 744-1번지 리치플러스빌딩 9층","indutype":"기타의료기관 - 산후조리원","category":"other"}]},{"lat":"37.539461291","long":"127.20081089","imageIndex":17,"items":[{"name":"건영지물포","tel":"031-794-6966","addr":"경기도 하남시 덕풍동 373-12번지","indutype":"직물 - 카페트,커튼,천막,지물","category":"other"},{"name":"더밝은전기조명","tel":"031-796-2046","addr":"경기도 하남시 덕풍동 373-12번지 1층 106호","indutype":"건축자재 - 조명기구","category":"other"}]},{"lat":"37.55172758","long":"127.20907048","imageIndex":17,"items":[{"name":"게임RYU","tel":"031-000-0000","addr":"경기도 하남시 덕풍동 742-2번지 110호","indutype":"서적문구 - 완구점","category":"other"},{"name":"블루스타","tel":"","addr":"경기도 하남시 덕풍동 742-2번지 108호","indutype":"기타 - 기타 전문점","category":"other"},{"name":"커튼이야기(원플러스 미사점)","tel":"031-792-0063","addr":"경기도 하남시 덕풍동 742-2번지 하남프라자 108호","indutype":"직물 - 카페트,커튼,천막,지물","category":"other"}]},{"lat":"37.548373597","long":"127.21039654","imageIndex":17,"items":[{"name":"견공작소","tel":"","addr":"경기도 하남시 덕풍동 810번지 103호","indutype":"문화.취미 - 애완동물","category":"other"},{"name":"또까미","tel":"031-791-7404","addr":"경기도 하남시 덕풍동 810번지 103호","indutype":"신변잡화 - 시계","category":"other"}]},{"lat":"37.537068279","long":"127.20400653","imageIndex":17,"items":[{"name":"경기열쇠","tel":"031-792-1304","addr":"경기도 하남시 덕풍동 420-35번지","indutype":"기타 - 기계공구","category":"other"},{"name":"비비드","tel":"031-792-1090","addr":"경기도 하남시 덕풍동 420-35번지","indutype":"신변잡화 - 액세서리","category":"other"},{"name":"엘리트","tel":"031-795-7641","addr":"경기도 하남시 덕풍동 420-35번지 102호","indutype":"의류 - 단체복","category":"other"}]},{"lat":"37.543178759","long":"127.20294799","imageIndex":17,"items":[{"name":"경동나비엔 하남대리점(승보상사)","tel":"031-794-8114","addr":"경기도 하남시 덕풍동 309-70번지 1층","indutype":"건축자재 - 보일러·펌프·샷시","category":"other"}]},{"lat":"37.549068205","long":"127.19936518","imageIndex":17,"items":[{"name":"고운최치원도서관","tel":"031-792-5757","addr":"경기도 하남시 덕풍동 214-29번지","indutype":"기타 - 비영리/대상","category":"other"}]},{"lat":"37.542511614","long":"127.19780911","imageIndex":17,"items":[{"name":"고향세탁소","tel":"031-793-6596","addr":"경기도 하남시 덕풍동 346-4번지 1층 110호","indutype":"수리서비스 - 세탁소","category":"other"}]},{"lat":"37.537960444","long":"127.20389578","imageIndex":17,"items":[{"name":"골드뱅크","tel":"031-793-9010","addr":"경기도 하남시 덕풍동 419-13번지","indutype":"신변잡화 - 액세서리","category":"other"},{"name":"씨제이올리브영(주)하남신장점","tel":"031-795-5210","addr":"경기도 하남시 덕풍동 419-13번지","indutype":"유통업 영리 - 편 의 점","category":"other"}]},{"lat":"37.542428251","long":"127.20453011","imageIndex":17,"items":[{"name":"골프원","tel":"031-792-8253","addr":"경기도 하남시 덕풍동 321-2번지 신정프라자 403호","indutype":"레져용품 - 골프용품 전문점","category":"other"},{"name":"런던양복점","tel":"031-791-7080","addr":"경기도 하남시 덕풍동 321-2번지 신정프라자 106호","indutype":"의류 - 맞춤복점","category":"other"},{"name":"신발가게할인매장","tel":"031-791-5161","addr":"경기도 하남시 덕풍동 321-2번지 3 신정프라자 105호","indutype":"신변잡화 - 신발","category":"other"},{"name":"씨유하남신정점","tel":"031-795-2526","addr":"경기도 하남시 덕풍동 321-2,3 신정프라자 108","indutype":"유통업 영리 - 편 의 점","category":"other"},{"name":"알레르망덕풍점","tel":"031-793-0357","addr":"경기도 하남시 덕풍동 321-2번지 신정프라자103 1층 103호~104호","indutype":"직물 - 침구·수예점","category":"other"},{"name":"오감","tel":"031-794-8445","addr":"경기도 하남시 덕풍동 321-2번지 신정프라자 106호","indutype":"의류 - 정장","category":"other"},{"name":"조경희세무회계사무소","tel":"031-699-8223","addr":"경기도 하남시 덕풍동 321-2번지 신정프라자 202호","indutype":"용역 서비스 - 법률회계서비스(개인)","category":"other"},{"name":"헬로우(Hello)","tel":"","addr":"경기도 하남시 덕풍동 321-2번지 신정프라자 101호","indutype":"의류 - 내의판매","category":"other"}]},{"lat":"37.539623183","long":"127.20098104","imageIndex":17,"items":[{"name":"광명전기","tel":"031-796-6100","addr":"경기도 하남시 덕풍동 378-7번지 지층 일부","indutype":"건축자재 - 조명기구","category":"other"}]},{"lat":"37.541071955","long":"127.20205979","imageIndex":17,"items":[{"name":"광진골드","tel":"031-791-5793","addr":"경기도 하남시 덕풍동 390-6번지","indutype":"신변잡화 - 귀금속","category":"other"}]},{"lat":"37.555596901","long":"127.20141941","imageIndex":17,"items":[{"name":"궁중무예관","tel":"031-796-2902","addr":"경기도 하남시 덕풍동 706-1번지 301호","indutype":"회원제형태 - 레져업소","category":"other"},{"name":"주식회사젤리젤리","tel":"031-796-7314","addr":"경기도 하남시 덕풍동 706-1번지 연수빌딩 4층","indutype":"유통업 영리 - 편 의 점","category":"other"}]},{"lat":"37.53840179","long":"127.20397617","imageIndex":17,"items":[{"name":"그리스","tel":"031-795-3767","addr":"경기도 하남시 덕풍동 419-42번지","indutype":"의류 - 정장","category":"other"},{"name":"우노에(UNOE)","tel":"","addr":"경기도 하남시 덕풍동 419-42번지","indutype":"문화.취미 - 화원","category":"other"},{"name":"이마트24 하남신장로점","tel":"","addr":"경기도 하남시 덕풍동 419-42번지 102호","indutype":"유통업 영리 - 편 의 점","category":"other"},{"name":"카라 케이(Kara K)","tel":"","addr":"경기도 하남시 덕풍동 419-42번지 1층","indutype":"문화.취미 - 화원","category":"other"}]},{"lat":"37.541287675","long":"127.20236587","imageIndex":17,"items":[{"name":"글로리아애견","tel":"031-791-2904","addr":"경기도 하남시 덕풍동 397-6번지","indutype":"문화.취미 - 애완동물","category":"other"}]},{"lat":"37.544484315","long":"127.19808582","imageIndex":17,"items":[{"name":"글로아이","tel":"031-594-6851","addr":"경기도 하남시 덕풍동 342-1번지","indutype":"회원제형태 - 기타4","category":"other"},{"name":"홈아트","tel":"031-791-0977","addr":"경기도 하남시 덕풍동 342-1번지","indutype":"직물 - 카페트,커튼,천막,지물","category":"other"}]},{"lat":"37.541570345","long":"127.20036386","imageIndex":17,"items":[{"name":"금강금속창호","tel":"031-791-2596","addr":"경기도 하남시 덕풍동 383-11번지","indutype":"용역 서비스 - 기타용역서비스","category":"other"}]},{"lat":"37.539848485","long":"127.20094769","imageIndex":17,"items":[{"name":"금강종합공사","tel":"031-795-6826","addr":"경기도 하남시 덕풍동 378-5번지","indutype":"건축자재 - 목재·석재·철물","category":"other"}]},{"lat":"37.542708885","long":"127.20375012","imageIndex":17,"items":[{"name":"금노젠","tel":"031-796-3663","addr":"경기도 하남시 덕풍동 322-4번지","indutype":"신변잡화 - 시계","category":"other"},{"name":"덕구 (덕풍구제)","tel":"","addr":"경기도 하남시 덕풍동 322-4번지 103호","indutype":"의류 - 기타의류","category":"other"}]},{"lat":"37.543736126","long":"127.19831017","imageIndex":17,"items":[{"name":"금성미싱","tel":"031-794-7215","addr":"경기도 하남시 덕풍동 342-32번지","indutype":"기타 - 기계공구","category":"other"}]},{"lat":"37.542570742","long":"127.2055036","imageIndex":17,"items":[{"name":"금하장의특수","tel":"070-8848-8425","addr":"경기도 하남시 덕풍동 319번지 백남빌딩 B2층","indutype":"용역 서비스 - 가례서비스업","category":"other"},{"name":"포도나무실버타운믿음점","tel":"031-796-0600","addr":"경기도 하남시 덕풍동 319번지 백남빌딩 3층","indutype":"기타의료기관 - 기타의료기관 및 기타","category":"other"},{"name":"포도나무실버타운소망점","tel":"031-796-0600","addr":"경기도 하남시 덕풍동 319번지 백남빌딩 3층","indutype":"기타의료기관 - 기타의료기관 및 기타","category":"other"}]},{"lat":"37.540126953","long":"127.20144628","imageIndex":17,"items":[{"name":"김향환콜렉션","tel":"031-794-4488","addr":"경기도 하남시 덕풍동 393-1번지","indutype":"의류 - 정장","category":"other"},{"name":"은하침구","tel":"031-794-3757","addr":"경기도 하남시 덕풍동 393-1번지","indutype":"직물 - 침구·수예점","category":"other"}]},{"lat":"37.535462255","long":"127.20000833","imageIndex":17,"items":[{"name":"꼼므지","tel":"070-8623-7187","addr":"경기도 하남시 덕풍동 435-177번지 1층","indutype":"신변잡화 - 제화","category":"other"}]},{"lat":"37.552585958","long":"127.1969979","imageIndex":17,"items":[{"name":"꿈빛유리방","tel":"","addr":"경기도 하남시 덕풍동 765번지 제일풍경채2단지 206동 303호","indutype":"문화.취미 - 민예·공예품","category":"other"}]},{"lat":"37.550930829","long":"127.20611469","imageIndex":17,"items":[{"name":"나룰스크린","tel":"031-793-6336","addr":"경기도 하남시 덕풍동 226-10번지","indutype":"회원제형태 - 레져업소","category":"other"},{"name":"프로바이크","tel":"031-794-1999","addr":"경기도 하남시 덕풍동 226-18번지 102호","indutype":"레져용품 - 스포츠·레져용품","category":"other"}]},{"lat":"37.543933104","long":"127.1990575","imageIndex":17,"items":[{"name":"낭만출력소","tel":"","addr":"경기도 하남시 덕풍동 341-8번지 401호","indutype":"광학제품 - 사진관","category":"other"}]},{"lat":"37.539098939","long":"127.20197534","imageIndex":17,"items":[{"name":"네오텔레콤","tel":"031-796-4644","addr":"경기도 하남시 덕풍동 372-18번지 1층","indutype":"사무통신 - 통신기기","category":"other"},{"name":"유지아이젯(UGIZ)","tel":"031-796-8092","addr":"경기도 하남시 덕풍동 372-18번지","indutype":"의류 - 정장","category":"other"},{"name":"하남컴퓨터전문점","tel":"031-792-6733","addr":"경기도 하남시 덕풍동 372-18번지","indutype":"전기제품 - 가전제품","category":"other"}]},{"lat":"37.538655718","long":"127.2030038","imageIndex":17,"items":[{"name":"니마","tel":"070-4415-9936","addr":"경기도 하남시 덕풍동 418-9번지 1층","indutype":"신변잡화 - 신발","category":"other"},{"name":"라피스라쥴리","tel":"031-793-3663","addr":"경기도 하남시 덕풍동 418-9번지","indutype":"신변잡화 - 액세서리","category":"other"},{"name":"올리비아하슬러경기하남점","tel":"031-795-6766","addr":"경기도 하남시 덕풍동 418-9번지","indutype":"레져용품 - 스포츠·레져용품","category":"other"},{"name":"하빌리어","tel":"031-000-0000","addr":"경기도 하남시 덕풍동 418-9번지 1층 101호","indutype":"의류 - 정장","category":"other"}]},{"lat":"37.542123901","long":"127.20336383","imageIndex":17,"items":[{"name":"다모아","tel":"031-794-7952","addr":"경기도 하남시 덕풍동 326-124번지 102호","indutype":"의류 - 기타의류","category":"other"},{"name":"도프론","tel":"031-794-8949","addr":"경기도 하남시 덕풍동 326-124번지 103호","indutype":"직물 - 침구·수예점","category":"other"},{"name":"로렌스민커텐","tel":"031-794-8949","addr":"경기도 하남시 덕풍동 326-124번지","indutype":"직물 - 침구·수예점","category":"other"},{"name":"이화공사","tel":"031-793-1104","addr":"경기도 하남시 덕풍동 326-124번지","indutype":"건축자재 - 유리","category":"other"}]},{"lat":"37.537121175","long":"127.19934515","imageIndex":17,"items":[{"name":"다산이엔지(ENG)","tel":"031-796-9377","addr":"경기도 하남시 덕풍동 370-124번지","indutype":"주방용구 - 주방용구","category":"other"}]},{"lat":"37.542513716","long":"127.20195048","imageIndex":17,"items":[{"name":"다솔제화","tel":"031-794-3265","addr":"경기도 하남시 덕풍동 330-9번지","indutype":"신변잡화 - 제화","category":"other"}]},{"lat":"37.540344953","long":"127.20039457","imageIndex":17,"items":[{"name":"다연통신","tel":"","addr":"경기도 하남시 덕풍동 379-8번지 흥진빌딩 1층","indutype":"사무통신 - 통신기기","category":"other"}]},{"lat":"37.541453917","long":"127.1999449","imageIndex":17,"items":[{"name":"다온인테리어","tel":"031-791-3757","addr":"경기도 하남시 덕풍동 358-2번지","indutype":"직물 - 카페트,커튼,천막,지물","category":"other"},{"name":"대박마을복권방","tel":"031-796-3541","addr":"경기도 하남시 덕풍동 358-2번지","indutype":"기타 - 기타 전문점","category":"other"},{"name":"한남타일","tel":"031-792-2826","addr":"경기도 하남시 덕풍동 358-2번지","indutype":"건축자재 - 건축용 요업제품","category":"other"}]},{"lat":"37.533760478","long":"127.20469911","imageIndex":17,"items":[{"name":"달란트","tel":"031-795-1997","addr":"경기도 하남시 덕풍동 488","indutype":"서적문구 - 문구용품","category":"other"}]},{"lat":"37.540792746","long":"127.20200248","imageIndex":17,"items":[{"name":"대경지물","tel":"031-794-7132","addr":"경기도 하남시 덕풍동 390-15번지","indutype":"직물 - 기타직물","category":"other"}]},{"lat":"37.538069792","long":"127.20317195","imageIndex":17,"items":[{"name":"대령체육사","tel":"031-791-6001","addr":"경기도 하남시 덕풍동 424-3번지","indutype":"서적문구 - 문구용품","category":"other"}]},{"lat":"37.542822395","long":"127.20586637","imageIndex":17,"items":[{"name":"대명샷시유리","tel":"031-795-0865","addr":"경기도 하남시 덕풍동 317-35번지","indutype":"건축자재 - 유리","category":"other"}]},{"lat":"37.54432268","long":"127.19775725","imageIndex":17,"items":[{"name":"대명차유리","tel":"031-794-9988","addr":"경기도 하남시 덕풍동 344번지","indutype":"건축자재 - 유리","category":"other"},{"name":"신진철물","tel":"031-791-3553","addr":"경기도 하남시 덕풍동 344번지","indutype":"회원제형태 - 기타4","category":"other"},{"name":"신진철물건재","tel":"031-791-3553","addr":"경기도 하남시 덕풍동 344번지","indutype":"기타 - 기계공구","category":"other"},{"name":"하남천막앵글","tel":"031-792-0123","addr":"경기도 하남시 덕풍동 344번지","indutype":"직물 - 카페트,커튼,천막,지물","category":"other"}]},{"lat":"37.543069025","long":"127.19853474","imageIndex":17,"items":[{"name":"대산공구","tel":"031-791-9333","addr":"경기도 하남시 덕풍동 345-8번지","indutype":"건축자재 - 보일러·펌프·샷시","category":"other"}]},{"lat":"37.542398545","long":"127.20609153","imageIndex":17,"items":[{"name":"대성시스템","tel":"02-445-8898","addr":"경기도 하남시 덕풍동 317-41번지","indutype":"용역 서비스 - 기타용역서비스","category":"other"}]},{"lat":"37.536179684","long":"127.20728528","imageIndex":17,"items":[{"name":"대성안전건설 주식회사","tel":"031-791-2901","addr":"경기도 하남시 덕풍동 467-6번지","indutype":"용역 서비스 - 기타용역서비스","category":"other"},{"name":"한주종합공구","tel":"031-794-0989","addr":"경기도 하남시 덕풍동 467-6번지","indutype":"기타 - 기계공구","category":"other"}]},{"lat":"37.537957106","long":"127.20053536","imageIndex":17,"items":[{"name":"대성엔지니어링","tel":"031-793-5263","addr":"경기도 하남시 덕풍동 371-13번지","indutype":"용역 서비스 - 기타용역서비스","category":"other"}]},{"lat":"37.535846566","long":"127.20186487","imageIndex":17,"items":[{"name":"대신인테리어씽크","tel":"031-793-9233","addr":"경기도 하남시 덕풍동 431-16번지","indutype":"주방용구 - 주방용구","category":"other"},{"name":"준하우징","tel":"070-7534-5151","addr":"경기도 하남시 덕풍동 431-16번지 1층","indutype":"직물 - 카페트,커튼,천막,지물","category":"other"}]},{"lat":"37.541795401","long":"127.20047761","imageIndex":17,"items":[{"name":"대양ENG","tel":"031-794-5535","addr":"경기도 하남시 덕풍동 356-21번지","indutype":"건축자재 - 인테리어전문","category":"other"}]},{"lat":"37.544069863","long":"127.19808474","imageIndex":17,"items":[{"name":"대우디지털 OA","tel":"031-792-3211","addr":"경기도 하남시 덕풍동 342-36번지 1층","indutype":"사무통신 - 사무용 OA기기","category":"other"},{"name":"대우통신(주)하남대리점","tel":"031-792-3211","addr":"경기도 하남시 덕풍동 342-36번지","indutype":"사무통신 - 사무용 OA기기","category":"other"}]},{"lat":"37.536789167","long":"127.20389264","imageIndex":17,"items":[{"name":"대우하남총대리점","tel":"031-791-7333","addr":"경기도 하남시 덕풍동 420-5번지","indutype":"전기제품 - 가전제품","category":"other"},{"name":"세븐일레븐하남덕풍점","tel":"","addr":"경기도 하남시 덕풍동 420-5번지","indutype":"유통업 영리 - 편 의 점","category":"other"}]},{"lat":"37.53837626","long":"127.20309357","imageIndex":17,"items":[{"name":"대진상사","tel":"031-796-7111","addr":"경기도 하남시 덕풍동 418-5번지 1층","indutype":"레져용품 - 스포츠·레져용품","category":"other"}]},{"lat":"37.538765289","long":"127.20214418","imageIndex":17,"items":[{"name":"대한무선통신","tel":"031-794-4584","addr":"경기도 하남시 덕풍동 372-29번지","indutype":"사무통신 - 통신기기","category":"other"},{"name":"폴리아트문구센터","tel":"031-796-4227","addr":"경기도 하남시 덕풍동 372-29번지 대화빌딩 1층","indutype":"사무통신 - 기타 사무용품","category":"other"}]},{"lat":"37.540426231","long":"127.20028164","imageIndex":17,"items":[{"name":"대한불교대각종관보사","tel":"031-758-5108","addr":"경기도 하남시 덕풍동 379-6번지 2층 201호","indutype":"기타 - 비영리/대상","category":"other"}]},{"lat":"37.541678368","long":"127.20042072","imageIndex":17,"items":[{"name":"더원공조시스템","tel":"031-791-7687","addr":"경기도 하남시 덕풍동 383-1번지","indutype":"용역 서비스 - 기타용역서비스","category":"other"}]},{"lat":"37.544014699","long":"127.1987522","imageIndex":17,"items":[{"name":"덕산건축","tel":"031-794-4482","addr":"경기도 하남시 덕풍동 341-10번지","indutype":"건축자재 - 보일러·펌프·샷시","category":"other"}]},{"lat":"37.542204907","long":"127.19803461","imageIndex":17,"items":[{"name":"덕풍2동 주민자치위원회","tel":"031-790-6655","addr":"경기도 하남시 덕풍동 693번지","indutype":"문화.취미 - 문화취미기타","category":"other"}]},{"lat":"37.536731779","long":"127.19506731","imageIndex":17,"items":[{"name":"덕풍건축자재","tel":"031-794-8928","addr":"경기도 하남시 덕풍동 564-11번지","indutype":"건축자재 - 기타건축자재","category":"other"}]},{"lat":"37.540126439","long":"127.20175178","imageIndex":17,"items":[{"name":"덕풍유리","tel":"031-794-8546","addr":"경기도 하남시 덕풍동 393-5번지","indutype":"건축자재 - 유리","category":"other"},{"name":"종합의류","tel":"031-794-4247","addr":"경기도 하남시 덕풍동 393-5번지","indutype":"의류 - 정장","category":"other"},{"name":"퀸","tel":"031-795-1222","addr":"경기도 하남시 덕풍동 393-5번지","indutype":"신변잡화 - 액세서리","category":"other"}]},{"lat":"37.539376179","long":"127.19781226","imageIndex":17,"items":[{"name":"도그클럽","tel":"031-793-8314","addr":"경기도 하남시 덕풍동 364-13번지","indutype":"문화.취미 - 애완동물","category":"other"},{"name":"어울림세탁소","tel":"031-794-9141","addr":"경기도 하남시 덕풍동 364-13번지 102호","indutype":"수리서비스 - 세탁소","category":"other"}]},{"lat":"37.533012826","long":"127.19925518","imageIndex":17,"items":[{"name":"도배장판타일공사","tel":"031-791-3822","addr":"경기도 하남시 덕풍동 537-1번지 덕풍쌍용@제상가동제2층203호(1/2)","indutype":"건축자재 - 인테리어전문","category":"other"},{"name":"현대종합공사","tel":"031-795-9204","addr":"경기도 하남시 덕풍동 537-1","indutype":"건축자재 - 인테리어전문","category":"other"}]},{"lat":"37.537428537","long":"127.2040867","imageIndex":17,"items":[{"name":"동신종묘","tel":"031-792-2771","addr":"경기도 하남시 덕풍동 420-4번지","indutype":"농업 - 비료,사료,종자","category":"other"}]},{"lat":"37.533628774","long":"127.20267358","imageIndex":17,"items":[{"name":"동진철물","tel":"031-111-1111","addr":"경기도 하남시 덕풍동 515-43번지 1층","indutype":"건축자재 - 목재·석재·철물","category":"other"}]},{"lat":"37.553619795","long":"127.20375676","imageIndex":17,"items":[{"name":"두성기업","tel":"033-553-1913","addr":"경기도 하남시 덕풍동 731번지 풍산아이파크 507동 503호","indutype":"주방용구 - 주방용구","category":"other"}]},{"lat":"37.542177018","long":"127.20391842","imageIndex":17,"items":[{"name":"두에스테틱","tel":"031-794-9217","addr":"경기도 하남시 덕풍동 326-120번지","indutype":"회원제형태 - 기타4","category":"other"}]},{"lat":"37.548705944","long":"127.21097459","imageIndex":17,"items":[{"name":"디자인더미","tel":"031-792-4551","addr":"경기도 하남시 덕풍동 806-1번지 101호","indutype":"직물 - 카페트,커튼,천막,지물","category":"other"}]},{"lat":"37.541264427","long":"127.20011412","imageIndex":17,"items":[{"name":"디자인드림","tel":"031-792-7481","addr":"경기도 하남시 덕풍동 383-9번지","indutype":"건축자재 - 인테리어전문","category":"other"},{"name":"엘리스","tel":"031-792-4704","addr":"경기도 하남시 덕풍동 383-9번지 1층","indutype":"의류 - 정장","category":"other"},{"name":"현주컴퓨터","tel":"031-793-0531","addr":"경기도 하남시 덕풍동 383-9번지 1층","indutype":"사무통신 - 컴퓨터","category":"other"}]},{"lat":"37.538179747","long":"127.20208605","imageIndex":17,"items":[{"name":"디자인모두","tel":"070-5123-6594","addr":"경기도 하남시 덕풍동 372-171번지 102호","indutype":"용역 서비스 - 종합용역","category":"other"}]},{"lat":"37.55614849","long":"127.20023256","imageIndex":17,"items":[{"name":"뜨는 아이 작업실","tel":"","addr":"경기도 하남시 덕풍동 707번지 3층","indutype":"문화.취미 - 문화취미기타","category":"other"}]},{"lat":"37.542623946","long":"127.20600162","imageIndex":17,"items":[{"name":"라인광고","tel":"031-792-4809","addr":"경기도 하남시 덕풍동 317-14번지","indutype":"용역 서비스 - 종합용역","category":"other"}]},{"lat":"37.54062473","long":"127.20011244","imageIndex":17,"items":[{"name":"라일락","tel":"031-791-5582","addr":"경기도 하남시 덕풍동 381-12번지 2층 라일락 한복","indutype":"의류 - 맞춤복점","category":"other"},{"name":"명금당","tel":"031-792-6124","addr":"경기도 하남시 덕풍동 381-12번지","indutype":"신변잡화 - 시계","category":"other"}]},{"lat":"37.551593755","long":"127.2083119","imageIndex":17,"items":[{"name":"라임 필라테스(LIME PILATES)","tel":"031-793-8367","addr":"경기도 하남시 덕풍동 743번지 트윈렉스 308호 A동상가","indutype":"회원제형태 - 레져업소","category":"other"}]},{"lat":"37.539287668","long":"127.20225871","imageIndex":17,"items":[{"name":"려액션체육관","tel":"031-795-3002","addr":"경기도 하남시 덕풍동 415-84번지 준빌딩 6층","indutype":"회원제형태 - 레져업소","category":"other"},{"name":"정수아트","tel":"02-2201-8024","addr":"경기도 하남시 덕풍동 415-84번지 202호","indutype":"신변잡화 - 액세서리","category":"other"},{"name":"한솔라이프","tel":"070-484-5454","addr":"경기도 하남시 덕풍동 415-84번지","indutype":"주방용구 - 주방용구","category":"other"}]},{"lat":"37.543122484","long":"127.19889697","imageIndex":17,"items":[{"name":"롯데가스기기하남점","tel":"031-791-0572","addr":"경기도 하남시 덕풍동 340-28번지","indutype":"건축자재 - 보일러·펌프·샷시","category":"other"}]},{"lat":"37.541596958","long":"127.20061286","imageIndex":17,"items":[{"name":"룡포토(RYONG PHOTO)","tel":"031-699-8938","addr":"경기도 하남시 덕풍동 384-3번지","indutype":"광학제품 - 사진관","category":"other"}]},{"lat":"37.534961193","long":"127.20328809","imageIndex":17,"items":[{"name":"루아데코","tel":"031-794-3194","addr":"경기도 하남시 덕풍동 511-33번지 1층","indutype":"직물 - 침구·수예점","category":"other"},{"name":"명 유통","tel":"02-1666-3042","addr":"경기도 하남시 덕풍동 511-33번지","indutype":"신변잡화 - 기타잡화","category":"other"},{"name":"빈티지샵","tel":"02-460-7913","addr":"경기도 하남시 덕풍동 511-33번지","indutype":"의류 - 정장","category":"other"},{"name":"수정부동산","tel":"031-791-6044","addr":"경기도 하남시 덕풍동 511-33","indutype":"용역 서비스 - 부동산 중개·임대","category":"other"}]},{"lat":"37.537294621","long":"127.20336222","imageIndex":17,"items":[{"name":"류뷰티랩(Ryu beauty Lab)","tel":"031-769-5488","addr":"경기도 하남시 덕풍동 421-7번지 1층","indutype":"회원제형태 - 기타4","category":"other"}]},{"lat":"37.551012151","long":"127.20597911","imageIndex":17,"items":[{"name":"리엔스토리","tel":"031-793-2204","addr":"경기도 하남시 덕풍동 226-19번지","indutype":"의류 - 정장","category":"other"}]},{"lat":"37.539236841","long":"127.20033508","imageIndex":17,"items":[{"name":"마실","tel":"","addr":"경기도 하남시 덕풍동 373-8번지","indutype":"의류 - 정장","category":"other"}]},{"lat":"37.538651618","long":"127.20008461","imageIndex":17,"items":[{"name":"마이프리티","tel":"070-8806-0450","addr":"경기도 하남시 덕풍동 370-14번지 1층 좌측호","indutype":"의류 - 정장","category":"other"},{"name":"청솔애드","tel":"031-791-9686","addr":"경기도 하남시 덕풍동 370-14번지 1층","indutype":"건축자재 - 인테리어전문","category":"other"}]},{"lat":"37.541956269","long":"127.20125877","imageIndex":17,"items":[{"name":"만물철물","tel":"031-699-8903","addr":"경기도 하남시 덕풍동 331-20번지","indutype":"건축자재 - 목재·석재·철물","category":"other"},{"name":"차세대간판및인테리어","tel":"031-791-9941","addr":"경기도 하남시 덕풍동 331-20번지","indutype":"용역 서비스 - 종합용역","category":"other"},{"name":"하우스119 LED조명","tel":"031-699-2007","addr":"경기도 하남시 덕풍동 331-20번지 1층 3호","indutype":"건축자재 - 인테리어전문","category":"other"}]},{"lat":"37.551721012","long":"127.20766721","imageIndex":17,"items":[{"name":"메종드 실","tel":"031-796-0570","addr":"경기도 하남시 덕풍동 744번지 KNMALL 3층 308호","indutype":"문화.취미 - 문화취미기타","category":"other"},{"name":"블럭앤조이","tel":"031-794-7955","addr":"경기도 하남시 덕풍동 744번지 케이엔몰 2층 203호","indutype":"서적문구 - 완구점","category":"other"},{"name":"소원컴퍼니","tel":"031-795-7758","addr":"경기도 하남시 덕풍동 744번지 4층 406호 KNMALL","indutype":"회원제형태 - 레져업소","category":"other"},{"name":"윈도우스타일 하남점","tel":"031-795-5992","addr":"경기도 하남시 덕풍동 744번지 KNMALL 2층 205호","indutype":"직물 - 카페트,커튼,천막,지물","category":"other"},{"name":"조이(JOY)스포츠아카데미","tel":"031-794-6875","addr":"경기도 하남시 덕풍동 744번지 KN몰601호","indutype":"회원제형태 - 레져업소","category":"other"},{"name":"페달세상","tel":"031-792-0163","addr":"경기도 하남시 덕풍동 744번지 KN몰 110호","indutype":"서적문구 - 완구점","category":"other"}]},{"lat":"37.539847877","long":"127.20130976","imageIndex":17,"items":[{"name":"명성쥬얼리","tel":"031-795-1524","addr":"경기도 하남시 덕풍동 378-10번지","indutype":"신변잡화 - 귀금속","category":"other"}]},{"lat":"37.543454712","long":"127.2049176","imageIndex":17,"items":[{"name":"문구와나","tel":"070-8760-5578","addr":"경기도 하남시 덕풍동 316-53번지 1층","indutype":"서적문구 - 문구용품","category":"other"}]},{"lat":"37.542571455","long":"127.19975548","imageIndex":17,"items":[{"name":"물푸레까페공방","tel":"031-791-4912","addr":"경기도 하남시 덕풍동 339-25번지 1층","indutype":"신변잡화 - 기타잡화","category":"other"}]},{"lat":"37.540596338","long":"127.20092704","imageIndex":17,"items":[{"name":"미건디자인건설","tel":"031-792-0412","addr":"경기도 하남시 덕풍동 389-2번지 2층 외2필지 1호","indutype":"건축자재 - 인테리어전문","category":"other"},{"name":"미니스톱 하남덕풍점","tel":"031-1577-9621","addr":"경기도 하남시 덕풍동 389-2번지","indutype":"유통업 영리 - 편 의 점","category":"other"},{"name":"하남삼천리","tel":"031-793-0727","addr":"경기도 하남시 덕풍동 389-2번지","indutype":"레져용품 - 스포츠·레져용품","category":"other"},{"name":"한국성경신학연구원","tel":"031-796-2739","addr":"경기도 하남시 덕풍동 389-2번지 3층","indutype":"기타 - 비영리/대상","category":"other"}]},{"lat":"37.537987184","long":"127.20406557","imageIndex":17,"items":[{"name":"미광사진관","tel":"031-792-3345","addr":"경기도 하남시 덕풍동 419-8번지","indutype":"광학제품 - 사진관","category":"other"},{"name":"보금장","tel":"031-792-3282","addr":"경기도 하남시 덕풍동 419-8번지","indutype":"신변잡화 - 귀금속","category":"other"},{"name":"패션클럽","tel":"031-796-3572","addr":"경기도 하남시 덕풍동 419-8번지","indutype":"의류 - 기타의류","category":"other"}]},{"lat":"37.546999426","long":"127.20791456","imageIndex":17,"items":[{"name":"미니스톱 새뜰휴먼시아점","tel":"031-1577-9621","addr":"경기도 하남시 덕풍동 822번지 휴먼시아새뜰마을 상가동","indutype":"유통업 영리 - 편 의 점","category":"other"}]},{"lat":"37.543538546","long":"127.19792494","imageIndex":17,"items":[{"name":"미래셔터","tel":"031-793-4005","addr":"경기도 하남시 덕풍동 345-38번지 203호","indutype":"건축자재 - 목재·석재·철물","category":"other"},{"name":"신한종합인테리어","tel":"031-796-5523","addr":"경기도 하남시 덕풍동 345-38번지","indutype":"직물 - 카페트,커튼,천막,지물","category":"other"}]},{"lat":"37.549154815","long":"127.21189245","imageIndex":17,"items":[{"name":"미래에어컨","tel":"","addr":"경기도 하남시 덕풍동 752-5번지 3층","indutype":"용역 서비스 - 기타용역서비스","category":"other"}]},{"lat":"37.542267809","long":"127.20351132","imageIndex":17,"items":[{"name":"미쎌","tel":"031-795-9749","addr":"경기도 하남시 덕풍동 326-4번지","indutype":"의류 - 정장","category":"other"}]},{"lat":"37.540927741","long":"127.20209336","imageIndex":17,"items":[{"name":"믿음꽃집","tel":"031-791-1409","addr":"경기도 하남시 덕풍동 390-8번지","indutype":"문화.취미 - 화원","category":"other"}]},{"lat":"37.53843164","long":"127.20231301","imageIndex":17,"items":[{"name":"바나나홀릭","tel":"070-4103-5045","addr":"경기도 하남시 덕풍동 산53-15번지","indutype":"의류 - 아동의류","category":"other"}]},{"lat":"37.533821862","long":"127.20036606","imageIndex":17,"items":[{"name":"바이더웨이하남덕풍점","tel":"02-2164-7239","addr":"경기도 하남시 덕풍동 441-15번지","indutype":"유통업 영리 - 편 의 점","category":"other"},{"name":"세븐일레븐하남덕풍본점","tel":"","addr":"경기도 하남시 덕풍동 441-15번지","indutype":"유통업 영리 - 편 의 점","category":"other"},{"name":"크린토피아","tel":"031-795-7422","addr":"경기도 하남시 덕풍동 441-15번지","indutype":"수리서비스 - 세탁소","category":"other"},{"name":"훈민정음","tel":"031-793-0133","addr":"경기도 하남시 덕풍동 441-15번지","indutype":"사무통신 - 통신기기","category":"other"}]},{"lat":"37.53742948","long":"127.2035323","imageIndex":17,"items":[{"name":"바이시클스토리","tel":"031-699-8308","addr":"경기도 하남시 덕풍동 420-53번지 1층 101호","indutype":"레져용품 - 스포츠·레져용품","category":"other"}]},{"lat":"37.546932029","long":"127.21039255","imageIndex":17,"items":[{"name":"바이크톡","tel":"031-792-0808","addr":"경기도 하남시 덕풍동 813-8번지","indutype":"레져용품 - 스포츠·레져용품","category":"other"}]},{"lat":"37.550316053","long":"127.20733519","imageIndex":17,"items":[{"name":"백두상사","tel":"","addr":"경기도 하남시 덕풍동 251-8번지 한스팰리스 A동 1층","indutype":"기타 - 기계공구","category":"other"}]},{"lat":"37.548452931","long":"127.21139258","imageIndex":17,"items":[{"name":"벨라스타일","tel":"031-795-3933","addr":"경기도 하남시 덕풍동 806-4번지 고운빌딩","indutype":"의류 - 정장","category":"other"}]},{"lat":"37.548182338","long":"127.21156157","imageIndex":17,"items":[{"name":"벨로킹","tel":"070-4178-3333","addr":"경기도 하남시 덕풍동 809번지 1층","indutype":"의류 - 정장","category":"other"},{"name":"자전거친구","tel":"070-4221-9963","addr":"경기도 하남시 덕풍동 809번지 1층","indutype":"레져용품 - 스포츠·레져용품","category":"other"}]},{"lat":"37.542788481","long":"127.19928081","imageIndex":17,"items":[{"name":"보루네오가구","tel":"031-793-3467","addr":"경기도 하남시 덕풍동 340-23번지","indutype":"가구 - 일반가구","category":"other"},{"name":"원창상사","tel":"031-791-1721","addr":"경기도 하남시 덕풍동 340-23번지 1층 1호","indutype":"의류 - 아동의류","category":"other"}]},{"lat":"37.538926721","long":"127.20258588","imageIndex":17,"items":[{"name":"보물세상","tel":"031-699-0815","addr":"경기도 하남시 덕풍동 416-15번지 지층","indutype":"신변잡화 - 기타잡화","category":"other"},{"name":"하남의류","tel":"031-795-0055","addr":"경기도 하남시 덕풍동 416-15번지 1층","indutype":"의류 - 정장","category":"other"}]},{"lat":"37.536458585","long":"127.20225118","imageIndex":17,"items":[{"name":"보물창고","tel":"02-1111-1111","addr":"경기도 하남시 덕풍동 429-3번지 1층 103호","indutype":"의류 - 정장","category":"other"}]},{"lat":"37.547345141","long":"127.20067331","imageIndex":17,"items":[{"name":"보성합판","tel":"031-794-0167","addr":"경기도 하남시 덕풍동 301-31번지","indutype":"기타 - 기계공구","category":"other"}]},{"lat":"37.54328999","long":"127.20639946","imageIndex":17,"items":[{"name":"보일러짱","tel":"","addr":"경기도 하남시 덕풍동 316-29번지 202호","indutype":"용역 서비스 - 기타용역서비스","category":"other"}]},{"lat":"37.544736589","long":"127.19808647","imageIndex":17,"items":[{"name":"복지상사","tel":"031-793-3259","addr":"경기도 하남시 덕풍동 343-11","indutype":"의류 - 기타의류","category":"other"}]},{"lat":"37.531039843","long":"127.19914818","imageIndex":17,"items":[{"name":"부림유통","tel":"","addr":"경기도 하남시 덕풍동 614번지","indutype":"서적문구 - 문구용품","category":"other"}]},{"lat":"37.543681425","long":"127.20405824","imageIndex":17,"items":[{"name":"불교연화원","tel":"02-485-5209","addr":"경기도 하남시 덕풍동 산23-20","indutype":"기타 - 비영리/대상","category":"other"}]},{"lat":"37.543685601","long":"127.2015915","imageIndex":17,"items":[{"name":"브래인체스&보드","tel":"","addr":"경기도 하남시 덕풍동 692번지 하남한솔솔파크 107동 1204호","indutype":"서적문구 - 기타서적문구","category":"other"}]},{"lat":"37.541013266","long":"127.19944588","imageIndex":17,"items":[{"name":"블로마","tel":"031-794-0311","addr":"경기도 하남시 덕풍동 358-1번지 무학프라자 318호","indutype":"신변잡화 - 액세서리","category":"other"}]},{"lat":"37.538068696","long":"127.20381687","imageIndex":17,"items":[{"name":"블루홍당무","tel":"031-973-3024","addr":"경기도 하남시 덕풍동 419-16번지 홍익빌딩 602호","indutype":"직물 - 침구·수예점","category":"other"},{"name":"하남 P.A.T","tel":"","addr":"경기도 하남시 덕풍동 419-16번지","indutype":"의류 - 스포츠의류","category":"other"}]},{"lat":"37.537844316","long":"127.20330712","imageIndex":17,"items":[{"name":"블링블링(Bling.Bling)","tel":"031-8028-5165","addr":"경기도 하남시 덕풍동 423-8번지","indutype":"의류 - 정장","category":"other"},{"name":"빽삼남매","tel":"031-794-9937","addr":"경기도 하남시 덕풍동 423-8번지 1층","indutype":"의류 - 정장","category":"other"},{"name":"여명스튜디오","tel":"031-791-2510","addr":"경기도 하남시 덕풍동 423-8번지","indutype":"광학제품 - 사진관","category":"other"},{"name":"하남종합광고공사(주)","tel":"031-791-6333","addr":"경기도 하남시 덕풍동 423-8번지","indutype":"용역 서비스 - 종합용역","category":"other"}]},{"lat":"37.533957859","long":"127.19985729","imageIndex":17,"items":[{"name":"비엔에프사운드","tel":"031-794-1753","addr":"경기도 하남시 덕풍동 441-83번지 기산빌라 D동 101호","indutype":"전기제품 - 가전제품","category":"other"}]},{"lat":"37.540486031","long":"127.20222796","imageIndex":17,"items":[{"name":"뻬로애견샵","tel":"031-794-7124","addr":"경기도 하남시 덕풍동 395-18번지","indutype":"문화.취미 - 애완동물","category":"other"}]},{"lat":"37.539873172","long":"127.20233948","imageIndex":17,"items":[{"name":"사과를부탁해(아이폰수리)","tel":"","addr":"경기도 하남시 덕풍동 395-24번지 2층 202호","indutype":"수리서비스 - 사무·통신기기수리","category":"other"}]},{"lat":"37.540759367","long":"127.2004183","imageIndex":17,"items":[{"name":"사임당우리옷","tel":"031-793-8643","addr":"경기도 하남시 덕풍동 382-1번지","indutype":"의류 - 맞춤복점","category":"other"}]},{"lat":"37.548553515","long":"127.21055547","imageIndex":17,"items":[{"name":"사진관 몽","tel":"031-792-8071","addr":"경기도 하남시 덕풍동 807-1번지 103호","indutype":"광학제품 - 사진관","category":"other"},{"name":"성원씨앤씨","tel":"031-795-5432","addr":"경기도 하남시 덕풍동 807-1번지 1층 102호","indutype":"주방용구 - 주방용구","category":"other"}]},{"lat":"37.539239472","long":"127.2041142","imageIndex":17,"items":[{"name":"사파이어","tel":"070-2699-0807","addr":"경기도 하남시 덕풍동 412-13번지 5층","indutype":"의류 - 내의판매","category":"other"},{"name":"제니 라벨라","tel":"070-2699-0807","addr":"경기도 하남시 덕풍동 412-13번지","indutype":"의류 - 내의판매","category":"other"},{"name":"제니패션","tel":"070-3323-1723","addr":"경기도 하남시 덕풍동 412-13번지 5층 501호","indutype":"의류 - 내의판매","category":"other"}]},{"lat":"37.554349395","long":"127.20387189","imageIndex":17,"items":[{"name":"삼부세탁","tel":"02-795-0036","addr":"경기도 하남시 덕풍동 729번지 삼부르네상스 상가동 104호","indutype":"수리서비스 - 세탁소","category":"other"},{"name":"세븐일레븐하남르네상스점","tel":"","addr":"경기도 하남시 덕풍동 729번지 삼부르네상스 상가동 103호","indutype":"유통업 영리 - 편 의 점","category":"other"}]},{"lat":"37.551174852","long":"127.20567401","imageIndex":17,"items":[{"name":"삼성전자판매(주)풍산점","tel":"031-793-6633","addr":"경기도 하남시 덕풍동 226-30번지","indutype":"전기제품 - 가전제품","category":"other"}]},{"lat":"37.539956413","long":"127.20106112","imageIndex":17,"items":[{"name":"삼성쥬얼리","tel":"031-793-9924","addr":"경기도 하남시 덕풍동 378-3번지","indutype":"신변잡화 - 시계","category":"other"}]},{"lat":"37.54135017","long":"127.20270549","imageIndex":17,"items":[{"name":"삼성하남센타","tel":"031-794-6131","addr":"경기도 하남시 덕풍동 398-12번지","indutype":"전기제품 - 가전제품","category":"other"}]},{"lat":"37.544043376","long":"127.19775652","imageIndex":17,"items":[{"name":"삼원건설","tel":"031-795-7350","addr":"경기도 하남시 덕풍동 344-1","indutype":"기타 - 기계공구","category":"other"}]},{"lat":"37.540517989","long":"127.19928617","imageIndex":17,"items":[{"name":"상록화원","tel":"031-794-2222","addr":"경기도 하남시 덕풍동 381-2","indutype":"문화.취미 - 화원","category":"other"}]},{"lat":"37.547183906","long":"127.21061956","imageIndex":17,"items":[{"name":"샘터공방","tel":"031-000-0000","addr":"경기도 하남시 덕풍동 813-6번지 부차드캐슬","indutype":"문화.취미 - 문화취미기타","category":"other"}]},{"lat":"37.541622031","long":"127.20177838","imageIndex":17,"items":[{"name":"생활용품점","tel":"031-794-3753","addr":"경기도 하남시 덕풍동 331-38번지","indutype":"신변잡화 - 기타잡화","category":"other"},{"name":"세븐일레븐덕풍타운점","tel":"","addr":"경기도 하남시 덕풍동 331-38번지","indutype":"유통업 영리 - 편 의 점","category":"other"}]},{"lat":"37.541350973","long":"127.20223026","imageIndex":17,"items":[{"name":"선아콜렉션","tel":"031-794-0723","addr":"경기도 하남시 덕풍동 397-5번지","indutype":"의류 - 정장","category":"other"}]},{"lat":"37.547013455","long":"127.2102004","imageIndex":17,"items":[{"name":"선일금고 루셀","tel":"031-796-3008","addr":"경기도 하남시 덕풍동 818-1번지","indutype":"가구 - 철제가구","category":"other"}]},{"lat":"37.53865679","long":"127.20237018","imageIndex":17,"items":[{"name":"선중텔레콤2","tel":"031-794-6277","addr":"경기도 하남시 덕풍동 372-30번지 1층","indutype":"사무통신 - 통신기기","category":"other"},{"name":"썬스킨케어 (sun skin care)","tel":"031-796-3767","addr":"경기도 하남시 덕풍동 372-30번지 3층","indutype":"회원제형태 - 기타4","category":"other"},{"name":"양파","tel":"031-794-5162","addr":"경기도 하남시 덕풍동 372-30번지","indutype":"의류 - 정장","category":"other"}]},{"lat":"37.54648249","long":"127.20464287","imageIndex":17,"items":[{"name":"선진프린트","tel":"031-790-4333","addr":"경기도 하남시 덕풍동 827번지 하남아이테코 1층 1006호","indutype":"서적문구 - 출판 및 인쇄물","category":"other"}]},{"lat":"37.53992746","long":"127.20220384","imageIndex":17,"items":[{"name":"선호시스템","tel":"","addr":"경기도 하남시 덕풍동 395-11번지","indutype":"전기제품 - 기타전기제품","category":"other"}]},{"lat":"37.542400494","long":"127.19961925","imageIndex":17,"items":[{"name":"성도알앤씨","tel":"031-795-7459","addr":"경기도 하남시 덕풍동 356-1번지 1층 106호","indutype":"전기제품 - 기타전기제품","category":"other"}]},{"lat":"37.542321502","long":"127.20372645","imageIndex":17,"items":[{"name":"성신","tel":"031-794-1756","addr":"경기도 하남시 덕풍동 326-112번지","indutype":"건축자재 - 인테리어전문","category":"other"}]},{"lat":"37.540711276","long":"127.20222856","imageIndex":17,"items":[{"name":"성원당","tel":"031-795-0546","addr":"경기도 하남시 덕풍동 390-16번지","indutype":"신변잡화 - 시계","category":"other"},{"name":"제일주방","tel":"031-794-0722","addr":"경기도 하남시 덕풍동 390-16번지","indutype":"주방용구 - 주방용구","category":"other"}]},{"lat":"37.555535572","long":"127.20569714","imageIndex":17,"items":[{"name":"세븐일레븐미사스마트점","tel":"031-1577-0711","addr":"경기도 하남시 덕풍동 944번지 스마트프라자 101호","indutype":"유통업 영리 - 편 의 점","category":"other"}]},{"lat":"37.541511273","long":"127.20333956","imageIndex":17,"items":[{"name":"세븐일레븐하남덕원점","tel":"031-1577-0711","addr":"경기도 하남시 덕풍동 328번지","indutype":"유통업 영리 - 편 의 점","category":"other"}]},{"lat":"37.540544793","long":"127.19942202","imageIndex":17,"items":[{"name":"세븐일레븐하남덕풍빌리지점","tel":"","addr":"경기도 하남시 덕풍동 381-10번지","indutype":"유통업 영리 - 편 의 점","category":"other"}]},{"lat":"37.539153969","long":"127.20139844","imageIndex":17,"items":[{"name":"세븐일레븐하남덕풍중앙점","tel":"","addr":"경기도 하남시 덕풍동 372-159번지 (1층외1필지)","indutype":"유통업 영리 - 편 의 점","category":"other"},{"name":"햅번","tel":"031-794-3934","addr":"경기도 하남시 덕풍동 372-159번지 102호","indutype":"의류 - 정장","category":"other"}]},{"lat":"37.553149305","long":"127.21011554","imageIndex":17,"items":[{"name":"세아","tel":"031-795-5804","addr":"경기도 하남시 덕풍동 41-1번지","indutype":"주방용구 - 주방용식기","category":"other"}]},{"lat":"37.537457028","long":"127.20322688","imageIndex":17,"items":[{"name":"세진인쇄사","tel":"031-792-2423","addr":"경기도 하남시 덕풍동 423-3번지","indutype":"서적문구 - 출판 및 인쇄물","category":"other"},{"name":"착한문구","tel":"031-793-1647","addr":"경기도 하남시 덕풍동 423-3번지 1층","indutype":"서적문구 - 문구용품","category":"other"}]},{"lat":"37.541821691","long":"127.20091896","imageIndex":17,"items":[{"name":"소명세탁소","tel":"031-794-4150","addr":"경기도 하남시 덕풍동 355-19번지","indutype":"수리서비스 - 세탁소","category":"other"}]},{"lat":"37.541789125","long":"127.1988369","imageIndex":17,"items":[{"name":"쇼핑가이드사","tel":"031-795-8700","addr":"경기도 하남시 덕풍동 348-17번지","indutype":"용역 서비스 - 종합용역","category":"other"}]},{"lat":"37.534098221","long":"127.20212045","imageIndex":17,"items":[{"name":"순종합인테리어","tel":"031-796-0485","addr":"경기도 하남시 덕풍동 514-22번지","indutype":"직물 - 카페트,커튼,천막,지물","category":"other"}]},{"lat":"37.541207655","long":"127.20173202","imageIndex":17,"items":[{"name":"슈젠","tel":"031-111-1111","addr":"경기도 하남시 덕풍동 386-10번지","indutype":"신변잡화 - 신발","category":"other"},{"name":"현대아이디","tel":"031-791-6465","addr":"경기도 하남시 덕풍동 386-10번지 104호","indutype":"신변잡화 - 가방","category":"other"}]},{"lat":"37.53365735","long":"127.20175723","imageIndex":17,"items":[{"name":"스마트컴퓨터","tel":"031-415-6266","addr":"경기도 하남시 덕풍동 515-67번지","indutype":"사무통신 - 컴퓨터","category":"other"}]},{"lat":"37.541787413","long":"127.20519598","imageIndex":17,"items":[{"name":"스카이 출입문","tel":"","addr":"경기도 하남시 덕풍동 318-19번지 101호","indutype":"용역 서비스 - 기타용역서비스","category":"other"},{"name":"쥬리마켓","tel":"031-795-0958","addr":"경기도 하남시 덕풍동 318-19번지 1층","indutype":"의류 - 정장","category":"other"}]},{"lat":"37.548543269","long":"127.21125704","imageIndex":17,"items":[{"name":"스타렉스 큐(STYLEX. Q)총판","tel":"031-795-0919","addr":"경기도 하남시 덕풍동 806-3번지 1층","indutype":"레져용품 - 스포츠·레져용품","category":"other"}]},{"lat":"37.54365779","long":"127.20205536","imageIndex":17,"items":[{"name":"스타앤컴퍼니","tel":"031-336-8848","addr":"경기도 하남시 덕풍동 692번지 하남한솔솔파크 108동 1401호","indutype":"의류 - 정장","category":"other"},{"name":"아상토 I&D","tel":"02-2299-9811","addr":"경기도 하남시 덕풍동 692번지 하남한솔솔파크 108동 1902호","indutype":"회원제형태 - 기타4","category":"other"}]},{"lat":"37.540262234","long":"127.20136743","imageIndex":17,"items":[{"name":"스타일복싱체육관","tel":"031-792-6005","addr":"경기도 하남시 덕풍동 392-3번지 4층","indutype":"회원제형태 - 레져업소","category":"other"}]},{"lat":"37.542655384","long":"127.20342183","imageIndex":17,"items":[{"name":"신동양지물포","tel":"031-793-2569","addr":"경기도 하남시 덕풍동 325-24번지 1층","indutype":"직물 - 카페트,커튼,천막,지물","category":"other"},{"name":"크린수선","tel":"031-791-9968","addr":"경기도 하남시 덕풍동 325-24번지","indutype":"수리서비스 - 세탁소","category":"other"}]},{"lat":"37.542877017","long":"127.20553838","imageIndex":17,"items":[{"name":"신성가구","tel":"031-795-8591","addr":"경기도 하남시 덕풍동 316-52번지","indutype":"가구 - 일반가구","category":"other"}]},{"lat":"37.54076001","long":"127.20003359","imageIndex":17,"items":[{"name":"신우","tel":"031-792-1443","addr":"경기도 하남시 덕풍동 381-16번지 1층","indutype":"의류 - 내의판매","category":"other"}]},{"lat":"37.541623741","long":"127.20076003","imageIndex":17,"items":[{"name":"신우ENC","tel":"031-792-9915","addr":"경기도 하남시 덕풍동 384-10번지 1층 2호","indutype":"건축자재 - 인테리어전문","category":"other"}]},{"lat":"37.537573205","long":"127.19841855","imageIndex":17,"items":[{"name":"신장정밀","tel":"031-795-7830","addr":"경기도 하남시 덕풍동 366-56번지","indutype":"신변잡화 - 시계","category":"other"}]},{"lat":"37.544349168","long":"127.19808546","imageIndex":17,"items":[{"name":"실타래나무","tel":"031-795-7277","addr":"경기도 하남시 덕풍동 342번지 1층","indutype":"직물 - 침구·수예점","category":"other"},{"name":"행복한 벽지","tel":"031-793-8728","addr":"경기도 하남시 덕풍동 342번지 1층","indutype":"직물 - 카페트,커튼,천막,지물","category":"other"}]},{"lat":"37.532372299","long":"127.1997513","imageIndex":17,"items":[{"name":"썬골프연습장","tel":"031-794-7992","addr":"경기도 하남시 덕풍동 534-13번지 3층","indutype":"회원제형태 - 레져업소","category":"other"}]},{"lat":"37.542933747","long":"127.19861359","imageIndex":17,"items":[{"name":"씨유하남덕풍본점","tel":"031-1-1","addr":"경기도 하남시 덕풍동 349번지 정우빌딩 1층","indutype":"유통업 영리 - 편 의 점","category":"other"},{"name":"옷짓는풍경","tel":"02-482-3882","addr":"경기도 하남시 덕풍동 349번지 2층","indutype":"의류 - 맞춤복점","category":"other"}]},{"lat":"37.538904025","long":"127.20000608","imageIndex":17,"items":[{"name":"씨유하남덕풍타운점","tel":"031-794-0063","addr":"경기도 하남시 덕풍동 376-5번지 101호","indutype":"유통업 영리 - 편 의 점","category":"other"},{"name":"제이유통","tel":"031-793-1882","addr":"경기도 하남시 덕풍동 376-5번지","indutype":"유통업 영리 - 기타유통업","category":"other"}]},{"lat":"37.539511737","long":"127.19756369","imageIndex":17,"items":[{"name":"씨유하남어울림앤자이점","tel":"02-1577-8007","addr":"경기도 하남시 덕풍동 363-22번지","indutype":"유통업 영리 - 편 의 점","category":"other"}]},{"lat":"37.549789816","long":"127.19886916","imageIndex":17,"items":[{"name":"씨유하남풍산고점","tel":"080-080-3663","addr":"경기도 하남시 덕풍동 782번지 1층","indutype":"유통업 영리 - 편 의 점","category":"other"}]},{"lat":"37.547563986","long":"127.20967008","imageIndex":17,"items":[{"name":"씨유하남풍산점","tel":"031-239-6697","addr":"경기도 하남시 덕풍동 817-2번지 용현 1호","indutype":"유통업 영리 - 편 의 점","category":"other"}]},{"lat":"37.534818224","long":"127.20258624","imageIndex":17,"items":[{"name":"아담블링s","tel":"","addr":"경기도 하남시 덕풍동 448-3번지 1층","indutype":"의류 - 정장","category":"other"}]},{"lat":"37.557901499","long":"127.20255728","imageIndex":17,"items":[{"name":"아뜰리에 헤이미쉬","tel":"031-000-0000","addr":"경기도 하남시 덕풍동 860-2번지 101호","indutype":"문화.취미 - 문화취미기타","category":"other"}]},{"lat":"37.539378891","long":"127.20159139","imageIndex":17,"items":[{"name":"아람모바일","tel":"031-795-4580","addr":"경기도 하남시 덕풍동 372-2번지 대동피렌체 1층","indutype":"사무통신 - 통신기기","category":"other"},{"name":"한불스킨케어","tel":"031-791-3123","addr":"경기도 하남시 덕풍동 372-2번지 대동피렌체 220호","indutype":"회원제형태 - 기타4","category":"other"}]},{"lat":"37.540931385","long":"127.19992089","imageIndex":17,"items":[{"name":"아씨방","tel":"031-791-7888","addr":"경기도 하남시 덕풍동 381-6번지","indutype":"가구 - 일반가구","category":"other"}]},{"lat":"37.541483436","long":"127.20381472","imageIndex":17,"items":[{"name":"아쿠아월드정수기","tel":"","addr":"경기도 하남시 덕풍동 328-5번지 2층","indutype":"회원제형태 - 기타4","category":"other"}]},{"lat":"37.542293663","long":"127.20420161","imageIndex":17,"items":[{"name":"아트ENG","tel":"070-7653-8859","addr":"경기도 하남시 덕풍동 326-117번지 다솜빌","indutype":"건축자재 - 조명기구","category":"other"}]},{"lat":"37.537429768","long":"127.20336258","imageIndex":17,"items":[{"name":"앙꼬","tel":"031-699-8361","addr":"경기도 하남시 덕풍동 420-52번지 1층 102호","indutype":"의류 - 정장","category":"other"},{"name":"이쁜eye속눈썹","tel":"070-4643-8239","addr":"경기도 하남시 덕풍동 420-52번지 1층","indutype":"회원제형태 - 기타4","category":"other"}]},{"lat":"37.542481809","long":"127.19948368","imageIndex":17,"items":[{"name":"애니콜모바일","tel":"031-796-5377","addr":"경기도 하남시 덕풍동 340-39번지","indutype":"사무통신 - 통신기기","category":"other"}]},{"lat":"37.53745574","long":"127.1986219","imageIndex":17,"items":[{"name":"야베스","tel":"","addr":"경기도 하남시 덕풍동 366-108번지 2층 201호","indutype":"신변잡화 - 기타잡화","category":"other"}]},{"lat":"37.536821262","long":"127.20089443","imageIndex":17,"items":[{"name":"에듀바비남양주1지사","tel":"02-1522-0701","addr":"경기도 하남시 덕풍동 429-65번지","indutype":"용역 서비스 - 사무서비스","category":"other"}]},{"lat":"37.552773912","long":"127.20314339","imageIndex":17,"items":[{"name":"에스앤제이(S&J)사무기기","tel":"","addr":"경기도 하남시 덕풍동 731번지 하남풍산아이파크5단지 503동 1102호","indutype":"용역 서비스 - 기타용역서비스","category":"other"}]},{"lat":"37.544732999","long":"127.20556603","imageIndex":17,"items":[{"name":"에어컨샵","tel":"070-7720-4434","addr":"경기도 하남시 덕풍동 285-74번지 102호","indutype":"회원제형태 - 기타4","category":"other"}]},{"lat":"37.536488921","long":"127.20028258","imageIndex":17,"items":[{"name":"에어컨설치전문점","tel":"031-795-0060","addr":"경기도 하남시 덕풍동 435-72번지","indutype":"수리서비스 - 가정용품수리","category":"other"}]},{"lat":"37.542017527","long":"127.20233387","imageIndex":17,"items":[{"name":"에이스에어컨","tel":"02-1588-3366","addr":"경기도 하남시 덕풍동 326-19번지 102호","indutype":"용역 서비스 - 기타용역서비스","category":"other"}]},{"lat":"37.543177274","long":"127.19845581","imageIndex":17,"items":[{"name":"에프지시스템(FG시스템)","tel":"02-1644-8285","addr":"경기도 하남시 덕풍동 345-7번지 101호","indutype":"사무통신 - 컴퓨터","category":"other"}]},{"lat":"37.534321821","long":"127.20309404","imageIndex":17,"items":[{"name":"엑센트종합광고","tel":"031-795-1922","addr":"경기도 하남시 덕풍동 511-20번지 1층","indutype":"용역 서비스 - 종합용역","category":"other"}]},{"lat":"37.541350552","long":"127.20247919","imageIndex":17,"items":[{"name":"엔에스","tel":"031-575-8010","addr":"경기도 하남시 덕풍동 398-26번지 1층","indutype":"사무통신 - 통신기기","category":"other"}]},{"lat":"37.537426774","long":"127.19978721","imageIndex":17,"items":[{"name":"엠제이(MJ)아이앤티","tel":"031-444-5304","addr":"경기도 하남시 덕풍동 370-53번지","indutype":"광학제품 - 카메라","category":"other"}]},{"lat":"37.538822616","long":"127.20019821","imageIndex":17,"items":[{"name":"영신상사","tel":"031-793-1649","addr":"경기도 하남시 덕풍동 374-3번지","indutype":"기타 - 기타 전문점","category":"other"}]},{"lat":"37.538458019","long":"127.20269777","imageIndex":17,"items":[{"name":"영신펌프상사","tel":"031-791-4343","addr":"경기도 하남시 덕풍동 426-6번지","indutype":"건축자재 - 보일러·펌프·샷시","category":"other"},{"name":"유양상사","tel":"031-792-4866","addr":"경기도 하남시 덕풍동 426-6번지 범재실업내","indutype":"건축자재 - 기타건축자재","category":"other"},{"name":"커먼플라자","tel":"031-792-7250","addr":"경기도 하남시 덕풍동 426-6번지","indutype":"의류 - 정장","category":"other"},{"name":"한국천막앵글상사","tel":"0000-0000-0000","addr":"경기도 하남시 덕풍동 426-6번지","indutype":"기타 - 기계공구","category":"other"}]},{"lat":"37.537572636","long":"127.20412103","imageIndex":17,"items":[{"name":"영진세무회계컨설팅","tel":"031-793-5913","addr":"경기도 하남시 덕풍동 460-4번지 2층","indutype":"용역 서비스 - 법률회계서비스(개인)","category":"other"},{"name":"하남전자담배 하남점","tel":"070-8221-7900","addr":"경기도 하남시 덕풍동 460-4번지 1층","indutype":"기타 - 기타 전문점","category":"other"}]},{"lat":"37.53604617","long":"127.20103946","imageIndex":17,"items":[{"name":"예상하우징","tel":"031-796-7131","addr":"경기도 하남시 덕풍동 435-52번지","indutype":"기타 - 기타 전문점","category":"other"}]},{"lat":"37.544176124","long":"127.19920524","imageIndex":17,"items":[{"name":"오투오가닉(02 Organic)","tel":"070-7645-7602","addr":"경기도 하남시 덕풍동 336-13번지","indutype":"의류 - 아동의류","category":"other"}]},{"lat":"37.538266585","long":"127.20400975","imageIndex":17,"items":[{"name":"올포유","tel":"031-793-5698","addr":"경기도 하남시 덕풍동 419-25번지 1층","indutype":"의류 - 정장","category":"other"}]},{"lat":"37.541981946","long":"127.20206221","imageIndex":17,"items":[{"name":"와이엠테크","tel":"031-715-2931","addr":"경기도 하남시 덕풍동 330-36번지","indutype":"서적문구 - 과학기자재","category":"other"}]},{"lat":"37.542703884","long":"127.20666943","imageIndex":17,"items":[{"name":"우리종합건재","tel":"031-795-3595","addr":"경기도 하남시 덕풍동 316-2,316-79","indutype":"건축자재 - 기타건축자재","category":"other"}]},{"lat":"37.539072177","long":"127.20181687","imageIndex":17,"items":[{"name":"우리철물","tel":"031-792-9683","addr":"경기도 하남시 덕풍동 372-6번지","indutype":"건축자재 - 목재·석재·철물","category":"other"}]},{"lat":"37.536264041","long":"127.19459091","imageIndex":17,"items":[{"name":"월출산농원","tel":"031-794-5628","addr":"경기도 하남시 덕풍동 577-1번지","indutype":"문화.취미 - 화원","category":"other"}]},{"lat":"37.547652236","long":"127.21072271","imageIndex":17,"items":[{"name":"위드미 하남나룰점","tel":"02-6916-1500","addr":"경기도 하남시 덕풍동 816-1번지 1층","indutype":"유통업 영리 - 편 의 점","category":"other"}]},{"lat":"37.548706924","long":"127.20522599","imageIndex":17,"items":[{"name":"윈디 에어컨","tel":"02-6423-1212","addr":"경기도 하남시 덕풍동 298-15번지","indutype":"용역 서비스 - 기타용역서비스","category":"other"}]},{"lat":"37.54290393","long":"127.20028817","imageIndex":17,"items":[{"name":"은하유리","tel":"031-794-0907","addr":"경기도 하남시 덕풍동 352-42번지","indutype":"건축자재 - 유리","category":"other"}]},{"lat":"37.558119604","long":"127.20144874","imageIndex":17,"items":[{"name":"이든스크린골프연습장","tel":"031-791-6969","addr":"경기도 하남시 덕풍동 847번지 드림프라자 301,302,303,304,305,306호","indutype":"레져용품 - 골프용품 전문점","category":"other"}]},{"lat":"37.535128192","long":"127.20042607","imageIndex":17,"items":[{"name":"이레포스","tel":"031-796-7558","addr":"경기도 하남시 덕풍동 435-112번지 덕풍다세대 B04호","indutype":"사무통신 - 통신기기","category":"other"}]},{"lat":"37.541346252","long":"127.19967305","imageIndex":17,"items":[{"name":"이불혼수백화점","tel":"031-793-0221","addr":"경기도 하남시 덕풍동 358-3번지","indutype":"직물 - 침구·수예점","category":"other"},{"name":"흥진통신(주)","tel":"031-794-7325","addr":"경기도 하남시 덕풍동 358-3번지","indutype":"건축자재 - 보일러·펌프·샷시","category":"other"}]},{"lat":"37.542961718","long":"127.20342265","imageIndex":17,"items":[{"name":"이브자리하남점","tel":"031-795-2979","addr":"경기도 하남시 덕풍동 309-63번지","indutype":"직물 - 침구·수예점","category":"other"},{"name":"태원통신","tel":"031-794-4318","addr":"경기도 하남시 덕풍동 309-63번지","indutype":"전기제품 - 가전제품","category":"other"}]},{"lat":"37.535955884","long":"127.20644742","imageIndex":17,"items":[{"name":"이색디자인","tel":"031-795-2607","addr":"경기도 하남시 덕풍동 469-18번지","indutype":"용역 서비스 - 종합용역","category":"other"},{"name":"하남샷시유리공사","tel":"031-793-4050","addr":"경기도 하남시 덕풍동 469-18번지","indutype":"용역 서비스 - 기타용역서비스","category":"other"}]},{"lat":"37.538710007","long":"127.20286816","imageIndex":17,"items":[{"name":"인디안하남점","tel":"031-791-9444","addr":"경기도 하남시 덕풍동 418-3번지","indutype":"레져용품 - 스포츠·레져용품","category":"other"}]},{"lat":"37.538350513","long":"127.20233542","imageIndex":17,"items":[{"name":"인재물산","tel":"070-4038-4471","addr":"경기도 하남시 덕풍동 372-42번지 102호","indutype":"의류 - 정장","category":"other"}]},{"lat":"37.535684713","long":"127.2016721","imageIndex":17,"items":[{"name":"인터도어시스템","tel":"031-7796-8805","addr":"경기도 하남시 덕풍동 447번지 1층","indutype":"사무통신 - 통신기기","category":"other"}]},{"lat":"37.534677379","long":"127.20061722","imageIndex":17,"items":[{"name":"일오삼열쇠","tel":"031-796-3533","addr":"경기도 하남시 덕풍동 442-1번지 1층","indutype":"기타 - 기계공구","category":"other"}]},{"lat":"37.540316711","long":"127.20111865","imageIndex":17,"items":[{"name":"입고가","tel":"","addr":"경기도 하남시 덕풍동 392-1번지","indutype":"의류 - 정장","category":"other"},{"name":"퍼피하우스","tel":"031-792-8558","addr":"경기도 하남시 덕풍동 392-1번지","indutype":"문화.취미 - 애완동물","category":"other"},{"name":"하남시의사회","tel":"031-794-1731","addr":"경기도 하남시 덕풍동 392-1번지","indutype":"기타 - 기타 전문점","category":"other"}]},{"lat":"37.555045511","long":"127.20248176","imageIndex":17,"items":[{"name":"잉크가이하남스마일점","tel":"031-792-2401","addr":"경기도 하남시 덕풍동 728번지 우남퍼스트빌리젠트 102동 307호","indutype":"사무통신 - 기타 사무용품","category":"other"}]},{"lat":"37.539204376","long":"127.20355968","imageIndex":17,"items":[{"name":"자스민요가원","tel":"070-4193-0006","addr":"경기도 하남시 덕풍동 417-1번지 2층","indutype":"회원제형태 - 레져업소","category":"other"}]},{"lat":"37.540178377","long":"127.20300786","imageIndex":17,"items":[{"name":"자연건축사사무소","tel":"031-796-0037","addr":"경기도 하남시 덕풍동 401-5번지","indutype":"용역 서비스 - 법률회계서비스(개인)","category":"other"},{"name":"하남세탁","tel":"031-000-0000","addr":"경기도 하남시 덕풍동 401-5번지 KT하남지점 1층","indutype":"수리서비스 - 세탁소","category":"other"}]},{"lat":"37.540295144","long":"127.19783728","imageIndex":17,"items":[{"name":"자이세탁소","tel":"031-791-5245","addr":"경기도 하남시 덕풍동 691-1번지 하남자이 상가 105호","indutype":"수리서비스 - 세탁소","category":"other"}]},{"lat":"37.540541823","long":"127.20119845","imageIndex":17,"items":[{"name":"자이안트양복점","tel":"031-794-6053","addr":"경기도 하남시 덕풍동 392-4번지","indutype":"의류 - 맞춤복점","category":"other"}]},{"lat":"37.534657021","long":"127.20200879","imageIndex":17,"items":[{"name":"장군","tel":"070-7568-2356","addr":"경기도 하남시 덕풍동 514-9번지","indutype":"신변잡화 - 기타잡화","category":"other"}]},{"lat":"37.535432856","long":"127.20142252","imageIndex":17,"items":[{"name":"장난감은행","tel":"031-792-6575","addr":"경기도 하남시 덕풍동 446-12번지","indutype":"서적문구 - 일반서적","category":"other"}]},{"lat":"37.551093472","long":"127.20584353","imageIndex":17,"items":[{"name":"장보는강아지와고양이 하남점","tel":"070-8837-4286","addr":"경기도 하남시 덕풍동 226-12번지","indutype":"문화.취미 - 애완동물","category":"other"}]},{"lat":"37.544370034","long":"127.20705869","imageIndex":17,"items":[{"name":"재단법인 하남문화재단","tel":"031-790-7971","addr":"경기도 하남시 덕풍동 694번지","indutype":"문화.취미 - 티켓","category":"other"}]},{"lat":"37.543316656","long":"127.20131895","imageIndex":17,"items":[{"name":"정원","tel":"031-791-5348","addr":"경기도 하남시 덕풍동 692번지 하남한솔솔파크 106동 201호","indutype":"회원제형태 - 기타1","category":"other"}]},{"lat":"37.538818316","long":"127.20275531","imageIndex":17,"items":[{"name":"정인","tel":"031-793-9199","addr":"경기도 하남시 덕풍동 416-14번지 정인빌딩 504호","indutype":"기타 - 기계공구","category":"other"},{"name":"진명어패럴","tel":"031-793-4024","addr":"경기도 하남시 덕풍동 416-14번지 정인빌딩 103호","indutype":"의류 - 정장","category":"other"},{"name":"칸타빌레","tel":"031-794-0639","addr":"경기도 하남시 덕풍동 416-14번지","indutype":"의류 - 정장","category":"other"}]},{"lat":"37.539627257","long":"127.19853706","imageIndex":17,"items":[{"name":"조광건설공사","tel":"070-7018-5367","addr":"경기도 하남시 덕풍동 381-36번지 B1층","indutype":"건축자재 - 보일러·펌프·샷시","category":"other"}]},{"lat":"37.538652128","long":"127.19977912","imageIndex":17,"items":[{"name":"조아티슈","tel":"070-8257-7087","addr":"경기도 하남시 덕풍동 376-25번지","indutype":"신변잡화 - 기타잡화","category":"other"}]},{"lat":"37.539459045","long":"127.20214602","imageIndex":17,"items":[{"name":"조이모바일","tel":"031-796-9010","addr":"경기도 하남시 덕풍동 415-72번지 성하빌딩 1층","indutype":"사무통신 - 통신기기","category":"other"}]},{"lat":"37.53890686","long":"127.20367203","imageIndex":17,"items":[{"name":"조이컴퓨터","tel":"031-793-1121","addr":"경기도 하남시 덕풍동 412-19번지","indutype":"사무통신 - 컴퓨터","category":"other"}]},{"lat":"37.542681003","long":"127.19889581","imageIndex":17,"items":[{"name":"종합냉동설비","tel":"031-796-4945","addr":"경기도 하남시 덕풍동 349-2번지","indutype":"용역 서비스 - 기타용역서비스","category":"other"},{"name":"훈민정음","tel":"031-794-0103","addr":"경기도 하남시 덕풍동 349-2번지","indutype":"사무통신 - 통신기기","category":"other"}]},{"lat":"37.54959237","long":"127.19840467","imageIndex":17,"items":[{"name":"주식회사 길드그룹","tel":"031-792-4782","addr":"경기도 하남시 덕풍동 771-1번지 길드빌딩 401호","indutype":"용역 서비스 - 기타용역서비스","category":"other"}]},{"lat":"37.543374706","long":"127.20428372","imageIndex":17,"items":[{"name":"주식회사 샬롬재가복지센터","tel":"031-796-5288","addr":"경기도 하남시 덕풍동 산23-43번지","indutype":"기타의료기관 - 기타의료기관 및 기타","category":"other"}]},{"lat":"37.542266551","long":"127.19889473","imageIndex":17,"items":[{"name":"주식회사제이앤제이","tel":"031-794-0300","addr":"경기도 하남시 덕풍동 348-95번지","indutype":"회원제형태 - 레져업소","category":"other"}]},{"lat":"37.541012606","long":"127.1998419","imageIndex":17,"items":[{"name":"주식회사태금","tel":"031-795-3137","addr":"경기도 하남시 덕풍동 358-5번지 3층","indutype":"유통업 영리 - 기타유통업","category":"other"}]},{"lat":"37.543125352","long":"127.20256313","imageIndex":17,"items":[{"name":"준 인테리어","tel":"031-795-9870","addr":"경기도 하남시 덕풍동 309-74번지","indutype":"건축자재 - 인테리어전문","category":"other"}]},{"lat":"37.551178217","long":"127.20370494","imageIndex":17,"items":[{"name":"준디자인","tel":"031-793-7285","addr":"경기도 하남시 덕풍동 224-10번지 1층","indutype":"유통업 영리 - 기타유통업","category":"other"}]},{"lat":"37.540775027","long":"127.19640154","imageIndex":17,"items":[{"name":"준준","tel":"","addr":"경기도 하남시 덕풍동 691번지 하남자이 105동 2002호","indutype":"용역 서비스 - 기타용역서비스","category":"other"}]},{"lat":"37.537650772","long":"127.20053456","imageIndex":17,"items":[{"name":"진 에어컨","tel":"","addr":"경기도 하남시 덕풍동 429-23번지","indutype":"용역 서비스 - 기타용역서비스","category":"other"}]},{"lat":"37.542121661","long":"127.19933564","imageIndex":17,"items":[{"name":"진우낚시백화점","tel":"031-795-8080","addr":"경기도 하남시 덕풍동 348-96번지","indutype":"레져용품 - 스포츠·레져용품","category":"other"}]},{"lat":"37.543537498","long":"127.19855859","imageIndex":17,"items":[{"name":"참좋은씽크","tel":"031-792-1114","addr":"경기도 하남시 덕풍동 341-21번지","indutype":"주방용구 - 주방용구","category":"other"}]},{"lat":"37.546024832","long":"127.20879451","imageIndex":17,"items":[{"name":"창아트","tel":"","addr":"경기도 하남시 덕풍동 823번지 하남풍산아이파크1단지 6층 1호","indutype":"직물 - 카페트,커튼,천막,지물","category":"other"},{"name":"풍산아이파크세탁","tel":"031-793-8123","addr":"경기도 하남시 덕풍동 823 하남풍산아이파크1단지상가 105","indutype":"수리서비스 - 세탁소","category":"other"}]},{"lat":"37.539764863","long":"127.20245233","imageIndex":17,"items":[{"name":"챌린져쇼파","tel":"031-791-8999","addr":"경기도 하남시 덕풍동 415-64번지","indutype":"수리서비스 - 가정용품수리","category":"other"}]},{"lat":"37.557317124","long":"127.20180877","imageIndex":17,"items":[{"name":"청소삼촌","tel":"","addr":"경기도 하남시 덕풍동 696번지 2층","indutype":"용역 서비스 - 종합용역","category":"other"}]},{"lat":"37.540904582","long":"127.19978504","imageIndex":17,"items":[{"name":"카라","tel":"031-796-4928","addr":"경기도 하남시 덕풍동 663-3","indutype":"신변잡화 - 기타잡화","category":"other"}]},{"lat":"37.543043094","long":"127.20325314","imageIndex":17,"items":[{"name":"카스계기","tel":"031-796-0470","addr":"경기도 하남시 덕풍동 309-80번지","indutype":"주방용구 - 주방용구","category":"other"},{"name":"크린토피아 하남덕풍2동점","tel":"031-792-7992","addr":"경기도 하남시 덕풍동 309-80번지","indutype":"수리서비스 - 세탁소","category":"other"}]},{"lat":"37.556952859","long":"127.20409391","imageIndex":17,"items":[{"name":"칼의부활 노원점","tel":"070-4327-1609","addr":"경기도 하남시 덕풍동 884-2번지 201호","indutype":"수리서비스 - 기타수리서비스","category":"other"}]},{"lat":"37.535731924","long":"127.20570007","imageIndex":17,"items":[{"name":"컴사랑119","tel":"031-796-8119","addr":"경기도 하남시 덕풍동 470-39번지","indutype":"수리서비스 - 사무·통신기기수리","category":"other"}]},{"lat":"37.542205738","long":"127.20292276","imageIndex":17,"items":[{"name":"케이-프로 사운드(K-pro sound)","tel":"","addr":"경기도 하남시 덕풍동 326-41번지","indutype":"전기제품 - 가전제품","category":"other"}]},{"lat":"37.528878346","long":"127.19862211","imageIndex":17,"items":[{"name":"케이씨씨 (KCC) 민창호","tel":"031-795-7174","addr":"경기도 하남시 덕풍동 622-2번지 정면 우측 나동 1호","indutype":"건축자재 - 기타건축자재","category":"other"}]},{"lat":"37.548291493","long":"127.21097343","imageIndex":17,"items":[{"name":"코렌아트 하남점","tel":"031-000-0000","addr":"경기도 하남시 덕풍동 808-4번지 1층 104호","indutype":"용역 서비스 - 기타용역서비스","category":"other"}]},{"lat":"37.540652534","long":"127.1996486","imageIndex":17,"items":[{"name":"코리아","tel":"031-794-0471","addr":"경기도 하남시 덕풍동 381-19","indutype":"건축자재 - 인테리어전문","category":"other"}]},{"lat":"37.536432013","long":"127.20197957","imageIndex":17,"items":[{"name":"코카몰","tel":"","addr":"경기도 하남시 덕풍동 435-124번지 1층","indutype":"의류 - 정장","category":"other"}]},{"lat":"37.535010875","long":"127.2005389","imageIndex":17,"items":[{"name":"크린위드","tel":"02-425-2110","addr":"경기도 하남시 덕풍동 436-12번지","indutype":"수리서비스 - 세탁소","category":"other"}]},{"lat":"37.547094782","long":"127.21006484","imageIndex":17,"items":[{"name":"크린위드","tel":"031-792-1482","addr":"경기도 하남시 덕풍동 818번지","indutype":"수리서비스 - 세탁소","category":"other"}]},{"lat":"37.548372861","long":"127.21081524","imageIndex":17,"items":[{"name":"크린토피아 코인워시 하남풍산점","tel":"031-796-7188","addr":"경기도 하남시 덕풍동 808-5번지 1층","indutype":"수리서비스 - 세탁소","category":"other"}]},{"lat":"37.536678013","long":"127.20566869","imageIndex":17,"items":[{"name":"클린마스타","tel":"070-7569-6379","addr":"경기도 하남시 덕풍동 461-28번지","indutype":"신변잡화 - 기타잡화","category":"other"}]},{"lat":"37.550759155","long":"127.20639713","imageIndex":17,"items":[{"name":"태성물산","tel":"031-795-6390","addr":"경기도 하남시 덕풍동 226-20번지","indutype":"직물 - 침구·수예점","category":"other"}]},{"lat":"37.54223248","long":"127.20309256","imageIndex":17,"items":[{"name":"토탈청바지매장","tel":"031-795-8959","addr":"경기도 하남시 덕풍동 326-6번지","indutype":"의류 - 정장","category":"other"},{"name":"호돌이신발","tel":"031-794-0245","addr":"경기도 하남시 덕풍동 326-6번지","indutype":"신변잡화 - 신발","category":"other"}]},{"lat":"37.53962874","long":"127.20302903","imageIndex":17,"items":[{"name":"트윈공조","tel":"","addr":"경기도 하남시 덕풍동 415-52번지 동아연립","indutype":"용역 서비스 - 기타용역서비스","category":"other"}]},{"lat":"37.542767076","long":"127.20130618","imageIndex":17,"items":[{"name":"튼실파파","tel":"031-793-2848","addr":"경기도 하남시 덕풍동 332-10번지","indutype":"건축자재 - 인테리어전문","category":"other"}]},{"lat":"37.536260884","long":"127.20194517","imageIndex":17,"items":[{"name":"티존컴퓨터","tel":"031-795-9191","addr":"경기도 하남시 덕풍동 435-71번지","indutype":"사무통신 - 컴퓨터","category":"other"}]},{"lat":"37.542851035","long":"127.20492728","imageIndex":17,"items":[{"name":"파크랜드","tel":"031-791-6578","addr":"경기도 하남시 덕풍동 320-3 ,320-13 동우프라자","indutype":"의류 - 스포츠의류","category":"other"}]},{"lat":"37.540377531","long":"127.20245397","imageIndex":17,"items":[{"name":"패션일번지","tel":"031-792-6258","addr":"경기도 하남시 덕풍동 395-16번지","indutype":"의류 - 정장","category":"other"}]},{"lat":"37.533768257","long":"127.20009438","imageIndex":17,"items":[{"name":"팬더네","tel":"031-792-9794","addr":"경기도 하남시 덕풍동 441-37번지 302호","indutype":"직물 - 침구·수예점","category":"other"}]},{"lat":"37.533621082","long":"127.2018929","imageIndex":17,"items":[{"name":"페리도트","tel":"","addr":"경기도 하남시 덕풍동 515-68번지","indutype":"신변잡화 - 액세서리","category":"other"}]},{"lat":"37.54979601","long":"127.21104551","imageIndex":17,"items":[{"name":"푸른 Edu","tel":"","addr":"경기도 하남시 덕풍동 748번지 동원베네스트 101동 402호","indutype":"서적문구 - 일반서적","category":"other"}]},{"lat":"37.547762517","long":"127.19892043","imageIndex":17,"items":[{"name":"풀로드","tel":"031-8027-2153","addr":"경기도 하남시 덕풍동 213-7번지","indutype":"사무통신 - 컴퓨터","category":"other"}]},{"lat":"37.549177274","long":"127.209369","imageIndex":17,"items":[{"name":"프랑프랑공방","tel":"031-793-2407","addr":"경기도 하남시 덕풍동 798-1번지 2층","indutype":"문화.취미 - 민예·공예품","category":"other"}]},{"lat":"37.537177532","long":"127.20333928","imageIndex":17,"items":[{"name":"프렌즈 모바일","tel":"02-2642-2009","addr":"경기도 하남시 덕풍동 421-6번지 제에이동 2층 202호","indutype":"사무통신 - 통신기기","category":"other"}]},{"lat":"37.547456066","long":"127.20955662","imageIndex":17,"items":[{"name":"플라워스토리","tel":"031-793-1400","addr":"경기도 하남시 덕풍동 817-3번지","indutype":"문화.취미 - 화원","category":"other"}]},{"lat":"37.542265784","long":"127.2046994","imageIndex":17,"items":[{"name":"플라잉요가 필라테스아카데미","tel":"031-796-6009","addr":"경기도 하남시 덕풍동 319-2번지 지층","indutype":"회원제형태 - 레져업소","category":"other"}]},{"lat":"37.534318758","long":"127.20489295","imageIndex":17,"items":[{"name":"플러스원공조시스템","tel":"031-2407-8949","addr":"경기도 하남시 덕풍동 480번지","indutype":"용역 서비스 - 기타용역서비스","category":"other"}]},{"lat":"37.548814341","long":"127.21081646","imageIndex":17,"items":[{"name":"피씨(PC) 119구조대","tel":"031-791-4119","addr":"경기도 하남시 덕풍동 806번지 덕풍빌딩 1층 101호","indutype":"사무통신 - 컴퓨터","category":"other"}]},{"lat":"37.53551385","long":"127.2014793","imageIndex":17,"items":[{"name":"하나공조","tel":"031-8028-1154","addr":"경기도 하남시 덕풍동 447-14번지 1층","indutype":"전기제품 - 냉열기기","category":"other"}]},{"lat":"37.535179496","long":"127.20206675","imageIndex":17,"items":[{"name":"하남광주서적","tel":"031-791-9601","addr":"경기도 하남시 덕풍동 448-15번지","indutype":"서적문구 - 일반서적","category":"other"}]},{"lat":"37.5422111","long":"127.1997319","imageIndex":17,"items":[{"name":"하남농업협동조합덕풍지점","tel":"031-795-6682","addr":"경기도 하남시 덕풍동 356-9번지","indutype":"유통업 비영리 - 농,축협 직영매장","category":"other"}]},{"lat":"37.554120646","long":"127.20591964","imageIndex":17,"items":[{"name":"하남농협","tel":"031-794-3641","addr":"경기도 하남시 덕풍동 733번지","indutype":"유통업 비영리 - 농,축협 직영매장","category":"other"}]},{"lat":"37.534460669","long":"127.2008995","imageIndex":17,"items":[{"name":"하남농협역말지점","tel":"031-795-4402","addr":"경기도 하남시 덕풍동 519-3번지","indutype":"유통업 비영리 - 농,축협 직영매장","category":"other"}]},{"lat":"37.546790002","long":"127.19858972","imageIndex":17,"items":[{"name":"하남도시가스 고객센터","tel":"031-794-8475","addr":"경기도 하남시 덕풍동 343-6번지 2층","indutype":"용역 서비스 - 기타용역서비스","category":"other"}]},{"lat":"37.537845102","long":"127.20284323","imageIndex":17,"items":[{"name":"하남문화원","tel":"031-795-1020","addr":"경기도 하남시 덕풍동 426-10번지","indutype":"기타 - 비영리/비대상","category":"other"}]},{"lat":"37.539014496","long":"127.20395519","imageIndex":17,"items":[{"name":"하남스쿼시클럽","tel":"031-795-5079","addr":"경기도 하남시 덕풍동 412-18번지","indutype":"회원제형태 - 레져업소","category":"other"}]},{"lat":"37.536018524","long":"127.2066965","imageIndex":17,"items":[{"name":"하남씽크","tel":"031-795-5373","addr":"경기도 하남시 덕풍동 465-8번지","indutype":"주방용구 - 주방용구","category":"other"}]},{"lat":"37.54489871","long":"127.19812084","imageIndex":17,"items":[{"name":"하남아동책총판","tel":"031-562-8895","addr":"경기도 하남시 덕풍동 343-16번지","indutype":"회원제형태 - 서적","category":"other"}]},{"lat":"37.540011117","long":"127.20067656","imageIndex":17,"items":[{"name":"하남우체국","tel":"031-792-2001","addr":"경기도 하남시 덕풍동 378-2번지","indutype":"용역 서비스 - 공공요금대행서비스/소","category":"other"}]},{"lat":"37.541932041","long":"127.19958407","imageIndex":17,"items":[{"name":"하남중고가전","tel":"02-000-0000","addr":"경기도 하남시 덕풍동 357-64번지","indutype":"전기제품 - 가전제품","category":"other"}]},{"lat":"37.543323242","long":"127.20275602","imageIndex":17,"items":[{"name":"하남컴퓨터","tel":"031-792-1828","addr":"경기도 하남시 덕풍동 309-67번지","indutype":"수리서비스 - 사무·통신기기수리","category":"other"}]},{"lat":"37.543402201","long":"127.19864876","imageIndex":17,"items":[{"name":"하남톱공구","tel":"031-792-5038","addr":"경기도 하남시 덕풍동 341-20번지","indutype":"수리서비스 - 기타수리서비스","category":"other"}]},{"lat":"37.539374812","long":"127.20400141","imageIndex":17,"items":[{"name":"하얀포도공방","tel":"","addr":"경기도 하남시 덕풍동 413-27번지 301호","indutype":"가구 - 기타가구","category":"other"}]},{"lat":"37.535371968","long":"127.20012123","imageIndex":17,"items":[{"name":"하이패스","tel":"","addr":"경기도 하남시 덕풍동 435-159번지 201호","indutype":"사무통신 - 통신기기","category":"other"}]},{"lat":"37.538434304","long":"127.20072897","imageIndex":17,"items":[{"name":"한세유통","tel":"070-4046-3912","addr":"경기도 하남시 덕풍동 371-7번지","indutype":"유통업 영리 - 기타유통업","category":"other"}]},{"lat":"37.535099062","long":"127.1962511","imageIndex":17,"items":[{"name":"한솔리치빌크리너","tel":"031-791-3363","addr":"경기도 하남시 덕풍동 558-28번지 1층","indutype":"수리서비스 - 세탁소","category":"other"}]},{"lat":"37.540348417","long":"127.19831265","imageIndex":17,"items":[{"name":"한솔인테리어","tel":"031-794-4774","addr":"경기도 하남시 덕풍동 359-49번지 202호","indutype":"직물 - 카페트,커튼,천막,지물","category":"other"}]},{"lat":"37.553355851","long":"127.19998755","imageIndex":17,"items":[{"name":"한스공조","tel":"","addr":"경기도 하남시 덕풍동 775번지 휴먼시아꽃뫼마을1단지 110동 903호","indutype":"용역 서비스 - 종합용역","category":"other"}]},{"lat":"37.541378327","long":"127.20203798","imageIndex":17,"items":[{"name":"한양설비","tel":"02-488-3567","addr":"경기도 하남시 덕풍동 397-1번지","indutype":"용역 서비스 - 기타용역서비스","category":"other"}]},{"lat":"37.544592283","long":"127.19817662","imageIndex":17,"items":[{"name":"해성에어컨","tel":"02-1588-0241","addr":"경기도 하남시 덕풍동 342-3번지","indutype":"전기제품 - 냉열기기","category":"other"}]},{"lat":"37.538930582","long":"127.20028901","imageIndex":17,"items":[{"name":"해피케어","tel":"031-765-3756","addr":"경기도 하남시 덕풍동 374-2번지 101호","indutype":"용역 서비스 - 종합용역","category":"other"}]},{"lat":"37.539321311","long":"127.20367314","imageIndex":17,"items":[{"name":"행복열쇠","tel":"031-792-8209","addr":"경기도 하남시 덕풍동 415-3번지","indutype":"건축자재 - 목재·석재·철물","category":"other"}]},{"lat":"37.54259643","long":"127.20628442","imageIndex":17,"items":[{"name":"헬스마일","tel":"02-8028-3879","addr":"경기도 하남시 덕풍동 317-32번지","indutype":"기타의료기관 - 기타의료기관 및 기타","category":"other"}]},{"lat":"37.544120099","long":"127.20570016","imageIndex":17,"items":[{"name":"현대LED","tel":"070-4086-5044","addr":"경기도 하남시 덕풍동 285-12번지","indutype":"건축자재 - 인테리어전문","category":"other"}]},{"lat":"37.535071435","long":"127.20203252","imageIndex":17,"items":[{"name":"형제사","tel":"031-792-6614","addr":"경기도 하남시 덕풍동 448-16","indutype":"직물 - 침구·수예점","category":"other"}]},{"lat":"37.540304788","long":"127.1974526","imageIndex":17,"items":[{"name":"호텔화장실","tel":"070-8151-7888","addr":"경기도 하남시 덕풍동 691번지 하남자이 110동 1203호","indutype":"용역 서비스 - 종합용역","category":"other"}]},{"lat":"37.547088698","long":"127.20839007","imageIndex":17,"items":[{"name":"황금건어물","tel":"031-796-0481","addr":"경기도 하남시 덕풍동 822번지 휴먼시아새뜰마을4단지 404동 406호","indutype":"회원제형태 - 기타1","category":"other"}]},{"lat":"37.539710009","long":"127.19753026","imageIndex":17,"items":[{"name":"훈스 드래곤(Huns`s Dragons)","tel":"031-792-8461","addr":"경기도 하남시 덕풍동 363-12번지 요한빌라 301호","indutype":"회원제형태 - 기타4","category":"other"}]},{"lat":"37.541125705","long":"127.19683241","imageIndex":17,"items":[{"name":"훈조이랜드","tel":"","addr":"경기도 하남시 덕풍동 691번지 하남자이 109동 2002호","indutype":"서적문구 - 완구점","category":"other"}]},{"lat":"37.558092575","long":"127.20144867","imageIndex":17,"items":[{"name":"희승가구","tel":"031-795-8847","addr":"경기도 하남시 덕풍동 6-9","indutype":"가구 - 일반가구","category":"other"}]}]