[{"lat":"37.23968752","long":"127.05477939","imageIndex":17,"items":[{"name":"(주)금천조경건설","tel":"031-205-7273","addr":"경기도 수원시 영통구 망포동 382-3 이타운투301-3호","indutype":"용역 서비스 - 기타용역서비스","category":"other"},{"name":"(주)필립무역","tel":"031-283-1458","addr":"경기도 수원시 영통구 망포동 382-3번지 304-1호","indutype":"농업 - 비료,사료,종자","category":"other"},{"name":"IFA(아이에프에이)","tel":"031-206-9129","addr":"경기도 수원시 영통구 망포동 382-3번지 망포동이타운투 401호","indutype":"전기제품 - 기타전기제품","category":"other"},{"name":"래리티샵 (rarity shop)","tel":"031-8003-6478","addr":"경기도 수원시 영통구 망포동 382-3번지 외1필지 망포동 e-타운II 303호","indutype":"직물 - 침구·수예점","category":"other"},{"name":"민소(MINSO)","tel":"000-0000-0000","addr":"경기도 수원시 영통구 망포동 382-3번지","indutype":"문화.취미 - 문화취미기타","category":"other"},{"name":"버블맨24 셀프빨래방 영통점","tel":"","addr":"경기도 수원시 영통구 망포동 382-3번지 E-타운 101-2호","indutype":"수리서비스 - 세탁소","category":"other"},{"name":"시리네 핸드메이드","tel":"031-000-0000","addr":"경기도 수원시 영통구 망포동 382-3번지 망포동 e-타운II 2층 206호","indutype":"의류 - 아동의류","category":"other"},{"name":"에스케이세미","tel":"031-222-7233","addr":"경기도 수원시 영통구 망포동 382-3번지 E타운Ⅱ 203동 1호","indutype":"전기제품 - 기타전기제품","category":"other"},{"name":"에이치티에스케이(HTSK)","tel":"031-273-2438","addr":"경기도 수원시 영통구 망포동 382-3번지 이-타운투 407호","indutype":"서적문구 - 과학기자재","category":"other"},{"name":"제이블루 케이크","tel":"070-8031-4038","addr":"경기도 수원시 영통구 망포동 382-3번지 e타운2 206-2호","indutype":"문화.취미 - 문화취미기타","category":"other"},{"name":"좋은나무교육원","tel":"031-202-2127","addr":"경기도 수원시 영통구 망포동 382-3번지 망포동 e-타운II 2층 203호","indutype":"서적문구 - 일반서적","category":"other"},{"name":"착한마녀","tel":"031-8013-0140","addr":"경기도 수원시 영통구 망포동 382-3번지 1층 101-1호","indutype":"의류 - 정장","category":"other"}]},{"lat":"37.244154953","long":"127.0585017","imageIndex":17,"items":[{"name":"(주)대영건축사사무소","tel":"031-204-2227","addr":"경기도 수원시 영통구 망포동 341번지","indutype":"용역 서비스 - 법률회계서비스(법인)","category":"other"},{"name":"마리컴퍼니","tel":"070-5159-0085","addr":"경기도 수원시 영통구 망포동 341번지 준원빌딩 2동","indutype":"의류 - 정장","category":"other"},{"name":"주식회사 플러스투퍼센트","tel":"070-5159-0085","addr":"경기도 수원시 영통구 망포동 341번지 준원빌딩 2층","indutype":"의류 - 정장","category":"other"}]},{"lat":"37.2404622","long":"127.05525326","imageIndex":17,"items":[{"name":"(주)동전","tel":"0031-0291-0606","addr":"경기도 수원시 영통구 망포동 397-1번지 코스모프라자 104호","indutype":"별도관리 - 자체물품대금","category":"other"},{"name":"삼성조명","tel":"031-202-7123","addr":"경기도 수원시 영통구 망포동 397-1번지 코스모프라자 101호","indutype":"건축자재 - 조명기구","category":"other"},{"name":"주식회사 동전","tel":"0031-0292-2929","addr":"경기도 수원시 영통구 망포동 397-1번지 코스모프라자 104호","indutype":"별도관리 - 자체물품대금","category":"other"},{"name":"주식회사 동전","tel":"031-292-2929","addr":"경기도 수원시 영통구 망포동 397-1번지 코스모프라자 104호","indutype":"사무통신 - 통신기기","category":"other"},{"name":"토즈멤버십라운지 망포센터","tel":"031-202-3383","addr":"경기도 수원시 영통구 망포동 397-1번지 코스모프라자 3층","indutype":"용역 서비스 - 사무서비스","category":"other"}]},{"lat":"37.241243473","long":"127.06088881","imageIndex":17,"items":[{"name":"ACT 영통본점","tel":"031-202-9222","addr":"경기도 수원시 영통구 망포동 510-2번지","indutype":"사무통신 - 통신기기","category":"other"}]},{"lat":"37.247075791","long":"127.05522402","imageIndex":17,"items":[{"name":"DIF","tel":"070-4223-7636","addr":"경기도 수원시 영통구 망포동 5-33번지 1층","indutype":"레져용품 - 스포츠·레져용품","category":"other"}]},{"lat":"37.246410083","long":"127.0527778","imageIndex":17,"items":[{"name":"GS25망포원룸점","tel":"080-555-2525","addr":"경기도 수원시 영통구 망포동 32-7번지","indutype":"유통업 영리 - 편 의 점","category":"other"}]},{"lat":"37.242547664","long":"127.06542044","imageIndex":17,"items":[{"name":"GS25영통뜨란채점","tel":"","addr":"경기도 수원시 영통구 망포동 707번지 나 상가동 101호","indutype":"유통업 영리 - 편 의 점","category":"other"},{"name":"하나로크리닝","tel":"031-203-9370","addr":"경기도 수원시 영통구 망포동 707번지 방죽마을영통뜨란채 상가 104호","indutype":"수리서비스 - 세탁소","category":"other"}]},{"lat":"37.242936065","long":"127.04224907","imageIndex":17,"items":[{"name":"GS25영통파크캐슬점","tel":"","addr":"경기도 수원시 영통구 망포동 760번지 아이파크 캐슬 2단지 상가에이동 104호, 105호","indutype":"유통업 영리 - 편 의 점","category":"other"},{"name":"굿모닝캐슬공인중개사사무소","tel":"031-203-1600","addr":"경기도 수원시 영통구 망포동 760번지 아이파크캐슬2단지 상가 A동 107호","indutype":"용역 서비스 - 부동산 중개·임대","category":"other"}]},{"lat":"37.243267129","long":"127.04869587","imageIndex":17,"items":[{"name":"GS25영통힐스점","tel":"","addr":"경기도 수원시 영통구 망포동 728번지 힐스테이트영통 602동 105호","indutype":"유통업 영리 - 편 의 점","category":"other"},{"name":"순수세탁","tel":"031-202-5686","addr":"경기도 수원시 영통구 망포동 728번지 힐스테이트영통 604동 101호","indutype":"수리서비스 - 세탁소","category":"other"},{"name":"위닥(WIDAK)","tel":"","addr":"경기도 수원시 영통구 망포동 728번지 힐스테이트영통 114동 1204호","indutype":"신변잡화 - 액세서리","category":"other"}]},{"lat":"37.238910971","long":"127.0584415","imageIndex":17,"items":[{"name":"J-ART","tel":"031-205-5747","addr":"경기도 수원시 영통구 망포동 537-1번지","indutype":"문화.취미 - 문화취미기타","category":"other"},{"name":"공예문화협회","tel":"031-205-5747","addr":"경기도 수원시 영통구 망포동 537-1번지","indutype":"문화.취미 - 민예·공예품","category":"other"},{"name":"정훈유통","tel":"02-1666-6434","addr":"경기도 수원시 영통구 망포동 537-1번지","indutype":"신변잡화 - 기타잡화","category":"other"}]},{"lat":"37.236606514","long":"127.05356019","imageIndex":17,"items":[{"name":"LG고급옷수선","tel":"031-204-2910","addr":"경기도 수원시 영통구 망포동 686번지 망포마을동수원엘지빌리지 지하층 105호","indutype":"수리서비스 - 세탁소","category":"other"},{"name":"나임테라피","tel":"031-223-5214","addr":"경기도 수원시 영통구 망포동 686번지 동수원엘지빌리지1차 212호","indutype":"회원제형태 - 기타4","category":"other"},{"name":"닥터용 피씨수리","tel":"","addr":"경기도 수원시 영통구 망포동 686번지 동수원자이1차 상가동 지하 107호","indutype":"수리서비스 - 사무·통신기기수리","category":"other"},{"name":"브레인 에듀","tel":"070-8612-4584","addr":"경기도 수원시 영통구 망포동 686번지 망포마을동수원엘지빌리지 상가동 203호","indutype":"서적문구 - 기타서적문구","category":"other"},{"name":"클라비어튜닝아트","tel":"000-000-0000","addr":"경기도 수원시 영통구 망포동 686","indutype":"레져용품 - 악기점","category":"other"},{"name":"킹세탁","tel":"031-307-2110","addr":"경기도 수원시 영통구 망포동 686번지 망포마을동수원엘지빌리지제상가동제1층102호","indutype":"수리서비스 - 세탁소","category":"other"},{"name":"킹수선","tel":"031-307-2110","addr":"경기도 수원시 영통구 망포동 686번지 망포마을동수원엘지빌리지 113호","indutype":"수리서비스 - 세탁소","category":"other"}]},{"lat":"37.239155056","long":"127.05669488","imageIndex":17,"items":[{"name":"LUCERO루쎄로","tel":"031-291-7807","addr":"경기도 수원시 영통구 망포동 540-5번지 나눔빌딩 3층","indutype":"문화.취미 - 문화취미기타","category":"other"},{"name":"황후애(  )피부관리","tel":"031-202-6080","addr":"경기도 수원시 영통구 망포동 540-5번지","indutype":"회원제형태 - 기타4","category":"other"}]},{"lat":"37.241295104","long":"127.06565608","imageIndex":17,"items":[{"name":"SG서비스","tel":"","addr":"경기도 수원시 영통구 망포동 707번지 방죽마을영통뜨란채 1004동 504호","indutype":"기타 - 기계공구","category":"other"},{"name":"렌트미","tel":"031-306-7574","addr":"경기도 수원시 영통구 망포동 707번지 방죽마을영통뜨란채 1004동 1204호","indutype":"회원제형태 - 기타4","category":"other"},{"name":"페리테일","tel":"","addr":"경기도 수원시 영통구 망포동 707번지 방죽마을영통뜨란채 1004동 403호","indutype":"신변잡화 - 기타잡화","category":"other"}]},{"lat":"37.239578705","long":"127.05633454","imageIndex":17,"items":[{"name":"U에스테틱","tel":"031-203-8278","addr":"경기도 수원시 영통구 망포동 386번지 신영통센트럴타워 405호","indutype":"회원제형태 - 기타4","category":"other"},{"name":"라포르","tel":"031-304-2790","addr":"경기도 수원시 영통구 망포동 386번지 센트럴타워 7층 706호","indutype":"건축자재 - 인테리어전문","category":"other"},{"name":"명품갤러리","tel":"031-202-0292","addr":"경기도 수원시 영통구 망포동 386번지 센트럴타워 118-2호","indutype":"수리서비스 - 세탁소","category":"other"},{"name":"비율컴퍼니(BODY COACH)","tel":"031-1599-7497","addr":"경기도 수원시 영통구 망포동 386번지 센트럴타워 607호","indutype":"레져용품 - 스포츠·레져용품","category":"other"},{"name":"영통악기","tel":"031-251-9933","addr":"경기도 수원시 영통구 망포동 386번지 센트럴타워 2층 203호","indutype":"레져용품 - 피아노대리점","category":"other"},{"name":"영플라워","tel":"031-205-0781","addr":"경기도 수원시 영통구 망포동 386번지 센트럴타워 1층 102호","indutype":"문화.취미 - 화원","category":"other"},{"name":"이룸코리아","tel":"070-8806-5990","addr":"경기도 수원시 영통구 망포동 386번지 센트럴타워 703호 일부","indutype":"회원제형태 - 기타1","category":"other"},{"name":"카인드짐 망포점","tel":"","addr":"경기도 수원시 영통구 망포동 386번지 센트럴타워 4층 407호","indutype":"레져용품 - 스포츠·레져용품","category":"other"}]},{"lat":"37.240160524","long":"127.06428021","imageIndex":17,"items":[{"name":"VUELA studio (부엘라 스튜디오)","tel":"","addr":"경기도 수원시 영통구 망포동 726번지 e편한세상 영통2차 1단지 102동 2층 201호","indutype":"신변잡화 - 기타잡화","category":"other"},{"name":"엠에스쿨링시스템","tel":"031-111-1111","addr":"경기도 수원시 영통구 망포동 726번지 e편한세상영통2차 103동 1404호","indutype":"용역 서비스 - 기타용역서비스","category":"other"},{"name":"월드크리닝","tel":"031-202-7891","addr":"경기도 수원시 영통구 망포동 726번지 e편한세상영통2차 1단지 106동 지1층 108호","indutype":"수리서비스 - 세탁소","category":"other"},{"name":"윤이나 (Yunina)","tel":"","addr":"경기도 수원시 영통구 망포동 726번지 e편한세상영통2차 101동 601호","indutype":"신변잡화 - 기타잡화","category":"other"}]},{"lat":"37.243155905","long":"127.05611166","imageIndex":17,"items":[{"name":"경기시스템공조","tel":"031-202-7985","addr":"경기도 수원시 영통구 망포동 332-1번지 309호","indutype":"기타 - 기계공구","category":"other"},{"name":"해피트리","tel":"031-239-6800","addr":"경기도 수원시 영통구 망포동 332-1번지","indutype":"문화.취미 - 화원","category":"other"}]},{"lat":"37.237987853","long":"127.04664162","imageIndex":17,"items":[{"name":"경기종합생활기술","tel":"","addr":"경기도 수원시 영통구 망포동 221-13번지 2층 2호","indutype":"수리서비스 - 가정용품수리","category":"other"}]},{"lat":"37.241598547","long":"127.05283098","imageIndex":17,"items":[{"name":"고블락","tel":"031-205-8194","addr":"경기도 수원시 영통구 망포동 294-7번지 B동 101호","indutype":"주방용구 - 주방용식기","category":"other"}]},{"lat":"37.237496643","long":"127.05780938","imageIndex":17,"items":[{"name":"골피아","tel":"031-0000-0000","addr":"경기도 수원시 영통구 망포동 570-4번지 한샘빌딩 7층","indutype":"레져용품 - 골프용품 전문점","category":"other"},{"name":"동수원메리퀸&자미온","tel":"031-222-2909","addr":"경기도 수원시 영통구 망포동 570-4번지 한샘빌딩 1층","indutype":"직물 - 침구·수예점","category":"other"},{"name":"렛츠 스터디카페 망포점","tel":"","addr":"경기도 수원시 영통구 망포동 570-4번지 광성프라자 6층","indutype":"용역 서비스 - 사무서비스","category":"other"},{"name":"렛츠스터디카페","tel":"070-2605-8584","addr":"경기도 수원시 영통구 망포동 570-4번지 한샘빌딩 6층","indutype":"용역 서비스 - 사무서비스","category":"other"},{"name":"수원투혼","tel":"031-204-5915","addr":"경기도 수원시 영통구 망포동 570-4번지 2층","indutype":"회원제형태 - 레져업소","category":"other"},{"name":"주식회사 골피아","tel":"","addr":"경기도 수원시 영통구 망포동 570-4번지 한샘빌딩 701호","indutype":"레져용품 - 스포츠·레져용품","category":"other"}]},{"lat":"37.238713936","long":"127.05583807","imageIndex":17,"items":[{"name":"공간샘 스터디카페 망포점","tel":"","addr":"경기도 수원시 영통구 망포동 543-2번지 센타프라자 201호","indutype":"용역 서비스 - 사무서비스","category":"other"},{"name":"더숲","tel":"031-754-1325","addr":"경기도 수원시 영통구 망포동 543-2번지 센타프라자 7층 701호 (A9호실)","indutype":"건축자재 - 인테리어전문","category":"other"},{"name":"더프라임에듀케이션","tel":"","addr":"경기도 수원시 영통구 망포동 543-2번지 센타프라자 망포비즈스퀘어 701호","indutype":"용역 서비스 - 종합용역","category":"other"},{"name":"동안클럽","tel":"031-205-2234","addr":"경기도 수원시 영통구 망포동 543-2번지 센터프라자 603호","indutype":"회원제형태 - 기타4","category":"other"},{"name":"세종과학","tel":"031-000-0000","addr":"경기도 수원시 영통구 망포동 543-2번지 센타프라자 7층 701호","indutype":"서적문구 - 과학기자재","category":"other"},{"name":"아쿠아밸리","tel":"031-206-6116","addr":"경기도 수원시 영통구 망포동 543-2번지 센타프라자 5층 501호","indutype":"레져용품 - 스포츠·레져용품","category":"other"},{"name":"에스에이치티(SHT)산업","tel":"031-111-1111","addr":"경기도 수원시 영통구 망포동 543-2번지 센타프라자 망포비즈스퀘어 7층 1호","indutype":"용역 서비스 - 사무서비스","category":"other"},{"name":"에스지하이테코","tel":"02-427-4411","addr":"경기도 수원시 영통구 망포동 543-2번지 센터프라자 403호","indutype":"서적문구 - 과학기자재","category":"other"},{"name":"주식회사 꿈을파는가게","tel":"070-4282-2468","addr":"경기도 수원시 영통구 망포동 543-2번지 센타프라자","indutype":"신변잡화 - 기타잡화","category":"other"}]},{"lat":"37.241571445","long":"127.05300001","imageIndex":17,"items":[{"name":"국가대표","tel":"031-203-6976","addr":"경기도 수원시 영통구 망포동 294-8번지 101호","indutype":"레져용품 - 스포츠·레져용품","category":"other"}]},{"lat":"37.244409082","long":"127.05443324","imageIndex":17,"items":[{"name":"그대가세탁소","tel":"031-202-2720","addr":"경기도 수원시 영통구 망포동 720번지 그대가프리미어 상가 107호","indutype":"수리서비스 - 세탁소","category":"other"}]},{"lat":"37.241408772","long":"127.05413818","imageIndex":17,"items":[{"name":"꾸밀레오","tel":"070-8271-1516","addr":"경기도 수원시 영통구 망포동 295-2번지 해피프라자 102호","indutype":"건축자재 - 인테리어전문","category":"other"},{"name":"이담도예교습소","tel":"031-294-3265","addr":"경기도 수원시 영통구 망포동 295-2번지 해피프라자 202호","indutype":"문화.취미 - 문화취미기타","category":"other"}]},{"lat":"37.239577682","long":"127.05855469","imageIndex":17,"items":[{"name":"나무","tel":"031-1544-0135","addr":"경기도 수원시 영통구 망포동 524-4번지 1층","indutype":"의류 - 정장","category":"other"}]},{"lat":"37.245048158","long":"127.05592139","imageIndex":17,"items":[{"name":"놀숲망포점","tel":"070-7525-2005","addr":"경기도 수원시 영통구 망포동 322-3번지 골든스퀘어 605호","indutype":"서적문구 - 일반서적","category":"other"},{"name":"무드페이지 망포점","tel":"031-111-1111","addr":"경기도 수원시 영통구 망포동 322-3번지 골든스퀘어 1층 113호","indutype":"의류 - 정장","category":"other"},{"name":"법무사 정주환 사무소","tel":"031-273-8020","addr":"경기도 수원시 영통구 망포동 322-3번지 골든스퀘어 2층 209호","indutype":"용역 서비스 - 법률회계서비스(개인)","category":"other"},{"name":"온뜨레 꽃집","tel":"031-204-8431","addr":"경기도 수원시 영통구 망포동 322-3번지 골든스퀘어 131호","indutype":"문화.취미 - 화원","category":"other"},{"name":"중앙조명(영통점)","tel":"031-203-8876","addr":"경기도 수원시 영통구 망포동 322-3번지 청송빌딩 2층","indutype":"건축자재 - 조명기구","category":"other"},{"name":"판다텔레콤","tel":"","addr":"경기도 수원시 영통구 망포동 322-3번지 골든스퀘어 지하1층 비103호","indutype":"사무통신 - 통신기기","category":"other"},{"name":"프레","tel":"031-528-0028","addr":"경기도 수원시 영통구 망포동 322-3번지 골든스퀘어 109호","indutype":"신변잡화 - 액세서리","category":"other"}]},{"lat":"37.238243358","long":"127.06022161","imageIndex":17,"items":[{"name":"늘푸른인테리어","tel":"031-205-3372","addr":"경기도 수원시 영통구 망포동 485-5번지","indutype":"건축자재 - 인테리어전문","category":"other"}]},{"lat":"37.239300307","long":"127.05424945","imageIndex":17,"items":[{"name":"다인정보통신","tel":"031-204-2010","addr":"경기도 수원시 영통구 망포동 378번지 정석그린프라자 105호","indutype":"사무통신 - 통신기기","category":"other"},{"name":"뷰티월드","tel":"031-226-0815","addr":"경기도 수원시 영통구 망포동 378번지 정석그린프라자 303호","indutype":"회원제형태 - 기타4","category":"other"},{"name":"블록피아","tel":"031-206-7399","addr":"경기도 수원시 영통구 망포동 378번지 정석그린프라자","indutype":"서적문구 - 완구점","category":"other"},{"name":"키즈원아동발달센터","tel":"031-205-4105","addr":"경기도 수원시 영통구 망포동 378번지 정석그린프라자 302호","indutype":"회원제형태 - 기타4","category":"other"},{"name":"하우스터디 스터디카페 망포센터","tel":"031-206-8209","addr":"경기도 수원시 영통구 망포동 378번지 정석그린프라자 5층 502호 일부","indutype":"용역 서비스 - 사무서비스","category":"other"}]},{"lat":"37.243856872","long":"127.0600568","imageIndex":17,"items":[{"name":"대신유리","tel":"031-273-6240","addr":"경기도 수원시 영통구 망포동 345-20번지","indutype":"건축자재 - 유리","category":"other"},{"name":"씨유망포원룸점","tel":"031-203-8167","addr":"경기도 수원시 영통구 망포동 345-20번지 1층","indutype":"유통업 영리 - 편 의 점","category":"other"}]},{"lat":"37.240822653","long":"127.05516335","imageIndex":17,"items":[{"name":"대한검도회(청파검도관)","tel":"031-205-8062","addr":"경기도 수원시 영통구 망포동 399-4번지 엘지빌딩 301호","indutype":"회원제형태 - 레져업소","category":"other"}]},{"lat":"37.2472122","long":"127.05230495","imageIndex":17,"items":[{"name":"대한민국수선1번가","tel":"031-211-4242","addr":"경기도 수원시 영통구 망포동 11-10번지 8층","indutype":"수리서비스 - 세탁소","category":"other"}]},{"lat":"37.236021637","long":"127.05166656","imageIndex":17,"items":[{"name":"도자기핸드페인팅햇살정원","tel":"031-202-7075","addr":"경기도 수원시 영통구 망포동 650-146번지 1층","indutype":"문화.취미 - 민예·공예품","category":"other"}]},{"lat":"37.243128635","long":"127.05664135","imageIndex":17,"items":[{"name":"동양산업","tel":"031-204-5769","addr":"경기도 수원시 영통구 망포동 332-4번지","indutype":"건축자재 - 유리","category":"other"},{"name":"아침마당세탁","tel":"031-202-8239","addr":"경기도 수원시 영통구 망포동 332-4번지 101동","indutype":"수리서비스 - 세탁소","category":"other"}]},{"lat":"37.240470104","long":"127.05769883","imageIndex":17,"items":[{"name":"두원공조","tel":"070-7583-4566","addr":"경기도 수원시 영통구 망포동 723번지 한양수자인에듀파크 107동 603호","indutype":"용역 서비스 - 기타용역서비스","category":"other"}]},{"lat":"37.241154266","long":"127.05902919","imageIndex":17,"items":[{"name":"디자인마켓","tel":"031-206-9333","addr":"경기도 수원시 영통구 망포동 417-2번지 센트럴프라자 4층 404-2호","indutype":"용역 서비스 - 종합용역","category":"other"}]},{"lat":"37.2437399","long":"127.0597186","imageIndex":17,"items":[{"name":"딜라이트리","tel":"02-000-0000","addr":"경기도 수원시 영통구 망포동 345-15번지 1층 1호","indutype":"서적문구 - 출판 및 인쇄물","category":"other"},{"name":"라이크어라운드","tel":"","addr":"경기도 수원시 영통구 망포동 345-15번지 1동","indutype":"신변잡화 - 기타잡화","category":"other"}]},{"lat":"37.235191301","long":"127.05492281","imageIndex":17,"items":[{"name":"딩고","tel":"070-4242-5959","addr":"경기도 수원시 영통구 망포동 599-1번지 1층","indutype":"문화.취미 - 애완동물","category":"other"}]},{"lat":"37.240661813","long":"127.05201892","imageIndex":17,"items":[{"name":"라이더","tel":"070-4108-2532","addr":"경기도 수원시 영통구 망포동 690번지 망포마을동수원엘지빌리지 206동 16층 1604호","indutype":"의류 - 정장","category":"other"}]},{"lat":"37.238849888","long":"127.05402375","imageIndex":17,"items":[{"name":"로얄인테리어","tel":"031-273-8881","addr":"경기도 수원시 영통구 망포동 651-6번지 1층 101호","indutype":"직물 - 카페트,커튼,천막,지물","category":"other"},{"name":"아이리스","tel":"031-206-3609","addr":"경기도 수원시 영통구 망포동 651-6번지 108호","indutype":"의류 - 내의판매","category":"other"},{"name":"하나포토스튜디오","tel":"031-205-0447","addr":"경기도 수원시 영통구 망포동 651-6번지","indutype":"광학제품 - 사진관","category":"other"}]},{"lat":"37.247022832","long":"127.05266549","imageIndex":17,"items":[{"name":"로엔느케이크","tel":"","addr":"경기도 수원시 영통구 망포동 13-2번지 상가 101호 월드2","indutype":"문화.취미 - 문화취미기타","category":"other"}]},{"lat":"37.24323717","long":"127.05572853","imageIndex":17,"items":[{"name":"리바트키친 경인점","tel":"","addr":"경기도 수원시 영통구 망포동 332-7번지 2층 210호","indutype":"가구 - 일반가구","category":"other"},{"name":"망포작심스페이스","tel":"031-202-0910","addr":"경기도 수원시 영통구 망포동 332-7번지 3층","indutype":"용역 서비스 - 사무서비스","category":"other"},{"name":"백그라운드 (100 GROUND)","tel":"031-202-1006","addr":"경기도 수원시 영통구 망포동 332-7번지 2층","indutype":"용역 서비스 - 사무서비스","category":"other"},{"name":"백만송이플라워","tel":"031-202-1335","addr":"경기도 수원시 영통구 망포동 332-7번지 1층 102호","indutype":"문화.취미 - 화원","category":"other"}]},{"lat":"37.242665171","long":"127.06471051","imageIndex":17,"items":[{"name":"리본장","tel":"","addr":"경기도 수원시 영통구 망포동 707번지 방죽마을영통뜨란채 1005동 1201호","indutype":"문화.취미 - 문화취미기타","category":"other"}]},{"lat":"37.238850326","long":"127.05299821","imageIndex":17,"items":[{"name":"리온","tel":"031-754-2557","addr":"경기도 수원시 영통구 망포동 651-1번지 신영통동원프라자 301호","indutype":"전기제품 - 기타전기제품","category":"other"},{"name":"아이리스꽃집","tel":"031-205-5554","addr":"경기도 수원시 영통구 망포동 651-1번지 신영통동원프라자 111호","indutype":"문화.취미 - 화원","category":"other"},{"name":"영통종합요양센터","tel":"031-204-7114","addr":"경기도 수원시 영통구 망포동 651-1번지 신영통동원프라자 3층 4층","indutype":"기타의료기관 - 기타의료기관 및 기타","category":"other"},{"name":"좋은집이야기","tel":"031-202-1819","addr":"경기도 수원시 영통구 망포동 651동원프라자103","indutype":"직물 - 카페트,커튼,천막,지물","category":"other"},{"name":"폴라리스","tel":"031-203-4040","addr":"경기도 수원시 영통구 망포동 651-1번지 동원프라자 103호","indutype":"의류 - 정장","category":"other"}]},{"lat":"37.238534252","long":"127.05465463","imageIndex":17,"items":[{"name":"마이하비하우스(MYHOBBYHOUSE)","tel":"","addr":"경기도 수원시 영통구 망포동 686번지 동수원자이1차 106동 1403호","indutype":"문화.취미 - 문화취미기타","category":"other"},{"name":"아이모","tel":"031-222-5139","addr":"경기도 수원시 영통구 망포동 686번지 동수원엘지빌리지1차 106동 2004호","indutype":"회원제형태 - 기타4","category":"other"}]},{"lat":"37.237244176","long":"127.05819235","imageIndex":17,"items":[{"name":"마임,에스인휘트니스","tel":"031-202-0405","addr":"경기도 수원시 영통구 망포동 570-5번지 뉴LG프라자 304호","indutype":"회원제형태 - 레져업소","category":"other"},{"name":"이가철물조명","tel":"031-203-9084","addr":"경기도 수원시 영통구 망포동 570-5번지 뉴LG프라자 113호","indutype":"건축자재 - 목재·석재·철물","category":"other"},{"name":"체형관리","tel":"031-204-1010","addr":"경기도 수원시 영통구 망포동 570-5번지 뉴LG프라자 601호 찜질방내","indutype":"회원제형태 - 기타4","category":"other"}]},{"lat":"37.237765542","long":"127.06077345","imageIndex":17,"items":[{"name":"망포1동주민자치위원회","tel":"031-228-1063","addr":"경기도 수원시 영통구 망포동 484번지","indutype":"문화.취미 - 문화취미기타","category":"other"}]},{"lat":"37.239326754","long":"127.05557929","imageIndex":17,"items":[{"name":"망포유리","tel":"031-205-6205","addr":"경기도 수원시 영통구 망포동 383-1번지","indutype":"건축자재 - 유리","category":"other"},{"name":"앙뜨리스튜디오","tel":"031-273-4782","addr":"경기도 수원시 영통구 망포동 383-1번지","indutype":"광학제품 - 사진관","category":"other"}]},{"lat":"37.24721227","long":"127.05213588","imageIndex":17,"items":[{"name":"메이크 썸띵 (make somethin'')","tel":"","addr":"경기도 수원시 영통구 망포동 11-19번지 603호","indutype":"신변잡화 - 기타잡화","category":"other"}]},{"lat":"37.235688218","long":"127.0517565","imageIndex":17,"items":[{"name":"모모디자인","tel":"070-4111-1256","addr":"경기도 수원시 영통구 망포동 649-71번지 외2필지 1층 104호","indutype":"직물 - 카페트,커튼,천막,지물","category":"other"},{"name":"자이명품세탁소","tel":"031-202-4110","addr":"경기도 수원시 영통구 망포동 649-71번지 105호","indutype":"수리서비스 - 세탁소","category":"other"}]},{"lat":"37.237990904","long":"127.0605595","imageIndex":17,"items":[{"name":"미니스톱망포벽산점","tel":"031-1577-9621","addr":"경기도 수원시 영통구 망포동 485-14번지 102,103호","indutype":"유통업 영리 - 편 의 점","category":"other"}]},{"lat":"37.247049615","long":"127.0532516","imageIndex":17,"items":[{"name":"민은갤러리","tel":"031-000-0000","addr":"경기도 수원시 영통구 망포동 8-12번지","indutype":"문화.취미 - 화랑","category":"other"},{"name":"영선갤러리","tel":"031-203-1089","addr":"경기도 수원시 영통구 망포동 8-12번지 2층","indutype":"문화.취미 - 화랑","category":"other"}]},{"lat":"37.238821735","long":"127.0565594","imageIndex":17,"items":[{"name":"바라보다","tel":"031-206-1057","addr":"경기도 수원시 영통구 망포동 542-11 중앙프라자1-3호","indutype":"의류 - 정장","category":"other"}]},{"lat":"37.236799194","long":"127.04469133","imageIndex":17,"items":[{"name":"박지성축구교실","tel":"031-231-2791","addr":"경기도 수원시 영통구 망포동 212번지","indutype":"회원제형태 - 레져업소","category":"other"}]},{"lat":"37.242570775","long":"127.05489407","imageIndex":17,"items":[{"name":"반도광고","tel":"031-206-9825","addr":"경기도 수원시 영통구 망포동 297-8번지","indutype":"용역 서비스 - 종합용역","category":"other"},{"name":"타일월드","tel":"031-307-0678","addr":"경기도 수원시 영통구 망포동 297-8번지","indutype":"건축자재 - 건축용 요업제품","category":"other"},{"name":"하나철물","tel":"031-202-5544","addr":"경기도 수원시 영통구 망포동 297-8번지","indutype":"기타 - 기계공구","category":"other"}]},{"lat":"37.241217048","long":"127.05963782","imageIndex":17,"items":[{"name":"백''s 영어 북카페","tel":"031-273-1230","addr":"경기도 수원시 영통구 망포동 417-26번지 4층","indutype":"서적문구 - 일반서적","category":"other"},{"name":"유창인테리어","tel":"031-205-6947","addr":"경기도 수원시 영통구 망포동 417-26번지 2층","indutype":"건축자재 - 인테리어전문","category":"other"}]},{"lat":"37.247130228","long":"127.05436747","imageIndex":17,"items":[{"name":"백억전자","tel":"070-4067-3353","addr":"경기도 수원시 영통구 망포동 5-27번지 썬테크노빌 401호","indutype":"전기제품 - 기타전기제품","category":"other"},{"name":"주식회사 백억전자","tel":"070-7798-3353","addr":"경기도 수원시 영통구 망포동 5-27번지 썬테크노빌 401호","indutype":"전기제품 - 기타전기제품","category":"other"}]},{"lat":"37.241849939","long":"127.05491611","imageIndex":17,"items":[{"name":"백화종합환경","tel":"031-224-0504","addr":"경기도 수원시 영통구 망포동 369-3","indutype":"용역 서비스 - 종합용역","category":"other"},{"name":"생활의향수","tel":"031-203-7703","addr":"경기도 수원시 영통구 망포동 369-3번지","indutype":"신변잡화 - 기타잡화","category":"other"},{"name":"수원성산기독교백화점","tel":"031-206-7091","addr":"경기도 수원시 영통구 망포동 369-3번지 3층","indutype":"서적문구 - 전문서적","category":"other"},{"name":"제일기획","tel":"031-206-9527","addr":"경기도 수원시 영통구 망포동 369-3","indutype":"용역 서비스 - 종합용역","category":"other"},{"name":"천사크린주식회사","tel":"031-205-1004","addr":"경기도 수원시 영통구 망포동 369-3정진빌딩301","indutype":"용역 서비스 - 기타용역서비스","category":"other"},{"name":"향수","tel":"031-203-7703","addr":"경기도 수원시 영통구 망포동 369-3번지 1층","indutype":"신변잡화 - 기타잡화","category":"other"}]},{"lat":"37.242598339","long":"127.05366563","imageIndex":17,"items":[{"name":"보람씽크","tel":"031-203-0477","addr":"경기도 수원시 영통구 망포동 299-1번지","indutype":"주방용구 - 주방용구","category":"other"}]},{"lat":"37.24036418","long":"127.05271746","imageIndex":17,"items":[{"name":"봉쥬르독","tel":"","addr":"경기도 수원시 영통구 망포동 690번지 망포마을동수원엘지빌리지2차 203동 2004호","indutype":"문화.취미 - 애완동물","category":"other"},{"name":"올포피엠","tel":"031-308-8084","addr":"경기도 수원시 영통구 망포동 690번지 망포마을동수원LG빌리지 203동 2004호","indutype":"용역 서비스 - 사무서비스","category":"other"}]},{"lat":"37.247743467","long":"127.05311681","imageIndex":17,"items":[{"name":"브라이트리","tel":"070-7166-7189","addr":"경기도 수원시 영통구 망포동 10-1번지 101호","indutype":"신변잡화 - 기타잡화","category":"other"}]},{"lat":"37.243155819","long":"127.05630326","imageIndex":17,"items":[{"name":"뽐므(Pomme)","tel":"070-4256-8082","addr":"경기도 수원시 영통구 망포동 332-5번지 101호","indutype":"의류 - 정장","category":"other"}]},{"lat":"37.245076603","long":"127.05266421","imageIndex":17,"items":[{"name":"삼성꽃농원","tel":"031-205-4205","addr":"경기도 수원시 영통구 망포동 41-1","indutype":"문화.취미 - 화원","category":"other"}]},{"lat":"37.242022019","long":"127.05286507","imageIndex":17,"items":[{"name":"세븐일레븐수원망포마을점","tel":"031-1577-0711","addr":"경기도 수원시 영통구 망포동 291-18번지 1층 101호","indutype":"유통업 영리 - 편 의 점","category":"other"}]},{"lat":"37.240049541","long":"127.05097043","imageIndex":17,"items":[{"name":"세븐일레븐수원망포현대점","tel":"031-1577-0711","addr":"경기도 수원시 영통구 망포동 683번지 망포마을현대2차아이파크 상가동 106호","indutype":"유통업 영리 - 편 의 점","category":"other"},{"name":"현대세탁","tel":"031-203-5005","addr":"경기도 수원시 영통구 망포동 683번지 망포마을현대2차아이파크 상가 201호","indutype":"수리서비스 - 세탁소","category":"other"},{"name":"현대스포츠센타","tel":"031-204-7369","addr":"경기도 수원시 영통구 망포동 683번지 망포마을현대2차아이파크 단지내주민체육시설","indutype":"레져용품 - 골프용품 전문점","category":"other"},{"name":"현대스포츠센터","tel":"031-204-7369","addr":"경기도 수원시 영통구 망포동 683번지 망포마을현대2차아이파크 단지내 주민체육시설","indutype":"레져용품 - 골프용품 전문점","category":"other"}]},{"lat":"37.239855976","long":"127.06069616","imageIndex":17,"items":[{"name":"세븐일레븐수원영통벽산점","tel":"","addr":"경기도 수원시 영통구 망포동 488번지 늘푸른벽산아파트 101호,102호","indutype":"유통업 영리 - 편 의 점","category":"other"},{"name":"진영인테리어","tel":"031-206-2221","addr":"경기도 수원시 영통구 망포동 488번지 제주상가 가동 1층 101호","indutype":"건축자재 - 인테리어전문","category":"other"}]},{"lat":"37.242630415","long":"127.06219722","imageIndex":17,"items":[{"name":"세븐일레븐영통SK뷰점","tel":"031-1577-0711","addr":"경기도 수원시 영통구 망포동 725번지 SK View 근린생활시설 101호","indutype":"유통업 영리 - 편 의 점","category":"other"}]},{"lat":"37.238885293","long":"127.05547756","imageIndex":17,"items":[{"name":"속옷 상설할인매장","tel":"031-206-1593","addr":"경기도 수원시 영통구 망포동 544-11번지 망포프라자 104,105호","indutype":"의류 - 내의판매","category":"other"},{"name":"키스톤서적","tel":"031-206-1607","addr":"경기도 수원시 영통구 망포동 544-11번지 망포프라자 401-1호","indutype":"서적문구 - 일반서적","category":"other"}]},{"lat":"37.236632266","long":"127.0564677","imageIndex":17,"items":[{"name":"수다","tel":"031-273-9963","addr":"경기도 수원시 영통구 망포동 698번지 엘지동수원자이아파트 상가 107호","indutype":"의류 - 정장","category":"other"}]},{"lat":"37.240680154","long":"127.05124131","imageIndex":17,"items":[{"name":"수원유통","tel":"031-204-6211","addr":"경기도 수원시 영통구 망포동 690번지 동수원엘지빌리지2차 207동 706호","indutype":"유통업 영리 - 기타유통업","category":"other"}]},{"lat":"37.242273434","long":"127.05489386","imageIndex":17,"items":[{"name":"수원전자담배멀티프라자 망포점","tel":"070-0000-0000","addr":"경기도 수원시 영통구 망포동 297-7번지 101호","indutype":"기타 - 기타 전문점","category":"other"}]},{"lat":"37.237857579","long":"127.05667142","imageIndex":17,"items":[{"name":"스터디센터","tel":"031-205-8209","addr":"경기도 수원시 영통구 망포동 558번지 신영통알파빌딩 504호","indutype":"용역 서비스 - 사무서비스","category":"other"},{"name":"신영세무회계","tel":"031-202-4545","addr":"경기도 수원시 영통구 망포동 558번지 신영통알파빌딩 3층 501호","indutype":"용역 서비스 - 법률회계서비스(개인)","category":"other"},{"name":"원더우먼","tel":"031-203-4181","addr":"경기도 수원시 영통구 망포동 558번지 신영통알파빌딩 104호","indutype":"의류 - 정장","category":"other"}]},{"lat":"37.244073401","long":"127.0594709","imageIndex":17,"items":[{"name":"시온뮤직스터디센터","tel":"","addr":"경기도 수원시 영통구 망포동 345-8번지 황오빌딩 지하층","indutype":"용역 서비스 - 사무서비스","category":"other"}]},{"lat":"37.242435645","long":"127.05483762","imageIndex":17,"items":[{"name":"시온상사","tel":"031-202-0477","addr":"경기도 수원시 영통구 망포동 297-5번지","indutype":"건축자재 - 페인트","category":"other"}]},{"lat":"37.238578333","long":"127.0568297","imageIndex":17,"items":[{"name":"신사임당우리옷","tel":"031-373-7020","addr":"경기도 수원시 영통구 망포동 557-1번지 효성빌딩 101호","indutype":"의류 - 맞춤복점","category":"other"},{"name":"주연테크/컴퓨터119","tel":"031-203-7119","addr":"경기도 수원시 영통구 망포동 557-1번지","indutype":"사무통신 - 통신기기","category":"other"}]},{"lat":"37.237630856","long":"127.05980417","imageIndex":17,"items":[{"name":"씨유망포벽산점","tel":"031-273-1876","addr":"경기도 수원시 영통구 망포동 485-16번지 코너 1층","indutype":"유통업 영리 - 편 의 점","category":"other"}]},{"lat":"37.247328421","long":"127.0544465","imageIndex":17,"items":[{"name":"씨유망포원경점","tel":"080-080-3663","addr":"경기도 수원시 영통구 망포동 5-15번지 2층","indutype":"유통업 영리 - 편 의 점","category":"other"}]},{"lat":"37.241329428","long":"127.04992313","imageIndex":17,"items":[{"name":"씨유망포타운점","tel":"080-080-3663","addr":"경기도 수원시 영통구 망포동 255-2번지","indutype":"유통업 영리 - 편 의 점","category":"other"}]},{"lat":"37.234877381","long":"127.0515306","imageIndex":17,"items":[{"name":"씨유수원망포LG점","tel":"031-202-8155","addr":"경기도 수원시 영통구 망포동 649-38번지 진성프라자 106호","indutype":"유통업 영리 - 편 의 점","category":"other"},{"name":"씨크릿","tel":"070-7568-8791","addr":"경기도 수원시 영통구 망포동 649-38번지 진성프라자 103호","indutype":"의류 - 정장","category":"other"},{"name":"윙크","tel":"031-205-3739","addr":"경기도 수원시 영통구 망포동 649-38번지 진성프라자 107호","indutype":"의류 - 정장","category":"other"},{"name":"주식회사 프라임에듀","tel":"031-222-2222","addr":"경기도 수원시 영통구 망포동 649-38번지 진성프라자 301호","indutype":"서적문구 - 일반서적","category":"other"},{"name":"청송골프","tel":"031-202-5225","addr":"경기도 수원시 영통구 망포동 649-38번지 진성프라자 401호","indutype":"회원제형태 - 레져업소","category":"other"}]},{"lat":"37.240465884","long":"127.06616253","imageIndex":17,"items":[{"name":"아우라","tel":"","addr":"경기도 수원시 영통구 망포동 727번지 e편한세상영동2차2단지 제206동 상가 103호","indutype":"의류 - 정장","category":"other"}]},{"lat":"37.236744252","long":"127.04711421","imageIndex":17,"items":[{"name":"아이유애플","tel":"031-202-7470","addr":"경기도 수원시 영통구 망포동 696번지 망포마을벽산이빌리지 상가동 102호","indutype":"전기제품 - 가전제품","category":"other"},{"name":"조은정보시스템","tel":"031-205-6708","addr":"경기도 수원시 영통구 망포동 696번지 망포마을벽산이빌리지","indutype":"사무통신 - 컴퓨터","category":"other"}]},{"lat":"37.237829572","long":"127.0587788","imageIndex":17,"items":[{"name":"아이제이세라믹","tel":"031-202-4133","addr":"경기도 수원시 영통구 망포동 532-1번지 세호프라자 104호","indutype":"건축자재 - 건축용 요업제품","category":"other"},{"name":"풍경이있는집","tel":"031-266-2003","addr":"경기도 수원시 영통구 망포동 532-1번지 세호프라자 103호","indutype":"가구 - 기타가구","category":"other"},{"name":"현대족자","tel":"031-206-7837","addr":"경기도 수원시 영통구 망포동 532-1번지 세호프라자 101호","indutype":"문화.취미 - 화방·표구점","category":"other"}]},{"lat":"37.238632782","long":"127.05597325","imageIndex":17,"items":[{"name":"아인","tel":"031-202-5465","addr":"경기도 수원시 영통구 망포동 542-5번지 1층","indutype":"의류 - 정장","category":"other"}]},{"lat":"37.240517436","long":"127.05252597","imageIndex":17,"items":[{"name":"악마는프라다를입는다","tel":"031-204-9775","addr":"경기도 수원시 영통구 망포동 690번지 동수원엘지빌리지2차 상가동 1층 104호","indutype":"의류 - 정장","category":"other"},{"name":"이화사랑노인방문요양센터","tel":"031-205-8843","addr":"경기도 수원시 영통구 망포동 690번지 망포마을동수원엘지빌리지 207호","indutype":"기타의료기관 - 기타의료기관 및 기타","category":"other"},{"name":"태장문구","tel":"031-205-0180","addr":"경기도 수원시 영통구 망포동 690엘지빌리지2차상가102","indutype":"서적문구 - 문구용품","category":"other"}]},{"lat":"37.241327375","long":"127.05483686","imageIndex":17,"items":[{"name":"알레르망 수원 망포점","tel":"031-203-7338","addr":"경기도 수원시 영통구 망포동 370-3번지","indutype":"직물 - 침구·수예점","category":"other"}]},{"lat":"37.239579068","long":"127.05552312","imageIndex":17,"items":[{"name":"알파문구망포역점","tel":"031-278-0577","addr":"경기도 수원시 영통구 망포동 383-12번지 망포동 근린생활시설 102호","indutype":"서적문구 - 문구용품","category":"other"}]},{"lat":"37.243991999","long":"127.06011326","imageIndex":17,"items":[{"name":"에스브이텍주식회사","tel":"031-213-4495","addr":"경기도 수원시 영통구 망포동 345-2번지 102호","indutype":"전기제품 - 가전제품","category":"other"}]},{"lat":"37.242103941","long":"127.05085903","imageIndex":17,"items":[{"name":"에이스수선","tel":"031-204-3004","addr":"경기도 수원시 영통구 망포동 289-3번지 초원빌 206호","indutype":"수리서비스 - 세탁소","category":"other"}]},{"lat":"37.24507544","long":"127.05535788","imageIndex":17,"items":[{"name":"영통골프프라자(주)","tel":"031-203-7100","addr":"경기도 수원시 영통구 망포동 28-15","indutype":"레져용품 - 골프용품 전문점","category":"other"}]},{"lat":"37.241657159","long":"127.06247821","imageIndex":17,"items":[{"name":"영통교육원","tel":"031-204-0396","addr":"경기도 수원시 영통구 망포동 509-1번지 영통마젤란21 1101동 704호","indutype":"서적문구 - 전문서적","category":"other"}]},{"lat":"37.246715413","long":"127.05514487","imageIndex":17,"items":[{"name":"영통꽃집","tel":"031-224-2112","addr":"경기도 수원시 영통구 망포동 3-1번지","indutype":"문화.취미 - 화원","category":"other"}]},{"lat":"37.242257002","long":"127.05114088","imageIndex":17,"items":[{"name":"영통잉크토너","tel":"031-202-6791","addr":"경기도 수원시 영통구 망포동 290-1번지 청안빌라 나동 201호","indutype":"사무통신 - 기타 사무용품","category":"other"}]},{"lat":"37.23654426","long":"127.05161055","imageIndex":17,"items":[{"name":"올리브씽크,올리브디자인","tel":"031-247-0511","addr":"경기도 수원시 영통구 망포동 234-49번지 외2필지 A동 1층 .B동 1층","indutype":"주방용구 - 주방용구","category":"other"}]},{"lat":"37.237487737","long":"127.05758398","imageIndex":17,"items":[{"name":"우리철물","tel":"031-206-5720","addr":"경기도 수원시 영통구 망포동 569-3번지","indutype":"기타 - 기계공구","category":"other"}]},{"lat":"37.235682914","long":"127.04174945","imageIndex":17,"items":[{"name":"우림창호","tel":"031-236-0705","addr":"경기도 수원시 영통구 망포동 207-7번지 공장동 다동 일부","indutype":"건축자재 - 기타건축자재","category":"other"},{"name":"주식회사인성스틸","tel":"031-221-2830","addr":"경기도 수원시 영통구 망포동 207-7번지","indutype":"건축자재 - 기타건축자재","category":"other"}]},{"lat":"37.240548753","long":"127.04095178","imageIndex":17,"items":[{"name":"우원조경건설","tel":"031-267-3075","addr":"경기도 수원시 영통구 망포동 121-20번지","indutype":"문화.취미 - 화원","category":"other"}]},{"lat":"37.240433348","long":"127.05922024","imageIndex":17,"items":[{"name":"위니아24크린샵 망포점","tel":"031-202-7414","addr":"경기도 수원시 영통구 망포동 416-23번지 103호","indutype":"수리서비스 - 세탁소","category":"other"}]},{"lat":"37.243937828","long":"127.06033862","imageIndex":17,"items":[{"name":"위니아서비스동수원점","tel":"031-295-7794","addr":"경기도 수원시 영통구 망포동 345-11번지 1층","indutype":"전기제품 - 가전제품","category":"other"}]},{"lat":"37.244100721","long":"127.05886232","imageIndex":17,"items":[{"name":"유일애드","tel":"031-206-5670","addr":"경기도 수원시 영통구 망포동 342번지 2층 2호","indutype":"용역 서비스 - 종합용역","category":"other"}]},{"lat":"37.237550001","long":"127.05930825","imageIndex":17,"items":[{"name":"윤영이네","tel":"070-8616-1181","addr":"경기도 수원시 영통구 망포동 530-15번지 망포동근생빌딩 1층","indutype":"의류 - 정장","category":"other"}]},{"lat":"37.243127489","long":"127.05910955","imageIndex":17,"items":[{"name":"이마트24 수원망포원룸점","tel":"","addr":"경기도 수원시 영통구 망포동 355-12번지","indutype":"유통업 영리 - 편 의 점","category":"other"}]},{"lat":"37.239300086","long":"127.05475658","imageIndex":17,"items":[{"name":"이상문고","tel":"031-203-5453","addr":"경기도 수원시 영통구 망포동 381-2번지 망포동타운빌딩 1층 104호","indutype":"서적문구 - 일반서적","category":"other"},{"name":"이상문고","tel":"031-203-5453","addr":"경기도 수원시 영통구 망포동 381-2번지 망포동타운빌딩 1층 104호","indutype":"서적문구 - 일반서적","category":"other"},{"name":"커브스 신영통클럽","tel":"031-273-2930","addr":"경기도 수원시 영통구 망포동 381-2 6층","indutype":"회원제형태 - 레져업소","category":"other"},{"name":"현보석","tel":"031-206-8042","addr":"경기도 수원시 영통구 망포동 381-2번지","indutype":"신변잡화 - 귀금속","category":"other"}]},{"lat":"37.237576913","long":"127.0595562","imageIndex":17,"items":[{"name":"이촌플러스세무법인 수원지점","tel":"070-4411-8861","addr":"경기도 수원시 영통구 망포동 530-2번지","indutype":"용역 서비스 - 법률회계서비스(법인)","category":"other"}]},{"lat":"37.237146809","long":"127.0543156","imageIndex":17,"items":[{"name":"조이컴퍼니","tel":"031-214-0988","addr":"경기도 수원시 영통구 망포동 686번지 망포마을동수원엘지빌리지 108동 2107호","indutype":"의류 - 정장","category":"other"}]},{"lat":"37.235877528","long":"127.05153124","imageIndex":17,"items":[{"name":"준어패럴(Jun''s apparel)","tel":"070-4295-2003","addr":"경기도 수원시 영통구 망포동 649-45번지 4층 402호","indutype":"의류 - 정장","category":"other"}]},{"lat":"37.243849338","long":"127.05691235","imageIndex":17,"items":[{"name":"지에프엠(GFM)","tel":"031-8004-6080","addr":"경기도 수원시 영통구 망포동 693번지 아이파크 상가 301호","indutype":"서적문구 - 과학기자재","category":"other"},{"name":"플라워스튜디오 아몽(flower studio among)","tel":"031-202-7843","addr":"경기도 수원시 영통구 망포동 693번지 망포마을현대1차아이파크 106호","indutype":"문화.취미 - 화원","category":"other"},{"name":"현대세탁소","tel":"031-206-8803","addr":"경기도 수원시 영통구 망포동 693번지 아이파크 상가 104호","indutype":"수리서비스 - 세탁소","category":"other"}]},{"lat":"37.24333184","long":"127.06489138","imageIndex":17,"items":[{"name":"초원인테리어","tel":"031-206-8117","addr":"경기도 수원시 영통구 망포동 707번지 방죽마을영통뜨란채 1006동 1501호","indutype":"회원제형태 - 기타4","category":"other"}]},{"lat":"37.241598357","long":"127.05328178","imageIndex":17,"items":[{"name":"캐모마일","tel":"0503-6511-3108","addr":"경기도 수원시 영통구 망포동 296-12번지 1층","indutype":"문화.취미 - 문화취미기타","category":"other"}]},{"lat":"37.236480054","long":"127.05429261","imageIndex":17,"items":[{"name":"코리랜드","tel":"","addr":"경기도 수원시 영통구 망포동 686번지 동수원자이1차 109동 505호","indutype":"신변잡화 - 액세서리","category":"other"}]},{"lat":"37.241490021","long":"127.05377759","imageIndex":17,"items":[{"name":"크레파스","tel":"031-273-5380","addr":"경기도 수원시 영통구 망포동 295-3번지 해피홈타운 101호","indutype":"서적문구 - 문구용품","category":"other"}]},{"lat":"37.242823524","long":"127.05383484","imageIndex":17,"items":[{"name":"크린토피아(수원망포점)","tel":"031-204-8284","addr":"경기도 수원시 영통구 망포동 300-6번지 1층 세탁코너","indutype":"수리서비스 - 세탁소","category":"other"}]},{"lat":"37.247599435","long":"127.05280112","imageIndex":17,"items":[{"name":"키즈상상","tel":"031-239-5834","addr":"경기도 수원시 영통구 망포동 12-1번지","indutype":"의류 - 아동의류","category":"other"}]},{"lat":"37.23874279","long":"127.05158943","imageIndex":17,"items":[{"name":"태장동주민자치위원회","tel":"031-328-8775","addr":"경기도 수원시 영통구 망포동 234-43번지","indutype":"문화.취미 - 문화취미기타","category":"other"},{"name":"태장르네상스협의회","tel":"031-228-8771","addr":"경기도 수원시 영통구 망포동 234-43번지","indutype":"문화.취미 - 화원","category":"other"}]},{"lat":"37.241907806","long":"127.06565658","imageIndex":17,"items":[{"name":"티바이오(TBIO)","tel":"","addr":"경기도 수원시 영통구 망포동 707번지 방죽마을영통뜨란채 1003동 1601호","indutype":"서적문구 - 과학기자재","category":"other"}]},{"lat":"37.239634134","long":"127.05321285","imageIndex":17,"items":[{"name":"퍼플코인","tel":"070-8692-7944","addr":"경기도 수원시 영통구 망포동 690번지 동수원엘지빌리지2차 201동 404호","indutype":"회원제형태 - 기타4","category":"other"}]},{"lat":"37.243215528","long":"127.06330217","imageIndex":17,"items":[{"name":"풀꽃사랑아트","tel":"031-206-2927","addr":"경기도 수원시 영통구 망포동 432-3번지 401호","indutype":"문화.취미 - 문화취미기타","category":"other"}]},{"lat":"37.243272137","long":"127.05808405","imageIndex":17,"items":[{"name":"하나로","tel":"031-202-4463","addr":"경기도 수원시 영통구 망포동 334-5번지 102호","indutype":"수리서비스 - 세탁소","category":"other"}]},{"lat":"37.238100403","long":"127.05766331","imageIndex":17,"items":[{"name":"한샘리모델링","tel":"031-273-3442","addr":"경기도 수원시 영통구 망포동 535-24번지","indutype":"가구 - 일반가구","category":"other"}]},{"lat":"37.242139845","long":"127.05119716","imageIndex":17,"items":[{"name":"핸드셰이크","tel":"031-203-9878","addr":"경기도 수원시 영통구 망포동 290-7번지 청안빌라 가동 302호","indutype":"신변잡화 - 기타잡화","category":"other"}]},{"lat":"37.242660444","long":"127.05587464","imageIndex":17,"items":[{"name":"현대정보통신","tel":"031-203-2743","addr":"경기도 수원시 영통구 망포동 722번지 그대가센트럴파크 202동 1102호","indutype":"회원제형태 - 기타1","category":"other"}]},{"lat":"37.239659138","long":"127.05777713","imageIndex":17,"items":[{"name":"현민전기철물","tel":"031-202-4569","addr":"경기도 수원시 영통구 망포동 387-4번지","indutype":"건축자재 - 목재·석재·철물","category":"other"}]},{"lat":"37.239272837","long":"127.05525243","imageIndex":17,"items":[{"name":"황후카라","tel":"031-273-1029","addr":"경기도 수원시 영통구 망포동 380-1번지 엘지프라자 3층 301호","indutype":"회원제형태 - 기타4","category":"other"}]}]