[{"lat":"38.100024776","long":"127.21790935","imageIndex":4,"items":[{"name":"멀베리카페","tel":"070-7785-5252","addr":"경기도 포천시 관인면 중리 15-3번지","indutype":"음식 - 커피 등","category":"restaurant"},{"name":"멀베리카페/교동장독대마을회 영농조합법인","tel":"","addr":"경기도 포천시 관인면 중리 15-3번지","indutype":"일반휴게음식 - 서양음식","category":"restaurant"}]},{"lat":"38.087448934","long":"127.20740853","imageIndex":4,"items":[{"name":"종자산꽃가람","tel":"531-4344","addr":"경기도 포천시 관인면 중리 513-7번지","indutype":"음식 - 한식","category":"restaurant"},{"name":"종자산꽃가람","tel":"031-531-4344","addr":"경기도 포천시 관인면 중리 513-7","indutype":"일반휴게음식 - 일반한식","category":"restaurant"}]},{"lat":"38.089359529","long":"127.20701489","imageIndex":4,"items":[{"name":"지장산막국수","tel":"031-533-1801","addr":"경기도 포천시 관인면 중리 482-1","indutype":"일반휴게음식 - 일반한식","category":"restaurant"},{"name":"지장산막국수","tel":"533-1801","addr":"경기도 포천시 관인면 중리 482-1번지","indutype":"음식 - 한식","category":"restaurant"}]},{"lat":"38.104553713","long":"127.19329574","imageIndex":4,"items":[{"name":"취국시","tel":"031-534-9798","addr":"경기도 포천시 관인면 중리 1118-4번지 1층","indutype":"일반휴게음식 - 일반한식","category":"restaurant"}]},{"lat":"38.103725111","long":"127.19315678","imageIndex":4,"items":[{"name":"큰골마당","tel":"031-533-9097","addr":"경기도 포천시 관인면 중리 1120-1번지","indutype":"일반휴게음식 - 일반한식","category":"restaurant"}]},{"lat":"38.104779066","long":"127.19321652","imageIndex":4,"items":[{"name":"향로봉식당","tel":"031-533-2462","addr":"경기도 포천시 관인면 중리 1118번지 1층","indutype":"일반휴게음식 - 일반한식","category":"restaurant"}]}]