[{"lat":"37.865257927","long":"127.34892689","imageIndex":4,"items":[{"name":"고바우손두부집","tel":"031-584-3996","addr":"경기도 가평군 조종면 운악리 487-2번지","indutype":"일반휴게음식 - 일반한식","category":"restaurant"}]},{"lat":"37.867867477","long":"127.35304176","imageIndex":4,"items":[{"name":"고향식당","tel":"","addr":"경기도 가평군 조종면 운악리 465-1번지","indutype":"일반휴게음식 - 일반한식","category":"restaurant"}]},{"lat":"37.890144441","long":"127.35103275","imageIndex":4,"items":[{"name":"골드리버캐슬","tel":"031-584-4225","addr":"경기도 가평군 조종면 운악리 542-4번지 1층","indutype":"일반휴게음식 - 일반한식","category":"restaurant"}]},{"lat":"37.865253383","long":"127.34740405","imageIndex":4,"items":[{"name":"금강막국수","tel":"031-585-2235","addr":"경기도 가평군 조종면 운악리 455-12번지","indutype":"일반휴게음식 - 일반한식","category":"restaurant"}]},{"lat":"37.87711233","long":"127.35862083","imageIndex":4,"items":[{"name":"맑은물유원지","tel":"031-585-3970","addr":"경기도 가평군 조종면 운악리 174-5","indutype":"일반휴게음식 - 일반한식","category":"restaurant"}]},{"lat":"37.865641978","long":"127.35006512","imageIndex":4,"items":[{"name":"명성식당","tel":"031-585-1226","addr":"경기도 가평군 조종면 운악리 462-23","indutype":"일반휴게음식 - 일반한식","category":"restaurant"}]},{"lat":"37.86475478","long":"127.3484586","imageIndex":4,"items":[{"name":"민정 만남의식당","tel":"031-585-3314","addr":"경기도 가평군 조종면 운악리 656-10번지","indutype":"일반휴게음식 - 일반한식","category":"restaurant"}]},{"lat":"37.866113802","long":"127.34893089","imageIndex":4,"items":[{"name":"산이좋은사람들","tel":"031-585-8645","addr":"경기도 가평군 조종면 운악리 486-5번지","indutype":"일반휴게음식 - 서양음식","category":"restaurant"}]},{"lat":"37.865006237","long":"127.34873252","imageIndex":4,"items":[{"name":"샬롬의식당","tel":"031-585-7817","addr":"경기도 가평군 조종면 운악리 456","indutype":"일반휴게음식 - 일반한식","category":"restaurant"},{"name":"원조할머니손두부","tel":"031-585-1219","addr":"경기도 가평군 조종면 운악리 456번지","indutype":"일반휴게음식 - 일반한식","category":"restaurant"}]},{"lat":"37.866889993","long":"127.35151428","imageIndex":4,"items":[{"name":"스마일가든","tel":"031-585-1315","addr":"경기도 가평군 조종면 운악리 465-6","indutype":"일반휴게음식 - 일반한식","category":"restaurant"}]},{"lat":"37.864669579","long":"127.34678766","imageIndex":4,"items":[{"name":"아름","tel":"031-585-9787","addr":"경기도 가평군 조종면 운악리 425-3번지 아름펜션","indutype":"일반휴게음식 - 일반한식","category":"restaurant"}]},{"lat":"37.864977914","long":"127.34609587","imageIndex":4,"items":[{"name":"아테네커피","tel":"031-0000-0000","addr":"경기도 가평군 조종면 운악리 425-15번지 1층","indutype":"일반휴게음식 - 서양음식","category":"restaurant"}]},{"lat":"37.86525112","long":"127.34817681","imageIndex":4,"items":[{"name":"운악식당","tel":"031-585-3922","addr":"경기도 가평군 조종면 운악리 455-2","indutype":"일반휴게음식 - 일반한식","category":"restaurant"}]},{"lat":"37.86455561","long":"127.34878723","imageIndex":4,"items":[{"name":"원흥식당","tel":"031-585-1328","addr":"경기도 가평군 조종면 운악리 449번지","indutype":"일반휴게음식 - 일반한식","category":"restaurant"}]},{"lat":"37.865195597","long":"127.34867658","imageIndex":4,"items":[{"name":"유경냉면","tel":"031-585-2435","addr":"경기도 가평군 조종면 운악리 455-10번지","indutype":"일반휴게음식 - 일반한식","category":"restaurant"},{"name":"유경냉면","tel":"031-585-2435","addr":"경기도 가평군 조종면 운악리 455-10번지 외1필지","indutype":"일반휴게음식 - 일반한식","category":"restaurant"}]},{"lat":"37.888969782","long":"127.35219812","imageIndex":4,"items":[{"name":"음식공간","tel":"031-584-0715","addr":"경기도 가평군 조종면 운악리 542-1번지","indutype":"일반휴게음식 - 일반한식","category":"restaurant"}]},{"lat":"37.859338123","long":"127.35220597","imageIndex":4,"items":[{"name":"자연관광가든 유원지","tel":"031-585-5334","addr":"경기도 가평군 조종면 운악리 403번지","indutype":"일반휴게음식 - 일반한식","category":"restaurant"}]},{"lat":"37.874671813","long":"127.35529029","imageIndex":4,"items":[{"name":"진동가든","tel":"02-1577-0000","addr":"경기도 가평군 조종면 운악리 272번지 1층","indutype":"일반휴게음식 - 일반한식","category":"restaurant"}]},{"lat":"37.857783981","long":"127.36853889","imageIndex":4,"items":[{"name":"한화호텔앤드리조트(주)현등연구소점(단체","tel":"031-589-2937","addr":"경기도 가평군 조종면 운악리 64외33필지","indutype":"일반휴게음식 - 위탁급식업","category":"restaurant"}]},{"lat":"37.865086418","long":"127.34903973","imageIndex":4,"items":[{"name":"현등식당","tel":"031-585-0191","addr":"경기도 가평군 조종면 운악리 458번지 459","indutype":"일반휴게음식 - 일반한식","category":"restaurant"}]},{"lat":"37.864784106","long":"127.3476746","imageIndex":4,"items":[{"name":"황토가든","tel":"031-585-3837","addr":"경기도 가평군 조종면 운악리 425-7번지","indutype":"일반휴게음식 - 일반한식","category":"restaurant"}]}]