[{"lat":"37.63458014","long":"127.11714786","imageIndex":17,"items":[{"name":"(주)골드라도닷컴","tel":"031-573-1120","addr":"경기도 구리시 갈매동 596번지 갈매역아이파크 상가 B동 137호","indutype":"신변잡화 - 귀금속","category":"other"},{"name":"굿샵","tel":"070-7423-6603","addr":"경기도 구리시 갈매동 596번지 갈매역아이파크 841동 194호","indutype":"유통업 영리 - 편 의 점","category":"other"},{"name":"댄디데이즈","tel":"070-8945-3313","addr":"경기도 구리시 갈매동 596번지 갈매역아이파크 841동 181호","indutype":"수리서비스 - 세탁소","category":"other"},{"name":"디자인솔루션","tel":"","addr":"경기도 구리시 갈매동 596번지 갈매역아이파크상가 B동 216호","indutype":"가구 - 일반가구","category":"other"},{"name":"루리","tel":"","addr":"경기도 구리시 갈매동 596번지 갈매역아이파크 801동 2002호","indutype":"신변잡화 - 기타잡화","category":"other"},{"name":"바닐라앤케이크","tel":"","addr":"경기도 구리시 갈매동 596번지 갈매역아이파크 841동 2층 B225호","indutype":"문화.취미 - 문화취미기타","category":"other"},{"name":"샵베딩","tel":"","addr":"경기도 구리시 갈매동 596번지 갈매역아이파크 상가 A동 210호","indutype":"직물 - 침구·수예점","category":"other"},{"name":"씨유갈매아이파크점","tel":"080-080-3663","addr":"경기도 구리시 갈매동 596번지 갈매역아이파크 841동 1층 비136호","indutype":"유통업 영리 - 편 의 점","category":"other"},{"name":"아토마켓 (ato market)","tel":"","addr":"경기도 구리시 갈매동 596번지 갈매역아이파크 상가 A동 204호","indutype":"서적문구 - 문구용품","category":"other"},{"name":"조아","tel":"","addr":"경기도 구리시 갈매동 596번지 갈매역아이파크 808동 902호","indutype":"의류 - 정장","category":"other"},{"name":"춘자네옷장","tel":"031-575-9078","addr":"경기도 구리시 갈매동 596번지 갈매역아이파크 C동 252호","indutype":"의류 - 정장","category":"other"},{"name":"칼란디바(Calandiva)","tel":"031-000-0000","addr":"경기도 구리시 갈매동 596번지 갈매역아이파크 C동 2층 251호","indutype":"신변잡화 - 액세서리","category":"other"},{"name":"캔들더마렛","tel":"","addr":"경기도 구리시 갈매동 596번지 갈매역아이파크 상가 B동 218호","indutype":"신변잡화 - 기타잡화","category":"other"},{"name":"크린에이드(구리갈매중앙점)","tel":"031-565-3989","addr":"경기도 구리시 갈매동 596번지 아이파크에비뉴 상가 D동 192호","indutype":"수리서비스 - 세탁소","category":"other"},{"name":"태양공조","tel":"","addr":"경기도 구리시 갈매동 596번지 갈매역아이파크 810동 27층 03호","indutype":"전기제품 - 냉열기기","category":"other"},{"name":"프롬비(from. b)","tel":"","addr":"경기도 구리시 갈매동 596번지 갈매역아이파크 841동 B139호","indutype":"의류 - 정장","category":"other"},{"name":"피그먼트 구리갈매점","tel":"070-4849-6069","addr":"경기도 구리시 갈매동 596번지 보금자리주택지구 A동 123호","indutype":"의류 - 정장","category":"other"},{"name":"현대세탁소","tel":"031-552-4663","addr":"경기도 구리시 갈매동 596번지 갈매역아이파크 831동 D265호","indutype":"수리서비스 - 세탁소","category":"other"},{"name":"휴대폰할인매장","tel":"","addr":"경기도 구리시 갈매동 596번지 아이파크에비뉴 상가 C동 172호","indutype":"사무통신 - 통신기기","category":"other"}]},{"lat":"37.639973215","long":"127.12095166","imageIndex":17,"items":[{"name":"(주)다함건축","tel":"031-571-8820","addr":"경기도 구리시 갈매동 134-1번지 1층","indutype":"건축자재 - 기타건축자재","category":"other"},{"name":"주식회사 우경건업","tel":"031-571-8820","addr":"경기도 구리시 갈매동 134-1번지","indutype":"건축자재 - 기타건축자재","category":"other"}]},{"lat":"37.633192886","long":"127.1168965","imageIndex":17,"items":[{"name":"(주)대림에스엔에프","tel":"031-573-6113","addr":"경기도 구리시 갈매동 284-1","indutype":"용역 서비스 - 종합용역","category":"other"}]},{"lat":"37.632084659","long":"127.11692879","imageIndex":17,"items":[{"name":"(주)더채움아이앤씨","tel":"031-575-5689","addr":"경기도 구리시 갈매동 604-4번지 더오페라프라자 403호","indutype":"용역 서비스 - 사무서비스","category":"other"}]},{"lat":"37.640695097","long":"127.11984245","imageIndex":17,"items":[{"name":"(주)더프리미엄","tel":"031-575-2061","addr":"경기도 구리시 갈매동 137-53번지 103호","indutype":"주방용구 - 주방용구","category":"other"}]},{"lat":"37.631670485","long":"127.11664494","imageIndex":17,"items":[{"name":"(주)마이크로시스템즈","tel":"070-4694-0988","addr":"경기도 구리시 갈매동 605-2번지 진영트윈타워 A동 602호","indutype":"서적문구 - 과학기자재","category":"other"},{"name":"골프최저가연구소","tel":"070-1478-1236","addr":"경기도 구리시 갈매동 605-2번지 진영트윈타워 A동 403호","indutype":"레져용품 - 골프용품 전문점","category":"other"},{"name":"다모아테크","tel":"031-1577-2429","addr":"경기도 구리시 갈매동 605-2번지 진영트윈타워 B동 605호","indutype":"사무통신 - 통신기기","category":"other"},{"name":"바니슬라임","tel":"070-4205-1122","addr":"경기도 구리시 갈매동 605-2번지 진영트윈타워 402호","indutype":"신변잡화 - 기타잡화","category":"other"},{"name":"사진 한장 남기다","tel":"031-571-5333","addr":"경기도 구리시 갈매동 605-2번지 진영트윈타워 B동 4층 403호","indutype":"광학제품 - 사진관","category":"other"},{"name":"주식회사 아이엠씨(IMC Co. Ltd)","tel":"070-7436-1002","addr":"경기도 구리시 갈매동 605-2번지 진영트윈타워 A동 3층 303호","indutype":"의류 - 정장","category":"other"},{"name":"주식회사 크레용테크놀로지즈","tel":"070-4335-2236","addr":"경기도 구리시 갈매동 605-2번지 진영트윈타워 B동 303호","indutype":"서적문구 - 과학기자재","category":"other"},{"name":"주식회사왓슨알앤디","tel":"031-572-6886","addr":"경기도 구리시 갈매동 605-2번지 진영트윈타워 A동 601호","indutype":"용역 서비스 - 사무서비스","category":"other"}]},{"lat":"37.638079009","long":"127.11390159","imageIndex":17,"items":[{"name":"(주)엘이디플러스","tel":"031-573-5677","addr":"경기도 구리시 갈매동 503-9번지","indutype":"건축자재 - 조명기구","category":"other"}]},{"lat":"37.62994464","long":"127.12170613","imageIndex":17,"items":[{"name":"(주)예성테크","tel":"031-553-5535","addr":"경기도 구리시 갈매동 561-2번지","indutype":"사무통신 - 컴퓨터","category":"other"}]},{"lat":"37.638690341","long":"127.12439388","imageIndex":17,"items":[{"name":"(주)파라곤웍스","tel":"02-971-2002","addr":"경기도 구리시 갈매동 510번지 스마트벤처타워 2층 203호","indutype":"전기제품 - 기타전기제품","category":"other"},{"name":"볼링플러스","tel":"031-527-0921","addr":"경기도 구리시 갈매동 510번지 5층 502호","indutype":"레져용품 - 스포츠·레져용품","category":"other"},{"name":"빨간사과유리구두","tel":"031-529-0795","addr":"경기도 구리시 갈매동 510번지 5층 508호","indutype":"용역 서비스 - 종합용역","category":"other"},{"name":"이마트24 스마트벤처타워점","tel":"031-1111-1111","addr":"경기도 구리시 갈매동 510번지 C104호","indutype":"유통업 영리 - 편 의 점","category":"other"},{"name":"주식회사 에이파파","tel":"","addr":"경기도 구리시 갈매동 510번지 709호","indutype":"가구 - 기타가구","category":"other"}]},{"lat":"37.634502772","long":"127.11323918","imageIndex":17,"items":[{"name":"(주)호인","tel":"02-1111-1111","addr":"경기도 구리시 갈매동 502-1번지","indutype":"용역 서비스 - 기타용역서비스","category":"other"}]},{"lat":"37.635387876","long":"127.12034395","imageIndex":17,"items":[{"name":"GS25갈매주공점","tel":"","addr":"경기도 구리시 갈매동 569번지 LH이스트힐 상가동 1층 108호","indutype":"유통업 영리 - 편 의 점","category":"other"},{"name":"리치기획","tel":"","addr":"경기도 구리시 갈매동 569번지 LH이스트힐 211동 301호","indutype":"용역 서비스 - 종합용역","category":"other"},{"name":"앰비션커뮤니케이션","tel":"070-8031-4038","addr":"경기도 구리시 갈매동 569번지 LH이스트힐 202동 904호","indutype":"용역 서비스 - 소프트웨어","category":"other"},{"name":"제이에스 플룻(JS Flute)","tel":"","addr":"경기도 구리시 갈매동 569번지 LH이스트힐 211동 401호","indutype":"레져용품 - 악기점","category":"other"},{"name":"지지웨어","tel":"031-000-0000","addr":"경기도 구리시 갈매동 569번지 LH이스트힐 210동 1603호","indutype":"의류 - 정장","category":"other"}]},{"lat":"37.626339259","long":"127.11398608","imageIndex":17,"items":[{"name":"GS25갈매푸르지오점","tel":"","addr":"경기도 구리시 갈매동 640번지 구리갈매푸르지오아파트 106호","indutype":"유통업 영리 - 편 의 점","category":"other"}]},{"lat":"37.632669642","long":"127.11759809","imageIndex":17,"items":[{"name":"GS25갈매한덕점","tel":"","addr":"경기도 구리시 갈매동 601-2번지 한덕프라자 107호","indutype":"유통업 영리 - 편 의 점","category":"other"},{"name":"시크플라워","tel":"031-527-9548","addr":"경기도 구리시 갈매동 601-2번지 한덕프라자 1층 114호","indutype":"의류 - 정장","category":"other"}]},{"lat":"37.635694623","long":"127.11992525","imageIndex":17,"items":[{"name":"GS25구리갈매점","tel":"","addr":"경기도 구리시 갈매동 590번지 갈매3단지 상가 1동 1층 101호","indutype":"유통업 영리 - 편 의 점","category":"other"},{"name":"다온#","tel":"031-528-6263","addr":"경기도 구리시 갈매동 590번지 갈매3단지 상가 2동 110호","indutype":"문화.취미 - 애완동물","category":"other"},{"name":"담다교육연구소","tel":"","addr":"경기도 구리시 갈매동 590번지 갈매3단지 307동 1602호","indutype":"용역 서비스 - 사무서비스","category":"other"},{"name":"오색야생화","tel":"070-4210-8855","addr":"경기도 구리시 갈매동 590번지 한라비발디 308동 2703호","indutype":"문화.취미 - 화원","category":"other"},{"name":"주식회사 다올부동산중개법인","tel":"031-575-0087","addr":"경기도 구리시 갈매동 590번지 LH갈매3단지 상가 1동 104호","indutype":"용역 서비스 - 부동산 중개·임대","category":"other"},{"name":"지디","tel":"031-1577-0000","addr":"경기도 구리시 갈매동 590번지 한라비발디 312동 1904호","indutype":"용역 서비스 - 종합용역","category":"other"},{"name":"크린토피아","tel":"031-575-7774","addr":"경기도 구리시 갈매동 590번지 갈매3단지 108호","indutype":"수리서비스 - 세탁소","category":"other"}]},{"lat":"37.640419855","long":"127.11567256","imageIndex":17,"items":[{"name":"GS25구리담터점","tel":"","addr":"경기도 구리시 갈매동 211-7번지","indutype":"유통업 영리 - 편 의 점","category":"other"},{"name":"에이피엘시스템(주)","tel":"031-529-6886","addr":"경기도 구리시 갈매동 211-7번지","indutype":"전기제품 - 기타전기제품","category":"other"}]},{"lat":"37.638778903","long":"127.11690503","imageIndex":17,"items":[{"name":"K스크린골프","tel":"031-528-0759","addr":"경기도 구리시 갈매동 217-1번지 2층","indutype":"회원제형태 - 레져업소","category":"other"}]},{"lat":"37.62983741","long":"127.12082234","imageIndex":17,"items":[{"name":"갈매누리공인중개사사무소","tel":"031-528-4653","addr":"경기도 구리시 갈매동 565번지 1층","indutype":"용역 서비스 - 부동산 중개·임대","category":"other"}]},{"lat":"37.630140868","long":"127.11451285","imageIndex":17,"items":[{"name":"갈매전자담배레이디시가","tel":"070-7631-0101","addr":"경기도 구리시 갈매동 617-4번지 1층 102호","indutype":"기타 - 기타 전문점","category":"other"}]},{"lat":"37.630806293","long":"127.11587328","imageIndex":17,"items":[{"name":"갈매책방북적북적","tel":"070-4184-5004","addr":"경기도 구리시 갈매동 611-9번지 1층","indutype":"서적문구 - 일반서적","category":"other"}]},{"lat":"37.629332972","long":"127.11131705","imageIndex":17,"items":[{"name":"경기상사","tel":"031-571-1513","addr":"경기도 구리시 갈매동 486번지","indutype":"기타 - 기계공구","category":"other"},{"name":"천지인","tel":"031-571-0107","addr":"경기도 구리시 갈매동 486번지","indutype":"신변잡화 - 기타잡화","category":"other"}]},{"lat":"37.641500135","long":"127.12558813","imageIndex":17,"items":[{"name":"고구마디자인","tel":"031-529-7277","addr":"경기도 구리시 갈매동 17-1번지 갈매부동산타운 1층 106호","indutype":"용역 서비스 - 종합용역","category":"other"}]},{"lat":"37.63864301","long":"127.11767525","imageIndex":17,"items":[{"name":"공간기획","tel":"031-572-4240","addr":"경기도 구리시 갈매동 218-1번지","indutype":"용역 서비스 - 종합용역","category":"other"}]},{"lat":"37.628586407","long":"127.10995657","imageIndex":17,"items":[{"name":"구리갈매우체국","tel":"031-572-1803","addr":"경기도 구리시 갈매동 480-12번지","indutype":"용역 서비스 - 공공요금대행서비스/소","category":"other"}]},{"lat":"37.636000903","long":"127.12872865","imageIndex":17,"items":[{"name":"구리시 노인전문요양원","tel":"031-575-9006","addr":"경기도 구리시 갈매동 43-7번지","indutype":"기타의료기관 - 기타의료기관 및 기타","category":"other"}]},{"lat":"37.632778055","long":"127.11729237","imageIndex":17,"items":[{"name":"그루스터디카페구리갈매센터","tel":"031-0000-0000","addr":"경기도 구리시 갈매동 601-1번지 로데오프라자 403호","indutype":"용역 서비스 - 사무서비스","category":"other"},{"name":"힐링타이마사지용품점","tel":"031-572-5507","addr":"경기도 구리시 갈매동 601-1번지 로데오프라자 3층 303호","indutype":"신변잡화 - 기타잡화","category":"other"}]},{"lat":"37.632332384","long":"127.12154","imageIndex":17,"items":[{"name":"긴기린","tel":"","addr":"경기도 구리시 갈매동 573번지 갈매1단지 104동 1710호","indutype":"의류 - 정장","category":"other"},{"name":"다흰크린","tel":"02-6340-5385","addr":"경기도 구리시 갈매동 573번지 LH갈매1단지 105동 1506호","indutype":"용역 서비스 - 종합용역","category":"other"},{"name":"대박물류","tel":"","addr":"경기도 구리시 갈매동 573번지 LH갈매1단지 103동 702호","indutype":"유통업 영리 - 기타유통업","category":"other"},{"name":"돈마니","tel":"","addr":"경기도 구리시 갈매동 573번지 LH갈매1단지 104동 1910호","indutype":"용역 서비스 - 기타용역서비스","category":"other"},{"name":"렌탈존스","tel":"031-888-9999","addr":"경기도 구리시 갈매동 573번지 LH갈매1단지 106동 1108호","indutype":"전기제품 - 가전제품","category":"other"},{"name":"옷수선세탁편의점","tel":"031-573-3557","addr":"경기도 구리시 갈매동 573번지 LH갈매1단지 상가동 2층 203호","indutype":"수리서비스 - 세탁소","category":"other"}]},{"lat":"37.630489709","long":"127.11716425","imageIndex":17,"items":[{"name":"까꾸빈티지","tel":"031-572-6677","addr":"경기도 구리시 갈매동 646번지 1층 101,102호","indutype":"가구 - 기타가구","category":"other"},{"name":"더런드리 셀프빨래방 구리갈매점","tel":"","addr":"경기도 구리시 갈매동 646번지 113호","indutype":"수리서비스 - 세탁소","category":"other"},{"name":"알파갈매점","tel":"031-529-4953","addr":"경기도 구리시 갈매동 646번지 이룸넘버원리치인상가 135호 136호","indutype":"서적문구 - 문구용품","category":"other"},{"name":"이쁘당 개","tel":"02-1111-1111","addr":"경기도 구리시 갈매동 646번지 이룸넘버원리치안 1층 107호","indutype":"문화.취미 - 애완동물","category":"other"},{"name":"쥬디스(JUDY'S)","tel":"","addr":"경기도 구리시 갈매동 646번지 1동 130호","indutype":"의류 - 아동의류","category":"other"},{"name":"코코모이","tel":"02-541-6762","addr":"경기도 구리시 갈매동 646번지 528호","indutype":"의류 - 정장","category":"other"}]},{"lat":"37.63171911","long":"127.11287255","imageIndex":17,"items":[{"name":"꽃나라농원","tel":"02-2208-0303","addr":"경기도 구리시 갈매동 501-10번지 A동","indutype":"문화.취미 - 화원","category":"other"},{"name":"이화꽃농원","tel":"02-2207-8060","addr":"경기도 구리시 갈매동 501-10번지 에이동 부분호","indutype":"문화.취미 - 화원","category":"other"}]},{"lat":"37.623443496","long":"127.10812547","imageIndex":17,"items":[{"name":"노보인테리어","tel":"031-571-7714","addr":"경기도 구리시 갈매동 438번지","indutype":"용역 서비스 - 종합용역","category":"other"},{"name":"에이치앤비테크","tel":"031-562-8004","addr":"경기도 구리시 갈매동 438번지","indutype":"레져용품 - 골프용품 전문점","category":"other"}]},{"lat":"37.629947536","long":"127.11879472","imageIndex":17,"items":[{"name":"누리유통","tel":"02-1111-1111","addr":"경기도 구리시 갈매동 651번지 갈매스타힐스 402동 1604호","indutype":"유통업 영리 - 기타유통업","category":"other"},{"name":"산마루 옷 수선","tel":"031-528-1230","addr":"경기도 구리시 갈매동 651번지 구리갈매 B-2블럭 상가 101호","indutype":"수리서비스 - 세탁소","category":"other"},{"name":"세젤게작 (sejelgejack)","tel":"070-5077-4702","addr":"경기도 구리시 갈매동 651번지 갈매스타힐스 401동 1402호","indutype":"가구 - 기타가구","category":"other"},{"name":"손바닥공장","tel":"","addr":"경기도 구리시 갈매동 371번지 갈매스타힐스 411동 1003호","indutype":"의류 - 기타의류","category":"other"},{"name":"씨유갈매스타힐스","tel":"080-080-3663","addr":"경기도 구리시 갈매동 651번지 갈매4단지 상가동 103호,104호","indutype":"유통업 영리 - 편 의 점","category":"other"}]},{"lat":"37.637143692","long":"127.12142302","imageIndex":17,"items":[{"name":"늘푸른가구","tel":"031-575-6867","addr":"경기도 구리시 갈매동 529번지 로터스타워 1층 102호","indutype":"가구 - 일반가구","category":"other"}]},{"lat":"37.625920532","long":"127.10884262","imageIndex":17,"items":[{"name":"다운타운","tel":"031-572-8494","addr":"경기도 구리시 갈매동 458-49번지","indutype":"신변잡화 - 기타잡화","category":"other"},{"name":"세느","tel":"","addr":"경기도 구리시 갈매동 458-49번지 가동","indutype":"신변잡화 - 가방","category":"other"},{"name":"세느-라인(SEINE-LINE)","tel":"","addr":"경기도 구리시 갈매동 458-49번지 가호 1층","indutype":"신변잡화 - 가방","category":"other"}]},{"lat":"37.63838515","long":"127.12328307","imageIndex":17,"items":[{"name":"대성보일러(유진인테리어)","tel":"031-529-8578","addr":"경기도 구리시 갈매동 523-4번지 1층","indutype":"건축자재 - 보일러·펌프·샷시","category":"other"}]},{"lat":"37.641554793","long":"127.12501038","imageIndex":17,"items":[{"name":"대성에어컨주방","tel":"031-529-3855","addr":"경기도 구리시 갈매동 142-1번지 1층","indutype":"주방용구 - 주방용구","category":"other"}]},{"lat":"37.624362022","long":"127.10864784","imageIndex":17,"items":[{"name":"대연사","tel":"02-924-6338","addr":"경기도 구리시 갈매동 459-1번지","indutype":"용역 서비스 - 종합용역","category":"other"},{"name":"비닐하우스 주식회사","tel":"02-437-4800","addr":"경기도 구리시 갈매동 459-1번지","indutype":"농업 - 농기계","category":"other"},{"name":"우미가구","tel":"031-529-8923","addr":"경기도 구리시 갈매동 459-1번지","indutype":"가구 - 일반가구","category":"other"}]},{"lat":"37.625422462","long":"127.11162854","imageIndex":17,"items":[{"name":"더샵세탁소","tel":"031-571-4700","addr":"경기도 구리시 갈매동 665번지 갈매더샵나인힐스 상가동 1층 102호","indutype":"수리서비스 - 세탁소","category":"other"},{"name":"더좋은 케이제이피","tel":"","addr":"경기도 구리시 갈매동 665번지 갈매더샵나인힐스 2004동 401호","indutype":"서적문구 - 기타서적문구","category":"other"},{"name":"스텔라공방","tel":"","addr":"경기도 구리시 갈매동 665번지 갈매더샵나인힐스 2004동 1504호","indutype":"신변잡화 - 기타잡화","category":"other"},{"name":"씨유갈매포스코점","tel":"031-573-5308","addr":"경기도 구리시 갈매동 665번지 갈매더샵나인힐스 상가동 1층 107호","indutype":"유통업 영리 - 편 의 점","category":"other"}]},{"lat":"37.631976279","long":"127.11720051","imageIndex":17,"items":[{"name":"더존 텔레콤","tel":"031-528-7890","addr":"경기도 구리시 갈매동 604-3번지 아름터프라자 106호","indutype":"사무통신 - 통신기기","category":"other"}]},{"lat":"37.630391553","long":"127.11617852","imageIndex":17,"items":[{"name":"더폼(the form)","tel":"070-8945-3313","addr":"경기도 구리시 갈매동 610-4번지 101호","indutype":"가구 - 일반가구","category":"other"}]},{"lat":"37.632526648","long":"127.11639701","imageIndex":17,"items":[{"name":"데이앤미 코리아","tel":"","addr":"경기도 구리시 갈매동 603번지 중앙파크타워 104호","indutype":"가구 - 일반가구","category":"other"},{"name":"토마토넷*황근복","tel":"031-555-0099","addr":"경기도 구리시 갈매동 603번지 1층 112호","indutype":"사무통신 - 통신기기","category":"other"}]},{"lat":"37.630359644","long":"127.12115169","imageIndex":17,"items":[{"name":"독스타일","tel":"","addr":"경기도 구리시 갈매동 562","indutype":"문화.취미 - 애완동물","category":"other"}]},{"lat":"37.630026012","long":"127.12142304","imageIndex":17,"items":[{"name":"두잇코퍼레이션","tel":"031-000-0000","addr":"경기도 구리시 갈매동 561번지 1층","indutype":"서적문구 - 문구용품","category":"other"}]},{"lat":"37.625999993","long":"127.12009129","imageIndex":17,"items":[{"name":"띵가몰","tel":"","addr":"경기도 구리시 갈매동 392-35번지","indutype":"레져용품 - 악기점","category":"other"},{"name":"케이에스에이치 사운드라보 (KSH Sound Lab","tel":"","addr":"경기도 구리시 갈매동 392-35번지","indutype":"레져용품 - 악기점","category":"other"}]},{"lat":"37.63291353","long":"127.11695271","imageIndex":17,"items":[{"name":"라비앙로즈","tel":"031-527-1011","addr":"경기도 구리시 갈매동 601번지 송원빌딩 1층 103호","indutype":"의류 - 정장","category":"other"},{"name":"말랑몰랑 슬라임","tel":"031-796-2554","addr":"경기도 구리시 갈매동 601번지 204호","indutype":"서적문구 - 완구점","category":"other"},{"name":"어라운드스터디룸 구리갈매점","tel":"031-575-7656","addr":"경기도 구리시 갈매동 601번지 송원빌딩 4층 401호","indutype":"용역 서비스 - 사무서비스","category":"other"}]},{"lat":"37.630778709","long":"127.11645099","imageIndex":17,"items":[{"name":"라온 플라워 앤 가든","tel":"070-7767-6007","addr":"경기도 구리시 갈매동 610번지 104호","indutype":"문화.취미 - 화원","category":"other"}]},{"lat":"37.637557933","long":"127.12162761","imageIndex":17,"items":[{"name":"레아사진관","tel":"031-528-1480","addr":"경기도 구리시 갈매동 527-5번지 1층 101호","indutype":"광학제품 - 사진관","category":"other"}]},{"lat":"37.628379064","long":"127.11958526","imageIndex":17,"items":[{"name":"로그인 구리갈매점","tel":"031-558-6699","addr":"경기도 구리시 갈매동 658번지 102호","indutype":"유통업 영리 - 편 의 점","category":"other"},{"name":"세븐스포츠","tel":"031-595-9986","addr":"경기도 구리시 갈매동 658번지 오대타워 101호","indutype":"레져용품 - 스포츠·레져용품","category":"other"},{"name":"위너골프","tel":"031-574-7701","addr":"경기도 구리시 갈매동 658번지 401호","indutype":"레져용품 - 골프용품 전문점","category":"other"}]},{"lat":"37.636746305","long":"127.12237407","imageIndex":17,"items":[{"name":"로하스컴즈","tel":"02-906-1114","addr":"경기도 구리시 갈매동 534-5번지","indutype":"의류 - 정장","category":"other"}]},{"lat":"37.631086866","long":"127.11453692","imageIndex":17,"items":[{"name":"루리 J","tel":"031-0000-0000","addr":"경기도 구리시 갈매동 615번지 수정빌딩 301호","indutype":"신변잡화 - 액세서리","category":"other"}]},{"lat":"37.631275598","long":"127.11503567","imageIndex":17,"items":[{"name":"리폼사","tel":"031-573-9204","addr":"경기도 구리시 갈매동 614-2번지 1층","indutype":"수리서비스 - 세탁소","category":"other"}]},{"lat":"37.629752557","long":"127.11545253","imageIndex":17,"items":[{"name":"마시꾸멍","tel":"031-111-1111","addr":"경기도 구리시 갈매동 619-5번지 102호","indutype":"문화.취미 - 애완동물","category":"other"}]},{"lat":"37.639775748","long":"127.12020357","imageIndex":17,"items":[{"name":"맘스 아동복","tel":"031-571-4209","addr":"경기도 구리시 갈매동 136-1번지 나동","indutype":"의류 - 아동의류","category":"other"},{"name":"맘스아동복","tel":"031-571-4209","addr":"경기도 구리시 갈매동 136-1번지 가동","indutype":"의류 - 아동의류","category":"other"}]},{"lat":"37.642668903","long":"127.11915439","imageIndex":17,"items":[{"name":"맘스그레잇","tel":"02-1644-5490","addr":"경기도 구리시 갈매동 146-1번지","indutype":"의류 - 아동의류","category":"other"},{"name":"베이비파크 (구리 남양주점)","tel":"031-529-0045","addr":"경기도 구리시 갈매동 146-1번지","indutype":"의류 - 아동의류","category":"other"}]},{"lat":"37.632219398","long":"127.11734816","imageIndex":17,"items":[{"name":"메이져마트","tel":"031-571-6199","addr":"경기도 구리시 갈매동 302-3번지 메이저타워 108호","indutype":"유통업 영리 - 편 의 점","category":"other"},{"name":"세븐일레븐구리메이저타워점","tel":"031-1577-0711","addr":"경기도 구리시 갈매동 604-2번지 메이저타워 108호","indutype":"유통업 영리 - 편 의 점","category":"other"}]},{"lat":"37.629693027","long":"127.11168008","imageIndex":17,"items":[{"name":"명성기업사","tel":"031-575-2236","addr":"경기도 구리시 갈매동 489-7번지","indutype":"건축자재 - 건축용 요업제품","category":"other"}]},{"lat":"37.639676517","long":"127.12032804","imageIndex":17,"items":[{"name":"미래자동문백화점","tel":"031-572-1144","addr":"경기도 구리시 갈매동 136-1번지 나동 1층","indutype":"건축자재 - 기타건축자재","category":"other"}]},{"lat":"37.636943861","long":"127.1138206","imageIndex":17,"items":[{"name":"바로상사","tel":"031-000-0000","addr":"경기도 구리시 갈매동 241-31번지 1층","indutype":"유통업 영리 - 기타유통업","category":"other"}]},{"lat":"37.641079972","long":"127.11312428","imageIndex":17,"items":[{"name":"백두산업","tel":"031-574-6012","addr":"경기도 구리시 갈매동 163-33","indutype":"건축자재 - 보일러·펌프·샷시","category":"other"}]},{"lat":"37.630585023","long":"127.1210161","imageIndex":17,"items":[{"name":"백마크리닝","tel":"031-000-0000","addr":"경기도 구리시 갈매동 563번지 1층","indutype":"수리서비스 - 세탁소","category":"other"}]},{"lat":"37.625917955","long":"127.11167458","imageIndex":17,"items":[{"name":"백마크리닝 (구리2호점)","tel":"","addr":"경기도 구리시 갈매동 636-2번지 에이스프라자 1층 110호","indutype":"수리서비스 - 세탁소","category":"other"},{"name":"착한휴대폰(갈매직영점)","tel":"031-528-8801","addr":"경기도 구리시 갈매동 636-2번지 에이스프라자 105호","indutype":"사무통신 - 통신기기","category":"other"}]},{"lat":"37.637664927","long":"127.12273808","imageIndex":17,"items":[{"name":"백마크리닝 구리4호점","tel":"","addr":"경기도 구리시 갈매동 532번지 106호","indutype":"수리서비스 - 세탁소","category":"other"}]},{"lat":"37.630332921","long":"127.12084578","imageIndex":17,"items":[{"name":"벨라가든","tel":"","addr":"경기도 구리시 갈매동 563-2번지","indutype":"문화.취미 - 화원","category":"other"}]},{"lat":"37.641641362","long":"127.11959467","imageIndex":17,"items":[{"name":"별내스포츠","tel":"031-575-5345","addr":"경기도 구리시 갈매동 147-18번지 이화염직 A동 1호","indutype":"레져용품 - 스포츠·레져용품","category":"other"},{"name":"블랙야크별내점","tel":"031-528-9249","addr":"경기도 구리시 갈매동 147-18번지 이화염직 A동 2호","indutype":"레져용품 - 스포츠·레져용품","category":"other"}]},{"lat":"37.631364362","long":"127.11642923","imageIndex":17,"items":[{"name":"보광정빌","tel":"031-572-3419","addr":"경기도 구리시 갈매동 320-3","indutype":"전기제품 - 기타전기제품","category":"other"}]},{"lat":"37.631616154","long":"127.11692807","imageIndex":17,"items":[{"name":"블럭팡구리갈매점","tel":"070-7767-3554","addr":"경기도 구리시 갈매동 605-3번지 에스엠타워 3층 305호","indutype":"서적문구 - 완구점","category":"other"},{"name":"엘케이대박통신 갈매점","tel":"031-574-4011","addr":"경기도 구리시 갈매동 605-3번지 103호","indutype":"사무통신 - 통신기기","category":"other"},{"name":"참마루 떡공방","tel":"","addr":"경기도 구리시 갈매동 605-3번지 에스엠타워 3층 304호","indutype":"문화.취미 - 문화취미기타","category":"other"},{"name":"프렌디 플러스","tel":"02-0000-0000","addr":"경기도 구리시 갈매동 605-3번지 SM타워 204호 203호,204호","indutype":"서적문구 - 문구용품","category":"other"}]},{"lat":"37.638112454","long":"127.12561655","imageIndex":17,"items":[{"name":"블레스투어 Bless Tour","tel":"","addr":"경기도 구리시 갈매동 518-2번지 별내역메트로망2차오피스텔 1동 714호","indutype":"레져용품 - 골프용품 전문점","category":"other"}]},{"lat":"37.630113495","long":"127.11487532","imageIndex":17,"items":[{"name":"사운드톡(SOUNGTALK)","tel":"02-2038-0119","addr":"경기도 구리시 갈매동 618-7번지 1층","indutype":"전기제품 - 가전제품","category":"other"}]},{"lat":"37.640942493","long":"127.11559404","imageIndex":17,"items":[{"name":"삼성건설","tel":"031-532-4000","addr":"경기도 구리시 갈매동 210-2번지","indutype":"건축자재 - 기타건축자재","category":"other"}]},{"lat":"37.638613212","long":"127.11106994","imageIndex":17,"items":[{"name":"삼성식품기계","tel":"031-574-6838","addr":"경기도 구리시 갈매동 215-65번지","indutype":"기타 - 기타 전문점","category":"other"}]},{"lat":"37.639307491","long":"127.11995357","imageIndex":17,"items":[{"name":"삼화스텐","tel":"031-527-3160","addr":"경기도 구리시 갈매동 136-20","indutype":"건축자재 - 기타건축자재","category":"other"}]},{"lat":"37.625802906","long":"127.10939752","imageIndex":17,"items":[{"name":"상신전기","tel":"031-957-0308","addr":"경기도 구리시 갈매동 458-42번지","indutype":"전기제품 - 기타전기제품","category":"other"}]},{"lat":"37.641277538","long":"127.11381571","imageIndex":17,"items":[{"name":"서울산업기술","tel":"031-576-9520","addr":"경기도 구리시 갈매동 163-15번지","indutype":"기타 - 기타 전문점","category":"other"}]},{"lat":"37.638667858","long":"127.11989592","imageIndex":17,"items":[{"name":"성원정밀","tel":"031-574-8008","addr":"경기도 구리시 갈매동 136-6","indutype":"기타 - 기타 전문점","category":"other"}]},{"lat":"37.638249402","long":"127.123872","imageIndex":17,"items":[{"name":"세븐일레븐갈매투룸","tel":"","addr":"경기도 구리시 갈매동 539번지","indutype":"유통업 영리 - 편 의 점","category":"other"}]},{"lat":"37.637918527","long":"127.12142425","imageIndex":17,"items":[{"name":"수 어페럴(SU APPAREL)","tel":"031-528-6263","addr":"경기도 구리시 갈매동 527-8번지 1층전부","indutype":"의류 - 정장","category":"other"}]},{"lat":"37.640720564","long":"127.11207005","imageIndex":17,"items":[{"name":"스케이트라이프","tel":"031-516-7712","addr":"경기도 구리시 갈매동 163-36번지","indutype":"레져용품 - 스포츠·레져용품","category":"other"}]},{"lat":"37.636917685","long":"127.12218174","imageIndex":17,"items":[{"name":"스포트라이트","tel":"031-572-5580","addr":"경기도 구리시 갈매동 530-5번지 1층","indutype":"건축자재 - 조명기구","category":"other"}]},{"lat":"37.637194317","long":"127.11573566","imageIndex":17,"items":[{"name":"신광기계(주)","tel":"031-572-5948","addr":"경기도 구리시 갈매동 238-2번지","indutype":"기타 - 기계공구","category":"other"}]},{"lat":"37.624695352","long":"127.10868229","imageIndex":17,"items":[{"name":"신세계유통","tel":"031-574-5288","addr":"경기도 구리시 갈매동 458-69번지 가","indutype":"신변잡화 - 가방","category":"other"}]},{"lat":"37.640248324","long":"127.11603486","imageIndex":17,"items":[{"name":"신일목재합판","tel":"02-965-3465","addr":"경기도 구리시 갈매동 212-2","indutype":"건축자재 - 목재·석재·철물","category":"other"}]},{"lat":"37.638886811","long":"127.11712046","imageIndex":17,"items":[{"name":"신천상사","tel":"031-572-5271","addr":"경기도 구리시 갈매동 218-2번지","indutype":"기타 - 기타 전문점","category":"other"}]},{"lat":"37.64008203","long":"127.12898479","imageIndex":17,"items":[{"name":"씨유갈매아름터점","tel":"031-575-2665","addr":"경기도 구리시 갈매동 8-10번지 아름터프라자104호","indutype":"유통업 영리 - 편 의 점","category":"other"}]},{"lat":"37.630274481","long":"127.1161217","imageIndex":17,"items":[{"name":"씨유갈매에이스점","tel":"031-575-7657","addr":"경기도 구리시 갈매동 610-5번지","indutype":"유통업 영리 - 편 의 점","category":"other"}]},{"lat":"37.637583367","long":"127.12320247","imageIndex":17,"items":[{"name":"야옹아 놀자(구리,태릉점)","tel":"070-8879-0455","addr":"경기도 구리시 갈매동 537번지 1층","indutype":"문화.취미 - 애완동물","category":"other"}]},{"lat":"37.632336799","long":"127.11706512","imageIndex":17,"items":[{"name":"양키캔들 구리갈매점","tel":"031-529-3066","addr":"경기도 구리시 갈매동 604-1번지 리첸타워 1층 101호","indutype":"신변잡화 - 기타잡화","category":"other"}]},{"lat":"37.629524902","long":"127.12684855","imageIndex":17,"items":[{"name":"에어준콤프레셔","tel":"02-3394-8554","addr":"경기도 구리시 갈매동 387-25번지","indutype":"기타 - 기계공구","category":"other"}]},{"lat":"37.638748483","long":"127.11093418","imageIndex":17,"items":[{"name":"에이치앤씨상사","tel":"","addr":"경기도 구리시 갈매동 215-62번지 1층","indutype":"건축자재 - 기타건축자재","category":"other"}]},{"lat":"37.638305607","long":"127.11245173","imageIndex":17,"items":[{"name":"에이치투","tel":"","addr":"경기도 구리시 갈매동 240-11번지","indutype":"주방용구 - 주방용구","category":"other"}]},{"lat":"37.628414666","long":"127.11056805","imageIndex":17,"items":[{"name":"엘에이치디앤씨(주)","tel":"031-567-3474","addr":"경기도 구리시 갈매동 458-63번지","indutype":"건축자재 - 부동산 분양","category":"other"}]},{"lat":"37.629860273","long":"127.11587184","imageIndex":17,"items":[{"name":"여우별","tel":"031-528-6263","addr":"경기도 구리시 갈매동 620-2번지 1층 101호","indutype":"의류 - 정장","category":"other"}]},{"lat":"37.63811013","long":"127.11901133","imageIndex":17,"items":[{"name":"영광사","tel":"031-572-4627","addr":"경기도 구리시 갈매동 230-8","indutype":"건축자재 - 기타건축자재","category":"other"}]},{"lat":"37.637503315","long":"127.12218267","imageIndex":17,"items":[{"name":"영양한스푼","tel":"031-1588-0000","addr":"경기도 구리시 갈매동 531번지 1층","indutype":"문화.취미 - 애완동물","category":"other"}]},{"lat":"37.64108707","long":"127.11515238","imageIndex":17,"items":[{"name":"예쁘개","tel":"031-529-1541","addr":"경기도 구리시 갈매동 166-4번지","indutype":"문화.취미 - 애완동물","category":"other"}]},{"lat":"37.639718358","long":"127.1143459","imageIndex":17,"items":[{"name":"오대산업","tel":"031-713-1428","addr":"경기도 구리시 갈매동 215-7번지","indutype":"가구 - 기타가구","category":"other"}]},{"lat":"37.630197855","long":"127.12076626","imageIndex":17,"items":[{"name":"오직.꽃(only flower)","tel":"031-000-0000","addr":"경기도 구리시 갈매동 563-3번지 1층","indutype":"문화.취미 - 화원","category":"other"}]},{"lat":"37.631220523","long":"127.11610048","imageIndex":17,"items":[{"name":"우나미IT","tel":"02-3273-1545","addr":"경기도 구리시 갈매동 608-1번지 하나로프라자 5층 504호","indutype":"사무통신 - 컴퓨터","category":"other"},{"name":"토즈멤버쉽라운지 갈매센터","tel":"031-575-7108","addr":"경기도 구리시 갈매동 608-1번지 하나로프라자 402호","indutype":"용역 서비스 - 사무서비스","category":"other"}]},{"lat":"37.631115121","long":"127.11323417","imageIndex":17,"items":[{"name":"우리농원","tel":"070-7529-8843","addr":"경기도 구리시 갈매동 497-3번지","indutype":"문화.취미 - 화원","category":"other"}]},{"lat":"37.640609793","long":"127.1149024","imageIndex":17,"items":[{"name":"우림도기","tel":"031-574-6217","addr":"경기도 구리시 갈매동 213-18번지 1층","indutype":"건축자재 - 건축용 요업제품","category":"other"}]},{"lat":"37.63083438","long":"127.11476312","imageIndex":17,"items":[{"name":"우비샵","tel":"","addr":"경기도 구리시 갈매동 615-5번지 1층 일부우비샵","indutype":"의류 - 정장","category":"other"}]},{"lat":"37.64119148","long":"127.11898214","imageIndex":17,"items":[{"name":"우진프라스틱","tel":"031-572-6357","addr":"경기도 구리시 갈매동 183-1","indutype":"건축자재 - 기타건축자재","category":"other"}]},{"lat":"37.642387746","long":"127.11165327","imageIndex":17,"items":[{"name":"유리거울방충망","tel":"070-4553-6232","addr":"경기도 구리시 갈매동 163-168번지 LG뉴하이샤시","indutype":"건축자재 - 유리","category":"other"},{"name":"한길금속산업","tel":"031-571-9975","addr":"경기도 구리시 갈매동 163-168번지","indutype":"건축자재 - 보일러·펌프·샷시","category":"other"}]},{"lat":"37.64127845","long":"127.11284132","imageIndex":17,"items":[{"name":"은공방","tel":"031-575-3013","addr":"경기도 구리시 갈매동 163-8번지","indutype":"문화.취미 - 문화취미기타","category":"other"},{"name":"종합냉동","tel":"031-572-5400","addr":"경기도 구리시 갈매동 163-8번지","indutype":"전기제품 - 가전제품","category":"other"}]},{"lat":"37.63791897","long":"127.12098239","imageIndex":17,"items":[{"name":"은선비(루시.황후의외출.꾸러미)","tel":"070-4232-5179","addr":"경기도 구리시 갈매동 528번지 에이원프라자 3층 302호","indutype":"의류 - 맞춤복점","category":"other"}]},{"lat":"37.627420329","long":"127.11408964","imageIndex":17,"items":[{"name":"이마트24 갈매스위첸점","tel":"031-1111-1111","addr":"경기도 구리시 갈매동 631번지 갈매6단지 101호","indutype":"유통업 영리 - 편 의 점","category":"other"},{"name":"제이엠시스템","tel":"","addr":"경기도 구리시 갈매동 631번지 갈매6단지 603동 1604호","indutype":"용역 서비스 - 기타용역서비스","category":"other"}]},{"lat":"37.636503719","long":"127.12170524","imageIndex":17,"items":[{"name":"이마트24 갈매신영점","tel":"","addr":"경기도 구리시 갈매동 529-2번지 신영프라자 106-2호","indutype":"유통업 영리 - 편 의 점","category":"other"}]},{"lat":"37.639642788","long":"127.12687668","imageIndex":17,"items":[{"name":"이마트24 갈매파크위버점","tel":"","addr":"경기도 구리시 갈매동 513번지 파크위버 125호","indutype":"유통업 영리 - 편 의 점","category":"other"}]},{"lat":"37.633220765","long":"127.11601288","imageIndex":17,"items":[{"name":"이마트24구리모다아울렛점","tel":"","addr":"경기도 구리시 갈매동 599번지 모다아울렛 구리남양주점 1층","indutype":"유통업 영리 - 편 의 점","category":"other"}]},{"lat":"37.640889201","long":"127.11478952","imageIndex":17,"items":[{"name":"이손에","tel":"031-574-6675","addr":"경기도 구리시 갈매동 166-3","indutype":"주방용구 - 주방용구","category":"other"}]},{"lat":"37.630166972","long":"127.11548714","imageIndex":17,"items":[{"name":"이스트프린트(East Print)","tel":"","addr":"경기도 구리시 갈매동 619-9번지","indutype":"광학제품 - 사진관","category":"other"}]},{"lat":"37.639613821","long":"127.11995405","imageIndex":17,"items":[{"name":"자전거가좋다","tel":"031-573-9413","addr":"경기도 구리시 갈매동 136-12번지 1층","indutype":"레져용품 - 스포츠·레져용품","category":"other"}]},{"lat":"37.639419105","long":"127.1163735","imageIndex":17,"items":[{"name":"제일조아","tel":"031-528-4232","addr":"경기도 구리시 갈매동 221-3번지","indutype":"직물 - 카페트,커튼,천막,지물","category":"other"}]},{"lat":"37.626116648","long":"127.11115378","imageIndex":17,"items":[{"name":"제일행정사공인중개사사무소","tel":"031-528-1158","addr":"경기도 구리시 갈매동 636번지 1층 101호","indutype":"용역 서비스 - 법률회계서비스(개인)","category":"other"}]},{"lat":"37.629449126","long":"127.11237075","imageIndex":17,"items":[{"name":"제트","tel":"031-571-0729","addr":"경기도 구리시 갈매동 478-27번지 갈매지구 상업지역 4-2, 3블럭 진영타워 A동 5층 502~506호","indutype":"레져용품 - 골프용품 전문점","category":"other"}]},{"lat":"37.638302651","long":"127.11559005","imageIndex":17,"items":[{"name":"주식회사 미디언테크","tel":"02-978-1900","addr":"경기도 구리시 갈매동 240-19번지","indutype":"사무통신 - 컴퓨터","category":"other"}]},{"lat":"37.640580908","long":"127.1168398","imageIndex":17,"items":[{"name":"주식회사 바디스탠드","tel":"031-574-6644","addr":"경기도 구리시 갈매동 194-1번지","indutype":"가구 - 일반가구","category":"other"}]},{"lat":"37.637747035","long":"127.12172988","imageIndex":17,"items":[{"name":"주식회사 해빛비즈니스랩","tel":"031-0000-0000","addr":"경기도 구리시 갈매동 527-3번지 401호","indutype":"문화.취미 - 문화취미기타","category":"other"}]},{"lat":"37.642696567","long":"127.1185086","imageIndex":17,"items":[{"name":"주식회사건우인터내셔널","tel":"031-512-0966","addr":"경기도 구리시 갈매동 147-5번지","indutype":"건축자재 - 조명기구","category":"other"}]},{"lat":"37.638360274","long":"127.11179468","imageIndex":17,"items":[{"name":"주식회사에이비씨","tel":"031-574-1337","addr":"경기도 구리시 갈매동 240-39번지 1동 창고","indutype":"신변잡화 - 기타잡화","category":"other"}]},{"lat":"37.633385939","long":"127.11284102","imageIndex":17,"items":[{"name":"주식회사정우테크","tel":"031-529-7012","addr":"경기도 구리시 갈매동 502-3번지","indutype":"전기제품 - 가전제품","category":"other"}]},{"lat":"37.629755277","long":"127.11256379","imageIndex":17,"items":[{"name":"진솔공구철물","tel":"031-528-0941","addr":"경기도 구리시 갈매동 494-1번지 1층","indutype":"기타 - 기계공구","category":"other"}]},{"lat":"37.640915226","long":"127.11584326","imageIndex":17,"items":[{"name":"진수판넬","tel":"031-574-3010","addr":"경기도 구리시 갈매동 210-1번지","indutype":"건축자재 - 기타건축자재","category":"other"}]},{"lat":"37.626055045","long":"127.10954514","imageIndex":17,"items":[{"name":"진학도서","tel":"031-527-2862","addr":"경기도 구리시 갈매동 458-21번지","indutype":"회원제형태 - 서적","category":"other"}]},{"lat":"37.629864087","long":"127.11181627","imageIndex":17,"items":[{"name":"창대철물","tel":"031-571-4166","addr":"경기도 구리시 갈매동 489-5번지","indutype":"기타 - 기계공구","category":"other"}]},{"lat":"37.629783072","long":"127.11173685","imageIndex":17,"items":[{"name":"청명상사","tel":"031-572-7677","addr":"경기도 구리시 갈매동 489-6번지","indutype":"신변잡화 - 기타잡화","category":"other"}]},{"lat":"37.637445871","long":"127.1164838","imageIndex":17,"items":[{"name":"청솔꽃농원","tel":"02-495-9105","addr":"경기도 구리시 갈매동 237-3번지","indutype":"문화.취미 - 화원","category":"other"}]},{"lat":"37.638636854","long":"127.12383863","imageIndex":17,"items":[{"name":"컨셉바이에스 concept by S","tel":"031-529-9401","addr":"경기도 구리시 갈매동 522-2번지 1층","indutype":"의류 - 정장","category":"other"}]},{"lat":"37.638754235","long":"127.12358957","imageIndex":17,"items":[{"name":"케이애드","tel":"031-572-5758","addr":"경기도 구리시 갈매동 522-6번지 1층 일부","indutype":"건축자재 - 인테리어전문","category":"other"}]},{"lat":"37.629972283","long":"127.12109443","imageIndex":17,"items":[{"name":"코너마켓","tel":"02-1111-1111","addr":"경기도 구리시 갈매동 562-3번지 102호","indutype":"의류 - 정장","category":"other"}]},{"lat":"37.623830762","long":"127.10829593","imageIndex":17,"items":[{"name":"크라쎄","tel":"070-8882-9877","addr":"경기도 구리시 갈매동 439-4번지","indutype":"신변잡화 - 가방","category":"other"}]},{"lat":"37.625448978","long":"127.11218364","imageIndex":17,"items":[{"name":"크린아트","tel":"031-529-6773","addr":"경기도 구리시 갈매동 637번지 CM파크 1층 104호","indutype":"수리서비스 - 세탁소","category":"other"}]},{"lat":"37.630636059","long":"127.11487611","imageIndex":17,"items":[{"name":"크린토피아 코인워시 구리갈매중앙점","tel":"031-521-7938","addr":"경기도 구리시 갈매동 616-3번지 1층","indutype":"수리서비스 - 세탁소","category":"other"}]},{"lat":"37.630449968","long":"127.12092526","imageIndex":17,"items":[{"name":"태라바이크","tel":"070-8945-3313","addr":"경기도 구리시 갈매동 563-1번지 1층 101호","indutype":"레져용품 - 스포츠·레져용품","category":"other"}]},{"lat":"37.641441432","long":"127.12131655","imageIndex":17,"items":[{"name":"파란마을","tel":"031-572-3007","addr":"경기도 구리시 갈매동 142-58번지","indutype":"문화.취미 - 화원","category":"other"}]},{"lat":"37.629031801","long":"127.11542879","imageIndex":17,"items":[{"name":"팩시(PAXI)","tel":"031-1899-3379","addr":"경기도 구리시 갈매동 626번지 갈매와이시티 502동 8층 804호","indutype":"문화.취미 - 애완동물","category":"other"}]},{"lat":"37.631663123","long":"127.11492296","imageIndex":17,"items":[{"name":"펫클럽","tel":"031-510-0774","addr":"경기도 구리시 갈매동 607번지 117호","indutype":"문화.취미 - 애완동물","category":"other"},{"name":"휴대폰365아울렛 갈매점","tel":"031-513-7744","addr":"경기도 구리시 갈매동 607번지 갈매중심타워오피스텔 1층 120호","indutype":"사무통신 - 통신기기","category":"other"}]},{"lat":"37.641831902","long":"127.11823534","imageIndex":17,"items":[{"name":"평안쇼파목공","tel":"031-572-9538","addr":"경기도 구리시 갈매동 180-2","indutype":"가구 - 일반가구","category":"other"}]},{"lat":"37.637504274","long":"127.12123099","imageIndex":17,"items":[{"name":"포시즌골프","tel":"","addr":"경기도 구리시 갈매동 528-2번지 제일프라자 4층","indutype":"레져용품 - 골프용품 전문점","category":"other"}]},{"lat":"37.638412744","long":"127.12272796","imageIndex":17,"items":[{"name":"하닷사","tel":"031-796-2554","addr":"경기도 구리시 갈매동 524-6번지 1층 1호","indutype":"문화.취미 - 화원","category":"other"}]},{"lat":"37.641917631","long":"127.12262028","imageIndex":17,"items":[{"name":"협신상사","tel":"031-574-2110","addr":"경기도 구리시 갈매동 142-151번지","indutype":"기타 - 기계공구","category":"other"}]},{"lat":"37.640582602","long":"127.11507231","imageIndex":17,"items":[{"name":"화인산업","tel":"031-572-9112","addr":"경기도 구리시 갈매동 213-3번지","indutype":"기타 - 기계공구","category":"other"}]},{"lat":"37.641336965","long":"127.11762274","imageIndex":17,"items":[{"name":"효성우드","tel":"02-2213-5936","addr":"경기도 구리시 갈매동 162-8번지 23, 40","indutype":"건축자재 - 목재·석재·철물","category":"other"}]}]