[{"lat":"37.219164917","long":"127.04749828","imageIndex":7,"items":[{"name":"P.K(평강)에프엔비","tel":"031-233-8588","addr":"경기도 화성시 기산동 96번지","indutype":"음료식품 - 기타음료식품","category":"food"}]},{"lat":"37.227187551","long":"127.03724918","imageIndex":7,"items":[{"name":"남양신병점대리점","tel":"031-898-7766","addr":"경기도 화성시 기산동 430-5번지","indutype":"음료식품 - 기타음료식품","category":"food"}]},{"lat":"37.225077527","long":"127.04238626","imageIndex":7,"items":[{"name":"농업회사법인 주식회사 대박식품","tel":"031-234-8199","addr":"경기도 화성시 기산동 362-2번지","indutype":"음료식품 - 기타음료식품","category":"food"}]},{"lat":"37.222940485","long":"127.04689207","imageIndex":7,"items":[{"name":"만석꾼FS","tel":"031-206-8585","addr":"경기도 화성시 기산동 205-1번지","indutype":"음료식품 - 미곡상","category":"food"},{"name":"사계절우리김치","tel":"031-226-8964","addr":"경기도 화성시 기산동 205-1번지","indutype":"음료식품 - 기타음료식품","category":"food"}]},{"lat":"37.225661434","long":"127.04736689","imageIndex":7,"items":[{"name":"박지성길한우도매센터","tel":"031-239-9940","addr":"경기도 화성시 기산동 224-2","indutype":"음료식품 - 정육점","category":"food"}]},{"lat":"37.220939274","long":"127.04927951","imageIndex":7,"items":[{"name":"오레시피기산점","tel":"031-223-6786","addr":"경기도 화성시 기산동 162-14번지 102호","indutype":"음료식품 - 기타음료식품","category":"food"}]},{"lat":"37.227323221","long":"127.03542384","imageIndex":7,"items":[{"name":"장수마트","tel":"031-234-0686","addr":"경기도 화성시 기산동 442-1번지","indutype":"음료식품 - 기타음료식품","category":"food"}]},{"lat":"37.225989333","long":"127.03669652","imageIndex":7,"items":[{"name":"주식회사 거상종합","tel":"031-225-6260","addr":"경기도 화성시 기산동 435-101번지","indutype":"음료식품 - 기타음료식품","category":"food"}]},{"lat":"37.226077885","long":"127.04175579","imageIndex":7,"items":[{"name":"한길축산","tel":"031-238-5350","addr":"경기도 화성시 기산동 407-4번지","indutype":"음료식품 - 정육점","category":"food"}]}]