[{"lat":"37.280400835","long":"127.11346435","imageIndex":4,"items":[{"name":"353라운지","tel":"031-283-7694","addr":"경기도 용인시 기흥구 구갈동 353-4번지 신건프라자 302호","indutype":"일반휴게음식 - 주점","category":"restaurant"},{"name":"국수나무기흥구청점","tel":"031-8005-6353","addr":"경기도 용인시 기흥구 구갈동 353-4번지 신건프라자 101호","indutype":"일반휴게음식 - 스넥","category":"restaurant"},{"name":"루나","tel":"031-283-7350","addr":"경기도 용인시 기흥구 구갈동 353-4번지 신건프라자 701호","indutype":"일반휴게음식 - 일반한식","category":"restaurant"},{"name":"마포빈대떡","tel":"031-274-5018","addr":"경기도 용인시 기흥구 구갈동 353-4번지 신건프라자 105호","indutype":"일반휴게음식 - 일반한식","category":"restaurant"},{"name":"본죽&비빔밥cafe(용인구갈점)","tel":"031-285-1159","addr":"경기도 용인시 기흥구 구갈동 353-4번지 신건프라자 104호","indutype":"일반휴게음식 - 일반한식","category":"restaurant"},{"name":"샌드데이","tel":"031-285-9554","addr":"경기도 용인시 기흥구 구갈동 353-4,106번지","indutype":"일반휴게음식 - 칵테일바","category":"restaurant"},{"name":"시로드","tel":"031-285-4478","addr":"경기도 용인시 기흥구 구갈동 353-4번지 신건프라자 701호","indutype":"일반휴게음식 - 서양음식","category":"restaurant"},{"name":"이디야 기흥구청점","tel":"031-283-3547","addr":"경기도 용인시 기흥구 구갈동 353-4번지 1층 109-1호, 109-2호","indutype":"일반휴게음식 - 서양음식","category":"restaurant"},{"name":"짱이야","tel":"031-111-1111","addr":"경기도 용인시 기흥구 구갈동 353-4번지 신건프라자 201호","indutype":"일반휴게음식 - 일반한식","category":"restaurant"},{"name":"파파이스기흥점","tel":"031-281-8838","addr":"경기도 용인시 기흥구 구갈동 353-4신건프라자108호204호","indutype":"일반휴게음식 - 칵테일바","category":"restaurant"},{"name":"푸라닭기흥구청점","tel":"031-285-9206","addr":"경기도 용인시 기흥구 구갈동 353-4번지 신건프라자 110-1,2호","indutype":"일반휴게음식 - 일반한식","category":"restaurant"},{"name":"하남돼지집","tel":"031-285-7004","addr":"경기도 용인시 기흥구 구갈동 353-4번지 신건프라자 108호","indutype":"일반휴게음식 - 일반한식","category":"restaurant"},{"name":"혼다라멘(HONDA RAMEN)","tel":"031-283-1236","addr":"경기도 용인시 기흥구 구갈동 353-4번지 신건프라자 104호 일부","indutype":"일반휴게음식 - 일반한식","category":"restaurant"}]},{"lat":"37.273519905","long":"127.11029734","imageIndex":4,"items":[{"name":"7080콘서트","tel":"031-281-8887","addr":"경기도 용인시 기흥구 구갈동 412-9번지 2층","indutype":"일반휴게음식 - 일반한식","category":"restaurant"},{"name":"본죽&비빔밥cafe(신갈강남병원점)","tel":"031-282-5800","addr":"경기도 용인시 기흥구 구갈동 412-9번지 상미빌딩 1층 우측코너","indutype":"일반휴게음식 - 일반한식","category":"restaurant"}]},{"lat":"37.279019687","long":"127.11619104","imageIndex":4,"items":[{"name":"7번가피자 기흥점","tel":"031-286-1777","addr":"경기도 용인시 기흥구 구갈동 378번지 충전센타 104호","indutype":"일반휴게음식 - 서양음식","category":"restaurant"}]},{"lat":"37.27079123","long":"127.12723892","imageIndex":4,"items":[{"name":"99펍차","tel":"031-275-9959","addr":"경기도 용인시 기흥구 구갈동 595번지 우성메디피아 2층 201호","indutype":"일반휴게음식 - 일반한식","category":"restaurant"},{"name":"돈이돈이","tel":"031-281-3292","addr":"경기도 용인시 기흥구 구갈동 595번지 우성메디피아 109호","indutype":"일반휴게음식 - 일반한식","category":"restaurant"},{"name":"우리김밥","tel":"031-275-0048","addr":"경기도 용인시 기흥구 구갈동 595번지 우성메디피아 상가동 104호","indutype":"일반휴게음식 - 스넥","category":"restaurant"},{"name":"원조왕십리곱창","tel":"031-693-5405","addr":"경기도 용인시 기흥구 구갈동 595번지 우성메디피아 107,108호","indutype":"일반휴게음식 - 일반한식","category":"restaurant"},{"name":"퓨처월드","tel":"031-275-7733","addr":"경기도 용인시 기흥구 구갈동 595번지 우성메디피아 상가동 202호","indutype":"일반휴게음식 - 주점","category":"restaurant"},{"name":"피자스쿨용인강남대점","tel":"031-287-1984","addr":"경기도 용인시 기흥구 구갈동 595번지 우성메디피아 103호","indutype":"일반휴게음식 - 서양음식","category":"restaurant"},{"name":"훠궈타운","tel":"031-283-6181","addr":"경기도 용인시 기흥구 구갈동 595번지 우성메디아 203호","indutype":"일반휴게음식 - 일반한식","category":"restaurant"}]},{"lat":"37.27032298","long":"127.12696757","imageIndex":4,"items":[{"name":"Exito","tel":"031-274-4098","addr":"경기도 용인시 기흥구 구갈동 595-2번지 강남대프라자 507호","indutype":"일반휴게음식 - 칵테일바","category":"restaurant"},{"name":"고수경등촌동샤브칼국수","tel":"031-286-0260","addr":"경기도 용인시 기흥구 구갈동 595-2번지 강남대프라자 201호","indutype":"일반휴게음식 - 일반한식","category":"restaurant"},{"name":"구주네옛날통닭 강남대역점","tel":"","addr":"경기도 용인시 기흥구 구갈동 595-2번지 강남대프라자 1층 101호","indutype":"일반휴게음식 - 일반한식","category":"restaurant"},{"name":"엑시토","tel":"031-223-5214","addr":"경기도 용인시 기흥구 구갈동 595-2번지 강남대프라자 507호","indutype":"일반휴게음식 - 일반한식","category":"restaurant"},{"name":"피자에땅","tel":"031-287-9445","addr":"경기도 용인시 기흥구 구갈동 595-5 강남대프라자111","indutype":"일반휴게음식 - 서양음식","category":"restaurant"}]},{"lat":"37.280320206","long":"127.1129681","imageIndex":4,"items":[{"name":"Les Coups de (레스큐드)","tel":"070-7723-2799","addr":"경기도 용인시 기흥구 구갈동 353-6번지 대원빌딩 2층","indutype":"일반휴게음식 - 서양음식","category":"restaurant"},{"name":"계향치킨","tel":"031-285-1600","addr":"경기도 용인시 기흥구 구갈동 353-6번지 창형빌딩 1층","indutype":"일반휴게음식 - 주점","category":"restaurant"},{"name":"백채김치찌개기흥구청점","tel":"031-282-5508","addr":"경기도 용인시 기흥구 구갈동 353-6번지 창형빌딩 101호","indutype":"일반휴게음식 - 일반한식","category":"restaurant"}]},{"lat":"37.273709692","long":"127.10966621","imageIndex":4,"items":[{"name":"가림양꼬치구이","tel":"031-274-3277","addr":"경기도 용인시 기흥구 구갈동 412-23번지 전원고시원 1층","indutype":"일반휴게음식 - 일반한식","category":"restaurant"},{"name":"김가네풍천장어","tel":"031-283-9333","addr":"경기도 용인시 기흥구 구갈동 412-23번지 전원고시원","indutype":"일반휴게음식 - 일반한식","category":"restaurant"},{"name":"수성다방","tel":"031-284-2588","addr":"경기도 용인시 기흥구 구갈동 412-23번지 전원고시원 2층","indutype":"일반휴게음식 - 서양음식","category":"restaurant"},{"name":"시아-BEER(비어)","tel":"","addr":"경기도 용인시 기흥구 구갈동 412-23번지 전원고시원 1층","indutype":"일반휴게음식 - 주점","category":"restaurant"},{"name":"어처구니","tel":"031-286-3885","addr":"경기도 용인시 기흥구 구갈동 412-23번지 전원고시원","indutype":"일반휴게음식 - 일반한식","category":"restaurant"},{"name":"지에스분식","tel":"031-282-1907","addr":"경기도 용인시 기흥구 구갈동 412-23번지 전원고시원","indutype":"일반휴게음식 - 스넥","category":"restaurant"},{"name":"지오","tel":"031-282-0048","addr":"경기도 용인시 기흥구 구갈동 412-23번지 전원고시원","indutype":"일반휴게음식 - 일반한식","category":"restaurant"}]},{"lat":"37.279762187","long":"127.11230201","imageIndex":4,"items":[{"name":"가마로강정","tel":"031-282-0333","addr":"경기도 용인시 기흥구 구갈동 354-8번지 로얄프라자","indutype":"일반휴게음식 - 일반한식","category":"restaurant"},{"name":"감성커피 용인기흥구청점","tel":"070-8829-4862","addr":"경기도 용인시 기흥구 구갈동 354-8번지 로얄프라자 105호","indutype":"일반휴게음식 - 서양음식","category":"restaurant"},{"name":"다린","tel":"031-282-7282","addr":"경기도 용인시 기흥구 구갈동 354-8번지 로얄프라자 107호","indutype":"일반휴게음식 - 중국식","category":"restaurant"},{"name":"봉구스밥버거 시흥구청점","tel":"031-285-5563","addr":"경기도 용인시 기흥구 구갈동 354-8번지 로얄프라자 1층 102호","indutype":"일반휴게음식 - 일반한식","category":"restaurant"},{"name":"분식대장 기흥구청점","tel":"","addr":"경기도 용인시 기흥구 구갈동 354-8번지 로얄프라자 101호","indutype":"일반휴게음식 - 스넥","category":"restaurant"},{"name":"생국수본가","tel":"031-285-1300","addr":"경기도 용인시 기흥구 구갈동 354-8번지 로얄프라자 106호","indutype":"일반휴게음식 - 일반한식","category":"restaurant"},{"name":"초대마왕","tel":"031-281-8905","addr":"경기도 용인시 기흥구 구갈동 354-8번지 로얄프라자 101호","indutype":"일반휴게음식 - 일반한식","category":"restaurant"}]},{"lat":"37.275381381","long":"127.13199329","imageIndex":4,"items":[{"name":"가츠몽","tel":"02-447-9399","addr":"경기도 용인시 기흥구 구갈동 111번지 강남대학교 콤플렉스센타 지하1층 일부","indutype":"일반휴게음식 - 위탁급식업","category":"restaurant"},{"name":"블룸즈버리","tel":"031-4944-4919","addr":"경기도 용인시 기흥구 구갈동 111번지 강남대학교 샬롬관 지하1층","indutype":"일반휴게음식 - 서양음식","category":"restaurant"},{"name":"블룸즈버리(Bloomsbury)","tel":"031-280-3114","addr":"경기도 용인시 기흥구 구갈동 111번지 지하1층 B113호,B114호","indutype":"일반휴게음식 - 서양음식","category":"restaurant"}]},{"lat":"37.272465638","long":"127.12866228","imageIndex":4,"items":[{"name":"가치김밥","tel":"","addr":"경기도 용인시 기흥구 구갈동 583번지 103,104호","indutype":"일반휴게음식 - 스넥","category":"restaurant"},{"name":"마포집(구갈강남대점)","tel":"031-287-2292","addr":"경기도 용인시 기흥구 구갈동 583번지 103,104호","indutype":"일반휴게음식 - 일반한식","category":"restaurant"}]},{"lat":"37.277519815","long":"127.12921191","imageIndex":4,"items":[{"name":"감성낙곱새","tel":"031-274-0989","addr":"경기도 용인시 기흥구 구갈동 554-7번지 101호","indutype":"일반휴게음식 - 일반한식","category":"restaurant"}]},{"lat":"37.280518923","long":"127.11243842","imageIndex":4,"items":[{"name":"감탄구갈점","tel":"031-287-1600","addr":"경기도 용인시 기흥구 구갈동 353번지 낙원상가 103호","indutype":"일반휴게음식 - 일반한식","category":"restaurant"},{"name":"전곱","tel":"031-282-3337","addr":"경기도 용인시 기흥구 구갈동 353번지 낙원상가 109호","indutype":"일반휴게음식 - 일반한식","category":"restaurant"}]},{"lat":"37.272017287","long":"127.12660956","imageIndex":4,"items":[{"name":"강남꼼장어","tel":"031-8005-9285","addr":"경기도 용인시 기흥구 구갈동 579번지 아카데미프라자 106호","indutype":"일반휴게음식 - 일반한식","category":"restaurant"},{"name":"강남포차","tel":"031-274-2356","addr":"경기도 용인시 기흥구 구갈동 579번지 아카데미프라자 104호","indutype":"일반휴게음식 - 일반한식","category":"restaurant"},{"name":"강한닭발","tel":"031-274-7110","addr":"경기도 용인시 기흥구 구갈동 579번지 아카데미프라자 111호","indutype":"일반휴게음식 - 일반한식","category":"restaurant"},{"name":"그옛날소머리국밥","tel":"031-286-3317","addr":"경기도 용인시 기흥구 구갈동 579번지 아카데미프라자 1층 105호","indutype":"일반휴게음식 - 일반한식","category":"restaurant"},{"name":"꼬꼬마루치떡","tel":"031-285-9989","addr":"경기도 용인시 기흥구 구갈동 579번지 아카데미프라자 109호","indutype":"일반휴게음식 - 스넥","category":"restaurant"},{"name":"블랙탑커피","tel":"031-287-0897","addr":"경기도 용인시 기흥구 구갈동 579번지 101,102호","indutype":"일반휴게음식 - 일반한식","category":"restaurant"},{"name":"천하제일족발","tel":"031-275-8255","addr":"경기도 용인시 기흥구 구갈동 579번지 아카데미프라자 108호","indutype":"일반휴게음식 - 일반한식","category":"restaurant"},{"name":"홍짜장","tel":"031-281-1044","addr":"경기도 용인시 기흥구 구갈동 579번지 아카데미프라자 103호","indutype":"일반휴게음식 - 중국식","category":"restaurant"},{"name":"화수목","tel":"031-282-7766","addr":"경기도 용인시 기흥구 구갈동 579번지 113,114호","indutype":"일반휴게음식 - 일반한식","category":"restaurant"}]},{"lat":"37.272656378","long":"127.12721944","imageIndex":4,"items":[{"name":"강남대카페데니빗(Cafe Dainty bits)","tel":"031-287-8868","addr":"경기도 용인시 기흥구 구갈동 578-3번지","indutype":"일반휴게음식 - 일반한식","category":"restaurant"},{"name":"꿈꾸는다락방","tel":"031-274-0153","addr":"경기도 용인시 기흥구 구갈동 578-3번지 소망빌딩 109호","indutype":"일반휴게음식 - 서양음식","category":"restaurant"}]},{"lat":"37.271485599","long":"127.12668761","imageIndex":4,"items":[{"name":"강남쪽갈비","tel":"","addr":"경기도 용인시 기흥구 구갈동 579-2번지 태평양프라자 110,111호","indutype":"일반휴게음식 - 일반한식","category":"restaurant"},{"name":"브라운벨벳","tel":"031-286-7101","addr":"경기도 용인시 기흥구 구갈동 579-2번지 태평양프라자 108,109호","indutype":"일반휴게음식 - 서양음식","category":"restaurant"},{"name":"이디야","tel":"031-287-7689","addr":"경기도 용인시 기흥구 구갈동 579-2번지 태평양프라자 104호","indutype":"일반휴게음식 - 서양음식","category":"restaurant"},{"name":"제이스펍(J's펍)","tel":"031-285-6342","addr":"경기도 용인시 기흥구 구갈동 579-2번지 태평양프라자 304호","indutype":"일반휴게음식 - 일반한식","category":"restaurant"},{"name":"춘천맛닭갈비","tel":"031-275-0168","addr":"경기도 용인시 기흥구 구갈동 579-2번지 태평프라자 상가동 203호","indutype":"일반휴게음식 - 일반한식","category":"restaurant"}]},{"lat":"37.276991871","long":"127.11671794","imageIndex":4,"items":[{"name":"강너머","tel":"031-286-6440","addr":"경기도 용인시 기흥구 구갈동 374-15번지","indutype":"일반휴게음식 - 일반한식","category":"restaurant"}]},{"lat":"37.27165415","long":"127.12919084","imageIndex":4,"items":[{"name":"갤러리카페 엔디","tel":"031-283-7921","addr":"경기도 용인시 기흥구 구갈동 590번지 1층","indutype":"일반휴게음식 - 서양음식","category":"restaurant"}]},{"lat":"37.281102406","long":"127.11477339","imageIndex":4,"items":[{"name":"걸작떡볶이치킨 기흥구청점","tel":"031-281-2821","addr":"경기도 용인시 기흥구 구갈동 366-9번지 1층","indutype":"일반휴게음식 - 일반한식","category":"restaurant"},{"name":"본래순대기흥구청점","tel":"031-281-2005","addr":"경기도 용인시 기흥구 구갈동 366-9번지 1층 일부","indutype":"일반휴게음식 - 일반한식","category":"restaurant"}]},{"lat":"37.271322337","long":"127.12771332","imageIndex":4,"items":[{"name":"고봉민김밥인 용인강남대점","tel":"031-285-5111","addr":"경기도 용인시 기흥구 구갈동 594-1번지 그랜드프라자 111호","indutype":"일반휴게음식 - 일반한식","category":"restaurant"},{"name":"동이만두앤푸드 (동이만두&FOOD)","tel":"031-274-2009","addr":"경기도 용인시 기흥구 구갈동 594-1번지 그랜드프라자 105호","indutype":"일반휴게음식 - 스넥","category":"restaurant"},{"name":"사계절감자탕,삼겹살","tel":"031-285-2060","addr":"경기도 용인시 기흥구 구갈동 594-1번지 그랜드프라자 206 ,207호","indutype":"일반휴게음식 - 일반한식","category":"restaurant"},{"name":"신주쿠카레 강남대점","tel":"","addr":"경기도 용인시 기흥구 구갈동 594-1번지 그랜드프라자 106호","indutype":"일반휴게음식 - 일반한식","category":"restaurant"},{"name":"알촌","tel":"031-274-8301","addr":"경기도 용인시 기흥구 구갈동 594-1번지 그랜드프라자","indutype":"일반휴게음식 - 일반한식","category":"restaurant"},{"name":"우주라이크","tel":"031-287-1081","addr":"경기도 용인시 기흥구 구갈동 594-1번지 그랜드프라자 1층 108호","indutype":"일반휴게음식 - 서양음식","category":"restaurant"},{"name":"육소단","tel":"031-282-8440","addr":"경기도 용인시 기흥구 구갈동 594-1번지 그랜드프라자 104호","indutype":"일반휴게음식 - 일반한식","category":"restaurant"},{"name":"인블랙","tel":"070-4145-4321","addr":"경기도 용인시 기흥구 구갈동 594-1번지 그랜드프라자 905호","indutype":"일반휴게음식 - 주점","category":"restaurant"},{"name":"카페딩굴","tel":"031-287-3809","addr":"경기도 용인시 기흥구 구갈동 594-1번지 그랜드프라자 502호","indutype":"일반휴게음식 - 서양음식","category":"restaurant"},{"name":"포카라인도요리전문점","tel":"031-281-3614","addr":"경기도 용인시 기흥구 구갈동 594-1번지 그랜드프라자 204호","indutype":"일반휴게음식 - 서양음식","category":"restaurant"},{"name":"핫떡","tel":"031-282-2120","addr":"경기도 용인시 기흥구 구갈동 594-1번지 그랜드프라자 107호","indutype":"일반휴게음식 - 스넥","category":"restaurant"},{"name":"호치킨","tel":"031-283-5727","addr":"경기도 용인시 기흥구 구갈동 594-1번지 그랜드프라자 114호","indutype":"일반휴게음식 - 스넥","category":"restaurant"}]},{"lat":"37.273818699","long":"127.11832547","imageIndex":4,"items":[{"name":"고봉민김밥인 용인기흥역점","tel":"031-274-7207","addr":"경기도 용인시 기흥구 구갈동 234-3번지 힐스테이트기흥 302동 1층 102호","indutype":"일반휴게음식 - 스넥","category":"restaurant"},{"name":"메가엠지씨커피 기흥역점","tel":"","addr":"경기도 용인시 기흥구 구갈동 234-3번지 힐스테이트기흥 301동 104호","indutype":"일반휴게음식 - 서양음식","category":"restaurant"},{"name":"얌샘김밥 용인기흥역점","tel":"031-305-3378","addr":"경기도 용인시 기흥구 구갈동 234-3번지 힐스테이트기흥 301동 1층 109호","indutype":"일반휴게음식 - 일반한식","category":"restaurant"},{"name":"커피베이 기흥힐스테이트점","tel":"031-111-1111","addr":"경기도 용인시 기흥구 구갈동 234-3번지 힐스테이트 기흥 302동 109호","indutype":"일반휴게음식 - 서양음식","category":"restaurant"},{"name":"홍짜장 기흥역점","tel":"031-274-9998","addr":"경기도 용인시 기흥구 구갈동 234-3번지 힐스테이트기흥 302동 1층 111호 상가","indutype":"일반휴게음식 - 일반한식","category":"restaurant"}]},{"lat":"37.281069162","long":"127.11177394","imageIndex":4,"items":[{"name":"고봉민김밥인구갈점","tel":"031-274-1387","addr":"경기도 용인시 기흥구 구갈동 351번지 구갈스포츠센터 116호","indutype":"일반휴게음식 - 일반한식","category":"restaurant"},{"name":"도담도담 기흥점","tel":"031-281-7849","addr":"경기도 용인시 기흥구 구갈동 351번지 구갈스포츠센타 113호","indutype":"일반휴게음식 - 서양음식","category":"restaurant"},{"name":"명랑시대쌀핫도그기흥구청점","tel":"031-284-0627","addr":"경기도 용인시 기흥구 구갈동 351번지 구갈스포츠센타 108호","indutype":"일반휴게음식 - 일반한식","category":"restaurant"},{"name":"스시찬","tel":"031-284-9433","addr":"경기도 용인시 기흥구 구갈동 351번지 구갈스포츠센타 131호","indutype":"일반휴게음식 - 일식·회집","category":"restaurant"},{"name":"원할머니보쌈,족발(용인신갈점)","tel":"031-286-4010","addr":"경기도 용인시 기흥구 구갈동 351번지 구갈스포츠센터 2층 207호","indutype":"일반휴게음식 - 일반한식","category":"restaurant"},{"name":"이삭","tel":"031-285-6006","addr":"경기도 용인시 기흥구 구갈동 351번지 구갈스포츠센타 상가동 107호","indutype":"일반휴게음식 - 일반한식","category":"restaurant"},{"name":"쥬씨구갈점","tel":"070-8777-2732","addr":"경기도 용인시 기흥구 구갈동 351번지 구갈스포츠센타 1층 102호","indutype":"일반휴게음식 - 서양음식","category":"restaurant"},{"name":"커피에반하다","tel":"031-287-5433","addr":"경기도 용인시 기흥구 구갈동 351번지 구갈스포츠센터 1층 105호","indutype":"일반휴게음식 - 서양음식","category":"restaurant"},{"name":"킹스타피자","tel":"031-282-0055","addr":"경기도 용인시 기흥구 구갈동 351번지 구갈스포츠센타 상가동 112호","indutype":"일반휴게음식 - 일반한식","category":"restaurant"},{"name":"푸드홈주식회사","tel":"031-282-6085","addr":"경기도 용인시 기흥구 구갈동 351번지 구갈스포츠센터 215호","indutype":"일반휴게음식 - 위탁급식업","category":"restaurant"},{"name":"한식 분식나라","tel":"031-282-9845","addr":"경기도 용인시 기흥구 구갈동 351번지 구갈스포츠센터 130호","indutype":"일반휴게음식 - 일반한식","category":"restaurant"},{"name":"홍루이젠 기흥구청점","tel":"031-285-7083","addr":"경기도 용인시 기흥구 구갈동 351번지","indutype":"일반휴게음식 - 일반한식","category":"restaurant"}]},{"lat":"37.279851231","long":"127.113441","imageIndex":4,"items":[{"name":"곱빼기 국수가게","tel":"031-282-4133","addr":"경기도 용인시 기흥구 구갈동 354-4번지 금강프라자 113호","indutype":"일반휴게음식 - 일반한식","category":"restaurant"},{"name":"다님골뼈감자탕(구갈점)","tel":"031-274-1814","addr":"경기도 용인시 기흥구 구갈동 354-4번지 금강프라자 111동 112호","indutype":"일반휴게음식 - 일반한식","category":"restaurant"},{"name":"더맛있는족발","tel":"031-285-5849","addr":"경기도 용인시 기흥구 구갈동 354-4번지 111호,112호","indutype":"일반휴게음식 - 일반한식","category":"restaurant"},{"name":"레드(RED)","tel":"031-285-1224","addr":"경기도 용인시 기흥구 구갈동 354-4번지 금강프라자 108호","indutype":"일반휴게음식 - 서양음식","category":"restaurant"},{"name":"순이와 숙이의 추억에7080","tel":"031-283-3314","addr":"경기도 용인시 기흥구 구갈동 354-4번지 금강프라자 3층 306호","indutype":"일반휴게음식 - 주점","category":"restaurant"},{"name":"스시고메","tel":"031-123-1234","addr":"경기도 용인시 기흥구 구갈동 354-4번지 금강프라자 101호","indutype":"일반휴게음식 - 일반한식","category":"restaurant"},{"name":"한솥도시락기흥구청앞점","tel":"031-275-8506","addr":"경기도 용인시 기흥구 구갈동 354-4번지 금강프라자 110호","indutype":"일반휴게음식 - 일반한식","category":"restaurant"}]},{"lat":"37.280456589","long":"127.11163774","imageIndex":4,"items":[{"name":"공차 기흥구청점","tel":"031-724-9751","addr":"경기도 용인시 기흥구 구갈동 352번지 메가타운 1층 101호","indutype":"일반휴게음식 - 서양음식","category":"restaurant"},{"name":"달닭","tel":"031-282-3832","addr":"경기도 용인시 기흥구 구갈동 352번지 구갈메가타운 102호","indutype":"일반휴게음식 - 스넥","category":"restaurant"},{"name":"메가커피 (기흥구청점)","tel":"031-283-6762","addr":"경기도 용인시 기흥구 구갈동 352번지 메가타운 1층 108호","indutype":"일반휴게음식 - 서양음식","category":"restaurant"},{"name":"모아","tel":"031-274-9506","addr":"경기도 용인시 기흥구 구갈동 352번지 구갈메가타운 1층 112호","indutype":"일반휴게음식 - 서양음식","category":"restaurant"},{"name":"미소야용인구갈점","tel":"031-282-1556","addr":"경기도 용인시 기흥구 구갈동 352번지 메가타운 109호","indutype":"일반휴게음식 - 일반한식","category":"restaurant"}]},{"lat":"37.282402959","long":"127.1114714","imageIndex":4,"items":[{"name":"교촌치킨구갈2지구","tel":"031-281-9282","addr":"경기도 용인시 기흥구 구갈동 345-3번지 1층","indutype":"일반휴게음식 - 스넥","category":"restaurant"},{"name":"마산아구","tel":"031-284-5599","addr":"경기도 용인시 기흥구 구갈동 345-3번지 1층 일부","indutype":"일반휴게음식 - 일반한식","category":"restaurant"},{"name":"용범이네 인계동껍데기(기흥구청점)","tel":"031-282-4984","addr":"경기도 용인시 기흥구 구갈동 345-3번지 1층 103호","indutype":"일반휴게음식 - 일반한식","category":"restaurant"}]},{"lat":"37.271014217","long":"127.12938143","imageIndex":4,"items":[{"name":"구갈생고기집","tel":"031-274-7492","addr":"경기도 용인시 기흥구 구갈동 589-2번지 101호","indutype":"일반휴게음식 - 일반한식","category":"restaurant"}]},{"lat":"37.281853333","long":"127.11147061","imageIndex":4,"items":[{"name":"구갈회사랑","tel":"031-283-7771","addr":"경기도 용인시 기흥구 구갈동 345-8번지 1층","indutype":"일반휴게음식 - 일식·회집","category":"restaurant"},{"name":"토평한우소곱창","tel":"031-285-7224","addr":"경기도 용인시 기흥구 구갈동 345-8번지","indutype":"일반휴게음식 - 일반한식","category":"restaurant"}]},{"lat":"37.277298328","long":"127.11660565","imageIndex":4,"items":[{"name":"구미식당","tel":"031-282-8429","addr":"경기도 용인시 기흥구 구갈동 374-20번지","indutype":"일반휴게음식 - 일반한식","category":"restaurant"}]},{"lat":"37.276658967","long":"127.11622133","imageIndex":4,"items":[{"name":"구스김밥","tel":"031-287-5405","addr":"경기도 용인시 기흥구 구갈동 374-5번지 1층 102호","indutype":"일반휴게음식 - 스넥","category":"restaurant"}]},{"lat":"37.276295647","long":"127.10965859","imageIndex":4,"items":[{"name":"구워더존치킨","tel":"070-8977-7654","addr":"경기도 용인시 기흥구 구갈동 402-22번지","indutype":"일반휴게음식 - 스넥","category":"restaurant"},{"name":"술 HOUSE(하우스)","tel":"070-8977-7654","addr":"경기도 용인시 기흥구 구갈동 402-22번지 1층","indutype":"일반휴게음식 - 스넥","category":"restaurant"}]},{"lat":"37.279959795","long":"127.11296757","imageIndex":4,"items":[{"name":"구청닭발&전","tel":"031-281-9991","addr":"경기도 용인시 기흥구 구갈동 354-2번지 인텔존 102호","indutype":"일반휴게음식 - 일반한식","category":"restaurant"},{"name":"껍데기클라쓰","tel":"031-286-0373","addr":"경기도 용인시 기흥구 구갈동 354-2번지","indutype":"일반휴게음식 - 일식·회집","category":"restaurant"},{"name":"역전우동 용인기흥구청점","tel":"031-8005-7877","addr":"경기도 용인시 기흥구 구갈동 354-2번지 인텔존 101호","indutype":"일반휴게음식 - 일반한식","category":"restaurant"},{"name":"청년갈비&갈비살","tel":"031-284-0033","addr":"경기도 용인시 기흥구 구갈동 354-2번지 인텔존 2층 201호","indutype":"일반휴게음식 - 일반한식","category":"restaurant"}]},{"lat":"37.271159736","long":"127.12810766","imageIndex":4,"items":[{"name":"국수나무","tel":"031-8005-9850","addr":"경기도 용인시 기흥구 구갈동 594번지 강남피아스 104호","indutype":"일반휴게음식 - 일반한식","category":"restaurant"},{"name":"김가네강남대점","tel":"031-287-8985","addr":"경기도 용인시 기흥구 구갈동 594번지 강남피아 102호","indutype":"일반휴게음식 - 스넥","category":"restaurant"},{"name":"돈불석쇠불고기","tel":"031-283-7032","addr":"경기도 용인시 기흥구 구갈동 594번지 강남피아 121호","indutype":"일반휴게음식 - 일반한식","category":"restaurant"},{"name":"맛있는끼니 강남대점","tel":"","addr":"경기도 용인시 기흥구 구갈동 594번지 강남피아 105호","indutype":"일반휴게음식 - 일반한식","category":"restaurant"},{"name":"맵도리탕 본점 별관","tel":"031-8019-8400","addr":"경기도 용인시 기흥구 구갈동 594번지 강남피아 1층 112호","indutype":"일반휴게음식 - 일반한식","category":"restaurant"},{"name":"봉이동동","tel":"031-281-2519","addr":"경기도 용인시 기흥구 구갈동 594번지 강남피아 116동 117호","indutype":"일반휴게음식 - 일반한식","category":"restaurant"},{"name":"석관동떡볶이 용인강남대점","tel":"031-281-1822","addr":"경기도 용인시 기흥구 구갈동 594번지 강남피아 1층 109호","indutype":"일반휴게음식 - 스넥","category":"restaurant"},{"name":"오구쌀피자 강남대점","tel":"031-286-5966","addr":"경기도 용인시 기흥구 구갈동 594번지 강남피아 106호","indutype":"일반휴게음식 - 서양음식","category":"restaurant"},{"name":"이모네양꼬치","tel":"031-000-0000","addr":"경기도 용인시 기흥구 구갈동 594번지 강남피아 114,115호","indutype":"일반휴게음식 - 중국식","category":"restaurant"},{"name":"츄로팜","tel":"031-275-1100","addr":"경기도 용인시 기흥구 구갈동 594번지 강남피아 1층 110호","indutype":"일반휴게음식 - 서양음식","category":"restaurant"},{"name":"칠구통닭","tel":"031-281-7992","addr":"경기도 용인시 기흥구 구갈동 594번지 강남피아 118,119,120호","indutype":"일반휴게음식 - 일반한식","category":"restaurant"}]},{"lat":"37.277881381","long":"127.10973976","imageIndex":4,"items":[{"name":"국수사랑","tel":"031-282-2678","addr":"경기도 용인시 기흥구 구갈동 398-1번지 옥단빌딩 107호","indutype":"일반휴게음식 - 스넥","category":"restaurant"}]},{"lat":"37.280320572","long":"127.11257344","imageIndex":4,"items":[{"name":"군침","tel":"","addr":"경기도 용인시 기흥구 구갈동 353-7번지 그랜드프라자 1층 106호","indutype":"일반휴게음식 - 일반한식","category":"restaurant"},{"name":"날라리호프","tel":"","addr":"경기도 용인시 기흥구 구갈동 353-7번지 그랜드프라자 306,307호","indutype":"일반휴게음식 - 주점","category":"restaurant"},{"name":"낭만꽃기흥구청점","tel":"031-8025-2166","addr":"경기도 용인시 기흥구 구갈동 353-7번지 그랜드프라자 105호","indutype":"일반휴게음식 - 일반한식","category":"restaurant"},{"name":"담소소사골순대 기흥구첨점","tel":"031-283-1821","addr":"경기도 용인시 기흥구 구갈동 353-7번지 그랜드프라자 111호","indutype":"일반휴게음식 - 일반한식","category":"restaurant"},{"name":"레인보우LP카페","tel":"031-287-2285","addr":"경기도 용인시 기흥구 구갈동 353-7번지 그랜드프라자 3층 303호","indutype":"일반휴게음식 - 일반한식","category":"restaurant"},{"name":"바울아저씨","tel":"031-693-6066","addr":"경기도 용인시 기흥구 구갈동 353-7번지 그랜드프라자 109호","indutype":"일반휴게음식 - 일반한식","category":"restaurant"},{"name":"병천황토방순대","tel":"031-274-1390","addr":"경기도 용인시 기흥구 구갈동 353-7번지 그랜드프라자 108호","indutype":"일반휴게음식 - 일반한식","category":"restaurant"},{"name":"빈스의 나무향기","tel":"031-274-8778","addr":"경기도 용인시 기흥구 구갈동 353-7번지 그랜드프라자2층206,207호","indutype":"일반휴게음식 - 서양음식","category":"restaurant"},{"name":"쎄시봉7080","tel":"031-284-1186","addr":"경기도 용인시 기흥구 구갈동 353-7번지 그랜드프라자 301","indutype":"일반휴게음식 - 일반한식","category":"restaurant"},{"name":"아소부","tel":"031-8005-7033","addr":"경기도 용인시 기흥구 구갈동 353-7번지 그랜드프라자 104호","indutype":"일반휴게음식 - 일반한식","category":"restaurant"},{"name":"양꼬치전문점","tel":"031-282-0233","addr":"경기도 용인시 기흥구 구갈동 353-7번지 그랜드프라자 2층 205호","indutype":"일반휴게음식 - 일반한식","category":"restaurant"},{"name":"주모1974","tel":"","addr":"경기도 용인시 기흥구 구갈동 353-7번지 그랜드프라자 2층 204호","indutype":"일반휴게음식 - 일반한식","category":"restaurant"},{"name":"청담동말자싸롱(기흥구청점)","tel":"031-274-3259","addr":"경기도 용인시 기흥구 구갈동 353-7번지 (353-7외1필지그랜드프라자107호)","indutype":"일반휴게음식 - 일반한식","category":"restaurant"},{"name":"펀비어킹","tel":"031-000-0000","addr":"경기도 용인시 기흥구 구갈동 353-7번지 그랜드프라자 101,102,103호","indutype":"일반휴게음식 - 일반한식","category":"restaurant"}]},{"lat":"37.279761936","long":"127.11257263","imageIndex":4,"items":[{"name":"굽네치킨(신갈점)","tel":"031-285-3800","addr":"경기도 용인시 기흥구 구갈동 354-7번지 삼성프라자 1층 101호","indutype":"일반휴게음식 - 스넥","category":"restaurant"},{"name":"륭림닭발 기흥구청점","tel":"031-8005-8845","addr":"경기도 용인시 기흥구 구갈동 354-7번지 삼성프라자 106호","indutype":"일반휴게음식 - 일반한식","category":"restaurant"},{"name":"메이트카페테리아","tel":"031-281-5216","addr":"경기도 용인시 기흥구 구갈동 354-7번지 삼성프라자 701호702호","indutype":"일반휴게음식 - 서양음식","category":"restaurant"},{"name":"일오삼식당","tel":"031-282-3153","addr":"경기도 용인시 기흥구 구갈동 354-7번지 삼성프라자 103호","indutype":"일반휴게음식 - 일반한식","category":"restaurant"}]},{"lat":"37.270097345","long":"127.12732797","imageIndex":4,"items":[{"name":"규동무라","tel":"","addr":"경기도 용인시 기흥구 구갈동 595-3번지 1층 102호","indutype":"일반휴게음식 - 일반한식","category":"restaurant"},{"name":"랭스터디카페 강남대점","tel":"031-274-0300","addr":"경기도 용인시 기흥구 구갈동 595-3번지 1층 101-1호~4호","indutype":"일반휴게음식 - 서양음식","category":"restaurant"}]},{"lat":"37.276406497","long":"127.11641263","imageIndex":4,"items":[{"name":"금실다방","tel":"031-263-9033","addr":"경기도 용인시 기흥구 구갈동 374-8번지","indutype":"일반휴게음식 - 서양음식","category":"restaurant"},{"name":"소박사","tel":"031-283-6571","addr":"경기도 용인시 기흥구 구갈동 374-8번지 1층","indutype":"일반휴게음식 - 일반한식","category":"restaurant"}]},{"lat":"37.281068527","long":"127.11246177","imageIndex":4,"items":[{"name":"기흥스넥식당","tel":"","addr":"경기도 용인시 기흥구 구갈동 351-1번지 모닝프라자 901호","indutype":"일반휴게음식 - 일반한식","category":"restaurant"},{"name":"기흥스파스넥","tel":"031-000-0000","addr":"경기도 용인시 기흥구 구갈동 351-1번지 모닝프라자 9층","indutype":"일반휴게음식 - 일반한식","category":"restaurant"},{"name":"김밥나라","tel":"031-275-1135","addr":"경기도 용인시 기흥구 구갈동 351-1번지 구갈2지구주차장전용빌딩 104호","indutype":"일반휴게음식 - 일반한식","category":"restaurant"},{"name":"빽다방용인기흥구청점","tel":"031-285-1366","addr":"경기도 용인시 기흥구 구갈동 351-1번지 모닝프라자 1층 108호","indutype":"일반휴게음식 - 서양음식","category":"restaurant"},{"name":"아마스빈 기흥구청점","tel":"031-287-0468","addr":"경기도 용인시 기흥구 구갈동 351-1번지 모닝프라자 101호","indutype":"일반휴게음식 - 서양음식","category":"restaurant"},{"name":"피자스쿨","tel":"031-287-3885","addr":"경기도 용인시 기흥구 구갈동 351-1번지 구갈2지구주차장전용빌딩 106호","indutype":"일반휴게음식 - 서양음식","category":"restaurant"}]},{"lat":"37.27451561","long":"127.11507934","imageIndex":4,"items":[{"name":"김가네기흥역점","tel":"031-281-7868","addr":"경기도 용인시 기흥구 구갈동 227-32번지 기흥역 롯데캐슬 레이시티/주상복합 상가동 110호","indutype":"일반휴게음식 - 일반한식","category":"restaurant"},{"name":"동북    왕꼬치","tel":"031-283-7887","addr":"경기도 용인시 기흥구 구갈동 227-32번지 기흥역롯데캐슬레이시티주상복합 상가동 103호","indutype":"일반휴게음식 - 중국식","category":"restaurant"},{"name":"모리스하우스(MORRIS HOUSE)","tel":"031-282-6974","addr":"경기도 용인시 기흥구 구갈동 227-32번지 기흥역롯데캐슬레이시티근린상가 125,126,127호","indutype":"일반휴게음식 - 서양음식","category":"restaurant"},{"name":"죽이야기 기흥역점","tel":"031-282-6288","addr":"경기도 용인시 기흥구 구갈동 227-32번지 기흥역롯데캐슬레이시티주상복합 상가동 1층 114호","indutype":"일반휴게음식 - 일반한식","category":"restaurant"}]},{"lat":"37.280850778","long":"127.11407391","imageIndex":4,"items":[{"name":"김가네숯불닭갈비","tel":"031-283-1600","addr":"경기도 용인시 기흥구 구갈동 357-1번지 1층","indutype":"일반휴게음식 - 스넥","category":"restaurant"}]},{"lat":"37.278848492","long":"127.11619078","imageIndex":4,"items":[{"name":"김대포","tel":"031-284-8444","addr":"경기도 용인시 기흥구 구갈동 378-1번지 1층","indutype":"일반휴게음식 - 일반한식","category":"restaurant"}]},{"lat":"37.276457831","long":"127.10965882","imageIndex":4,"items":[{"name":"김밥전문점","tel":"031-283-9895","addr":"경기도 용인시 기흥구 구갈동 402-8번지","indutype":"일반휴게음식 - 스넥","category":"restaurant"}]},{"lat":"37.271043245","long":"127.12749865","imageIndex":4,"items":[{"name":"김밥천국(강남대점)","tel":"031-274-6161","addr":"경기도 용인시 기흥구 구갈동 594-2번지 스카이프라자 106호","indutype":"일반휴게음식 - 스넥","category":"restaurant"},{"name":"다와바","tel":"070-7552-9470","addr":"경기도 용인시 기흥구 구갈동 594-2번지 스카이프라자 205호","indutype":"일반휴게음식 - 일반한식","category":"restaurant"},{"name":"라파스","tel":"031-285-5529","addr":"경기도 용인시 기흥구 구갈동 594-2번지 스카이프라자 201호","indutype":"일반휴게음식 - 일반한식","category":"restaurant"},{"name":"리앤푸드","tel":"031-284-0502","addr":"경기도 용인시 기흥구 구갈동 594-2번지 스카이프라자 2층 203호","indutype":"일반휴게음식 - 주점","category":"restaurant"},{"name":"마장동돈장군","tel":"031-284-2229","addr":"경기도 용인시 기흥구 구갈동 594-2번지 스카이프라자 107호","indutype":"일반휴게음식 - 일반한식","category":"restaurant"},{"name":"메가커피 강남대점","tel":"031-286-5767","addr":"경기도 용인시 기흥구 구갈동 594-2번지 스카이프라자 104호","indutype":"일반휴게음식 - 서양음식","category":"restaurant"},{"name":"신통치킨","tel":"031-274-7172","addr":"경기도 용인시 기흥구 구갈동 594-2번지 스카이프라자 108,109호","indutype":"일반휴게음식 - 스넥","category":"restaurant"},{"name":"오징어나라","tel":"031-282-0818","addr":"경기도 용인시 기흥구 구갈동 594-2번지 스카이프라자상가","indutype":"일반휴게음식 - 일반한식","category":"restaurant"}]},{"lat":"37.273102231","long":"127.11376937","imageIndex":4,"items":[{"name":"까페트리","tel":"031-8005-6382","addr":"경기도 용인시 기흥구 구갈동 227-5번지 지하2층","indutype":"일반휴게음식 - 서양음식","category":"restaurant"}]},{"lat":"37.279960162","long":"127.11257292","imageIndex":4,"items":[{"name":"깐부치킨(기흥구청점)","tel":"031-8005-9245","addr":"경기도 용인시 기흥구 구갈동 354-1번지 1층 102호","indutype":"일반휴게음식 - 스넥","category":"restaurant"},{"name":"맥주콜 기흥점","tel":"031-283-7978","addr":"경기도 용인시 기흥구 구갈동 354-1번지 2층","indutype":"일반휴게음식 - 주점","category":"restaurant"},{"name":"포메인","tel":"031-287-7447","addr":"경기도 용인시 기흥구 구갈동 354-1번지","indutype":"일반휴게음식 - 일반한식","category":"restaurant"},{"name":"해삼","tel":"031-286-5015","addr":"경기도 용인시 기흥구 구갈동 354-1번지","indutype":"일반휴게음식 - 일반한식","category":"restaurant"}]},{"lat":"37.277267619","long":"127.11091153","imageIndex":4,"items":[{"name":"깜찍한상상","tel":"031-283-8109","addr":"경기도 용인시 기흥구 구갈동 401-2번지 박소수법무사 1층 102호","indutype":"일반휴게음식 - 서양음식","category":"restaurant"}]},{"lat":"37.27140208","long":"127.12898747","imageIndex":4,"items":[{"name":"꽃을피우고","tel":"031-282-1661","addr":"경기도 용인시 기흥구 구갈동 590-2번지 103호","indutype":"일반휴게음식 - 서양음식","category":"restaurant"},{"name":"족발마을","tel":"031-8005-6112","addr":"경기도 용인시 기흥구 구갈동 590-2번지 1층 102호","indutype":"일반휴게음식 - 일반한식","category":"restaurant"}]},{"lat":"37.271294064","long":"127.12888582","imageIndex":4,"items":[{"name":"꿀통닭강정","tel":"031-274-2900","addr":"경기도 용인시 기흥구 구갈동 590-3번지 금랑은랑 105호","indutype":"일반휴게음식 - 일반한식","category":"restaurant"}]},{"lat":"37.271766557","long":"127.12510963","imageIndex":4,"items":[{"name":"나나파스타","tel":"","addr":"경기도 용인시 기흥구 구갈동 582-3번지 대경프라자 1층 111호","indutype":"일반휴게음식 - 서양음식","category":"restaurant"},{"name":"양췬양꼬치","tel":"031-237-3303","addr":"경기도 용인시 기흥구 구갈동 582-3번지 대경프라자 106,107호","indutype":"일반휴게음식 - 중국식","category":"restaurant"},{"name":"존가네용인강남대점","tel":"031-285-5551","addr":"경기도 용인시 기흥구 구갈동 582-3번지 대경프라자 1층 108호","indutype":"일반휴게음식 - 일반한식","category":"restaurant"}]},{"lat":"37.276429923","long":"127.12888311","imageIndex":4,"items":[{"name":"나루토","tel":"031-286-0717","addr":"경기도 용인시 기흥구 구갈동 565-3번지 벤츠빌딩 103호","indutype":"일반휴게음식 - 일반한식","category":"restaurant"},{"name":"푸키 (Pooky)","tel":"031-8005-8884","addr":"경기도 용인시 기흥구 구갈동 565-3번지","indutype":"일반휴게음식 - 일반한식","category":"restaurant"}]},{"lat":"37.276631591","long":"127.1165821","imageIndex":4,"items":[{"name":"나주집","tel":"031-282-7877","addr":"경기도 용인시 기흥구 구갈동 374-18번지","indutype":"일반휴게음식 - 일반한식","category":"restaurant"}]},{"lat":"37.271374748","long":"127.12926929","imageIndex":4,"items":[{"name":"남경","tel":"031-275-8265","addr":"경기도 용인시 기흥구 구갈동 588-7번지","indutype":"일반휴게음식 - 중국식","category":"restaurant"}]},{"lat":"37.271324459","long":"127.12568392","imageIndex":4,"items":[{"name":"남원골추어탕과나주곰탕","tel":"031-282-0499","addr":"경기도 용인시 기흥구 구갈동 581-2번지 사훈프라자","indutype":"일반휴게음식 - 일반한식","category":"restaurant"}]},{"lat":"37.281519602","long":"127.11185352","imageIndex":4,"items":[{"name":"남원앞개울추어탕","tel":"031-285-8887","addr":"경기도 용인시 기흥구 구갈동 349-14번지 영동빌","indutype":"일반휴게음식 - 일반한식","category":"restaurant"}]},{"lat":"37.281319438","long":"127.11393929","imageIndex":4,"items":[{"name":"낭만부엌","tel":"031-287-3085","addr":"경기도 용인시 기흥구 구갈동 358-3번지","indutype":"일반휴게음식 - 일반한식","category":"restaurant"}]},{"lat":"37.280877936","long":"127.11393864","imageIndex":4,"items":[{"name":"내인생최고의족발","tel":"031-282-9587","addr":"경기도 용인시 기흥구 구갈동 357번지 1층","indutype":"일반휴게음식 - 일반한식","category":"restaurant"},{"name":"치어스(구갈점)","tel":"031-693-8626","addr":"경기도 용인시 기흥구 구갈동 357번지 1층","indutype":"일반휴게음식 - 주점","category":"restaurant"}]},{"lat":"37.276682935","long":"127.10982827","imageIndex":4,"items":[{"name":"너나들이","tel":"031-000-0000","addr":"경기도 용인시 기흥구 구갈동 402-1번지 1층","indutype":"일반휴게음식 - 일반한식","category":"restaurant"}]},{"lat":"37.271017677","long":"127.12610057","imageIndex":4,"items":[{"name":"노이(NOI)","tel":"031-274-6669","addr":"경기도 용인시 기흥구 구갈동 581-1번지 강남앤플러스 1층 111호","indutype":"일반휴게음식 - 서양음식","category":"restaurant"},{"name":"다복상회","tel":"070-8944-3825","addr":"경기도 용인시 기흥구 구갈동 581-1번지 강남앤플러스 105호","indutype":"일반휴게음식 - 일반한식","category":"restaurant"},{"name":"더진국강남대점","tel":"031-281-2229","addr":"경기도 용인시 기흥구 구갈동 581-1번지 강남앤플러스 101동 126호","indutype":"일반휴게음식 - 일반한식","category":"restaurant"},{"name":"맘스터치","tel":"031-275-3078","addr":"경기도 용인시 기흥구 구갈동 581-1번지 강남앤플러스 104호 102호 125호","indutype":"일반휴게음식 - 스넥","category":"restaurant"},{"name":"빽다방 용인강남대점","tel":"031-274-8002","addr":"경기도 용인시 기흥구 구갈동 581-1번지 강남앤플러스 124호","indutype":"일반휴게음식 - 서양음식","category":"restaurant"},{"name":"서병장부대찌개","tel":"031-283-0895","addr":"경기도 용인시 기흥구 구갈동 581-1번지 강남앤플러스 123호","indutype":"일반휴게음식 - 일반한식","category":"restaurant"},{"name":"에이바우트커피강남대역점","tel":"","addr":"경기도 용인시 기흥구 구갈동 581-1번지 강남앤플러스 1층 107,108,109,110호","indutype":"일반휴게음식 - 서양음식","category":"restaurant"},{"name":"원조할매순대국","tel":"031-275-8886","addr":"경기도 용인시 기흥구 구갈동 581-1번지 강남앤플러스 121호","indutype":"일반휴게음식 - 일반한식","category":"restaurant"}]},{"lat":"37.280850119","long":"127.11477302","imageIndex":4,"items":[{"name":"뉴욕순두부","tel":"031-274-6405","addr":"경기도 용인시 기흥구 구갈동 357-5번지","indutype":"일반휴게음식 - 일반한식","category":"restaurant"},{"name":"돈가네돼지찌개기흥점","tel":"031-286-6783","addr":"경기도 용인시 기흥구 구갈동 357-5번지","indutype":"일반휴게음식 - 일반한식","category":"restaurant"},{"name":"연안식당 기흥구청점","tel":"","addr":"경기도 용인시 기흥구 구갈동 357-5번지 1층","indutype":"일반휴게음식 - 일반한식","category":"restaurant"}]},{"lat":"37.280319975","long":"127.11321617","imageIndex":4,"items":[{"name":"닌자거북이","tel":"031-282-9285","addr":"경기도 용인시 기흥구 구갈동 353-5번지 1층","indutype":"일반휴게음식 - 일반한식","category":"restaurant"},{"name":"빔스","tel":"031-274-7126","addr":"경기도 용인시 기흥구 구갈동 353-5번지 506호","indutype":"일반휴게음식 - 일반한식","category":"restaurant"},{"name":"인블랙","tel":"","addr":"경기도 용인시 기흥구 구갈동 353-5번지 대연빌딩 8층 일부","indutype":"일반휴게음식 - 주점","category":"restaurant"},{"name":"큰맘할매순대국 기흥구청점","tel":"031-283-0233","addr":"경기도 용인시 기흥구 구갈동 353-5번지 102호","indutype":"일반휴게음식 - 일반한식","category":"restaurant"}]},{"lat":"37.273434752","long":"127.11468312","imageIndex":4,"items":[{"name":"단골집","tel":"031-287-7851","addr":"경기도 용인시 기흥구 구갈동 227-34번지 기흥역지웰푸르지오 상가 1층 110-1호","indutype":"일반휴게음식 - 일반한식","category":"restaurant"},{"name":"바른치킨","tel":"031-282-0022","addr":"경기도 용인시 기흥구 구갈동 227-34번지 기흥역지웰푸르지오","indutype":"일반휴게음식 - 스넥","category":"restaurant"},{"name":"찌개랑 고기랑","tel":"031-274-9880","addr":"경기도 용인시 기흥구 구갈동 227-34번지 기흥역지웰푸르지오 상가동 1층 114호","indutype":"일반휴게음식 - 일반한식","category":"restaurant"}]},{"lat":"37.275401856","long":"127.11160792","imageIndex":4,"items":[{"name":"대운한우소머리국밥","tel":"031-282-9478","addr":"경기도 용인시 기흥구 구갈동 405-3번지","indutype":"일반휴게음식 - 일반한식","category":"restaurant"}]},{"lat":"37.272402972","long":"127.11946205","imageIndex":4,"items":[{"name":"더벤티 기흥더샵점","tel":"031-8081-1600","addr":"경기도 용인시 기흥구 구갈동 234-5번지 기흥역더샵 O동 1층 111호","indutype":"일반휴게음식 - 서양음식","category":"restaurant"}]},{"lat":"37.273961447","long":"127.11976888","imageIndex":4,"items":[{"name":"더커피반","tel":"031-890-1188","addr":"경기도 용인시 기흥구 구갈동 234-4번지 기흥역센트럴푸르지오 근린생활시설 지하2층 2-B219호","indutype":"일반휴게음식 - 서양음식","category":"restaurant"},{"name":"못난이꽈배기 기흥역점","tel":"031-306-7988","addr":"경기도 용인시 기흥구 구갈동 234-4번지 기흥역센트럴푸르지오 상가 2동 B220호","indutype":"일반휴게음식 - 일반한식","category":"restaurant"},{"name":"우리식당.삼겹.곱창","tel":"031-287-5500","addr":"경기도 용인시 기흥구 구갈동 234-4번지 기흥역센트럴푸르지오 근린생활시설동 3동 지하1층 B108호","indutype":"일반휴게음식 - 일반한식","category":"restaurant"},{"name":"치킨데이플러스","tel":"031-202-4488","addr":"경기도 용인시 기흥구 구갈동 234-4번지 기흥역센트럴푸르지오 근린생활시설동 지하2층 2-B203호","indutype":"일반휴게음식 - 스넥","category":"restaurant"},{"name":"치킨신드롬호프","tel":"","addr":"경기도 용인시 기흥구 구갈동 234-4번지 기흥역센트럴푸르지오 1동 1층 103호","indutype":"일반휴게음식 - 스넥","category":"restaurant"},{"name":"커스텀커피","tel":"031-275-6382","addr":"경기도 용인시 기흥구 구갈동 234-4번지 센트럴푸르지오상가 3동 지하1층 B02호","indutype":"일반휴게음식 - 서양음식","category":"restaurant"},{"name":"희영씨와김밥나무 (기흥역점)","tel":"031-283-5533","addr":"경기도 용인시 기흥구 구갈동 234-4번지 기흥역센트럴푸르지오 1층 105호","indutype":"일반휴게음식 - 스넥","category":"restaurant"}]},{"lat":"37.277154542","long":"127.1162108","imageIndex":4,"items":[{"name":"도미노피자(신갈점)","tel":"031-287-3083","addr":"경기도 용인시 기흥구 구갈동 374-1번지 유성빌딩 1층","indutype":"일반휴게음식 - 서양음식","category":"restaurant"}]},{"lat":"37.270763546","long":"127.12785897","imageIndex":4,"items":[{"name":"돈기부여","tel":"031-8067-8855","addr":"경기도 용인시 기흥구 구갈동 596번지 강남피아스 110호","indutype":"일반휴게음식 - 스넥","category":"restaurant"},{"name":"맵도리탕","tel":"031-282-7771","addr":"경기도 용인시 기흥구 구갈동 596번지 강남피아스 107호","indutype":"일반휴게음식 - 일반한식","category":"restaurant"},{"name":"미녀닭발","tel":"031-214-5859","addr":"경기도 용인시 기흥구 구갈동 596번지 강남피아스 102호","indutype":"일반휴게음식 - 일반한식","category":"restaurant"},{"name":"비비큐 강남대점","tel":"031-8005-8292","addr":"경기도 용인시 기흥구 구갈동 596번지 강남피아스 109동 108호","indutype":"일반휴게음식 - 스넥","category":"restaurant"},{"name":"육회와차슈","tel":"031-274-2320","addr":"경기도 용인시 기흥구 구갈동 596번지 105호 106호","indutype":"일반휴게음식 - 일반한식","category":"restaurant"},{"name":"청년피자","tel":"031-282-1138","addr":"경기도 용인시 기흥구 구갈동 596번지 강남피아스 1층 111호","indutype":"일반휴게음식 - 서양음식","category":"restaurant"},{"name":"청년회수산","tel":"070-8064-7306","addr":"경기도 용인시 기흥구 구갈동 596번지 강남피아스 104호","indutype":"일반휴게음식 - 일식·회집","category":"restaurant"},{"name":"친구포차","tel":"031-281-1690","addr":"경기도 용인시 기흥구 구갈동 596번지 강남피아스 103호","indutype":"일반휴게음식 - 일반한식","category":"restaurant"},{"name":"히라쿠","tel":"031-274-9332","addr":"경기도 용인시 기흥구 구갈동 596번지 강남피아스 101호","indutype":"일반휴게음식 - 일식·회집","category":"restaurant"}]},{"lat":"37.281067151","long":"127.11393892","imageIndex":4,"items":[{"name":"돈키호테삼겹살","tel":"031-285-5224","addr":"경기도 용인시 기흥구 구갈동 358-5번지","indutype":"일반휴게음식 - 일반한식","category":"restaurant"}]},{"lat":"37.282294836","long":"127.11147125","imageIndex":4,"items":[{"name":"돈푸대뒷고기구갈점","tel":"031-287-5999","addr":"경기도 용인시 기흥구 구갈동 345-4번지","indutype":"일반휴게음식 - 일반한식","category":"restaurant"}]},{"lat":"37.282708799","long":"127.11202437","imageIndex":4,"items":[{"name":"동네빈대떡","tel":"031-274-8953","addr":"경기도 용인시 기흥구 구갈동 346-2번지 102호","indutype":"일반휴게음식 - 일반한식","category":"restaurant"}]},{"lat":"37.277571088","long":"127.11402398","imageIndex":4,"items":[{"name":"동대문","tel":"031-274-2227","addr":"경기도 용인시 기흥구 구갈동 383-3번지 명지빌딩 1층","indutype":"일반휴게음식 - 일반한식","category":"restaurant"}]},{"lat":"37.271215527","long":"127.12646168","imageIndex":4,"items":[{"name":"두근두근","tel":"031-8005-6777","addr":"경기도 용인시 기흥구 구갈동 581번지 아트프라자 111호","indutype":"일반휴게음식 - 일반한식","category":"restaurant"},{"name":"두근두근(투)","tel":"031-8005-6777","addr":"경기도 용인시 기흥구 구갈동 581번지 아트프라자 110호","indutype":"일반휴게음식 - 일반한식","category":"restaurant"},{"name":"백채김치찌개","tel":"031-000-0000","addr":"경기도 용인시 기흥구 구갈동 581번지 아트프라자 104호","indutype":"일반휴게음식 - 일반한식","category":"restaurant"},{"name":"본죽","tel":"031-274-0088","addr":"경기도 용인시 기흥구 구갈동 581번지 아트프라자 101호","indutype":"일반휴게음식 - 일반한식","category":"restaurant"},{"name":"소달9","tel":"031-274-2992","addr":"경기도 용인시 기흥구 구갈동 581번지 아트프라자 111호","indutype":"일반휴게음식 - 일반한식","category":"restaurant"},{"name":"아마스빈 강남대점","tel":"031-282-2468","addr":"경기도 용인시 기흥구 구갈동 581번지 아트프라자 105호","indutype":"일반휴게음식 - 서양음식","category":"restaurant"},{"name":"에도(Edo)","tel":"031-274-6251","addr":"경기도 용인시 기흥구 구갈동 581번지 아트프라자상가 204호","indutype":"일반휴게음식 - 스넥","category":"restaurant"},{"name":"임스타치킨","tel":"031-287-7789","addr":"경기도 용인시 기흥구 구갈동 581번지 아트프라자 109호","indutype":"일반휴게음식 - 스넥","category":"restaurant"},{"name":"커피온리(강남대점)","tel":"070-7788-1002","addr":"경기도 용인시 기흥구 구갈동 581번지 아트프라자 107-2호","indutype":"일반휴게음식 - 서양음식","category":"restaurant"}]},{"lat":"37.281519706","long":"127.11174076","imageIndex":4,"items":[{"name":"두메골마늘보쌈","tel":"031-372-0776","addr":"경기도 용인시 기흥구 구갈동 349-15번지","indutype":"일반휴게음식 - 일반한식","category":"restaurant"}]},{"lat":"37.281519477","long":"127.11198883","imageIndex":4,"items":[{"name":"뒷도야","tel":"","addr":"경기도 용인시 기흥구 구갈동 349-13번지","indutype":"일반휴게음식 - 일반한식","category":"restaurant"}]},{"lat":"37.276928506","long":"127.11702228","imageIndex":4,"items":[{"name":"디에스푸드","tel":"031-286-2600","addr":"경기도 용인시 기흥구 구갈동 275-12번지","indutype":"일반휴게음식 - 일반한식","category":"restaurant"}]},{"lat":"37.279789706","long":"127.11177209","imageIndex":4,"items":[{"name":"디저트39 기흥구청점","tel":"031-285-5882","addr":"경기도 용인시 기흥구 구갈동 352-3번지 구갈지구골드프라자 102호","indutype":"일반휴게음식 - 일반한식","category":"restaurant"},{"name":"본스시 (기흥점)","tel":"031-274-2724","addr":"경기도 용인시 기흥구 구갈동 352-3번지 골드프라자 103호","indutype":"일반휴게음식 - 일식·회집","category":"restaurant"},{"name":"설빙기흥구청점","tel":"031-274-4399","addr":"경기도 용인시 기흥구 구갈동 352-3번지 202호,203호","indutype":"일반휴게음식 - 일반한식","category":"restaurant"},{"name":"육회촌","tel":"031-285-6742","addr":"경기도 용인시 기흥구 구갈동 352-3번지 구갈지구골드프라자 103호","indutype":"일반휴게음식 - 일반한식","category":"restaurant"}]},{"lat":"37.282069579","long":"127.11147092","imageIndex":4,"items":[{"name":"땅스부대찌개구갈점","tel":"","addr":"경기도 용인시 기흥구 구갈동 345-6번지 102호","indutype":"일반휴게음식 - 일반한식","category":"restaurant"},{"name":"에디슨치킨","tel":"031-281-7558","addr":"경기도 용인시 기흥구 구갈동 345-6번지","indutype":"일반휴게음식 - 서양음식","category":"restaurant"}]},{"lat":"37.27209654","long":"127.12835725","imageIndex":4,"items":[{"name":"또 부리또","tel":"","addr":"경기도 용인시 기흥구 구갈동 592번지 1층 101호","indutype":"일반휴게음식 - 서양음식","category":"restaurant"},{"name":"스탠딩 스테이크","tel":"031-274-6692","addr":"경기도 용인시 기흥구 구갈동 592번지 104호","indutype":"일반휴게음식 - 서양음식","category":"restaurant"},{"name":"이삭토스트","tel":"031-286-0211","addr":"경기도 용인시 기흥구 구갈동 592번지 103호","indutype":"일반휴게음식 - 스넥","category":"restaurant"},{"name":"컵앤굳밥(CGB)","tel":"","addr":"경기도 용인시 기흥구 구갈동 592번지 104호","indutype":"일반휴게음식 - 일반한식","category":"restaurant"},{"name":"틈새라면강남대점","tel":"031-275-5945","addr":"경기도 용인시 기흥구 구갈동 592번지 갈곡빌딩 102호","indutype":"일반휴게음식 - 칵테일바","category":"restaurant"}]},{"lat":"37.27665565","long":"127.11011011","imageIndex":4,"items":[{"name":"또래오래 구갈점","tel":"031-322-8292","addr":"경기도 용인시 기흥구 구갈동 402-3번지 태평선식 1층 103호","indutype":"일반휴게음식 - 스넥","category":"restaurant"}]},{"lat":"37.271654655","long":"127.12871731","imageIndex":4,"items":[{"name":"또봉이통닭","tel":"031-352-2455","addr":"경기도 용인시 기흥구 구갈동 591-1번지 103호 덕천","indutype":"일반휴게음식 - 일반한식","category":"restaurant"},{"name":"모두의만족","tel":"031-275-5755","addr":"경기도 용인시 기흥구 구갈동 591-1번지 덕천 102호","indutype":"일반휴게음식 - 일반한식","category":"restaurant"},{"name":"육지로간참치","tel":"031-283-3782","addr":"경기도 용인시 기흥구 구갈동 591-1번지 덕천 104호","indutype":"일반휴게음식 - 일식·회집","category":"restaurant"},{"name":"종로할머니칼국수","tel":"031-284-1101","addr":"경기도 용인시 기흥구 구갈동 591-1번지 덕천빌딩 101호","indutype":"일반휴게음식 - 일반한식","category":"restaurant"}]},{"lat":"37.281519342","long":"127.11213542","imageIndex":4,"items":[{"name":"뚱보집","tel":"031-283-7775","addr":"경기도 용인시 기흥구 구갈동 349-12번지 1층","indutype":"일반휴게음식 - 일반한식","category":"restaurant"}]},{"lat":"37.278682712","long":"127.1103836","imageIndex":4,"items":[{"name":"라라코스트 용인기흥점/주식회사 비오비","tel":"031-281-8382","addr":"경기도 용인시 기흥구 구갈동 391-3번지","indutype":"일반휴게음식 - 서양음식","category":"restaurant"},{"name":"스포라움","tel":"031-285-0808","addr":"경기도 용인시 기흥구 구갈동 391-3번지 C동 3호","indutype":"일반휴게음식 - 일반한식","category":"restaurant"}]},{"lat":"37.2820423","long":"127.11174151","imageIndex":4,"items":[{"name":"레몬돈까스","tel":"031-274-6447","addr":"경기도 용인시 기흥구 구갈동 348번지","indutype":"일반휴게음식 - 일반한식","category":"restaurant"}]},{"lat":"37.271799022","long":"127.12852588","imageIndex":4,"items":[{"name":"레볼루션","tel":"070-4123-9361","addr":"경기도 용인시 기흥구 구갈동 592-3번지 102호","indutype":"일반휴게음식 - 서양음식","category":"restaurant"},{"name":"안샹떼(enchantee)","tel":"031-283-3704","addr":"경기도 용인시 기흥구 구갈동 592-3번지 101호","indutype":"일반휴게음식 - 서양음식","category":"restaurant"}]},{"lat":"37.272321594","long":"127.1285493","imageIndex":4,"items":[{"name":"리강","tel":"031-287-8255","addr":"경기도 용인시 기흥구 구갈동 583-6번지","indutype":"일반휴게음식 - 중국식","category":"restaurant"},{"name":"카페투데이(2DAY)","tel":"031-281-8237","addr":"경기도 용인시 기흥구 구갈동 583-6번지 범일빌딩 103호","indutype":"일반휴게음식 - 서양음식","category":"restaurant"}]},{"lat":"37.275933914","long":"127.12929946","imageIndex":4,"items":[{"name":"리무에라 limuera","tel":"031-000-0000","addr":"경기도 용인시 기흥구 구갈동 567-5번지 행복장터 101호","indutype":"일반휴게음식 - 서양음식","category":"restaurant"}]},{"lat":"37.273960998","long":"127.11074896","imageIndex":4,"items":[{"name":"린에프씨 (린FC)","tel":"031-225-2300","addr":"경기도 용인시 기흥구 구갈동 414번지 4층 KT용인지사 신갈국사 사옥","indutype":"일반휴게음식 - 위탁급식업","category":"restaurant"}]},{"lat":"37.281654859","long":"127.11174095","imageIndex":4,"items":[{"name":"마당","tel":"031-275-9595","addr":"경기도 용인시 기흥구 구갈동 349번지","indutype":"일반휴게음식 - 일반한식","category":"restaurant"},{"name":"옥이네","tel":"031-286-7723","addr":"경기도 용인시 기흥구 구갈동 349번지 1층","indutype":"일반휴게음식 - 일반한식","category":"restaurant"}]},{"lat":"37.277349745","long":"127.10977283","imageIndex":4,"items":[{"name":"마음을 담은 김치찌게 기흥점","tel":"031-282-8441","addr":"경기도 용인시 기흥구 구갈동 400-3번지 쥬피터빌딩 1층 102호","indutype":"일반휴게음식 - 일반한식","category":"restaurant"}]},{"lat":"37.282484051","long":"127.11147152","imageIndex":4,"items":[{"name":"막창구이","tel":"031-286-8862","addr":"경기도 용인시 기흥구 구갈동 345-2번지","indutype":"일반휴게음식 - 일반한식","category":"restaurant"},{"name":"하루만족발","tel":"031-282-0092","addr":"경기도 용인시 기흥구 구갈동 345-2번지","indutype":"일반휴게음식 - 일반한식","category":"restaurant"},{"name":"후라이드참잘하는집","tel":"031-283-8808","addr":"경기도 용인시 기흥구 구갈동 345-2번지 1층","indutype":"일반휴게음식 - 일반한식","category":"restaurant"}]},{"lat":"37.275518989","long":"127.11160809","imageIndex":4,"items":[{"name":"맛나","tel":"","addr":"경기도 용인시 기흥구 구갈동 405-2번지 평화로운교회 1층 102호","indutype":"일반휴게음식 - 일반한식","category":"restaurant"}]},{"lat":"37.275708184","long":"127.11163091","imageIndex":4,"items":[{"name":"명륜진사갈비 기흥역점","tel":"031-308-9279","addr":"경기도 용인시 기흥구 구갈동 405번지 1층","indutype":"일반휴게음식 - 일반한식","category":"restaurant"}]},{"lat":"37.278046579","long":"127.11618958","imageIndex":4,"items":[{"name":"명일숯불쭈꾸미","tel":"031-281-0903","addr":"경기도 용인시 기흥구 구갈동 377-4번지 1층","indutype":"일반휴게음식 - 일반한식","category":"restaurant"}]},{"lat":"37.273934999","long":"127.10961016","imageIndex":4,"items":[{"name":"미로","tel":"031-8-1251","addr":"경기도 용인시 기흥구 구갈동 412번지","indutype":"일반휴게음식 - 칵테일바","category":"restaurant"}]},{"lat":"37.280213188","long":"127.1117727","imageIndex":4,"items":[{"name":"미스터오징어 기흥구청점","tel":"031-274-5433","addr":"경기도 용인시 기흥구 구갈동 352-1번지 다빈치프라자 1층","indutype":"일반휴게음식 - 일식·회집","category":"restaurant"},{"name":"투썸플레이스(기흥구청점)","tel":"031-693-6162","addr":"경기도 용인시 기흥구 구갈동 352-1번지 다빈치프라자 102,302호","indutype":"일반휴게음식 - 서양음식","category":"restaurant"}]},{"lat":"37.271798675","long":"127.12885284","imageIndex":4,"items":[{"name":"바라던치킨강남대점","tel":"031-281-2039","addr":"경기도 용인시 기흥구 구갈동 591번지 더힐 1층 101호","indutype":"일반휴게음식 - 스넥","category":"restaurant"},{"name":"시포 (C four)","tel":"031-287-5886","addr":"경기도 용인시 기흥구 구갈동 591번지 더힐 102호","indutype":"일반휴게음식 - 일반한식","category":"restaurant"}]},{"lat":"37.281628077","long":"127.11147029","imageIndex":4,"items":[{"name":"바우네나주곰탕구갈점","tel":"031-284-9977","addr":"경기도 용인시 기흥구 구갈동 345-10번지","indutype":"일반휴게음식 - 일반한식","category":"restaurant"}]},{"lat":"37.281519113","long":"127.11238349","imageIndex":4,"items":[{"name":"박경규항아리보쌈(구갈점)","tel":"031-282-2777","addr":"경기도 용인시 기흥구 구갈동 349-10번지 리치빌","indutype":"일반휴게음식 - 일반한식","category":"restaurant"}]},{"lat":"37.275989318","long":"127.10963561","imageIndex":4,"items":[{"name":"박대박고깃간","tel":"031-285-9284","addr":"경기도 용인시 기흥구 구갈동 402-14번지","indutype":"일반휴게음식 - 일반한식","category":"restaurant"}]},{"lat":"37.271519117","long":"127.12907787","imageIndex":4,"items":[{"name":"반올림피자샵 구갈점","tel":"031-274-3275","addr":"경기도 용인시 기흥구 구갈동 590-1번지 101호","indutype":"일반휴게음식 - 서양음식","category":"restaurant"}]},{"lat":"37.271492614","long":"127.12858174","imageIndex":4,"items":[{"name":"밥애찬","tel":"031-285-0462","addr":"경기도 용인시 기흥구 구갈동 591-2번지 성원빌딩 101호","indutype":"일반휴게음식 - 일반한식","category":"restaurant"},{"name":"소소식당","tel":"031-274-5552","addr":"경기도 용인시 기흥구 구갈동 591-2번지 102호","indutype":"일반휴게음식 - 일반한식","category":"restaurant"}]},{"lat":"37.279960412","long":"127.1123023","imageIndex":4,"items":[{"name":"배부장찌개 기흥구청점","tel":"031-281-0407","addr":"경기도 용인시 기흥구 구갈동 354번지 라파빌딩 1층 104호","indutype":"일반휴게음식 - 일반한식","category":"restaurant"},{"name":"빨간석쇠구이 기흥구청점","tel":"070-8820-3570","addr":"경기도 용인시 기흥구 구갈동 354번지 라파빌딩 상가동 105호","indutype":"일반휴게음식 - 일반한식","category":"restaurant"}]},{"lat":"37.279404063","long":"127.10979829","imageIndex":4,"items":[{"name":"배터지는생돈까스","tel":"031-285-3731","addr":"경기도 용인시 기흥구 구갈동 390번지 드림프라자 B101,102호","indutype":"일반휴게음식 - 스넥","category":"restaurant"},{"name":"본가김광선해물찜","tel":"031-282-3611","addr":"경기도 용인시 기흥구 구갈동 390번지 외1필지 드림프라자 110호","indutype":"일반휴게음식 - 일반한식","category":"restaurant"},{"name":"좀비떡볶이","tel":"031-286-9930","addr":"경기도 용인시 기흥구 구갈동 390번지 드림프라자 106호","indutype":"일반휴게음식 - 스넥","category":"restaurant"},{"name":"카페153(cafe153)","tel":"031-285-9153","addr":"경기도 용인시 기흥구 구갈동 390번지 드림프라자 103호","indutype":"일반휴게음식 - 서양음식","category":"restaurant"}]},{"lat":"37.281518852","long":"127.11266539","imageIndex":4,"items":[{"name":"베르디씨앤알(C&R)","tel":"031-282-3352","addr":"경기도 용인시 기흥구 구갈동 349-8번지 1층","indutype":"일반휴게음식 - 서양음식","category":"restaurant"}]},{"lat":"37.281518988","long":"127.1125188","imageIndex":4,"items":[{"name":"별밤노가리","tel":"","addr":"경기도 용인시 기흥구 구갈동 349-9번지 1층","indutype":"일반휴게음식 - 일반한식","category":"restaurant"}]},{"lat":"37.277042466","long":"127.11079846","imageIndex":4,"items":[{"name":"보드람치킨","tel":"031-282-9282","addr":"경기도 용인시 기흥구 구갈동 401-3번지 세명약국 다동 102호","indutype":"일반휴게음식 - 스넥","category":"restaurant"},{"name":"신전떡볶이 기흥점","tel":"031-281-0178","addr":"경기도 용인시 기흥구 구갈동 401-3번지 세명약국 다동 103호","indutype":"일반휴게음식 - 일반한식","category":"restaurant"}]},{"lat":"37.27182665","long":"127.1279622","imageIndex":4,"items":[{"name":"보영만두 강남대직영점","tel":"031-287-3345","addr":"경기도 용인시 기흥구 구갈동 593번지 102호","indutype":"일반휴게음식 - 일반한식","category":"restaurant"},{"name":"스테프(주)강남대점","tel":"031-275-2060","addr":"경기도 용인시 기흥구 구갈동 593번지 환희빌딩 101호","indutype":"일반휴게음식 - 칵테일바","category":"restaurant"},{"name":"토마토도시락강남대점","tel":"031-287-7077","addr":"경기도 용인시 기흥구 구갈동 593번지 101호","indutype":"일반휴게음식 - 일반한식","category":"restaurant"}]},{"lat":"37.271682224","long":"127.12821","imageIndex":4,"items":[{"name":"복돼지","tel":"031-275-3723","addr":"경기도 용인시 기흥구 구갈동 593-2번지 101호 102","indutype":"일반휴게음식 - 일반한식","category":"restaurant"},{"name":"복돼지","tel":"031-275-3723","addr":"경기도 용인시 기흥구 구갈동 593-2번지 101,102호","indutype":"일반휴게음식 - 일반한식","category":"restaurant"},{"name":"쿠킹롤리","tel":"031-264-4474","addr":"경기도 용인시 기흥구 구갈동 593-2번지","indutype":"일반휴게음식 - 일반한식","category":"restaurant"}]},{"lat":"37.279762934","long":"127.11149016","imageIndex":4,"items":[{"name":"본도시락(기흥구청점)","tel":"031-282-4288","addr":"경기도 용인시 기흥구 구갈동 352-4번지 오래메디칼센타 1층 103호","indutype":"일반휴게음식 - 일반한식","category":"restaurant"},{"name":"죽이야기 기흥구청점","tel":"070-4120-8399","addr":"경기도 용인시 기흥구 구갈동 352-4번지 오래메디칼센타 1층 106호","indutype":"일반휴게음식 - 일반한식","category":"restaurant"}]},{"lat":"37.275655183","long":"127.1104695","imageIndex":4,"items":[{"name":"봄동","tel":"070-8112-6016","addr":"경기도 용인시 기흥구 구갈동 409번지 영광아파트","indutype":"일반휴게음식 - 일반한식","category":"restaurant"}]},{"lat":"37.271600976","long":"127.12835643","imageIndex":4,"items":[{"name":"봉구s' 밥버거","tel":"031-282-5635","addr":"경기도 용인시 기흥구 구갈동 593-3번지 1층","indutype":"일반휴게음식 - 일반한식","category":"restaurant"},{"name":"전설의곱창","tel":"031-274-7890","addr":"경기도 용인시 기흥구 구갈동 593-3번지 104호","indutype":"일반휴게음식 - 일반한식","category":"restaurant"},{"name":"치킨마루","tel":"031-282-9292","addr":"경기도 용인시 기흥구 구갈동 593-3번지 1층","indutype":"일반휴게음식 - 주점","category":"restaurant"}]},{"lat":"37.280849542","long":"127.11538192","imageIndex":4,"items":[{"name":"봉만이","tel":"031-286-1450","addr":"경기도 용인시 기흥구 구갈동 365-10번지","indutype":"일반휴게음식 - 일반한식","category":"restaurant"},{"name":"옥자네버섯마을","tel":"031-282-5868","addr":"경기도 용인시 기흥구 구갈동 365-10번지 1층","indutype":"일반휴게음식 - 일반한식","category":"restaurant"}]},{"lat":"37.276962325","long":"127.10974973","imageIndex":4,"items":[{"name":"봉이치킨 구갈점","tel":"031-282-9193","addr":"경기도 용인시 기흥구 구갈동 400-4번지 국일빌딩 1층 103호","indutype":"일반휴게음식 - 일반한식","category":"restaurant"},{"name":"인몬스터(in몬스터)","tel":"","addr":"경기도 용인시 기흥구 구갈동 400-4번지 국일빌딩 2층","indutype":"일반휴게음식 - 서양음식","category":"restaurant"},{"name":"해조 쭈꾸미볶음","tel":"031-000-0000","addr":"경기도 용인시 기흥구 구갈동 400-4번지 국일빌딩 106호","indutype":"일반휴게음식 - 일반한식","category":"restaurant"}]},{"lat":"37.271764658","long":"127.12693611","imageIndex":4,"items":[{"name":"봉추찜닭(강남대점)","tel":"031-287-1100","addr":"경기도 용인시 기흥구 구갈동 579-1번지 칼리지포인트 112호","indutype":"일반휴게음식 - 일반한식","category":"restaurant"},{"name":"빠아앙 강남대점","tel":"031-281-3797","addr":"경기도 용인시 기흥구 구갈동 579-1번지 칼리지포인트 104호","indutype":"일반휴게음식 - 일반한식","category":"restaurant"},{"name":"엉클존슨부대찌개","tel":"031-286-8254","addr":"경기도 용인시 기흥구 구갈동 579-1번지 칼리지포인트 202호","indutype":"일반휴게음식 - 일반한식","category":"restaurant"},{"name":"카페 쁘레뚜(cafe preto)","tel":"031-287-1757","addr":"경기도 용인시 기흥구 구갈동 579-1번지","indutype":"일반휴게음식 - 서양음식","category":"restaurant"}]},{"lat":"37.27998819","long":"127.11149048","imageIndex":4,"items":[{"name":"불닭발동대문엽기떡볶이기흥구청점","tel":"031-285-8592","addr":"경기도 용인시 기흥구 구갈동 352-5번지 소공빌딩 104호","indutype":"일반휴게음식 - 일반한식","category":"restaurant"}]},{"lat":"37.275185101","long":"127.11216009","imageIndex":4,"items":[{"name":"불타는막창","tel":"031-275-1873","addr":"경기도 용인시 기흥구 구갈동 405-8번지 104호","indutype":"일반휴게음식 - 일반한식","category":"restaurant"},{"name":"팥이야기","tel":"031-281-2550","addr":"경기도 용인시 기흥구 구갈동 405-8번지","indutype":"일반휴게음식 - 일반한식","category":"restaurant"}]},{"lat":"37.280518431","long":"127.11296839","imageIndex":4,"items":[{"name":"블루","tel":"031-286-7663","addr":"경기도 용인시 기흥구 구갈동 353-2번지 대한빌딩 8층","indutype":"일반휴게음식 - 일반한식","category":"restaurant"},{"name":"엘에이북창동순두부기흥구청점","tel":"031-287-4344","addr":"경기도 용인시 기흥구 구갈동 353-2번지 대한빌딩 104호~105호","indutype":"일반휴게음식 - 일반한식","category":"restaurant"},{"name":"컴포즈커피(기흥구청점)","tel":"070-7371-2727","addr":"경기도 용인시 기흥구 구갈동 353-2번지 대한빌딩 101호","indutype":"일반휴게음식 - 서양음식","category":"restaurant"}]},{"lat":"37.277686147","long":"127.11621159","imageIndex":4,"items":[{"name":"비비큐 구갈점","tel":"031-275-6690","addr":"경기도 용인시 기흥구 구갈동 375번지 길부동산 103호","indutype":"일반휴게음식 - 스넥","category":"restaurant"},{"name":"유진참치","tel":"031-285-8732","addr":"경기도 용인시 기흥구 구갈동 375번지","indutype":"일반휴게음식 - 일식·회집","category":"restaurant"}]},{"lat":"37.27862302","long":"127.11641596","imageIndex":4,"items":[{"name":"빨간머리앤의 다락방","tel":"070-8822-1317","addr":"경기도 용인시 기흥구 구갈동 377-11번지 1층 일부호","indutype":"일반휴게음식 - 서양음식","category":"restaurant"}]},{"lat":"37.275068176","long":"127.11193442","imageIndex":4,"items":[{"name":"빨간짜장","tel":"","addr":"경기도 용인시 기흥구 구갈동 405-7번지 1층 일부호","indutype":"일반휴게음식 - 중국식","category":"restaurant"}]},{"lat":"37.275988614","long":"127.11041359","imageIndex":4,"items":[{"name":"사탄곱창","tel":"031-285-1554","addr":"경기도 용인시 기흥구 구갈동 403-5번지 1호","indutype":"일반휴게음식 - 일반한식","category":"restaurant"}]},{"lat":"37.277268398","long":"127.1100546","imageIndex":4,"items":[{"name":"산애들바베큐","tel":"031-286-1915","addr":"경기도 용인시 기흥구 구갈동 400-2번지 가동 105호","indutype":"일반휴게음식 - 일반한식","category":"restaurant"}]},{"lat":"37.274905397","long":"127.11257686","imageIndex":4,"items":[{"name":"삼보추어탕구갈점","tel":"031-283-6853","addr":"경기도 용인시 기흥구 구갈동 541-3번지","indutype":"일반휴게음식 - 일반한식","category":"restaurant"},{"name":"참치야","tel":"031-1111-1111","addr":"경기도 용인시 기흥구 구갈동 541-3번지 1층","indutype":"일반휴게음식 - 일식·회집","category":"restaurant"}]},{"lat":"37.281102672","long":"127.11449149","imageIndex":4,"items":[{"name":"선재네","tel":"031-281-1239","addr":"경기도 용인시 기흥구 구갈동 359-6번지","indutype":"일반휴게음식 - 일반한식","category":"restaurant"}]},{"lat":"37.274213869","long":"127.11010665","imageIndex":4,"items":[{"name":"설악칡냉면","tel":"031-285-8576","addr":"경기도 용인시 기흥구 구갈동 411-12번지 1층","indutype":"일반휴게음식 - 일반한식","category":"restaurant"}]},{"lat":"37.280850353","long":"127.11452495","imageIndex":4,"items":[{"name":"성산식당","tel":"031-286-5488","addr":"경기도 용인시 기흥구 구갈동 357-4번지 102호","indutype":"일반휴게음식 - 일반한식","category":"restaurant"}]},{"lat":"37.274015766","long":"127.10997107","imageIndex":4,"items":[{"name":"소문난청담뼈해장국","tel":"031-223-5214","addr":"경기도 용인시 기흥구 구갈동 412-2번지 신영빌딩 1층","indutype":"일반휴게음식 - 일반한식","category":"restaurant"}]},{"lat":"37.28084981","long":"127.11510002","imageIndex":4,"items":[{"name":"소왔소","tel":"031-284-8592","addr":"경기도 용인시 기흥구 구갈동 357-7번지","indutype":"일반휴게음식 - 일반한식","category":"restaurant"}]},{"lat":"37.282129681","long":"127.11466215","imageIndex":4,"items":[{"name":"소울플랜트","tel":"031-283-6767","addr":"경기도 용인시 기흥구 구갈동 360-3번지 구갈중앙프라자 1층 104호","indutype":"일반휴게음식 - 서양음식","category":"restaurant"}]},{"lat":"37.282067394","long":"127.11382763","imageIndex":4,"items":[{"name":"솔밭집","tel":"031-274-3353","addr":"경기도 용인시 기흥구 구갈동 361-2번지 대성 1층","indutype":"일반휴게음식 - 일반한식","category":"restaurant"}]},{"lat":"37.27060218","long":"127.12708077","imageIndex":4,"items":[{"name":"수","tel":"031-332-5011","addr":"경기도 용인시 기흥구 구갈동 595-1번지 삼성타운 203호","indutype":"일반휴게음식 - 일반한식","category":"restaurant"},{"name":"쭈꾸미나루","tel":"031-285-3149","addr":"경기도 용인시 기흥구 구갈동 595-1번지 삼성타운 106,107,108호","indutype":"일반휴게음식 - 일반한식","category":"restaurant"},{"name":"캔모아강남대점","tel":"031-285-3727","addr":"경기도 용인시 기흥구 구갈동 595-1번지 구갈3지구 203호","indutype":"일반휴게음식 - 칵테일바","category":"restaurant"},{"name":"커피에반하다","tel":"031-8005-6696","addr":"경기도 용인시 기흥구 구갈동 595-1번지 삼성타운 101호","indutype":"일반휴게음식 - 서양음식","category":"restaurant"},{"name":"학사주점","tel":"031-274-9916","addr":"경기도 용인시 기흥구 구갈동 595-1번지 삼성타운 3층 302호, 303호","indutype":"일반휴게음식 - 일반한식","category":"restaurant"}]},{"lat":"37.276985357","long":"127.12330274","imageIndex":4,"items":[{"name":"수원CC정훈식당","tel":"031-289-5461","addr":"경기도 용인시 기흥구 구갈동 258-1번지 지하1층 지면과맞닿은","indutype":"일반휴게음식 - 일반한식","category":"restaurant"}]},{"lat":"37.274151245","long":"127.10961046","imageIndex":4,"items":[{"name":"수원신닭발","tel":"031-281-5999","addr":"경기도 용인시 기흥구 구갈동 411-16번지 1층","indutype":"일반휴게음식 - 일반한식","category":"restaurant"},{"name":"풍림양꼬치","tel":"031-111-1111","addr":"경기도 용인시 기흥구 구갈동 411-16번지 1층","indutype":"일반휴게음식 - 중국식","category":"restaurant"}]},{"lat":"37.272015305","long":"127.12849241","imageIndex":4,"items":[{"name":"수제돈까스랑떡갈비랑","tel":"031-281-6129","addr":"경기도 용인시 기흥구 구갈동 592-1번지 플러스타운 101호","indutype":"일반휴게음식 - 일반한식","category":"restaurant"},{"name":"엽기팔닭","tel":"031-693-5255","addr":"경기도 용인시 기흥구 구갈동 592-1번지 102호","indutype":"일반휴게음식 - 스넥","category":"restaurant"},{"name":"진스시","tel":"031-275-8208","addr":"경기도 용인시 기흥구 구갈동 592-1번지 플러스타운 102호","indutype":"일반휴게음식 - 일식·회집","category":"restaurant"}]},{"lat":"37.274402151","long":"127.11113294","imageIndex":4,"items":[{"name":"수지동태탕전문점","tel":"031-284-4916","addr":"경기도 용인시 기흥구 구갈동 414-3번지 청수빌딩 1층","indutype":"일반휴게음식 - 일반한식","category":"restaurant"}]},{"lat":"37.277570929","long":"127.11419312","imageIndex":4,"items":[{"name":"숯불닭바베큐","tel":"031-285-3242","addr":"경기도 용인시 기흥구 구갈동 383-4번지","indutype":"일반휴게음식 - 주점","category":"restaurant"}]},{"lat":"37.276541141","long":"127.11694277","imageIndex":4,"items":[{"name":"스시다미","tel":"","addr":"경기도 용인시 기흥구 구갈동 275-7번지 1층","indutype":"일반휴게음식 - 일반한식","category":"restaurant"}]},{"lat":"37.279709656","long":"127.11063313","imageIndex":4,"items":[{"name":"시골순대","tel":"031-282-7788","addr":"경기도 용인시 기흥구 구갈동 388번지","indutype":"일반휴게음식 - 일반한식","category":"restaurant"}]},{"lat":"37.277289696","long":"127.116211","imageIndex":4,"items":[{"name":"시민수산","tel":"031-283-6205","addr":"경기도 용인시 기흥구 구갈동 374번지","indutype":"일반휴게음식 - 일식·회집","category":"restaurant"}]},{"lat":"37.270490643","long":"127.13029378","imageIndex":4,"items":[{"name":"시부야","tel":"031-275-1337","addr":"경기도 용인시 기흥구 구갈동 587-4번지 101호","indutype":"일반휴게음식 - 일반한식","category":"restaurant"}]},{"lat":"37.274734463","long":"127.11229474","imageIndex":4,"items":[{"name":"신갈복집","tel":"031-282-3144","addr":"경기도 용인시 기흥구 구갈동 541-5번지","indutype":"일반휴게음식 - 일반한식","category":"restaurant"}]},{"lat":"37.281652817","long":"127.11393978","imageIndex":4,"items":[{"name":"신마포갈매기","tel":"031-287-7095","addr":"경기도 용인시 기흥구 구갈동 358번지 101,102,103호","indutype":"일반휴게음식 - 일반한식","category":"restaurant"}]},{"lat":"37.274798396","long":"127.111359","imageIndex":4,"items":[{"name":"신상하이짬뽕","tel":"031-281-2577","addr":"경기도 용인시 기흥구 구갈동 407-2번지 1층 상가","indutype":"일반휴게음식 - 중국식","category":"restaurant"}]},{"lat":"37.271463715","long":"127.13032925","imageIndex":4,"items":[{"name":"신전떡볶이 강남대점","tel":"031-286-0177","addr":"경기도 용인시 기흥구 구갈동 585번지 가동 102호","indutype":"일반휴게음식 - 스넥","category":"restaurant"},{"name":"신전떡볶이강남대점","tel":"031-286-0177","addr":"경기도 용인시 기흥구 구갈동 585번지 가동 102호","indutype":"일반휴게음식 - 스넥","category":"restaurant"}]},{"lat":"37.271961542","long":"127.12821046","imageIndex":4,"items":[{"name":"신혼부부즉석떡볶이","tel":"031-282-8292","addr":"경기도 용인시 기흥구 구갈동 592-5번지 101호","indutype":"일반휴게음식 - 일반한식","category":"restaurant"},{"name":"한솥도시락(강남대앞점)","tel":"031-286-4114","addr":"경기도 용인시 기흥구 구갈동 592-5번지 1층","indutype":"일반휴게음식 - 일반한식","category":"restaurant"}]},{"lat":"37.274682851","long":"127.10961121","imageIndex":4,"items":[{"name":"실내마차","tel":"031-281-7573","addr":"경기도 용인시 기흥구 구갈동 411번지","indutype":"일반휴게음식 - 주점","category":"restaurant"}]},{"lat":"37.274187164","long":"127.10974581","imageIndex":4,"items":[{"name":"실비식당","tel":"031-282-9015","addr":"경기도 용인시 기흥구 구갈동 411-15번지","indutype":"일반휴게음식 - 일반한식","category":"restaurant"},{"name":"엄지다방","tel":"031-283-0723","addr":"경기도 용인시 기흥구 구갈동 411-15번지","indutype":"일반휴게음식 - 서양음식","category":"restaurant"}]},{"lat":"37.278907435","long":"127.11097025","imageIndex":4,"items":[{"name":"싱싱수산","tel":"031-281-9886","addr":"경기도 용인시 기흥구 구갈동 391-6번지 수성프라자 106호","indutype":"일반휴게음식 - 일반한식","category":"restaurant"},{"name":"화성숯불갈비","tel":"031-282-1300","addr":"경기도 용인시 기흥구 구갈동 391-6번지 105,106호","indutype":"일반휴게음식 - 일반한식","category":"restaurant"}]},{"lat":"37.281544694","long":"127.11393962","imageIndex":4,"items":[{"name":"쌈손두부전문","tel":"031-281-1213","addr":"경기도 용인시 기흥구 구갈동 358-1번지 1층","indutype":"일반휴게음식 - 일반한식","category":"restaurant"},{"name":"이가네짬뽕","tel":"031-282-8082","addr":"경기도 용인시 기흥구 구갈동 358-1번지 1층","indutype":"일반휴게음식 - 중국식","category":"restaurant"}]},{"lat":"37.281519217","long":"127.11227073","imageIndex":4,"items":[{"name":"씽차이","tel":"031-284-1161","addr":"경기도 용인시 기흥구 구갈동 349-11번지 스위트하우스","indutype":"일반휴게음식 - 중국식","category":"restaurant"}]},{"lat":"37.270679676","long":"127.13046322","imageIndex":4,"items":[{"name":"아구아구아구찜","tel":"031-286-9191","addr":"경기도 용인시 기흥구 구갈동 586-5번지 1층","indutype":"일반휴게음식 - 일반한식","category":"restaurant"}]},{"lat":"37.276514273","long":"127.1167736","imageIndex":4,"items":[{"name":"아빠카페","tel":"031-283-1831","addr":"경기도 용인시 기흥구 구갈동 275-8번지","indutype":"일반휴게음식 - 서양음식","category":"restaurant"}]},{"lat":"37.27432242","long":"127.10963325","imageIndex":4,"items":[{"name":"아우라지","tel":"031-274-1911","addr":"경기도 용인시 기흥구 구갈동 411-8번지 1층 일부","indutype":"일반휴게음식 - 일반한식","category":"restaurant"},{"name":"은하수다방","tel":"031-286-8253","addr":"경기도 용인시 기흥구 구갈동 411-8번지 1층 일부","indutype":"일반휴게음식 - 서양음식","category":"restaurant"}]},{"lat":"37.277464533","long":"127.13035064","imageIndex":4,"items":[{"name":"아이사랑식당","tel":"031-111-1111","addr":"경기도 용인시 기흥구 구갈동 550-3번지","indutype":"일반휴게음식 - 일반한식","category":"restaurant"}]},{"lat":"37.277598298","long":"127.11383234","imageIndex":4,"items":[{"name":"아임 메이크(I'm make)","tel":"","addr":"경기도 용인시 기흥구 구갈동 383-2번지 신갈프라자 1층 102호","indutype":"일반휴게음식 - 서양음식","category":"restaurant"},{"name":"옛날시골통닭","tel":"031-806-8081","addr":"경기도 용인시 기흥구 구갈동 383-2번지 신갈프라자 101호","indutype":"일반휴게음식 - 스넥","category":"restaurant"}]},{"lat":"37.282681331","long":"127.11249794","imageIndex":4,"items":[{"name":"안녕","tel":"","addr":"경기도 용인시 기흥구 구갈동 346-5번지 다미문구 102호","indutype":"일반휴게음식 - 서양음식","category":"restaurant"},{"name":"최가네뒷고기","tel":"031-286-9844","addr":"경기도 용인시 기흥구 구갈동 346-5번지 다미문구 103호","indutype":"일반휴게음식 - 일반한식","category":"restaurant"}]},{"lat":"37.270743378","long":"127.12987705","imageIndex":4,"items":[{"name":"안단테","tel":"031-275-2357","addr":"경기도 용인시 기흥구 구갈동 587-1번지","indutype":"일반휴게음식 - 주점","category":"restaurant"}]},{"lat":"37.282708497","long":"127.11235138","imageIndex":4,"items":[{"name":"어부의만찬","tel":"031-282-1990","addr":"경기도 용인시 기흥구 구갈동 346-4번지 101, 102호","indutype":"일반휴게음식 - 일반한식","category":"restaurant"}]},{"lat":"37.274520666","long":"127.10961098","imageIndex":4,"items":[{"name":"어쩌나호프","tel":"031-284-9112","addr":"경기도 용인시 기흥구 구갈동 411-7번지 1층","indutype":"일반휴게음식 - 주점","category":"restaurant"}]},{"lat":"37.277181357","long":"127.11643634","imageIndex":4,"items":[{"name":"에이치에스(HS)푸드","tel":"031-283-7111","addr":"경기도 용인시 기흥구 구갈동 374-22번지 1층 102호","indutype":"일반휴게음식 - 일반한식","category":"restaurant"}]},{"lat":"37.270520507","long":"127.12763308","imageIndex":4,"items":[{"name":"연정","tel":"","addr":"경기도 용인시 기흥구 구갈동 596-1번지 강남대팰리스뷰 1층 102,103호","indutype":"일반휴게음식 - 일반한식","category":"restaurant"},{"name":"짝태&노가리","tel":"","addr":"경기도 용인시 기흥구 구갈동 596-1번지 강남팰리스뷰 108,109호","indutype":"일반휴게음식 - 일반한식","category":"restaurant"},{"name":"카페세티모 용인구갈점","tel":"031-282-3330","addr":"경기도 용인시 기흥구 구갈동 596-1번지 106,107호","indutype":"일반휴게음식 - 서양음식","category":"restaurant"},{"name":"프로스 (FROTH)","tel":"070-7625-7275","addr":"경기도 용인시 기흥구 구갈동 596-1번지 104호,105호","indutype":"일반휴게음식 - 주점","category":"restaurant"}]},{"lat":"37.282708643","long":"127.11219352","imageIndex":4,"items":[{"name":"예감쪽갈비","tel":"031-285-8085","addr":"경기도 용인시 기흥구 구갈동 346-3번지 파인빌 103동 104호","indutype":"일반휴게음식 - 일반한식","category":"restaurant"}]},{"lat":"37.280850491","long":"127.11437836","imageIndex":4,"items":[{"name":"옛날칼국수","tel":"031-286-1238","addr":"경기도 용인시 기흥구 구갈동 357-3번지","indutype":"일반휴게음식 - 일반한식","category":"restaurant"}]},{"lat":"37.281959218","long":"127.11388385","imageIndex":4,"items":[{"name":"오리촌","tel":"031-281-5288","addr":"경기도 용인시 기흥구 구갈동 361-3번지","indutype":"일반휴게음식 - 일반한식","category":"restaurant"}]},{"lat":"37.271934069","long":"127.12862757","imageIndex":4,"items":[{"name":"오버더문","tel":"031-693-6484","addr":"경기도 용인시 기흥구 구갈동 592-2번지","indutype":"일반휴게음식 - 일반한식","category":"restaurant"}]},{"lat":"37.273546731","long":"127.11052287","imageIndex":4,"items":[{"name":"오봉돼지불백","tel":"070-8960-5705","addr":"경기도 용인시 기흥구 구갈동 412-8번지 103호","indutype":"일반휴게음식 - 일반한식","category":"restaurant"}]},{"lat":"37.279987932","long":"127.11177238","imageIndex":4,"items":[{"name":"오징어나라","tel":"031-283-0908","addr":"경기도 용인시 기흥구 구갈동 352-2번지 105호","indutype":"일반휴게음식 - 일반한식","category":"restaurant"}]},{"lat":"37.270824616","long":"127.1297419","imageIndex":4,"items":[{"name":"요거프래이","tel":"","addr":"경기도 용인시 기흥구 구갈동 587번지 102호","indutype":"일반휴게음식 - 서양음식","category":"restaurant"},{"name":"한끼두끼","tel":"031-983-5413","addr":"경기도 용인시 기흥구 구갈동 587번지 105호","indutype":"일반휴게음식 - 일반한식","category":"restaurant"}]},{"lat":"37.276655025","long":"127.1107979","imageIndex":4,"items":[{"name":"우리숯불닭바베큐","tel":"031-000-0000","addr":"경기도 용인시 기흥구 구갈동 403-1번지","indutype":"일반휴게음식 - 일반한식","category":"restaurant"},{"name":"정가네숯불소갈비살","tel":"","addr":"경기도 용인시 기흥구 구갈동 403-1번지 1층","indutype":"일반휴게음식 - 일반한식","category":"restaurant"},{"name":"철뚝집","tel":"031-283-0160","addr":"경기도 용인시 기흥구 구갈동 403-1번지","indutype":"일반휴게음식 - 일반한식","category":"restaurant"}]},{"lat":"37.274321818","long":"127.11029847","imageIndex":4,"items":[{"name":"우정곱창","tel":"031-281-6264","addr":"경기도 용인시 기흥구 구갈동 408-10번지","indutype":"일반휴게음식 - 일반한식","category":"restaurant"}]},{"lat":"37.281436571","long":"127.11393946","imageIndex":4,"items":[{"name":"원조마포생갈비","tel":"031-274-9599","addr":"경기도 용인시 기흥구 구갈동 358-2번지 1층","indutype":"일반휴게음식 - 일반한식","category":"restaurant"}]},{"lat":"37.271763423","long":"127.12810866","imageIndex":4,"items":[{"name":"월남국수 강남대점","tel":"031-282-1233","addr":"경기도 용인시 기흥구 구갈동 593-1번지","indutype":"일반휴게음식 - 서양음식","category":"restaurant"}]},{"lat":"37.279959564","long":"127.11321564","imageIndex":4,"items":[{"name":"육월","tel":"031-283-6659","addr":"경기도 용인시 기흥구 구갈동 354-3번지","indutype":"일반휴게음식 - 일반한식","category":"restaurant"},{"name":"헬로만화&슬라임카페","tel":"","addr":"경기도 용인시 기흥구 구갈동 354-3번지 대원빌딩 10층","indutype":"일반휴게음식 - 일반한식","category":"restaurant"}]},{"lat":"37.274211043","long":"127.12246397","imageIndex":4,"items":[{"name":"일품향","tel":"031-284-1717","addr":"경기도 용인시 기흥구 구갈동 203-13번지","indutype":"일반휴게음식 - 중국식","category":"restaurant"}]},{"lat":"37.277513912","long":"127.11729377","imageIndex":4,"items":[{"name":"잔비어스","tel":"031-890-0433","addr":"경기도 용인시 기흥구 구갈동 274-9번지 1층","indutype":"일반휴게음식 - 주점","category":"restaurant"}]},{"lat":"37.27632192","long":"127.12877017","imageIndex":4,"items":[{"name":"장수식당","tel":"031-693-8009","addr":"경기도 용인시 기흥구 구갈동 565-4번지 1층 104호","indutype":"일반휴게음식 - 일반한식","category":"restaurant"}]},{"lat":"37.28218458","long":"127.11377142","imageIndex":4,"items":[{"name":"장어가땡겨 고기가땡겨","tel":"031-285-7758","addr":"경기도 용인시 기흥구 구갈동 361-1번지 지하1층","indutype":"일반휴게음식 - 일반한식","category":"restaurant"}]},{"lat":"37.276096339","long":"127.12907423","imageIndex":4,"items":[{"name":"쟁이","tel":"031-8005-9292","addr":"경기도 용인시 기흥구 구갈동 566-3번지 승연빌딩 102호","indutype":"일반휴게음식 - 일반한식","category":"restaurant"}]},{"lat":"37.272240358","long":"127.12868446","imageIndex":4,"items":[{"name":"전주완산골해장국","tel":"031-283-3441","addr":"경기도 용인시 기흥구 구갈동 583-5번지 1층 101호","indutype":"일반휴게음식 - 일반한식","category":"restaurant"},{"name":"콩쭈","tel":"031-282-6287","addr":"경기도 용인시 기흥구 구갈동 583-5번지 102호","indutype":"일반휴게음식 - 일반한식","category":"restaurant"}]},{"lat":"37.282572957","long":"127.11276841","imageIndex":4,"items":[{"name":"전통춘천닭갈비","tel":"031-286-8338","addr":"경기도 용인시 기흥구 구갈동 346-7번지","indutype":"일반휴게음식 - 일반한식","category":"restaurant"}]},{"lat":"37.277541983","long":"127.11621138","imageIndex":4,"items":[{"name":"정원","tel":"031-274-6611","addr":"경기도 용인시 기흥구 구갈동 375-1번지","indutype":"일반휴게음식 - 일반한식","category":"restaurant"}]},{"lat":"37.282401888","long":"127.11263284","imageIndex":4,"items":[{"name":"제주도락","tel":"031-000-0000","addr":"경기도 용인시 기흥구 구갈동 347-5번지 1층","indutype":"일반휴게음식 - 일반한식","category":"restaurant"}]},{"lat":"37.278181733","long":"127.11618978","imageIndex":4,"items":[{"name":"제주방목흑돼지","tel":"031-281-5556","addr":"경기도 용인시 기흥구 구갈동 377-3번지","indutype":"일반휴게음식 - 일반한식","category":"restaurant"}]},{"lat":"37.281237507","long":"127.11482997","imageIndex":4,"items":[{"name":"조춘식동태탕찜","tel":"031-284-3993","addr":"경기도 용인시 기흥구 구갈동 366-10번지 우주빌","indutype":"일반휴게음식 - 일반한식","category":"restaurant"}]},{"lat":"37.27815871","long":"127.12999099","imageIndex":4,"items":[{"name":"지니엄 ( Xenium )","tel":"031-1111-1111","addr":"경기도 용인시 기흥구 구갈동 547-8번지 파크빌 103호","indutype":"일반휴게음식 - 서양음식","category":"restaurant"}]},{"lat":"37.274429665","long":"127.11060305","imageIndex":4,"items":[{"name":"집밥","tel":"031-287-7665","addr":"경기도 용인시 기흥구 구갈동 408-7번지 1층","indutype":"일반휴게음식 - 일반한식","category":"restaurant"}]},{"lat":"37.281654006","long":"127.11266559","imageIndex":4,"items":[{"name":"찌마기 (기흥구청점)","tel":"031-281-9185","addr":"경기도 용인시 기흥구 구갈동 349-7번지 하이츠빌","indutype":"일반휴게음식 - 일반한식","category":"restaurant"}]},{"lat":"37.27698908","long":"127.11005421","imageIndex":4,"items":[{"name":"차상커피","tel":"","addr":"경기도 용인시 기흥구 구갈동 400-7번지 그랑쥬테 1층 106호","indutype":"일반휴게음식 - 서양음식","category":"restaurant"}]},{"lat":"37.277185506","long":"127.13007956","imageIndex":4,"items":[{"name":"찬란한","tel":"","addr":"경기도 용인시 기흥구 구갈동 553번지 유림빌 102호","indutype":"일반휴게음식 - 일반한식","category":"restaurant"}]},{"lat":"37.280015953","long":"127.11068994","imageIndex":4,"items":[{"name":"참새방앗간","tel":"031-282-1578","addr":"경기도 용인시 기흥구 구갈동 388-1번지","indutype":"일반휴게음식 - 스넥","category":"restaurant"}]},{"lat":"37.272159109","long":"127.12883089","imageIndex":4,"items":[{"name":"청궁","tel":"031-693-8555","addr":"경기도 용인시 기흥구 구갈동 583-4번지","indutype":"일반휴게음식 - 중국식","category":"restaurant"}]},{"lat":"37.277045563","long":"127.11710138","imageIndex":4,"items":[{"name":"청미세꼬시","tel":"031-285-8505","addr":"경기도 용인시 기흥구 구갈동 275-13번지","indutype":"일반휴게음식 - 일반한식","category":"restaurant"}]},{"lat":"37.282627144","long":"127.11263317","imageIndex":4,"items":[{"name":"초가집손칼국수","tel":"031-281-9985","addr":"경기도 용인시 기흥구 구갈동 346-6번지 101호","indutype":"일반휴게음식 - 일반한식","category":"restaurant"},{"name":"형제식당","tel":"031-281-6438","addr":"경기도 용인시 기흥구 구갈동 346-6번지 102호","indutype":"일반휴게음식 - 일반한식","category":"restaurant"}]},{"lat":"37.281211315","long":"127.11393913","imageIndex":4,"items":[{"name":"최고집생고기","tel":"031-286-8820","addr":"경기도 용인시 기흥구 구갈동 358-4번지 1층","indutype":"일반휴게음식 - 일반한식","category":"restaurant"}]},{"lat":"37.273484465","long":"127.10963207","imageIndex":4,"items":[{"name":"추가네추어탕","tel":"031-282-2877","addr":"경기도 용인시 기흥구 구갈동 412-20번지 1층","indutype":"일반휴게음식 - 일반한식","category":"restaurant"}]},{"lat":"37.276735947","long":"127.12918805","imageIndex":4,"items":[{"name":"카페(Cafe).숍","tel":"","addr":"경기도 용인시 기흥구 구갈동 564-3번지 1층 101호","indutype":"일반휴게음식 - 서양음식","category":"restaurant"}]},{"lat":"37.282736317","long":"127.11149443","imageIndex":4,"items":[{"name":"카페라콘테","tel":"031-284-8855","addr":"경기도 용인시 기흥구 구갈동 345번지 지하1층","indutype":"일반휴게음식 - 일반한식","category":"restaurant"}]},{"lat":"37.2817362","long":"127.11147044","imageIndex":4,"items":[{"name":"카페미니벨","tel":"","addr":"경기도 용인시 기흥구 구갈동 345-9번지 1층 103호","indutype":"일반휴게음식 - 서양음식","category":"restaurant"}]},{"lat":"37.280129405","long":"127.11465919","imageIndex":4,"items":[{"name":"카페휴(기흥구청점)","tel":"031-324-9305","addr":"경기도 용인시 기흥구 구갈동 355번지 기흥구청","indutype":"일반휴게음식 - 서양음식","category":"restaurant"}]},{"lat":"37.276628996","long":"127.10969289","imageIndex":4,"items":[{"name":"커피맘","tel":"031-283-6422","addr":"경기도 용인시 기흥구 구갈동 402번지 심구프라자 101호 102호","indutype":"일반휴게음식 - 서양음식","category":"restaurant"}]},{"lat":"37.27213179","long":"127.12910144","imageIndex":4,"items":[{"name":"코이누르","tel":"031-8005-5959","addr":"경기도 용인시 기흥구 구갈동 583-3번지 발해프라자 112호","indutype":"일반휴게음식 - 서양음식","category":"restaurant"}]},{"lat":"37.282186713","long":"127.11147109","imageIndex":4,"items":[{"name":"콩두 기흥구청점","tel":"031-281-5461","addr":"경기도 용인시 기흥구 구갈동 345-5번지 1층","indutype":"일반휴게음식 - 일반한식","category":"restaurant"}]},{"lat":"37.276820459","long":"127.11694319","imageIndex":4,"items":[{"name":"태풍수산","tel":"031-285-5902","addr":"경기도 용인시 기흥구 구갈동 275-11번지 그린빌","indutype":"일반휴게음식 - 일식·회집","category":"restaurant"}]},{"lat":"37.27690129","long":"127.11721392","imageIndex":4,"items":[{"name":"테이블인더룸","tel":"02-1111-1111","addr":"경기도 용인시 기흥구 구갈동 275-3번지 1층","indutype":"일반휴게음식 - 서양음식","category":"restaurant"}]},{"lat":"37.27093298","long":"127.12951659","imageIndex":4,"items":[{"name":"토스트 베이비","tel":"031-595-5260","addr":"경기도 용인시 기흥구 구갈동 589-3번지 1층 103호","indutype":"일반휴게음식 - 일반한식","category":"restaurant"}]},{"lat":"37.2753495695","long":"127.1096572536","imageIndex":4,"items":[{"name":"피자가문,처갓집","tel":"031-281-2244","addr":"경기도 용인시 기흥구 구갈동 410-19번지","indutype":"일반휴게음식 - 서양음식","category":"restaurant"}]},{"lat":"37.279150712","long":"127.1109706","imageIndex":4,"items":[{"name":"피자알볼로용인기흥점","tel":"031-286-0613","addr":"경기도 용인시 기흥구 구갈동 391-2번지 1층","indutype":"일반휴게음식 - 일반한식","category":"restaurant"}]},{"lat":"37.277046419","long":"127.11621063","imageIndex":4,"items":[{"name":"하나정육식당","tel":"031-282-3146","addr":"경기도 용인시 기흥구 구갈동 374-2번지 1층","indutype":"일반휴게음식 - 일반한식","category":"restaurant"}]},{"lat":"37.277181195","long":"127.11660547","imageIndex":4,"items":[{"name":"한방순대국","tel":"","addr":"경기도 용인시 기흥구 구갈동 374-21번지","indutype":"일반휴게음식 - 일반한식","category":"restaurant"}]},{"lat":"37.273988918","long":"127.10976808","imageIndex":4,"items":[{"name":"행운커피숍","tel":"031-275-5188","addr":"경기도 용인시 기흥구 구갈동 412-1번지","indutype":"일반휴게음식 - 서양음식","category":"restaurant"}]},{"lat":"37.277213791","long":"127.12890696","imageIndex":4,"items":[{"name":"허클베리핀","tel":"031-000-0000","addr":"경기도 용인시 기흥구 구갈동 555-7번지 202호","indutype":"일반휴게음식 - 서양음식","category":"restaurant"}]},{"lat":"37.276348696","long":"127.11077491","imageIndex":4,"items":[{"name":"호박","tel":"031-287-0949","addr":"경기도 용인시 기흥구 구갈동 403-3번지","indutype":"일반휴게음식 - 서양음식","category":"restaurant"}]},{"lat":"37.271464078","long":"127.12999101","imageIndex":4,"items":[{"name":"홍꼬기","tel":"031-283-9987","addr":"경기도 용인시 기흥구 구갈동 584-3번지 1층","indutype":"일반휴게음식 - 일반한식","category":"restaurant"}]},{"lat":"37.27729849","long":"127.11643652","imageIndex":4,"items":[{"name":"훌랄라숯불바베큐치킨(구갈1호점)","tel":"031-284-4411","addr":"경기도 용인시 기흥구 구갈동 374-19번지","indutype":"일반휴게음식 - 스넥","category":"restaurant"}]}]