[{"lat":"37.309318794","long":"126.9785055","imageIndex":17,"items":[{"name":"(사)한국원예학회","tel":"063-226-6895","addr":"경기도 수원시 장안구 이목동 475번지","indutype":"기타 - 비영리/대상","category":"other"}]},{"lat":"37.320309602","long":"126.97148466","imageIndex":17,"items":[{"name":"(주)캉가루","tel":"031-269-3344","addr":"경기도 수원시 장안구 이목동 105-2번지","indutype":"여행 - 렌터카","category":"other"}]},{"lat":"37.315897254","long":"126.98397474","imageIndex":17,"items":[{"name":"DM통신","tel":"031-271-9580","addr":"경기도 수원시 장안구 이목동 736-7번지 1층","indutype":"사무통신 - 통신기기","category":"other"}]},{"lat":"37.317311546","long":"126.98211296","imageIndex":17,"items":[{"name":"GS25수원이목점","tel":"02-2006-2485","addr":"경기도 수원시 장안구 이목동 241-6번지","indutype":"유통업 영리 - 편 의 점","category":"other"}]},{"lat":"37.31448245","long":"126.98275675","imageIndex":17,"items":[{"name":"GS25장안칸점","tel":"","addr":"경기도 수원시 장안구 이목동 918번지 상가동 지하1층 105호, 106호","indutype":"유통업 영리 - 편 의 점","category":"other"}]},{"lat":"37.315068614","long":"126.98594913","imageIndex":17,"items":[{"name":"강복건형","tel":"031-268-8255","addr":"경기도 수원시 장안구 이목동 797번지 A동","indutype":"직물 - 카페트,커튼,천막,지물","category":"other"}]},{"lat":"37.314374742","long":"126.98536268","imageIndex":17,"items":[{"name":"그린시스템","tel":"031-252-4515","addr":"경기도 수원시 장안구 이목동 320-6번지","indutype":"전기제품 - 가전제품","category":"other"}]},{"lat":"37.317816371","long":"126.98361325","imageIndex":17,"items":[{"name":"노무법인가람경영컨설팅","tel":"031-243-2306","addr":"경기도 수원시 장안구 이목동 243-1번지 가람HR센터1층 1층","indutype":"용역 서비스 - 사무서비스","category":"other"}]},{"lat":"37.318734266","long":"126.97753224","imageIndex":17,"items":[{"name":"대창코리아(주)","tel":"031-254-5017","addr":"경기도 수원시 장안구 이목동 184-6번지","indutype":"용역 서비스 - 기타용역서비스","category":"other"}]},{"lat":"37.311120873","long":"126.97867412","imageIndex":17,"items":[{"name":"더조은 프린트","tel":"070-4633-4331","addr":"경기도 수원시 장안구 이목동 403-11번지","indutype":"서적문구 - 출판 및 인쇄물","category":"other"}]},{"lat":"37.318562945","long":"126.97694566","imageIndex":17,"items":[{"name":"매일엔지니어링","tel":"031-247-6380","addr":"경기도 수원시 장안구 이목동 167-3번지","indutype":"기타 - 기계공구","category":"other"}]},{"lat":"37.324004715","long":"126.9752063","imageIndex":17,"items":[{"name":"바다의별직업재활센터","tel":"031-251-0177","addr":"경기도 수원시 장안구 이목동 23-3번지","indutype":"용역 서비스 - 기타용역서비스","category":"other"}]},{"lat":"37.316311304","long":"126.98150405","imageIndex":17,"items":[{"name":"보트24(BOAT24)","tel":"070-7542-4760","addr":"경기도 수원시 장안구 이목동 257번지","indutype":"수리서비스 - 기타수리서비스","category":"other"}]},{"lat":"37.319202821","long":"126.9776449","imageIndex":17,"items":[{"name":"사단법인미스터토일렛심재덕기념사업회","tel":"070-4271-5685","addr":"경기도 수원시 장안구 이목동 186-3번지","indutype":"신변잡화 - 기념품점","category":"other"}]},{"lat":"37.311509019","long":"126.98241913","imageIndex":17,"items":[{"name":"삼원하우징","tel":"031-257-0851","addr":"경기도 수원시 장안구 이목동 333-3번지","indutype":"건축자재 - 기타건축자재","category":"other"}]},{"lat":"37.317122331","long":"126.98211301","imageIndex":17,"items":[{"name":"상아탑서점","tel":"031-247-0945","addr":"경기도 수원시 장안구 이목동 245-1번지","indutype":"서적문구 - 일반서적","category":"other"}]},{"lat":"37.320950136","long":"126.97469974","imageIndex":17,"items":[{"name":"성심실버케어","tel":"031-207-8877","addr":"경기도 수원시 장안구 이목동 65-2번지","indutype":"기타의료기관 - 기타의료기관 및 기타","category":"other"}]},{"lat":"37.319789169","long":"126.98108564","imageIndex":17,"items":[{"name":"수원나무종합병원 주식회사","tel":"031-295-7889","addr":"경기도 수원시 장안구 이목동 223번지 1층","indutype":"건축자재 - 인테리어전문","category":"other"},{"name":"주식회사 자연숲","tel":"031-271-3972","addr":"경기도 수원시 장안구 이목동 223번지 1층","indutype":"건축자재 - 인테리어전문","category":"other"}]},{"lat":"37.312410311","long":"126.9840433","imageIndex":17,"items":[{"name":"엘보스케(L.BOSQUE)","tel":"","addr":"경기도 수원시 장안구 이목동 916번지 수원장안힐스테이트 209동 203호","indutype":"신변잡화 - 액세서리","category":"other"}]},{"lat":"37.320426821","long":"126.97181178","imageIndex":17,"items":[{"name":"이츠컴","tel":"031-224-2533","addr":"경기도 수원시 장안구 이목동 105","indutype":"용역 서비스 - 종합용역","category":"other"},{"name":"주식회사마을","tel":"031-224-9064","addr":"경기도 수원시 장안구 이목동 105번지","indutype":"용역 서비스 - 종합용역","category":"other"}]},{"lat":"37.31931231","long":"126.98516974","imageIndex":17,"items":[{"name":"조흥골재","tel":"031-255-9191","addr":"경기도 수원시 장안구 이목동 627-1번지","indutype":"건축자재 - 기타건축자재","category":"other"}]},{"lat":"37.315095695","long":"126.98631012","imageIndex":17,"items":[{"name":"주식회사 스카이 수원지점","tel":"031-258-7400","addr":"경기도 수원시 장안구 이목동 797-5번지","indutype":"여행 - 렌터카","category":"other"}]},{"lat":"37.312374304","long":"126.98425764","imageIndex":17,"items":[{"name":"크린토피아","tel":"031-251-0677","addr":"경기도 수원시 장안구 이목동 916번지 수원장안힐스테이트 상가동 107-2호","indutype":"수리서비스 - 세탁소","category":"other"},{"name":"텐포인트 스포츠","tel":"031-268-0122","addr":"경기도 수원시 장안구 이목동 916번지 수원장안힐스테이트","indutype":"회원제형태 - 레져업소","category":"other"},{"name":"현대명품세탁","tel":"031-271-0007","addr":"경기도 수원시 장안구 이목동 916 장안힐스테이트상가104-2호","indutype":"수리서비스 - 세탁소","category":"other"}]},{"lat":"37.31817687","long":"126.98417723","imageIndex":17,"items":[{"name":"플뤼","tel":"070-7787-4540","addr":"경기도 수원시 장안구 이목동 242-21번지","indutype":"신변잡화 - 액세서리","category":"other"}]},{"lat":"37.311049811","long":"126.98431437","imageIndex":17,"items":[{"name":"피앗오브마리","tel":"","addr":"경기도 수원시 장안구 이목동 916번지 수원장안힐스테이트 215동 1903호","indutype":"신변잡화 - 기념품점","category":"other"}]},{"lat":"37.31170816","long":"126.98866849","imageIndex":17,"items":[{"name":"현대골재","tel":"031-253-8547","addr":"경기도 수원시 장안구 이목동 895번지","indutype":"건축자재 - 기타건축자재","category":"other"}]},{"lat":"37.320309602","long":"126.97148466","imageIndex":13,"items":[{"name":"(주)엔피바이오","tel":"031-265-0316","addr":"경기도 수원시 장안구 이목동 105-2번지 2층 캉가루렌트카","indutype":"보건위생 - 화장품","category":"beauty"}]},{"lat":"37.31448245","long":"126.98275675","imageIndex":13,"items":[{"name":"써니화장품","tel":"070-4109-4653","addr":"경기도 수원시 장안구 이목동 918번지 수원 장안 STX KAN 1단지 103호","indutype":"보건위생 - 화장품","category":"beauty"}]},{"lat":"37.323869651","long":"126.97558995","imageIndex":13,"items":[{"name":"이디코리아","tel":"031-207-4983","addr":"경기도 수원시 장안구 이목동 23-8번지","indutype":"보건위생 - 화장품","category":"beauty"}]},{"lat":"37.315644977","long":"126.98403121","imageIndex":13,"items":[{"name":"제이룸헤어(J.ROOM헤어)","tel":"","addr":"경기도 수원시 장안구 이목동 285-2번지 1층","indutype":"보건위생 - 미용원","category":"beauty"}]},{"lat":"37.312374304","long":"126.98425764","imageIndex":13,"items":[{"name":"플러스헤어","tel":"031-269-0975","addr":"경기도 수원시 장안구 이목동 916번지 현대힐스테이트단지내상가101호","indutype":"보건위생 - 미용원","category":"beauty"}]},{"lat":"37.310454596","long":"126.98114473","imageIndex":0,"items":[{"name":"F1모터스","tel":"031-269-5182","addr":"경기도 수원시 장안구 이목동 366-3번지","indutype":"자동차정비 유지 - 자동차정비","category":"car"}]},{"lat":"37.31191468","long":"126.98361476","imageIndex":0,"items":[{"name":"경기배터리할인매장","tel":"031-238-0334","addr":"경기도 수원시 장안구 이목동 916번지 수원장안힐스테이트 212동 1505호","indutype":"자동차정비 유지 - 자동차부품","category":"car"}]},{"lat":"37.311870384","long":"126.98900688","imageIndex":0,"items":[{"name":"광빨","tel":"070-7503-4312","addr":"경기도 수원시 장안구 이목동 897번지 1층","indutype":"자동차정비 유지 - 카인테리어","category":"car"}]},{"lat":"37.312338777","long":"126.98786745","imageIndex":0,"items":[{"name":"꼬마자동차네트워크","tel":"031-248-7777","addr":"경기도 수원시 장안구 이목동 863번지","indutype":"자동차판매 - 중고자동차판매","category":"car"},{"name":"제일자동차공업사","tel":"031-248-7001","addr":"경기도 수원시 장안구 이목동 863번지","indutype":"자동차정비 유지 - 자동차정비","category":"car"}]},{"lat":"37.318869623","long":"126.97850241","imageIndex":0,"items":[{"name":"대도공업사","tel":"031-256-1306","addr":"경기도 수원시 장안구 이목동 197-1번지","indutype":"자동차정비 유지 - 자동차부품","category":"car"}]},{"lat":"37.316455518","long":"126.98178604","imageIndex":0,"items":[{"name":"대현오토","tel":"031-246-1273","addr":"경기도 수원시 장안구 이목동 259번지","indutype":"자동차정비 유지 - 자동차정비","category":"car"}]},{"lat":"37.311733646","long":"126.97905747","imageIndex":0,"items":[{"name":"디테일가이","tel":"070-7630-8245","addr":"경기도 수원시 장안구 이목동 394-4번지","indutype":"자동차정비 유지 - 자동차부품","category":"car"}]},{"lat":"37.313653782","long":"126.98442653","imageIndex":0,"items":[{"name":"밀리언 모터스","tel":"","addr":"경기도 수원시 장안구 이목동 916번지 수원장안힐스테이트 201동 102호","indutype":"자동차정비 유지 - 카인테리어","category":"car"}]},{"lat":"37.320420874","long":"126.98736944","imageIndex":0,"items":[{"name":"북수원공업사","tel":"031-268-0178","addr":"경기도 수원시 장안구 이목동 610번지","indutype":"자동차정비 유지 - 자동차시트·타이어","category":"car"}]},{"lat":"37.318257433","long":"126.98108608","imageIndex":0,"items":[{"name":"성현사","tel":"031-271-8046","addr":"경기도 수원시 장안구 이목동 214번지 외1필지","indutype":"자동차정비 유지 - 자동차부품","category":"car"}]},{"lat":"37.313816442","long":"126.98778819","imageIndex":0,"items":[{"name":"수원자동차매매상사","tel":"031-302-2000","addr":"경기도 수원시 장안구 이목동 888번지 북수원(노송)단지","indutype":"자동차판매 - 중고자동차판매","category":"car"}]},{"lat":"37.315870247","long":"126.9841214","imageIndex":0,"items":[{"name":"엘리트카용품","tel":"031-269-1527","addr":"경기도 수원시 장안구 이목동 737번지 1층 레이노썬팅","indutype":"자동차정비 유지 - 자동차부품","category":"car"}]},{"lat":"37.316365714","long":"126.98353465","imageIndex":0,"items":[{"name":"오토오아시스서광점","tel":"031-244-5261","addr":"경기도 수원시 장안구 이목동 243-5번지","indutype":"자동차정비 유지 - 자동차정비","category":"car"}]},{"lat":"37.314509849","long":"126.98505806","imageIndex":0,"items":[{"name":"이목점기아오토큐","tel":"031-252-8146","addr":"경기도 수원시 장안구 이목동 519-2번지","indutype":"자동차정비 유지 - 자동차정비","category":"car"}]},{"lat":"37.316618495","long":"126.98684","imageIndex":0,"items":[{"name":"캠포리안 주식회사","tel":"031-1588-2140","addr":"경기도 수원시 장안구 이목동 765-1번지","indutype":"자동차정비 유지 - 자동차부품","category":"car"}]},{"lat":"37.318005168","long":"126.98119897","imageIndex":0,"items":[{"name":"커스텀 지티(Kustom G.T.)","tel":"031-308-8007","addr":"경기도 수원시 장안구 이목동 211-7번지 1층","indutype":"자동차정비 유지 - 카인테리어","category":"car"}]},{"lat":"37.315510184","long":"126.9864454","imageIndex":0,"items":[{"name":"포에스","tel":"031-271-6662","addr":"경기도 수원시 장안구 이목동 797-1번지 ,2층","indutype":"자동차정비 유지 - 자동차부품","category":"car"}]},{"lat":"37.315644977","long":"126.98403121","imageIndex":4,"items":[{"name":"easy coffee(이지커피)","tel":"","addr":"경기도 수원시 장안구 이목동 285-2번지 ,1-2층","indutype":"일반휴게음식 - 서양음식","category":"restaurant"}]},{"lat":"37.31448245","long":"126.98275675","imageIndex":4,"items":[{"name":"고고스치킨","tel":"031-268-9249","addr":"경기도 수원시 장안구 이목동 918번지 근린샐활시설동 108호","indutype":"일반휴게음식 - 일반한식","category":"restaurant"},{"name":"분식까페","tel":"070-4042-5982","addr":"경기도 수원시 장안구 이목동 918번지 근린생활시설동 102호","indutype":"일반휴게음식 - 일반한식","category":"restaurant"}]},{"lat":"37.317311546","long":"126.98211296","imageIndex":4,"items":[{"name":"더할김밥","tel":"070-4024-8124","addr":"경기도 수원시 장안구 이목동 241-6번지 1층 101호","indutype":"일반휴게음식 - 스넥","category":"restaurant"},{"name":"웰덤치킨 수원이목점","tel":"031-268-8282","addr":"경기도 수원시 장안구 이목동 241-6번지 1층 104호","indutype":"일반휴게음식 - 일반한식","category":"restaurant"}]},{"lat":"37.31697809","long":"126.98167308","imageIndex":4,"items":[{"name":"루비노커피(RUBINO COFFEE)","tel":"070-8877-8800","addr":"경기도 수원시 장안구 이목동 245 규화빌딩1층","indutype":"일반휴게음식 - 서양음식","category":"restaurant"}]},{"lat":"37.312374304","long":"126.98425764","imageIndex":4,"items":[{"name":"마음이음","tel":"031-1111-1111","addr":"경기도 수원시 장안구 이목동 916번지 수원장안힐스테이트 상가동 1층 108호","indutype":"일반휴게음식 - 서양음식","category":"restaurant"}]},{"lat":"37.319563023","long":"126.97669712","imageIndex":4,"items":[{"name":"물레방아","tel":"031-236-5599","addr":"경기도 수원시 장안구 이목동 188-2번지","indutype":"일반휴게음식 - 일반한식","category":"restaurant"}]},{"lat":"37.311680082","long":"126.98167457","imageIndex":4,"items":[{"name":"배다리쉼터","tel":"031-242-0418","addr":"경기도 수원시 장안구 이목동 373-3번지","indutype":"일반휴게음식 - 일반한식","category":"restaurant"}]},{"lat":"37.312338777","long":"126.98786745","imageIndex":4,"items":[{"name":"산골","tel":"031-268-3302","addr":"경기도 수원시 장안구 이목동 863번지 B동","indutype":"일반휴게음식 - 일반한식","category":"restaurant"}]},{"lat":"37.31733914","long":"126.98562146","imageIndex":4,"items":[{"name":"삼풍가든","tel":"031-255-0969","addr":"경기도 수원시 장안구 이목동 715번지","indutype":"일반휴게음식 - 한정식","category":"restaurant"}]},{"lat":"37.311535858","long":"126.98133619","imageIndex":4,"items":[{"name":"시골풍경칼국수&만두","tel":"031-269-5666","addr":"경기도 수원시 장안구 이목동 374-2번지","indutype":"일반휴게음식 - 일반한식","category":"restaurant"}]},{"lat":"37.318428281","long":"126.97928098","imageIndex":4,"items":[{"name":"아궁이생선마을","tel":"031-269-5615","addr":"경기도 수원시 장안구 이목동 199번지 1층","indutype":"일반휴게음식 - 일반한식","category":"restaurant"}]},{"lat":"37.319229344","long":"126.975366","imageIndex":4,"items":[{"name":"약수터","tel":"031-244-3869","addr":"경기도 수원시 장안구 이목동 164-2번지 1층","indutype":"일반휴게음식 - 일반한식","category":"restaurant"}]},{"lat":"37.317122331","long":"126.98211301","imageIndex":4,"items":[{"name":"우리식당뷔페","tel":"031-269-2352","addr":"경기도 수원시 장안구 이목동 245-1번지 지하","indutype":"일반휴게음식 - 일반한식","category":"restaurant"}]},{"lat":"37.317924026","long":"126.98092823","imageIndex":4,"items":[{"name":"이목식당","tel":"031-268-2365","addr":"경기도 수원시 장안구 이목동 210-10번지","indutype":"일반휴게음식 - 일반한식","category":"restaurant"}]},{"lat":"37.315284678","long":"126.98473072","imageIndex":4,"items":[{"name":"전통찻집","tel":"031-271-4424","addr":"경기도 수원시 장안구 이목동 753번지 1층","indutype":"일반휴게음식 - 일반한식","category":"restaurant"}]},{"lat":"37.318282651","long":"126.97281672","imageIndex":4,"items":[{"name":"주식회사노블트리","tel":"070-4218-2518","addr":"경기도 수원시 장안구 이목동 138-2번지","indutype":"일반휴게음식 - 서양음식","category":"restaurant"}]},{"lat":"37.311841691","long":"126.97867389","imageIndex":4,"items":[{"name":"추오정 남원 추어탕","tel":"031-268-0789","addr":"경기도 수원시 장안구 이목동 404-1번지 1,2층","indutype":"일반휴게음식 - 일반한식","category":"restaurant"}]},{"lat":"37.318788515","long":"126.97842347","imageIndex":4,"items":[{"name":"캐빈유(cabin yoo)","tel":"070-1111-1111","addr":"경기도 수원시 장안구 이목동 197-4번지","indutype":"일반휴게음식 - 일반한식","category":"restaurant"}]},{"lat":"37.310895983","long":"126.98053546","imageIndex":4,"items":[{"name":"풍어생선구이정식","tel":"031-256-3792","addr":"경기도 수원시 장안구 이목동 371-4번지","indutype":"일반휴게음식 - 일반한식","category":"restaurant"}]},{"lat":"37.311870384","long":"126.98900688","imageIndex":13,"items":[{"name":"골프존 파인스크린골프","tel":"031-269-7600","addr":"경기도 수원시 장안구 이목동 897번지 3층","indutype":"레저업소 - 스크린골프","category":"leisure"}]},{"lat":"37.319536786","long":"126.98056675","imageIndex":13,"items":[{"name":"볼링매니아(BOWLING MANIA)","tel":"","addr":"경기도 수원시 장안구 이목동 219번지 지하1층","indutype":"레저업소 - 볼 링 장","category":"leisure"}]},{"lat":"37.317366373","long":"126.98706547","imageIndex":13,"items":[{"name":"삼풍수영장","tel":"031-0000-0000","addr":"경기도 수원시 장안구 이목동 666번지","indutype":"레저업소 - 수 영 장","category":"leisure"}]},{"lat":"37.316365714","long":"126.98353465","imageIndex":13,"items":[{"name":"스키니 짐","tel":"031-302-1010","addr":"경기도 수원시 장안구 이목동 243-5번지 2층","indutype":"레저업소 - 헬스클럽","category":"leisure"}]},{"lat":"37.312095384","long":"126.98697633","imageIndex":7,"items":[{"name":"구내매점","tel":"031-248-8473","addr":"경기도 수원시 장안구 이목동 861번지","indutype":"음료식품 - 기타음료식품","category":"food"}]},{"lat":"37.326284579","long":"126.97644656","imageIndex":7,"items":[{"name":"들풀농원","tel":"","addr":"경기도 수원시 장안구 이목동 산5번지","indutype":"음료식품 - 농·축·수산품","category":"food"}]},{"lat":"37.312374304","long":"126.98425764","imageIndex":7,"items":[{"name":"메뚜기점핑다이어트","tel":"","addr":"경기도 수원시 장안구 이목동 916번지 수원장안힐스테이트 상가동 지층 102호","indutype":"건강식품 - 기타건강식품","category":"food"}]},{"lat":"37.319509993","long":"126.98186415","imageIndex":7,"items":[{"name":"사니에프에스","tel":"02-111-1111","addr":"경기도 수원시 장안구 이목동 산28-12번지 동우여자고등학교 B1","indutype":"음료식품 - 기타음료식품","category":"food"}]},{"lat":"37.317366373","long":"126.98706547","imageIndex":7,"items":[{"name":"삼풍수영장매점","tel":"031-268-5342","addr":"경기도 수원시 장안구 이목동 666번지","indutype":"음료식품 - 기타음료식품","category":"food"}]},{"lat":"37.318282651","long":"126.97281672","imageIndex":7,"items":[{"name":"엔티커피(NT coffee)","tel":"031-000-0000","addr":"경기도 수원시 장안구 이목동 138-2번지 2층","indutype":"음료식품 - 기타음료식품","category":"food"}]},{"lat":"37.323869651","long":"126.97558995","imageIndex":7,"items":[{"name":"우물가","tel":"","addr":"경기도 수원시 장안구 이목동 23-8번지 1층","indutype":"음료식품 - 기타음료식품","category":"food"}]},{"lat":"37.317311546","long":"126.98211296","imageIndex":7,"items":[{"name":"쨈.청아르테","tel":"02-111-1111","addr":"경기도 수원시 장안구 이목동 241-6번지 102호","indutype":"음료식품 - 기타음료식품","category":"food"}]},{"lat":"37.321509035","long":"126.97583901","imageIndex":7,"items":[{"name":"홍서방유통","tel":"031-269-5611","addr":"경기도 수원시 장안구 이목동 61-1번지","indutype":"음료식품 - 기타음료식품","category":"food"}]},{"lat":"37.318868516","long":"126.97361748","imageIndex":16,"items":[{"name":"만물작업소","tel":"","addr":"경기도 수원시 장안구 이목동 147-4번지","indutype":"학원 - 기타 교육기관","category":"study"}]},{"lat":"37.312374304","long":"126.98425764","imageIndex":16,"items":[{"name":"브레인아이어린이집[아이행복]","tel":"031-271-2399","addr":"경기도 수원시 장안구 이목동 916번지 현대힐스테이트 관리동","indutype":"학원 - 유아원","category":"study"},{"name":"삼원색미술교습소","tel":"031-269-0904","addr":"경기도 수원시 장안구 이목동 916번지 수원장안힐스테이트 근린생활시설동 1층 110호","indutype":"학원 - 예·체능계학원","category":"study"},{"name":"쥴리어드음악교습소","tel":"031-269-7331","addr":"경기도 수원시 장안구 이목동 916번지 수원장안힐스테이트 상가 104-1","indutype":"학원 - 예·체능계학원","category":"study"},{"name":"해법수학장안힐스테이트교습소","tel":"031-271-1011","addr":"경기도 수원시 장안구 이목동 916번지 수원장안힐스테이트 105호","indutype":"학원 - 보습학원","category":"study"}]},{"lat":"37.312095016","long":"126.9844382","imageIndex":16,"items":[{"name":"사랑나무어린이집[아이행복]","tel":"031-268-1136","addr":"경기도 수원시 장안구 이목동 916번지 수원장안힐스테이트 210동 101호","indutype":"학원 - 유아원","category":"study"}]},{"lat":"37.316041369","long":"126.98367011","imageIndex":16,"items":[{"name":"세화유치원[아이행복]","tel":"031-268-1239","addr":"경기도 수원시 장안구 이목동 731-1번지","indutype":"학원 - 유치원","category":"study"}]},{"lat":"37.317951324","long":"126.98241738","imageIndex":16,"items":[{"name":"이목중학교","tel":"031-547-5250","addr":"경기도 수원시 장안구 이목동 241번지 이목중학교","indutype":"학원 - 초중고교육기관","category":"study"}]},{"lat":"37.31315814","long":"126.98391902","imageIndex":16,"items":[{"name":"주식회사팜스월드","tel":"02-1588-5925","addr":"경기도 수원시 장안구 이목동 916번지 수원장안힐스테이트 204동 1802호","indutype":"학원 - 기타 교육기관","category":"study"}]},{"lat":"37.31448245","long":"126.98275675","imageIndex":16,"items":[{"name":"하람어린이집[아이행복]","tel":"031-269-0050","addr":"경기도 수원시 장안구 이목동 918번지 수원장안STXKAN1단지아파트","indutype":"학원 - 유아원","category":"study"}]},{"lat":"37.317122331","long":"126.98211301","imageIndex":7,"items":[{"name":"새롬마트","tel":"031-247-0945","addr":"경기도 수원시 장안구 이목동 245-1번지","indutype":"유통업 영리 - 슈퍼마켓","category":"mart"}]},{"lat":"37.315094999","long":"126.98192179","imageIndex":9,"items":[{"name":"새한주유소","tel":"031-269-5120","addr":"경기도 수원시 장안구 이목동 266-1번지","indutype":"연료판매점 - 쌍용S-OIL","category":"oil"}]},{"lat":"37.30981397","long":"126.9767005","imageIndex":9,"items":[{"name":"현대오일뱅크(주)직영 장안현대셀프주유소","tel":"031-251-5189","addr":"경기도 수원시 장안구 이목동 488번지","indutype":"연료판매점 - 현대정유(오일뱅크)","category":"oil"}]}]