[{"lat":"37.110722307","long":"126.80064026","imageIndex":4,"items":[{"name":"거성식당","tel":"031-351-7121","addr":"경기도 화성시 우정읍 주곡리 666번지","indutype":"일반휴게음식 - 일반한식","category":"restaurant"}]},{"lat":"37.128690975","long":"126.79641748","imageIndex":4,"items":[{"name":"군산회집","tel":"031-351-4983","addr":"경기도 화성시 우정읍 주곡리 161-210번지","indutype":"일반휴게음식 - 일반한식","category":"restaurant"}]},{"lat":"37.128440813","long":"126.79764477","imageIndex":4,"items":[{"name":"그린수산왕새우집","tel":"031-351-8877","addr":"경기도 화성시 우정읍 주곡리 161-48번지","indutype":"일반휴게음식 - 칵테일바","category":"restaurant"}]},{"lat":"37.117780953","long":"126.82527393","imageIndex":4,"items":[{"name":"다올한식","tel":"031-358-2398","addr":"경기도 화성시 우정읍 주곡리 37-7번지","indutype":"일반휴게음식 - 일반한식","category":"restaurant"}]},{"lat":"37.114754146","long":"126.79780547","imageIndex":4,"items":[{"name":"대성한식부페","tel":"031-351-0707","addr":"경기도 화성시 우정읍 주곡리 564-17번지","indutype":"일반휴게음식 - 일반한식","category":"restaurant"}]},{"lat":"37.122778058","long":"126.79525204","imageIndex":4,"items":[{"name":"또봉이치킨","tel":"031-358-9959","addr":"경기도 화성시 우정읍 주곡리 937-14번지 나동","indutype":"일반휴게음식 - 스넥","category":"restaurant"}]},{"lat":"37.117728506","long":"126.81464121","imageIndex":4,"items":[{"name":"맛고을 한식부페","tel":"031-351-0508","addr":"경기도 화성시 우정읍 주곡리 387-27번지 103호","indutype":"일반휴게음식 - 일반한식","category":"restaurant"}]},{"lat":"37.132306837","long":"126.79794943","imageIndex":4,"items":[{"name":"맛집한식부페","tel":"031-358-3231","addr":"경기도 화성시 우정읍 주곡리 161-531번지 1층","indutype":"일반휴게음식 - 일반한식","category":"restaurant"}]},{"lat":"37.128330655","long":"126.79647473","imageIndex":4,"items":[{"name":"배인숙추어탕","tel":"031-358-3331","addr":"경기도 화성시 우정읍 주곡리 161-212번지 1층","indutype":"일반휴게음식 - 일반한식","category":"restaurant"}]},{"lat":"37.128443807","long":"126.80470055","imageIndex":4,"items":[{"name":"보경한식뷔페","tel":"070-4009-0067","addr":"경기도 화성시 우정읍 주곡리 161-354번지 1층","indutype":"일반휴게음식 - 일반한식","category":"restaurant"}]},{"lat":"37.116334001","long":"126.79955644","imageIndex":4,"items":[{"name":"성경농장","tel":"031-351-1858","addr":"경기도 화성시 우정읍 주곡리 520-30번지 성경농장","indutype":"일반휴게음식 - 일반한식","category":"restaurant"}]},{"lat":"37.128498885","long":"126.79997404","imageIndex":4,"items":[{"name":"수한식뷔페","tel":"031-351-1889","addr":"경기도 화성시 우정읍 주곡리 161-314번지","indutype":"일반휴게음식 - 일반한식","category":"restaurant"}]},{"lat":"37.110799249","long":"126.80350897","imageIndex":4,"items":[{"name":"순두부","tel":"031-358-3874","addr":"경기도 화성시 우정읍 주곡리 500-49번지 1동 1층","indutype":"일반휴게음식 - 일반한식","category":"restaurant"}]},{"lat":"37.13244246","long":"126.79821916","imageIndex":4,"items":[{"name":"우리들한식뷔페","tel":"","addr":"경기도 화성시 우정읍 주곡리 161-23번지 1층","indutype":"일반휴게음식 - 일반한식","category":"restaurant"}]},{"lat":"37.137420296","long":"126.80058047","imageIndex":4,"items":[{"name":"자연을 담은 밥상","tel":"031-351-0177","addr":"경기도 화성시 우정읍 주곡리 161-377번지","indutype":"일반휴게음식 - 일반한식","category":"restaurant"}]},{"lat":"37.12935978","long":"126.79758602","imageIndex":4,"items":[{"name":"잼쇼커피","tel":"070-1471-2366","addr":"경기도 화성시 우정읍 주곡리 1115번지 113호","indutype":"일반휴게음식 - 서양음식","category":"restaurant"}]},{"lat":"37.129611449","long":"126.79722523","imageIndex":4,"items":[{"name":"진명횟집","tel":"031-351-2914","addr":"경기도 화성시 우정읍 주곡리 161-5번지","indutype":"일반휴게음식 - 일반한식","category":"restaurant"}]},{"lat":"37.123111504","long":"126.79528488","imageIndex":4,"items":[{"name":"카페휴","tel":"031-1111-1111","addr":"경기도 화성시 우정읍 주곡리 937-12번지 1층","indutype":"일반휴게음식 - 서양음식","category":"restaurant"}]},{"lat":"37.114060827","long":"126.79808862","imageIndex":4,"items":[{"name":"피니치니","tel":"031-358-6292","addr":"경기도 화성시 우정읍 주곡리 564-15번지","indutype":"일반휴게음식 - 서양음식","category":"restaurant"}]},{"lat":"37.115362011","long":"126.8110579","imageIndex":4,"items":[{"name":"한식부페 담은","tel":"031-351-7060","addr":"경기도 화성시 우정읍 주곡리 796-13번지","indutype":"일반휴게음식 - 일반한식","category":"restaurant"}]},{"lat":"37.117887795","long":"126.82441855","imageIndex":4,"items":[{"name":"혜화동돈까스극장.고성명태","tel":"031-366-1517","addr":"경기도 화성시 우정읍 주곡리 838-12번지 1동 103호","indutype":"일반휴게음식 - 일반한식","category":"restaurant"}]},{"lat":"37.129393986","long":"126.79652811","imageIndex":4,"items":[{"name":"호곡리칼국수","tel":"031-351-6769","addr":"경기도 화성시 우정읍 주곡리 161-193번지","indutype":"일반휴게음식 - 일반한식","category":"restaurant"}]}]