[{"lat":"37.3460887735","long":"126.9756157662","imageIndex":13,"items":[{"name":"KTS 의왕탁구클럽","tel":"","addr":"경기도 의왕시 왕곡동 597-5번지 (3층, 왕곡동)","indutype":"레저업소 - 기타레져업소","category":"leisure"}]},{"lat":"37.3462242082","long":"126.9768684298","imageIndex":13,"items":[{"name":"STORY PC","tel":"031-0000-0000","addr":"경기도 의왕시 왕곡동 594-6번지 3층","indutype":"레저업소 - 기타레져업소","category":"leisure"}]},{"lat":"37.3463686042","long":"126.9779518091","imageIndex":13,"items":[{"name":"매들리노래연습장","tel":"031-455-4458","addr":"경기도 의왕시 왕곡동 299-4번지 지층","indutype":"레저업소 - 노 래 방","category":"leisure"}]},{"lat":"37.3461972369","long":"126.9771392957","imageIndex":13,"items":[{"name":"샹떼","tel":"031-452-0900","addr":"경기도 의왕시 왕곡동 594-5번지 2층","indutype":"레저업소 - 기타레져업소","category":"leisure"}]},{"lat":"37.3466475249","long":"126.9761459949","imageIndex":13,"items":[{"name":"스마일노래연습장","tel":"031-456-2113","addr":"경기도 의왕시 왕곡동 594번지 의왕프라자 지하1층 01호 비","indutype":"레저업소 - 노 래 방","category":"leisure"},{"name":"스마일노래연습장","tel":"031-456-2113","addr":"경기도 의왕시 왕곡동 594번지 의왕프라자 B01호","indutype":"레저업소 - 노 래 방","category":"leisure"}]},{"lat":"37.3467825433","long":"126.9755590864","imageIndex":13,"items":[{"name":"쓰리코당구장","tel":"031-429-8805","addr":"경기도 의왕시 왕곡동 596번지 4층","indutype":"레저업소 - 당 구 장","category":"leisure"},{"name":"파브노래연습장","tel":"031-458-6092","addr":"경기도 의왕시 왕곡동 596번지","indutype":"레저업소 - 노 래 방","category":"leisure"}]},{"lat":"37.3464224070","long":"126.9767555041","imageIndex":13,"items":[{"name":"아레나PC","tel":"070-9419-7795","addr":"경기도 의왕시 왕곡동 594-3번지 광원빌딩 301호","indutype":"레저업소 - 기타레져업소","category":"leisure"},{"name":"팡팡노래연습장","tel":"031-429-2968","addr":"경기도 의왕시 왕곡동 594-3번지 광원빌딩 치층","indutype":"레저업소 - 노 래 방","category":"leisure"}]},{"lat":"37.3467285342","long":"126.9757848214","imageIndex":13,"items":[{"name":"킥앤점프","tel":"031-477-0907","addr":"경기도 의왕시 왕곡동 596-1번지 덕우빌딩 2층","indutype":"레저업소 - 기타레져업소","category":"leisure"}]}]