[{"lat":"37.738211871","long":"127.41980741","imageIndex":8,"items":[{"name":"강현철의원","tel":"031-584-1165","addr":"경기도 가평군 청평면 청평리 465-8번지","indutype":"의원 - 의원","category":"medical"}]},{"lat":"37.735775149","long":"127.41586855","imageIndex":8,"items":[{"name":"경기동물병원","tel":"031-584-1282","addr":"경기도 가평군 청평면 청평리 438-23","indutype":"기타의료기관 - 동물병원","category":"medical"}]},{"lat":"37.73785254","long":"127.41951043","imageIndex":8,"items":[{"name":"굿모닝약국","tel":"031-585-4638","addr":"경기도 가평군 청평면 청평리 465-11번지","indutype":"약국 - 약국","category":"medical"}]},{"lat":"37.737769812","long":"127.4199751","imageIndex":8,"items":[{"name":"뉴욕치과의원","tel":"031-585-9455","addr":"경기도 가평군 청평면 청평리 432-69번지","indutype":"의원 - 치과의원","category":"medical"}]},{"lat":"37.73754514","long":"127.41981501","imageIndex":8,"items":[{"name":"서울연합치과의원","tel":"031-585-5421","addr":"경기도 가평군 청평면 청평리 432-11번지 2층","indutype":"의원 - 치과의원","category":"medical"}]},{"lat":"37.735989226","long":"127.41648234","imageIndex":8,"items":[{"name":"서진한의원","tel":"031-585-7975","addr":"경기도 가평군 청평면 청평리 436-2번지","indutype":"의원 - 한의원","category":"medical"}]},{"lat":"37.737913559","long":"127.42008935","imageIndex":8,"items":[{"name":"서진한의원","tel":"031-585-7975","addr":"경기도 가평군 청평면 청평리 436-2번지","indutype":"한의원","category":"medical"}]},{"lat":"37.738023236","long":"127.41964752","imageIndex":8,"items":[{"name":"성민의원","tel":"031-584-7004","addr":"경기도 가평군 청평면 청평리 465-5","indutype":"의원 - 의원","category":"medical"}]},{"lat":"37.73818396","long":"127.42005684","imageIndex":8,"items":[{"name":"제일부부치과의원","tel":"031-585-6200","addr":"경기도 가평군 청평면 청평리 465-29번지","indutype":"의원 - 치과의원","category":"medical"}]},{"lat":"37.737441155","long":"127.41864592","imageIndex":8,"items":[{"name":"종로약국","tel":"031-584-8716","addr":"경기도 가평군 청평면 청평리 463-1번지 (구꼼바이꼼)","indutype":"약국 - 약국","category":"medical"}]},{"lat":"37.738354133","long":"127.42034141","imageIndex":8,"items":[{"name":"청평동물병원","tel":"031-585-7573","addr":"경기도 가평군 청평면 청평리 465-25번지 1층 상가","indutype":"기타의료기관 - 동물병원","category":"medical"}]},{"lat":"37.738441773","long":"127.42103394","imageIndex":8,"items":[{"name":"청평연세의원","tel":"031-584-1895","addr":"경기도 가평군 청평면 청평리 432-16번지 수정빌딩","indutype":"의원 - 의원","category":"medical"}]},{"lat":"37.736661818","long":"127.41737096","imageIndex":8,"items":[{"name":"청평제일한의원","tel":"031-595-0034","addr":"경기도 가평군 청평면 청평리 455-7","indutype":"의원 - 한의원","category":"medical"}]},{"lat":"37.734775987","long":"127.41561342","imageIndex":8,"items":[{"name":"청한의원","tel":"031-585-6052","addr":"경기도 가평군 청평면 청평리 78-2번지","indutype":"의원 - 한의원","category":"medical"}]},{"lat":"37.737324714","long":"127.41845241","imageIndex":8,"items":[{"name":"프라자약국","tel":"031-584-0315","addr":"경기도 가평군 청평면 청평리 462-2","indutype":"약국 - 약국","category":"medical"}]},{"lat":"37.731274659","long":"127.40945699","imageIndex":8,"items":[{"name":"해암요양병원","tel":"031-584-0545","addr":"경기도 가평군 청평면 청평리 650-8번지","indutype":"병원 - 병원","category":"medical"},{"name":"해암한의원","tel":"031-584-1075","addr":"경기도 가평군 청평면 청평리 650-8번지","indutype":"의원 - 한의원","category":"medical"}]},{"lat":"37.737192412","long":"127.42019875","imageIndex":8,"items":[{"name":"호한의원","tel":"031-584-9876","addr":"경기도 가평군 청평면 청평리 397-21번지","indutype":"의원 - 한의원","category":"medical"}]},{"lat":"37.737522039","long":"127.4187031","imageIndex":8,"items":[{"name":"홍인의원","tel":"031-585-8275","addr":"경기도 가평군 청평면 청평리 470-31번지","indutype":"의원 - 의원","category":"medical"}]}]