[{"lat":"37.52292084","long":"126.76665953","imageIndex":13,"items":[{"name":"(주)디에스아이엔티","tel":"032-624-1400","addr":"경기도 부천시 삼정동 36-1번지 부천테크노파크3 101동 702호","indutype":"보건위생 - 의료용품","category":"beauty"},{"name":"(주)바로나","tel":"032-624-3577","addr":"경기도 부천시 삼정동 36-1번지 부천테크노파크쌍용3차첨단제조 202동 306호","indutype":"보건위생 - 화장품","category":"beauty"},{"name":"(주)한국자효당","tel":"032-624-4890","addr":"경기도 부천시 삼정동 36-1번지 부천테크노파크쌍용3차 103동 801호","indutype":"보건위생 - 의료용품","category":"beauty"},{"name":"굿모닝메디칼씨스템","tel":"032-624-2026","addr":"경기도 부천시 삼정동 36-1번지 부천테크노파크쌍용3차 203동 309호","indutype":"보건위생 - 의료용품","category":"beauty"},{"name":"메디피아","tel":"032-624-4288","addr":"경기도 부천시 삼정동 36-1번지 부천테크노파크쌍용3차일반제조 101동1213호","indutype":"보건위생 - 의료용품","category":"beauty"},{"name":"주식회사 뉴케이","tel":"02-6080-6078","addr":"경기도 부천시 삼정동 36-1번지 부천테크노파크쌍용3차 301동 비103 (8, 9호)","indutype":"보건위생 - 화장품","category":"beauty"},{"name":"진바이오메드","tel":"032-624-4890","addr":"경기도 부천시 삼정동 36-1번지 부천테크노파크쌍용3차 101동 1106호","indutype":"보건위생 - 의료용품","category":"beauty"},{"name":"코스모아 (COSMOA)","tel":"02-6335-0114","addr":"경기도 부천시 삼정동 36-1번지 부천테크노파크쌍용3차 203동 304호","indutype":"보건위생 - 화장품","category":"beauty"},{"name":"해빛(haveit)","tel":"032-111-1111","addr":"경기도 부천시 삼정동 36-1번지 부천테크노파크쌍용3차 303동 1006호","indutype":"보건위생 - 미용재료","category":"beauty"}]},{"lat":"37.518920722","long":"126.76232847","imageIndex":13,"items":[{"name":"(주)미셀코리아","tel":"070-4821-3880","addr":"경기도 부천시 삼정동 364번지 부천테크노파크1단지 101동 801호","indutype":"보건위생 - 화장품","category":"beauty"},{"name":"(주)벤디슨(Vendison Co.,Ltd.)","tel":"032-621-0074","addr":"경기도 부천시 삼정동 364번지 부천테크노파크 102동 707호,100동 비08호 일부","indutype":"보건위생 - 의료용품","category":"beauty"},{"name":"성일메디칼","tel":"032-325-0289","addr":"경기도 부천시 삼정동 364번지 부천테크노파크1단지 102동 805호","indutype":"보건위생 - 의료용품","category":"beauty"},{"name":"에이존덴트코리아산업","tel":"032-327-2123","addr":"경기도 부천시 삼정동 364번지","indutype":"보건위생 - 의료용품","category":"beauty"},{"name":"이미정 헤어위즈","tel":"032-621-2700","addr":"경기도 부천시 삼정동 364번지 부천테크노파크1단지 1층 관리동","indutype":"보건위생 - 미용원","category":"beauty"},{"name":"크루더도얼(주)","tel":"070-4642-0623","addr":"경기도 부천시 삼정동 364번지 부천테크노파크 103동 902호","indutype":"보건위생 - 화장품","category":"beauty"}]},{"lat":"37.51898062","long":"126.76521275","imageIndex":13,"items":[{"name":"(주)일신의료기","tel":"032-234-0008","addr":"경기도 부천시 삼정동 365-1,365번지부천테크노파크2차302-707","indutype":"보건위생 - 의료용품","category":"beauty"}]},{"lat":"37.520646306","long":"126.76915532","imageIndex":13,"items":[{"name":"(주)조아테크","tel":"032-684-7422","addr":"경기도 부천시 삼정동 267-4번지","indutype":"보건위생 - 의료용품","category":"beauty"}]},{"lat":"37.521927136","long":"126.77449062","imageIndex":13,"items":[{"name":"(주)팍스모리","tel":"032-230-6695","addr":"경기도 부천시 삼정동 201-9번지 오승빌딩","indutype":"보건위생 - 화장품","category":"beauty"}]},{"lat":"37.514455573","long":"126.77326919","imageIndex":13,"items":[{"name":"S스킨&바디","tel":"070-7664-5991","addr":"경기도 부천시 삼정동 318-10번지 1층 동쪽점포","indutype":"보건위생 - 피부미용실","category":"beauty"}]},{"lat":"37.516088517","long":"126.76976902","imageIndex":13,"items":[{"name":"건일바이오","tel":"070-7374-6161","addr":"경기도 부천시 삼정동 293-30번지 세종빌딩 4층","indutype":"보건위생 - 의료용품","category":"beauty"},{"name":"쑥찜","tel":"032-677-2446","addr":"경기도 부천시 삼정동 293-30번지 세종빌딩 지하","indutype":"보건위생 - 피부미용실","category":"beauty"},{"name":"최유희헤어","tel":"032-679-3665","addr":"경기도 부천시 삼정동 293-30번지","indutype":"보건위생 - 화장품","category":"beauty"},{"name":"최유희헤어클럽","tel":"","addr":"경기도 부천시 삼정동 293-30번지 세종빌딩 1층","indutype":"보건위생 - 미용원","category":"beauty"}]},{"lat":"37.514119718","long":"126.77199209","imageIndex":13,"items":[{"name":"김옥헤어월드","tel":"032-676-1355","addr":"경기도 부천시 삼정동 346-4번지 월드맨션 15동상가 101호","indutype":"보건위생 - 미용원","category":"beauty"}]},{"lat":"37.517397184","long":"126.76636022","imageIndex":13,"items":[{"name":"김정희미용타운","tel":"032-677-2883","addr":"경기도 부천시 삼정동 282-31번지","indutype":"보건위생 - 미용원","category":"beauty"}]},{"lat":"37.517171502","long":"126.77068188","imageIndex":13,"items":[{"name":"다민헤어","tel":"031-678-3774","addr":"경기도 부천시 삼정동 308-23번지 1층","indutype":"보건위생 - 미용원","category":"beauty"}]},{"lat":"37.525367009","long":"126.76441192","imageIndex":13,"items":[{"name":"닥터 다니엘","tel":"032-326-1055","addr":"경기도 부천시 삼정동 29-7번지 2층","indutype":"보건위생 - 의료용품","category":"beauty"},{"name":"주식회사 덴탈비","tel":"070-4209-2217","addr":"경기도 부천시 삼정동 29-7번지 3층","indutype":"보건위생 - 의료용품","category":"beauty"}]},{"lat":"37.517726786","long":"126.76899475","imageIndex":13,"items":[{"name":"대한불교법성종천상암","tel":"","addr":"경기도 부천시 삼정동 288-26번지","indutype":"보건위생 - 기타대인서비스","category":"beauty"}]},{"lat":"37.514672842","long":"126.77380014","imageIndex":13,"items":[{"name":"라온헤어","tel":"032-221-1589","addr":"경기도 부천시 삼정동 319번지","indutype":"보건위생 - 미용원","category":"beauty"}]},{"lat":"37.518259194","long":"126.76941161","imageIndex":13,"items":[{"name":"리치헤어","tel":"032-671-6002","addr":"경기도 부천시 삼정동 295번지 광영빌딩 1층","indutype":"보건위생 - 미용원","category":"beauty"}]},{"lat":"37.514561465","long":"126.77212646","imageIndex":13,"items":[{"name":"마라보까헤어샵","tel":"","addr":"경기도 부천시 삼정동 347-1번지 월드베스트 101호","indutype":"보건위생 - 미용원","category":"beauty"}]},{"lat":"37.516702123","long":"126.77024219","imageIndex":13,"items":[{"name":"명품","tel":"","addr":"경기도 부천시 삼정동 308-26번지 2층","indutype":"보건위생 - 화장품","category":"beauty"}]},{"lat":"37.516590046","long":"126.77282151","imageIndex":13,"items":[{"name":"모아헤어","tel":"032-469-2406","addr":"경기도 부천시 삼정동 310-3번지","indutype":"보건위생 - 미용원","category":"beauty"}]},{"lat":"37.51737176","long":"126.76716341","imageIndex":13,"items":[{"name":"미(  )헤어","tel":"","addr":"경기도 부천시 삼정동 282-11번지","indutype":"보건위생 - 미용원","category":"beauty"}]},{"lat":"37.517170745","long":"126.77029729","imageIndex":13,"items":[{"name":"미랑컬(귀빈점)","tel":"032-681-7107","addr":"경기도 부천시 삼정동 308번지","indutype":"보건위생 - 미용원","category":"beauty"},{"name":"컷앤컷미용실","tel":"032-676-6565","addr":"경기도 부천시 삼정동 308번지","indutype":"보건위생 - 미용원","category":"beauty"}]},{"lat":"37.518726272","long":"126.76868622","imageIndex":13,"items":[{"name":"미스틱옵티컬(mistic optical)","tel":"032-673-6032","addr":"경기도 부천시 삼정동 286-6번지 진도홈빌 105동 101호","indutype":"보건위생 - 안경","category":"beauty"}]},{"lat":"37.515201716","long":"126.77240726","imageIndex":13,"items":[{"name":"미투헤어클럽","tel":"032-677-8681","addr":"경기도 부천시 삼정동 316-7번지","indutype":"보건위생 - 미용원","category":"beauty"}]},{"lat":"37.51711537","long":"126.76963009","imageIndex":13,"items":[{"name":"보뜨헤어","tel":"032-673-6311","addr":"경기도 부천시 삼정동 294-1번지 1층 일부","indutype":"보건위생 - 미용원","category":"beauty"}]},{"lat":"37.528343815","long":"126.77071513","imageIndex":13,"items":[{"name":"비앤에이","tel":"070-4469-6958","addr":"경기도 부천시 삼정동 48-72번지 2층","indutype":"보건위생 - 화장품","category":"beauty"}]},{"lat":"37.516953528","long":"126.76980027","imageIndex":13,"items":[{"name":"비엔비헤어클럽","tel":"032-0000-0000","addr":"경기도 부천시 삼정동 294-2번지","indutype":"보건위생 - 미용원","category":"beauty"}]},{"lat":"37.515200788","long":"126.7719322","imageIndex":13,"items":[{"name":"샤론미용실","tel":"070-8876-5720","addr":"경기도 부천시 삼정동 315-11번지 1층","indutype":"보건위생 - 미용원","category":"beauty"}]},{"lat":"37.515201075","long":"126.77207924","imageIndex":13,"items":[{"name":"샤론헤어샵","tel":"032-682-4227","addr":"경기도 부천시 삼정동 315-18번지","indutype":"보건위생 - 미용원","category":"beauty"}]},{"lat":"37.517372843","long":"126.77227616","imageIndex":13,"items":[{"name":"시프헤어","tel":"","addr":"경기도 부천시 삼정동 305-20번지","indutype":"보건위생 - 미용원","category":"beauty"}]},{"lat":"37.51528769","long":"126.77030314","imageIndex":13,"items":[{"name":"신흥화장품","tel":"032-672-4723","addr":"경기도 부천시 삼정동 314-9번지 (1층,108호)","indutype":"보건위생 - 화장품","category":"beauty"}]},{"lat":"37.517367936","long":"126.76977636","imageIndex":13,"items":[{"name":"안경박사","tel":"032-672-1649","addr":"경기도 부천시 삼정동 295-11번지","indutype":"보건위생 - 안경","category":"beauty"}]},{"lat":"37.514812767","long":"126.771628","imageIndex":13,"items":[{"name":"안경이야기","tel":"032-321-4542","addr":"경기도 부천시 삼정동 338-4번지 안경이야기","indutype":"보건위생 - 안경","category":"beauty"}]},{"lat":"37.514784607","long":"126.77105122","imageIndex":13,"items":[{"name":"알로에마임삼정지사","tel":"032-682-5563","addr":"경기도 부천시 삼정동 342-2번지 하양프라자 3층 305호","indutype":"보건위생 - 화장품","category":"beauty"}]},{"lat":"37.515702031","long":"126.77024529","imageIndex":13,"items":[{"name":"영종합화장품","tel":"032-671-1214","addr":"경기도 부천시 삼정동 314-7번지","indutype":"보건위생 - 화장품","category":"beauty"}]},{"lat":"37.517365788","long":"126.76869047","imageIndex":13,"items":[{"name":"은헤어","tel":"032-671-7224","addr":"경기도 부천시 삼정동 288-23번지","indutype":"보건위생 - 미용원","category":"beauty"}]},{"lat":"37.516288983","long":"126.77091084","imageIndex":13,"items":[{"name":"이화","tel":"032-111-1111","addr":"경기도 부천시 삼정동 309-32번지 1층 일부","indutype":"보건위생 - 미용원","category":"beauty"}]},{"lat":"37.518618916","long":"126.76907115","imageIndex":13,"items":[{"name":"작은언니네","tel":"032-672-7024","addr":"경기도 부천시 삼정동 286-22번지 1층 일부호","indutype":"보건위생 - 미용원","category":"beauty"}]},{"lat":"37.515621655","long":"126.7706075","imageIndex":13,"items":[{"name":"종합화장품","tel":"032-674-4963","addr":"경기도 부천시 삼정동 314-5번지","indutype":"보건위생 - 화장품","category":"beauty"}]},{"lat":"37.515476897","long":"126.77030255","imageIndex":13,"items":[{"name":"지원헤어샵","tel":"032-684-2686","addr":"경기도 부천시 삼정동 314-8번지","indutype":"보건위생 - 미용원","category":"beauty"}]},{"lat":"37.51850623","long":"126.76677525","imageIndex":13,"items":[{"name":"진민무역","tel":"032-672-9430","addr":"경기도 부천시 삼정동 275-44번지 1층","indutype":"보건위생 - 미용재료","category":"beauty"}]},{"lat":"37.518205738","long":"126.76971719","imageIndex":13,"items":[{"name":"진솔메디텍","tel":"032-678-5303","addr":"경기도 부천시 삼정동 295-16번지 301-3호","indutype":"보건위생 - 의료용품","category":"beauty"},{"name":"하나메디텍","tel":"032-674-5304","addr":"경기도 부천시 삼정동 295-16번지 4층","indutype":"보건위생 - 의료용품","category":"beauty"}]},{"lat":"37.518258366","long":"126.76899309","imageIndex":13,"items":[{"name":"청룡암","tel":"032-681-8438","addr":"경기도 부천시 삼정동 287-12번지","indutype":"보건위생 - 기타대인서비스","category":"beauty"}]},{"lat":"37.516090811","long":"126.77093407","imageIndex":13,"items":[{"name":"칼라헤어숍","tel":"032-682-9488","addr":"경기도 부천시 삼정동 313번지","indutype":"보건위생 - 미용원","category":"beauty"}]},{"lat":"37.518369951","long":"126.7662101","imageIndex":13,"items":[{"name":"태후사랑","tel":"032-671-3211","addr":"경기도 부천시 삼정동 276번지 e-좋은아침 103호","indutype":"보건위생 - 미용원","category":"beauty"}]},{"lat":"37.518587635","long":"126.76693336","imageIndex":13,"items":[{"name":"허지원머리방","tel":"032-671-8163","addr":"경기도 부천시 삼정동 275-41번지","indutype":"보건위생 - 미용원","category":"beauty"}]},{"lat":"37.517366393","long":"126.76899587","imageIndex":13,"items":[{"name":"헤어봄뜰","tel":"070-8260-3322","addr":"경기도 부천시 삼정동 288-14번지","indutype":"보건위생 - 미용원","category":"beauty"}]},{"lat":"37.518512117","long":"126.76973886","imageIndex":13,"items":[{"name":"헤어클릭","tel":"032-671-6146","addr":"경기도 부천시 삼정동 296-13번지","indutype":"보건위생 - 미용원","category":"beauty"}]},{"lat":"37.515235143","long":"126.77107245","imageIndex":13,"items":[{"name":"헤어피디","tel":"032-677-8862","addr":"경기도 부천시 삼정동 315-1번지","indutype":"보건위생 - 미용재료","category":"beauty"}]}]