[{"lat":"37.639940974","long":"126.78595832","imageIndex":7,"items":[{"name":"(주) 비케이 인터내셔널","tel":"070-4350-5962","addr":"경기도 고양시 일산동구 백석동 1324번지","indutype":"건강식품 - 기타건강식품","category":"food"}]},{"lat":"37.649802515","long":"126.79368036","imageIndex":7,"items":[{"name":"(주)그린와인","tel":"02-561-3462","addr":"경기도 고양시 일산동구 백석동","indutype":"음료식품 - 주류 판매점","category":"food"},{"name":"(주)베이시스","tel":"031-909-7522","addr":"경기도 고양시 일산동구 백석동 1141-2번지","indutype":"음료식품 - 정육점","category":"food"},{"name":"파리바게뜨(일산백석점)","tel":"031-903-8205","addr":"경기도 고양시 일산동구 백석동 1141-2번지","indutype":"음료식품 - 제과점","category":"food"}]},{"lat":"37.637187029","long":"126.78760911","imageIndex":7,"items":[{"name":"(주)라온인터내셔날","tel":"031-932-8708","addr":"경기도 고양시 일산동구 백석동 1330번지","indutype":"음료식품 - 기타음료식품","category":"food"}]},{"lat":"37.650744467","long":"126.79648795","imageIndex":7,"items":[{"name":"(주)하늘재","tel":"031-901-6424","addr":"경기도 고양시 일산동구 백석동 1141번지","indutype":"음료식품 - 기타음료식품","category":"food"}]},{"lat":"37.640391345","long":"126.79085158","imageIndex":7,"items":[{"name":"9market(나인마켓)","tel":"070-4090-9022","addr":"경기도 고양시 일산동구 백석동 1300번지","indutype":"음료식품 - 농·축·수산품","category":"food"}]},{"lat":"37.644462932","long":"126.79040944","imageIndex":7,"items":[{"name":"S앤J","tel":"031-817-9007","addr":"경기도 고양시 일산동구 백석동 1241-2번지","indutype":"음료식품 - 기타음료식품","category":"food"}]},{"lat":"37.636937114","long":"126.79393169","imageIndex":7,"items":[{"name":"건강박사","tel":"031-904-1822","addr":"경기도 고양시 일산동구 백석동 453-3번지","indutype":"음료식품 - 농·축·수산품","category":"food"}]},{"lat":"37.638817756","long":"126.78759307","imageIndex":7,"items":[{"name":"굿모닝찬방","tel":"031-907-3316","addr":"경기도 고양시 일산동구 백석동 1320번지","indutype":"음료식품 - 기타음료식품","category":"food"},{"name":"유건","tel":"031-977-5104","addr":"경기도 고양시 일산동구 백석동 1320번지","indutype":"음료식품 - 기타음료식품","category":"food"},{"name":"참맛","tel":"031-813-6646","addr":"경기도 고양시 일산동구 백석동","indutype":"음료식품 - 기타음료식품","category":"food"}]},{"lat":"37.645516548","long":"126.78518294","imageIndex":7,"items":[{"name":"궁전떡집","tel":"031-905-0778","addr":"경기도 고양시 일산동구 백석동 1288-2번지","indutype":"음료식품 - 제과점","category":"food"}]},{"lat":"37.648994687","long":"126.78539942","imageIndex":7,"items":[{"name":"그린야채","tel":"070-7529-8843","addr":"경기도 고양시 일산동구 백석동 1218번지","indutype":"음료식품 - 농·축·수산품","category":"food"}]},{"lat":"37.645383007","long":"126.78120623","imageIndex":7,"items":[{"name":"그린에프앤비","tel":"031-932-9069","addr":"경기도 고양시 일산동구 백석동 1420-7번지","indutype":"음료식품 - 농·축·수산품","category":"food"}]},{"lat":"37.647880928","long":"126.78239991","imageIndex":7,"items":[{"name":"나뚜르일산이마트점","tel":"031-901-6886","addr":"경기도 고양시 일산동구 백석동 1194번지 흰돌마을1단지아파트","indutype":"음료식품 - 제과점","category":"food"}]},{"lat":"37.648884372","long":"126.78420995","imageIndex":7,"items":[{"name":"나우","tel":"070-8819-1760","addr":"경기도 고양시 일산동구 백석동 1204번지","indutype":"음료식품 - 제과점","category":"food"}]},{"lat":"37.630995305","long":"126.79145604","imageIndex":7,"items":[{"name":"농업회사법인산천초목팜주식회사","tel":"031-971-1134","addr":"경기도 고양시 일산동구 백석동 1127-2번지","indutype":"음료식품 - 농·축·수산품","category":"food"}]},{"lat":"37.642268928","long":"126.78784371","imageIndex":7,"items":[{"name":"농협홍삼","tel":"031-903-4585","addr":"경기도 고양시 일산동구 백석동 1308번지","indutype":"건강식품 - 기타건강식품","category":"food"},{"name":"베스킨라빈스(백석점)","tel":"031-905-6966","addr":"경기도 고양시 일산동구 백석동","indutype":"음료식품 - 제과점","category":"food"},{"name":"에스지케이","tel":"031-887-9070","addr":"경기도 고양시 일산동구 백석동 1308번지","indutype":"건강식품 - 인삼제품","category":"food"}]},{"lat":"37.641163129","long":"126.7891612","imageIndex":7,"items":[{"name":"뉴트리웰리스","tel":"070-8639-4106","addr":"경기도 고양시 일산동구 백석동 1305번지","indutype":"건강식품 - 기타건강식품","category":"food"},{"name":"주식회사 태강유통","tel":"031-932-7820","addr":"경기도 고양시 일산동구 백석동 1305번지","indutype":"음료식품 - 기타음료식품","category":"food"}]},{"lat":"37.64954536","long":"126.78598705","imageIndex":7,"items":[{"name":"대박점핑다이어트","tel":"","addr":"경기도 고양시 일산동구 백석동 1224번지","indutype":"건강식품 - 기타건강식품","category":"food"},{"name":"세계로축산","tel":"031-908-4970","addr":"경기도 고양시 일산동구 백석동 1224번지","indutype":"음료식품 - 정육점","category":"food"}]},{"lat":"37.629685149","long":"126.78937532","imageIndex":7,"items":[{"name":"대하유통","tel":"","addr":"경기도 고양시 일산동구 백석동 1125-8번지","indutype":"음료식품 - 기타음료식품","category":"food"}]},{"lat":"37.640383425","long":"126.78648954","imageIndex":7,"items":[{"name":"더happy day","tel":"070-4001-7565","addr":"경기도 고양시 일산동구 백석동 1323번지","indutype":"음료식품 - 제과점","category":"food"},{"name":"씨밀레커피","tel":"070-8785-7130","addr":"경기도 고양시 일산동구 백석동 1323번지","indutype":"음료식품 - 기타음료식품","category":"food"}]},{"lat":"37.643024539","long":"126.78718437","imageIndex":7,"items":[{"name":"던킨도너츠","tel":"031-908-1649","addr":"경기도 고양시 일산동구 백석동 1331번지","indutype":"음료식품 - 제과점","category":"food"},{"name":"아이앤씨","tel":"031-932-0277","addr":"경기도 고양시 일산동구 백석동 1331번지","indutype":"음료식품 - 기타음료식품","category":"food"},{"name":"종로떡집","tel":"031-907-1477","addr":"경기도 고양시 일산동구 백석동 1331번지","indutype":"음료식품 - 제과점","category":"food"}]},{"lat":"37.650325507","long":"126.78889698","imageIndex":7,"items":[{"name":"덤전복","tel":"031-123-4567","addr":"경기도 고양시 일산동구 백석동 1183번지 백송마을3단지아파트","indutype":"음료식품 - 농·축·수산품","category":"food"}]},{"lat":"37.641772239","long":"126.78721065","imageIndex":7,"items":[{"name":"두리수산","tel":"031-907-6799","addr":"경기도 고양시 일산동구 백석동 1309번지","indutype":"음료식품 - 농·축·수산품","category":"food"}]},{"lat":"37.64807683","long":"126.78601398","imageIndex":7,"items":[{"name":"두리식품","tel":"070-7719-8609","addr":"경기도 고양시 일산동구 백석동 1214-2번지","indutype":"음료식품 - 기타음료식품","category":"food"}]},{"lat":"37.643164174","long":"126.789654","imageIndex":7,"items":[{"name":"뚜레쥬르 고양터미널점","tel":"031-936-7499","addr":"경기도 고양시 일산동구 백석동 1242번지","indutype":"음료식품 - 제과점","category":"food"},{"name":"뚜레쥬르 고양터미널점","tel":"031-936-7499","addr":"경기도 고양시 일산동구 백석동 1242번지","indutype":"음료식품 - 제과점","category":"food"},{"name":"메가박스중앙 (주)백석지점","tel":"02-3147-3450","addr":"경기도 고양시 일산동구 백석동 1242번지","indutype":"음료식품 - 기타음료식품","category":"food"},{"name":"바른시선웰니스","tel":"031-819-1575","addr":"경기도 고양시 일산동구 백석동 1242번지","indutype":"건강식품 - 기타건강식품","category":"food"},{"name":"베스킨라빈스 고양터미널점","tel":"031-936-7679","addr":"경기도 고양시 일산동구 백석동 1242번지","indutype":"음료식품 - 제과점","category":"food"},{"name":"빵선생","tel":"031-936-7513","addr":"경기도 고양시 일산동구 백석동 1242번지","indutype":"음료식품 - 제과점","category":"food"},{"name":"세연헬스케어","tel":"","addr":"경기도 고양시 일산동구 백석동 1242번지","indutype":"건강식품 - 기타건강식품","category":"food"},{"name":"참호도과자일산직영점","tel":"031-936-7272","addr":"경기도 고양시 일산동구 백석동 1242번지","indutype":"음료식품 - 제과점","category":"food"}]},{"lat":"37.640490003","long":"126.79060204","imageIndex":7,"items":[{"name":"뚜레쥬르 백석밀라트(2)","tel":"031-905-9845","addr":"경기도 고양시 일산동구 백석동 1300번지","indutype":"음료식품 - 제과점","category":"food"}]},{"lat":"37.638855836","long":"126.78871461","imageIndex":7,"items":[{"name":"레져 프랜드","tel":"","addr":"경기도 고양시 일산동구 백석동 1318번지","indutype":"건강식품 - 기타건강식품","category":"food"}]},{"lat":"37.647552199","long":"126.78982276","imageIndex":7,"items":[{"name":"로스팅구쩜영","tel":"031-000-0000","addr":"경기도 고양시 일산동구 백석동 1166-3번지","indutype":"음료식품 - 기타음료식품","category":"food"}]},{"lat":"37.645802331","long":"126.77901813","imageIndex":7,"items":[{"name":"로이","tel":"031-835-5612","addr":"경기도 고양시 일산동구 백석동 1451-3번지","indutype":"음료식품 - 제과점","category":"food"}]},{"lat":"37.644103382","long":"126.79087502","imageIndex":7,"items":[{"name":"로적유통","tel":"02-904-3682","addr":"경기도 고양시 일산동구 백석동 1239-2번지","indutype":"음료식품 - 기타음료식품","category":"food"}]},{"lat":"37.64466036","long":"126.78503814","imageIndex":7,"items":[{"name":"메디피아","tel":"031-901-4000","addr":"경기도 고양시 일산동구 백석동 1334번지","indutype":"회원제형태 - 건강식품","category":"food"}]},{"lat":"37.647354436","long":"126.79007261","imageIndex":7,"items":[{"name":"몰로 (mollo)","tel":"02-1111-1111","addr":"경기도 고양시 일산동구 백석동 1169-5번지","indutype":"음료식품 - 제과점","category":"food"}]},{"lat":"37.648049036","long":"126.79054653","imageIndex":7,"items":[{"name":"무지개수산","tel":"031-917-8779","addr":"경기도 고양시 일산동구 백석동 1164-4번지","indutype":"음료식품 - 농·축·수산품","category":"food"}]},{"lat":"37.641492318","long":"126.78687155","imageIndex":7,"items":[{"name":"물가안정","tel":"","addr":"경기도 고양시 일산동구 백석동 1309-1번지","indutype":"음료식품 - 농·축·수산품","category":"food"},{"name":"장독대 백석역점","tel":"031-906-5289","addr":"경기도 고양시 일산동구 백석동 1309-1번지","indutype":"음료식품 - 기타음료식품","category":"food"}]},{"lat":"37.646766842","long":"126.78898651","imageIndex":7,"items":[{"name":"미나스(MINAS)","tel":"031-932-4264","addr":"경기도 고양시 일산동구 백석동 1251-4번지","indutype":"음료식품 - 제과점","category":"food"}]},{"lat":"37.650689309","long":"126.79078831","imageIndex":7,"items":[{"name":"민속떡집","tel":"031-903-3898","addr":"경기도 고양시 일산동구 백석동","indutype":"음료식품 - 제과점","category":"food"}]},{"lat":"37.649486024","long":"126.78802687","imageIndex":7,"items":[{"name":"민우야채","tel":"031-111-1111","addr":"경기도 고양시 일산동구 백석동 1183번지 백송마을3단지아파트","indutype":"음료식품 - 농·축·수산품","category":"food"}]},{"lat":"37.640948618","long":"126.79011354","imageIndex":7,"items":[{"name":"바이오스라이프","tel":"031-8755-7500","addr":"경기도 고양시 일산동구 백석동 1303번지","indutype":"건강식품 - 기타건강식품","category":"food"}]},{"lat":"37.647189557","long":"126.79359704","imageIndex":7,"items":[{"name":"백석도서관자판기","tel":"","addr":"경기도 고양시 일산동구 백석동 1231번지","indutype":"음료식품 - 기타음료식품","category":"food"}]},{"lat":"37.648155333","long":"126.78953775","imageIndex":7,"items":[{"name":"백석망고","tel":"031-901-1858","addr":"경기도 고양시 일산동구 백석동 1161-3번지","indutype":"음료식품 - 농·축·수산품","category":"food"}]},{"lat":"37.648604624","long":"126.78887926","imageIndex":7,"items":[{"name":"백송야채","tel":"031-979-3434","addr":"경기도 고양시 일산동구 백석동 1158-2번지","indutype":"음료식품 - 농·축·수산품","category":"food"}]},{"lat":"37.647545012","long":"126.78587955","imageIndex":7,"items":[{"name":"백천상사","tel":"031-903-1024","addr":"경기도 고양시 일산동구 백석동 1210번지","indutype":"음료식품 - 농·축·수산품","category":"food"}]},{"lat":"37.640882989","long":"126.78379153","imageIndex":7,"items":[{"name":"봄나래","tel":"070-8800-2227","addr":"경기도 고양시 일산동구 백석동 1344번지","indutype":"음료식품 - 제과점","category":"food"},{"name":"트렌드웍스 부엌","tel":"","addr":"경기도 고양시 일산동구 백석동 1344번지 흰돌마을5단지아파트","indutype":"음료식품 - 기타음료식품","category":"food"}]},{"lat":"37.645798875","long":"126.78196416","imageIndex":7,"items":[{"name":"분영이네누룽지세상","tel":"","addr":"경기도 고양시 일산동구 백석동 1422-2번지","indutype":"음료식품 - 기타음료식품","category":"food"}]},{"lat":"37.645886257","long":"126.78535183","imageIndex":7,"items":[{"name":"뺑오마담","tel":"070-5001-3624","addr":"경기도 고양시 일산동구 백석동 1288번지","indutype":"음료식품 - 제과점","category":"food"}]},{"lat":"37.647323587","long":"126.78796511","imageIndex":7,"items":[{"name":"쁘띠망쇼","tel":"","addr":"경기도 고양시 일산동구 백석동 1252-10번지","indutype":"음료식품 - 기타음료식품","category":"food"}]},{"lat":"37.650788814","long":"126.78605142","imageIndex":7,"items":[{"name":"삼육식품일산신도시대리점","tel":"031-903-3635","addr":"경기도 고양시 일산동구 백석동 1190번지 백송마을5단지아파트","indutype":"음료식품 - 기타음료식품","category":"food"}]},{"lat":"37.646434958","long":"126.78004735","imageIndex":7,"items":[{"name":"상하우유매일유업고양동부유기농대리점","tel":"031-932-4066","addr":"경기도 고양시 일산동구 백석동 1413-12번지","indutype":"음료식품 - 기타음료식품","category":"food"}]},{"lat":"37.632998677","long":"126.7833502","imageIndex":7,"items":[{"name":"성우상사","tel":"031-902-7250","addr":"경기도 고양시 일산동구 백석동","indutype":"음료식품 - 기타음료식품","category":"food"}]},{"lat":"37.630326289","long":"126.79017781","imageIndex":7,"items":[{"name":"성지축산유통","tel":"031-903-3927","addr":"경기도 고양시 일산동구 백석동 1120-74번지","indutype":"음료식품 - 정육점","category":"food"}]},{"lat":"37.645855592","long":"126.77859873","imageIndex":7,"items":[{"name":"세계로 정육점","tel":"031-903-9995","addr":"경기도 고양시 일산동구 백석동 1452-3번지","indutype":"음료식품 - 정육점","category":"food"}]},{"lat":"37.639830991","long":"126.7898788","imageIndex":7,"items":[{"name":"소문났소 정육점","tel":"031-904-8292","addr":"경기도 고양시 일산동구 백석동 1314번지","indutype":"음료식품 - 정육점","category":"food"}]},{"lat":"37.647968465","long":"126.78587832","imageIndex":7,"items":[{"name":"신선한 주식회사","tel":"031-906-9532","addr":"경기도 고양시 일산동구 백석동 1214-3번지","indutype":"음료식품 - 기타음료식품","category":"food"}]},{"lat":"37.64960383","long":"126.78840047","imageIndex":7,"items":[{"name":"신성축산","tel":"031-975-9255","addr":"경기도 고양시 일산동구 백석동 1183번지","indutype":"음료식품 - 정육점","category":"food"}]},{"lat":"37.646239363","long":"126.78629126","imageIndex":7,"items":[{"name":"신토불이축산","tel":"031-906-6956","addr":"경기도 고양시 일산동구 백석동 1279-12번지","indutype":"음료식품 - 정육점","category":"food"}]},{"lat":"37.643883149","long":"126.7789559","imageIndex":7,"items":[{"name":"안녕제이","tel":"","addr":"경기도 고양시 일산동구 백석동 1443-5번지","indutype":"음료식품 - 기타음료식품","category":"food"}]},{"lat":"37.63927826","long":"126.78814691","imageIndex":7,"items":[{"name":"엠에스글로비즈","tel":"031-911-5772","addr":"경기도 고양시 일산동구 백석동 1319번지","indutype":"음료식품 - 기타음료식품","category":"food"}]},{"lat":"37.644798167","long":"126.7816272","imageIndex":7,"items":[{"name":"열방유통","tel":"031-818-4567","addr":"경기도 고양시 일산동구 백석동 1427번지","indutype":"음료식품 - 농·축·수산품","category":"food"}]},{"lat":"37.644988876","long":"126.77766088","imageIndex":7,"items":[{"name":"와이디커피","tel":"031-000-0000","addr":"경기도 고양시 일산동구 백석동 1458-3번지","indutype":"음료식품 - 기타음료식품","category":"food"}]},{"lat":"37.645272029","long":"126.77968823","imageIndex":7,"items":[{"name":"왕창상회","tel":"031-901-4338","addr":"경기도 고양시 일산동구 백석동 1448번지","indutype":"음료식품 - 농·축·수산품","category":"food"}]},{"lat":"37.649078474","long":"126.79184671","imageIndex":7,"items":[{"name":"우리농산","tel":"031-905-0341","addr":"경기도 고양시 일산동구 백석동 1151-9번지","indutype":"음료식품 - 기타음료식품","category":"food"}]},{"lat":"37.649239552","long":"126.78627122","imageIndex":7,"items":[{"name":"우리떡집","tel":"031-907-7997","addr":"경기도 고양시 일산동구 백석동","indutype":"음료식품 - 제과점","category":"food"}]},{"lat":"37.639321054","long":"126.78691183","imageIndex":7,"items":[{"name":"이음푸드앤컬쳐","tel":"070-7523-6492","addr":"경기도 고양시 일산동구 백석동 1321번지","indutype":"음료식품 - 기타음료식품","category":"food"}]},{"lat":"37.645213905","long":"126.78231714","imageIndex":7,"items":[{"name":"자유로","tel":"031-965-1773","addr":"경기도 고양시 일산동구 백석동 1425-1번지","indutype":"음료식품 - 기타음료식품","category":"food"}]},{"lat":"37.644497048","long":"126.78934427","imageIndex":7,"items":[{"name":"장터상회","tel":"031-903-9229","addr":"경기도 고양시 일산동구 백석동 1263-1번지","indutype":"음료식품 - 농·축·수산품","category":"food"}]},{"lat":"37.648523566","long":"126.78398438","imageIndex":7,"items":[{"name":"전국축산","tel":"031-902-4482","addr":"경기도 고양시 일산동구 백석동 1203-8번지","indutype":"음료식품 - 정육점","category":"food"}]},{"lat":"37.64710438","long":"126.78148439","imageIndex":7,"items":[{"name":"정관장마두역점","tel":"031-905-0389","addr":"경기도 고양시 일산동구 백석동 1351번지 흰돌마을2단지아파트","indutype":"건강식품 - 홍삼제품","category":"food"},{"name":"종로떡집","tel":"031-907-3690","addr":"경기도 고양시 일산동구 백석동 1351번지 흰돌마을2단지아파트","indutype":"음료식품 - 제과점","category":"food"},{"name":"한국인삼공사전시판매장","tel":"031-904-3878","addr":"경기도 고양시 일산동구 백석동 1351번지 흰돌마을2단지아파트","indutype":"건강식품 - 홍삼제품","category":"food"}]},{"lat":"37.6434143","long":"126.78356882","imageIndex":7,"items":[{"name":"정성건강원","tel":"031-904-8911","addr":"경기도 고양시 일산동구 백석동 1349번지","indutype":"건강식품 - 기타건강식품","category":"food"},{"name":"흰돌찬방","tel":"031-902-8789","addr":"경기도 고양시 일산동구 백석동","indutype":"음료식품 - 기타음료식품","category":"food"}]},{"lat":"37.644190022","long":"126.7889599","imageIndex":7,"items":[{"name":"제이","tel":"031-901-2622","addr":"경기도 고양시 일산동구 백석동 1283-1번지","indutype":"회원제형태 - 건강식품","category":"food"}]},{"lat":"37.647051622","long":"126.78704808","imageIndex":7,"items":[{"name":"제주도야지축산","tel":"031-903-1153","addr":"경기도 고양시 일산동구 백석동 1254-3번지","indutype":"음료식품 - 정육점","category":"food"}]},{"lat":"37.631078168","long":"126.7874568","imageIndex":7,"items":[{"name":"주식회사 보검","tel":"02-3158-0466","addr":"경기도 고양시 일산동구 백석동 1117-20번지","indutype":"음료식품 - 기타음료식품","category":"food"},{"name":"주식회사 보검","tel":"031-906-6777","addr":"경기도 고양시 일산동구 백석동 1117-20번지","indutype":"음료식품 - 기타음료식품","category":"food"}]},{"lat":"37.648351984","long":"126.78376959","imageIndex":7,"items":[{"name":"주식회사 크리스마스","tel":"031-994-1983","addr":"경기도 고양시 일산동구 백석동 1202-1번지","indutype":"음료식품 - 기타음료식품","category":"food"}]},{"lat":"37.634242537","long":"126.78362976","imageIndex":7,"items":[{"name":"주식회사하늘채푸드","tel":"031-903-3985","addr":"경기도 고양시 일산동구 백석동 1104-32번지","indutype":"음료식품 - 기타음료식품","category":"food"}]},{"lat":"37.64518946","long":"126.77890666","imageIndex":7,"items":[{"name":"진영상회","tel":"031-905-6309","addr":"경기도 고양시 일산동구 백석동 1455-1번지","indutype":"음료식품 - 농·축·수산품","category":"food"}]},{"lat":"37.649104752","long":"126.79142737","imageIndex":7,"items":[{"name":"찬호팜","tel":"031-901-5670","addr":"경기도 고양시 일산동구 백석동 1152-10번지","indutype":"음료식품 - 농·축·수산품","category":"food"}]},{"lat":"37.643272081","long":"126.77979619","imageIndex":7,"items":[{"name":"챰타이 (Charm Thai)","tel":"031-901-2552","addr":"경기도 고양시 일산동구 백석동 1432-9번지","indutype":"음료식품 - 기타음료식품","category":"food"}]},{"lat":"37.648794771","long":"126.78939995","imageIndex":7,"items":[{"name":"청춘야채가게","tel":"031-813-0914","addr":"경기도 고양시 일산동구 백석동 1157-6번지","indutype":"음료식품 - 농·축·수산품","category":"food"}]},{"lat":"37.642823416","long":"126.78076062","imageIndex":7,"items":[{"name":"초가집건강원","tel":"031-905-1958","addr":"경기도 고양시 일산동구 백석동 1430-2번지","indutype":"건강식품 - 기타건강식품","category":"food"}]},{"lat":"37.648460667","long":"126.78407522","imageIndex":7,"items":[{"name":"초원농장","tel":"031-903-5095","addr":"경기도 고양시 일산동구 백석동 1203-7번지","indutype":"음료식품 - 농·축·수산품","category":"food"}]},{"lat":"37.648905988","long":"126.78615887","imageIndex":7,"items":[{"name":"카페Dal.ssa (카페달싸)","tel":"031-905-5050","addr":"경기도 고양시 일산동구 백석동 1226-2번지","indutype":"음료식품 - 제과점","category":"food"}]},{"lat":"37.643689675","long":"126.78632133","imageIndex":7,"items":[{"name":"코코호도(백석점)","tel":"031-816-5559","addr":"경기도 고양시 일산동구 백석동 1332-1번지","indutype":"음료식품 - 제과점","category":"food"}]},{"lat":"37.644357311","long":"126.7819571","imageIndex":7,"items":[{"name":"코피발리","tel":"031-904-5460","addr":"경기도 고양시 일산동구 백석동 1427-7번지","indutype":"음료식품 - 기타음료식품","category":"food"}]},{"lat":"37.640298182","long":"126.78915234","imageIndex":7,"items":[{"name":"타르타르 일산백석점","tel":"031-1800-2562","addr":"경기도 고양시 일산동구 백석동 1313번지","indutype":"음료식품 - 제과점","category":"food"}]},{"lat":"37.646940288","long":"126.78046508","imageIndex":7,"items":[{"name":"태산롤리폴리","tel":"031-905-6199","addr":"경기도 고양시 일산동구 백석동 1412-1번지","indutype":"음료식품 - 기타음료식품","category":"food"}]},{"lat":"37.643606166","long":"126.78018043","imageIndex":7,"items":[{"name":"파마산(PARMESAN)","tel":"","addr":"경기도 고양시 일산동구 백석동 1433번지","indutype":"음료식품 - 기타음료식품","category":"food"}]},{"lat":"37.646130658","long":"126.78112469","imageIndex":7,"items":[{"name":"한국상사","tel":"031-932-1433","addr":"경기도 고양시 일산동구 백석동 1416-2번지","indutype":"음료식품 - 기타음료식품","category":"food"}]},{"lat":"37.643575286","long":"126.78781729","imageIndex":7,"items":[{"name":"홍삼미인","tel":"031-906-1303","addr":"경기도 고양시 일산동구 백석동 1297-2번지","indutype":"회원제형태 - 건강식품","category":"food"}]}]