[{"lat":"37.082203047","long":"126.81658475","imageIndex":8,"items":[{"name":"경희삼성한의원","tel":"031-358-3633","addr":"경기도 화성시 우정읍 조암리 340-29번지 2층 전체","indutype":"의원 - 한의원","category":"medical"}]},{"lat":"37.081814018","long":"126.81558477","imageIndex":8,"items":[{"name":"경희제일한의원","tel":"031-361-3536","addr":"경기도 화성시 우정읍 조암리 334-8번지 2층","indutype":"의원 - 한의원","category":"medical"},{"name":"조암약국","tel":"031-351-0483","addr":"경기도 화성시 우정읍 조암리 334-8번지","indutype":"약국 - 약국","category":"medical"}]},{"lat":"37.082175397","long":"126.81619119","imageIndex":8,"items":[{"name":"구인한의원","tel":"031-351-1500","addr":"경기도 화성시 우정읍 조암리 340-12번지","indutype":"의원 - 한의원","category":"medical"},{"name":"조암미소치과의원","tel":"031-351-2770","addr":"경기도 화성시 우정읍 조암리 340-12번지 2층","indutype":"의원 - 치과의원","category":"medical"}]},{"lat":"37.082538128","long":"126.81766359","imageIndex":8,"items":[{"name":"대성약국","tel":"031-351-0533","addr":"경기도 화성시 우정읍 조암리 349-3번지","indutype":"약국 - 약국","category":"medical"}]},{"lat":"37.081588879","long":"126.81566405","imageIndex":8,"items":[{"name":"뿌리깊은치과","tel":"031-351-2875","addr":"경기도 화성시 우정읍 조암리 327-1번지 3층","indutype":"의원 - 치과의원","category":"medical"}]},{"lat":"37.081842007","long":"126.81619201","imageIndex":8,"items":[{"name":"서울바른마취통증의학과","tel":"031-358-1275","addr":"경기도 화성시 우정읍 조암리 311-1번지 2,3층","indutype":"의원 - 의원","category":"medical"}]},{"lat":"37.082059532","long":"126.81700122","imageIndex":8,"items":[{"name":"서울의원","tel":"031-358-8275","addr":"경기도 화성시 우정읍 조암리 346","indutype":"의원 - 의원","category":"medical"}]},{"lat":"37.082366804","long":"126.81758528","imageIndex":8,"items":[{"name":"조암동의보감한의원","tel":"031-351-6565","addr":"경기도 화성시 우정읍 조암리 349-17번지","indutype":"의원 - 한의원","category":"medical"}]},{"lat":"37.083036172","long":"126.81924814","imageIndex":8,"items":[{"name":"조암정형외과","tel":"031-358-7700","addr":"경기도 화성시 우정읍 조암리 271-18번지","indutype":"의원 - 의원","category":"medical"}]},{"lat":"37.085253074","long":"126.81944524","imageIndex":8,"items":[{"name":"홍익동물병원","tel":"031-358-6151","addr":"경기도 화성시 우정읍 조암리 216-15번지 1층","indutype":"기타의료기관 - 동물병원","category":"medical"}]},{"lat":"37.086281385","long":"126.82016257","imageIndex":8,"items":[{"name":"홍익메디칼동물병원","tel":"031-358-0200","addr":"경기도 화성시 우정읍 조암리 230-9번지","indutype":"기타의료기관 - 동물병원","category":"medical"}]}]