[{"lat":"37.2979808249","long":"126.8840405707","imageIndex":7,"items":[{"name":"삼천리하이퍼마켓","tel":"031-438-0214","addr":"경기도 안산시 상록구 팔곡이동 379번지","indutype":"도매 및 소매업 - 슈퍼담배","category":"mart"}]},{"lat":"37.297450718","long":"126.88554143","imageIndex":7,"items":[{"name":"삼천리하이퍼마켓","tel":"031-438-0214","addr":"경기도 안산시 상록구 팔곡이동 370번지","indutype":"유통업 영리 - 슈퍼마켓","category":"mart"}]},{"lat":"37.296729621","long":"126.88526059","imageIndex":7,"items":[{"name":"열린마트","tel":"031-502-4064","addr":"경기도 안산시 상록구 팔곡이동 405-9번지 1층","indutype":"유통업 영리 - 슈퍼마켓","category":"mart"}]},{"lat":"37.294646258","long":"126.88326764","imageIndex":7,"items":[{"name":"일해할인마트","tel":"031-502-0241","addr":"경기도 안산시 상록구 팔곡이동 438-9번지 그린타운3차 103호","indutype":"유통업 영리 - 슈퍼마켓","category":"mart"}]},{"lat":"37.296341551","long":"126.88462962","imageIndex":7,"items":[{"name":"제일유통","tel":"031-487-9800","addr":"경기도 안산시 상록구 팔곡이동 산52-5번지","indutype":"유통업 영리 - 슈퍼마켓","category":"mart"}]},{"lat":"37.29472982","long":"126.88573738","imageIndex":7,"items":[{"name":"주식회사상록웰가","tel":"031-408-8759","addr":"경기도 안산시 상록구 팔곡이동 414-3번지","indutype":"유통업 영리 - 슈퍼마켓","category":"mart"}]},{"lat":"37.293456759","long":"126.88312291","imageIndex":7,"items":[{"name":"주신마트","tel":"031-438-8007","addr":"경기도 안산시 상록구 팔곡이동 472-4번지 1층 101호","indutype":"유통업 영리 - 슈퍼마켓","category":"mart"}]},{"lat":"37.294286156","long":"126.88357271","imageIndex":7,"items":[{"name":"중앙할인마트","tel":"031-437-5702","addr":"경기도 안산시 상록구 팔곡이동 440-1번지 101호","indutype":"유통업 영리 - 슈퍼마켓","category":"mart"}]}]