[{"lat":"37.338981444","long":"127.18267966","imageIndex":4,"items":[{"name":"1686라운지","tel":"031-336-5313","addr":"경기도 용인시 처인구 모현읍 동림리 71번지","indutype":"일반휴게음식 - 일반한식","category":"restaurant"}]},{"lat":"37.3354264","long":"127.25461837","imageIndex":4,"items":[{"name":"49포차","tel":"031-333-6322","addr":"경기도 용인시 처인구 모현읍 왕산리 494-11번지 1층","indutype":"일반휴게음식 - 일반한식","category":"restaurant"},{"name":"국가대표고깃간","tel":"031-322-2353","addr":"경기도 용인시 처인구 모현읍 왕산리 494-11번지 3층","indutype":"일반휴게음식 - 일반한식","category":"restaurant"},{"name":"미소라멘하하돈까스","tel":"031-332-3391","addr":"경기도 용인시 처인구 모현읍 왕산리494-11","indutype":"일반휴게음식 - 스넥","category":"restaurant"}]},{"lat":"37.336126928","long":"127.25142729","imageIndex":4,"items":[{"name":"7080포차","tel":"031-323-2408","addr":"경기도 용인시 처인구 모현읍 왕산리 794-8번지","indutype":"일반휴게음식 - 주점","category":"restaurant"},{"name":"돈치킨 용인외대점","tel":"031-333-9982","addr":"경기도 용인시 처인구 모현읍 왕산리 794-8번지","indutype":"일반휴게음식 - 일반한식","category":"restaurant"},{"name":"밥먹는포차","tel":"031-322-8108","addr":"경기도 용인시 처인구 모현읍 왕산리 794-8번지","indutype":"일반휴게음식 - 일반한식","category":"restaurant"},{"name":"옛날야채곱창","tel":"031-333-6203","addr":"경기도 용인시 처인구 모현읍 왕산리 794-8번지","indutype":"일반휴게음식 - 일반한식","category":"restaurant"}]},{"lat":"37.332483682","long":"127.24861695","imageIndex":4,"items":[{"name":"9092연탄집","tel":"031-333-7720","addr":"경기도 용인시 처인구 모현읍 왕산리 467-1번지 103호","indutype":"일반휴게음식 - 일반한식","category":"restaurant"},{"name":"맛있는밥집","tel":"031-322-5857","addr":"경기도 용인시 처인구 모현읍 왕산리 467-1번지 태성빌딩 104호","indutype":"일반휴게음식 - 일반한식","category":"restaurant"},{"name":"산채가","tel":"031-321-6564","addr":"경기도 용인시 처인구 모현읍 왕산리 467-1번지 1층 외2필지","indutype":"일반휴게음식 - 일반한식","category":"restaurant"},{"name":"열라구어","tel":"031-334-8719","addr":"경기도 용인시 처인구 모현읍 왕산리 467-1번지 대성빌딩 101호,102호 외2필지","indutype":"일반휴게음식 - 일반한식","category":"restaurant"}]},{"lat":"37.336400256","long":"127.24998381","imageIndex":4,"items":[{"name":"BHC(비에이치씨치킨)","tel":"031-332-3324","addr":"경기도 용인시 처인구 모현읍 왕산리794-7","indutype":"일반휴게음식 - 스넥","category":"restaurant"},{"name":"피그돼지","tel":"031-000-0000","addr":"경기도 용인시 처인구 모현읍 왕산리 794-7번지","indutype":"일반휴게음식 - 일반한식","category":"restaurant"}]},{"lat":"37.339870279","long":"127.17262708","imageIndex":4,"items":[{"name":"가마골왕순대전골","tel":"031-333-1198","addr":"경기도 용인시 처인구 모현읍 능원리155-2","indutype":"일반휴게음식 - 일반한식","category":"restaurant"}]},{"lat":"37.341425953","long":"127.17476344","imageIndex":4,"items":[{"name":"가마솥","tel":"","addr":"경기도 용인시 처인구 모현읍 능원리 29-3번지 1층","indutype":"일반휴게음식 - 일반한식","category":"restaurant"},{"name":"오느른김밥","tel":"031-336-4879","addr":"경기도 용인시 처인구 모현읍 능원리 29-3번지 1층","indutype":"일반휴게음식 - 일반한식","category":"restaurant"},{"name":"청운","tel":"031-333-6877","addr":"경기도 용인시 처인구 모현읍 능원리 29-3번지 외2필지","indutype":"일반휴게음식 - 일반한식","category":"restaurant"}]},{"lat":"37.341646713","long":"127.23076009","imageIndex":4,"items":[{"name":"가마솥흑염소탕","tel":"031-338-5302","addr":"경기도 용인시 처인구 모현읍 일산리 560-4번지","indutype":"일반휴게음식 - 일반한식","category":"restaurant"}]},{"lat":"37.340705855","long":"127.25058472","imageIndex":4,"items":[{"name":"강촌","tel":"031-332-8966","addr":"경기도 용인시 처인구 모현읍 왕산리774-11","indutype":"일반휴게음식 - 일반한식","category":"restaurant"},{"name":"동태사랑","tel":"070-2699-0807","addr":"경기도 용인시 처인구 모현읍 왕산리 774-11번지","indutype":"일반휴게음식 - 일반한식","category":"restaurant"},{"name":"뭉치네","tel":"031-321-1210","addr":"경기도 용인시 처인구 모현읍 왕산리 774-11번지","indutype":"일반휴게음식 - 일반한식","category":"restaurant"},{"name":"준상이네치킨호프","tel":"031-111-1111","addr":"경기도 용인시 처인구 모현읍 왕산리 774-11번지","indutype":"일반휴게음식 - 스넥","category":"restaurant"}]},{"lat":"37.342091289","long":"127.17573547","imageIndex":4,"items":[{"name":"고가네아구뽈찜","tel":"","addr":"경기도 용인시 처인구 모현읍 능원리 35-6번지 1층","indutype":"일반휴게음식 - 일반한식","category":"restaurant"},{"name":"수제돈가스","tel":"031-334-2421","addr":"경기도 용인시 처인구 모현읍 능원리 35-6번지 105호","indutype":"일반휴게음식 - 일반한식","category":"restaurant"},{"name":"아저씨네왕족","tel":"031-321-6512","addr":"경기도 용인시 처인구 모현읍 능원리 35-6번지","indutype":"일반휴게음식 - 일반한식","category":"restaurant"},{"name":"킹콩부대찌개 모현능원점","tel":"031-333-5110","addr":"경기도 용인시 처인구 모현읍 능원리 35-6번지 1층","indutype":"일반휴게음식 - 일반한식","category":"restaurant"}]},{"lat":"37.342540772","long":"127.17643618","imageIndex":4,"items":[{"name":"고기식당 (1951)","tel":"02-1577-0000","addr":"경기도 용인시 처인구 모현읍 능원리 15-20번지 1층 101호","indutype":"일반휴게음식 - 일반한식","category":"restaurant"},{"name":"조개마루","tel":"031-714-7330","addr":"경기도 용인시 처인구 모현읍 능원리 15-20번지 103호","indutype":"일반휴게음식 - 일반한식","category":"restaurant"}]},{"lat":"37.331595858","long":"127.24659431","imageIndex":4,"items":[{"name":"고향촌","tel":"031-339-3263","addr":"경기도 용인시 처인구 모현읍 왕산리 413-2번지","indutype":"일반휴게음식 - 일반한식","category":"restaurant"}]},{"lat":"37.323346711","long":"127.24455943","imageIndex":4,"items":[{"name":"국수랑국밥","tel":"031-339-1764","addr":"경기도 용인시 처인구 모현읍 갈담리 332-6번지 1층","indutype":"일반휴게음식 - 일반한식","category":"restaurant"}]},{"lat":"37.343367993","long":"127.17760047","imageIndex":4,"items":[{"name":"군산식당","tel":"031-339-6878","addr":"경기도 용인시 처인구 모현읍 능원리 16-7번지 1층 일부","indutype":"일반휴게음식 - 일반한식","category":"restaurant"},{"name":"능골한식부페","tel":"031-333-1145","addr":"경기도 용인시 처인구 모현읍 능원리 16-7번지","indutype":"일반휴게음식 - 일반한식","category":"restaurant"},{"name":"이철의생태랑동태랑","tel":"031-339-6266","addr":"경기도 용인시 처인구 모현읍 능원리 16-7","indutype":"일반휴게음식 - 일반한식","category":"restaurant"}]},{"lat":"37.346867098","long":"127.25139496","imageIndex":4,"items":[{"name":"그대로곰탕","tel":"031-339-2662","addr":"경기도 용인시 처인구 모현읍 왕산리 619-4번지","indutype":"일반휴게음식 - 일반한식","category":"restaurant"}]},{"lat":"37.334925542","long":"127.25286768","imageIndex":4,"items":[{"name":"금요일오후","tel":"031-334-3346","addr":"경기도 용인시 처인구 모현읍 왕산리 480-5번지","indutype":"일반휴게음식 - 일반한식","category":"restaurant"}]},{"lat":"37.341011356","long":"127.17485277","imageIndex":4,"items":[{"name":"기와집","tel":"031-334-4300","addr":"경기도 용인시 처인구 모현읍 능원리 174-2번지","indutype":"일반휴게음식 - 일반한식","category":"restaurant"}]},{"lat":"37.336007112","long":"127.252702","imageIndex":4,"items":[{"name":"김가네","tel":"031-323-2177","addr":"경기도 용인시 처인구 모현읍 왕산리507-5","indutype":"일반휴게음식 - 일반한식","category":"restaurant"},{"name":"신통치킨","tel":"031-334-9292","addr":"경기도 용인시 처인구 모현읍 왕산리 507-5번지 1층","indutype":"일반휴게음식 - 스넥","category":"restaurant"},{"name":"신통치킨","tel":"031-334-9292","addr":"경기도 용인시 처인구 모현읍 왕산리 507-5번지","indutype":"일반휴게음식 - 스넥","category":"restaurant"},{"name":"주주클럽","tel":"031-332-4885","addr":"경기도 용인시 처인구 모현읍 왕산리 507-5번지 2층","indutype":"일반휴게음식 - 주점","category":"restaurant"}]},{"lat":"37.324679884","long":"127.26175815","imageIndex":4,"items":[{"name":"깊은산속다람쥐","tel":"031-323-1114","addr":"경기도 용인시 처인구 모현읍 갈담리113-3","indutype":"일반휴게음식 - 일반한식","category":"restaurant"}]},{"lat":"37.332707902","long":"127.24911416","imageIndex":4,"items":[{"name":"까로체리아","tel":"031-473-0600","addr":"경기도 용인시 처인구 모현읍 왕산리 468-6번지 플러스빌","indutype":"일반휴게음식 - 스넥","category":"restaurant"},{"name":"까로체리아","tel":"070-4242-1118","addr":"경기도 용인시 처인구 모현읍 왕산리 468-6번지 1층 플러스빌","indutype":"일반휴게음식 - 서양음식","category":"restaurant"}]},{"lat":"37.33240184","long":"127.24897776","imageIndex":4,"items":[{"name":"꼬꼬치킨","tel":"031-332-3882","addr":"경기도 용인시 처인구 모현읍 왕산리465-1","indutype":"일반휴게음식 - 주점","category":"restaurant"}]},{"lat":"37.335508546","long":"127.25412214","imageIndex":4,"items":[{"name":"꼬지사께","tel":"031-339-5204","addr":"경기도 용인시 처인구 모현읍 왕산리 494-3번지","indutype":"일반휴게음식 - 일반한식","category":"restaurant"},{"name":"샤브향","tel":"031-339-4985","addr":"경기도 용인시 처인구 모현읍 왕산리 494-3번지 2층","indutype":"일반휴게음식 - 일반한식","category":"restaurant"},{"name":"썸 (SSOME)","tel":"031-339-4985","addr":"경기도 용인시 처인구 모현읍 왕산리 494-3번지 3층","indutype":"일반휴게음식 - 서양음식","category":"restaurant"},{"name":"청춘연가","tel":"031-333-1622","addr":"경기도 용인시 처인구 모현읍 왕산리 494-3번지","indutype":"일반휴게음식 - 일반한식","category":"restaurant"}]},{"lat":"37.343428988","long":"127.22695106","imageIndex":4,"items":[{"name":"나드리한식뷔페","tel":"031-338-9540","addr":"경기도 용인시 처인구 모현읍 매산리 204-1번지","indutype":"일반휴게음식 - 일반한식","category":"restaurant"}]},{"lat":"37.334649704","long":"127.25547335","imageIndex":4,"items":[{"name":"낙지도가","tel":"031-333-7988","addr":"경기도 용인시 처인구 모현읍 왕산리 486-2번지 글로벌타운 B동 101호","indutype":"일반휴게음식 - 일반한식","category":"restaurant"}]},{"lat":"37.343872636","long":"127.22581256","imageIndex":4,"items":[{"name":"내고향장터정육식당","tel":"031-333-9996","addr":"경기도 용인시 처인구 모현읍 매산리 207번지 1층","indutype":"일반휴게음식 - 일반한식","category":"restaurant"}]},{"lat":"37.323348183","long":"127.24383737","imageIndex":4,"items":[{"name":"네거리쉼터","tel":"031-334-5045","addr":"경기도 용인시 처인구 모현읍 갈담리 332-10번지","indutype":"일반휴게음식 - 일반한식","category":"restaurant"}]},{"lat":"37.354229533","long":"127.24650944","imageIndex":4,"items":[{"name":"네네치킨경기용인시모현점","tel":"031-332-3434","addr":"경기도 용인시 처인구 모현읍 왕산리 678-3번지","indutype":"일반휴게음식 - 일반한식","category":"restaurant"},{"name":"정가네해물탕","tel":"031-322-5559","addr":"경기도 용인시 처인구 모현읍 왕산리 678-3번지 찐빵집 1동 101호","indutype":"일반휴게음식 - 일반한식","category":"restaurant"}]},{"lat":"37.329537424","long":"127.18357109","imageIndex":4,"items":[{"name":"노인비테이션리콰이어드","tel":"070-8803-0202","addr":"경기도 용인시 처인구 모현읍 동림리 322-2번지 나동 지하 1호","indutype":"일반휴게음식 - 서양음식","category":"restaurant"}]},{"lat":"37.314763468","long":"127.25583548","imageIndex":4,"items":[{"name":"느티나무","tel":"","addr":"경기도 용인시 처인구 모현읍 초부리 158-1번지 1층","indutype":"일반휴게음식 - 일반한식","category":"restaurant"}]},{"lat":"37.340903841","long":"127.25069822","imageIndex":4,"items":[{"name":"늘봄가든","tel":"031-334-7943","addr":"경기도 용인시 처인구 모현읍 왕산리 774-14번지 외3필지","indutype":"일반휴게음식 - 일반한식","category":"restaurant"}]},{"lat":"37.340730842","long":"127.17567593","imageIndex":4,"items":[{"name":"능골집","tel":"031-334-1303","addr":"경기도 용인시 처인구 모현읍 능원리 182-1번지 1층","indutype":"일반휴게음식 - 일반한식","category":"restaurant"},{"name":"안동찜닭코다리","tel":"031-332-3329","addr":"경기도 용인시 처인구 모현읍 능원리 182-1번지","indutype":"일반휴게음식 - 일반한식","category":"restaurant"}]},{"lat":"37.336705042","long":"127.25072957","imageIndex":4,"items":[{"name":"님이랑수제돈까스","tel":"070-7792-0429","addr":"경기도 용인시 처인구 모현읍 왕산리 793-3번지 1층","indutype":"일반휴게음식 - 일반한식","category":"restaurant"},{"name":"도야","tel":"031-338-0429","addr":"경기도 용인시 처인구 모현읍 왕산리 793-3번지 1층 일부","indutype":"일반휴게음식 - 일반한식","category":"restaurant"},{"name":"청년비어","tel":"031-339-0321","addr":"경기도 용인시 처인구 모현읍 왕산리 793-3번지 1층","indutype":"일반휴게음식 - 일반한식","category":"restaurant"},{"name":"피치데이","tel":"031-332-9950","addr":"경기도 용인시 처인구 모현읍 왕산리 793-3번지 1층","indutype":"일반휴게음식 - 스넥","category":"restaurant"}]},{"lat":"37.335289348","long":"127.25550935","imageIndex":4,"items":[{"name":"다방목화","tel":"031-339-6001","addr":"경기도 용인시 처인구 모현읍 왕산리 490","indutype":"일반휴게음식 - 서양음식","category":"restaurant"}]},{"lat":"37.335680863","long":"127.25359236","imageIndex":4,"items":[{"name":"더더피자","tel":"031-334-0788","addr":"경기도 용인시 처인구 모현읍 왕산리 496-1번지 1층","indutype":"일반휴게음식 - 서양음식","category":"restaurant"}]},{"lat":"37.331729436","long":"127.16304034","imageIndex":4,"items":[{"name":"더커피빌리지","tel":"031-334-0355","addr":"경기도 용인시 처인구 모현읍 오산리 34-7번지 외1필지 가동 2층 1","indutype":"일반휴게음식 - 서양음식","category":"restaurant"}]},{"lat":"37.337118471","long":"127.24689426","imageIndex":4,"items":[{"name":"도노떡볶이","tel":"031-333-5958","addr":"경기도 용인시 처인구 모현읍 일산리 112-67번지 모현오페라음악학원 1층 103호","indutype":"일반휴게음식 - 일반한식","category":"restaurant"},{"name":"벨린다(Berinda)","tel":"031-339-9350","addr":"경기도 용인시 처인구 모현읍 일산리 112-67번지 모현오페라음악학원 106호","indutype":"일반휴게음식 - 서양음식","category":"restaurant"}]},{"lat":"37.312208357","long":"127.24098167","imageIndex":4,"items":[{"name":"돈가네옛날김치돼지찌개","tel":"031-334-6171","addr":"경기도 용인시 처인구 모현읍 초부리 828-16번지 1층","indutype":"일반휴게음식 - 일반한식","category":"restaurant"}]},{"lat":"37.320238639","long":"127.171545","imageIndex":4,"items":[{"name":"돌담","tel":"031-334-0545","addr":"경기도 용인시 처인구 모현읍 능원리 528번지 1층","indutype":"일반휴게음식 - 일반한식","category":"restaurant"}]},{"lat":"37.338981787","long":"127.18245397","imageIndex":4,"items":[{"name":"돌쇠셀프바베큐","tel":"031-338-2850","addr":"경기도 용인시 처인구 모현읍 동림리70-2","indutype":"일반휴게음식 - 일반한식","category":"restaurant"}]},{"lat":"37.338402819","long":"127.2531726","imageIndex":4,"items":[{"name":"동글동글","tel":"","addr":"경기도 용인시 처인구 모현읍 왕산리 529-3번지 1층 101호","indutype":"일반휴게음식 - 서양음식","category":"restaurant"}]},{"lat":"37.33834574","long":"127.19723516","imageIndex":4,"items":[{"name":"동림식당","tel":"031-334-0369","addr":"경기도 용인시 처인구 모현읍 동림리 160-3번지","indutype":"일반휴게음식 - 일반한식","category":"restaurant"}]},{"lat":"37.342674546","long":"127.17737316","imageIndex":4,"items":[{"name":"동북인","tel":"070-4244-4239","addr":"경기도 용인시 처인구 모현읍 능원리 15-6번지 1층","indutype":"일반휴게음식 - 스넥","category":"restaurant"},{"name":"면류관","tel":"031-335-6460","addr":"경기도 용인시 처인구 모현읍 능원리 15-6번지 1층","indutype":"일반휴게음식 - 중국식","category":"restaurant"},{"name":"얼큰양푼이네","tel":"031-335-6460","addr":"경기도 용인시 처인구 모현읍 능원리 15-6번지 경인셀프세차 103호","indutype":"일반휴게음식 - 일반한식","category":"restaurant"},{"name":"춘천닭갈비","tel":"031-321-9252","addr":"경기도 용인시 처인구 모현읍 능원리 15-6번지 1층","indutype":"일반휴게음식 - 일반한식","category":"restaurant"},{"name":"하코비참치포차","tel":"031-337-1720","addr":"경기도 용인시 처인구 모현읍 능원리 15-6","indutype":"일반휴게음식 - 일식·회집","category":"restaurant"}]},{"lat":"37.343454504","long":"127.18001571","imageIndex":4,"items":[{"name":"동진각","tel":"031-334-0869","addr":"경기도 용인시 처인구 모현읍 동림리 48","indutype":"일반휴게음식 - 중국식","category":"restaurant"}]},{"lat":"37.342813696","long":"127.25083992","imageIndex":4,"items":[{"name":"동해생태찌게","tel":"031-322-3498","addr":"경기도 용인시 처인구 모현읍 왕산리 771-9","indutype":"일반휴게음식 - 일반한식","category":"restaurant"}]},{"lat":"37.337455161","long":"127.24528169","imageIndex":4,"items":[{"name":"드루와","tel":"031-334-1079","addr":"경기도 용인시 처인구 모현읍 일산리 112-14번지 2층","indutype":"일반휴게음식 - 일반한식","category":"restaurant"}]},{"lat":"37.333843293","long":"127.24906144","imageIndex":4,"items":[{"name":"떡볶이가족","tel":"031-332-5171","addr":"경기도 용인시 처인구 모현읍 왕산리 428-4번지 A동 1층","indutype":"일반휴게음식 - 일반한식","category":"restaurant"},{"name":"원조장충동왕족발","tel":"031-322-1006","addr":"경기도 용인시 처인구 모현읍 왕산리 428-4","indutype":"일반휴게음식 - 스넥","category":"restaurant"}]},{"lat":"37.337121088","long":"127.24997489","imageIndex":4,"items":[{"name":"또래오래","tel":"031-322-8292","addr":"경기도 용인시 처인구 모현읍 왕산리 790-3번지 외2필지","indutype":"일반휴게음식 - 스넥","category":"restaurant"},{"name":"신풍닭발","tel":"031-8097-3588","addr":"경기도 용인시 처인구 모현읍 왕산리 790-3번지","indutype":"일반휴게음식 - 일반한식","category":"restaurant"}]},{"lat":"37.338508006","long":"127.25028411","imageIndex":4,"items":[{"name":"또봉이통닭","tel":"031-328-8602","addr":"경기도 용인시 처인구 모현읍 왕산리 782-1번지","indutype":"일반휴게음식 - 일반한식","category":"restaurant"}]},{"lat":"37.336595998","long":"127.25116929","imageIndex":4,"items":[{"name":"또와유명태간장조림","tel":"031-332-0538","addr":"경기도 용인시 처인구 모현읍 왕산리 793-13번지 1층 1호","indutype":"일반휴게음식 - 일반한식","category":"restaurant"},{"name":"진미바지락칼국수","tel":"031-332-6980","addr":"경기도 용인시 처인구 모현읍 왕산리 793-13번지 1층","indutype":"일반휴게음식 - 일반한식","category":"restaurant"},{"name":"하오츠양꼬치","tel":"031-332-5792","addr":"경기도 용인시 처인구 모현읍 왕산리 793-13번지 1층","indutype":"일반휴게음식 - 중국식","category":"restaurant"},{"name":"훠궈야샤브야","tel":"031-336-8876","addr":"경기도 용인시 처인구 모현읍 왕산리 793-13번지 1층","indutype":"일반휴게음식 - 일반한식","category":"restaurant"}]},{"lat":"37.33548094","long":"127.25439287","imageIndex":4,"items":[{"name":"뚱바이춘천집","tel":"031-339-9289","addr":"경기도 용인시 처인구 모현읍 왕산리494-1","indutype":"일반휴게음식 - 일반한식","category":"restaurant"}]},{"lat":"37.320868584","long":"127.1519836","imageIndex":4,"items":[{"name":"라라카페","tel":"031-322-5006","addr":"경기도 용인시 처인구 모현읍 오산리 307번지 1층","indutype":"일반휴게음식 - 서양음식","category":"restaurant"}]},{"lat":"37.341200126","long":"127.1751579","imageIndex":4,"items":[{"name":"라쁘띠카페","tel":"03-100-0000","addr":"경기도 용인시 처인구 모현읍 능원리 25-5번지 1층 일부","indutype":"일반휴게음식 - 서양음식","category":"restaurant"},{"name":"만원초밥","tel":"031-322-5387","addr":"경기도 용인시 처인구 모현읍 능원리 25-5번지 1층","indutype":"일반휴게음식 - 일반한식","category":"restaurant"},{"name":"피자수퍼(능골점)","tel":"031-336-3373","addr":"경기도 용인시 처인구 모현읍 능원리 25-5번지 1층","indutype":"일반휴게음식 - 서양음식","category":"restaurant"}]},{"lat":"37.356119199","long":"127.22961868","imageIndex":4,"items":[{"name":"라온터","tel":"070-8173-1794","addr":"경기도 용인시 처인구 모현읍 일산리 416-2번지 1층","indutype":"일반휴게음식 - 서양음식","category":"restaurant"}]},{"lat":"37.337506465","long":"127.16849168","imageIndex":4,"items":[{"name":"라운지사삼 (Lounge43)","tel":"031-767-4626","addr":"경기도 용인시 처인구 모현읍 능원리 140-2번지 1층 일부","indutype":"일반휴게음식 - 서양음식","category":"restaurant"}]},{"lat":"37.331843669","long":"127.15845947","imageIndex":4,"items":[{"name":"레뒤마고(갤러리카페)","tel":"031-111-1111","addr":"경기도 용인시 처인구 모현읍 오산리 155-80번지 상가동 102호","indutype":"일반휴게음식 - 서양음식","category":"restaurant"}]},{"lat":"37.336342198","long":"127.25189065","imageIndex":4,"items":[{"name":"로뎀식당","tel":"031-321-2066","addr":"경기도 용인시 처인구 모현읍 왕산리 945-18번지 원당프라자 102호","indutype":"일반휴게음식 - 일반한식","category":"restaurant"},{"name":"무한포차","tel":"031-334-9747","addr":"경기도 용인시 처인구 모현읍 왕산리 945-18번지 원당프라자 2층 201호","indutype":"일반휴게음식 - 주점","category":"restaurant"},{"name":"옛터","tel":"031-332-3944","addr":"경기도 용인시 처인구 모현읍 왕산리 945-18번지 원당프라자 202호","indutype":"일반휴게음식 - 일반한식","category":"restaurant"}]},{"lat":"37.336734972","long":"127.2493417","imageIndex":4,"items":[{"name":"롯데리아 용인모현점","tel":"031-333-4904","addr":"경기도 용인시 처인구 모현읍 왕산리 801-14번지 외1필지 1층","indutype":"일반휴게음식 - 서양음식","category":"restaurant"}]},{"lat":"37.336459899","long":"127.25162021","imageIndex":4,"items":[{"name":"리오","tel":"070-2011-3684","addr":"경기도 용인시 처인구 모현읍 왕산리 945-43번지 신보빌딩 A-3호","indutype":"일반휴게음식 - 일반한식","category":"restaurant"},{"name":"밀라노","tel":"031-333-0809","addr":"경기도 용인시 처인구 모현읍 왕산리 945-43번지 신보빌딩 1층","indutype":"일반휴게음식 - 일반한식","category":"restaurant"},{"name":"송엘림치킨","tel":"070-8722-8000","addr":"경기도 용인시 처인구 모현읍 왕산리 945-43번지","indutype":"일반휴게음식 - 스넥","category":"restaurant"},{"name":"오뚜기네","tel":"031-334-7682","addr":"경기도 용인시 처인구 모현읍 왕산리 945-43번지 신보빌딩 1층","indutype":"일반휴게음식 - 일반한식","category":"restaurant"},{"name":"황소숯불생막창","tel":"031-337-1288","addr":"경기도 용인시 처인구 모현읍 왕산리 945-43번지 신보빌딩 1층","indutype":"일반휴게음식 - 일반한식","category":"restaurant"}]},{"lat":"37.332842419","long":"127.24941926","imageIndex":4,"items":[{"name":"마약곱창","tel":"031-323-1077","addr":"경기도 용인시 처인구 모현읍 왕산리 468-10번지 JS Village 101호","indutype":"일반휴게음식 - 일반한식","category":"restaurant"}]},{"lat":"37.339151404","long":"127.26530604","imageIndex":4,"items":[{"name":"만권화밥","tel":"","addr":"경기도 용인시 처인구 모현읍 왕산리 산55-4번지 한국외국어대학교글로벌캠퍼스 어문학관 1층 학생식당","indutype":"일반휴게음식 - 일반한식","category":"restaurant"},{"name":"바비든든","tel":"031-312-9282","addr":"경기도 용인시 처인구 모현읍 왕산리 산55-4번지 한국외국어대학교글로벌캠퍼스 1층 식당동","indutype":"일반휴게음식 - 일반한식","category":"restaurant"},{"name":"비틀주스","tel":"","addr":"경기도 용인시 처인구 모현읍 왕산리 산55-4번지 한국외국어대학교글로벌캠퍼스 2층","indutype":"일반휴게음식 - 서양음식","category":"restaurant"},{"name":"삼성웰스토리(주)한국외대용인","tel":"031-339-8589","addr":"경기도 용인시 처인구 모현읍 왕산리 산55-4번지 한국외국어대학교글로벌캠퍼스","indutype":"일반휴게음식 - 위탁급식업","category":"restaurant"},{"name":"토스트럭","tel":"","addr":"경기도 용인시 처인구 모현읍 왕산리 산55-4번지 한국외국어대학교글로벌캠퍼스 어문학관 1층 학생식당 일부","indutype":"일반휴게음식 - 서양음식","category":"restaurant"},{"name":"프라이데이나인 용인외대점","tel":"","addr":"경기도 용인시 처인구 모현읍 왕산리 산55-4번지 1층 일부 어문학관 (한국외국어대학교글로벌캠퍼스)","indutype":"일반휴게음식 - 일반한식","category":"restaurant"}]},{"lat":"37.336760684","long":"127.2499737","imageIndex":4,"items":[{"name":"맛나바지락칼국수","tel":"031-339-5584","addr":"경기도 용인시 처인구 모현읍 왕산리 798-2번지 1층","indutype":"일반휴게음식 - 일반한식","category":"restaurant"}]},{"lat":"37.345400607","long":"127.25036315","imageIndex":4,"items":[{"name":"맛나옹심이메밀칼국수","tel":"031-336-5282","addr":"경기도 용인시 처인구 모현읍 왕산리 763-3번지 현덕빌딩","indutype":"일반휴게음식 - 일반한식","category":"restaurant"}]},{"lat":"37.316624074","long":"127.24062332","imageIndex":4,"items":[{"name":"멕시카나치킨(모현점)","tel":"031-339-1130","addr":"경기도 용인시 처인구 모현읍 갈담리 452-2번지 한라빌라 102호","indutype":"일반휴게음식 - 일반한식","category":"restaurant"}]},{"lat":"37.337984507","long":"127.16813162","imageIndex":4,"items":[{"name":"명륜진사갈비 용인모현점","tel":"031-333-1492","addr":"경기도 용인시 처인구 모현읍 능원리 138-4번지","indutype":"일반휴게음식 - 일반한식","category":"restaurant"}]},{"lat":"37.308460614","long":"127.24073297","imageIndex":4,"items":[{"name":"명문","tel":"031-713-5900","addr":"경기도 용인시 처인구 모현읍 초부리 439-3번지","indutype":"일반휴게음식 - 일반한식","category":"restaurant"}]},{"lat":"37.337451958","long":"127.25117211","imageIndex":4,"items":[{"name":"모이자","tel":"","addr":"경기도 용인시 처인구 모현읍 왕산리 945-35번지 2층","indutype":"일반휴게음식 - 일반한식","category":"restaurant"},{"name":"모현양꼬치","tel":"070-8117-6188","addr":"경기도 용인시 처인구 모현읍 왕산리 945-35번지 1층 일부","indutype":"일반휴게음식 - 중국식","category":"restaurant"},{"name":"제일식당","tel":"031-333-6388","addr":"경기도 용인시 처인구 모현읍 왕산리 945-35번지","indutype":"일반휴게음식 - 일반한식","category":"restaurant"},{"name":"토끼랑닭이랑","tel":"031-339-3126","addr":"경기도 용인시 처인구 모현읍 왕산리 945-35","indutype":"일반휴게음식 - 일반한식","category":"restaurant"}]},{"lat":"37.320175861","long":"127.24419954","imageIndex":4,"items":[{"name":"무안막갈비","tel":"031-322-3492","addr":"경기도 용인시 처인구 모현읍 갈담리 393-10","indutype":"일반휴게음식 - 일반한식","category":"restaurant"}]},{"lat":"37.341704496","long":"127.17529447","imageIndex":4,"items":[{"name":"미가랑","tel":"031-333-7702","addr":"경기도 용인시 처인구 모현읍 능원리 30-1번지","indutype":"일반휴게음식 - 일반한식","category":"restaurant"}]},{"lat":"37.334210566","long":"127.25008948","imageIndex":4,"items":[{"name":"미가초밥","tel":"031-322-2787","addr":"경기도 용인시 처인구 모현읍 왕산리 808-4번지 2층","indutype":"일반휴게음식 - 일반한식","category":"restaurant"},{"name":"카페류1976","tel":"070-7817-1976","addr":"경기도 용인시 처인구 모현읍 왕산리 808-4번지 101호","indutype":"일반휴게음식 - 서양음식","category":"restaurant"}]},{"lat":"37.336152867","long":"127.25194644","imageIndex":4,"items":[{"name":"미쳐버린파닭","tel":"031-333-6342","addr":"경기도 용인시 처인구 모현읍 왕산리 506-6번지","indutype":"일반휴게음식 - 스넥","category":"restaurant"}]},{"lat":"37.343282685","long":"127.18043286","imageIndex":4,"items":[{"name":"미친닭발","tel":"031-711-8055","addr":"경기도 용인시 처인구 모현읍 동림리 47-2번지","indutype":"일반휴게음식 - 일반한식","category":"restaurant"}]},{"lat":"37.33611754","long":"127.19334766","imageIndex":4,"items":[{"name":"민들레한식부페","tel":"031-339-1320","addr":"경기도 용인시 처인구 모현읍 동림리 219-5번지 1층","indutype":"일반휴게음식 - 일반한식","category":"restaurant"}]},{"lat":"37.334068022","long":"127.19034098","imageIndex":4,"items":[{"name":"바로그집","tel":"031-322-8586","addr":"경기도 용인시 처인구 모현읍 동림리 260","indutype":"일반휴게음식 - 일반한식","category":"restaurant"}]},{"lat":"37.342450589","long":"127.22498454","imageIndex":4,"items":[{"name":"밥엔청국장","tel":"031-321-9808","addr":"경기도 용인시 처인구 모현읍 매산리 196-5번지 일진빌딩 1층","indutype":"일반휴게음식 - 일반한식","category":"restaurant"},{"name":"스머프통","tel":"031-332-7664","addr":"경기도 용인시 처인구 모현읍 매산리196-5","indutype":"일반휴게음식 - 칵테일바","category":"restaurant"},{"name":"한끼","tel":"031-334-9844","addr":"경기도 용인시 처인구 모현읍 매산리 196-5번지 일진빌딩","indutype":"일반휴게음식 - 일반한식","category":"restaurant"}]},{"lat":"37.336290696","long":"127.25067178","imageIndex":4,"items":[{"name":"백암이네","tel":"031-111-1111","addr":"경기도 용인시 처인구 모현읍 왕산리 794-23번지","indutype":"일반휴게음식 - 일반한식","category":"restaurant"}]},{"lat":"37.335792511","long":"127.25192268","imageIndex":4,"items":[{"name":"베리나이스용인외대점","tel":"031-334-9767","addr":"경기도 용인시 처인구 모현읍 왕산리 504-1번지 상가동 1층 103호","indutype":"일반휴게음식 - 일반한식","category":"restaurant"},{"name":"이가명동찌개마을","tel":"031-322-3793","addr":"경기도 용인시 처인구 모현읍 왕산리 504-1번지 상가동 101호","indutype":"일반휴게음식 - 일반한식","category":"restaurant"}]},{"lat":"37.336454859","long":"127.24972445","imageIndex":4,"items":[{"name":"보스라이브카페","tel":"031-336-1014","addr":"경기도 용인시 처인구 모현읍 왕산리 801-1번지 G동 1층","indutype":"일반휴게음식 - 서양음식","category":"restaurant"},{"name":"소미네김밥","tel":"031-333-6399","addr":"경기도 용인시 처인구 모현읍 왕산리 801-1번지","indutype":"일반휴게음식 - 일반한식","category":"restaurant"}]},{"lat":"37.336896365","long":"127.17301534","imageIndex":4,"items":[{"name":"본가장수촌","tel":"031-337-2888","addr":"경기도 용인시 처인구 모현읍 능원리 264번지","indutype":"일반휴게음식 - 일반한식","category":"restaurant"}]},{"lat":"37.320623057","long":"127.25016907","imageIndex":4,"items":[{"name":"봄날","tel":"","addr":"경기도 용인시 처인구 모현읍 갈담리 244-8번지 1층","indutype":"일반휴게음식 - 일반한식","category":"restaurant"}]},{"lat":"37.337590633","long":"127.17267837","imageIndex":4,"items":[{"name":"봉피양(용인)","tel":"031-336-9293","addr":"경기도 용인시 처인구 모현읍 능원리 144-1번지","indutype":"일반휴게음식 - 일반한식","category":"restaurant"}]},{"lat":"37.321069907","long":"127.24319831","imageIndex":4,"items":[{"name":"부성","tel":"031-333-9470","addr":"경기도 용인시 처인구 모현읍 갈담리 384-5번지 1층","indutype":"일반휴게음식 - 일반한식","category":"restaurant"}]},{"lat":"37.340310786","long":"127.17331644","imageIndex":4,"items":[{"name":"부잣집설렁탕","tel":"031-322-8804","addr":"경기도 용인시 처인구 모현읍 능원리 167-4번지","indutype":"일반휴게음식 - 일반한식","category":"restaurant"}]},{"lat":"37.335901273","long":"127.25161837","imageIndex":4,"items":[{"name":"불닭발동대문엽기떡볶이모현점","tel":"031-339-8592","addr":"경기도 용인시 처인구 모현읍 왕산리 794-37번지 1층","indutype":"일반휴게음식 - 일반한식","category":"restaurant"},{"name":"푸드딜라이트모현점","tel":"032-335-0504","addr":"경기도 용인시 처인구 모현읍 왕산리 794-37번지 2층","indutype":"일반휴게음식 - 서양음식","category":"restaurant"}]},{"lat":"37.335398961","long":"127.2548101","imageIndex":4,"items":[{"name":"비어첸 용인외대점","tel":"031-322-5123","addr":"경기도 용인시 처인구 모현읍 왕산리 493-9번지 2층","indutype":"일반휴게음식 - 주점","category":"restaurant"},{"name":"손큰할매순대국용인외대점","tel":"031-339-5920","addr":"경기도 용인시 처인구 모현읍 왕산리 493-9번지","indutype":"일반휴게음식 - 일반한식","category":"restaurant"}]},{"lat":"37.33098613","long":"127.17270864","imageIndex":4,"items":[{"name":"사이다빈티지","tel":"032-322-4241","addr":"경기도 용인시 처인구 모현읍 능원리 351-29번지","indutype":"일반휴게음식 - 서양음식","category":"restaurant"}]},{"lat":"37.313235961","long":"127.24520391","imageIndex":4,"items":[{"name":"산아래버섯마을","tel":"031-332-8509","addr":"경기도 용인시 처인구 모현읍 초부리 82-1번지","indutype":"일반휴게음식 - 일반한식","category":"restaurant"}]},{"lat":"37.323734591","long":"127.22114988","imageIndex":4,"items":[{"name":"삼시세끼","tel":"031-334-6333","addr":"경기도 용인시 처인구 모현읍 매산리 545번지 2층","indutype":"일반휴게음식 - 일반한식","category":"restaurant"}]},{"lat":"37.343427017","long":"127.18032035","imageIndex":4,"items":[{"name":"상하이","tel":"031-765-7979","addr":"경기도 용인시 처인구 모현읍 동림리 47-22번지 1층","indutype":"일반휴게음식 - 중국식","category":"restaurant"},{"name":"오떡후","tel":"","addr":"경기도 용인시 처인구 모현읍 동림리 47-22번지 상가동 1층","indutype":"일반휴게음식 - 스넥","category":"restaurant"}]},{"lat":"37.351062959","long":"127.24845176","imageIndex":4,"items":[{"name":"새터","tel":"031-334-0304","addr":"경기도 용인시 처인구 모현읍 왕산리717-3","indutype":"일반휴게음식 - 일반한식","category":"restaurant"}]},{"lat":"37.342902554","long":"127.2242072","imageIndex":4,"items":[{"name":"샘물집식당","tel":"031-322-2053","addr":"경기도 용인시 처인구 모현읍 매산리 192-1번지","indutype":"일반휴게음식 - 일반한식","category":"restaurant"}]},{"lat":"37.332791125","long":"127.24808762","imageIndex":4,"items":[{"name":"서가원숯불고기","tel":"031-322-9252","addr":"경기도 용인시 처인구 모현읍 왕산리 432번지 1층 108호","indutype":"일반휴게음식 - 일반한식","category":"restaurant"},{"name":"회랑초밥이랑","tel":"070-4616-0781","addr":"경기도 용인시 처인구 모현읍 왕산리 432번지 1층(일부)","indutype":"일반휴게음식 - 일식·회집","category":"restaurant"}]},{"lat":"37.335899705","long":"127.25236312","imageIndex":4,"items":[{"name":"성수식당","tel":"031-322-5830","addr":"경기도 용인시 처인구 모현읍 왕산리 504-8번지","indutype":"일반휴게음식 - 일반한식","category":"restaurant"}]},{"lat":"37.321458906","long":"127.2554292","imageIndex":4,"items":[{"name":"소담한정식보리밥","tel":"031-336-4915","addr":"경기도 용인시 처인구 모현읍 갈담리 165-5번지","indutype":"일반휴게음식 - 일반한식","category":"restaurant"}]},{"lat":"37.343619246","long":"127.22639865","imageIndex":4,"items":[{"name":"수라간","tel":"031-323-2466","addr":"경기도 용인시 처인구 모현읍 매산리 207-2번지","indutype":"일반휴게음식 - 일반한식","category":"restaurant"}]},{"lat":"37.31482182","long":"127.24073045","imageIndex":4,"items":[{"name":"수정한식뷔페","tel":"031-322-6806","addr":"경기도 용인시 처인구 모현읍 초부리 67-7번지","indutype":"일반휴게음식 - 일반한식","category":"restaurant"},{"name":"올갱이식당","tel":"031-333-7721","addr":"경기도 용인시 처인구 모현읍 초부리67-7","indutype":"일반휴게음식 - 일반한식","category":"restaurant"}]},{"lat":"37.335735521","long":"127.25331044","imageIndex":4,"items":[{"name":"술자니비어","tel":"031-339-7203","addr":"경기도 용인시 처인구 모현읍 왕산리 499-5번지 우주빌딩 104호","indutype":"일반휴게음식 - 주점","category":"restaurant"},{"name":"페리카나(모현)","tel":"031-339-6860","addr":"경기도 용인시 처인구 모현읍 왕산리499-5","indutype":"일반휴게음식 - 서양음식","category":"restaurant"}]},{"lat":"37.332149232","long":"127.17215837","imageIndex":4,"items":[{"name":"슈라스까리아","tel":"031-39-2411","addr":"경기도 용인시 처인구 모현읍 능원리 328번지","indutype":"일반휴게음식 - 서양음식","category":"restaurant"},{"name":"육회본가 용인점","tel":"031-333-4092","addr":"경기도 용인시 처인구 모현읍 능원리 328번지 1층","indutype":"일반휴게음식 - 일반한식","category":"restaurant"}]},{"lat":"37.342680037","long":"127.22753566","imageIndex":4,"items":[{"name":"스틸존","tel":"","addr":"경기도 용인시 처인구 모현읍 매산리 203-1번지","indutype":"일반휴게음식 - 서양음식","category":"restaurant"}]},{"lat":"37.343874715","long":"127.2247066","imageIndex":4,"items":[{"name":"쌍용각","tel":"031-332-2253","addr":"경기도 용인시 처인구 모현읍 매산리 208-2번지","indutype":"일반휴게음식 - 중국식","category":"restaurant"}]},{"lat":"37.338287076","long":"127.17704704","imageIndex":4,"items":[{"name":"쏠뱅(SOLVANG)","tel":"031-336-0035","addr":"경기도 용인시 처인구 모현읍 능원리 206번지 1층","indutype":"일반휴게음식 - 스넥","category":"restaurant"},{"name":"앨리스포레","tel":"031-336-9611","addr":"경기도 용인시 처인구 모현읍 능원리 206번지 1층","indutype":"일반휴게음식 - 일반한식","category":"restaurant"}]},{"lat":"37.334146268","long":"127.25067603","imageIndex":4,"items":[{"name":"아띠카롱","tel":"031-332-9421","addr":"경기도 용인시 처인구 모현읍 왕산리 477-3번지 대명빌딩 다동 1층 101호","indutype":"일반휴게음식 - 서양음식","category":"restaurant"}]},{"lat":"37.335599293","long":"127.25381777","imageIndex":4,"items":[{"name":"아씨보쌈","tel":"031-339-0766","addr":"경기도 용인시 처인구 모현읍 왕산리496-8","indutype":"일반휴게음식 - 일반한식","category":"restaurant"}]},{"lat":"37.331483847","long":"127.14359838","imageIndex":4,"items":[{"name":"아카이브 (Arcaives)","tel":"031-335-2248","addr":"경기도 용인시 처인구 모현읍 오산리 253-7번지 102동 비01호","indutype":"일반휴게음식 - 서양음식","category":"restaurant"}]},{"lat":"37.336149479","long":"127.17234789","imageIndex":4,"items":[{"name":"양평해장국레이크사이드점","tel":"031-332-0908","addr":"경기도 용인시 처인구 모현읍 능원리 266-3번지","indutype":"일반휴게음식 - 일반한식","category":"restaurant"}]},{"lat":"37.341505878","long":"127.17556486","imageIndex":4,"items":[{"name":"어머니와고등어","tel":"031-332-6338","addr":"경기도 용인시 처인구 모현읍 능원리 24번지 외2필지","indutype":"일반휴게음식 - 일반한식","category":"restaurant"}]},{"lat":"37.335793507","long":"127.25144876","imageIndex":4,"items":[{"name":"엄마손칼국수","tel":"031-333-8917","addr":"경기도 용인시 처인구 모현읍 왕산리 794-10번지","indutype":"일반휴게음식 - 일반한식","category":"restaurant"}]},{"lat":"37.339402818","long":"127.17188124","imageIndex":4,"items":[{"name":"연남각","tel":"031-321-9792","addr":"경기도 용인시 처인구 모현읍 능원리 126-1번지 정암빌딩 1층","indutype":"일반휴게음식 - 중국식","category":"restaurant"}]},{"lat":"37.335261485","long":"127.25165011","imageIndex":4,"items":[{"name":"영구스피자용인외대점","tel":"031-337-0988","addr":"경기도 용인시 처인구 모현읍 왕산리 500-2번지","indutype":"일반휴게음식 - 서양음식","category":"restaurant"},{"name":"진성부대찌개","tel":"031-339-8707","addr":"경기도 용인시 처인구 모현읍 왕산리 500-2번지 102호","indutype":"일반휴게음식 - 일반한식","category":"restaurant"}]},{"lat":"37.327479849","long":"127.17362595","imageIndex":4,"items":[{"name":"옛터","tel":"031-339-6630","addr":"경기도 용인시 처인구 모현읍 능원리 376번지","indutype":"일반휴게음식 - 일반한식","category":"restaurant"}]},{"lat":"37.313038311","long":"127.24047666","imageIndex":4,"items":[{"name":"오리점식당","tel":"031-335-9292","addr":"경기도 용인시 처인구 모현읍 초부리 69-16번지 1층","indutype":"일반휴게음식 - 일반한식","category":"restaurant"}]},{"lat":"37.334625667","long":"127.24978617","imageIndex":4,"items":[{"name":"오부자네설렁탕","tel":"031-323-3693","addr":"경기도 용인시 처인구 모현읍 왕산리 812-4번지","indutype":"일반휴게음식 - 일반한식","category":"restaurant"}]},{"lat":"37.331955544","long":"127.14842862","imageIndex":4,"items":[{"name":"오산리고기창고","tel":"031-1577-4842","addr":"경기도 용인시 처인구 모현읍 오산리 228-1번지 1층","indutype":"일반휴게음식 - 일반한식","category":"restaurant"}]},{"lat":"37.330728255","long":"127.15704675","imageIndex":4,"items":[{"name":"오산수보양탕","tel":"031-334-3166","addr":"경기도 용인시 처인구 모현읍 오산리 171-1번지","indutype":"일반휴게음식 - 일반한식","category":"restaurant"}]},{"lat":"37.339034832","long":"127.17087609","imageIndex":4,"items":[{"name":"오삼소","tel":"031-335-0052","addr":"경기도 용인시 처인구 모현읍 능원리 129-1번지 가동 1층","indutype":"일반휴게음식 - 일반한식","category":"restaurant"},{"name":"쥬얼리까페마인드","tel":"","addr":"경기도 용인시 처인구 모현읍 능원리 129-1번지","indutype":"일반휴게음식 - 서양음식","category":"restaurant"},{"name":"폰주까/(주)더스토리","tel":"031-339-8537","addr":"경기도 용인시 처인구 모현읍 능원리 129-1번지","indutype":"일반휴게음식 - 서양음식","category":"restaurant"}]},{"lat":"37.33590319","long":"127.25070436","imageIndex":4,"items":[{"name":"오성식당","tel":"031-333-2060","addr":"경기도 용인시 처인구 모현읍 왕산리 794-4번지","indutype":"일반휴게음식 - 일반한식","category":"restaurant"}]},{"lat":"37.335951207","long":"127.1723813","imageIndex":4,"items":[{"name":"오케이(OK)목장","tel":"031-321-3639","addr":"경기도 용인시 처인구 모현읍 능원리 266-2번지 호반빌딩 1층~2층","indutype":"일반휴게음식 - 일반한식","category":"restaurant"}]},{"lat":"37.336844526","long":"127.25295303","imageIndex":4,"items":[{"name":"올레김밥","tel":"031-334-1411","addr":"경기도 용인시 처인구 모현읍 왕산리 513-2","indutype":"일반휴게음식 - 스넥","category":"restaurant"}]},{"lat":"37.343426559","long":"127.18062505","imageIndex":4,"items":[{"name":"왕림호프","tel":"031-322-0562","addr":"경기도 용인시 처인구 모현읍 동림리 47-8번지 1층","indutype":"일반휴게음식 - 일반한식","category":"restaurant"}]},{"lat":"37.33373742","long":"127.24797785","imageIndex":4,"items":[{"name":"왕산돈까스","tel":"031-333-3350","addr":"경기도 용인시 처인구 모현읍 왕산리 820번지 1층","indutype":"일반휴게음식 - 일반한식","category":"restaurant"}]},{"lat":"37.335510029","long":"127.25342253","imageIndex":4,"items":[{"name":"외대갈매기(본점)","tel":"031-332-8519","addr":"경기도 용인시 처인구 모현읍 왕산리 497-4번지 2층 202호","indutype":"일반휴게음식 - 일반한식","category":"restaurant"},{"name":"주류창고","tel":"02-1111-1111","addr":"경기도 용인시 처인구 모현읍 왕산리 497-4번지 2층","indutype":"일반휴게음식 - 주점","category":"restaurant"},{"name":"짚동가리쌩주 모현외대점","tel":"031-322-8817","addr":"경기도 용인시 처인구 모현읍 왕산리 497-4번지","indutype":"일반휴게음식 - 일반한식","category":"restaurant"},{"name":"치킨마루","tel":"031-334-5518","addr":"경기도 용인시 처인구 모현읍 왕산리 497-4 1층 101,102호","indutype":"일반휴게음식 - 스넥","category":"restaurant"},{"name":"토마토도시락 용인외대점","tel":"031-334-8482","addr":"경기도 용인시 처인구 모현읍 왕산리 497-4번지 104호","indutype":"일반휴게음식 - 일반한식","category":"restaurant"}]},{"lat":"37.343152366","long":"127.17718241","imageIndex":4,"items":[{"name":"외할머니집(용인점)","tel":"031-339-8308","addr":"경기도 용인시 처인구 모현읍 능원리 16-3번지","indutype":"일반휴게음식 - 일반한식","category":"restaurant"}]},{"lat":"37.342395847","long":"127.17695496","imageIndex":4,"items":[{"name":"요술마차","tel":"031-334-0494","addr":"경기도 용인시 처인구 모현읍 능원리 15-17번지","indutype":"일반휴게음식 - 일반한식","category":"restaurant"}]},{"lat":"37.313573874","long":"127.25170273","imageIndex":4,"items":[{"name":"용인한우마을","tel":"031-334-1254","addr":"경기도 용인시 처인구 모현읍 초부리 148번지 외1필지149번지","indutype":"일반휴게음식 - 일반한식","category":"restaurant"}]},{"lat":"37.342566787","long":"127.22548143","imageIndex":4,"items":[{"name":"우리집반찬도시락","tel":"031-323-2645","addr":"경기도 용인시 처인구 모현읍 매산리 196-13번지","indutype":"일반휴게음식 - 일반한식","category":"restaurant"}]},{"lat":"37.343453217","long":"127.18087339","imageIndex":4,"items":[{"name":"우일식당","tel":"031-332-1441","addr":"경기도 용인시 처인구 모현읍 동림 47-11","indutype":"일반휴게음식 - 일반한식","category":"restaurant"}]},{"lat":"37.347760038","long":"127.25939961","imageIndex":4,"items":[{"name":"울루라떼","tel":"02-111-1111","addr":"경기도 용인시 처인구 모현읍 왕산리 31번지","indutype":"일반휴게음식 - 일반한식","category":"restaurant"}]},{"lat":"37.335314666","long":"127.2520678","imageIndex":4,"items":[{"name":"은희네회포차","tel":"","addr":"경기도 용인시 처인구 모현읍 왕산리 500-1번지","indutype":"일반휴게음식 - 일반한식","category":"restaurant"}]},{"lat":"37.313073013","long":"127.24114233","imageIndex":4,"items":[{"name":"이동식당","tel":"031-333-6855","addr":"경기도 용인시 처인구 모현읍 초부리75-5","indutype":"일반휴게음식 - 일반한식","category":"restaurant"}]},{"lat":"37.340175829","long":"127.17318072","imageIndex":4,"items":[{"name":"이레국수랑총무김밥","tel":"031-338-1656","addr":"경기도 용인시 처인구 모현읍 능원리 167-5번지 102호","indutype":"일반휴게음식 - 스넥","category":"restaurant"},{"name":"청주빵집","tel":"031-337-0739","addr":"경기도 용인시 처인구 모현읍 능원리 167-5번지 1층 3호","indutype":"일반휴게음식 - 스넥","category":"restaurant"}]},{"lat":"37.344116907","long":"127.22528287","imageIndex":4,"items":[{"name":"이서방쌀왕찐빵만두","tel":"031-321-8562","addr":"경기도 용인시 처인구 모현읍 매산리 208-1번지 1층","indutype":"일반휴게음식 - 일반한식","category":"restaurant"}]},{"lat":"37.322432955","long":"127.25917812","imageIndex":4,"items":[{"name":"이지카페99-4","tel":"","addr":"경기도 용인시 처인구 모현읍 갈담리 99-4번지 1층","indutype":"일반휴게음식 - 서양음식","category":"restaurant"}]},{"lat":"37.334479831","long":"127.25058685","imageIndex":4,"items":[{"name":"이태리식당","tel":"031-323-2633","addr":"경기도 용인시 처인구 모현읍 왕산리 479-67번지","indutype":"일반휴게음식 - 서양음식","category":"restaurant"}]},{"lat":"37.328705441","long":"127.17348204","imageIndex":4,"items":[{"name":"자주가든","tel":"031-334-9287","addr":"경기도 용인시 처인구 모현읍 능원리 364-1번지","indutype":"일반휴게음식 - 일반한식","category":"restaurant"}]},{"lat":"37.336598479","long":"127.24998446","imageIndex":4,"items":[{"name":"장강","tel":"031-339-6450","addr":"경기도 용인시 처인구 모현읍 왕산리 795번지 1층","indutype":"일반휴게음식 - 중국식","category":"restaurant"}]},{"lat":"37.323931333","long":"127.22195149","imageIndex":4,"items":[{"name":"장수촌","tel":"031-333-4725","addr":"경기도 용인시 처인구 모현읍 매산리 552번지 가동 1층","indutype":"일반휴게음식 - 일반한식","category":"restaurant"}]},{"lat":"37.317684201","long":"127.24214965","imageIndex":4,"items":[{"name":"장원식당","tel":"031-333-4984","addr":"경기도 용인시 처인구 모현읍 갈담리 444-6번지","indutype":"일반휴게음식 - 일반한식","category":"restaurant"}]},{"lat":"37.352896901","long":"127.24608753","imageIndex":4,"items":[{"name":"장지리사골순대국(왕산)","tel":"031-338-7700","addr":"경기도 용인시 처인구 모현읍 왕산리 675-4번지 1층","indutype":"일반휴게음식 - 일반한식","category":"restaurant"}]},{"lat":"37.328121421","long":"127.22176056","imageIndex":4,"items":[{"name":"전주식당","tel":"031-322-9941","addr":"경기도 용인시 처인구 모현읍 매산리566-1","indutype":"일반휴게음식 - 일반한식","category":"restaurant"}]},{"lat":"37.34195386","long":"127.23034347","imageIndex":4,"items":[{"name":"전주식당","tel":"031-322-7322","addr":"경기도 용인시 처인구 모현읍 일산리 556-5번지 1층","indutype":"일반휴게음식 - 일반한식","category":"restaurant"}]},{"lat":"37.344259858","long":"127.22592656","imageIndex":4,"items":[{"name":"제이제이카페 (JJ cafe)","tel":"070-4246-2739","addr":"경기도 용인시 처인구 모현읍 매산리 212번지 1층","indutype":"일반휴게음식 - 서양음식","category":"restaurant"}]},{"lat":"37.343206144","long":"127.17737439","imageIndex":4,"items":[{"name":"제주삼다돈가","tel":"031-334-9253","addr":"경기도 용인시 처인구 모현읍 능원리 16-11번지 1층 일부","indutype":"일반휴게음식 - 일반한식","category":"restaurant"},{"name":"큰맘할매순대국","tel":"031-336-5551","addr":"경기도 용인시 처인구 모현읍 능원리 16-11번지 101호","indutype":"일반휴게음식 - 일반한식","category":"restaurant"},{"name":"힐링","tel":"031-111-1111","addr":"경기도 용인시 처인구 모현읍 능원리 16-11번지 2층","indutype":"일반휴게음식 - 서양음식","category":"restaurant"}]},{"lat":"37.331119201","long":"127.18618135","imageIndex":4,"items":[{"name":"주식회사 쉐누삼공일","tel":"031-321-6079","addr":"경기도 용인시 처인구 모현읍 동림리 301-2번지","indutype":"일반휴게음식 - 일반한식","category":"restaurant"}]},{"lat":"37.331762726","long":"127.15834647","imageIndex":4,"items":[{"name":"준(Jun. )23","tel":"031-332-0623","addr":"경기도 용인시 처인구 모현읍 오산리 155-81번지","indutype":"일반휴게음식 - 일반한식","category":"restaurant"}]},{"lat":"37.340505374","long":"127.17582212","imageIndex":4,"items":[{"name":"준영이네","tel":"031-322-2184","addr":"경기도 용인시 처인구 모현읍 능원리182-2","indutype":"일반휴게음식 - 일반한식","category":"restaurant"}]},{"lat":"37.342477949","long":"127.17626676","imageIndex":4,"items":[{"name":"중국성","tel":"031-333-3834","addr":"경기도 용인시 처인구 모현읍 능원리 15-1번지","indutype":"일반휴게음식 - 중국식","category":"restaurant"}]},{"lat":"37.336097737","long":"127.25245405","imageIndex":4,"items":[{"name":"중앙정육점식당","tel":"031-332-0444","addr":"경기도 용인시 처인구 모현읍 왕산리 507-4번지","indutype":"일반휴게음식 - 일반한식","category":"restaurant"}]},{"lat":"37.315740514","long":"127.24090256","imageIndex":4,"items":[{"name":"진미순대국","tel":"031-322-1714","addr":"경기도 용인시 처인구 모현읍 갈담리 460-4번지","indutype":"일반휴게음식 - 일반한식","category":"restaurant"}]},{"lat":"37.333727779","long":"127.14326405","imageIndex":4,"items":[{"name":"진영이네","tel":"","addr":"경기도 용인시 처인구 모현읍 오산리 253-5번지","indutype":"일반휴게음식 - 일반한식","category":"restaurant"}]},{"lat":"37.333787539","long":"127.2498737","imageIndex":4,"items":[{"name":"찌찌닭발","tel":"031-336-2842","addr":"경기도 용인시 처인구 모현읍 왕산리 431-1번지 1층","indutype":"일반휴게음식 - 일반한식","category":"restaurant"}]},{"lat":"37.348734125","long":"127.25047566","imageIndex":4,"items":[{"name":"천서리봉천막국수","tel":"031-334-6962","addr":"경기도 용인시 처인구 모현읍 왕산리739-1","indutype":"일반휴게음식 - 일반한식","category":"restaurant"},{"name":"통큰장어","tel":"031-338-5577","addr":"경기도 용인시 처인구 모현읍 왕산리 739-1번지","indutype":"일반휴게음식 - 일반한식","category":"restaurant"}]},{"lat":"37.335709135","long":"127.25300568","imageIndex":4,"items":[{"name":"철판과친구들","tel":"031-334-0794","addr":"경기도 용인시 처인구 모현읍 왕산리499-2","indutype":"일반휴게음식 - 칵테일바","category":"restaurant"},{"name":"카페문씨","tel":"070-4587-5847","addr":"경기도 용인시 처인구 모현읍 왕산리 499-2번지","indutype":"일반휴게음식 - 서양음식","category":"restaurant"}]},{"lat":"37.331427997","long":"127.24933565","imageIndex":4,"items":[{"name":"초막","tel":"031-328-8533","addr":"경기도 용인시 처인구 모현읍 왕산리 461번지","indutype":"일반휴게음식 - 일반한식","category":"restaurant"}]},{"lat":"37.344007426","long":"127.22600481","imageIndex":4,"items":[{"name":"춘향골남원추어탕","tel":"031-339-6162","addr":"경기도 용인시 처인구 모현읍 매산리 206번지","indutype":"일반휴게음식 - 일반한식","category":"restaurant"}]},{"lat":"37.342285852","long":"127.18998899","imageIndex":4,"items":[{"name":"치유의과정/주식회사 골든어스 모현지점","tel":"031-321-2751","addr":"경기도 용인시 처인구 모현읍 동림리 117-30번지","indutype":"일반휴게음식 - 일반한식","category":"restaurant"}]},{"lat":"37.354311877","long":"127.24590022","imageIndex":4,"items":[{"name":"치킨공장","tel":"031-333-8815","addr":"경기도 용인시 처인구 모현읍 왕산리 679-1번지 미광빌딩","indutype":"일반휴게음식 - 스넥","category":"restaurant"}]},{"lat":"37.336093866","long":"127.25000537","imageIndex":4,"items":[{"name":"카르페디엠","tel":"031-321-7020","addr":"경기도 용인시 처인구 모현읍 왕산리 794-3번지 와인빌리지 1층","indutype":"일반휴게음식 - 서양음식","category":"restaurant"}]},{"lat":"37.335763958","long":"127.25264477","imageIndex":4,"items":[{"name":"카파커피","tel":"031-333-1252","addr":"경기도 용인시 처인구 모현읍 왕산리 499-1번지 1층","indutype":"일반휴게음식 - 서양음식","category":"restaurant"}]},{"lat":"37.334847805","long":"127.25553044","imageIndex":4,"items":[{"name":"카페도리 (CAFEDORI)","tel":"031-322-8668","addr":"경기도 용인시 처인구 모현읍 왕산리 486번지 1층","indutype":"일반휴게음식 - 서양음식","category":"restaurant"}]},{"lat":"37.334487374","long":"127.25128648","imageIndex":4,"items":[{"name":"카페듀씨엘","tel":"070-7760-4162","addr":"경기도 용인시 처인구 모현읍 왕산리 479-22번지 외1필지 1층","indutype":"일반휴게음식 - 서양음식","category":"restaurant"}]},{"lat":"37.335761249","long":"127.17289994","imageIndex":4,"items":[{"name":"카페딕 컴퍼니","tel":"070-4400-6942","addr":"경기도 용인시 처인구 모현읍 능원리 267번지","indutype":"일반휴게음식 - 서양음식","category":"restaurant"}]},{"lat":"37.314096817","long":"127.25153524","imageIndex":4,"items":[{"name":"카페죠","tel":"031-335-0706","addr":"경기도 용인시 처인구 모현읍 초부리 146-4번지 두영빌딩 A동 1층","indutype":"일반휴게음식 - 서양음식","category":"restaurant"}]},{"lat":"37.327454182","long":"127.17267813","imageIndex":4,"items":[{"name":"카페체널","tel":"031-3330-4444","addr":"경기도 용인시 처인구 모현읍 능원리 374번지","indutype":"일반휴게음식 - 일반한식","category":"restaurant"}]},{"lat":"37.319207991","long":"127.15412383","imageIndex":4,"items":[{"name":"카페카라반","tel":"031-333-0323","addr":"경기도 용인시 처인구 모현읍 오산리 302-1번지 1층","indutype":"일반휴게음식 - 서양음식","category":"restaurant"}]},{"lat":"37.334092963","long":"127.25031477","imageIndex":4,"items":[{"name":"카페코지","tel":"031-338-9325","addr":"경기도 용인시 처인구 모현읍 왕산리 478-1번지 102호","indutype":"일반휴게음식 - 서양음식","category":"restaurant"}]},{"lat":"37.335653172","long":"127.24962027","imageIndex":4,"items":[{"name":"카페휴모현도서관점","tel":"031-324-9305","addr":"경기도 용인시 처인구 모현읍 왕산리 804-3번지 지하","indutype":"일반휴게음식 - 서양음식","category":"restaurant"}]},{"lat":"37.332735261","long":"127.24895628","imageIndex":4,"items":[{"name":"커리브라운 (Curry Brown)","tel":"031-335-5854","addr":"경기도 용인시 처인구 모현읍 왕산리 468-7번지 플러스빌 101호","indutype":"일반휴게음식 - 서양음식","category":"restaurant"}]},{"lat":"37.33698418","long":"127.24647631","imageIndex":4,"items":[{"name":"커피베이 외대용인점/(주)올콘텐츠","tel":"031-321-2738","addr":"경기도 용인시 처인구 모현읍 일산리 112-130번지 101호","indutype":"일반휴게음식 - 서양음식","category":"restaurant"}]},{"lat":"37.335146558","long":"127.25486568","imageIndex":4,"items":[{"name":"커피에반하다","tel":"031-321-2268","addr":"경기도 용인시 처인구 모현읍 왕산리 484-26번지 1층 101호","indutype":"일반휴게음식 - 서양음식","category":"restaurant"}]},{"lat":"37.334590594","long":"127.17243466","imageIndex":4,"items":[{"name":"커피정원","tel":"070-8616-2223","addr":"경기도 용인시 처인구 모현읍 능원리 269-18번지 2층","indutype":"일반휴게음식 - 서양음식","category":"restaurant"}]},{"lat":"37.33481535","long":"127.24956111","imageIndex":4,"items":[{"name":"태영생막창","tel":"031-339-3096","addr":"경기도 용인시 처인구 모현읍 왕산리 812-1번지 1층","indutype":"일반휴게음식 - 일반한식","category":"restaurant"},{"name":"태영생막창모현점","tel":"031-225-8857","addr":"경기도 용인시 처인구 모현읍 왕산리 812-1번지","indutype":"일반휴게음식 - 일반한식","category":"restaurant"},{"name":"피자나라치킨공주(모현외대점)","tel":"031-322-9244","addr":"경기도 용인시 처인구 모현읍 왕산리 812-1번지 새로나문구","indutype":"일반휴게음식 - 서양음식","category":"restaurant"},{"name":"피자나라치킨공주(모현외대점)","tel":"031-322-9244","addr":"경기도 용인시 처인구 모현읍 왕산리 812-1번지 1층","indutype":"일반휴게음식 - 서양음식","category":"restaurant"}]},{"lat":"37.313877173","long":"127.26152933","imageIndex":4,"items":[{"name":"톤(TONN)","tel":"070-4106-0007","addr":"경기도 용인시 처인구 모현읍 초부리 226-1번지 2동","indutype":"일반휴게음식 - 서양음식","category":"restaurant"}]},{"lat":"37.31101078","long":"127.24059436","imageIndex":4,"items":[{"name":"통일로토종순대국","tel":"031-322-3111","addr":"경기도 용인시 처인구 모현읍 초부리 442-1번지","indutype":"일반휴게음식 - 일반한식","category":"restaurant"}]},{"lat":"37.333202481","long":"127.17281519","imageIndex":4,"items":[{"name":"트로피앤커피","tel":"031-332-9840","addr":"경기도 용인시 처인구 모현읍 능원리 334-1번지 1층","indutype":"일반휴게음식 - 서양음식","category":"restaurant"}]},{"lat":"37.332624355","long":"127.25456388","imageIndex":4,"items":[{"name":"파니스안젤리쿠스","tel":"031-333-5227","addr":"경기도 용인시 처인구 모현읍 왕산리 240-56번지","indutype":"일반휴게음식 - 서양음식","category":"restaurant"}]},{"lat":"37.332536604","long":"127.17220437","imageIndex":4,"items":[{"name":"포시즌/에프앤피코리아주식회사","tel":"031-322-9975","addr":"경기도 용인시 처인구 모현읍 능원리 328-1번지 1층","indutype":"일반휴게음식 - 서양음식","category":"restaurant"}]},{"lat":"37.333428802","long":"127.17207097","imageIndex":4,"items":[{"name":"풍미정","tel":"031-339-3139","addr":"경기도 용인시 처인구 모현읍 능원리 327번지","indutype":"일반휴게음식 - 일반한식","category":"restaurant"}]},{"lat":"37.337068533","long":"127.24925252","imageIndex":4,"items":[{"name":"피자스쿨모현점","tel":"031-321-8834","addr":"경기도 용인시 처인구 모현읍 왕산리 799-7번지","indutype":"일반휴게음식 - 서양음식","category":"restaurant"}]},{"lat":"37.34111988","long":"127.23754073","imageIndex":4,"items":[{"name":"하마산장어","tel":"031-333-5242","addr":"경기도 용인시 처인구 모현읍 일산리 263-4번지","indutype":"일반휴게음식 - 일반한식","category":"restaurant"}]},{"lat":"37.330567668","long":"127.15581653","imageIndex":4,"items":[{"name":"한몸손두부","tel":"031-334-7599","addr":"경기도 용인시 처인구 모현읍 오산리 172-7번지 1층","indutype":"일반휴게음식 - 일반한식","category":"restaurant"}]},{"lat":"37.33753743","long":"127.24470645","imageIndex":4,"items":[{"name":"한정판","tel":"031-321-2001","addr":"경기도 용인시 처인구 모현읍 일산리 112-81번지 2층","indutype":"일반휴게음식 - 일반한식","category":"restaurant"}]},{"lat":"37.343791184","long":"127.22600417","imageIndex":4,"items":[{"name":"함께하는위드치킨","tel":"031-334-1757","addr":"경기도 용인시 처인구 모현읍 매산리 207-1번지","indutype":"일반휴게음식 - 스넥","category":"restaurant"}]},{"lat":"37.33961848","long":"127.17228797","imageIndex":4,"items":[{"name":"해돋이밥상","tel":"031-339-6760","addr":"경기도 용인시 처인구 모현읍 능원리 150-1번지 1층","indutype":"일반휴게음식 - 일반한식","category":"restaurant"}]},{"lat":"37.318372568","long":"127.24481426","imageIndex":4,"items":[{"name":"현대식당","tel":"031-339-2611","addr":"경기도 용인시 처인구 모현읍 갈담리 435번지","indutype":"일반휴게음식 - 일반한식","category":"restaurant"}]},{"lat":"37.334537339","long":"127.22139552","imageIndex":4,"items":[{"name":"현이네식당","tel":"031-339-5245","addr":"경기도 용인시 처인구 모현읍 매산리 326-7번지 1층","indutype":"일반휴게음식 - 일반한식","category":"restaurant"}]},{"lat":"37.336207379","long":"127.25173222","imageIndex":4,"items":[{"name":"호가그릴","tel":"031-336-1718","addr":"경기도 용인시 처인구 모현읍 왕산리 506-2번지","indutype":"일반휴게음식 - 일반한식","category":"restaurant"}]},{"lat":"37.335013388","long":"127.1790706","imageIndex":4,"items":[{"name":"호박등불마을","tel":"031-000-0000","addr":"경기도 용인시 처인구 모현읍 능원리 249번지","indutype":"일반휴게음식 - 일반한식","category":"restaurant"}]},{"lat":"37.323564128","long":"127.24398473","imageIndex":4,"items":[{"name":"황태해장국","tel":"031-322-5355","addr":"경기도 용인시 처인구 모현읍 갈담리 332-1번지","indutype":"일반휴게음식 - 일반한식","category":"restaurant"}]},{"lat":"37.336038696","long":"127.25053555","imageIndex":4,"items":[{"name":"후루룩즉석떡볶이","tel":"031-322-5856","addr":"경기도 용인시 처인구 모현읍 왕산리 794-24번지 1층","indutype":"일반휴게음식 - 스넥","category":"restaurant"}]},{"lat":"37.332870765","long":"127.24878746","imageIndex":4,"items":[{"name":"흑돼지촌","tel":"031-333-8084","addr":"경기도 용인시 처인구 모현읍 왕산리 431-2번지 창진빌딩","indutype":"일반휴게음식 - 일반한식","category":"restaurant"}]}]