[{"lat":"37.677656075","long":"126.80689894","imageIndex":7,"items":[{"name":"(주) 션컴퍼니","tel":"02-1661-6455","addr":"경기도 고양시 일산동구 식사동 814-9번지","indutype":"음료식품 - 기타음료식품","category":"food"},{"name":"그린빈월드(GREENBEAN WORLD)","tel":"070-7532-0773","addr":"경기도 고양시 일산동구 식사동","indutype":"음료식품 - 기타음료식품","category":"food"},{"name":"다이찌식품","tel":"031-979-6025","addr":"경기도 고양시 일산동구 식사동 814-9번지","indutype":"음료식품 - 기타음료식품","category":"food"},{"name":"로스터블록","tel":"031-969-7500","addr":"경기도 고양시 일산동구 식사동 814-9번지","indutype":"음료식품 - 기타음료식품","category":"food"},{"name":"주식회사가미엔","tel":"031-966-0458","addr":"경기도 고양시 일산동구 식사동 814-9번지","indutype":"음료식품 - 기타음료식품","category":"food"}]},{"lat":"37.685154831","long":"126.81981454","imageIndex":7,"items":[{"name":"(주)유비프랜드","tel":"031-968-2100","addr":"경기도 고양시 일산동구 식사동 1168-1번지","indutype":"음료식품 - 정육점","category":"food"}]},{"lat":"37.675964237","long":"126.8136253","imageIndex":7,"items":[{"name":"B베이커리","tel":"031-969-2019","addr":"경기도 고양시 일산동구 식사동 1548-2번지","indutype":"음료식품 - 제과점","category":"food"},{"name":"온새미로","tel":"031-964-7336","addr":"경기도 고양시 일산동구 식사동 1548-2번지","indutype":"음료식품 - 농·축·수산품","category":"food"}]},{"lat":"37.678458476","long":"126.81273477","imageIndex":7,"items":[{"name":"Pho포와 골빙이","tel":"031-964-1490","addr":"경기도 고양시 일산동구 식사동 1529번지 위시티일산자이주상복합","indutype":"음료식품 - 기타음료식품","category":"food"},{"name":"만수무병","tel":"031-965-8826","addr":"경기도 고양시 일산동구 식사동","indutype":"음료식품 - 제과점","category":"food"},{"name":"시골머슴(식사점)","tel":"031-962-2886","addr":"경기도 고양시 일산동구 식사동 1529번지 위시티일산자이주상복합","indutype":"음료식품 - 농·축·수산품","category":"food"},{"name":"식사동배스킨라빈스","tel":"031-966-3338","addr":"경기도 고양시 일산동구 식사동 1529번지 위시티일산자이주상복합","indutype":"음료식품 - 제과점","category":"food"},{"name":"안심한우판매점","tel":"031-969-9233","addr":"경기도 고양시 일산동구 식사동 1529번지 위시티일산자이주상복합","indutype":"음료식품 - 정육점","category":"food"},{"name":"자이축산","tel":"031-962-1478","addr":"경기도 고양시 일산동구 식사동 1529번지 위시티일산자이주상복합","indutype":"음료식품 - 정육점","category":"food"},{"name":"후앙베이커리 식사점","tel":"031-962-5455","addr":"경기도 고양시 일산동구 식사동 1529번지 위시티일산자이주상복합","indutype":"음료식품 - 제과점","category":"food"}]},{"lat":"37.677267357","long":"126.81159291","imageIndex":7,"items":[{"name":"과일프린스","tel":"031-964-7754","addr":"경기도 고양시 일산동구 식사동 1533번지 위시티휴먼빌","indutype":"음료식품 - 농·축·수산품","category":"food"},{"name":"담은떡집","tel":"031-965-9655","addr":"경기도 고양시 일산동구 식사동 1533번지 위시티휴먼빌","indutype":"음료식품 - 제과점","category":"food"},{"name":"본시루","tel":"031-963-3031","addr":"경기도 고양시 일산동구 식사동 1533번지 위시티휴먼빌","indutype":"음료식품 - 제과점","category":"food"},{"name":"샌드위치ZIP","tel":"031-947-1300","addr":"경기도 고양시 일산동구 식사동 1533번지 위시티휴먼빌","indutype":"음료식품 - 제과점","category":"food"}]},{"lat":"37.675569537","long":"126.81470317","imageIndex":7,"items":[{"name":"남주기아까운김치","tel":"031-818-5887","addr":"경기도 고양시 일산동구 식사동 1560-1번지","indutype":"음료식품 - 기타음료식품","category":"food"}]},{"lat":"37.671542989","long":"126.80418334","imageIndex":7,"items":[{"name":"농부가","tel":"031-919-4825","addr":"경기도 고양시 일산동구 식사동","indutype":"음료식품 - 미곡상","category":"food"}]},{"lat":"37.689519981","long":"126.82272888","imageIndex":7,"items":[{"name":"대경축산","tel":"","addr":"경기도 고양시 일산동구 식사동 260번지","indutype":"음료식품 - 정육점","category":"food"}]},{"lat":"37.691344881","long":"126.8200941","imageIndex":7,"items":[{"name":"대박영농조합법인","tel":"031-969-8936","addr":"경기도 고양시 일산동구 식사동 268-1번지","indutype":"음료식품 - 농·축·수산품","category":"food"}]},{"lat":"37.677908342","long":"126.8123961","imageIndex":7,"items":[{"name":"더달달 위시티","tel":"070-7423-6603","addr":"경기도 고양시 일산동구 식사동 1531번지","indutype":"음료식품 - 기타음료식품","category":"food"},{"name":"식빵연구소식사점","tel":"031-969-5533","addr":"경기도 고양시 일산동구 식사동 1531번지","indutype":"음료식품 - 제과점","category":"food"}]},{"lat":"37.675965869","long":"126.81464549","imageIndex":7,"items":[{"name":"더와인","tel":"031-966-4761","addr":"경기도 고양시 일산동구 식사동 1558-11번지","indutype":"음료식품 - 주류 판매점","category":"food"}]},{"lat":"37.682407675","long":"126.82032009","imageIndex":7,"items":[{"name":"더우식품","tel":"031-964-3135","addr":"경기도 고양시 일산동구 식사동","indutype":"음료식품 - 기타음료식품","category":"food"}]},{"lat":"37.675576002","long":"126.80759587","imageIndex":7,"items":[{"name":"동국마트","tel":"070-7757-8869","addr":"경기도 고양시 일산동구 식사동 662-20번지","indutype":"음료식품 - 기타음료식품","category":"food"}]},{"lat":"37.674485614","long":"126.8074627","imageIndex":7,"items":[{"name":"동하수산","tel":"031-967-8222","addr":"경기도 고양시 일산동구 식사동 1588번지","indutype":"음료식품 - 농·축·수산품","category":"food"}]},{"lat":"37.679027488","long":"126.80807426","imageIndex":7,"items":[{"name":"마니푸드","tel":"031-965-8821","addr":"경기도 고양시 일산동구 식사동 814-100번지 동국홈타운","indutype":"음료식품 - 기타음료식품","category":"food"}]},{"lat":"37.68093814","long":"126.81398676","imageIndex":7,"items":[{"name":"목우촌일산식사점","tel":"031-968-5652","addr":"경기도 고양시 일산동구 식사동","indutype":"음료식품 - 정육점","category":"food"}]},{"lat":"37.676624737","long":"126.80979221","imageIndex":7,"items":[{"name":"물 건너온 고기","tel":"031-967-5038","addr":"경기도 고양시 일산동구 식사동 663번지","indutype":"음료식품 - 정육점","category":"food"}]},{"lat":"37.667324766","long":"126.80856955","imageIndex":7,"items":[{"name":"민속떡방앗간","tel":"031-975-5882","addr":"경기도 고양시 일산동구 식사동 603-12번지","indutype":"음료식품 - 기타음료식품","category":"food"}]},{"lat":"37.676493485","long":"126.81218435","imageIndex":7,"items":[{"name":"삼성리뉴웰의원","tel":"031-976-2959","addr":"경기도 고양시 일산동구 식사동 1546번지","indutype":"건강식품 - 기타건강식품","category":"food"}]},{"lat":"37.68487884","long":"126.82195787","imageIndex":7,"items":[{"name":"상남자","tel":"031-979-3434","addr":"경기도 고양시 일산동구 식사동 205-2번지","indutype":"음료식품 - 농·축·수산품","category":"food"}]},{"lat":"37.677382767","long":"126.8105384","imageIndex":7,"items":[{"name":"숙이호두파이","tel":"031-903-7881","addr":"경기도 고양시 일산동구 식사동 1525번지","indutype":"음료식품 - 제과점","category":"food"},{"name":"썬매점","tel":"031-966-0995","addr":"경기도 고양시 일산동구 식사동 1525번지","indutype":"음료식품 - 기타음료식품","category":"food"},{"name":"아이스크림 싼데싼데","tel":"070-2432-0478","addr":"경기도 고양시 일산동구 식사동 1525번지","indutype":"음료식품 - 기타음료식품","category":"food"}]},{"lat":"37.668299314","long":"126.80948509","imageIndex":7,"items":[{"name":"식사떡방앗간","tel":"031-962-6441","addr":"경기도 고양시 일산동구 식사동 602-7번지","indutype":"음료식품 - 제과점","category":"food"}]},{"lat":"37.676098798","long":"126.81326223","imageIndex":7,"items":[{"name":"아이스크림 할인점","tel":"031-966-9996","addr":"경기도 고양시 일산동구 식사동 1548-1번지","indutype":"음료식품 - 기타음료식품","category":"food"}]},{"lat":"37.672766875","long":"126.80873672","imageIndex":7,"items":[{"name":"알대감","tel":"031-921-7578","addr":"경기도 고양시 일산동구 식사동 625-4번지","indutype":"음료식품 - 농·축·수산품","category":"food"}]},{"lat":"37.664965212","long":"126.81472994","imageIndex":7,"items":[{"name":"엔지데일리라이프코리아","tel":"070-4110-2970","addr":"경기도 고양시 일산동구 식사동 515번지","indutype":"건강식품 - 기타건강식품","category":"food"}]},{"lat":"37.677187536","long":"126.81237528","imageIndex":7,"items":[{"name":"엘팡(el pan)","tel":"","addr":"경기도 고양시 일산동구 식사동 1537번지","indutype":"음료식품 - 기타음료식품","category":"food"},{"name":"정관장 식사동 위시티점","tel":"031-965-2304","addr":"경기도 고양시 일산동구 식사동 1537번지","indutype":"건강식품 - 홍삼제품","category":"food"}]},{"lat":"37.671437807","long":"126.81703722","imageIndex":7,"items":[{"name":"엠앤엠코리아(M&M KOREA)","tel":"031-963-1238","addr":"경기도 고양시 일산동구 식사동 432-3번지","indutype":"음료식품 - 미곡상","category":"food"}]},{"lat":"37.668716845","long":"126.81137684","imageIndex":7,"items":[{"name":"영농조합법인 이순자","tel":"031-963-9988","addr":"경기도 고양시 일산동구 식사동 1400번지","indutype":"음료식품 - 농·축·수산품","category":"food"}]},{"lat":"37.676433749","long":"126.8087045","imageIndex":7,"items":[{"name":"종로떡집","tel":"031-966-7333","addr":"경기도 고양시 일산동구 식사동 662-7번지","indutype":"음료식품 - 제과점","category":"food"}]},{"lat":"37.66745912","long":"126.81362423","imageIndex":7,"items":[{"name":"주식회사 세정미트","tel":"031-965-9942","addr":"경기도 고양시 일산동구 식사동 575-24번지","indutype":"음료식품 - 정육점","category":"food"}]},{"lat":"37.675488206","long":"126.80899035","imageIndex":7,"items":[{"name":"주식회사 야콥스","tel":"031-916-0522","addr":"경기도 고양시 일산동구 식사동 1582번지","indutype":"음료식품 - 기타음료식품","category":"food"}]},{"lat":"37.676541342","long":"126.8139299","imageIndex":7,"items":[{"name":"주식회사 에르마노스 일산식사동지점","tel":"031-1600-8399","addr":"경기도 고양시 일산동구 식사동 1540-1번지","indutype":"음료식품 - 정육점","category":"food"}]},{"lat":"37.668547196","long":"126.81798518","imageIndex":7,"items":[{"name":"찬우물버섯농장","tel":"031-968-1569","addr":"경기도 고양시 일산동구 식사동","indutype":"음료식품 - 농·축·수산품","category":"food"}]},{"lat":"37.688683724","long":"126.82983944","imageIndex":7,"items":[{"name":"청원오리농장","tel":"031-962-7747","addr":"경기도 고양시 일산동구 식사동","indutype":"음료식품 - 정육점","category":"food"}]},{"lat":"37.67321189","long":"126.81090055","imageIndex":7,"items":[{"name":"츄앤츄","tel":"02-2017-7744","addr":"경기도 고양시 일산동구 식사동 632-14번지 뉴한솔주택","indutype":"음료식품 - 기타음료식품","category":"food"}]},{"lat":"37.684405488","long":"126.80761807","imageIndex":7,"items":[{"name":"타고나(TAGONA)","tel":"02-1111-1111","addr":"경기도 고양시 일산동구 식사동 1481-1번지","indutype":"음료식품 - 기타음료식품","category":"food"}]},{"lat":"37.674910078","long":"126.80807369","imageIndex":7,"items":[{"name":"파비카페","tel":"031-963-8204","addr":"경기도 고양시 일산동구 식사동 1582-4번지","indutype":"음료식품 - 제과점","category":"food"}]},{"lat":"37.673936072","long":"126.81300702","imageIndex":7,"items":[{"name":"푸드헌트(식사점)","tel":"031-967-9943","addr":"경기도 고양시 일산동구 식사동 1574-5번지","indutype":"음료식품 - 기타음료식품","category":"food"}]},{"lat":"37.669937094","long":"126.81382196","imageIndex":7,"items":[{"name":"호수농장","tel":"031-969-5949","addr":"경기도 고양시 일산동구 식사동 1390번지","indutype":"음료식품 - 농·축·수산품","category":"food"},{"name":"황고집 전통옹기","tel":"031-969-5949","addr":"경기도 고양시 일산동구 식사동 1390번지","indutype":"음료식품 - 농·축·수산품","category":"food"}]}]