[{"lat":"37.291875443","long":"127.12704806","imageIndex":0,"items":[{"name":"대명카공업사","tel":"031-285-5910","addr":"경기도 용인시 기흥구 언남동 164-3번지","indutype":"자동차정비 유지 - 자동차정비","category":"car"}]},{"lat":"37.286624085","long":"127.13390699","imageIndex":0,"items":[{"name":"랩튠","tel":"031-285-2856","addr":"경기도 용인시 기흥구 언남동 11번지","indutype":"자동차정비 유지 - 자동차부품","category":"car"}]},{"lat":"37.293900213","long":"127.12071322","imageIndex":0,"items":[{"name":"멀티프라자 상가번영회","tel":"031-275-3040","addr":"경기도 용인시 기흥구 언남동 336-7번지 멀티프라자","indutype":"자동차정비 유지 - 주차장","category":"car"}]},{"lat":"37.292546274","long":"127.12310198","imageIndex":0,"items":[{"name":"스피드메이트 용인언남점","tel":"031-285-5503","addr":"경기도 용인시 기흥구 언남동 255-22번지","indutype":"자동차정비 유지 - 자동차정비","category":"car"}]},{"lat":"37.292070416","long":"127.12143213","imageIndex":0,"items":[{"name":"오토오아시스 언남신도시점","tel":"031-284-0330","addr":"경기도 용인시 기흥구 언남동 221-1번지","indutype":"자동차정비 유지 - 자동차정비","category":"car"}]},{"lat":"37.294398592","long":"127.1178494","imageIndex":0,"items":[{"name":"오토하우스","tel":"031-283-8945","addr":"경기도 용인시 기흥구 언남동 379번지","indutype":"자동차정비 유지 - 자동차정비","category":"car"}]},{"lat":"37.293792391","long":"127.12916017","imageIndex":0,"items":[{"name":"원진트럭텍","tel":"031-261-5977","addr":"경기도 용인시 기흥구 언남동 153-4번지 E동 402호","indutype":"자동차정비 유지 - 자동차부품","category":"car"}]},{"lat":"37.290237288","long":"127.13382304","imageIndex":0,"items":[{"name":"전진카공업사","tel":"031-283-2292","addr":"경기도 용인시 기흥구 언남동 31-1번지 전진카공업사","indutype":"자동차정비 유지 - 자동차정비","category":"car"}]},{"lat":"37.296155378","long":"127.11806636","imageIndex":0,"items":[{"name":"준종합오토바이","tel":"031-284-5597","addr":"경기도 용인시 기흥구 언남동 344-5번지 성지빌라 6동 101호","indutype":"자동차판매 - 이륜차판매","category":"car"}]},{"lat":"37.290094527","long":"127.13254846","imageIndex":0,"items":[{"name":"차사랑 손세차 및 셀프세차","tel":"","addr":"경기도 용인시 기흥구 언남동 179번지","indutype":"자동차정비 유지 - 세차장","category":"car"},{"name":"카시스템","tel":"031-283-3175","addr":"경기도 용인시 기흥구 언남동 179번지","indutype":"자동차정비 유지 - 카인테리어","category":"car"}]},{"lat":"37.290317881","long":"127.13427427","imageIndex":0,"items":[{"name":"창덕자동차정비","tel":"031-283-8288","addr":"경기도 용인시 기흥구 언남동 33-4번지","indutype":"자동차정비 유지 - 자동차정비","category":"car"}]},{"lat":"37.289959497","long":"127.13243545","imageIndex":0,"items":[{"name":"카 라이프","tel":"","addr":"경기도 용인시 기흥구 언남동 180번지 한국야쿠르트 6호","indutype":"자동차정비 유지 - 자동차정비","category":"car"}]},{"lat":"37.291487707","long":"127.12732936","imageIndex":0,"items":[{"name":"카스타일","tel":"031-285-1667","addr":"경기도 용인시 기흥구 언남동 165번지","indutype":"자동차정비 유지 - 자동차정비","category":"car"}]},{"lat":"37.294793897","long":"127.11902291","imageIndex":0,"items":[{"name":"포인트 외형복원","tel":"031-286-4972","addr":"경기도 용인시 기흥구 언남동 338-1번지","indutype":"자동차정비 유지 - 카인테리어","category":"car"}]},{"lat":"37.291733391","long":"127.12501787","imageIndex":0,"items":[{"name":"한일자동차공업사","tel":"031-283-9914","addr":"경기도 용인시 기흥구 언남동 234-18번지","indutype":"자동차정비 유지 - 자동차정비","category":"car"}]}]