[{"lat":"37.33931948","long":"127.3044191","imageIndex":5,"items":[{"name":"느티나무민박","tel":"","addr":"경기도 광주시 도척면 도웅리 271번지","indutype":"숙박업 - 여관/기타숙박업","category":"hotel"}]},{"lat":"37.33953765","long":"127.3036639","imageIndex":5,"items":[{"name":"더존하우스","tel":"031-797-0384","addr":"경기도 광주시 도척면 도웅리 360","indutype":"숙박업 - 여관/기타숙박업","category":"hotel"}]},{"lat":"37.33828763","long":"127.3027224","imageIndex":5,"items":[{"name":"라온민박","tel":"","addr":"경기도 광주시 도척면 도웅리 415번지","indutype":"숙박업 - 여관/기타숙박업","category":"hotel"},{"name":"별밤민박","tel":"070-4189-5088","addr":"경기도 광주시 도척면 도웅리 415","indutype":"숙박업 - 여관/기타숙박업","category":"hotel"}]},{"lat":"37.34045504","long":"127.3043108","imageIndex":5,"items":[{"name":"루체른","tel":"070-4922-1261","addr":"경기도 광주시 도척면 도웅리 276-6번지","indutype":"숙박업 - 여관/기타숙박업","category":"hotel"}]},{"lat":"37.33917751","long":"127.3035609","imageIndex":5,"items":[{"name":"마루","tel":"031-762-6916","addr":"경기도 광주시 도척면 도웅리 427번지","indutype":"숙박업 - 여관/기타숙박업","category":"hotel"}]},{"lat":"37.33737705","long":"127.2993673","imageIndex":5,"items":[{"name":"브라운빌","tel":"031-798-3885","addr":"경기도 광주시 도척면 도웅리 467-1번지","indutype":"숙박업 - 여관/기타숙박업","category":"hotel"}]},{"lat":"37.33859834","long":"127.3045517","imageIndex":5,"items":[{"name":"숲속의휴","tel":"031-797-0189","addr":"경기도 광주시 도척면 도웅리 240번지","indutype":"숙박업 - 여관/기타숙박업","category":"hotel"}]},{"lat":"37.33970341","long":"127.302254","imageIndex":5,"items":[{"name":"쉼371","tel":"","addr":"경기도 광주시 도척면 도웅리 371번지","indutype":"숙박업 - 여관/기타숙박업","category":"hotel"}]},{"lat":"37.34117757","long":"127.3036366","imageIndex":5,"items":[{"name":"엘피스 민박","tel":"","addr":"경기도 광주시 도척면 도웅리 343번지 1층","indutype":"숙박업 - 여관/기타숙박업","category":"hotel"}]},{"lat":"37.3389802","long":"127.3031991","imageIndex":5,"items":[{"name":"제이알랜드(JRLAND)","tel":"031-797-3330","addr":"경기도 광주시 도척면 도웅리 424-1번지","indutype":"숙박업 - 여관/기타숙박업","category":"hotel"}]},{"lat":"37.33806748","long":"127.3007016","imageIndex":5,"items":[{"name":"참깨 팬션","tel":"031-798-0109","addr":"경기도 광주시 도척면 도웅리 403-1번지","indutype":"숙박업 - 여관/기타숙박업","category":"hotel"}]},{"lat":"37.33848557","long":"127.306368","imageIndex":5,"items":[{"name":"케이플러스펜션","tel":"031-798-2615","addr":"경기도 광주시 도척면 도웅리 261-1번지","indutype":"숙박업 - 여관/기타숙박업","category":"hotel"}]},{"lat":"37.3387598","long":"127.3048344","imageIndex":5,"items":[{"name":"하늘아래","tel":"031-797-9029","addr":"경기도 광주시 도척면 도웅리 244-2 2층,3층","indutype":"숙박업 - 여관/기타숙박업","category":"hotel"}]}]