[{"lat":"37.233747916","long":"127.29675234","imageIndex":17,"items":[{"name":"(유)탑어드밴싱 양지점","tel":"070-5088-5601","addr":"경기도 용인시 처인구 양지면 양지리 112번지","indutype":"의류 - 정장","category":"other"}]},{"lat":"37.224223942","long":"127.25367368","imageIndex":17,"items":[{"name":"(주)네베인터내셔널","tel":"031-323-1308","addr":"경기도 용인시 처인구 양지면 송문리 420-4번지","indutype":"레져용품 - 스포츠·레져용품","category":"other"},{"name":"오라이상사","tel":"031-000-0000","addr":"경기도 용인시 처인구 양지면 송문리 420-4번지","indutype":"레져용품 - 스포츠·레져용품","category":"other"}]},{"lat":"37.229274783","long":"127.27189984","imageIndex":17,"items":[{"name":"(주)동광","tel":"031-321-3887","addr":"경기도 용인시 처인구 양지면 양지리 781-3번지 A","indutype":"기타 - 기계공구","category":"other"},{"name":"동광종합상사","tel":"031-338-6200","addr":"경기도 용인시 처인구 양지면 양지리 781-3","indutype":"건축자재 - 기타건축자재","category":"other"}]},{"lat":"37.243051077","long":"127.26405961","imageIndex":17,"items":[{"name":"(주)미드미샤시","tel":"031-339-3402","addr":"경기도 용인시 처인구 양지면 주북리121,121-4","indutype":"건축자재 - 보일러·펌프·샷시","category":"other"}]},{"lat":"37.233327164","long":"127.28450151","imageIndex":17,"items":[{"name":"(주)미성씨오","tel":"031-338-3494","addr":"경기도 용인시 처인구 양지면 양지리 580-1","indutype":"건축자재 - 기타건축자재","category":"other"},{"name":"미성CO","tel":"031-338-3494","addr":"경기도 용인시 처인구 양지면 양지리 580-1번지","indutype":"용역 서비스 - 사무서비스","category":"other"}]},{"lat":"37.229582468","long":"127.29050483","imageIndex":17,"items":[{"name":"(주)보아스트레이딩","tel":"031-711-0206","addr":"경기도 용인시 처인구 양지면 양지리 138-20번지 301호","indutype":"유통업 영리 - 기타유통업","category":"other"},{"name":"골프존21","tel":"031-334-0753","addr":"경기도 용인시 처인구 양지면 양지리 138-20번지 2층","indutype":"회원제형태 - 레져업소","category":"other"}]},{"lat":"37.236524028","long":"127.30355849","imageIndex":17,"items":[{"name":"(주)세진","tel":"031-336-5661","addr":"경기도 용인시 처인구 양지면 제일리612-4","indutype":"건축자재 - 기타건축자재","category":"other"}]},{"lat":"37.228688705","long":"127.30211887","imageIndex":17,"items":[{"name":"(주)좋은날","tel":"031-333-5701","addr":"경기도 용인시 처인구 양지면 제일리 346-23번지","indutype":"유통업 영리 - 편 의 점","category":"other"}]},{"lat":"37.243415819","long":"127.26208856","imageIndex":17,"items":[{"name":"(주)클린더스트","tel":"031-321-1791","addr":"경기도 용인시 처인구 양지면 주북리 257-1번지","indutype":"기타 - 기계공구","category":"other"}]},{"lat":"37.246243443","long":"127.25447922","imageIndex":17,"items":[{"name":"(주)키즈꼬망","tel":"070-8624-9902","addr":"경기도 용인시 처인구 양지면 주북리 415-1번지","indutype":"의류 - 아동의류","category":"other"},{"name":"바로상사","tel":"031-338-9545","addr":"경기도 용인시 처인구 양지면 주북리 415-1번지","indutype":"신변잡화 - 기타잡화","category":"other"}]},{"lat":"37.246714745","long":"127.25317338","imageIndex":17,"items":[{"name":"(주)퍼피웍스","tel":"031-321-4931","addr":"경기도 용인시 처인구 양지면 주북리 393-2번지","indutype":"문화.취미 - 애완동물","category":"other"},{"name":"펫츠빌(PetsVill)","tel":"031-321-4932","addr":"경기도 용인시 처인구 양지면 주북리 393-2번지","indutype":"문화.취미 - 애완동물","category":"other"}]},{"lat":"37.225965791","long":"127.25656399","imageIndex":17,"items":[{"name":"EMOTION DESIGN","tel":"031-335-7776","addr":"경기도 용인시 처인구 양지면 송문리 514-3번지","indutype":"가구 - 일반가구","category":"other"}]},{"lat":"37.232775393","long":"127.28540095","imageIndex":17,"items":[{"name":"FSQ꽃","tel":"031-337-0464","addr":"경기도 용인시 처인구 양지면 양지리 502-5번지","indutype":"문화.취미 - 화원","category":"other"}]},{"lat":"37.232278512","long":"127.28595126","imageIndex":17,"items":[{"name":"GS25양지남곡점","tel":"02-2006-2485","addr":"경기도 용인시 처인구 양지면 남곡리 134-2","indutype":"유통업 영리 - 편 의 점","category":"other"},{"name":"미주정보","tel":"031-335-7333","addr":"경기도 용인시 처인구 양지면 남곡리134-2","indutype":"레져용품 - 스포츠·레져용품","category":"other"}]},{"lat":"37.234550953","long":"127.28137328","imageIndex":17,"items":[{"name":"GS25양지대로점","tel":"","addr":"경기도 용인시 처인구 양지면 양지리 633-6번지","indutype":"유통업 영리 - 편 의 점","category":"other"}]},{"lat":"37.234940932","long":"127.28411309","imageIndex":17,"items":[{"name":"GS25양지센트럴점","tel":"","addr":"경기도 용인시 처인구 양지면 양지리 593-3번지 1층 일부","indutype":"유통업 영리 - 편 의 점","category":"other"},{"name":"부티나 개","tel":"031-333-5453","addr":"경기도 용인시 처인구 양지면 양지리 593-3번지","indutype":"의류 - 정장","category":"other"},{"name":"아름사진관","tel":"031-338-3017","addr":"경기도 용인시 처인구 양지면 양지리 593-3번지","indutype":"광학제품 - 사진관","category":"other"}]},{"lat":"37.250548471","long":"127.32583007","imageIndex":17,"items":[{"name":"GS25양지제일점","tel":"02-2006-2485","addr":"경기도 용인시 처인구 양지면 추계리 132","indutype":"유통업 영리 - 편 의 점","category":"other"},{"name":"언더우드","tel":"070-8744-5182","addr":"경기도 용인시 처인구 양지면 추계리 132번지 102호","indutype":"회원제형태 - 기타4","category":"other"},{"name":"주식회사엔씨코리아","tel":"031-322-7483","addr":"경기도 용인시 처인구 양지면 추계리 132번지","indutype":"레져용품 - 스포츠·레져용품","category":"other"}]},{"lat":"37.227973759","long":"127.29250443","imageIndex":17,"items":[{"name":"GS25양지타운점","tel":"","addr":"경기도 용인시 처인구 양지면 양지리 129-8번지 강남부동산","indutype":"유통업 영리 - 편 의 점","category":"other"}]},{"lat":"37.225714913","long":"127.25165043","imageIndex":17,"items":[{"name":"GS25용인중부대로점","tel":"","addr":"경기도 용인시 처인구 양지면 송문리 427번지","indutype":"유통업 영리 - 편 의 점","category":"other"}]},{"lat":"37.244249409","long":"127.31948049","imageIndex":17,"items":[{"name":"GS25용인참새미점","tel":"02-2006-2118","addr":"경기도 용인시 처인구 양지면 제일리51","indutype":"유통업 영리 - 편 의 점","category":"other"}]},{"lat":"37.233607813","long":"127.28011896","imageIndex":17,"items":[{"name":"HS종합환경","tel":"031-335-1774","addr":"경기도 용인시 처인구 양지면 양지리 558-1번지 103호","indutype":"용역 서비스 - 종합용역","category":"other"}]},{"lat":"37.235454649","long":"127.28405865","imageIndex":17,"items":[{"name":"JG Soft","tel":"031-338-7931","addr":"경기도 용인시 처인구 양지면 양지리 595-8 강림빌라a-301 1/9","indutype":"용역 서비스 - 소프트웨어","category":"other"}]},{"lat":"37.233356028","long":"127.2912291","imageIndex":17,"items":[{"name":"KCC 페인트대리점 (고려상사)","tel":"031-335-7754","addr":"경기도 용인시 처인구 양지면 양지리 165-5","indutype":"건축자재 - 페인트","category":"other"}]},{"lat":"37.261271417","long":"127.2714274","imageIndex":17,"items":[{"name":"L&G조명","tel":"031-332-2591","addr":"경기도 용인시 처인구 양지면 대대리 573-1번지 4","indutype":"건축자재 - 조명기구","category":"other"}]},{"lat":"37.225832468","long":"127.25570719","imageIndex":17,"items":[{"name":"M/S키친아트","tel":"031-321-0244","addr":"경기도 용인시 처인구 양지면 송문리 413-5","indutype":"주방용구 - 주방용구","category":"other"}]},{"lat":"37.231137918","long":"127.28439195","imageIndex":17,"items":[{"name":"The 뜰","tel":"031-338-1101","addr":"경기도 용인시 처인구 양지면 남곡리 142-3번지 센텀빌 C동 101호","indutype":"문화.취미 - 문화취미기타","category":"other"},{"name":"다시봄 플라워","tel":"031-333-4805","addr":"경기도 용인시 처인구 양지면 남곡리 142-3번지 센텀빌 C동 102호","indutype":"문화.취미 - 화원","category":"other"}]},{"lat":"37.226755836","long":"127.27412193","imageIndex":17,"items":[{"name":"The축복","tel":"","addr":"경기도 용인시 처인구 양지면 남곡리 380-2번지 태영맨션 C동 403호","indutype":"의류 - 내의판매","category":"other"}]},{"lat":"37.252741537","long":"127.24503259","imageIndex":17,"items":[{"name":"VPS","tel":"031-335-1441","addr":"경기도 용인시 처인구 양지면 주북리803-2","indutype":"건축자재 - 보일러·펌프·샷시","category":"other"}]},{"lat":"37.216057618","long":"127.32561541","imageIndex":17,"items":[{"name":"ray house","tel":"031-322-7200","addr":"경기도 용인시 처인구 양지면 평창리 618-4번지","indutype":"건축자재 - 조명기구","category":"other"}]},{"lat":"37.228414778","long":"127.29997685","imageIndex":17,"items":[{"name":"가람공조","tel":"031-332-9259","addr":"경기도 용인시 처인구 양지면 제일리 663-14 2 4/1","indutype":"용역 서비스 - 기타용역서비스","category":"other"},{"name":"롯지","tel":"031-321-6699","addr":"경기도 용인시 처인구 양지면 제일리 663-14번지","indutype":"레져용품 - 스포츠·레져용품","category":"other"}]},{"lat":"37.232387038","long":"127.28578264","imageIndex":17,"items":[{"name":"거래처","tel":"031-321-0130","addr":"경기도 용인시 처인구 양지면 남곡리 133-6번지","indutype":"용역 서비스 - 종합용역","category":"other"}]},{"lat":"37.224913826","long":"127.25970411","imageIndex":17,"items":[{"name":"거성종합기계","tel":"031-335-0377","addr":"경기도 용인시 처인구 양지면 송문리 154","indutype":"기타 - 기타 전문점","category":"other"}]},{"lat":"37.246828581","long":"127.25472913","imageIndex":17,"items":[{"name":"경기ENG","tel":"031-334-3999","addr":"경기도 용인시 처인구 양지면 주북리 380번지 1층","indutype":"수리서비스 - 기타수리서비스","category":"other"}]},{"lat":"37.245407951","long":"127.26981576","imageIndex":17,"items":[{"name":"경기에이스캠퍼","tel":"","addr":"경기도 용인시 처인구 양지면 주북리 32번지 2층","indutype":"가구 - 일반가구","category":"other"}]},{"lat":"37.229497276","long":"127.29947402","imageIndex":17,"items":[{"name":"경동엔지니어링","tel":"031-335-8279","addr":"경기도 용인시 처인구 양지면 제일리 653번지","indutype":"건축자재 - 보일러·펌프·샷시","category":"other"}]},{"lat":"37.216057718","long":"127.27925483","imageIndex":17,"items":[{"name":"경성세탁장비","tel":"","addr":"경기도 용인시 처인구 양지면 남곡리 638번지","indutype":"전기제품 - 가전제품","category":"other"}]},{"lat":"37.232328937","long":"127.29850474","imageIndex":17,"items":[{"name":"경인건업","tel":"031-335-2516","addr":"경기도 용인시 처인구 양지면 양지리 119번지 외 1필지","indutype":"용역 서비스 - 기타용역서비스","category":"other"}]},{"lat":"37.23382916","long":"127.28558519","imageIndex":17,"items":[{"name":"고려중개인사무소","tel":"031-338-3066","addr":"경기도 용인시 처인구 양지면 양지리 474-3","indutype":"용역 서비스 - 부동산 중개·임대","category":"other"},{"name":"양지편의점","tel":"031-332-3210","addr":"경기도 용인시 처인구 양지면 양지리 474-3번지","indutype":"수리서비스 - 세탁소","category":"other"},{"name":"양지편의점","tel":"031-322-7890","addr":"경기도 용인시 처인구 양지면 양지리 474-3번지","indutype":"유통업 영리 - 편 의 점","category":"other"}]},{"lat":"37.225857845","long":"127.25223682","imageIndex":17,"items":[{"name":"고효율창호예창","tel":"031-322-4608","addr":"경기도 용인시 처인구 양지면 송문리 507-1번지","indutype":"건축자재 - 기타건축자재","category":"other"},{"name":"썬월드퍼니처","tel":"031-321-3641","addr":"경기도 용인시 처인구 양지면 송문리507-1","indutype":"가구 - 일반가구","category":"other"},{"name":"캠핑어스","tel":"031-336-5494","addr":"경기도 용인시 처인구 양지면 송문리 507-1번지","indutype":"레져용품 - 스포츠·레져용품","category":"other"}]},{"lat":"37.253408554","long":"127.24045837","imageIndex":17,"items":[{"name":"광명중공업","tel":"031-321-0082","addr":"경기도 용인시 처인구 양지면 주북리 780-2번지","indutype":"회원제형태 - 기타4","category":"other"}]},{"lat":"37.225362602","long":"127.26050564","imageIndex":17,"items":[{"name":"국제농기계","tel":"031-335-7999","addr":"경기도 용인시 처인구 양지면 송문리 138번지","indutype":"농업 - 농기계","category":"other"}]},{"lat":"37.241717003","long":"127.31967275","imageIndex":17,"items":[{"name":"굳잠","tel":"","addr":"경기도 용인시 처인구 양지면 제일리 33번지","indutype":"직물 - 침구·수예점","category":"other"}]},{"lat":"37.244657462","long":"127.24593091","imageIndex":17,"items":[{"name":"그루","tel":"031-338-1985","addr":"경기도 용인시 처인구 양지면 주북리 536번지","indutype":"가구 - 일반가구","category":"other"}]},{"lat":"37.236385348","long":"127.30494406","imageIndex":17,"items":[{"name":"그린복층유리","tel":"031-321-2876","addr":"경기도 용인시 처인구 양지면 제일리616","indutype":"건축자재 - 유리","category":"other"},{"name":"썬텍&푸시푸시","tel":"031-334-7023","addr":"경기도 용인시 처인구 양지면 제일리 616번지","indutype":"의류 - 정장","category":"other"}]},{"lat":"37.232771514","long":"127.29075358","imageIndex":17,"items":[{"name":"그린비(greenbee)","tel":"031-321-2801","addr":"경기도 용인시 처인구 양지면 양지리 163-1번지","indutype":"광학제품 - 사진관","category":"other"}]},{"lat":"37.232998332","long":"127.29744809","imageIndex":17,"items":[{"name":"그린빌","tel":"031-323-0031","addr":"경기도 용인시 처인구 양지면 양지리 115-1번지 1층","indutype":"레져용품 - 골프용품 전문점","category":"other"},{"name":"그린빌","tel":"031-323-0031","addr":"경기도 용인시 처인구 양지면 양지리 115-1번지 1층","indutype":"레져용품 - 골프용품 전문점","category":"other"}]},{"lat":"37.241472518","long":"127.30283432","imageIndex":17,"items":[{"name":"그린존아웃도어","tel":"","addr":"경기도 용인시 처인구 양지면 양지리 6-11번지 1층","indutype":"레져용품 - 스포츠·레져용품","category":"other"}]},{"lat":"37.253966623","long":"127.28956048","imageIndex":17,"items":[{"name":"금호티앤아이 주식회사","tel":"02-6303-3953","addr":"경기도 용인시 처인구 양지면 대대리 854-34번지","indutype":"용역 서비스 - 종합용역","category":"other"}]},{"lat":"37.225578407","long":"127.26070919","imageIndex":17,"items":[{"name":"긴급설비","tel":"031-336-6981","addr":"경기도 용인시 처인구 양지면 송문리 137-3번지 은혜카센타","indutype":"용역 서비스 - 기타용역서비스","category":"other"}]},{"lat":"37.215666157","long":"127.32377735","imageIndex":17,"items":[{"name":"나무모아","tel":"031-336-9902","addr":"경기도 용인시 처인구 양지면 평창리 626-8번지","indutype":"가구 - 일반가구","category":"other"}]},{"lat":"37.227162286","long":"127.29272668","imageIndex":17,"items":[{"name":"날아라슈퍼보드","tel":"031-335-0202","addr":"경기도 용인시 처인구 양지면 남곡리 106-1번지","indutype":"레져용품 - 스포츠·레져용품","category":"other"},{"name":"캐리어","tel":"031-355-0202","addr":"경기도 용인시 처인구 양지면 남곡리 106-1번지","indutype":"전기제품 - 냉열기기","category":"other"}]},{"lat":"37.233522677","long":"127.28564039","imageIndex":17,"items":[{"name":"내몸에힐링하기좋은날","tel":"031-322-5583","addr":"경기도 용인시 처인구 양지면 양지리 473-2번지","indutype":"신변잡화 - 기타잡화","category":"other"}]},{"lat":"37.216585388","long":"127.32036755","imageIndex":17,"items":[{"name":"내안에 스킨케어","tel":"031-334-9149","addr":"경기도 용인시 처인구 양지면 평창리 642-1번지 2층","indutype":"신변잡화 - 기타잡화","category":"other"}]},{"lat":"37.226918309","long":"127.28555939","imageIndex":17,"items":[{"name":"네스시스템","tel":"031-321-4414","addr":"경기도 용인시 처인구 양지면 남곡리474","indutype":"기타 - 기타 전문점","category":"other"},{"name":"대길P&P","tel":"031-427-8298","addr":"경기도 용인시 처인구 양지면 남곡리 474번지","indutype":"유통업 영리 - 기타유통업","category":"other"},{"name":"동일PACKAGE","tel":"031-339-1160","addr":"경기도 용인시 처인구 양지면 남곡리 474번지","indutype":"건축자재 - 목재·석재·철물","category":"other"}]},{"lat":"37.232661665","long":"127.31966867","imageIndex":17,"items":[{"name":"농업회사법인 주식회사 숲속곤충마을","tel":"031-336-4840","addr":"경기도 용인시 처인구 양지면 평창리 467-1번지","indutype":"문화.취미 - 애완동물","category":"other"},{"name":"숲속곤충마을","tel":"031-336-4840","addr":"경기도 용인시 처인구 양지면 평창리 467-1번지","indutype":"문화.취미 - 애완동물","category":"other"}]},{"lat":"37.266823436","long":"127.33472693","imageIndex":17,"items":[{"name":"닐리리 갤러리","tel":"","addr":"경기도 용인시 처인구 양지면 식금리 169-3번지 2층","indutype":"문화.취미 - 화랑","category":"other"}]},{"lat":"37.230634381","long":"127.28772553","imageIndex":17,"items":[{"name":"다린랜드주식회사(구상호 주식회사 소일콘)","tel":"031-332-5599","addr":"경기도 용인시 처인구 양지면 남곡리 124-7번지 (가동1층중일부)","indutype":"건축자재 - 기타건축자재","category":"other"},{"name":"몬스터","tel":"031-321-3110","addr":"경기도 용인시 처인구 양지면 남곡리 124-7번지","indutype":"레져용품 - 스포츠·레져용품","category":"other"}]},{"lat":"37.232528532","long":"127.27539343","imageIndex":17,"items":[{"name":"다온산업","tel":"031-337-2774","addr":"경기도 용인시 처인구 양지면 양지리 545번지","indutype":"건축자재 - 인테리어전문","category":"other"},{"name":"현대정밀","tel":"031-338-2220","addr":"경기도 용인시 처인구 양지면 양지리 545번지","indutype":"용역 서비스 - 기타용역서비스","category":"other"}]},{"lat":"37.234603529","long":"127.28200453","imageIndex":17,"items":[{"name":"다이소 용인양지점","tel":"031-338-7959","addr":"경기도 용인시 처인구 양지면 양지리 630-11번지 102,103,201호호","indutype":"신변잡화 - 기타잡화","category":"other"}]},{"lat":"37.239494074","long":"127.31869426","imageIndex":17,"items":[{"name":"달마선원","tel":"031-339-0433","addr":"경기도 용인시 처인구 양지면 제일리 138-2번지","indutype":"기타 - 비영리/대상","category":"other"}]},{"lat":"37.225996345","long":"127.29419829","imageIndex":17,"items":[{"name":"대관령스포츠","tel":"031-338-1238","addr":"경기도 용인시 처인구 양지면 남곡리 102-1","indutype":"레져용품 - 스포츠·레져용품","category":"other"}]},{"lat":"37.24788731","long":"127.32366596","imageIndex":17,"items":[{"name":"대광하우징","tel":"031-333-6160","addr":"경기도 용인시 처인구 양지면 추계리 192-4번지","indutype":"용역 서비스 - 기타용역서비스","category":"other"}]},{"lat":"37.21647175","long":"127.31906019","imageIndex":17,"items":[{"name":"대농팜농자재","tel":"031-337-1123","addr":"경기도 용인시 처인구 양지면 평창리 641-5번지","indutype":"농업 - 농기계","category":"other"}]},{"lat":"37.247496942","long":"127.2539762","imageIndex":17,"items":[{"name":"대명크린","tel":"031-323-3796","addr":"경기도 용인시 처인구 양지면 주북리 387-1번지","indutype":"용역 서비스 - 종합용역","category":"other"}]},{"lat":"37.224887067","long":"127.29092643","imageIndex":17,"items":[{"name":"대성파킹","tel":"031-559-8325","addr":"경기도 용인시 처인구 양지면 남곡리 796번지","indutype":"기타 - 기계공구","category":"other"}]},{"lat":"37.243521792","long":"127.26306944","imageIndex":17,"items":[{"name":"대승용접","tel":"031-338-0400","addr":"경기도 용인시 처인구 양지면 주북리 124번지","indutype":"기타 - 기타 전문점","category":"other"}]},{"lat":"37.252469586","long":"127.24140224","imageIndex":17,"items":[{"name":"대영산업","tel":"031-322-1912","addr":"경기도 용인시 처인구 양지면 주북리 785번지","indutype":"신변잡화 - 기타잡화","category":"other"}]},{"lat":"37.259495829","long":"127.24670003","imageIndex":17,"items":[{"name":"대예물산","tel":"031-322-3773","addr":"경기도 용인시 처인구 양지면 주북리 648번지 한터마트 105호","indutype":"농업 - 비료,사료,종자","category":"other"}]},{"lat":"37.225744382","long":"127.25476041","imageIndex":17,"items":[{"name":"대한민국 가구일번지","tel":"031-333-9949","addr":"경기도 용인시 처인구 양지면 송문리 414번지 2호 전면좌측","indutype":"가구 - 일반가구","category":"other"}]},{"lat":"37.247605081","long":"127.24532047","imageIndex":17,"items":[{"name":"데드포인트","tel":"031-333-2546","addr":"경기도 용인시 처인구 양지면 주북리 1103-12번지","indutype":"의류 - 정장","category":"other"}]},{"lat":"37.229947951","long":"127.2846467","imageIndex":17,"items":[{"name":"도도설비","tel":"031-339-9941","addr":"경기도 용인시 처인구 양지면 남곡리 147-55번지 센텀스몰시티 107동 501호","indutype":"용역 서비스 - 기타용역서비스","category":"other"}]},{"lat":"37.240694233","long":"127.30061107","imageIndex":17,"items":[{"name":"도서출판목양","tel":"031-321-4196","addr":"경기도 용인시 처인구 양지면 양지리38-2","indutype":"회원제형태 - 서적","category":"other"}]},{"lat":"37.228886384","long":"127.29875047","imageIndex":17,"items":[{"name":"도시와 농촌","tel":"031-338-5700","addr":"경기도 용인시 처인구 양지면 제일리 662-1번지","indutype":"서적문구 - 과학기자재","category":"other"},{"name":"숲이있는도시농부협동조합","tel":"031-338-8989","addr":"경기도 용인시 처인구 양지면 제일리 662-1번지 1층","indutype":"문화.취미 - 화원","category":"other"},{"name":"양지 동강 레포츠","tel":"031-334-0520","addr":"경기도 용인시 처인구 양지면 제일리 662-1","indutype":"레져용품 - 스포츠·레져용품","category":"other"}]},{"lat":"37.234689368","long":"127.28380789","imageIndex":17,"items":[{"name":"동남아2호점","tel":"031-338-2257","addr":"경기도 용인시 처인구 양지면 양지리 592-4번지 동남아2호점","indutype":"사무통신 - 통신기기","category":"other"},{"name":"양지바른한솔플러스","tel":"","addr":"경기도 용인시 처인구 양지면 양지리 592-4번지","indutype":"서적문구 - 기타서적문구","category":"other"}]},{"lat":"37.23390939","long":"127.28594609","imageIndex":17,"items":[{"name":"동서남북광고","tel":"031-338-1900","addr":"경기도 용인시 처인구 양지면 양지리 477-4","indutype":"용역 서비스 - 종합용역","category":"other"}]},{"lat":"37.229946725","long":"127.3207278","imageIndex":17,"items":[{"name":"동수기와","tel":"","addr":"경기도 용인시 처인구 양지면 평창리 450번지","indutype":"용역 서비스 - 기타용역서비스","category":"other"}]},{"lat":"37.234553043","long":"127.28048303","imageIndex":17,"items":[{"name":"동아전기모타","tel":"031-338-0135","addr":"경기도 용인시 처인구 양지면 양지리633-1","indutype":"수리서비스 - 기타수리서비스","category":"other"}]},{"lat":"37.239469247","long":"127.26619977","imageIndex":17,"items":[{"name":"동양싱크","tel":"031-332-2330","addr":"경기도 용인시 처인구 양지면 주북리 141-17번지 외1필지","indutype":"주방용구 - 주방용구","category":"other"}]},{"lat":"37.234611103","long":"127.28261309","imageIndex":17,"items":[{"name":"동양이엔지 (ENG)","tel":"031-339-4737","addr":"경기도 용인시 처인구 양지면 양지리 629번지 2층","indutype":"수리서비스 - 기타수리서비스","category":"other"},{"name":"삼화공사","tel":"031-338-7690","addr":"경기도 용인시 처인구 양지면 양지리 629번지","indutype":"건축자재 - 페인트","category":"other"}]},{"lat":"37.247443727","long":"127.26603591","imageIndex":17,"items":[{"name":"동양케미칼주식회사","tel":"031-339-9781","addr":"경기도 용인시 처인구 양지면 주북리 80-2번지 외2필지","indutype":"주방용구 - 주방용식기","category":"other"}]},{"lat":"37.255715633","long":"127.27773135","imageIndex":17,"items":[{"name":"딜라(Dilla)","tel":"031-357-7556","addr":"경기도 용인시 처인구 양지면 대대리 675-4번지 2층","indutype":"광학제품 - 사진관","category":"other"}]},{"lat":"37.262634373","long":"127.25811861","imageIndex":17,"items":[{"name":"라니가구","tel":"031-261-0556","addr":"경기도 용인시 처인구 양지면 대대리 330-1번지","indutype":"가구 - 일반가구","category":"other"}]},{"lat":"37.260185816","long":"127.25284594","imageIndex":17,"items":[{"name":"로뎀 플라워","tel":"070-7018-5367","addr":"경기도 용인시 처인구 양지면 대대리 299번지","indutype":"문화.취미 - 화원","category":"other"}]},{"lat":"37.254658032","long":"127.26328809","imageIndex":17,"items":[{"name":"리에코","tel":"031-333-2942","addr":"경기도 용인시 처인구 양지면 대대리 527-4번지","indutype":"문화.취미 - 문화취미기타","category":"other"}]},{"lat":"37.235355323","long":"127.28414844","imageIndex":17,"items":[{"name":"릴리","tel":"031-333-8634","addr":"경기도 용인시 처인구 양지면 양지리 595-9번지","indutype":"신변잡화 - 액세서리","category":"other"},{"name":"양지BYC","tel":"031-338-5495","addr":"경기도 용인시 처인구 양지면 양지리595-9","indutype":"의류 - 내의판매","category":"other"}]},{"lat":"37.226946851","long":"127.30325004","imageIndex":17,"items":[{"name":"립스팍","tel":"0505-333-7070","addr":"경기도 용인시 처인구 양지면 제일리 302-3번지","indutype":"유통업 영리 - 기타유통업","category":"other"}]},{"lat":"37.236192229","long":"127.28459105","imageIndex":17,"items":[{"name":"마루문구","tel":"031-338-7582","addr":"경기도 용인시 처인구 양지면 양지리 462-4번지","indutype":"서적문구 - 문구용품","category":"other"}]},{"lat":"37.226023041","long":"127.29064906","imageIndex":17,"items":[{"name":"맥엔피씨(Mac&피씨)","tel":"","addr":"경기도 용인시 처인구 양지면 남곡리 72-3번지 4층 301호","indutype":"수리서비스 - 사무·통신기기수리","category":"other"}]},{"lat":"37.233049204","long":"127.2877008","imageIndex":17,"items":[{"name":"멀티전자","tel":"031-335-2286","addr":"경기도 용인시 처인구 양지면 양지리 483번지","indutype":"전기제품 - 가전제품","category":"other"}]},{"lat":"37.215500711","long":"127.32164735","imageIndex":17,"items":[{"name":"명성공인중개사사무소","tel":"031-332-6689","addr":"경기도 용인시 처인구 양지면 평창리 646-11번지","indutype":"용역 서비스 - 부동산 중개·임대","category":"other"}]},{"lat":"37.227528992","long":"127.2709246","imageIndex":17,"items":[{"name":"모비스낚시아울렛","tel":"031-338-7775","addr":"경기도 용인시 처인구 양지면 256-2번지 모비스낚시","indutype":"레져용품 - 스포츠·레져용품","category":"other"}]},{"lat":"37.230778453","long":"127.3094178","imageIndex":17,"items":[{"name":"물속나라","tel":"031-338-4014","addr":"경기도 용인시 처인구 양지면 제일리236-14","indutype":"문화.취미 - 수족관","category":"other"}]},{"lat":"37.235688835","long":"127.28409333","imageIndex":17,"items":[{"name":"미림세탁","tel":"031-338-3217","addr":"경기도 용인시 처인구 양지면 양지리 596-9번지","indutype":"수리서비스 - 세탁소","category":"other"},{"name":"미림세탁소","tel":"031-338-3217","addr":"경기도 용인시 처인구 양지면 양지리 596-9번지","indutype":"수리서비스 - 세탁소","category":"other"}]},{"lat":"37.230526587","long":"127.28381499","imageIndex":17,"items":[{"name":"미성사이언스","tel":"","addr":"경기도 용인시 처인구 양지면 남곡리 152번지 센텀스몰시티 406동 201호","indutype":"서적문구 - 과학기자재","category":"other"}]},{"lat":"37.233858902","long":"127.28444714","imageIndex":17,"items":[{"name":"바비하우스","tel":"031-636-1199","addr":"경기도 용인시 처인구 양지면 양지리 584-4번지","indutype":"의류 - 정장","category":"other"}]},{"lat":"37.2580536","long":"127.33252415","imageIndex":17,"items":[{"name":"바우프로텍","tel":"031-336-7317","addr":"경기도 용인시 처인구 양지면 식금리 65-3번지","indutype":"건축자재 - 기타건축자재","category":"other"}]},{"lat":"37.234911123","long":"127.28147602","imageIndex":17,"items":[{"name":"백옥환경산업","tel":"031-335-8288","addr":"경기도 용인시 처인구 양지면 양지리 631-4번지 3층(L.C.P.L)","indutype":"용역 서비스 - 종합용역","category":"other"}]},{"lat":"37.237192568","long":"127.29927878","imageIndex":17,"items":[{"name":"백현가설산업 주식회사","tel":"031-338-4018","addr":"경기도 용인시 처인구 양지면 양지리 64번지","indutype":"건축자재 - 기타건축자재","category":"other"}]},{"lat":"37.230327372","long":"127.28423118","imageIndex":17,"items":[{"name":"베리하우스베리키친","tel":"","addr":"경기도 용인시 처인구 양지면 남곡리 152-7번지 센텀스몰시티 402동 202호","indutype":"가구 - 일반가구","category":"other"}]},{"lat":"37.226272858","long":"127.2953374","imageIndex":17,"items":[{"name":"베스트","tel":"031-321-8733","addr":"경기도 용인시 처인구 양지면 남곡리 99-8번지 1층","indutype":"레져용품 - 스포츠·레져용품","category":"other"},{"name":"세븐일레븐용인양지리조트점","tel":"031-1577-0711","addr":"경기도 용인시 처인구 양지면 남곡리 99-8번지 1층","indutype":"유통업 영리 - 편 의 점","category":"other"}]},{"lat":"37.239718938","long":"127.3188417","imageIndex":17,"items":[{"name":"별상사","tel":"031-335-6267","addr":"경기도 용인시 처인구 양지면 제일리 13-7","indutype":"회원제형태 - 기타4","category":"other"}]},{"lat":"37.227194709","long":"127.29784243","imageIndex":17,"items":[{"name":"보스스키샵","tel":"031-321-1575","addr":"경기도 용인시 처인구 양지면 제일리673-3","indutype":"레져용품 - 스포츠·레져용품","category":"other"}]},{"lat":"37.229750373","long":"127.32002835","imageIndex":17,"items":[{"name":"보일러할인마트","tel":"031-321-3229","addr":"경기도 용인시 처인구 양지면 평창리 453-2번지","indutype":"수리서비스 - 기타수리서비스","category":"other"}]},{"lat":"37.260161772","long":"127.24709672","imageIndex":17,"items":[{"name":"봉다리 비니리","tel":"031-336-3371","addr":"경기도 용인시 처인구 양지면 주북리 653-1번지","indutype":"유통업 영리 - 기타유통업","category":"other"}]},{"lat":"37.226272695","long":"127.29173171","imageIndex":17,"items":[{"name":"부영설비공사","tel":"031-338-9822","addr":"경기도 용인시 처인구 양지면 남곡리 116-1번지","indutype":"용역 서비스 - 기타용역서비스","category":"other"}]},{"lat":"37.2286663","long":"127.30028207","imageIndex":17,"items":[{"name":"북새통","tel":"031-323-7300","addr":"경기도 용인시 처인구 양지면 제일리 663-5 외4필지 경성상가 101~102호","indutype":"신변잡화 - 기타잡화","category":"other"}]},{"lat":"37.245077993","long":"127.27228285","imageIndex":17,"items":[{"name":"비엠비코리아","tel":"031-332-3367","addr":"경기도 용인시 처인구 양지면 주북리 35-1번지 외3필지","indutype":"주방용구 - 주방용구","category":"other"}]},{"lat":"37.24905146","long":"127.25172712","imageIndex":17,"items":[{"name":"빅베어마린","tel":"","addr":"경기도 용인시 처인구 양지면 주북리 361번지","indutype":"레져용품 - 스포츠·레져용품","category":"other"}]},{"lat":"37.235350527","long":"127.2823679","imageIndex":17,"items":[{"name":"빛나리 홈케어","tel":"","addr":"경기도 용인시 처인구 양지면 양지리 619-6번지 달빛마을 다동 203호","indutype":"용역 서비스 - 종합용역","category":"other"}]},{"lat":"37.2513301","long":"127.26875458","imageIndex":17,"items":[{"name":"사회복지법인즐거운우리집","tel":"031-335-9911","addr":"경기도 용인시 처인구 양지면 주북리 70번지","indutype":"기타의료기관 - 기타의료기관 및 기타","category":"other"},{"name":"즐거운우리집","tel":"031-335-9910","addr":"경기도 용인시 처인구 양지면 주북리 70번지","indutype":"기타의료기관 - 기타의료기관 및 기타","category":"other"}]},{"lat":"37.228465497","long":"127.27117581","imageIndex":17,"items":[{"name":"삼부콘테이너","tel":"031-321-9581","addr":"경기도 용인시 처인구 양지면 양지리 788-2","indutype":"건축자재 - 기타건축자재","category":"other"}]},{"lat":"37.241130631","long":"127.25209553","imageIndex":17,"items":[{"name":"새롬테크","tel":"031-336-2511","addr":"경기도 용인시 처인구 양지면 주북리 449번지","indutype":"용역 서비스 - 종합용역","category":"other"}]},{"lat":"37.236104809","long":"127.29828283","imageIndex":17,"items":[{"name":"서림건설(주)","tel":"031-323-4711","addr":"경기도 용인시 처인구 양지면 양지리 100번지 2층","indutype":"건축자재 - 인테리어전문","category":"other"},{"name":"서림디자인 주식회사","tel":"031-323-4711","addr":"경기도 용인시 처인구 양지면 양지리 100번지 2층","indutype":"용역 서비스 - 기타용역서비스","category":"other"}]},{"lat":"37.23135617","long":"127.29836572","imageIndex":17,"items":[{"name":"서울건재","tel":"031-337-0077","addr":"경기도 용인시 처인구 양지면 양지리 121-2번지","indutype":"건축자재 - 목재·석재·철물","category":"other"}]},{"lat":"37.224833018","long":"127.25111796","imageIndex":17,"items":[{"name":"선스톤조경","tel":"031-336-6889","addr":"경기도 용인시 처인구 양지면 송문리 429-7번지","indutype":"건축자재 - 기타건축자재","category":"other"}]},{"lat":"37.23257851","long":"127.28483678","imageIndex":17,"items":[{"name":"선조형테크","tel":"031-321-8345","addr":"경기도 용인시 처인구 양지면 양지리502-4","indutype":"건축자재 - 인테리어전문","category":"other"}]},{"lat":"37.234637521","long":"127.28287237","imageIndex":17,"items":[{"name":"성민전기조명","tel":"031-338-8881","addr":"경기도 용인시 처인구 양지면 양지리 629-2번지","indutype":"건축자재 - 조명기구","category":"other"}]},{"lat":"37.250356887","long":"127.32669715","imageIndex":17,"items":[{"name":"성진프라스틱","tel":"031-333-3682","addr":"경기도 용인시 처인구 양지면 추계리 121-3","indutype":"유통업 영리 - 기타유통업","category":"other"}]},{"lat":"37.235327515","long":"127.28447514","imageIndex":17,"items":[{"name":"세그레또 아뜰리에","tel":"031-323-7105","addr":"경기도 용인시 처인구 양지면 양지리 595-1번지","indutype":"문화.취미 - 문화취미기타","category":"other"}]},{"lat":"37.234468536","long":"127.28573407","imageIndex":17,"items":[{"name":"세기건재","tel":"031-338-3391","addr":"경기도 용인시 처인구 양지면 양지리 467-2번지","indutype":"건축자재 - 기타건축자재","category":"other"}]},{"lat":"37.234108611","long":"127.28552988","imageIndex":17,"items":[{"name":"세기전기","tel":"031-338-6815","addr":"경기도 용인시 처인구 양지면 양지리 469-1","indutype":"전기제품 - 기타전기제품","category":"other"}]},{"lat":"37.23930434","long":"127.28309249","imageIndex":17,"items":[{"name":"세노텍","tel":"070-4792-7586","addr":"경기도 용인시 처인구 양지면 양지리 337-4번지","indutype":"용역 서비스 - 사무서비스","category":"other"}]},{"lat":"37.228580084","long":"127.29142501","imageIndex":17,"items":[{"name":"세림건재","tel":"031-321-3788","addr":"경기도 용인시 처인구 양지면 양지리 138-34번지 (1호)","indutype":"건축자재 - 목재·석재·철물","category":"other"}]},{"lat":"37.232689543","long":"127.29842727","imageIndex":17,"items":[{"name":"세븐일레븐양지IC점","tel":"","addr":"경기도 용인시 처인구 양지면 양지리 118","indutype":"유통업 영리 - 편 의 점","category":"other"},{"name":"세븐일레븐양지IC점","tel":"031-338-5106","addr":"경기도 용인시 처인구 양지면 양지리 118","indutype":"유통업 영리 - 편 의 점","category":"other"}]},{"lat":"37.230105746","long":"127.28269786","imageIndex":17,"items":[{"name":"세븐일레븐용인남곡점","tel":"","addr":"경기도 용인시 처인구 양지면 남곡리 160-10번지 1층","indutype":"유통업 영리 - 편 의 점","category":"other"}]},{"lat":"37.225136364","long":"127.25678656","imageIndex":17,"items":[{"name":"세븐일레븐용인송문우리점","tel":"031-1577-0711","addr":"경기도 용인시 처인구 양지면 송문리 405-1번지","indutype":"유통업 영리 - 편 의 점","category":"other"}]},{"lat":"37.234221798","long":"127.28340048","imageIndex":17,"items":[{"name":"세븐일레븐용인양지본점","tel":"","addr":"경기도 용인시 처인구 양지면 양지리 569-1번지","indutype":"유통업 영리 - 편 의 점","category":"other"}]},{"lat":"37.228579248","long":"127.29906478","imageIndex":17,"items":[{"name":"세븐일레븐용인양지제일점","tel":"031-1577-0711","addr":"경기도 용인시 처인구 양지면 제일리 662-8번지","indutype":"유통업 영리 - 편 의 점","category":"other"},{"name":"스키114","tel":"031-338-1101","addr":"경기도 용인시 처인구 양지면 제일리 662-8번지","indutype":"레져용품 - 스포츠·레져용품","category":"other"}]},{"lat":"37.236216224","long":"127.28586456","imageIndex":17,"items":[{"name":"세븐일레븐용인양지타운점","tel":"031-1577-0711","addr":"경기도 용인시 처인구 양지면 양지리 460-10번지","indutype":"유통업 영리 - 편 의 점","category":"other"}]},{"lat":"37.24913234","long":"127.23861901","imageIndex":17,"items":[{"name":"세븐일레븐용인주북로점","tel":"031-1577-0711","addr":"경기도 용인시 처인구 양지면 주북리 886-2번지","indutype":"유통업 영리 - 편 의 점","category":"other"}]},{"lat":"37.232637223","long":"127.2977284","imageIndex":17,"items":[{"name":"세븐일레븐용인죽양대로점","tel":"","addr":"경기도 용인시 처인구 양지면 양지리 117번지 한국부동산","indutype":"유통업 영리 - 편 의 점","category":"other"}]},{"lat":"37.245992489","long":"127.32131363","imageIndex":17,"items":[{"name":"세븐일레븐용인중부대로점","tel":"031-1577-0711","addr":"경기도 용인시 처인구 양지면 제일리 49-2번지","indutype":"유통업 영리 - 편 의 점","category":"other"}]},{"lat":"37.216245743","long":"127.3193409","imageIndex":17,"items":[{"name":"세븐일레븐용인평창점","tel":"031-1577-0711","addr":"경기도 용인시 처인구 양지면 평창리 641-33번지","indutype":"유통업 영리 - 편 의 점","category":"other"}]},{"lat":"37.248101903","long":"127.26175521","imageIndex":17,"items":[{"name":"셈","tel":"031-335-8253","addr":"경기도 용인시 처인구 양지면 주북리 308-1번지 1층","indutype":"가구 - 일반가구","category":"other"}]},{"lat":"37.22991671","long":"127.31847402","imageIndex":17,"items":[{"name":"솔이엔지(Sol ENG)","tel":"031-338-2225","addr":"경기도 용인시 처인구 양지면 평창리 249-5번지","indutype":"용역 서비스 - 기타용역서비스","category":"other"}]},{"lat":"37.234942963","long":"127.28325665","imageIndex":17,"items":[{"name":"수피부","tel":"031-323-2102","addr":"경기도 용인시 처인구 양지면 양지리 627-7번지","indutype":"회원제형태 - 기타4","category":"other"}]},{"lat":"37.227383166","long":"127.2981474","imageIndex":17,"items":[{"name":"스카이스키샵","tel":"031-339-5285","addr":"경기도 용인시 처인구 양지면 제일리 674-4번지","indutype":"레져용품 - 스포츠·레져용품","category":"other"}]},{"lat":"37.228028583","long":"127.30658966","imageIndex":17,"items":[{"name":"스튜디오 가족","tel":"031-323-1225","addr":"경기도 용인시 처인구 양지면 제일리 331-5번지 2층","indutype":"광학제품 - 사진관","category":"other"}]},{"lat":"37.247047928","long":"127.26165017","imageIndex":17,"items":[{"name":"스포츠 팩토리","tel":"031-333-5311","addr":"경기도 용인시 처인구 양지면 주북리 278번지","indutype":"레져용품 - 스포츠·레져용품","category":"other"}]},{"lat":"37.234162213","long":"127.28192402","imageIndex":17,"items":[{"name":"스포츠운동원","tel":"031-338-1945","addr":"경기도 용인시 처인구 양지면 양지리 566-1번지 쌍림빌딩 2층","indutype":"회원제형태 - 레져업소","category":"other"},{"name":"양지꽃식물원","tel":"031-338-5031","addr":"경기도 용인시 처인구 양지면 양지리566-1","indutype":"문화.취미 - 화원","category":"other"},{"name":"양지유리","tel":"031-338-3610","addr":"경기도 용인시 처인구 양지면 양지리 566-1","indutype":"건축자재 - 유리","category":"other"}]},{"lat":"37.228083488","long":"127.29914171","imageIndex":17,"items":[{"name":"스피드스키대여점","tel":"031-321-5518","addr":"경기도 용인시 처인구 양지면 제일리 666-4번지","indutype":"레져용품 - 스포츠·레져용품","category":"other"}]},{"lat":"37.258185049","long":"127.24439621","imageIndex":17,"items":[{"name":"신갈콘크리트","tel":"031-339-6689","addr":"경기도 용인시 처인구 양지면 주북리 731","indutype":"건축자재 - 기타건축자재","category":"other"}]},{"lat":"37.227331306","long":"127.2584503","imageIndex":17,"items":[{"name":"신성","tel":"","addr":"경기도 용인시 처인구 양지면 송문리 80-3번지","indutype":"건축자재 - 기타건축자재","category":"other"}]},{"lat":"37.234938332","long":"127.28520618","imageIndex":17,"items":[{"name":"신원세탁소","tel":"031-321-5972","addr":"경기도 용인시 처인구 양지면 양지리 907번지 양지마을신원아침도시 상가동 101호","indutype":"수리서비스 - 세탁소","category":"other"}]},{"lat":"37.249552631","long":"127.23567853","imageIndex":17,"items":[{"name":"신원파이프","tel":"031-333-4774","addr":"경기도 용인시 처인구 양지면 주북리 856-10","indutype":"기타 - 기타 전문점","category":"other"}]},{"lat":"37.231557469","long":"127.3181428","imageIndex":17,"items":[{"name":"신일콤프레샤","tel":"031-321-0652","addr":"경기도 용인시 처인구 양지면 평창리 243번지","indutype":"기타 - 기계공구","category":"other"}]},{"lat":"37.23469005","long":"127.29470503","imageIndex":17,"items":[{"name":"신형자원","tel":"031-323-2159","addr":"경기도 용인시 처인구 양지면 양지리 175-3번지 외","indutype":"신변잡화 - 기타잡화","category":"other"}]},{"lat":"37.230854032","long":"127.28630653","imageIndex":17,"items":[{"name":"씨앤비","tel":"070-4763-5091","addr":"경기도 용인시 처인구 양지면 남곡리 140-2번지 베네하우스 C동 401호","indutype":"레져용품 - 골프용품 전문점","category":"other"}]},{"lat":"37.233746657","long":"127.29725943","imageIndex":17,"items":[{"name":"씨유양지IC점","tel":"031-898-6565","addr":"경기도 용인시 처인구 양지면 양지리 110-3번지","indutype":"유통업 영리 - 편 의 점","category":"other"}]},{"lat":"37.233553994","long":"127.28761255","imageIndex":17,"items":[{"name":"씨유양지대로점","tel":"031-898-6877","addr":"경기도 용인시 처인구 양지면 양지리 482-2번지 1층","indutype":"유통업 영리 - 편 의 점","category":"other"}]},{"lat":"37.234217782","long":"127.2850908","imageIndex":17,"items":[{"name":"씨유양지점","tel":"031-898-6568","addr":"경기도 용인시 처인구 양지면 양지리 586-1번지","indutype":"유통업 영리 - 편 의 점","category":"other"}]},{"lat":"37.227523853","long":"127.29225481","imageIndex":17,"items":[{"name":"씨유양지파인점","tel":"031-323-3880","addr":"경기도 용인시 처인구 양지면 남곡리 118번지 1층","indutype":"유통업 영리 - 편 의 점","category":"other"}]},{"lat":"37.217113939","long":"127.31813902","imageIndex":17,"items":[{"name":"씨유양지휴게소점","tel":"080-080-3663","addr":"경기도 용인시 처인구 양지면 평창리 653-28번지 B동 1호","indutype":"유통업 영리 - 편 의 점","category":"other"}]},{"lat":"37.216078729","long":"127.3211428","imageIndex":17,"items":[{"name":"씨유용인지산휴게소점","tel":"031-332-5866","addr":"경기도 용인시 처인구 양지면 평창리 645-2번지 1층","indutype":"유통업 영리 - 편 의 점","category":"other"}]},{"lat":"37.260858017","long":"127.25025539","imageIndex":17,"items":[{"name":"씨유용인한터점","tel":"031-239-6695","addr":"경기도 용인시 처인구 양지면 주북리 617번지 B동 1층","indutype":"유통업 영리 - 편 의 점","category":"other"},{"name":"엘엔비(LNB)","tel":"031-338-7585","addr":"경기도 용인시 처인구 양지면 주북리 617","indutype":"건축자재 - 인테리어전문","category":"other"}]},{"lat":"37.230131658","long":"127.28317123","imageIndex":17,"items":[{"name":"아르티장 (artisan)","tel":"031-1833-6526","addr":"경기도 용인시 처인구 양지면 남곡리 156-5번지 상가 B동","indutype":"전기제품 - 냉열기기","category":"other"}]},{"lat":"37.25388174","long":"127.25562054","imageIndex":17,"items":[{"name":"아시아렌탈","tel":"031-322-8850","addr":"경기도 용인시 처인구 양지면 주북리 337-2번지 하단","indutype":"수리서비스 - 기타수리서비스","category":"other"}]},{"lat":"37.233166889","long":"127.30914575","imageIndex":17,"items":[{"name":"아이엠에스(IMS)","tel":"031-334-2955","addr":"경기도 용인시 처인구 양지면 402번지 301호","indutype":"기타 - 기타 전문점","category":"other"}]},{"lat":"37.234274015","long":"127.28417823","imageIndex":17,"items":[{"name":"알파문구 용인양지점","tel":"031-338-3541","addr":"경기도 용인시 처인구 양지면 양지리 575-4번지 양지치과의원 102호","indutype":"서적문구 - 문구용품","category":"other"},{"name":"양지지업사","tel":"031-338-6036","addr":"경기도 용인시 처인구 양지면 양지리 575-4번지","indutype":"직물 - 카페트,커튼,천막,지물","category":"other"},{"name":"이마트24 양지중앙점","tel":"031-000-0000","addr":"경기도 용인시 처인구 양지면 양지리 575-4번지 양지치과의원 1층 104호","indutype":"유통업 영리 - 편 의 점","category":"other"}]},{"lat":"37.225995734","long":"127.25520069","imageIndex":17,"items":[{"name":"양지가구,쇼파","tel":"031-321-8983","addr":"경기도 용인시 처인구 양지면 송문리 513-2번지","indutype":"가구 - 기타가구","category":"other"},{"name":"양지노송가구","tel":"031-323-1919","addr":"경기도 용인시 처인구 양지면 송문리 513-2","indutype":"가구 - 일반가구","category":"other"},{"name":"에레쯔 (EREZ)가구","tel":"031-322-5429","addr":"경기도 용인시 처인구 양지면 송문리 513-2번지","indutype":"가구 - 일반가구","category":"other"},{"name":"에코하임","tel":"031-335-4474","addr":"경기도 용인시 처인구 양지면 송문리 513-2번지","indutype":"가구 - 일반가구","category":"other"},{"name":"용인 인까사","tel":"031-338-2472","addr":"경기도 용인시 처인구 양지면 송문리 513-2번지","indutype":"가구 - 일반가구","category":"other"},{"name":"창&하우스","tel":"031-333-5789","addr":"경기도 용인시 처인구 양지면 송문리513-2","indutype":"직물 - 카페트,커튼,천막,지물","category":"other"}]},{"lat":"37.23730401","long":"127.26337489","imageIndex":17,"items":[{"name":"양지골프레인지","tel":"031-322-0755","addr":"경기도 용인시 처인구 양지면 주북리 160-2번지 외 5필지","indutype":"회원제형태 - 레져업소","category":"other"}]},{"lat":"37.23438145","long":"127.29561663","imageIndex":17,"items":[{"name":"양지동아공구","tel":"031-334-0912","addr":"경기도 용인시 처인구 양지면 양지리 98-28번지 1층","indutype":"건축자재 - 목재·석재·철물","category":"other"}]},{"lat":"37.236603664","long":"127.28586601","imageIndex":17,"items":[{"name":"양지면주민자치센터","tel":"031-338-0565","addr":"경기도 용인시 처인구 양지면 양지리 460-1","indutype":"문화.취미 - 문화취미기타","category":"other"}]},{"lat":"37.234249442","long":"127.28314139","imageIndex":17,"items":[{"name":"양지모타","tel":"031-338-3989","addr":"경기도 용인시 처인구 양지면 양지리 569-2","indutype":"수리서비스 - 기타수리서비스","category":"other"}]},{"lat":"37.234135965","long":"127.28539476","imageIndex":17,"items":[{"name":"양지신발","tel":"031-338-0038","addr":"경기도 용인시 처인구 양지면 양지리 469-2번지","indutype":"신변잡화 - 신발","category":"other"}]},{"lat":"37.234221807","long":"127.28717557","imageIndex":17,"items":[{"name":"양지우체국","tel":"031-338-3005","addr":"경기도 용인시 처인구 양지면 양지리 445-2번지","indutype":"용역 서비스 - 공공요금대행서비스/소","category":"other"}]},{"lat":"37.232439129","long":"127.27508885","imageIndex":17,"items":[{"name":"양지정밀기계","tel":"031-338-3896","addr":"경기도 용인시 처인구 양지면 양지리 544-2","indutype":"건축자재 - 목재·석재·철물","category":"other"},{"name":"양지종합가스","tel":"031-338-0209","addr":"경기도 용인시 처인구 양지면 양지리 544-2번지","indutype":"용역 서비스 - 기타용역서비스","category":"other"}]},{"lat":"37.23427463","long":"127.28391904","imageIndex":17,"items":[{"name":"양지통신","tel":"031-333-3119","addr":"경기도 용인시 처인구 양지면 양지리 573-1번지","indutype":"사무통신 - 통신기기","category":"other"}]},{"lat":"37.254441502","long":"127.26748051","imageIndex":17,"items":[{"name":"에듀왕용인지사","tel":"031-322-4660","addr":"경기도 용인시 처인구 양지면 대대리 504","indutype":"회원제형태 - 서적","category":"other"}]},{"lat":"37.223549329","long":"127.26151353","imageIndex":17,"items":[{"name":"에스아이파크토리","tel":"02-3159-0909","addr":"경기도 용인시 처인구 양지면 송문리 126번지","indutype":"주방용구 - 주방용구","category":"other"}]},{"lat":"37.264330087","long":"127.25729009","imageIndex":17,"items":[{"name":"에스코리안","tel":"031-321-0352","addr":"경기도 용인시 처인구 양지면 대대리355","indutype":"가구 - 일반가구","category":"other"}]},{"lat":"37.239413088","long":"127.31525666","imageIndex":17,"items":[{"name":"에어탑사인","tel":"031-336-4128","addr":"경기도 용인시 처인구 양지면 제일리 115-4번지","indutype":"용역 서비스 - 종합용역","category":"other"}]},{"lat":"37.237024161","long":"127.308812","imageIndex":17,"items":[{"name":"에이프레임","tel":"031-339-9609","addr":"경기도 용인시 처인구 양지면 제일리 436번지","indutype":"가구 - 기타가구","category":"other"}]},{"lat":"37.254297375","long":"127.26339956","imageIndex":17,"items":[{"name":"연필로그리는이야기","tel":"070-8806-0809","addr":"경기도 용인시 처인구 양지면 대대리 530번지","indutype":"광학제품 - 사진관","category":"other"}]},{"lat":"37.23466041","long":"127.28461915","imageIndex":17,"items":[{"name":"영남세탁소","tel":"031-338-3306","addr":"경기도 용인시 처인구 양지면 양지리 589","indutype":"수리서비스 - 세탁소","category":"other"}]},{"lat":"37.259581948","long":"127.33050172","imageIndex":17,"items":[{"name":"영도서","tel":"031-673-0770","addr":"경기도 용인시 처인구 양지면 식금리 72-2번지","indutype":"서적문구 - 일반서적","category":"other"},{"name":"주식회사 발해","tel":"031-321-6199","addr":"경기도 용인시 처인구 양지면 식금리 72-2번지","indutype":"회원제형태 - 서적","category":"other"}]},{"lat":"37.255269948","long":"127.24231284","imageIndex":17,"items":[{"name":"영림창호","tel":"031-322-4550","addr":"경기도 용인시 처인구 양지면 주북리 769-3","indutype":"직물 - 카페트,커튼,천막,지물","category":"other"}]},{"lat":"37.235715009","long":"127.28445404","imageIndex":17,"items":[{"name":"영아트문구","tel":"031-338-3195","addr":"경기도 용인시 처인구 양지면 양지리 598-10번지","indutype":"서적문구 - 문구용품","category":"other"}]},{"lat":"37.224996594","long":"127.25045371","imageIndex":17,"items":[{"name":"영은조경자재","tel":"031-338-3571","addr":"경기도 용인시 처인구 양지면 송문리452-3","indutype":"문화.취미 - 화원","category":"other"}]},{"lat":"37.235859173","long":"127.28445458","imageIndex":17,"items":[{"name":"영호설비환경 (주)용인지점","tel":"031-217-4888","addr":"경기도 용인시 처인구 양지면 양지리 598-6번지","indutype":"용역 서비스 - 종합용역","category":"other"}]},{"lat":"37.225833276","long":"127.2510649","imageIndex":17,"items":[{"name":"예담원","tel":"070-7760-3091","addr":"경기도 용인시 처인구 양지면 송문리 455-4번지","indutype":"건축자재 - 인테리어전문","category":"other"}]},{"lat":"37.223471166","long":"127.2517332","imageIndex":17,"items":[{"name":"예원요양원","tel":"031-335-6286","addr":"경기도 용인시 처인구 양지면 송문리 436-7번지","indutype":"기타의료기관 - 기타의료기관 및 기타","category":"other"}]},{"lat":"37.238041333","long":"127.28375271","imageIndex":17,"items":[{"name":"오케이크린씨","tel":"","addr":"경기도 용인시 처인구 양지면 양지리 331-12번지 장미맨션 A동 103호","indutype":"신변잡화 - 기타잡화","category":"other"}]},{"lat":"37.236019908","long":"127.28506371","imageIndex":17,"items":[{"name":"옥토종합농기계","tel":"070-8869-4644","addr":"경기도 용인시 처인구 양지면 양지리 462-7번지 대성빌라 B102호~B102호","indutype":"회원제형태 - 기타4","category":"other"}]},{"lat":"37.235133164","long":"127.2828404","imageIndex":17,"items":[{"name":"온화지업종합장식","tel":"031-338-2120","addr":"경기도 용인시 처인구 양지면 양지리 619-7번지 금빛 상가 102호","indutype":"건축자재 - 인테리어전문","category":"other"},{"name":"퀸운동화이불빨래방","tel":"031-321-1482","addr":"경기도 용인시 처인구 양지면 양지리 619-7번지 금빛마을주택 101호","indutype":"수리서비스 - 세탁소","category":"other"}]},{"lat":"37.217778384","long":"127.31900931","imageIndex":17,"items":[{"name":"와니물류","tel":"","addr":"경기도 용인시 처인구 양지면 평창리 640-26번지","indutype":"신변잡화 - 기타잡화","category":"other"},{"name":"와니물류","tel":"","addr":"경기도 용인시 처인구 양지면 평창리 640-26번지","indutype":"신변잡화 - 기타잡화","category":"other"}]},{"lat":"37.22585492","long":"127.25362274","imageIndex":17,"items":[{"name":"용인나무시장","tel":"031-335-8185","addr":"경기도 용인시 처인구 양지면 송문리 508-5번지","indutype":"문화.취미 - 화원","category":"other"}]},{"lat":"37.226439424","long":"127.29355773","imageIndex":17,"items":[{"name":"용인레포츠","tel":"031-321-3607","addr":"경기도 용인시 처인구 양지면 남곡리 104번지","indutype":"용역 서비스 - 종합용역","category":"other"},{"name":"해드스키","tel":"031-321-3607","addr":"경기도 용인시 처인구 양지면 남곡리 104번지","indutype":"레져용품 - 스포츠·레져용품","category":"other"}]},{"lat":"37.236081932","long":"127.28550344","imageIndex":17,"items":[{"name":"용인중앙로타리클럽","tel":"031-321-3601","addr":"경기도 용인시 처인구 양지면 양지리 464-4 3층","indutype":"기타 - 비영리/비대상","category":"other"}]},{"lat":"37.233329957","long":"127.29083459","imageIndex":17,"items":[{"name":"용인중앙상재마루마루","tel":"031-333-3308","addr":"경기도 용인시 처인구 양지면 양지리 164번지 1층","indutype":"건축자재 - 인테리어전문","category":"other"}]},{"lat":"37.233665899","long":"127.28603533","imageIndex":17,"items":[{"name":"용인처인사랑로타리클럽","tel":"","addr":"경기도 용인시 처인구 양지면 양지리 477-7번지 2층","indutype":"기타 - 비영리/비대상","category":"other"},{"name":"원삼지업사","tel":"031-321-0282","addr":"경기도 용인시 처인구 양지면 양지리477-7","indutype":"직물 - 카페트,커튼,천막,지물","category":"other"}]},{"lat":"37.250722058","long":"127.32495165","imageIndex":17,"items":[{"name":"우림중고가전","tel":"","addr":"경기도 용인시 처인구 양지면 추계리 136-2번지 우림중고가전","indutype":"전기제품 - 가전제품","category":"other"}]},{"lat":"37.238746523","long":"127.32856331","imageIndex":17,"items":[{"name":"우영테크","tel":"031-338-7713","addr":"경기도 용인시 처인구 양지면 평창리 52","indutype":"가구 - 일반가구","category":"other"}]},{"lat":"37.244720641","long":"127.25450797","imageIndex":17,"items":[{"name":"유에스이 코퍼레이션(USE CORPORATION)","tel":"031-337-0201","addr":"경기도 용인시 처인구 양지면 주북리 426번지","indutype":"주방용구 - 주방용구","category":"other"}]},{"lat":"37.237828327","long":"127.28617486","imageIndex":17,"items":[{"name":"은당글씨디자인","tel":"031-000-0000","addr":"경기도 용인시 처인구 양지면 양지리 378-1번지 1층","indutype":"건축자재 - 인테리어전문","category":"other"}]},{"lat":"37.229024845","long":"127.29008579","imageIndex":17,"items":[{"name":"이마트24 용인양지점","tel":"","addr":"경기도 용인시 처인구 양지면 남곡리 123-46번지 1층","indutype":"유통업 영리 - 편 의 점","category":"other"}]},{"lat":"37.239916802","long":"127.31897776","imageIndex":17,"items":[{"name":"이마트24 용인양지제일점","tel":"","addr":"경기도 용인시 처인구 양지면 제일리 15-9번지","indutype":"유통업 영리 - 편 의 점","category":"other"}]},{"lat":"37.236584053","long":"127.28653082","imageIndex":17,"items":[{"name":"이마트24 용인양지타운점","tel":"","addr":"경기도 용인시 처인구 양지면 양지리 410-17번지","indutype":"유통업 영리 - 편 의 점","category":"other"}]},{"lat":"37.233633947","long":"127.28808614","imageIndex":17,"items":[{"name":"인도네시아","tel":"031-338-7815","addr":"경기도 용인시 처인구 양지면 양지리482-5","indutype":"가구 - 일반가구","category":"other"}]},{"lat":"37.222661553","long":"127.25956127","imageIndex":17,"items":[{"name":"자한도예","tel":"031-321-9964","addr":"경기도 용인시 처인구 양지면 송문리 162-4번지","indutype":"문화.취미 - 민예·공예품","category":"other"}]},{"lat":"37.242886372","long":"127.31361427","imageIndex":17,"items":[{"name":"쟈마뮤직","tel":"02-541-6979","addr":"경기도 용인시 처인구 양지면 제일리 84번지","indutype":"레져용품 - 악기점","category":"other"}]},{"lat":"37.233722691","long":"127.28864992","imageIndex":17,"items":[{"name":"제비표페인트(태민상사)","tel":"031-338-6767","addr":"경기도 용인시 처인구 양지면 양지리 486-9","indutype":"건축자재 - 페인트","category":"other"}]},{"lat":"37.255963029","long":"127.27595124","imageIndex":17,"items":[{"name":"제이씨디스트리뷰터","tel":"031-332-5501","addr":"경기도 용인시 처인구 양지면 대대리 650번지 1층","indutype":"신변잡화 - 기타잡화","category":"other"}]},{"lat":"37.224996613","long":"127.29034094","imageIndex":17,"items":[{"name":"제이앤씨 (J&C)트레이더스","tel":"070-4979-9288","addr":"경기도 용인시 처인구 양지면 남곡리 503-3번지","indutype":"용역 서비스 - 기타용역서비스","category":"other"}]},{"lat":"37.234800032","long":"127.27889501","imageIndex":17,"items":[{"name":"제이정밀","tel":"031-338-1246","addr":"경기도 용인시 처인구 양지면 양지리 701-11번지","indutype":"기타 - 기계공구","category":"other"}]},{"lat":"37.259795659","long":"127.24984609","imageIndex":17,"items":[{"name":"젤라소프트","tel":"02-3445-0709","addr":"경기도 용인시 처인구 양지면 주북리 631번지","indutype":"용역 서비스 - 소프트웨어","category":"other"}]},{"lat":"37.225856685","long":"127.28489063","imageIndex":17,"items":[{"name":"주식회사 그립인","tel":"070-7613-8055","addr":"경기도 용인시 처인구 양지면 남곡리 472번지 1층","indutype":"신변잡화 - 기타잡화","category":"other"}]},{"lat":"37.254968721","long":"127.24422813","imageIndex":17,"items":[{"name":"주식회사 브랜드하우징","tel":"031-713-2426","addr":"경기도 용인시 처인구 양지면 주북리 759번지","indutype":"용역 서비스 - 기타용역서비스","category":"other"}]},{"lat":"37.256608245","long":"127.27747533","imageIndex":17,"items":[{"name":"주식회사 스토리윤","tel":"031-111-1111","addr":"경기도 용인시 처인구 양지면 대대리 671-9번지","indutype":"용역 서비스 - 종합용역","category":"other"}]},{"lat":"37.217807257","long":"127.27859649","imageIndex":17,"items":[{"name":"주식회사 탑코세일즈코리아","tel":"02-2268-7833","addr":"경기도 용인시 처인구 양지면 남곡리 645-1번지","indutype":"신변잡화 - 기타잡화","category":"other"}]},{"lat":"37.225943087","long":"127.25453572","imageIndex":17,"items":[{"name":"주식회사 핸슨앤한국갤러리","tel":"031-339-4460","addr":"경기도 용인시 처인구 양지면 송문리 414번지","indutype":"가구 - 일반가구","category":"other"}]},{"lat":"37.226582915","long":"127.27092125","imageIndex":17,"items":[{"name":"주식회사동방씨앤씨","tel":"031-333-0878","addr":"경기도 용인시 처인구 양지면 남곡리 254-6번지","indutype":"건축자재 - 기타건축자재","category":"other"}]},{"lat":"37.266850574","long":"127.26254089","imageIndex":17,"items":[{"name":"주식회사이온생활건강","tel":"070-4137-7130","addr":"경기도 용인시 처인구 양지면 대대리 150번지","indutype":"주방용구 - 정수기","category":"other"}]},{"lat":"37.220111251","long":"127.31592066","imageIndex":17,"items":[{"name":"주식회사진양농건","tel":"031-335-1120","addr":"경기도 용인시 처인구 양지면 평창리 674-10번지","indutype":"농업 - 기타농업관련","category":"other"},{"name":"진양농자재","tel":"031-335-1120","addr":"경기도 용인시 처인구 양지면 평창리674-10","indutype":"농업 - 비료,사료,종자","category":"other"}]},{"lat":"37.230802697","long":"127.28892061","imageIndex":17,"items":[{"name":"지아니 A&M","tel":"031-337-3851","addr":"경기도 용인시 처인구 양지면 양지리 493-29번지","indutype":"레져용품 - 스포츠·레져용품","category":"other"}]},{"lat":"37.212002914","long":"127.2793189","imageIndex":17,"items":[{"name":"지영갤러리","tel":"031-000-0000","addr":"경기도 용인시 처인구 양지면 남곡리 722-2번지","indutype":"문화.취미 - 화랑","category":"other"}]},{"lat":"37.235278811","long":"127.28600756","imageIndex":17,"items":[{"name":"진성공업사","tel":"031-338-3446","addr":"경기도 용인시 처인구 양지면 양지리 455-1번지","indutype":"용역 서비스 - 기타용역서비스","category":"other"}]},{"lat":"37.253270611","long":"127.24184437","imageIndex":17,"items":[{"name":"창우실업","tel":"031-338-9066","addr":"경기도 용인시 처인구 양지면 주북리 787-2","indutype":"서적문구 - 과학기자재","category":"other"}]},{"lat":"37.220334729","long":"127.31317247","imageIndex":17,"items":[{"name":"초원","tel":"031-322-0456","addr":"경기도 용인시 처인구 양지면 평창리 679-15번지","indutype":"농업 - 비료,사료,종자","category":"other"}]},{"lat":"37.243250153","long":"127.3088597","imageIndex":17,"items":[{"name":"칸이벤트","tel":"070-8865-1414","addr":"경기도 용인시 처인구 양지면 제일리 504-4번지 2층 호","indutype":"용역 서비스 - 사무서비스","category":"other"}]},{"lat":"37.234715596","long":"127.28414606","imageIndex":17,"items":[{"name":"컴친구","tel":"031-338-1279","addr":"경기도 용인시 처인구 양지면 양지리 591-3번지","indutype":"사무통신 - 컴퓨터","category":"other"}]},{"lat":"37.234492265","long":"127.27950241","imageIndex":17,"items":[{"name":"켐아트","tel":"031-338-1920","addr":"경기도 용인시 처인구 양지면 양지리 636-1번지","indutype":"서적문구 - 과학기자재","category":"other"}]},{"lat":"37.236944867","long":"127.28636314","imageIndex":17,"items":[{"name":"코네(KONE)","tel":"","addr":"경기도 용인시 처인구 양지면 양지리 372번지 302호","indutype":"신변잡화 - 기타잡화","category":"other"}]},{"lat":"37.262742041","long":"127.278422","imageIndex":17,"items":[{"name":"코드라인 아트","tel":"","addr":"경기도 용인시 처인구 양지면 대대리 620번지 2층","indutype":"가구 - 기타가구","category":"other"}]},{"lat":"37.233994989","long":"127.28023307","imageIndex":17,"items":[{"name":"코아문구할인마트","tel":"031-334-1175","addr":"경기도 용인시 처인구 양지면 양지리 560-1번지","indutype":"서적문구 - 문구용품","category":"other"}]},{"lat":"37.216556772","long":"127.31758466","imageIndex":17,"items":[{"name":"코윈아이엔지","tel":"031-339-4496","addr":"경기도 용인시 처인구 양지면 평창리 653-5번지","indutype":"건축자재 - 기타건축자재","category":"other"}]},{"lat":"37.233884858","long":"127.2810891","imageIndex":17,"items":[{"name":"크린랜드","tel":"031-338-6119","addr":"경기도 용인시 처인구 양지면 양지리 563-2번지","indutype":"수리서비스 - 세탁소","category":"other"}]},{"lat":"37.235778803","long":"127.28415001","imageIndex":17,"items":[{"name":"크린슈즈운동화빨래방","tel":"031-335-8836","addr":"경기도 용인시 처인구 양지면 양지리 598-13번지 양지학원 1층 1호","indutype":"수리서비스 - 세탁소","category":"other"}]},{"lat":"37.230445174","long":"127.28394991","imageIndex":17,"items":[{"name":"크린위드 양지점","tel":"031-322-7977","addr":"경기도 용인시 처인구 양지면 남곡리 152-5번지 405동 101호","indutype":"수리서비스 - 세탁소","category":"other"}]},{"lat":"37.249358807","long":"127.23801107","imageIndex":17,"items":[{"name":"태창전력","tel":"031-337-1713","addr":"경기도 용인시 처인구 양지면 주북리 888-2번지 1층 101호","indutype":"전기제품 - 기타전기제품","category":"other"}]},{"lat":"37.217418291","long":"127.25501439","imageIndex":17,"items":[{"name":"토션필드","tel":"031-243-3920","addr":"경기도 용인시 처인구 양지면 송문리 300-1","indutype":"신변잡화 - 기타잡화","category":"other"}]},{"lat":"37.248073357","long":"127.25409082","imageIndex":17,"items":[{"name":"토탈P&C","tel":"031-335-5505","addr":"경기도 용인시 처인구 양지면 주북리367-2","indutype":"기타 - 기타 전문점","category":"other"}]},{"lat":"37.234187488","long":"127.29019552","imageIndex":17,"items":[{"name":"투케이모션","tel":"031-334-3777","addr":"경기도 용인시 처인구 양지면 양지리 428번지 2층","indutype":"서적문구 - 출판 및 인쇄물","category":"other"}]},{"lat":"37.214248097","long":"127.29000724","imageIndex":17,"items":[{"name":"티지(TG)스포츠","tel":"031-329-8136","addr":"경기도 용인시 처인구 양지면 남곡리 34-1번지 양지파인리조트","indutype":"레져용품 - 스포츠·레져용품","category":"other"}]},{"lat":"37.229720325","long":"127.28938979","imageIndex":17,"items":[{"name":"파로스클럽","tel":"031-335-0889","addr":"경기도 용인시 처인구 양지면 남곡리 123-10번지","indutype":"레져용품 - 스포츠·레져용품","category":"other"}]},{"lat":"37.228965407","long":"127.27322839","imageIndex":17,"items":[{"name":"푸른솔","tel":"031-323-2328","addr":"경기도 용인시 처인구 양지면 남곡리 233번지","indutype":"건축자재 - 인테리어전문","category":"other"}]},{"lat":"37.261466204","long":"127.28072832","imageIndex":17,"items":[{"name":"프렌드패밀리(한터점)","tel":"031-335-0724","addr":"경기도 용인시 처인구 양지면 대대리 770-6","indutype":"유통업 영리 - 편 의 점","category":"other"}]},{"lat":"37.232667888","long":"127.28514137","imageIndex":17,"items":[{"name":"플라워솜솜","tel":"031-339-5588","addr":"경기도 용인시 처인구 양지면 양지리 502-6번지 104호","indutype":"문화.취미 - 화원","category":"other"}]},{"lat":"37.233387578","long":"127.28561734","imageIndex":17,"items":[{"name":"플러스애견미용실","tel":"070-8170-3901","addr":"경기도 용인시 처인구 양지면 양지리 471-6번지 1층132평방미터중일부","indutype":"문화.취미 - 애완동물","category":"other"}]},{"lat":"37.229972692","long":"127.28180717","imageIndex":17,"items":[{"name":"피씨퍼니처 주식회사","tel":"00-1522-7658","addr":"경기도 용인시 처인구 양지면 남곡리 181-1번지","indutype":"가구 - 기타가구","category":"other"}]},{"lat":"37.232997412","long":"127.3084802","imageIndex":17,"items":[{"name":"핀아 플라워","tel":"031-338-1101","addr":"경기도 용인시 처인구 양지면 제일리 245번지","indutype":"문화.취미 - 화원","category":"other"}]},{"lat":"37.237886365","long":"127.30639254","imageIndex":17,"items":[{"name":"하늘꽃식물원","tel":"031-769-3268","addr":"경기도 용인시 처인구 양지면 제일리595","indutype":"문화.취미 - 화원","category":"other"}]},{"lat":"37.228889473","long":"127.29017542","imageIndex":17,"items":[{"name":"하얀나라스키샵","tel":"031-338-0602","addr":"경기도 용인시 처인구 양지면 남곡리123-3","indutype":"레져용품 - 스포츠·레져용품","category":"other"}]},{"lat":"37.238158571","long":"127.28748336","imageIndex":17,"items":[{"name":"하우젠 에어컨","tel":"02-1577-3321","addr":"경기도 용인시 처인구 양지면 양지리 383-4번지 대성주택","indutype":"용역 서비스 - 기타용역서비스","category":"other"}]},{"lat":"37.225361203","long":"127.26114789","imageIndex":17,"items":[{"name":"한진샤링","tel":"031-335-0351","addr":"경기도 용인시 처인구 양지면 송문리 134-1번지","indutype":"기타 - 기계공구","category":"other"}]},{"lat":"37.254548636","long":"127.23806102","imageIndex":17,"items":[{"name":"한터골프","tel":"031-322-7661","addr":"경기도 용인시 처인구 양지면 주북리 1110번지 1층 103,104호","indutype":"레져용품 - 골프용품 전문점","category":"other"}]},{"lat":"37.253497474","long":"127.24548588","imageIndex":17,"items":[{"name":"해창상사","tel":"031-334-3929","addr":"경기도 용인시 처인구 양지면 주북리 803-12 외2필지","indutype":"신변잡화 - 기타잡화","category":"other"}]},{"lat":"37.230969686","long":"127.29798109","imageIndex":17,"items":[{"name":"해피골프","tel":"031-332-0965","addr":"경기도 용인시 처인구 양지면 양지리 120-27번지 101호","indutype":"레져용품 - 골프용품 전문점","category":"other"}]},{"lat":"37.241659715","long":"127.31064521","imageIndex":17,"items":[{"name":"핸디페어 용인 구갈점","tel":"031-339-5024","addr":"경기도 용인시 처인구 양지면 제일리 477-64 삼성전원마을 D-21","indutype":"수리서비스 - 기타수리서비스","category":"other"}]},{"lat":"37.234777865","long":"127.28448436","imageIndex":17,"items":[{"name":"행복한 가게","tel":"031-338-1101","addr":"경기도 용인시 처인구 양지면 양지리 590-1번지","indutype":"의류 - 정장","category":"other"},{"name":"행복한 가게","tel":"031-338-1101","addr":"경기도 용인시 처인구 양지면 양지리 590-1번지","indutype":"의류 - 정장","category":"other"}]},{"lat":"37.230770401","long":"127.28736545","imageIndex":17,"items":[{"name":"헤이미쉬티","tel":"","addr":"경기도 용인시 처인구 양지면 남곡리 126-12번지 나동 302호","indutype":"신변잡화 - 가방","category":"other"}]},{"lat":"37.230909972","long":"127.27395651","imageIndex":17,"items":[{"name":"현진정밀기계","tel":"031-321-0885","addr":"경기도 용인시 처인구 양지면 양지리 539-4","indutype":"건축자재 - 목재·석재·철물","category":"other"}]},{"lat":"37.233778954","long":"127.28014213","imageIndex":17,"items":[{"name":"홀인원스크린골프","tel":"031-335-0043","addr":"경기도 용인시 처인구 양지면 양지리 559-1 2층","indutype":"회원제형태 - 레져업소","category":"other"}]},{"lat":"37.254936843","long":"127.24217652","imageIndex":17,"items":[{"name":"환호종합건설","tel":"031-339-0042","addr":"경기도 용인시 처인구 양지면 주북리 769-4번지 1층","indutype":"용역 서비스 - 기타용역서비스","category":"other"}]},{"lat":"37.248575622","long":"127.31900266","imageIndex":17,"items":[{"name":"후하","tel":"031-338-1101","addr":"경기도 용인시 처인구 양지면 추계리 189-2번지","indutype":"유통업 영리 - 편 의 점","category":"other"}]},{"lat":"37.239746312","long":"127.25901062","imageIndex":17,"items":[{"name":"힐링메이커","tel":"","addr":"경기도 용인시 처인구 양지면 주북리 201-1번지","indutype":"가구 - 일반가구","category":"other"}]}]