[{"lat":"37.022716742","long":"127.33003255","imageIndex":17,"items":[{"name":"(주)양지조경산업","tel":"031-671-6077","addr":"경기도 안성시 보개면 상삼리 676-1번지","indutype":"문화.취미 - 화원","category":"other"}]},{"lat":"37.029410137","long":"127.32398116","imageIndex":17,"items":[{"name":"가인설비","tel":"00-5227-4142","addr":"경기도 안성시 보개면 상삼리 395-6번지","indutype":"용역 서비스 - 기타용역서비스","category":"other"}]},{"lat":"37.024854028","long":"127.33264891","imageIndex":17,"items":[{"name":"금도낚시","tel":"031-676-2444","addr":"경기도 안성시 보개면 상삼리 74-12번지","indutype":"레져용품 - 스포츠·레져용품","category":"other"}]},{"lat":"37.027413854","long":"127.34195406","imageIndex":17,"items":[{"name":"러브앤드림 바자(Love&Dream Bazaar)","tel":"031-111-1111","addr":"경기도 안성시 보개면 상삼리 1번지","indutype":"의류 - 정장","category":"other"}]},{"lat":"37.027940876","long":"127.33722504","imageIndex":17,"items":[{"name":"세움","tel":"031-671-1180","addr":"경기도 안성시 보개면 상삼리 208-3번지","indutype":"건축자재 - 기타건축자재","category":"other"}]},{"lat":"37.031469097","long":"127.3354198","imageIndex":17,"items":[{"name":"소(통)나(눔)기(쁨)","tel":"","addr":"경기도 안성시 보개면 상삼리 262-5번지","indutype":"문화.취미 - 티켓","category":"other"}]},{"lat":"37.027496286","long":"127.33831321","imageIndex":17,"items":[{"name":"씨유안성서동대로점","tel":"080-080-3663","addr":"경기도 안성시 보개면 상삼리 209-11번지","indutype":"유통업 영리 - 편 의 점","category":"other"}]},{"lat":"37.028355739","long":"127.33709199","imageIndex":17,"items":[{"name":"에센스라이프","tel":"031-677-1913","addr":"경기도 안성시 보개면 상삼리 203-11번지","indutype":"직물 - 침구·수예점","category":"other"}]},{"lat":"37.028800709","long":"127.33906068","imageIndex":17,"items":[{"name":"우진마대","tel":"031-671-0557","addr":"경기도 안성시 보개면 상삼리 221","indutype":"직물 - 기타직물","category":"other"}]},{"lat":"37.022748561","long":"127.331561","imageIndex":17,"items":[{"name":"윤성골프연습장","tel":"031-674-6308","addr":"경기도 안성시 보개면 상삼리 54-3","indutype":"회원제형태 - 레져업소","category":"other"},{"name":"케이에스상사","tel":"031-677-3358","addr":"경기도 안성시 보개면 상삼리 54-3번지","indutype":"레져용품 - 스포츠·레져용품","category":"other"}]},{"lat":"37.020659999","long":"127.32759647","imageIndex":17,"items":[{"name":"조왕플러스","tel":"031-677-7513","addr":"경기도 안성시 보개면 상삼리 717-1번지 라동","indutype":"주방용구 - 주방용구","category":"other"}]},{"lat":"37.032017724","long":"127.32600392","imageIndex":17,"items":[{"name":"퍼스트골든","tel":"031-674-4409","addr":"경기도 안성시 보개면 상삼리 342번지 외2필지","indutype":"문화.취미 - 애완동물","category":"other"}]}]