[{"lat":"37.298878883","long":"127.50870383","imageIndex":17,"items":[{"name":"(주)시몬엔지니어링","tel":"031-634-3758","addr":"경기도 이천시 부발읍 신원리 354-5번지 3층","indutype":"용역 서비스 - 기타용역서비스","category":"other"}]},{"lat":"37.29290864","long":"127.5245089","imageIndex":17,"items":[{"name":"가건우드","tel":"031-637-5157","addr":"경기도 이천시 부발읍 신원리 6-6번지","indutype":"건축자재 - 기타건축자재","category":"other"}]},{"lat":"37.292079444","long":"127.51215433","imageIndex":17,"items":[{"name":"경기산업안전","tel":"031-635-3116","addr":"경기도 이천시 부발읍 신원리 543번지","indutype":"기타 - 기계공구","category":"other"}]},{"lat":"37.293303613","long":"127.50611775","imageIndex":17,"items":[{"name":"금빛","tel":"","addr":"경기도 이천시 부발읍 신원리 561-43번지","indutype":"의류 - 기타의류","category":"other"}]},{"lat":"37.292601338","long":"127.51231573","imageIndex":17,"items":[{"name":"능서포장","tel":"031-632-0120","addr":"경기도 이천시 부발읍 신원리 517-2번지","indutype":"농업 - 농기계","category":"other"}]},{"lat":"37.291662367","long":"127.5127605","imageIndex":17,"items":[{"name":"동일벤딩","tel":"031-635-9293","addr":"경기도 이천시 부발읍 신원리 547-2번지","indutype":"기타 - 기계공구","category":"other"}]},{"lat":"37.296302607","long":"127.51275798","imageIndex":17,"items":[{"name":"동일벤딩","tel":"031-635-9293","addr":"경기도 이천시 부발읍 신원리 429-4번지","indutype":"건축자재 - 기타건축자재","category":"other"}]},{"lat":"37.290884015","long":"127.50726319","imageIndex":17,"items":[{"name":"신원철물","tel":"031-635-1978","addr":"경기도 이천시 부발읍 신원리 559-17번지","indutype":"건축자재 - 목재·석재·철물","category":"other"}]},{"lat":"37.292324675","long":"127.51379122","imageIndex":17,"items":[{"name":"씨유이천대로점","tel":"031-635-1452","addr":"경기도 이천시 부발읍 신원리 119-9번지","indutype":"유통업 영리 - 편 의 점","category":"other"}]},{"lat":"37.292492434","long":"127.50618001","imageIndex":17,"items":[{"name":"이든솔루션(idensolution)","tel":"070-8845-4278","addr":"경기도 이천시 부발읍 신원리 561-60","indutype":"사무통신 - 컴퓨터","category":"other"}]},{"lat":"37.288019285","long":"127.50075986","imageIndex":17,"items":[{"name":"히스핸드","tel":"031-638-6861","addr":"경기도 이천시 부발읍 신원리 644-1번지","indutype":"기타 - 기타 전문점","category":"other"}]}]