[{"lat":"37.284208546","long":"127.05208104","imageIndex":16,"items":[{"name":"(주)광교세종학원","tel":"031-253-7744","addr":"경기도 수원시 영통구 이의동 1369-3번지 위너프라자301호302호303호","indutype":"학원 - 보습학원","category":"study"},{"name":"(주)광교세종학원","tel":"031-221-7744","addr":"경기도 수원시 영통구 이의동 1369-3번지 위너프라자 301호~303호","indutype":"학원 - 보습학원","category":"study"},{"name":"(주)광교정상","tel":"031-213-0533","addr":"경기도 수원시 영통구 이의동 1369-3번지 401-403호","indutype":"학원 - 외국어학원","category":"study"},{"name":"광교소마학원","tel":"031-213-3220","addr":"경기도 수원시 영통구 이의동 1369-3번지 201호","indutype":"학원 - 보습학원","category":"study"},{"name":"비앤디영어학원","tel":"031-224-0111","addr":"경기도 수원시 영통구 이의동 1369-3번지 위너프라자 501호","indutype":"회원제형태 - 학원","category":"study"},{"name":"유투엠광교학원","tel":"031-211-4924","addr":"경기도 수원시 영통구 이의동 1369-3번지 위너프라자 202동 203호","indutype":"학원 - 보습학원","category":"study"}]},{"lat":"37.286708103","long":"127.04213653","imageIndex":16,"items":[{"name":"CJ키즈빌어린이집[아이행복]","tel":"031-8099-0208","addr":"경기도 수원시 영통구 이의동 1356번지","indutype":"학원 - 유아원","category":"study"}]},{"lat":"37.307007655","long":"127.04369241","imageIndex":16,"items":[{"name":"e해법수학 셀파수학 광교중점","tel":"031-211-5605","addr":"경기도 수원시 영통구 이의동 1184번지 광교호반베르디움 상가 102호","indutype":"학원 - 보습학원","category":"study"},{"name":"더오름수학교습소","tel":"","addr":"경기도 수원시 영통구 이의동 1184번지 광교호반베르디움 1층 106호","indutype":"학원 - 보습학원","category":"study"},{"name":"윤선생우리집앞영어교실광교교습소","tel":"031-212-9515","addr":"경기도 수원시 영통구 이의동 1184번지 호반베르디움 상가동 105호","indutype":"학원 - 외국어학원","category":"study"},{"name":"자연키즈 어린이집[아이행복]","tel":"031-211-0415","addr":"경기도 수원시 영통구 이의동 1184번지 광교호반베르디움","indutype":"학원 - 유아원","category":"study"},{"name":"테이블잉글리시영어교습소","tel":"031-000-0000","addr":"경기도 수원시 영통구 이의동 1184번지 호반베르디움 상가동 106호","indutype":"학원 - 외국어학원","category":"study"},{"name":"호반음악학원","tel":"031-212-5697","addr":"경기도 수원시 영통구 이의동 1184번지 광교호반베르디움 상가 110호","indutype":"학원 - 예·체능계학원","category":"study"}]},{"lat":"37.291850743","long":"127.04833059","imageIndex":16,"items":[{"name":"감자유학수원","tel":"031-8007-3239","addr":"경기도 수원시 영통구 이의동 1331번지 광교푸르지오월드마크 204동 비층 비-35호","indutype":"학원 - 유학원","category":"study"},{"name":"광교푸르지오월드마크빅스맘어린이집[아이","tel":"070-7514-1248","addr":"경기도 수원시 영통구 이의동 1331번지 광교푸르지오월드마크 205동","indutype":"학원 - 유아원","category":"study"},{"name":"상상공작소광교본원미술학원","tel":"031-203-3595","addr":"경기도 수원시 영통구 이의동 1331번지 광교푸르지오 월드마크 204동2-17호","indutype":"학원 - 예·체능계학원","category":"study"},{"name":"에스앤씨학원","tel":"031-215-6568","addr":"경기도 수원시 영통구 이의동 1331번지 광교푸르지오 월드마크 월드스퀘어 상가동 2층 18호","indutype":"학원 - 보습학원","category":"study"},{"name":"에스앤씨학원","tel":"031-215-6568","addr":"경기도 수원시 영통구 이의동 1331번지 광교푸르지오 월드마크, 월드스퀘어 204동 2층 18호","indutype":"학원 - 보습학원","category":"study"},{"name":"주식회사 더나은삶","tel":"031-704-0983","addr":"경기도 수원시 영통구 이의동 1331번지 광교푸르지오월드마크 204동 1층 87호","indutype":"학원 - 기타 교육기관","category":"study"},{"name":"칼레오 교육센터","tel":"031-213-1415","addr":"경기도 수원시 영통구 이의동 1331번지 광교푸르지오월드마크 204동 1-22호","indutype":"학원 - 유학원","category":"study"},{"name":"코딩아이두 수원지사","tel":"","addr":"경기도 수원시 영통구 이의동 1331번지 광교푸르지오월드마크 204동 1층 93호","indutype":"학원 - 학습지 교육","category":"study"},{"name":"한우리독서논술교습소","tel":"031-000-0000","addr":"경기도 수원시 영통구 이의동 1331번지 광교푸르지오 월드마크, 월드스퀘어 204동 188호","indutype":"학원 - 보습학원","category":"study"}]},{"lat":"37.289336515","long":"127.04927636","imageIndex":16,"items":[{"name":"개인과외","tel":"","addr":"경기도 수원시 영통구 이의동 1344번지 자연앤힐스테이트 5401동 1702호","indutype":"학원 - 기타 교육기관","category":"study"}]},{"lat":"37.28448777","long":"127.05230675","imageIndex":16,"items":[{"name":"건스기타전문학원","tel":"031-211-9577","addr":"경기도 수원시 영통구 이의동 1369-2번지 국제프라자 4층 406호","indutype":"회원제형태 - 학원","category":"study"},{"name":"공터영어광교에듀타운센터학원","tel":"031-211-4091","addr":"경기도 수원시 영통구 이의동 1369-2번지 국제프라자 2층 206호","indutype":"학원 - 보습학원","category":"study"},{"name":"더 올림학원(THE올림학원)","tel":"031-216-4505","addr":"경기도 수원시 영통구 이의동 1369-2번지 3층 302호, 303호","indutype":"학원 - 보습학원","category":"study"},{"name":"더존영어수학학원","tel":"031-213-0888","addr":"경기도 수원시 영통구 이의동 1369-2번지 국제프라자 305호","indutype":"학원 - 보습학원","category":"study"},{"name":"삼성영어광교학원","tel":"031-212-2801","addr":"경기도 수원시 영통구 이의동 1369-2번지 국제프라자 304호","indutype":"학원 - 외국어학원","category":"study"},{"name":"생각하는나무국어학원","tel":"031-212-1028","addr":"경기도 수원시 영통구 이의동 1369-2번지 국제프라자 404호","indutype":"학원 - 보습학원","category":"study"},{"name":"성빈수학학원","tel":"031-217-0910","addr":"경기도 수원시 영통구 이의동 1369-2번지 국제프라자 1층 203호","indutype":"학원 - 보습학원","category":"study"},{"name":"씨앤에이논술광교학원","tel":"031-202-0902","addr":"경기도 수원시 영통구 이의동 1369-2번지 국제프라자 205호","indutype":"학원 - 기타 교육기관","category":"study"},{"name":"에듀코치개별지도광교학원","tel":"031-211-0933","addr":"경기도 수원시 영통구 이의동 1369-2번지 201,202호","indutype":"학원 - 보습학원","category":"study"},{"name":"올댓영어학원","tel":"031-215-0301","addr":"경기도 수원시 영통구 이의동 1369-2번지 국제프라자 204호","indutype":"학원 - 외국어학원","category":"study"},{"name":"프란츠음악학원","tel":"031-217-3453","addr":"경기도 수원시 영통구 이의동 1369-2번지 국제프라자 405호","indutype":"학원 - 예·체능계학원","category":"study"},{"name":"프로기사김광식바둑학원","tel":"031-213-4963","addr":"경기도 수원시 영통구 이의동 1369-2번지 국제프라자 306호","indutype":"학원 - 기타 교육기관","category":"study"},{"name":"해법중국어전문학원","tel":"031-214-9982","addr":"경기도 수원시 영통구 이의동 1369-2번지 국제프라자 301호","indutype":"학원 - 외국어학원","category":"study"}]},{"lat":"37.306565193","long":"127.04638804","imageIndex":16,"items":[{"name":"경희대광교태권도장","tel":"031-212-7989","addr":"경기도 수원시 영통구 이의동 1200번지 광교골드클래스프라자7401호~403호 401호","indutype":"학원 - 예·체능계학원","category":"study"},{"name":"광교아이꿈어린이집[아이행복]","tel":"031-215-1610","addr":"경기도 수원시 영통구 이의동 1200번지 광교2차e편한세상 관리동","indutype":"학원 - 유아원","category":"study"}]},{"lat":"37.285235261","long":"127.05316426","imageIndex":16,"items":[{"name":"경희대국가대표태권도장","tel":"031-214-3133","addr":"경기도 수원시 영통구 이의동 1341-1번지 에듀메디컬 501호","indutype":"학원 - 예·체능계학원","category":"study"},{"name":"광교검도관","tel":"031-512-0388","addr":"경기도 수원시 영통구 이의동 1341-1번지 에듀메디컬 403호","indutype":"학원 - 예·체능계학원","category":"study"},{"name":"광교뮤즈음악학원","tel":"070-4154-0977","addr":"경기도 수원시 영통구 이의동 1341-1번지 에듀메디컬 402호","indutype":"학원 - 예·체능계학원","category":"study"},{"name":"꿀수학학원","tel":"031-8067-5033","addr":"경기도 수원시 영통구 이의동 1341-1번지 에듀메디컬 3층 302호","indutype":"학원 - 보습학원","category":"study"},{"name":"상상그이상학원","tel":"031-214-1013","addr":"경기도 수원시 영통구 이의동 1341-1번지 에듀메디컬 303호","indutype":"회원제형태 - 학원","category":"study"},{"name":"아카데미창 논술학원","tel":"031-221-7486","addr":"경기도 수원시 영통구 이의동 1341-1번지 에듀메디컬 3층 303호","indutype":"학원 - 보습학원","category":"study"},{"name":"야호창작소미술학원","tel":"070-7787-7678","addr":"경기도 수원시 영통구 이의동 1341-1번지 에듀메디컬 401호","indutype":"학원 - 예·체능계학원","category":"study"},{"name":"에스이화발레학원","tel":"070-4134-7098","addr":"경기도 수원시 영통구 이의동 1341-1번지 에듀메디컬 201,202호","indutype":"학원 - 예·체능계학원","category":"study"},{"name":"연세수학학원","tel":"031-214-3515","addr":"경기도 수원시 영통구 이의동 1341-1번지 에듀메디컬 301호","indutype":"학원 - 보습학원","category":"study"},{"name":"좋은쌤국어수학학원","tel":"031-211-5866","addr":"경기도 수원시 영통구 이의동 1341-1번지 에듀메디컬 201호","indutype":"학원 - 보습학원","category":"study"},{"name":"지플러스국어학원","tel":"031-212-1220","addr":"경기도 수원시 영통구 이의동 1341-1번지 에듀메디컬 404호","indutype":"학원 - 보습학원","category":"study"}]},{"lat":"37.288733564","long":"127.04735888","imageIndex":16,"items":[{"name":"경희대라이언태권도","tel":"031-217-6285","addr":"경기도 수원시 영통구 이의동 1347-5번지 세븐스퀘어 4층 405호","indutype":"학원 - 예·체능계학원","category":"study"},{"name":"광교스카이독서실","tel":"031-212-2520","addr":"경기도 수원시 영통구 이의동 1347-5번지 세븐스퀘어502호~503호 502","indutype":"학원 - 독서실","category":"study"},{"name":"마일스톤학원","tel":"031-216-5004","addr":"경기도 수원시 영통구 이의동 1347-5번지 세븐스퀘어 204호","indutype":"학원 - 보습학원","category":"study"},{"name":"쁘띠음악학원","tel":"031-211-3022","addr":"경기도 수원시 영통구 이의동 1347-5번지 세븐스퀘어 303호","indutype":"학원 - 예·체능계학원","category":"study"},{"name":"시메트리수학과학전문학원","tel":"031-213-0991","addr":"경기도 수원시 영통구 이의동 1347-5번지 세븐스퀘어 501호","indutype":"학원 - 보습학원","category":"study"},{"name":"엘에스파워점핑 줄넘기","tel":"031-211-7687","addr":"경기도 수원시 영통구 이의동 1347-5번지 세븐스퀘어 4층 405호","indutype":"학원 - 예·체능계학원","category":"study"},{"name":"영광180학원","tel":"031-212-0180","addr":"경기도 수원시 영통구 이의동 1347-5번지 세븐스퀘어 4층 404호전체","indutype":"학원 - 보습학원","category":"study"},{"name":"이룸아이학원","tel":"031-217-6700","addr":"경기도 수원시 영통구 이의동 1347-5번지 세븐스퀘어 302호","indutype":"학원 - 보습학원","category":"study"},{"name":"이케이음악전문학원","tel":"031-214-5664","addr":"경기도 수원시 영통구 이의동 1347-5번지 세븐스퀘어 401호","indutype":"학원 - 예·체능계학원","category":"study"},{"name":"정선생영어전문학원","tel":"031-216-2113","addr":"경기도 수원시 영통구 이의동 1347-5번지 세븐스퀘어 404호","indutype":"학원 - 외국어학원","category":"study"},{"name":"주식회사 마일스톤","tel":"031-214-5004","addr":"경기도 수원시 영통구 이의동 1347-5번지 세븐스퀘어 2층 204호","indutype":"학원 - 보습학원","category":"study"},{"name":"펀펀아트미술교습소","tel":"031-211-3022","addr":"경기도 수원시 영통구 이의동 1347-5번지 3층 303-1호세븐스퀘어","indutype":"학원 - 예·체능계학원","category":"study"}]},{"lat":"37.292404839","long":"127.05892064","imageIndex":16,"items":[{"name":"경희대부부도담태권도장","tel":"031-203-3410","addr":"경기도 수원시 영통구 이의동 1303번지 광교센트럴타운오드카운티 2층 상가동","indutype":"학원 - 예·체능계학원","category":"study"},{"name":"에스엠논술교습소","tel":"031-215-1203","addr":"경기도 수원시 영통구 이의동 1303번지 광교센트럴타운오드카운티 상가동 2층 204호","indutype":"학원 - 보습학원","category":"study"},{"name":"오드키즈어린이집[아이행복]","tel":"031-215-0393","addr":"경기도 수원시 영통구 이의동 1303번지 광교오디카운티","indutype":"학원 - 유아원","category":"study"}]},{"lat":"37.304321379","long":"127.04710863","imageIndex":16,"items":[{"name":"공터영어광교웰빙센터학원","tel":"031-212-0511","addr":"경기도 수원시 영통구 이의동 1202-3번지 드림스퀘어 304,305호","indutype":"학원 - 보습학원","category":"study"},{"name":"광교비엔나음악학원","tel":"031-212-0113","addr":"경기도 수원시 영통구 이의동 1202-3번지 드림스퀘어1 3층 303호","indutype":"학원 - 예·체능계학원","category":"study"},{"name":"이챕터스영어학원","tel":"","addr":"경기도 수원시 영통구 이의동 1202-3번지 드림스퀘어1 403호","indutype":"학원 - 외국어학원","category":"study"}]},{"lat":"37.290787808","long":"127.04760819","imageIndex":16,"items":[{"name":"광교1마을교사회","tel":"031-000-0000","addr":"경기도 수원시 영통구 이의동 1351-6번지 유니코어 베타동동 312호","indutype":"학원 - 기타 교육기관","category":"study"}]},{"lat":"37.304042163","long":"127.04683776","imageIndex":16,"items":[{"name":"광교MTA태권도장","tel":"","addr":"경기도 수원시 영통구 이의동 1204-7번지 301호","indutype":"학원 - 예·체능계학원","category":"study"},{"name":"그림아트스튜디오광교웰빙미술교습소","tel":"031-214-2192","addr":"경기도 수원시 영통구 이의동 1204-7번지 2층 202호","indutype":"학원 - 예·체능계학원","category":"study"},{"name":"로제타스톤광교어학원","tel":"031-212-1204","addr":"경기도 수원시 영통구 이의동 1204-7번지 203호,204호","indutype":"학원 - 외국어학원","category":"study"},{"name":"뮤직바움음악전문학원","tel":"031-548-1611","addr":"경기도 수원시 영통구 이의동 1204-7번지 402,401호일부","indutype":"학원 - 예·체능계학원","category":"study"},{"name":"엘영수전문학원","tel":"070-8202-9929","addr":"경기도 수원시 영통구 이의동 1204-7번지 302호","indutype":"회원제형태 - 학원","category":"study"},{"name":"주식회사 아이디","tel":"031-212-2162","addr":"경기도 수원시 영통구 이의동 1204-7번지 웰빙프라자 5층 501호 502호","indutype":"학원 - 예·체능계학원","category":"study"}]},{"lat":"37.292100094","long":"127.05542435","imageIndex":16,"items":[{"name":"광교e편한교실","tel":"070-4082-3809","addr":"경기도 수원시 영통구 이의동 1326번지 이편한세상광교 6118동 602호","indutype":"회원제형태 - 학원","category":"study"},{"name":"레슨소리","tel":"","addr":"경기도 수원시 영통구 이의동 1326번지 e편한세상광교 6118동 2303호","indutype":"학원 - 기타 교육기관","category":"study"}]},{"lat":"37.289490066","long":"127.04830661","imageIndex":16,"items":[{"name":"광교고등학교","tel":"070-4600-7206","addr":"경기도 수원시 영통구 이의동 1346번지 광교고등학교 1층","indutype":"학원 - 초중고교육기관","category":"study"},{"name":"광교고등학교_수업료","tel":"070-4600-7206","addr":"경기도 수원시 영통구 이의동 1346번지 광교고등학교 1층","indutype":"학원 - 초중고교육기관","category":"study"}]},{"lat":"37.287750182","long":"127.05060607","imageIndex":16,"items":[{"name":"광교꿈꾸는달팽이미술교습소","tel":"031-215-4524","addr":"경기도 수원시 영통구 이의동 1344번지 자연앤힐스테이트 상가 1동 128호","indutype":"학원 - 예·체능계학원","category":"study"},{"name":"광교힐스즈키음악교습소","tel":"031-213-7002","addr":"경기도 수원시 영통구 이의동 1344번지 자연앤힐스테이트 2동 203호","indutype":"학원 - 예·체능계학원","category":"study"},{"name":"서울음악교습소","tel":"031-211-8879","addr":"경기도 수원시 영통구 이의동 1344번지 2동 2층 204호 상가","indutype":"학원 - 예·체능계학원","category":"study"},{"name":"자올힐스테이트어린이집[아이행복]","tel":"031-212-4131","addr":"경기도 수원시 영통구 이의동 1344번지 자연앤힐스테이트 1층","indutype":"학원 - 유아원","category":"study"}]},{"lat":"37.289184098","long":"127.04730276","imageIndex":16,"items":[{"name":"광교분석수학학원","tel":"031-8061-8300","addr":"경기도 수원시 영통구 이의동 1347-3번지 에듀프라자 307호","indutype":"학원 - 보습학원","category":"study"},{"name":"분석수학학원","tel":"031-548-2522","addr":"경기도 수원시 영통구 이의동 1347-3번지 에듀프라자 2층 205호","indutype":"학원 - 보습학원","category":"study"},{"name":"에이펙스어학원","tel":"031-212-5100","addr":"경기도 수원시 영통구 이의동 1347-3번지 에듀프라자 307호","indutype":"학원 - 외국어학원","category":"study"},{"name":"오르다샘앤클래스광교학원","tel":"031-217-3111","addr":"경기도 수원시 영통구 이의동 1347-3번지 에듀프라자 303호","indutype":"학원 - 보습학원","category":"study"},{"name":"주식회사 아크스포츠","tel":"031-213-2991","addr":"경기도 수원시 영통구 이의동 1347-3번지 에듀프라자 지하 202호","indutype":"학원 - 기타 교육기관","category":"study"},{"name":"최양선영국어학원","tel":"031-889-6366","addr":"경기도 수원시 영통구 이의동 1347-3번지 에듀프라자 206호","indutype":"학원 - 보습학원","category":"study"}]},{"lat":"37.304988136","long":"127.04710902","imageIndex":16,"items":[{"name":"광교숙명음악학원","tel":"031-214-3044","addr":"경기도 수원시 영통구 이의동 1202번지 골드클래스5 401호","indutype":"학원 - 예·체능계학원","category":"study"},{"name":"광교이츠매쓰학원","tel":"031-216-0741","addr":"경기도 수원시 영통구 이의동 1202번지 2층 201호 골드클래스5","indutype":"학원 - 보습학원","category":"study"}]},{"lat":"37.285299419","long":"127.05053686","imageIndex":16,"items":[{"name":"광교숲속이레어린이집[아이행복]","tel":"031-217-1130","addr":"경기도 수원시 영통구 이의동 1367번지 자연앤자이15블럭","indutype":"학원 - 유아원","category":"study"}]},{"lat":"37.292333865","long":"127.05652972","imageIndex":16,"items":[{"name":"광교아라어린이집[아이행복]","tel":"031-214-1825","addr":"경기도 수원시 영통구 이의동 1326번지 e편한세상광교 6117동 102호","indutype":"학원 - 유아원","category":"study"}]},{"lat":"37.30611528","long":"127.04472966","imageIndex":16,"items":[{"name":"광교아이숲어린이집[아이행복]","tel":"031-216-0712","addr":"경기도 수원시 영통구 이의동 1184번지 광교호반베르디움 8701동 101호","indutype":"학원 - 유아원","category":"study"}]},{"lat":"37.284704157","long":"127.0519686","imageIndex":16,"items":[{"name":"광교아이티학원","tel":"031-548-2877","addr":"경기도 수원시 영통구 이의동 1369-1번지 광교프라자 203호","indutype":"학원 - 컴퓨터학원","category":"study"},{"name":"광교에듀타운와이즈리더영어독서전문학원","tel":"031-216-7905","addr":"경기도 수원시 영통구 이의동 1369-1번지 광교프라자 303호","indutype":"학원 - 보습학원","category":"study"},{"name":"시작과완성수학학원","tel":"031-213-2102","addr":"경기도 수원시 영통구 이의동 1369-1번지 광교프라자 302호","indutype":"학원 - 보습학원","category":"study"},{"name":"예원스트링앤워드학원","tel":"051-031-2073","addr":"경기도 수원시 영통구 이의동 1369-1번지 광교프라자 301호","indutype":"학원 - 예·체능계학원","category":"study"},{"name":"이야기로여는생명수학학원","tel":"031-215-0892","addr":"경기도 수원시 영통구 이의동 1369-1번지 광교프라자 304호","indutype":"회원제형태 - 학원","category":"study"},{"name":"토킹스타광교직영점학원","tel":"","addr":"경기도 수원시 영통구 이의동 1369-1번지 광교프라자 401호","indutype":"학원 - 보습학원","category":"study"}]},{"lat":"37.303897907","long":"127.04708582","imageIndex":16,"items":[{"name":"광교연세음악학원","tel":"031-214-5033","addr":"경기도 수원시 영통구 이의동 1204-8번지 402호","indutype":"학원 - 예·체능계학원","category":"study"},{"name":"광교이레태권도장","tel":"031-215-6123","addr":"경기도 수원시 영통구 이의동 1204-8번지 2층 203호","indutype":"학원 - 예·체능계학원","category":"study"},{"name":"삼공삼공광교이러닝센터학원","tel":"031-217-0977","addr":"경기도 수원시 영통구 이의동 1204-8번지 201-1호","indutype":"학원 - 보습학원","category":"study"},{"name":"알파고바둑학원","tel":"031-211-7298","addr":"경기도 수원시 영통구 이의동 1204-8번지 202호","indutype":"학원 - 기타 교육기관","category":"study"},{"name":"인아트미술학원","tel":"031-215-0812","addr":"경기도 수원시 영통구 이의동 1204-8번지 에코프라자 201호","indutype":"학원 - 예·체능계학원","category":"study"}]},{"lat":"37.304537625","long":"127.04710876","imageIndex":16,"items":[{"name":"광교이화음악학원","tel":"031-217-3549","addr":"경기도 수원시 영통구 이의동 1202-2번지 골드클래스 303호","indutype":"학원 - 예·체능계학원","category":"study"},{"name":"이아이이국제어학원","tel":"031-211-7489","addr":"경기도 수원시 영통구 이의동 1202-2번지 골드클래스 4층 403호","indutype":"학원 - 외국어학원","category":"study"}]},{"lat":"37.299293862","long":"127.04658687","imageIndex":16,"items":[{"name":"광교종합사회복지관","tel":"031-212-7255","addr":"경기도 수원시 영통구 이의동 1259-4번지 광교종합사회복지관","indutype":"학원 - 기타 교육기관","category":"study"}]},{"lat":"37.292399302","long":"127.05102628","imageIndex":16,"items":[{"name":"광교중앙음악학원","tel":"031-212-1799","addr":"경기도 수원시 영통구 이의동 1325-2번지 랜드빌딩 403호","indutype":"학원 - 예·체능계학원","category":"study"},{"name":"어썸팩토리광교플레이스독서실","tel":"031-214-8124","addr":"경기도 수원시 영통구 이의동 1325-2번지 201호일부202호203호","indutype":"학원 - 독서실","category":"study"},{"name":"에스프라임학원","tel":"031-215-1881","addr":"경기도 수원시 영통구 이의동 1325-2번지 랜드빌딩 401호","indutype":"학원 - 보습학원","category":"study"},{"name":"용인대산의태권도","tel":"031-212-1103","addr":"경기도 수원시 영통구 이의동 1325-2번지 랜드프라자 501호","indutype":"학원 - 예·체능계학원","category":"study"},{"name":"종로엠학원","tel":"031-211-9996","addr":"경기도 수원시 영통구 이의동 1325-2번지 (302호일부,303호)","indutype":"회원제형태 - 학원","category":"study"},{"name":"해법중국어광교학원","tel":"031-206-0062","addr":"경기도 수원시 영통구 이의동 1325-2번지 랜드빌딩","indutype":"학원 - 외국어학원","category":"study"}]},{"lat":"37.30437629","long":"127.04477382","imageIndex":16,"items":[{"name":"광교중학교","tel":"031-218-3500","addr":"경기도 수원시 영통구 이의동 1207번지 광교중학교 1층","indutype":"학원 - 초중고교육기관","category":"study"}]},{"lat":"37.29170549","long":"127.05108222","imageIndex":16,"items":[{"name":"광교진경원음악학원","tel":"031-216-2878","addr":"경기도 수원시 영통구 이의동 1325-6번지 대림프라자 5층 502호","indutype":"학원 - 예·체능계학원","category":"study"},{"name":"더샵음악학원","tel":"031-214-1160","addr":"경기도 수원시 영통구 이의동 1325-6번지 4층 1호","indutype":"학원 - 예·체능계학원","category":"study"},{"name":"엠포스 수학학원","tel":"031-212-3699","addr":"경기도 수원시 영통구 이의동 1325-6번지 503호","indutype":"학원 - 보습학원","category":"study"}]},{"lat":"37.292877855","long":"127.04847782","imageIndex":16,"items":[{"name":"광교청담어학원/주식회사 이상교육","tel":"031-215-9407","addr":"경기도 수원시 영통구 이의동 1329번지 203호","indutype":"학원 - 외국어학원","category":"study"},{"name":"엠베스트 센트럴타운 공부학원","tel":"031-548-1379","addr":"경기도 수원시 영통구 이의동 1329번지 안효빌딩 3층 302호","indutype":"학원 - 보습학원","category":"study"},{"name":"위버지니어스 광교점","tel":"031-216-3779","addr":"경기도 수원시 영통구 이의동 1329번지 401호","indutype":"학원 - 기타 교육기관","category":"study"},{"name":"프렙센터어학원","tel":"031-215-9407","addr":"경기도 수원시 영통구 이의동 1329번지 안효빌딩 201호","indutype":"학원 - 외국어학원","category":"study"}]},{"lat":"37.303564886","long":"127.04611561","imageIndex":16,"items":[{"name":"광교초등학교","tel":"031-217-7603","addr":"경기도 수원시 영통구 이의동 1208번지 광교초등학교","indutype":"학원 - 초중고교육기관","category":"study"}]},{"lat":"37.289268641","long":"127.06023774","imageIndex":16,"items":[{"name":"광교큰별어린이집[아이행복]","tel":"031-216-2450","addr":"경기도 수원시 영통구 이의동 1334번지 광교센트럴타운60단지 6013동 101호","indutype":"학원 - 유아원","category":"study"}]},{"lat":"37.293843377","long":"127.04461009","imageIndex":16,"items":[{"name":"광교키즈드림어린이집[아이행복]","tel":"031-888-6080","addr":"경기도 수원시 영통구 이의동 864-1번지","indutype":"학원 - 유아원","category":"study"}]},{"lat":"37.291510262","long":"127.0430525","imageIndex":16,"items":[{"name":"광교테크노밸리어린이집[아이행복]","tel":"031-259-7222","addr":"경기도 수원시 영통구 이의동 906-5 중소기업지원센터","indutype":"학원 - 유아원","category":"study"}]},{"lat":"37.290597476","long":"127.05047254","imageIndex":16,"items":[{"name":"광교하늘어린이집[아이행복]","tel":"031-211-5679","addr":"경기도 수원시 영통구 이의동 1332번지 관리동","indutype":"학원 - 유아원","category":"study"},{"name":"큐브유학원","tel":"031-211-8216","addr":"경기도 수원시 영통구 이의동 1332번지 광교아브뉴프랑 지상 2층 A207호","indutype":"학원 - 유학원","category":"study"},{"name":"튼튼영어 수원광교지사","tel":"031-212-6605","addr":"경기도 수원시 영통구 이의동 1332번지 광교호반베르디움오피스텔 201동 601호","indutype":"학원 - 학습지 교육","category":"study"}]},{"lat":"37.292651957","long":"127.05011294","imageIndex":16,"items":[{"name":"국어생각학원","tel":"","addr":"경기도 수원시 영통구 이의동 1322-5번지 센트럴프라자 3층 301호","indutype":"학원 - 보습학원","category":"study"},{"name":"에듀온보드학원","tel":"031-211-0549","addr":"경기도 수원시 영통구 이의동 1322-5번지 센트럴프라자 213호","indutype":"학원 - 보습학원","category":"study"},{"name":"이종민일등영어공터영어학원","tel":"031-213-2299","addr":"경기도 수원시 영통구 이의동 1322-5번지 센트럴프라자 210호","indutype":"학원 - 외국어학원","category":"study"},{"name":"창조적소수엔학원","tel":"031-213-4711","addr":"경기도 수원시 영통구 이의동 1322-5번지 센트럴프라자 313호","indutype":"학원 - 보습학원","category":"study"},{"name":"키즈스피치마루지 광교센터","tel":"070-8870-1217","addr":"경기도 수원시 영통구 이의동 1322-5번지 센트럴프라자 3층 311호","indutype":"학원 - 기타 교육기관","category":"study"}]},{"lat":"37.289850958","long":"127.0470325","imageIndex":16,"items":[{"name":"귀큰여우창작소미술학원","tel":"031-217-0217","addr":"경기도 수원시 영통구 이의동 1348-3번지 이루리타워 4층 401호","indutype":"학원 - 예·체능계학원","category":"study"},{"name":"비바첼음악학원","tel":"031-212-2536","addr":"경기도 수원시 영통구 이의동 1348-3번지 이루리타워 701호","indutype":"학원 - 예·체능계학원","category":"study"},{"name":"쉬르실용음악학원","tel":"031-213-9150","addr":"경기도 수원시 영통구 이의동 1348-3번지 이루리타워 5층","indutype":"학원 - 예·체능계학원","category":"study"},{"name":"일투오커피바리스타학원","tel":"031-205-1467","addr":"경기도 수원시 영통구 이의동 1348-3번지 이루리타워501호일부","indutype":"회원제형태 - 학원","category":"study"},{"name":"플레이코딩학원","tel":"031-211-2641","addr":"경기도 수원시 영통구 이의동 1348-3번지 이루리타워 501호","indutype":"학원 - 기능학원","category":"study"}]},{"lat":"37.291178306","long":"127.06127672","imageIndex":16,"items":[{"name":"그림아트스튜디오광교센트럴미술교습소","tel":"031-217-0615","addr":"경기도 수원시 영통구 이의동 1304번지 래미안광교 상가동 105호","indutype":"학원 - 예·체능계학원","category":"study"},{"name":"예원음악교습소","tel":"031-211-7576","addr":"경기도 수원시 영통구 이의동 1304번지 래미안광교 상가동 109호","indutype":"학원 - 예·체능계학원","category":"study"},{"name":"윤선생우리집앞 영어교습소","tel":"031-0000-0000","addr":"경기도 수원시 영통구 이의동 1304번지 래미안광교 1층 110호","indutype":"학원 - 보습학원","category":"study"},{"name":"지니슐레어린이집[아이행복]","tel":"031-216-6653","addr":"경기도 수원시 영통구 이의동 1304번지 래미안 광교","indutype":"학원 - 유아원","category":"study"}]},{"lat":"37.28957136","long":"127.04777663","imageIndex":16,"items":[{"name":"그림책여행광교교육원","tel":"031-214-3009","addr":"경기도 수원시 영통구 이의동 1347-1번지 월드프라자 3층 304,305호","indutype":"학원 - 기타 교육기관","category":"study"},{"name":"수담학원","tel":"070-4686-9412","addr":"경기도 수원시 영통구 이의동 1347-1번지 2층 201호","indutype":"학원 - 보습학원","category":"study"},{"name":"알모드미술학원","tel":"031-214-1033","addr":"경기도 수원시 영통구 이의동 1347-1번지 월드프라자 501호","indutype":"학원 - 예·체능계학원","category":"study"},{"name":"장샘영어교습소","tel":"031-211-2213","addr":"경기도 수원시 영통구 이의동 1347-1번지 월드프라자 3층 3호","indutype":"학원 - 외국어학원","category":"study"}]},{"lat":"37.283649503","long":"127.05305045","imageIndex":16,"items":[{"name":"김성진","tel":"031-000-0000","addr":"경기도 수원시 영통구 이의동 1370번지 광교에듀타운50단지 5003동 1303호","indutype":"학원 - 기타 교육기관","category":"study"}]},{"lat":"37.284929041","long":"127.05285959","imageIndex":16,"items":[{"name":"김재범유도관","tel":"","addr":"경기도 수원시 영통구 이의동 1341-2번지 115,116호","indutype":"학원 - 예·체능계학원","category":"study"},{"name":"누리태권도장","tel":"031-214-1399","addr":"경기도 수원시 영통구 이의동 1341-2번지 204호","indutype":"학원 - 예·체능계학원","category":"study"},{"name":"레벤스음악학원","tel":"001-0000-0000","addr":"경기도 수원시 영통구 이의동 1341-2번지 307호일부,308호,309호","indutype":"학원 - 예·체능계학원","category":"study"},{"name":"리드인라온독서토론논술학원","tel":"031-217-7563","addr":"경기도 수원시 영통구 이의동 1341-2번지 4층 409호","indutype":"학원 - 보습학원","category":"study"},{"name":"세인폴프렙어학원","tel":"070-4471-6654","addr":"경기도 수원시 영통구 이의동 1341-2번지 3층 301-305호","indutype":"학원 - 외국어학원","category":"study"},{"name":"엘렌랭어어학원","tel":"031-202-8833","addr":"경기도 수원시 영통구 이의동 1341-2번지 206,207호","indutype":"학원 - 외국어학원","category":"study"},{"name":"엘뽀레광교학원","tel":"031-214-0588","addr":"경기도 수원시 영통구 이의동 1341-2번지 401동 405호","indutype":"학원 - 보습학원","category":"study"},{"name":"주식회사 세인트폴수원","tel":"070-4471-6660","addr":"경기도 수원시 영통구 이의동 1341-2번지 B07호","indutype":"학원 - 외국어학원","category":"study"}]},{"lat":"37.30951193","long":"127.04530684","imageIndex":16,"items":[{"name":"꿈꾸는테라스어린이집[아이행복]","tel":"031-211-2592","addr":"경기도 수원시 영통구 이의동 1197번지 e편한세상 테라스광교웨스트힐","indutype":"학원 - 유아원","category":"study"},{"name":"아뜰리에그림같은","tel":"031-213-8977","addr":"경기도 수원시 영통구 이의동 1197번지 e편한세상 TERRACE 광교 West hill 제근린생활시설동 1층 105호","indutype":"학원 - 예·체능계학원","category":"study"}]},{"lat":"37.287903095","long":"127.05124895","imageIndex":16,"items":[{"name":"꿈나무어린이집[아이행복]","tel":"031-304-2609","addr":"경기도 수원시 영통구 이의동 1344번지 자연앤힐스테이트 5404동 102호","indutype":"학원 - 유아원","category":"study"}]},{"lat":"37.288408853","long":"127.04826085","imageIndex":16,"items":[{"name":"꿈찬아이어린이집[아이행복]","tel":"031-8004-1003","addr":"경기도 수원시 영통구 이의동 1344번지 자연앤힐스테이트 5412동 104호","indutype":"학원 - 유아원","category":"study"},{"name":"나이팅게일어린이집[아이행복]","tel":"031-8013-2135","addr":"경기도 수원시 영통구 이의동 1344번지 자연앤힐스테이트 5412동 103호","indutype":"학원 - 유아원","category":"study"}]},{"lat":"37.292237196","long":"127.05083445","imageIndex":16,"items":[{"name":"뉴이화음악학원","tel":"031-214-3088","addr":"경기도 수원시 영통구 이의동 1325-3번지 4층 401호","indutype":"학원 - 예·체능계학원","category":"study"},{"name":"릴리엠이화발레학원","tel":"031-214-7713","addr":"경기도 수원시 영통구 이의동 1325-3번지 메이타워 402호","indutype":"학원 - 예·체능계학원","category":"study"},{"name":"수학날개학원","tel":"031-217-6204","addr":"경기도 수원시 영통구 이의동 1325-3번지 3층 301호","indutype":"회원제형태 - 학원","category":"study"},{"name":"이보영토킹클럽이비와이어학원","tel":"031-217-0905","addr":"경기도 수원시 영통구 이의동 1325-3번지 501,502호","indutype":"학원 - 외국어학원","category":"study"},{"name":"토토미술교습소","tel":"031-214-5088","addr":"경기도 수원시 영통구 이의동 1325-3번지","indutype":"학원 - 예·체능계학원","category":"study"},{"name":"한체대석사다온태권도장","tel":"031-217-7640","addr":"경기도 수원시 영통구 이의동 1325-3번지 에이타워 302호,303호","indutype":"학원 - 예·체능계학원","category":"study"}]},{"lat":"37.284875455","long":"127.05172063","imageIndex":16,"items":[{"name":"두잉글리쉬학원","tel":"031-111-1111","addr":"경기도 수원시 영통구 이의동 1369번지 명품프라자 203호","indutype":"학원 - 외국어학원","category":"study"},{"name":"무림합기도","tel":"031-211-7415","addr":"경기도 수원시 영통구 이의동 1369번지 명품프라자 401호 402호","indutype":"학원 - 예·체능계학원","category":"study"},{"name":"스텝스 탄츠 무용학원","tel":"031-111-1111","addr":"경기도 수원시 영통구 이의동 1369번지 명품프라자 4층 403호","indutype":"학원 - 예·체능계학원","category":"study"},{"name":"쎈수학러닝센터에듀타운학원","tel":"031-221-0764","addr":"경기도 수원시 영통구 이의동 1369번지 명품프라자 202호","indutype":"학원 - 보습학원","category":"study"},{"name":"씨엠아이학원","tel":"031-214-9321","addr":"경기도 수원시 영통구 이의동 1369번지 명품프라자 302호","indutype":"학원 - 보습학원","category":"study"},{"name":"지앤아트미술교육전문학원","tel":"031-898-4533","addr":"경기도 수원시 영통구 이의동 1369번지 명품프라자 301호","indutype":"학원 - 예·체능계학원","category":"study"},{"name":"진앤나래음악학원","tel":"031-262-9900","addr":"경기도 수원시 영통구 이의동 1369번지 명품프라자 201호","indutype":"학원 - 예·체능계학원","category":"study"}]},{"lat":"37.285154553","long":"127.05225081","imageIndex":16,"items":[{"name":"로봇팩토리과학영재학원","tel":"","addr":"경기도 수원시 영통구 이의동 1341-4번지 그린프라자 302호","indutype":"학원 - 보습학원","category":"study"},{"name":"에이앤엠영어학원","tel":"031-213-7564","addr":"경기도 수원시 영통구 이의동 1341-4번지 그린메디칼 402호","indutype":"학원 - 보습학원","category":"study"},{"name":"원프로교육학원","tel":"031-213-1070","addr":"경기도 수원시 영통구 이의동 1341-4번지 그린메디칼 501호","indutype":"학원 - 보습학원","category":"study"},{"name":"차일드유광교직영학원","tel":"031-215-5060","addr":"경기도 수원시 영통구 이의동 1341-4번지 그린메디칼 그린프라자 404호","indutype":"학원 - 보습학원","category":"study"},{"name":"클랑뮤즈음악학원","tel":"031-214-7506","addr":"경기도 수원시 영통구 이의동 1341-4번지 그린메디칼 401호","indutype":"학원 - 예·체능계학원","category":"study"},{"name":"플래뮤아트센터광교미술학원","tel":"031-8001-5566","addr":"경기도 수원시 영통구 이의동 1341-4번지 그린메디칼 301호","indutype":"학원 - 예·체능계학원","category":"study"}]},{"lat":"37.28576664","long":"127.05369462","imageIndex":16,"items":[{"name":"로지어학원","tel":"031-213-2505","addr":"경기도 수원시 영통구 이의동 1340-1번지 403호","indutype":"학원 - 외국어학원","category":"study"},{"name":"슈필렌음악학원","tel":"031-216-2228","addr":"경기도 수원시 영통구 이의동 1340-1번지 광교평은프라자 3층 301호","indutype":"학원 - 예·체능계학원","category":"study"},{"name":"와이에이피셈(YAP)수학학원","tel":"031-211-4888","addr":"경기도 수원시 영통구 이의동 1340-1번지 401호","indutype":"학원 - 보습학원","category":"study"},{"name":"호크마수학학원","tel":"031-212-4663","addr":"경기도 수원시 영통구 이의동 1340-1번지 3층 304호","indutype":"학원 - 보습학원","category":"study"}]},{"lat":"37.306403162","long":"127.0459706","imageIndex":16,"items":[{"name":"맑은샘어린이집[아이행복]","tel":"031-307-2121","addr":"경기도 수원시 영통구 이의동 1200번지 광교2차이편한세상 8504동 103호","indutype":"학원 - 유아원","category":"study"}]},{"lat":"37.286153132","long":"127.05586001","imageIndex":16,"items":[{"name":"메디컬커리어연구소","tel":"031-219-4471","addr":"경기도 수원시 영통구 이의동 1338번지 광교센트럴푸르지오시티 A동 1568호","indutype":"학원 - 기타 교육기관","category":"study"},{"name":"주식회사 퀀텀어웨이크닝스쿨","tel":"","addr":"경기도 수원시 영통구 이의동 1338번지 광교센트럴푸르지오시티 A동 1263호","indutype":"학원 - 기타 교육기관","category":"study"}]},{"lat":"37.292551833","long":"127.05258269","imageIndex":16,"items":[{"name":"명문공부방","tel":"031-890-0155","addr":"경기도 수원시 영통구 이의동 1326번지 e편한세상광교 6108동 301호","indutype":"학원 - 기타 교육기관","category":"study"},{"name":"연세명문공부방","tel":"031-890-0155","addr":"경기도 수원시 영통구 이의동 1326번지 e편한세상광교 6108동 301호","indutype":"학원 - 기타 교육기관","category":"study"}]},{"lat":"37.298203997","long":"127.04555989","imageIndex":16,"items":[{"name":"뮤직컴스토리","tel":"070-8806-7865","addr":"경기도 수원시 영통구 이의동 1265-5번지 B01호","indutype":"학원 - 기타 교육기관","category":"study"}]},{"lat":"37.290211544","long":"127.04655906","imageIndex":16,"items":[{"name":"미술로생각하기광교학원","tel":"031-213-9097","addr":"경기도 수원시 영통구 이의동 1348-2번지 하이니티 504,505호","indutype":"학원 - 예·체능계학원","category":"study"},{"name":"아담리즈수학광교센터학원","tel":"031-202-4178","addr":"경기도 수원시 영통구 이의동 1348-2번지 4층 이의동,하이니티403,404","indutype":"회원제형태 - 학원","category":"study"},{"name":"예인무용학원","tel":"031-203-3696","addr":"경기도 수원시 영통구 이의동 1348-2번지 광교하이니티506,507","indutype":"학원 - 예·체능계학원","category":"study"},{"name":"코즈에듀센터독서실","tel":"031-302-4053","addr":"경기도 수원시 영통구 이의동 1348-2번지 401호,402호일부","indutype":"학원 - 독서실","category":"study"}]},{"lat":"37.304538045","long":"127.04596953","imageIndex":16,"items":[{"name":"반듯한 영어학원","tel":"031-211-0582","addr":"경기도 수원시 영통구 이의동 1204-3번지 403호","indutype":"학원 - 외국어학원","category":"study"},{"name":"틀세움수학학원","tel":"031-214-2131","addr":"경기도 수원시 영통구 이의동 1204-3번지 201호","indutype":"학원 - 보습학원","category":"study"}]},{"lat":"37.289094495","long":"127.04594945","imageIndex":16,"items":[{"name":"브레이닝수학교습소","tel":"","addr":"경기도 수원시 영통구 이의동 1352번지 에듀하임1309오피스텔 104동 118호","indutype":"학원 - 보습학원","category":"study"}]},{"lat":"37.30501531","long":"127.04672553","imageIndex":16,"items":[{"name":"쁘띠 엘 발레 무용학원","tel":"031-216-9556","addr":"경기도 수원시 영통구 이의동 1201-2번지 3층 302호 드림스퀘어2","indutype":"학원 - 예·체능계학원","category":"study"}]},{"lat":"37.30707858","long":"127.04691849","imageIndex":16,"items":[{"name":"사랑애어린이집[아이행복]","tel":"031-212-0777","addr":"경기도 수원시 영통구 이의동 1200번지 광교2차e편한세상 8505동 102호","indutype":"학원 - 유아원","category":"study"}]},{"lat":"37.291740042","long":"127.05461212","imageIndex":16,"items":[{"name":"산의어린음악대음악학원","tel":"031-213-7272","addr":"경기도 수원시 영통구 이의동 1326번지 e편한세상광교 근린생활시설 1동 204,205호","indutype":"학원 - 예·체능계학원","category":"study"},{"name":"진심아이어린이집[아이행복]","tel":"031-217-8365","addr":"경기도 수원시 영통구 이의동 1326번지 이편한세상광교 관리동","indutype":"학원 - 유아원","category":"study"},{"name":"해법영어수학공부방","tel":"","addr":"경기도 수원시 영통구 이의동 1326번지 e편한세상광교 5114동 304호","indutype":"학원 - 기타 교육기관","category":"study"}]},{"lat":"37.290125921","long":"127.05747545","imageIndex":16,"items":[{"name":"산의초등학교","tel":"070-4485-9712","addr":"경기도 수원시 영통구 이의동 1327번지 산의초등학교","indutype":"학원 - 초중고교육기관","category":"study"}]},{"lat":"37.289981564","long":"127.05789261","imageIndex":16,"items":[{"name":"산의초등학교병설유치원[아이행복]","tel":"070-4485-9721","addr":"경기도 수원시 영통구 이의동 177-20","indutype":"학원 - 유치원","category":"study"}]},{"lat":"37.293596975","long":"127.05269616","imageIndex":16,"items":[{"name":"센트럴키즈어린이집[아이행복]","tel":"031-5545-1817","addr":"경기도 수원시 영통구 이의동 1321-4번지 오디카운티 6405동 104호","indutype":"학원 - 유아원","category":"study"}]},{"lat":"37.283902518","long":"127.05130277","imageIndex":16,"items":[{"name":"수원다산중학교","tel":"031-2595-704","addr":"경기도 수원시 영통구 이의동 1368번지 수원다산중학교","indutype":"학원 - 초중고교육기관","category":"study"}]},{"lat":"37.296071769","long":"127.03549853","imageIndex":16,"items":[{"name":"수원외국어고등학교","tel":"031-259-0505","addr":"경기도 수원시 영통구 이의동 1088-23번지 수원외국어고등학교","indutype":"학원 - 초중고교육기관","category":"study"},{"name":"수원외국어고등학교_수업료","tel":"031-259-0506","addr":"경기도 수원시 영통구 이의동 1088-23번지 수원외국어고등학교","indutype":"학원 - 초중고교육기관","category":"study"}]},{"lat":"37.286045836","long":"127.05397673","imageIndex":16,"items":[{"name":"수학은위매쓰학원","tel":"031-211-3412","addr":"경기도 수원시 영통구 이의동 1340번지 성희프라자 402호","indutype":"학원 - 보습학원","category":"study"},{"name":"아르떼 음악학원","tel":"031-217-9880","addr":"경기도 수원시 영통구 이의동 1340번지 성희프라자 4층 403호","indutype":"학원 - 예·체능계학원","category":"study"},{"name":"아트리움미술학원","tel":"031-212-4249","addr":"경기도 수원시 영통구 이의동 1340번지 성희프라자 제1동제4층 제405호성희프라자","indutype":"학원 - 예·체능계학원","category":"study"},{"name":"에듀서강학원","tel":"031-214-1597","addr":"경기도 수원시 영통구 이의동 1340번지 성희프라자 404호","indutype":"학원 - 보습학원","category":"study"}]},{"lat":"37.292570419","long":"127.05121811","imageIndex":16,"items":[{"name":"수학의열쇠해법수학광교학원","tel":"031-211-1312","addr":"경기도 수원시 영통구 이의동 1325-1번지 303호","indutype":"학원 - 보습학원","category":"study"},{"name":"주식회사 에코학원","tel":"031-212-7298","addr":"경기도 수원시 영통구 이의동 1325-1번지 1동4층401호(1325빌딩)","indutype":"학원 - 보습학원","category":"study"},{"name":"창조적소수학원","tel":"031-213-2133","addr":"경기도 수원시 영통구 이의동 1325-1번지 302호","indutype":"학원 - 보습학원","category":"study"}]},{"lat":"37.291876777","long":"127.05085678","imageIndex":16,"items":[{"name":"시매쓰광교학원","tel":"031-212-0732","addr":"경기도 수원시 영통구 이의동 1325-5번지 앤에스코어빌딩 401호","indutype":"회원제형태 - 학원","category":"study"},{"name":"유니팝미술학원","tel":"031-213-0077","addr":"경기도 수원시 영통구 이의동 1325-5번지 앤에스코어빌딩 501호","indutype":"학원 - 예·체능계학원","category":"study"}]},{"lat":"37.285875023","long":"127.05308575","imageIndex":16,"items":[{"name":"신풍초등학교","tel":"031-214-1650","addr":"경기도 수원시 영통구 이의동 1342번지 신풍초등학교","indutype":"학원 - 초중고교육기관","category":"study"}]},{"lat":"37.292454128","long":"127.04910911","imageIndex":16,"items":[{"name":"심리상담센터 지음","tel":"","addr":"경기도 수원시 영통구 이의동 1330번지 광교서희스타힐스오피스텔 8층 815호","indutype":"학원 - 기타 교육기관","category":"study"}]},{"lat":"37.284960906","long":"127.03966606","imageIndex":16,"items":[{"name":"아름학교","tel":"070-4423-9720","addr":"경기도 수원시 영통구 이의동 1364번지 아름학교","indutype":"학원 - 초중고교육기관","category":"study"}]},{"lat":"37.295072447","long":"127.05769331","imageIndex":16,"items":[{"name":"아이노리 발전소","tel":"070-4322-5017","addr":"경기도 수원시 영통구 이의동 1298-3번지 201호","indutype":"학원 - 기타 교육기관","category":"study"},{"name":"오감월드","tel":"070-7782-5841","addr":"경기도 수원시 영통구 이의동 1298-3번지 201호","indutype":"학원 - 기타 교육기관","category":"study"}]},{"lat":"37.303374191","long":"127.04999557","imageIndex":16,"items":[{"name":"에일리잉글이쉬리딩클럽","tel":"031-3564-3949","addr":"경기도 수원시 영통구 이의동 1229번지 광교 호반베르디움트라벨 8106동 603호","indutype":"학원 - 기타 교육기관","category":"study"},{"name":"책먹는 4차원 화가 미술교습소","tel":"031-216-2322","addr":"경기도 수원시 영통구 이의동 1229번지 광교호반베르디움트라엘 2층 202호","indutype":"학원 - 예·체능계학원","category":"study"},{"name":"책읽는 아이","tel":"031-0000-0000","addr":"경기도 수원시 영통구 이의동 1229번지 광교호반베르디움트라엘 8102동 1003호","indutype":"학원 - 기타 교육기관","category":"study"},{"name":"청담클루빌영어교습소","tel":"031-212-8101","addr":"경기도 수원시 영통구 이의동 1229번지 광교반베르디움트라엘 201호","indutype":"학원 - 외국어학원","category":"study"},{"name":"트라엘어린이집[아이행복]","tel":"031-216-3970","addr":"경기도 수원시 영통구 이의동 1229번지 광교 호반베르디움 트라엘","indutype":"학원 - 유아원","category":"study"}]},{"lat":"37.294929718","long":"127.05450152","imageIndex":16,"items":[{"name":"엠케이잉글리쉬","tel":"070-7649-6258","addr":"경기도 수원시 영통구 이의동 1306-15번지 201호","indutype":"학원 - 기타 교육기관","category":"study"}]},{"lat":"37.292516163","long":"127.05169173","imageIndex":16,"items":[{"name":"연무중학교","tel":"031-216-2982","addr":"경기도 수원시 영통구 이의동 1325번지 연무중학교","indutype":"학원 - 초중고교육기관","category":"study"}]},{"lat":"37.293405083","long":"127.05869582","imageIndex":16,"items":[{"name":"오감연구소 플레이 뮤직","tel":"","addr":"경기도 수원시 영통구 이의동 1303번지 광교센트럴타운오드카운티 6404동 503호","indutype":"학원 - 기타 교육기관","category":"study"}]},{"lat":"37.29054522","long":"127.04574728","imageIndex":16,"items":[{"name":"위드어스(with us)생각주머니","tel":"","addr":"경기도 수원시 영통구 이의동 1351-1번지 광교데시앙루브 812호","indutype":"학원 - 기타 교육기관","category":"study"}]},{"lat":"37.293821925","long":"127.05341809","imageIndex":16,"items":[{"name":"위앤아이","tel":"031-211-0578","addr":"경기도 수원시 영통구 이의동 1310-4번지 201호","indutype":"회원제형태 - 학원","category":"study"}]},{"lat":"37.28535192","long":"127.05426945","imageIndex":16,"items":[{"name":"이의자이사임당어린이집[아이행복]","tel":"031-213-7942","addr":"경기도 수원시 영통구 이의동 1339번지 자이앤자이 5301동 103호","indutype":"학원 - 유아원","category":"study"}]},{"lat":"37.301675738","long":"127.03692211","imageIndex":16,"items":[{"name":"인트윈컴퍼니","tel":"031-8001-5270","addr":"경기도 수원시 영통구 이의동 산94-6번지 경기대학교 7층 경기대창업보육센터","indutype":"학원 - 기타 교육기관","category":"study"}]},{"lat":"37.290427648","long":"127.04694262","imageIndex":16,"items":[{"name":"주식회사 국제미래창조연구원","tel":"031-1111-1111","addr":"경기도 수원시 영통구 이의동 1349번지 광교더로프트 556호","indutype":"학원 - 기타 교육기관","category":"study"}]},{"lat":"37.30468227","long":"127.04580042","imageIndex":16,"items":[{"name":"주식회사 키즈랭귀지연구소","tel":"070-8893-3965","addr":"경기도 수원시 영통구 이의동 1204-2번지","indutype":"학원 - 외국어학원","category":"study"}]},{"lat":"37.299538083","long":"127.04394779","imageIndex":16,"items":[{"name":"주식회사코리아에듀테인먼트","tel":"070-4064-8503","addr":"경기도 수원시 영통구 이의동 1258-3번지 파인렉스오피스텔 702호","indutype":"회원제형태 - 학원","category":"study"}]},{"lat":"37.28957246","long":"127.04477689","imageIndex":16,"items":[{"name":"책읽는루브르아뜰리에미술학원","tel":"031-211-7555","addr":"경기도 수원시 영통구 이의동 1352번지 에듀하임 1309호 102,103호","indutype":"학원 - 예·체능계학원","category":"study"}]},{"lat":"37.289070983","long":"127.05905349","imageIndex":16,"items":[{"name":"초록꿈나무어린이집[아이행복]","tel":"031-215-4279","addr":"경기도 수원시 영통구 이의동 1334번지 광교센트럴타운60단지 관리동","indutype":"학원 - 유아원","category":"study"}]},{"lat":"37.304402821","long":"127.04616121","imageIndex":16,"items":[{"name":"카우투스학원","tel":"031-212-0582","addr":"경기도 수원시 영통구 이의동 1204-4번지 3층일부(1204-4)","indutype":"학원 - 보습학원","category":"study"}]},{"lat":"37.29056813","long":"127.05591949","imageIndex":16,"items":[{"name":"코딩앤플레이 화성오산지사","tel":"","addr":"경기도 수원시 영통구 이의동 1326번지 e편한세상광교 6121동 1903호","indutype":"학원 - 기타 교육기관","category":"study"}]},{"lat":"37.283956362","long":"127.0518328","imageIndex":16,"items":[{"name":"토즈스터디센터 광교1독서실","tel":"031-215-0070","addr":"경기도 수원시 영통구 이의동 1369-4번지 2층 201,202호","indutype":"학원 - 독서실","category":"study"}]},{"lat":"37.288885718","long":"127.04999782","imageIndex":16,"items":[{"name":"파인수학공부방","tel":"031-214-8022","addr":"경기도 수원시 영통구 이의동 1344번지 자연앤힐스테이트 5402동 103호","indutype":"학원 - 기타 교육기관","category":"study"}]},{"lat":"37.285180449","long":"127.05490082","imageIndex":16,"items":[{"name":"핀잉글리쉬 컨설팅","tel":"031-214-3698","addr":"경기도 수원시 영통구 이의동 1339번지 자연앤자이 5302동 102호","indutype":"회원제형태 - 학원","category":"study"}]},{"lat":"37.295766931","long":"127.05617126","imageIndex":16,"items":[{"name":"하늘을나는그램책피이씨학원","tel":"031-213-1191","addr":"경기도 수원시 영통구 이의동 1294-1번지","indutype":"학원 - 보습학원","category":"study"}]},{"lat":"37.294647607","long":"127.03741518","imageIndex":16,"items":[{"name":"한누리유치원[아이행복]","tel":"031-214-5905","addr":"경기도 수원시 영통구 이의동 1284-1","indutype":"학원 - 유치원","category":"study"}]},{"lat":"37.287290536","long":"127.05091025","imageIndex":16,"items":[{"name":"해다미어린이집[아이행복]","tel":"031-213-6336","addr":"경기도 수원시 영통구 이의동 1344번지 자연앤힐스테이트 5409동 104호","indutype":"학원 - 유아원","category":"study"}]},{"lat":"37.28937322","long":"127.04755097","imageIndex":16,"items":[{"name":"헤르츠실용음악학원","tel":"031-213-1477","addr":"경기도 수원시 영통구 이의동 1347-2 301호,302호","indutype":"학원 - 예·체능계학원","category":"study"}]},{"lat":"37.306610842","long":"127.04472994","imageIndex":16,"items":[{"name":"호반어린이집[아이행복]","tel":"031-212-1333","addr":"경기도 수원시 영통구 이의동 1184번지 광교호반베르디움 8702동 101호","indutype":"학원 - 유아원","category":"study"}]}]