[{"lat":"37.9935679","long":"127.0748411","imageIndex":7,"items":[{"name":"COFFEE&낚시","tel":"031-835-5678","addr":"경기도 연천군 청산면 초성리 151-1번지 166호","indutype":"음료식품 - 기타음료식품","category":"food"}]},{"lat":"37.98290324","long":"127.0711428","imageIndex":7,"items":[{"name":"금화통상","tel":"02-2157-8255","addr":"경기도 연천군 청산면 초성리 471-6번지","indutype":"건강식품 - 기타건강식품","category":"food"}]},{"lat":"37.98562469","long":"127.0963698","imageIndex":7,"items":[{"name":"농업회사법인뉴드림팜주식회사","tel":"043-221-2218","addr":"경기도 연천군 청산면 초성리 7-35번지","indutype":"음료식품 - 농·축·수산품","category":"food"}]},{"lat":"37.98725769","long":"127.0657284","imageIndex":7,"items":[{"name":"농업회사법인주식회사인그린","tel":"031-835-9142","addr":"경기도 연천군 청산면 초성리 산 104-1번지","indutype":"음료식품 - 농·축·수산품","category":"food"}]},{"lat":"37.99211888","long":"127.0724263","imageIndex":7,"items":[{"name":"롯데칠성 동두천대리점","tel":"031-835-2088","addr":"경기도 연천군 청산면 초성리 158-5번지","indutype":"음료식품 - 기타음료식품","category":"food"}]},{"lat":"37.98817855","long":"127.0908408","imageIndex":7,"items":[{"name":"연천청산버섯영농조합","tel":"031-835-1004","addr":"경기도 연천군 청산면 초성리 8-4번지","indutype":"음료식품 - 농·축·수산품","category":"food"}]},{"lat":"37.99681229","long":"127.0730341","imageIndex":7,"items":[{"name":"주식회사해피트리","tel":"031-835-0879","addr":"경기도 연천군 청산면 초성리 222-2번지","indutype":"음료식품 - 제과점","category":"food"}]},{"lat":"37.9925356","long":"127.0684195","imageIndex":7,"items":[{"name":"초성리농촌개발영농조합법인","tel":"031-835-0381","addr":"경기도 연천군 청산면 초성리 184-1","indutype":"음료식품 - 농·축·수산품","category":"food"}]},{"lat":"37.98085055","long":"127.0686709","imageIndex":7,"items":[{"name":"풍천수산","tel":"031-835-0292","addr":"경기도 연천군 청산면 초성리 487-3번지","indutype":"음료식품 - 농·축·수산품","category":"food"}]},{"lat":"37.9879606","long":"127.0931172","imageIndex":7,"items":[{"name":"한우정","tel":"031-835-8003","addr":"경기도 연천군 청산면 초성리 7-17번지","indutype":"음료식품 - 정육점","category":"food"}]}]