[{"lat":"37.522839993","long":"126.77133173","imageIndex":0,"items":[{"name":"(주)1급에스티모터스","tel":"032-678-1002","addr":"경기도 부천시 삼정동 222-9번지 1층","indutype":"자동차정비 유지 - 자동차정비","category":"car"}]},{"lat":"37.521392529","long":"126.76834984","imageIndex":0,"items":[{"name":"(주)1급테크노자동차공업사","tel":"032-671-6668","addr":"경기도 부천시 삼정동 264번지","indutype":"자동차정비 유지 - 자동차정비","category":"car"}]},{"lat":"37.523401101","long":"126.77260829","imageIndex":0,"items":[{"name":"(주)경인1급자동차 공업사","tel":"032-676-7368","addr":"경기도 부천시 삼정동 220-1번지","indutype":"자동차정비 유지 - 자동차정비","category":"car"},{"name":"경인1급자동차공업사","tel":"032-676-7368","addr":"경기도 부천시 삼정동 220-1번지 1층","indutype":"자동차정비 유지 - 자동차정비","category":"car"}]},{"lat":"37.523226309","long":"126.76177166","imageIndex":0,"items":[{"name":"(주)서하모터스","tel":"032-250-7625","addr":"경기도 부천시 삼정동 366-1번지 국민차매매단지 258호","indutype":"자동차판매 - 중고자동차판매","category":"car"},{"name":"(주)애니카모터스","tel":"032-250-7310","addr":"경기도 부천시 삼정동 366-1번지 국민차매매단지 246호","indutype":"자동차판매 - 중고자동차판매","category":"car"},{"name":"(주)현모터스","tel":"032-250-7164","addr":"경기도 부천시 삼정동 366-1번지 국민차매매단지 261호","indutype":"자동차판매 - 중고자동차판매","category":"car"},{"name":"63모터스","tel":"032-000-0000","addr":"경기도 부천시 삼정동 366-1번지 국민차매매단지 106호","indutype":"자동차판매 - 중고자동차판매","category":"car"},{"name":"국민차광택6호","tel":"02-1111-1111","addr":"경기도 부천시 삼정동 366-1번지 국민차매매단지 B05호","indutype":"자동차정비 유지 - 카인테리어","category":"car"},{"name":"그린광택","tel":"032-111-1111","addr":"경기도 부천시 삼정동 366-1번지 부천자동차매매단지 B03호","indutype":"자동차정비 유지 - 카인테리어","category":"car"},{"name":"두손모터스2","tel":"032-250-7215","addr":"경기도 부천시 삼정동 366-1번지 국민차매매단지 214호","indutype":"자동차판매 - 중고자동차판매","category":"car"},{"name":"두영광택","tel":"032-000-0000","addr":"경기도 부천시 삼정동 366-1번지 부천자동차매매단지 지하1층 B08호","indutype":"자동차정비 유지 - 카인테리어","category":"car"},{"name":"믿음모터스 주식회사","tel":"032-250-7250","addr":"경기도 부천시 삼정동 366-1번지 국민차매매단지 2209호","indutype":"자동차판매 - 중고자동차판매","category":"car"},{"name":"서로모터스","tel":"032-250-7625","addr":"경기도 부천시 삼정동 366-1번지 국민차매매단지 259호","indutype":"자동차판매 - 중고자동차판매","category":"car"},{"name":"석모터스","tel":"032-250-7570","addr":"경기도 부천시 삼정동 366-1번지 국민차매매단지 252호","indutype":"자동차판매 - 중고자동차판매","category":"car"},{"name":"송파모터스","tel":"032-250-7309","addr":"경기도 부천시 삼정동 366-1번지 국민차매매단지 309호","indutype":"자동차판매 - 중고자동차판매","category":"car"},{"name":"스미일세차","tel":"","addr":"경기도 부천시 삼정동 366-1번지 국민차매매단지 1107호","indutype":"자동차정비 유지 - 세차장","category":"car"},{"name":"스타카오디오","tel":"070-3000-1211","addr":"경기도 부천시 삼정동 366-1번지 국민차매매단지 1111호","indutype":"자동차정비 유지 - 자동차부품","category":"car"},{"name":"심모터스","tel":"032-250-8210","addr":"경기도 부천시 삼정동 366-1번지 국민차매매단지 111호","indutype":"자동차판매 - 중고자동차판매","category":"car"},{"name":"에스앤피(S&P)모터스","tel":"032-250-7219","addr":"경기도 부천시 삼정동 366-1번지 국민차매매단지 219호","indutype":"자동차판매 - 중고자동차판매","category":"car"},{"name":"에이스광택","tel":"032-111-1111","addr":"경기도 부천시 삼정동 366-1번지 국민차매매단지 B02 .B09호","indutype":"자동차정비 유지 - 카인테리어","category":"car"},{"name":"오케이광택","tel":"032-000-0000","addr":"경기도 부천시 삼정동 366-1번지 부천자동차매매단지 B07호","indutype":"자동차정비 유지 - 카인테리어","category":"car"},{"name":"오토매니지먼트컴퍼니","tel":"032-250-7028","addr":"경기도 부천시 삼정동 366-1번지 국민차매매단지 1110호","indutype":"자동차정비 유지 - 자동차정비","category":"car"},{"name":"오픈카모터스","tel":"032-250-7555","addr":"경기도 부천시 삼정동 366-1번지 자동차매매단지 266호","indutype":"자동차판매 - 중고자동차판매","category":"car"},{"name":"우현모터스","tel":"032-250-7935","addr":"경기도 부천시 삼정동 366-1번지 국민차매매단지 267호","indutype":"자동차판매 - 중고자동차판매","category":"car"},{"name":"원컴퍼니","tel":"032-250-7232","addr":"경기도 부천시 삼정동 366-1번지 국민차매매단지 232호","indutype":"자동차판매 - 중고자동차판매","category":"car"},{"name":"주식회사 나연모터스","tel":"","addr":"경기도 부천시 삼정동 366-1번지 국민차매매단지 301호","indutype":"자동차판매 - 중고자동차판매","category":"car"},{"name":"주식회사 다온오토","tel":"032-250-7680","addr":"경기도 부천시 삼정동 366-1번지 국민차매매단지 304호","indutype":"자동차판매 - 중고자동차판매","category":"car"},{"name":"주식회사 케이엠모터스2호점","tel":"032-250-7211","addr":"경기도 부천시 삼정동 366-1번지 국민차매매단지 211호","indutype":"자동차판매 - 중고자동차판매","category":"car"},{"name":"주식회사 케이카","tel":"032-250-7290","addr":"경기도 부천시 삼정동 366-1번지 국민차매매단지 263호","indutype":"자동차판매 - 중고자동차판매","category":"car"},{"name":"지에스모터스1","tel":"","addr":"경기도 부천시 삼정동 366-1번지 국민차매매단지 270호","indutype":"자동차판매 - 중고자동차판매","category":"car"},{"name":"차차차모터스","tel":"032-250-7646","addr":"경기도 부천시 삼정동 366-1번지 국민차매매단지 265호","indutype":"자동차판매 - 중고자동차판매","category":"car"},{"name":"착한중고차","tel":"032-250-7104","addr":"경기도 부천시 삼정동 366-1번지 국민차매매단지 104호","indutype":"자동차판매 - 중고자동차판매","category":"car"},{"name":"청춘카페","tel":"032-250-7135","addr":"경기도 부천시 삼정동 366-1번지 국민차매매단지 203호","indutype":"자동차판매 - 중고자동차판매","category":"car"},{"name":"카맥스","tel":"032-250-7274","addr":"경기도 부천시 삼정동 366-1번지 국민차매매단지 274호","indutype":"자동차판매 - 중고자동차판매","category":"car"},{"name":"카스토리2","tel":"","addr":"경기도 부천시 삼정동 366-1번지 국민차매매단지 2층 237호","indutype":"자동차판매 - 중고자동차판매","category":"car"},{"name":"카스토리모터스","tel":"","addr":"경기도 부천시 삼정동 366-1번지 국민차매매단지 1109호","indutype":"자동차정비 유지 - 자동차정비","category":"car"},{"name":"카카매니저","tel":"032-250-7687","addr":"경기도 부천시 삼정동 366-1번지 국민차매매단지 202호","indutype":"자동차판매 - 중고자동차판매","category":"car"},{"name":"클린카","tel":"032-250-7274","addr":"경기도 부천시 삼정동 366-1번지 국민차매매단지 274호","indutype":"자동차판매 - 중고자동차판매","category":"car"},{"name":"투맨광택","tel":"02-1111-1111","addr":"경기도 부천시 삼정동 366-1번지 부천자동차매매단지 B05호","indutype":"자동차정비 유지 - 카인테리어","category":"car"},{"name":"하나오토컴퍼니","tel":"032-250-7308","addr":"경기도 부천시 삼정동 366-1번지 국민차매매단지 308호","indutype":"자동차판매 - 중고자동차판매","category":"car"},{"name":"한모터스","tel":"032-250-7224","addr":"경기도 부천시 삼정동 366-1번지 국민차매매단지 224호","indutype":"자동차판매 - 중고자동차판매","category":"car"},{"name":"현대모터스","tel":"032-250-7908","addr":"경기도 부천시 삼정동 366-1번지 국민차매매단지 239호","indutype":"자동차판매 - 중고자동차판매","category":"car"},{"name":"휠모터스","tel":"032-250-7247","addr":"경기도 부천시 삼정동 366-1번지 국민차매매단지 2층 247호","indutype":"자동차판매 - 중고자동차판매","category":"car"}]},{"lat":"37.524508714","long":"126.77229945","imageIndex":0,"items":[{"name":"(주)세광이엔지","tel":"032-674-0611","addr":"경기도 부천시 삼정동 85-47번지","indutype":"자동차정비 유지 - 자동차부품","category":"car"}]},{"lat":"37.518920722","long":"126.76232847","imageIndex":0,"items":[{"name":"(주)코리아필터링","tel":"032-324-5502","addr":"경기도 부천시 삼정동 364번지 부천테크노파크1단지 101-B12","indutype":"자동차정비 유지 - 자동차부품","category":"car"},{"name":"부천테크노파크1단지 입주사대표회의","tel":"032-621-1170","addr":"경기도 부천시 삼정동 364번지 부천테크노파크1단지","indutype":"자동차정비 유지 - 주차장","category":"car"},{"name":"파인모빌리티 주식회사","tel":"032-621-1987","addr":"경기도 부천시 삼정동 364번지 부천테크노파크 102동 904호","indutype":"자동차판매 - 기타운송","category":"car"}]},{"lat":"37.529006386","long":"126.76860883","imageIndex":0,"items":[{"name":"Motor City","tel":"032-681-7114","addr":"경기도 부천시 삼정동 54-9번지","indutype":"자동차정비 유지 - 자동차정비","category":"car"},{"name":"독도자동차공업사","tel":"032-681-7114","addr":"경기도 부천시 삼정동 54-9번지","indutype":"자동차정비 유지 - 자동차정비","category":"car"}]},{"lat":"37.525560471","long":"126.77107445","imageIndex":0,"items":[{"name":"NFSRACING","tel":"032-683-3142","addr":"경기도 부천시 삼정동 70-39번지 NFS","indutype":"자동차정비 유지 - 자동차부품","category":"car"},{"name":"국제자동차유리시트사","tel":"032-676-2213","addr":"경기도 부천시 삼정동 70-39번지 1층 101,102호","indutype":"자동차정비 유지 - 자동차부품","category":"car"}]},{"lat":"37.526062225","long":"126.76513372","imageIndex":0,"items":[{"name":"강서부천점 싸다모터스","tel":"032-673-5556","addr":"경기도 부천시 삼정동 19-11번지 1층,2층","indutype":"자동차정비 유지 - 자동차정비","category":"car"}]},{"lat":"37.519898871","long":"126.76934995","imageIndex":0,"items":[{"name":"대광자동차","tel":"032-672-0820","addr":"경기도 부천시 삼정동 297번지","indutype":"자동차정비 유지 - 자동차정비","category":"car"}]},{"lat":"37.517450449","long":"126.76596415","imageIndex":0,"items":[{"name":"대길카센타","tel":"032-327-7977","addr":"경기도 부천시 삼정동 276-29번지","indutype":"자동차정비 유지 - 자동차정비","category":"car"}]},{"lat":"37.525396093","long":"126.77457055","imageIndex":0,"items":[{"name":"대원스피드모터스","tel":"032-683-7881","addr":"경기도 부천시 삼정동 48-24번지 1층 일부","indutype":"자동차정비 유지 - 자동차정비","category":"car"},{"name":"대원자동차","tel":"032-683-1661","addr":"경기도 부천시 삼정동 48-24번지","indutype":"자동차정비 유지 - 자동차정비","category":"car"},{"name":"오정현대자동차공업사","tel":"032-677-1250","addr":"경기도 부천시 삼정동 48-24번지","indutype":"자동차정비 유지 - 자동차정비","category":"car"}]},{"lat":"37.528030757","long":"126.77188134","imageIndex":0,"items":[{"name":"드림자동차서비스","tel":"031-683-0885","addr":"경기도 부천시 삼정동 48-130번지","indutype":"자동차정비 유지 - 자동차정비","category":"car"}]},{"lat":"37.525007865","long":"126.76954896","imageIndex":0,"items":[{"name":"디알 자동차 공업사","tel":"032-225-5545","addr":"경기도 부천시 삼정동 24-2번지","indutype":"자동차정비 유지 - 자동차정비","category":"car"}]},{"lat":"37.52292084","long":"126.76665953","imageIndex":0,"items":[{"name":"미래시스템","tel":"02-624-3636","addr":"경기도 부천시 삼정동 36-1번지 부천쌍용테크노타운3차 101동 1111호","indutype":"자동차정비 유지 - 자동차부품","category":"car"},{"name":"부천테크노파크쌍용3차관리단","tel":"032-624-2960","addr":"경기도 부천시 삼정동 36-1 부천테크노파크쌍용3차 203동 1층","indutype":"자동차정비 유지 - 주차장","category":"car"},{"name":"성보타이어인터내셔날(주)","tel":"032-624-0577","addr":"경기도 부천시 삼정동 36-1번지 부천테크노파크쌍용3차 303동 707호","indutype":"자동차정비 유지 - 자동차시트·타이어","category":"car"},{"name":"신창테크","tel":"032-624-0627","addr":"경기도 부천시 삼정동 36-1번지 부천테크노파크쌍용3차 301동 1105호","indutype":"자동차정비 유지 - 자동차부품","category":"car"},{"name":"주식회사유토테크","tel":"032-327-7931","addr":"경기도 부천시 삼정동 36-1번지 부천테크노파크쌍용3차 303동 503호","indutype":"자동차정비 유지 - 자동차부품","category":"car"},{"name":"한국비엠아이(B.M.I)시스템","tel":"070-4048-0948","addr":"경기도 부천시 삼정동 36-1번지 부천테크노파크쌍용3차 102동 1005호","indutype":"자동차정비 유지 - 자동차부품","category":"car"}]},{"lat":"37.514455573","long":"126.77326919","imageIndex":0,"items":[{"name":"민구밧데리","tel":"032-684-3169","addr":"경기도 부천시 삼정동 318-10번지","indutype":"자동차정비 유지 - 자동차정비","category":"car"}]},{"lat":"37.525953149","long":"126.76465893","imageIndex":0,"items":[{"name":"박사장멀티샵","tel":"032-675-1222","addr":"경기도 부천시 삼정동 19-40번지 1층","indutype":"자동차정비 유지 - 자동차부품","category":"car"}]},{"lat":"37.523650108","long":"126.77557136","imageIndex":0,"items":[{"name":"부천아이씨충전소 한국타이어","tel":"032-682-0880","addr":"경기도 부천시 삼정동 97-3번지","indutype":"자동차정비 유지 - 자동차시트·타이어","category":"car"}]},{"lat":"37.518924097","long":"126.76399127","imageIndex":0,"items":[{"name":"부천테크노파크 3단지 입주사 대표회의","tel":"032-234-3140","addr":"경기도 부천시 삼정동 365번지 부천테크노파크3단지","indutype":"자동차정비 유지 - 주차장","category":"car"}]},{"lat":"37.525310588","long":"126.77229698","imageIndex":0,"items":[{"name":"삼정세차","tel":"032-671-8211","addr":"경기도 부천시 삼정동 71-27번지","indutype":"자동차정비 유지 - 세차장","category":"car"},{"name":"삼정자동차정비(주)","tel":"032-673-9991","addr":"경기도 부천시 삼정동 71-27번지","indutype":"자동차정비 유지 - 자동차정비","category":"car"}]},{"lat":"37.525367009","long":"126.76441192","imageIndex":0,"items":[{"name":"삼정카오디오","tel":"032-4150-3322","addr":"경기도 부천시 삼정동 29-7번지 1층","indutype":"자동차정비 유지 - 자동차부품","category":"car"}]},{"lat":"37.527536785","long":"126.77268608","imageIndex":0,"items":[{"name":"썬라이즈스팀세차","tel":"032-684-5655","addr":"경기도 부천시 삼정동 48-220번지 주차장콘테이너1동","indutype":"자동차정비 유지 - 세차장","category":"car"}]},{"lat":"37.514867424","long":"126.77193323","imageIndex":0,"items":[{"name":"아성공업사","tel":"032-663-4185","addr":"경기도 부천시 삼정동 338-6번지 1층 아성기업","indutype":"자동차정비 유지 - 자동차정비","category":"car"}]},{"lat":"37.529147888","long":"126.76727343","imageIndex":0,"items":[{"name":"애니카자동차공업사","tel":"032-675-4095","addr":"경기도 부천시 삼정동 60-3번지 외1필지","indutype":"자동차정비 유지 - 자동차정비","category":"car"}]},{"lat":"37.525449737","long":"126.77435545","imageIndex":0,"items":[{"name":"야베스자동차공업사","tel":"032-675-5553","addr":"경기도 부천시 삼정동 48-57번지","indutype":"자동차정비 유지 - 자동차정비","category":"car"}]},{"lat":"37.522842426","long":"126.77257607","imageIndex":0,"items":[{"name":"에이씨씨","tel":"070-7393-5873","addr":"경기도 부천시 삼정동 220-18번지 B01호","indutype":"자동차정비 유지 - 자동차부품","category":"car"}]},{"lat":"37.525372535","long":"126.76269239","imageIndex":0,"items":[{"name":"여월자동차공업사","tel":"032-672-7717","addr":"경기도 부천시 삼정동 34-5번지 1층","indutype":"자동차정비 유지 - 자동차정비","category":"car"}]},{"lat":"37.518728308","long":"126.76971557","imageIndex":0,"items":[{"name":"연합카써비스","tel":"032-683-9292","addr":"경기도 부천시 삼정동 296-25번지","indutype":"자동차정비 유지 - 자동차정비","category":"car"}]},{"lat":"37.520646306","long":"126.76915532","imageIndex":0,"items":[{"name":"연호모터스","tel":"032-672-4140","addr":"경기도 부천시 삼정동 267-4번지 2,6층","indutype":"자동차정비 유지 - 자동차정비","category":"car"},{"name":"장수모터스","tel":"032-677-5652","addr":"경기도 부천시 삼정동 267-4번지 4층 장수모터스","indutype":"자동차정비 유지 - 자동차정비","category":"car"}]},{"lat":"37.526036568","long":"126.77034896","imageIndex":0,"items":[{"name":"오정모터스","tel":"032-677-1101","addr":"경기도 부천시 삼정동 70-35번지","indutype":"자동차정비 유지 - 자동차정비","category":"car"}]},{"lat":"37.514788409","long":"126.77299671","imageIndex":0,"items":[{"name":"오토박스","tel":"032-675-6125","addr":"경기도 부천시 삼정동 318번지 계남샤이니아파트 101호","indutype":"자동차정비 유지 - 자동차부품","category":"car"}]},{"lat":"37.522649299","long":"126.7705744","imageIndex":0,"items":[{"name":"오토원자동차공업사","tel":"032-673-7272","addr":"경기도 부천시 삼정동 225번지","indutype":"자동차정비 유지 - 자동차정비","category":"car"}]},{"lat":"37.525897798","long":"126.76851674","imageIndex":0,"items":[{"name":"유니텍","tel":"032-678-7179","addr":"경기도 부천시 삼정동 113-3번지 306호","indutype":"자동차정비 유지 - 자동차부품","category":"car"}]},{"lat":"37.519949134","long":"126.7674381","imageIndex":0,"items":[{"name":"정진카프라자","tel":"032-677-0932","addr":"경기도 부천시 삼정동 275-64번지","indutype":"자동차정비 유지 - 자동차정비","category":"car"}]},{"lat":"37.526476353","long":"126.76948782","imageIndex":0,"items":[{"name":"제일스카이정비","tel":"032-671-8802","addr":"경기도 부천시 삼정동 67-6번지","indutype":"자동차정비 유지 - 자동차정비","category":"car"},{"name":"타이어부천총판","tel":"032-882-8707","addr":"경기도 부천시 삼정동 67-6번지","indutype":"자동차정비 유지 - 자동차시트·타이어","category":"car"}]},{"lat":"37.528726191","long":"126.77273899","imageIndex":0,"items":[{"name":"주식회사 미진비엔엘","tel":"032-677-7863","addr":"경기도 부천시 삼정동 48-139번지 2층","indutype":"자동차정비 유지 - 자동차부품","category":"car"}]},{"lat":"37.52928109","long":"126.76630008","imageIndex":0,"items":[{"name":"주식회사 카런","tel":"032-682-1524","addr":"경기도 부천시 삼정동 33-1번지","indutype":"자동차정비 유지 - 자동차정비","category":"car"}]},{"lat":"37.526815735","long":"126.76349097","imageIndex":0,"items":[{"name":"주식회사 한길자동차공업사","tel":"032-673-1412","addr":"경기도 부천시 삼정동 17-39번지","indutype":"자동차정비 유지 - 자동차정비","category":"car"}]},{"lat":"37.520672336","long":"126.77323883","imageIndex":0,"items":[{"name":"진성자동차공업사","tel":"032-221-8000","addr":"경기도 부천시 삼정동 206-2번지","indutype":"자동차정비 유지 - 자동차정비","category":"car"}]},{"lat":"37.525231139","long":"126.76855276","imageIndex":0,"items":[{"name":"충무상사","tel":"032-675-4747","addr":"경기도 부천시 삼정동 24-5번지","indutype":"회원제형태 - 자동차서비스","category":"car"}]},{"lat":"37.517784153","long":"126.76613277","imageIndex":0,"items":[{"name":"카젠자동차공업소","tel":"032-672-6777","addr":"경기도 부천시 삼정동 276-6번지 삼정뷰그리안 101동 102호","indutype":"자동차정비 유지 - 자동차정비","category":"car"}]},{"lat":"37.521587783","long":"126.77141479","imageIndex":0,"items":[{"name":"투익상사","tel":"032-655-0247","addr":"경기도 부천시 삼정동 216-6번지 대안빌딩","indutype":"자동차정비 유지 - 윤활유 전문 판매","category":"car"}]},{"lat":"37.529677001","long":"126.77057524","imageIndex":0,"items":[{"name":"한부구리스","tel":"000-0000-0000","addr":"경기도 부천시 삼정동 45-1 1층","indutype":"자동차정비 유지 - 자동차정비","category":"car"}]},{"lat":"37.522838112","long":"126.7749969","imageIndex":0,"items":[{"name":"현대자동차공업사","tel":"032-681-7111","addr":"경기도 부천시 삼정동 202-2번지 1층","indutype":"자동차정비 유지 - 자동차정비","category":"car"}]},{"lat":"37.526066882","long":"126.77202315","imageIndex":0,"items":[{"name":"형제세차장","tel":"032-673-4429","addr":"경기도 부천시 삼정동 71-11번지","indutype":"자동차정비 유지 - 세차장","category":"car"}]}]