[{"lat":"37.655103155","long":"126.83498292","imageIndex":13,"items":[{"name":"123실내낚시터","tel":"070-8870-0123","addr":"경기도 고양시 덕양구 성사동 699-10번지","indutype":"레저업소 - 기타레져업소","category":"leisure"}]},{"lat":"37.653467189","long":"126.83767229","imageIndex":13,"items":[{"name":"3pop pc방","tel":"070-9085-3535","addr":"경기도 고양시 덕양구 성사동 722-3번지","indutype":"레저업소 - 기타레져업소","category":"leisure"},{"name":"꿈꾸는 쉼터 만화카페","tel":"031-964-6220","addr":"경기도 고양시 덕양구 성사동 722-3번지","indutype":"레저업소 - 기타레져업소","category":"leisure"},{"name":"헬로방방원당점","tel":"031-969-7988","addr":"경기도 고양시 덕양구 성사동 722-3번지","indutype":"레저업소 - 기타레져업소","category":"leisure"}]},{"lat":"37.655077974","long":"126.83628619","imageIndex":13,"items":[{"name":"MS노래연습장","tel":"031-966-1140","addr":"경기도 고양시 덕양구 성사동 700-7번지","indutype":"레저업소 - 노 래 방","category":"leisure"}]},{"lat":"37.654601914","long":"126.83731848","imageIndex":13,"items":[{"name":"VIP휘트니스 원당점","tel":"031-969-9910","addr":"경기도 고양시 덕양구 성사동 703-6번지","indutype":"레저업소 - 헬스클럽","category":"leisure"}]},{"lat":"37.657990987","long":"126.83834223","imageIndex":13,"items":[{"name":"가나당구클럽","tel":"031-965-8188","addr":"경기도 고양시 덕양구 성사동 502-5번지","indutype":"레저업소 - 당 구 장","category":"leisure"},{"name":"동양볼링장","tel":"031-965-5005","addr":"경기도 고양시 덕양구 성사동 502-5번지","indutype":"레저업소 - 볼 링 장","category":"leisure"}]},{"lat":"37.656296126","long":"126.83759803","imageIndex":13,"items":[{"name":"궁 노래연습장","tel":"","addr":"경기도 고양시 덕양구 성사동 697-13번지","indutype":"레저업소 - 노 래 방","category":"leisure"}]},{"lat":"37.653386499","long":"126.83795577","imageIndex":13,"items":[{"name":"귀인 노래연습장","tel":"031-968-8416","addr":"경기도 고양시 덕양구 성사동 722-2번지","indutype":"레저업소 - 노 래 방","category":"leisure"}]},{"lat":"37.658325966","long":"126.83950877","imageIndex":13,"items":[{"name":"다마","tel":"031-2956-9300","addr":"경기도 고양시 덕양구 성사동 499번지","indutype":"레저업소 - 당 구 장","category":"leisure"}]},{"lat":"37.656547027","long":"126.83662288","imageIndex":13,"items":[{"name":"도레미노래방","tel":"031-964-3118","addr":"경기도 고양시 덕양구 성사동 696-3번지","indutype":"레저업소 - 노 래 방","category":"leisure"},{"name":"심심할때","tel":"070-7794-5500","addr":"경기도 고양시 덕양구 성사동 696-3번지","indutype":"레저업소 - 기타레져업소","category":"leisure"}]},{"lat":"37.655691461","long":"126.8368741","imageIndex":13,"items":[{"name":"동네방네","tel":"031-965-8121","addr":"경기도 고양시 덕양구 성사동 701-1번지","indutype":"레저업소 - 노 래 방","category":"leisure"}]},{"lat":"37.654157814","long":"126.84193164","imageIndex":13,"items":[{"name":"둥지 노래연습장","tel":"","addr":"경기도 고양시 덕양구 성사동 408-8번지","indutype":"레저업소 - 노 래 방","category":"leisure"}]},{"lat":"37.653630219","long":"126.83828386","imageIndex":13,"items":[{"name":"디지털우리","tel":"031-967-6212","addr":"경기도 고양시 덕양구 성사동 720-1번지","indutype":"레저업소 - 노 래 방","category":"leisure"},{"name":"신원당스크린골프","tel":"031-964-0220","addr":"경기도 고양시 덕양구 성사동","indutype":"레저업소 - 스크린골프","category":"leisure"}]},{"lat":"37.655133213","long":"126.83712465","imageIndex":13,"items":[{"name":"따봉노래연습장","tel":"031-968-2110","addr":"경기도 고양시 덕양구 성사동 702-23번지","indutype":"레저업소 - 노 래 방","category":"leisure"}]},{"lat":"37.658406046","long":"126.8387833","imageIndex":13,"items":[{"name":"루비노래연습장","tel":"031-969-1747","addr":"경기도 고양시 덕양구 성사동 501-2번지 명지캐럿86","indutype":"레저업소 - 노 래 방","category":"leisure"}]},{"lat":"37.655743591","long":"126.84198488","imageIndex":13,"items":[{"name":"머슬킹","tel":"","addr":"경기도 고양시 덕양구 성사동 404-5번지","indutype":"레저업소 - 헬스클럽","category":"leisure"}]},{"lat":"37.656213398","long":"126.83643097","imageIndex":13,"items":[{"name":"벤치","tel":"031-966-0041","addr":"경기도 고양시 덕양구 성사동 698-1번지","indutype":"레저업소 - 노 래 방","category":"leisure"},{"name":"원","tel":"","addr":"경기도 고양시 덕양구 성사동 698-1번지","indutype":"레저업소 - 당 구 장","category":"leisure"}]},{"lat":"37.65543884","long":"126.83662535","imageIndex":13,"items":[{"name":"불꽃노래연습장","tel":"031-966-6662","addr":"경기도 고양시 덕양구 성사동 701-4번지","indutype":"레저업소 - 노 래 방","category":"leisure"}]},{"lat":"37.657052349","long":"126.83717705","imageIndex":13,"items":[{"name":"삼성당구장","tel":"031-963-3949","addr":"경기도 고양시 덕양구 성사동 696번지","indutype":"레저업소 - 당 구 장","category":"leisure"},{"name":"유니크pc방","tel":"070-2585-7477","addr":"경기도 고양시 덕양구 성사동 696번지","indutype":"레저업소 - 기타레져업소","category":"leisure"}]},{"lat":"37.655411411","long":"126.83634211","imageIndex":13,"items":[{"name":"샤넬 노래연습장","tel":"031-7369-2883","addr":"경기도 고양시 덕양구 성사동 701-8번지","indutype":"레저업소 - 노 래 방","category":"leisure"}]},{"lat":"37.654495193","long":"126.83831595","imageIndex":13,"items":[{"name":"성원코아당구장","tel":"031-966-3285","addr":"경기도 고양시 덕양구 성사동 704-4번지","indutype":"레저업소 - 당 구 장","category":"leisure"},{"name":"애플","tel":"031-963-8008","addr":"경기도 고양시 덕양구 성사동 704-4번지","indutype":"레저업소 - 노 래 방","category":"leisure"}]},{"lat":"37.662186699","long":"126.84964365","imageIndex":13,"items":[{"name":"솔향기풋살장","tel":"031-976-1124","addr":"경기도 고양시 덕양구 성사동 573-2번지","indutype":"레저업소 - 기타레져업소","category":"leisure"}]},{"lat":"37.658099797","long":"126.83884063","imageIndex":13,"items":[{"name":"싸이","tel":"031-969-2921","addr":"경기도 고양시 덕양구 성사동 500-19번지","indutype":"레저업소 - 노 래 방","category":"leisure"}]},{"lat":"37.655080203","long":"126.8378727","imageIndex":13,"items":[{"name":"엑스포","tel":"031-966-7747","addr":"경기도 고양시 덕양구 성사동 702-28번지","indutype":"레저업소 - 노 래 방","category":"leisure"}]},{"lat":"37.657991523","long":"126.83872754","imageIndex":13,"items":[{"name":"옥스(OXPC)","tel":"","addr":"경기도 고양시 덕양구 성사동 500-20번지","indutype":"레저업소 - 기타레져업소","category":"leisure"}]},{"lat":"37.654521176","long":"126.83756797","imageIndex":13,"items":[{"name":"윈윈당구장","tel":"031-962-7183","addr":"경기도 고양시 덕양구 성사동 703-8번지","indutype":"레저업소 - 당 구 장","category":"leisure"}]},{"lat":"37.653879486","long":"126.84264617","imageIndex":13,"items":[{"name":"윙핏 킥복싱","tel":"031-962-5820","addr":"경기도 고양시 덕양구 성사동 414-1번지","indutype":"레저업소 - 헬스클럽","category":"leisure"}]},{"lat":"37.655691222","long":"126.83670412","imageIndex":13,"items":[{"name":"유리노래연습장","tel":"031-966-1556","addr":"경기도 고양시 덕양구 성사동 701-12번지","indutype":"레저업소 - 노 래 방","category":"leisure"}]},{"lat":"37.657823767","long":"126.84120977","imageIndex":13,"items":[{"name":"이혜지 필라테스 스튜디오","tel":"","addr":"경기도 고양시 덕양구 성사동 494-2번지","indutype":"레저업소 - 헬스클럽","category":"leisure"}]},{"lat":"37.656187534","long":"126.8372583","imageIndex":13,"items":[{"name":"정안당구장","tel":"031-914-8435","addr":"경기도 고양시 덕양구 성사동 697-14번지","indutype":"레저업소 - 당 구 장","category":"leisure"},{"name":"쿠거존pc","tel":"","addr":"경기도 고양시 덕양구 성사동 697-14번지","indutype":"레저업소 - 기타레져업소","category":"leisure"},{"name":"클릭노래연습장","tel":"00-0000-0000","addr":"경기도 고양시 덕양구 성사동 697-14번지","indutype":"레저업소 - 노 래 방","category":"leisure"}]},{"lat":"37.65496128","long":"126.83659242","imageIndex":13,"items":[{"name":"정원탁구교실","tel":"031-963-0015","addr":"경기도 고양시 덕양구 성사동 703번지","indutype":"레저업소 - 기타레져업소","category":"leisure"},{"name":"테마노래방","tel":"031-964-3743","addr":"경기도 고양시 덕양구 성사동 703번지","indutype":"레저업소 - 노 래 방","category":"leisure"}]},{"lat":"37.654076231","long":"126.84156919","imageIndex":13,"items":[{"name":"창성당구장","tel":"031-966-8436","addr":"경기도 고양시 덕양구 성사동 408-3번지","indutype":"레저업소 - 당 구 장","category":"leisure"}]},{"lat":"37.654852572","long":"126.83617337","imageIndex":13,"items":[{"name":"칭구노래방","tel":"031-971-5255","addr":"경기도 고양시 덕양구 성사동 700-8번지","indutype":"레저업소 - 노 래 방","category":"leisure"}]},{"lat":"37.655547689","long":"126.8371464","imageIndex":13,"items":[{"name":"콜","tel":"031-967-8897","addr":"경기도 고양시 덕양구 성사동 702-10번지","indutype":"레저업소 - 노 래 방","category":"leisure"}]},{"lat":"37.65401957","long":"126.83967685","imageIndex":13,"items":[{"name":"토이키즈 스윔클럽","tel":"031-966-3232","addr":"경기도 고양시 덕양구 성사동 707-10번지","indutype":"레저업소 - 수 영 장","category":"leisure"},{"name":"토이키즈스윔클럽","tel":"031-966-3232","addr":"경기도 고양시 덕양구 성사동 707-10번지","indutype":"레저업소 - 수 영 장","category":"leisure"}]},{"lat":"37.655627914","long":"126.83653427","imageIndex":13,"items":[{"name":"핑클노래연습장","tel":"031-968-0869","addr":"경기도 고양시 덕양구 성사동 701-11번지","indutype":"레저업소 - 노 래 방","category":"leisure"}]},{"lat":"37.654830408","long":"126.83965241","imageIndex":13,"items":[{"name":"하나로노래방","tel":"031-969-5977","addr":"경기도 고양시 덕양구 성사동 706번지","indutype":"레저업소 - 노 래 방","category":"leisure"}]}]