[{"lat":"37.054533839","long":"126.79620259","imageIndex":9,"items":[{"name":"(주)글로벌한국현대에너지 쌍둥이주유소","tel":"031-000-0000","addr":"경기도 화성시 우정읍 석천리 1-5번지","indutype":"연료판매점 - 쌍용S-OIL","category":"oil"}]},{"lat":"37.050513933","long":"126.79552774","imageIndex":17,"items":[{"name":"GS25화성석천점","tel":"","addr":"경기도 화성시 우정읍 석천리 20-8번지 (1,2층)","indutype":"유통업 영리 - 편 의 점","category":"other"}]},{"lat":"37.054533839","long":"126.79620259","imageIndex":17,"items":[{"name":"명성파레트","tel":"031-358-2652","addr":"경기도 화성시 우정읍 석천리 1-5번지","indutype":"건축자재 - 기타건축자재","category":"other"}]},{"lat":"37.036813052","long":"126.76875826","imageIndex":17,"items":[{"name":"살롱드팽","tel":"","addr":"경기도 화성시 우정읍 석천리 960-40번지 정희빌라 B동 201호","indutype":"의류 - 정장","category":"other"}]},{"lat":"37.050289552","long":"126.79603423","imageIndex":17,"items":[{"name":"세븐일레븐화성석천사거리점","tel":"031-351-8859","addr":"경기도 화성시 우정읍 석천리 20-5번지 1호","indutype":"유통업 영리 - 편 의 점","category":"other"}]},{"lat":"37.055928768","long":"126.78031309","imageIndex":17,"items":[{"name":"세븐일레븐화성석천점","tel":"031-358-3122","addr":"경기도 화성시 우정읍 석천리 461번지 외1필지","indutype":"유통업 영리 - 편 의 점","category":"other"}]},{"lat":"37.055672063","long":"126.7779754","imageIndex":17,"items":[{"name":"씨유화성우정석천점","tel":"080-080-3663","addr":"경기도 화성시 우정읍 석천리 459-2번지 가동","indutype":"유통업 영리 - 편 의 점","category":"other"}]},{"lat":"37.053287241","long":"126.77955634","imageIndex":17,"items":[{"name":"큰성","tel":"031-663-0447","addr":"경기도 화성시 우정읍 석천리 444번지 1층","indutype":"의류 - 내의판매","category":"other"}]},{"lat":"37.045425614","long":"126.78202991","imageIndex":17,"items":[{"name":"한국전통마상무예학교","tel":"031-358-9908","addr":"경기도 화성시 우정읍 석천리 345-1번지","indutype":"문화.취미 - 티켓","category":"other"}]},{"lat":"37.037619269","long":"126.77558961","imageIndex":17,"items":[{"name":"화성목공인테리어","tel":"031-358-1757","addr":"경기도 화성시 우정읍 석천리 983-2번지","indutype":"건축자재 - 인테리어전문","category":"other"}]},{"lat":"37.053925924","long":"126.78875063","imageIndex":17,"items":[{"name":"화성베기장","tel":"","addr":"경기도 화성시 우정읍 석천리 59번지","indutype":"문화.취미 - 문화취미기타","category":"other"}]},{"lat":"37.0421734","long":"126.7775656","imageIndex":4,"items":[{"name":"농장직영식당","tel":"031-358-3030","addr":"경기도 화성시 우정읍 석천리 728번지","indutype":"일반휴게음식 - 일반한식","category":"restaurant"}]},{"lat":"37.036538044","long":"126.77561531","imageIndex":4,"items":[{"name":"돼지꿈꾸던날","tel":"031-358-5009","addr":"경기도 화성시 우정읍 석천리 986-3번지","indutype":"일반휴게음식 - 일반한식","category":"restaurant"}]},{"lat":"37.037681589","long":"126.77519603","imageIndex":4,"items":[{"name":"맛이라면","tel":"031-358-0382","addr":"경기도 화성시 우정읍 석천리 958-2","indutype":"일반휴게음식 - 스넥","category":"restaurant"}]},{"lat":"37.036459061","long":"126.76745555","imageIndex":4,"items":[{"name":"맛집달님네","tel":"031-351-3510","addr":"경기도 화성시 우정읍 석천리 960-37번지","indutype":"일반휴게음식 - 일반한식","category":"restaurant"}]},{"lat":"37.038203727","long":"126.77494719","imageIndex":4,"items":[{"name":"송림정","tel":"031-351-2442","addr":"경기도 화성시 우정읍 석천리 969-11번지","indutype":"일반휴게음식 - 일반한식","category":"restaurant"}]},{"lat":"37.035818976","long":"126.76728893","imageIndex":4,"items":[{"name":"이가네맛집","tel":"031-351-3565","addr":"경기도 화성시 우정읍 석천리 971-21","indutype":"일반휴게음식 - 일반한식","category":"restaurant"}]},{"lat":"37.055672063","long":"126.7779754","imageIndex":4,"items":[{"name":"착한고기","tel":"031-358-6722","addr":"경기도 화성시 우정읍 석천리 459-2번지","indutype":"일반휴게음식 - 일반한식","category":"restaurant"}]},{"lat":"37.050760134","long":"126.7972021","imageIndex":4,"items":[{"name":"춘향골","tel":"031-353-5779","addr":"경기도 화성시 우정읍 석천리 산60-28번지 1층 1호","indutype":"일반휴게음식 - 일반한식","category":"restaurant"}]},{"lat":"37.050289552","long":"126.79603423","imageIndex":4,"items":[{"name":"피아노한식","tel":"031-351-0200","addr":"경기도 화성시 우정읍 석천리 20-5번지 일부 가동 1층","indutype":"일반휴게음식 - 일반한식","category":"restaurant"}]},{"lat":"37.032842782","long":"126.77514304","imageIndex":4,"items":[{"name":"화성시니어클럽노노카페(기아자동차화성공","tel":"031-8059-4348","addr":"경기도 화성시 우정읍 석천리 1039번지","indutype":"일반휴게음식 - 서양음식","category":"restaurant"}]},{"lat":"37.0421734","long":"126.7775656","imageIndex":7,"items":[{"name":"농장축산유통","tel":"031-358-8803","addr":"경기도 화성시 우정읍 석천리 728","indutype":"음료식품 - 정육점","category":"food"}]},{"lat":"37.03953802","long":"126.77067196","imageIndex":7,"items":[{"name":"팔팔유통","tel":"","addr":"경기도 화성시 우정읍 석천리 939-2번지","indutype":"음료식품 - 농·축·수산품","category":"food"}]},{"lat":"37.054899185","long":"126.78881535","imageIndex":16,"items":[{"name":"석천초등학교병설유치원[아이행복]","tel":"031-358-0716","addr":"경기도 화성시 우정읍 석천리 52-3번지 석천초등학교","indutype":"학원 - 유치원","category":"study"}]},{"lat":"37.050038172","long":"126.78644576","imageIndex":16,"items":[{"name":"푸우친구어린이집[아이행복]","tel":"031-358-0915","addr":"경기도 화성시 우정읍 석천리 193-2번지","indutype":"학원 - 유아원","category":"study"},{"name":"푸우친구어린이집[아이행복]","tel":"031-358-0915","addr":"경기도 화성시 우정읍 석천리 193-2","indutype":"학원 - 유아원","category":"study"}]},{"lat":"37.04895593","long":"126.79600412","imageIndex":5,"items":[{"name":"예다원모텔","tel":"031-351-0137","addr":"경기도 화성시 우정읍 석천리 216-3번지","indutype":"숙박업 - 여관/기타숙박업","category":"hotel"}]},{"lat":"37.052235637","long":"126.79591653","imageIndex":0,"items":[{"name":"제이투모터스","tel":"031-9938-3919","addr":"경기도 화성시 우정읍 석천리 32-1번지","indutype":"자동차정비 유지 - 자동차정비","category":"car"}]},{"lat":"37.036847384","long":"126.7678927","imageIndex":7,"items":[{"name":"한아름마트","tel":"031-358-4639","addr":"경기도 화성시 우정읍 석천리 960-36","indutype":"유통업 영리 - 슈퍼마켓","category":"mart"}]}]