[{"lat":"37.38503738","long":"127.4042718","imageIndex":4,"items":[{"name":"강남박생태찌개","tel":"031-763-0092","addr":"경기도 광주시 곤지암읍 건업리 321-1번지 2동 1층","indutype":"일반휴게음식 - 일반한식","category":"restaurant"}]},{"lat":"37.39511427","long":"127.4005198","imageIndex":4,"items":[{"name":"건업리cafe","tel":"070-7721-8299","addr":"경기도 광주시 곤지암읍 건업리 119번지","indutype":"일반휴게음식 - 서양음식","category":"restaurant"}]},{"lat":"37.39072682","long":"127.4135731","imageIndex":4,"items":[{"name":"경기통돼지바베큐","tel":"031-798-5015","addr":"경기도 광주시 곤지암읍 건업리 202-7번지","indutype":"일반휴게음식 - 스넥","category":"restaurant"}]},{"lat":"37.38987249","long":"127.4078772","imageIndex":4,"items":[{"name":"동예집","tel":"031-762-8481","addr":"경기도 광주시 곤지암읍 건업리 247-1번지","indutype":"일반휴게음식 - 일반한식","category":"restaurant"}]},{"lat":"37.38214919","long":"127.4057355","imageIndex":4,"items":[{"name":"뿔난버섯","tel":"","addr":"경기도 광주시 곤지암읍 건업리 431-5번지 1층","indutype":"일반휴게음식 - 일반한식","category":"restaurant"},{"name":"여수수산","tel":"031-761-3651","addr":"경기도 광주시 곤지암읍 건업리 431-5번지","indutype":"일반휴게음식 - 일반한식","category":"restaurant"}]},{"lat":"37.39633621","long":"127.3988549","imageIndex":4,"items":[{"name":"산정가든","tel":"031-763-7550","addr":"경기도 광주시 곤지암읍 건업리 115-1번지","indutype":"일반휴게음식 - 일반한식","category":"restaurant"}]},{"lat":"37.3868989","long":"127.4053206","imageIndex":4,"items":[{"name":"영양쌀밥옥이","tel":"031-763-6538","addr":"경기도 광주시 곤지암읍 건업리 330-8번지 1층","indutype":"일반휴게음식 - 일반한식","category":"restaurant"}]},{"lat":"37.37498019","long":"127.4048504","imageIndex":4,"items":[{"name":"옛날토종순대국","tel":"031-762-9589","addr":"경기도 광주시 곤지암읍 건업리 544-5","indutype":"일반휴게음식 - 일반한식","category":"restaurant"}]},{"lat":"37.37670242","long":"127.4044645","imageIndex":4,"items":[{"name":"용이네","tel":"031-769-1239","addr":"경기도 광주시 곤지암읍 건업리 552번지","indutype":"일반휴게음식 - 일반한식","category":"restaurant"}]},{"lat":"37.37572955","long":"127.4044028","imageIndex":4,"items":[{"name":"우상봉해장국","tel":"031-762-8966","addr":"경기도 광주시 곤지암읍 건업리 556-9번지","indutype":"일반휴게음식 - 일반한식","category":"restaurant"}]},{"lat":"37.38581586","long":"127.4058568","imageIndex":4,"items":[{"name":"이경진 가마솥고기","tel":"031-797-8829","addr":"경기도 광주시 곤지암읍 건업리 347-5번지","indutype":"일반휴게음식 - 일반한식","category":"restaurant"}]},{"lat":"37.38897939","long":"127.4108196","imageIndex":4,"items":[{"name":"전주해장국","tel":"","addr":"경기도 광주시 곤지암읍 건업리 236-1번지","indutype":"일반휴게음식 - 일반한식","category":"restaurant"}]},{"lat":"37.38862163","long":"127.4074301","imageIndex":4,"items":[{"name":"풍도리","tel":"031-767-5333","addr":"경기도 광주시 곤지암읍 건업리 280-4번지","indutype":"일반휴게음식 - 일반한식","category":"restaurant"}]},{"lat":"37.37775566","long":"127.4047411","imageIndex":4,"items":[{"name":"황우","tel":"031-797-9308","addr":"경기도 광주시 곤지암읍 건업리 513-1번지","indutype":"일반휴게음식 - 일반한식","category":"restaurant"}]}]