[{"lat":"37.193969655","long":"127.02250213","imageIndex":4,"items":[{"name":"(주)더큰도시락 한신대임마누엘관","tel":"031-379-0291","addr":"경기도 오산시 양산동 400번지 한신대학교 1층 임마누엘관","indutype":"일반휴게음식 - 위탁급식업","category":"restaurant"},{"name":"더큰도시락한신대60주년기념관","tel":"031-379-0289","addr":"경기도 오산시 양산동 400번지 한신대학교 20동 1층 60주년기념관","indutype":"일반휴게음식 - 위탁급식업","category":"restaurant"},{"name":"지수(주)카페아지트365한신대2호점","tel":"031-572-0304","addr":"경기도 오산시 양산동 400번지 3층","indutype":"일반휴게음식 - 서양음식","category":"restaurant"},{"name":"지수(주)카페아지트365한신대점","tel":"02-572-0304","addr":"경기도 오산시 양산동 400번지 한신대학교","indutype":"일반휴게음식 - 서양음식","category":"restaurant"}]},{"lat":"37.196077419","long":"127.02619704","imageIndex":4,"items":[{"name":"가미원","tel":"031-377-1187","addr":"경기도 오산시 양산동 358-1번지","indutype":"일반휴게음식 - 일반한식","category":"restaurant"}]},{"lat":"37.193579318","long":"127.03558956","imageIndex":4,"items":[{"name":"강씨가문의 족발","tel":"031-377-1152","addr":"경기도 오산시 양산동 673-4번지 1층","indutype":"일반휴게음식 - 일반한식","category":"restaurant"}]},{"lat":"37.181690002","long":"127.00739771","imageIndex":4,"items":[{"name":"거성식당","tel":"031-372-4368","addr":"경기도 오산시 양산동 611번지","indutype":"일반휴게음식 - 일반한식","category":"restaurant"}]},{"lat":"37.194690326","long":"127.02344841","imageIndex":4,"items":[{"name":"고(GO)치불치킨","tel":"031-377-4210","addr":"경기도 오산시 양산동 399번지 2층","indutype":"일반휴게음식 - 스넥","category":"restaurant"},{"name":"여기서먹자","tel":"031-372-6117","addr":"경기도 오산시 양산동 399번지 1층 2호","indutype":"일반휴게음식 - 일반한식","category":"restaurant"},{"name":"찌게동아리","tel":"031-372-7900","addr":"경기도 오산시 양산동 399번지","indutype":"일반휴게음식 - 일반한식","category":"restaurant"}]},{"lat":"37.196104547","long":"127.02570146","imageIndex":4,"items":[{"name":"고궁","tel":"031-372-0238","addr":"경기도 오산시 양산동 358-2번지","indutype":"일반휴게음식 - 일반한식","category":"restaurant"}]},{"lat":"37.195472976","long":"127.02972224","imageIndex":4,"items":[{"name":"고기 굽는날","tel":"","addr":"경기도 오산시 양산동 669-3번지 1층","indutype":"일반휴게음식 - 일반한식","category":"restaurant"}]},{"lat":"37.192832336","long":"127.03222165","imageIndex":4,"items":[{"name":"구름에달가듯이","tel":"031-372-2110","addr":"경기도 오산시 양산동 84-5번지 1층","indutype":"일반휴게음식 - 일반한식","category":"restaurant"}]},{"lat":"37.194690287","long":"127.02367368","imageIndex":4,"items":[{"name":"굿후렌드","tel":"00-0000-0000","addr":"경기도 오산시 양산동 398-3번지 청명빌 101호","indutype":"일반휴게음식 - 스넥","category":"restaurant"},{"name":"소문난부대찌개","tel":"031-375-4777","addr":"경기도 오산시 양산동 398-3번지","indutype":"일반휴게음식 - 일반한식","category":"restaurant"}]},{"lat":"37.192939527","long":"127.03578075","imageIndex":4,"items":[{"name":"그래요","tel":"070-7722-4609","addr":"경기도 오산시 양산동 674-1번지 1층","indutype":"일반휴게음식 - 서양음식","category":"restaurant"}]},{"lat":"37.196888867","long":"127.02342648","imageIndex":4,"items":[{"name":"깐돌이네","tel":"031-305-1707","addr":"경기도 오산시 양산동 376-2번지 101호","indutype":"일반휴게음식 - 일반한식","category":"restaurant"},{"name":"커피더테이블","tel":"070-7760-1382","addr":"경기도 오산시 양산동 376-2번지","indutype":"일반휴게음식 - 서양음식","category":"restaurant"}]},{"lat":"37.195825519","long":"127.02411325","imageIndex":4,"items":[{"name":"꼬꼬마루","tel":"","addr":"경기도 오산시 양산동 378-5번지","indutype":"일반휴게음식 - 스넥","category":"restaurant"}]},{"lat":"37.195744563","long":"127.02333607","imageIndex":4,"items":[{"name":"꼽발딛고파닭앤날마다좋은술","tel":"031-377-8290","addr":"경기도 오산시 양산동 382-1번지 2층","indutype":"일반휴게음식 - 일반한식","category":"restaurant"},{"name":"청반점","tel":"031-377-9270","addr":"경기도 오산시 양산동 382-1번지 경원빌딩 1층","indutype":"일반휴게음식 - 중국식","category":"restaurant"}]},{"lat":"37.195636503","long":"127.02295309","imageIndex":4,"items":[{"name":"나누리","tel":"031-372-2036","addr":"경기도 오산시 양산동 440번지","indutype":"일반휴게음식 - 서양음식","category":"restaurant"},{"name":"봉구스밥버거 한신대점","tel":"031-375-6799","addr":"경기도 오산시 양산동 440번지 1층","indutype":"일반휴게음식 - 스넥","category":"restaurant"}]},{"lat":"37.196023806","long":"127.02378667","imageIndex":4,"items":[{"name":"남원순대국","tel":"031-8043-8330","addr":"경기도 오산시 양산동 378-1번지","indutype":"일반휴게음식 - 일반한식","category":"restaurant"},{"name":"이모네","tel":"031-372-4339","addr":"경기도 오산시 양산동 378-1번지","indutype":"일반휴게음식 - 일반한식","category":"restaurant"}]},{"lat":"37.196077932","long":"127.02342626","imageIndex":4,"items":[{"name":"내가찜한닭","tel":"031-372-2356","addr":"경기도 오산시 양산동 379-1번지","indutype":"일반휴게음식 - 일반한식","category":"restaurant"},{"name":"아벡데프리츠","tel":"070-4042-1132","addr":"경기도 오산시 양산동 379-1번지 대성빌딩 1층 102호","indutype":"일반휴게음식 - 주점","category":"restaurant"},{"name":"정감포차","tel":"02-1111-1111","addr":"경기도 오산시 양산동 379-1번지 대성빌딩 1층 105호","indutype":"일반휴게음식 - 일반한식","category":"restaurant"}]},{"lat":"37.193022477","long":"127.02822341","imageIndex":4,"items":[{"name":"느림","tel":"031-378-6889","addr":"경기도 오산시 양산동 266번지 1층","indutype":"일반휴게음식 - 일반한식","category":"restaurant"}]},{"lat":"37.194798546","long":"127.02289655","imageIndex":4,"items":[{"name":"달보드레","tel":"031-378-8993","addr":"경기도 오산시 양산동 434번지 1층","indutype":"일반휴게음식 - 일반한식","category":"restaurant"},{"name":"코바김밥","tel":"031-372-2376","addr":"경기도 오산시 양산동 434번지 1층 코바즉석김밥","indutype":"일반휴게음식 - 스넥","category":"restaurant"}]},{"lat":"37.190191619","long":"127.03481099","imageIndex":4,"items":[{"name":"닭이닭숯불닭갈비","tel":"","addr":"경기도 오산시 양산동 79-1번지 1층","indutype":"일반휴게음식 - 일반한식","category":"restaurant"},{"name":"센시빌리티","tel":"031-376-3370","addr":"경기도 오산시 양산동 79-1번지 2층","indutype":"일반휴게음식 - 서양음식","category":"restaurant"}]},{"lat":"37.195364749","long":"127.03017273","imageIndex":4,"items":[{"name":"더레드커피(theRed coffee)","tel":"031-377-5775","addr":"경기도 오산시 양산동 669-5번지 105호","indutype":"일반휴게음식 - 서양음식","category":"restaurant"},{"name":"엠키친(M KITCHEN)","tel":"031-373-3133","addr":"경기도 오산시 양산동 669-5번지 엠스퀘어빌딩 1층 107호","indutype":"일반휴게음식 - 일반한식","category":"restaurant"}]},{"lat":"37.195798686","long":"127.02297566","imageIndex":4,"items":[{"name":"더좋은식당","tel":"031-373-7555","addr":"경기도 오산시 양산동 441번지 1층","indutype":"일반휴게음식 - 일반한식","category":"restaurant"}]},{"lat":"37.195744529","long":"127.02352754","imageIndex":4,"items":[{"name":"도담치킨 한신대점","tel":"031-373-6408","addr":"경기도 오산시 양산동 382-7번지 101호","indutype":"일반휴게음식 - 스넥","category":"restaurant"}]},{"lat":"37.195158948","long":"127.02297549","imageIndex":4,"items":[{"name":"도스마스(한신대점)","tel":"031-8043-3644","addr":"경기도 오산시 양산동 437번지","indutype":"일반휴게음식 - 일반한식","category":"restaurant"},{"name":"이삭","tel":"031-372-3751","addr":"경기도 오산시 양산동 437번지","indutype":"일반휴게음식 - 일반한식","category":"restaurant"}]},{"lat":"37.196330451","long":"127.02206347","imageIndex":4,"items":[{"name":"몽블랑 루핑","tel":"031-376-5418","addr":"경기도 오산시 양산동 447-5번지","indutype":"일반휴게음식 - 일반한식","category":"restaurant"}]},{"lat":"37.195825554","long":"127.02392178","imageIndex":4,"items":[{"name":"몽상","tel":"","addr":"경기도 오산시 양산동 378-4번지","indutype":"일반휴게음식 - 일반한식","category":"restaurant"}]},{"lat":"37.196132062","long":"127.02303206","imageIndex":4,"items":[{"name":"미가한식뷔페","tel":"031-377-0301","addr":"경기도 오산시 양산동 379-5번지 1층 2,3,4호","indutype":"일반휴게음식 - 일반한식","category":"restaurant"},{"name":"해뜨는집","tel":"031-378-7825","addr":"경기도 오산시 양산동 379-5번지 1층 전체","indutype":"일반휴게음식 - 일반한식","category":"restaurant"}]},{"lat":"37.19513185","long":"127.02336969","imageIndex":4,"items":[{"name":"미리내분식","tel":"031-378-0257","addr":"경기도 오산시 양산동 386번지 1층","indutype":"일반휴게음식 - 스넥","category":"restaurant"}]},{"lat":"37.193110725","long":"127.03578083","imageIndex":4,"items":[{"name":"미스터코다리","tel":"","addr":"경기도 오산시 양산동 673-8번지 1층","indutype":"일반휴게음식 - 일반한식","category":"restaurant"}]},{"lat":"37.195663463","long":"127.02336983","imageIndex":4,"items":[{"name":"배꼽","tel":"031-372-6544","addr":"경기도 오산시 양산동 382-8번지","indutype":"일반휴게음식 - 스넥","category":"restaurant"}]},{"lat":"37.193606857","long":"127.0336974","imageIndex":4,"items":[{"name":"봉바우봉평막국수","tel":"","addr":"경기도 오산시 양산동 672-1번지 1층","indutype":"일반휴게음식 - 일반한식","category":"restaurant"}]},{"lat":"37.191660149","long":"127.03541979","imageIndex":4,"items":[{"name":"브런치그램","tel":"031-377-3408","addr":"경기도 오산시 양산동 671-19번지 1층","indutype":"일반휴게음식 - 서양음식","category":"restaurant"}]},{"lat":"37.191579034","long":"127.0354986","imageIndex":4,"items":[{"name":"산짬뽕","tel":"031-374-6242","addr":"경기도 오산시 양산동 671-20번지","indutype":"일반휴게음식 - 중국식","category":"restaurant"}]},{"lat":"37.184996684","long":"127.01022459","imageIndex":4,"items":[{"name":"세마쌈밥앤드커피","tel":"031-375-2266","addr":"경기도 오산시 양산동 546번지","indutype":"일반휴게음식 - 일반한식","category":"restaurant"},{"name":"솔마루숯불갈비","tel":"","addr":"경기도 오산시 양산동 546번지 1층","indutype":"일반휴게음식 - 일반한식","category":"restaurant"}]},{"lat":"37.186528331","long":"127.01200412","imageIndex":4,"items":[{"name":"세마오리농원","tel":"031-375-5299","addr":"경기도 오산시 양산동 539번지","indutype":"일반휴게음식 - 일반한식","category":"restaurant"}]},{"lat":"37.193606658","long":"127.03445202","imageIndex":4,"items":[{"name":"소반","tel":"031-377-4095","addr":"경기도 오산시 양산동 672-6번지 101,102호","indutype":"일반휴게음식 - 일반한식","category":"restaurant"}]},{"lat":"37.19635726","long":"127.02339255","imageIndex":4,"items":[{"name":"신할매콩나물국밥","tel":"031-377-2990","addr":"경기도 오산시 양산동 377-5번지 1층","indutype":"일반휴게음식 - 일반한식","category":"restaurant"},{"name":"전설의치킨 한신대점","tel":"031-376-0585","addr":"경기도 오산시 양산동 377-5번지 중앙메티칼의원 1층 102호","indutype":"일반휴게음식 - 스넥","category":"restaurant"}]},{"lat":"37.193219401","long":"127.03373103","imageIndex":4,"items":[{"name":"싱글오커피","tel":"031-373-6600","addr":"경기도 오산시 양산동 671-5번지 1층 일부","indutype":"일반휴게음식 - 서양음식","category":"restaurant"}]},{"lat":"37.181302587","long":"127.00642924","imageIndex":4,"items":[{"name":"알로하","tel":"031-376-1118","addr":"경기도 오산시 양산동 609-3번지 1층","indutype":"일반휴게음식 - 서양음식","category":"restaurant"}]},{"lat":"37.196744648","long":"127.02373056","imageIndex":4,"items":[{"name":"양산골주막","tel":"031-377-7371","addr":"경기도 오산시 양산동 375번지","indutype":"일반휴게음식 - 일반한식","category":"restaurant"},{"name":"진영빌딩(토담골)","tel":"031-373-7555","addr":"경기도 오산시 양산동 375번지","indutype":"일반휴게음식 - 일반한식","category":"restaurant"}]},{"lat":"37.193579417","long":"127.03522915","imageIndex":4,"items":[{"name":"에델바움","tel":"031-375-5436","addr":"경기도 오산시 양산동 673-2번지 1층","indutype":"일반휴게음식 - 스넥","category":"restaurant"}]},{"lat":"37.195492262","long":"127.02339231","imageIndex":4,"items":[{"name":"요거프레소 한신대점","tel":"031-373-7147","addr":"경기도 오산시 양산동 382-3번지 1층","indutype":"일반휴게음식 - 서양음식","category":"restaurant"}]},{"lat":"37.1946364","long":"127.02264872","imageIndex":4,"items":[{"name":"우리반점","tel":"031-372-7551","addr":"경기도 오산시 양산동 420번지","indutype":"일반휴게음식 - 중국식","category":"restaurant"}]},{"lat":"37.193606613","long":"127.03462096","imageIndex":4,"items":[{"name":"육칠이-칠 (672-7)","tel":"031-377-4253","addr":"경기도 오산시 양산동 672-7번지 1층","indutype":"일반휴게음식 - 일반한식","category":"restaurant"}]},{"lat":"37.193606504","long":"127.03502643","imageIndex":4,"items":[{"name":"정다운닭발","tel":"031-372-1060","addr":"경기도 오산시 양산동 673-1번지 103호","indutype":"일반휴게음식 - 일반한식","category":"restaurant"}]},{"lat":"37.194501131","long":"127.0233132","imageIndex":4,"items":[{"name":"제일식당","tel":"031-372-9412","addr":"경기도 오산시 양산동 398-6번지","indutype":"일반휴게음식 - 일반한식","category":"restaurant"},{"name":"해우리","tel":"070-8232-2031","addr":"경기도 오산시 양산동 398-6번지","indutype":"일반휴게음식 - 주점","category":"restaurant"}]},{"lat":"37.195771762","long":"127.02233364","imageIndex":4,"items":[{"name":"진현가든","tel":"031-372-9971","addr":"경기도 오산시 양산동 444-1번지","indutype":"일반휴게음식 - 일반한식","category":"restaurant"}]},{"lat":"37.193579371","long":"127.03539809","imageIndex":4,"items":[{"name":"처갓집양념치킨 세마점","tel":"031-373-9212","addr":"경기도 오산시 양산동 673-3번지 상가동 102호","indutype":"일반휴게음식 - 스넥","category":"restaurant"}]},{"lat":"37.195834428","long":"127.02467642","imageIndex":4,"items":[{"name":"치어스오산한신대점","tel":"031-375-3303","addr":"경기도 오산시 양산동 307-2번지 1층","indutype":"일반휴게음식 - 주점","category":"restaurant"}]},{"lat":"37.194383708","long":"127.02492379","imageIndex":4,"items":[{"name":"한신식당","tel":"031-372-3727","addr":"경기도 오산시 양산동 294-26번지","indutype":"일반휴게음식 - 일반한식","category":"restaurant"}]},{"lat":"37.193743175","long":"127.02884312","imageIndex":4,"items":[{"name":"행복한콩박사","tel":"031-372-1232","addr":"경기도 오산시 양산동 259-1번지 1층","indutype":"일반휴게음식 - 일반한식","category":"restaurant"}]},{"lat":"37.196131787","long":"127.0245864","imageIndex":4,"items":[{"name":"홍스커피","tel":"031-373-6096","addr":"경기도 오산시 양산동 362-2번지 1층 ,102,103호","indutype":"일반휴게음식 - 서양음식","category":"restaurant"}]},{"lat":"37.193606571","long":"127.03477864","imageIndex":4,"items":[{"name":"효림돈가스&덮밥","tel":"031-377-2166","addr":"경기도 오산시 양산동 672-8번지 103호","indutype":"일반휴게음식 - 스넥","category":"restaurant"}]},{"lat":"37.195355795","long":"127.02992494","imageIndex":4,"items":[{"name":"훌랄라치킨(양산점)","tel":"031-376-9582","addr":"경기도 오산시 양산동 669-4번지 1층","indutype":"일반휴게음식 - 스넥","category":"restaurant"}]}]