[{"lat":"37.402188865","long":"126.91045117","imageIndex":13,"items":[{"name":"9뷰티","tel":"031-449-0999","addr":"경기도 안양시 만안구 박달동 68-146번지","indutype":"보건위생 - 피부미용실","category":"beauty"},{"name":"구네일샵","tel":"031-449-0999","addr":"경기도 안양시 만안구 박달동 68-146번지","indutype":"보건위생 - 피부미용실","category":"beauty"}]},{"lat":"37.401999698","long":"126.91050787","imageIndex":13,"items":[{"name":"EYE-Q","tel":"031-468-2080","addr":"경기도 안양시 만안구 박달동 68-57번지","indutype":"보건위생 - 안경","category":"beauty"}]},{"lat":"37.405938374","long":"126.91215206","imageIndex":13,"items":[{"name":"e(이)남자","tel":"031-464-9922","addr":"경기도 안양시 만안구 박달동 55-21번지","indutype":"보건위생 - 미용원","category":"beauty"},{"name":"월드화장품","tel":"031-466-3320","addr":"경기도 안양시 만안구 박달동 55-21번지","indutype":"보건위생 - 화장품","category":"beauty"}]},{"lat":"37.405161976","long":"126.91017645","imageIndex":13,"items":[{"name":"가위씨랑비씨랑","tel":"031-444-5573","addr":"경기도 안양시 만안구 박달동 56-24번지","indutype":"보건위생 - 미용원","category":"beauty"}]},{"lat":"37.402639086","long":"126.9100892","imageIndex":13,"items":[{"name":"궁헤어","tel":"031-469-5552","addr":"경기도 안양시 만안구 박달동 18-10번지","indutype":"보건위생 - 미용원","category":"beauty"}]},{"lat":"37.403693113","long":"126.9098959","imageIndex":13,"items":[{"name":"그녀는예뻤다","tel":"031-445-8866","addr":"경기도 안양시 만안구 박달동 20-15번지","indutype":"보건위생 - 미용원","category":"beauty"}]},{"lat":"37.405610985","long":"126.9082897","imageIndex":13,"items":[{"name":"김은미헤이필","tel":"031-443-4900","addr":"경기도 안양시 만안구 박달동 14-4번지","indutype":"보건위생 - 미용원","category":"beauty"}]},{"lat":"37.401382794","long":"126.90525694","imageIndex":13,"items":[{"name":"깍쟁이헤어샵","tel":"031-466-4759","addr":"경기도 안양시 만안구 박달동 139-26번지","indutype":"보건위생 - 미용원","category":"beauty"}]},{"lat":"37.402664982","long":"126.90865481","imageIndex":13,"items":[{"name":"꾼헤어","tel":"031-466-0735","addr":"경기도 안양시 만안구 박달동 86-10번지","indutype":"보건위생 - 미용원","category":"beauty"}]},{"lat":"37.40152227","long":"126.91064399","imageIndex":13,"items":[{"name":"나나헤어","tel":"031-464-1496","addr":"경기도 안양시 만안구 박달동 94-95번지","indutype":"보건위생 - 미용원","category":"beauty"}]},{"lat":"37.400913699","long":"126.90456862","imageIndex":13,"items":[{"name":"단미화장품","tel":"031-443-6404","addr":"경기도 안양시 만안구 박달동 139-3번지","indutype":"보건위생 - 화장품","category":"beauty"}]},{"lat":"37.402360733","long":"126.91132061","imageIndex":13,"items":[{"name":"단발머리","tel":"031-442-8894","addr":"경기도 안양시 만안구 박달동 68-29번지","indutype":"보건위생 - 미용원","category":"beauty"},{"name":"올스본코리아","tel":"031-469-7002","addr":"경기도 안양시 만안구 박달동 68-29번지","indutype":"보건위생 - 의료용품","category":"beauty"}]},{"lat":"37.405577284","long":"126.91126022","imageIndex":13,"items":[{"name":"달팽이뷰티","tel":"","addr":"경기도 안양시 만안구 박달동 55-29번지","indutype":"보건위생 - 화장품","category":"beauty"},{"name":"카라헤어","tel":"031-449-9764","addr":"경기도 안양시 만안구 박달동 55-29번지","indutype":"보건위생 - 미용원","category":"beauty"}]},{"lat":"37.402022536","long":"126.90528999","imageIndex":13,"items":[{"name":"대원스파","tel":"031-464-4800","addr":"경기도 안양시 만안구 박달동 137-5번지","indutype":"보건위생 - 사우나","category":"beauty"},{"name":"미앤미","tel":"031-446-3479","addr":"경기도 안양시 만안구 박달동 137-5번지","indutype":"보건위생 - 화장품","category":"beauty"}]},{"lat":"37.402718907","long":"126.90848533","imageIndex":13,"items":[{"name":"더봄안경원","tel":"031-441-5007","addr":"경기도 안양시 만안구 박달동 100-2번지 동화팰리스","indutype":"보건위생 - 안경","category":"beauty"},{"name":"아임네일","tel":"","addr":"경기도 안양시 만안구 박달동 100-2번지 동화팰리스","indutype":"보건위생 - 피부미용실","category":"beauty"}]},{"lat":"37.40474646","long":"126.90884421","imageIndex":13,"items":[{"name":"데아헤어","tel":"031-444-1320","addr":"경기도 안양시 만안구 박달동 15-4번지","indutype":"보건위생 - 미용원","category":"beauty"}]},{"lat":"37.403973035","long":"126.91067487","imageIndex":13,"items":[{"name":"동안스킨케어","tel":"031-441-0141","addr":"경기도 안양시 만안구 박달동 61-43번지","indutype":"보건위생 - 화장품","category":"beauty"}]},{"lat":"37.404133108","long":"126.9080092","imageIndex":13,"items":[{"name":"라온헤어","tel":"031-383-0070","addr":"경기도 안양시 만안구 박달동 45-18번지","indutype":"보건위생 - 미용원","category":"beauty"}]},{"lat":"37.402361091","long":"126.91178366","imageIndex":13,"items":[{"name":"라파엘온가족건강운동교실","tel":"031-448-0448","addr":"경기도 안양시 만안구 박달동 68-35번지","indutype":"보건위생 - 기타대인서비스","category":"beauty"}]},{"lat":"37.399695871","long":"126.90281969","imageIndex":13,"items":[{"name":"러블리헤어","tel":"031-465-6955","addr":"경기도 안양시 만안구 박달동 139-202번지","indutype":"보건위생 - 미용원","category":"beauty"},{"name":"정스킨케어","tel":"031-469-8253","addr":"경기도 안양시 만안구 박달동","indutype":"보건위생 - 화장품","category":"beauty"}]},{"lat":"37.398522315","long":"126.90020115","imageIndex":13,"items":[{"name":"레이헤어","tel":"031-469-7073","addr":"경기도 안양시 만안구 박달동 149-12번지 다청림카운티","indutype":"보건위생 - 미용원","category":"beauty"}]},{"lat":"37.399683985","long":"126.89947676","imageIndex":13,"items":[{"name":"렌느제이","tel":"","addr":"경기도 안양시 만안구 박달동 150번지 브라운스톤하나마을","indutype":"보건위생 - 화장품","category":"beauty"}]},{"lat":"37.401914853","long":"126.90582095","imageIndex":13,"items":[{"name":"로더헤어 (hair by L'odeur)","tel":"031-444-0100","addr":"경기도 안양시 만안구 박달동 139-9번지","indutype":"보건위생 - 미용원","category":"beauty"}]},{"lat":"37.405584333","long":"126.9087641","imageIndex":13,"items":[{"name":"로제코스메틱","tel":"031-465-3013","addr":"경기도 안양시 만안구 박달동 22-1번지","indutype":"보건위생 - 화장품","category":"beauty"}]},{"lat":"37.40075133","long":"126.90434295","imageIndex":13,"items":[{"name":"르네상스헤어샵","tel":"031-446-3187","addr":"경기도 안양시 만안구 박달동 139-5번지","indutype":"보건위생 - 미용원","category":"beauty"}]},{"lat":"37.404304163","long":"126.90783957","imageIndex":13,"items":[{"name":"머리못하는집","tel":"031-443-9002","addr":"경기도 안양시 만안구 박달동 45-9번지","indutype":"보건위생 - 미용원","category":"beauty"}]},{"lat":"37.404721415","long":"126.9113742","imageIndex":13,"items":[{"name":"머리하는집","tel":"031-441-4505","addr":"경기도 안양시 만안구 박달동 60-14번지","indutype":"보건위생 - 미용원","category":"beauty"}]},{"lat":"37.405467265","long":"126.90884331","imageIndex":13,"items":[{"name":"머슴아컷","tel":"031-471-9978","addr":"경기도 안양시 만안구 박달동 22-37번지","indutype":"보건위생 - 미용원","category":"beauty"}]},{"lat":"37.40330281","long":"126.90631611","imageIndex":13,"items":[{"name":"메디콜","tel":"031-466-4077","addr":"경기도 안양시 만안구 박달동","indutype":"보건위생 - 의료용품","category":"beauty"},{"name":"스마일네일","tel":"031-465-7701","addr":"경기도 안양시 만안구 박달동 107번지","indutype":"보건위생 - 피부미용실","category":"beauty"},{"name":"정헤어센스미용실","tel":"031-466-2644","addr":"경기도 안양시 만안구 박달동 107번지","indutype":"보건위생 - 미용원","category":"beauty"},{"name":"한성메디칼","tel":"02-867-9950","addr":"경기도 안양시 만안구 박달동","indutype":"보건위생 - 의료용품","category":"beauty"}]},{"lat":"37.402331275","long":"126.90823735","imageIndex":13,"items":[{"name":"미세계","tel":"031-446-5157","addr":"경기도 안양시 만안구 박달동 85-5번지","indutype":"보건위생 - 화장품","category":"beauty"}]},{"lat":"37.402609778","long":"126.90723182","imageIndex":13,"items":[{"name":"미소덴탈","tel":"031-349-2825","addr":"경기도 안양시 만안구 박달동 99-33번지","indutype":"보건위생 - 의료용품","category":"beauty"}]},{"lat":"37.400384828","long":"126.90790098","imageIndex":13,"items":[{"name":"미소에스헤어샵","tel":"031-796-2554","addr":"경기도 안양시 만안구 박달동 85번지","indutype":"보건위생 - 미용원","category":"beauty"},{"name":"이현옥헤어아트","tel":"031-447-4211","addr":"경기도 안양시 만안구 박달동 85번지","indutype":"보건위생 - 미용원","category":"beauty"}]},{"lat":"37.401331356","long":"126.90848708","imageIndex":13,"items":[{"name":"미스터박헤어모델","tel":"031-445-1243","addr":"경기도 안양시 만안구 박달동","indutype":"보건위생 - 미용원","category":"beauty"}]},{"lat":"37.405748062","long":"126.91072916","imageIndex":13,"items":[{"name":"바닐라","tel":"031-441-4788","addr":"경기도 안양시 만안구 박달동 56-17번지","indutype":"보건위생 - 미용원","category":"beauty"}]},{"lat":"37.404800825","long":"126.90922816","imageIndex":13,"items":[{"name":"박달남대문안경","tel":"031-446-6628","addr":"경기도 안양시 만안구 박달동 22-17번지","indutype":"보건위생 - 안경","category":"beauty"}]},{"lat":"37.402693904","long":"126.91106043","imageIndex":13,"items":[{"name":"박달미용재료","tel":"031-341-2500","addr":"경기도 안양시 만안구 박달동 74-2번지","indutype":"보건위생 - 미용재료","category":"beauty"},{"name":"이(e)-홍주헤어박스","tel":"","addr":"경기도 안양시 만안구 박달동 74-2번지","indutype":"보건위생 - 미용원","category":"beauty"}]},{"lat":"37.403667385","long":"126.91156749","imageIndex":13,"items":[{"name":"박은실 철학관","tel":"","addr":"경기도 안양시 만안구 박달동 65-4번지","indutype":"보건위생 - 기타대인서비스","category":"beauty"}]},{"lat":"37.405216706","long":"126.91103477","imageIndex":13,"items":[{"name":"보브헤어샵","tel":"031-466-0577","addr":"경기도 안양시 만안구 박달동 57-9번지","indutype":"보건위생 - 미용원","category":"beauty"}]},{"lat":"37.402215626","long":"126.8992587","imageIndex":13,"items":[{"name":"브이아이피 헤어디자인","tel":"031-444-4432","addr":"경기도 안양시 만안구 박달동 158-1번지","indutype":"보건위생 - 미용원","category":"beauty"}]},{"lat":"37.402694123","long":"126.91134279","imageIndex":13,"items":[{"name":"블루클럽","tel":"031-448-4422","addr":"경기도 안양시 만안구 박달동 74-7번지","indutype":"보건위생 - 미용원","category":"beauty"}]},{"lat":"37.401385915","long":"126.89836762","imageIndex":13,"items":[{"name":"샵(#)꿈터","tel":"031-441-8245","addr":"경기도 안양시 만안구 박달동 606-2번지","indutype":"보건위생 - 피부미용실","category":"beauty"}]},{"lat":"37.404222918","long":"126.90764766","imageIndex":13,"items":[{"name":"샵히니","tel":"070-8200-8924","addr":"경기도 안양시 만안구 박달동 45-8번지","indutype":"보건위생 - 피부미용실","category":"beauty"}]},{"lat":"37.402694958","long":"126.91242703","imageIndex":13,"items":[{"name":"선녀보살","tel":"","addr":"경기도 안양시 만안구 박달동 74-16번지","indutype":"보건위생 - 기타대인서비스","category":"beauty"}]},{"lat":"37.401553686","long":"126.90489531","imageIndex":13,"items":[{"name":"성도 안경원","tel":"031-445-5586","addr":"경기도 안양시 만안구 박달동 138-13번지","indutype":"보건위생 - 안경","category":"beauty"}]},{"lat":"37.403964909","long":"126.9118156","imageIndex":13,"items":[{"name":"세나헤어뷰","tel":"031-442-7709","addr":"경기도 안양시 만안구 박달동 64-10번지","indutype":"보건위생 - 미용원","category":"beauty"}]},{"lat":"37.401689322","long":"126.90548242","imageIndex":13,"items":[{"name":"센스미용실","tel":"031-446-8757","addr":"경기도 안양시 만안구 박달동 139-96번지","indutype":"보건위생 - 미용원","category":"beauty"}]},{"lat":"37.4020503","long":"126.90618219","imageIndex":13,"items":[{"name":"소라헤어짱","tel":"031-442-1252","addr":"경기도 안양시 만안구 박달동 139-18번지","indutype":"보건위생 - 미용원","category":"beauty"}]},{"lat":"37.403885471","long":"126.89259274","imageIndex":13,"items":[{"name":"숙헤어","tel":"031-464-9597","addr":"경기도 안양시 만안구 박달동 616-9번지","indutype":"보건위생 - 미용원","category":"beauty"}]},{"lat":"37.402693694","long":"126.91078937","imageIndex":13,"items":[{"name":"스마트안경원","tel":"031-448-3005","addr":"경기도 안양시 만안구 박달동 19-9번지","indutype":"보건위생 - 안경","category":"beauty"}]},{"lat":"37.403942183","long":"126.9058974","imageIndex":13,"items":[{"name":"스킨테라피","tel":"031-473-8471","addr":"경기도 안양시 만안구 박달동 108-7번지","indutype":"보건위생 - 피부미용실","category":"beauty"}]},{"lat":"37.402913445","long":"126.90397871","imageIndex":13,"items":[{"name":"신서정헤어샵","tel":"","addr":"경기도 안양시 만안구 박달동 939번지 한양수자인에듀파크","indutype":"보건위생 - 미용원","category":"beauty"}]},{"lat":"37.401911254","long":"126.91265385","imageIndex":13,"items":[{"name":"신성이발","tel":"031-444-5103","addr":"경기도 안양시 만안구 박달동 68-101번지","indutype":"보건위생 - 이용원","category":"beauty"}]},{"lat":"37.400828422","long":"126.89965589","imageIndex":13,"items":[{"name":"신안헤어샵","tel":"031-444-5840","addr":"경기도 안양시 만안구 박달동 152번지","indutype":"보건위생 - 미용원","category":"beauty"}]},{"lat":"37.401247465","long":"126.90504253","imageIndex":13,"items":[{"name":"써니네일","tel":"031-466-5501","addr":"경기도 안양시 만안구 박달동 138-4번지","indutype":"보건위생 - 화장품","category":"beauty"}]},{"lat":"37.401939874","long":"126.90340399","imageIndex":13,"items":[{"name":"쏭헤어","tel":"","addr":"경기도 안양시 만안구 박달동 128-5번지","indutype":"보건위생 - 미용원","category":"beauty"}]},{"lat":"37.4061893","long":"126.91040108","imageIndex":13,"items":[{"name":"아이비젼","tel":"031-471-7792","addr":"경기도 안양시 만안구 박달동 52-15번지","indutype":"보건위생 - 기타대인서비스","category":"beauty"}]},{"lat":"37.402026143","long":"126.90976243","imageIndex":13,"items":[{"name":"안양벤코리아","tel":"070-6853-1708","addr":"경기도 안양시 만안구 박달동 68-50번지 진명빌라","indutype":"보건위생 - 기타대인서비스","category":"beauty"}]},{"lat":"37.402694018","long":"126.91120726","imageIndex":13,"items":[{"name":"엄지공주","tel":"031-464-6789","addr":"경기도 안양시 만안구 박달동 74-5번지","indutype":"보건위생 - 화장품","category":"beauty"}]},{"lat":"37.402131842","long":"126.90673549","imageIndex":13,"items":[{"name":"에바코리아","tel":"070-7522-2900","addr":"경기도 안양시 만안구 박달동 94-143번지","indutype":"보건위생 - 미용재료","category":"beauty"}]},{"lat":"37.402331139","long":"126.90806794","imageIndex":13,"items":[{"name":"엔쓰리헤어살롱","tel":"031-340-3774","addr":"경기도 안양시 만안구 박달동 85-1번지","indutype":"보건위생 - 미용원","category":"beauty"}]},{"lat":"37.401773427","long":"126.89845743","imageIndex":13,"items":[{"name":"엣지헤어샵","tel":"031-444-6788","addr":"경기도 안양시 만안구 박달동","indutype":"보건위생 - 미용원","category":"beauty"}]},{"lat":"37.405188106","long":"126.90903567","imageIndex":13,"items":[{"name":"여왕","tel":"02-1577-0000","addr":"경기도 안양시 만안구 박달동 22-7번지","indutype":"보건위생 - 화장품","category":"beauty"}]},{"lat":"37.402498327","long":"126.90319996","imageIndex":13,"items":[{"name":"여우와늑대","tel":"031-464-0354","addr":"경기도 안양시 만안구 박달동 114-6번지","indutype":"보건위생 - 미용원","category":"beauty"},{"name":"윤스빨강머리","tel":"031-464-0467","addr":"경기도 안양시 만안구 박달동 114-6번지","indutype":"보건위생 - 미용원","category":"beauty"}]},{"lat":"37.404665898","long":"126.90951069","imageIndex":13,"items":[{"name":"예린","tel":"031-464-8865","addr":"경기도 안양시 만안구 박달동 21-2번지","indutype":"보건위생 - 화장품","category":"beauty"}]},{"lat":"37.402361438","long":"126.91223543","imageIndex":13,"items":[{"name":"예뻐지는멀티샵케이","tel":"070-8680-2710","addr":"경기도 안양시 만안구 박달동 68-41번지","indutype":"보건위생 - 피부미용실","category":"beauty"}]},{"lat":"37.402855919","long":"126.91084565","imageIndex":13,"items":[{"name":"오땡큐염색헤나샵","tel":"031-447-5535","addr":"경기도 안양시 만안구 박달동 19-7번지","indutype":"보건위생 - 미용원","category":"beauty"}]},{"lat":"37.405910156","long":"126.91061602","imageIndex":13,"items":[{"name":"오세영헤어뷰","tel":"031-466-4026","addr":"경기도 안양시 만안구 박달동 52-5번지","indutype":"보건위생 - 미용원","category":"beauty"}]},{"lat":"37.402717899","long":"126.90723168","imageIndex":13,"items":[{"name":"오페라헤어","tel":"","addr":"경기도 안양시 만안구 박달동 99-16번지","indutype":"보건위생 - 미용원","category":"beauty"}]},{"lat":"37.403136555","long":"126.91256203","imageIndex":13,"items":[{"name":"이신자헤어컴","tel":"031-466-2726","addr":"경기도 안양시 만안구 박달동 72-2번지","indutype":"보건위생 - 미용원","category":"beauty"}]},{"lat":"37.398973901","long":"126.90145412","imageIndex":13,"items":[{"name":"이주헤어드레서","tel":"031-468-0171","addr":"경기도 안양시 만안구 박달동","indutype":"보건위생 - 미용원","category":"beauty"}]},{"lat":"37.405496455","long":"126.91159915","imageIndex":13,"items":[{"name":"익화","tel":"031-466-8185","addr":"경기도 안양시 만안구 박달동 58-7번지","indutype":"보건위생 - 피부미용실","category":"beauty"}]},{"lat":"37.404466724","long":"126.90831373","imageIndex":13,"items":[{"name":"장미영헤어샵","tel":"031-466-4861","addr":"경기도 안양시 만안구 박달동 45-3번지","indutype":"보건위생 - 미용원","category":"beauty"}]},{"lat":"37.405857154","long":"126.91198273","imageIndex":13,"items":[{"name":"종화","tel":"031-465-7050","addr":"경기도 안양시 만안구 박달동 55-20번지","indutype":"보건위생 - 화장품","category":"beauty"},{"name":"해피안","tel":"031-442-0401","addr":"경기도 안양시 만안구 박달동 55-20번지","indutype":"보건위생 - 의료용품","category":"beauty"}]},{"lat":"37.405522899","long":"126.91084238","imageIndex":13,"items":[{"name":"준헤어뱅크","tel":"031-441-6798","addr":"경기도 안양시 만안구 박달동 56-20번지","indutype":"보건위생 - 미용원","category":"beauty"}]},{"lat":"37.40491659","long":"126.8873167","imageIndex":13,"items":[{"name":"중매인8번","tel":"031-468-5520","addr":"경기도 안양시 만안구 박달동 691-3번지","indutype":"보건위생 - 기타대인서비스","category":"beauty"}]},{"lat":"37.405306287","long":"126.91036828","imageIndex":13,"items":[{"name":"지오프로헤어","tel":"031-469-4445","addr":"경기도 안양시 만안구 박달동 56-21번지","indutype":"보건위생 - 미용원","category":"beauty"}]},{"lat":"37.406107294","long":"126.90923783","imageIndex":13,"items":[{"name":"진주헤어샵","tel":"031-444-8609","addr":"경기도 안양시 만안구 박달동 31-27번지","indutype":"보건위생 - 미용원","category":"beauty"}]},{"lat":"37.403223073","long":"126.90798776","imageIndex":13,"items":[{"name":"착한헤어","tel":"02-123-1234","addr":"경기도 안양시 만안구 박달동 102-7번지","indutype":"보건위생 - 미용원","category":"beauty"}]},{"lat":"37.400525378","long":"126.90350751","imageIndex":13,"items":[{"name":"최선생","tel":"031-444-7127","addr":"경기도 안양시 만안구 박달동 139-78번지","indutype":"보건위생 - 미용원","category":"beauty"}]},{"lat":"37.402862552","long":"126.90784139","imageIndex":13,"items":[{"name":"친구머리방","tel":"031-441-9737","addr":"경기도 안양시 만안구 박달동 100-17번지","indutype":"보건위생 - 미용원","category":"beauty"}]},{"lat":"37.401691533","long":"126.90820427","imageIndex":13,"items":[{"name":"카멜레온","tel":"031-465-2344","addr":"경기도 안양시 만안구 박달동 85-26번지","indutype":"보건위생 - 미용원","category":"beauty"}]},{"lat":"37.403773838","long":"126.90943273","imageIndex":13,"items":[{"name":"코코샵","tel":"031-446-3224","addr":"경기도 안양시 만안구 박달동 17-3번지","indutype":"보건위생 - 미용원","category":"beauty"}]},{"lat":"37.402689514","long":"126.90557148","imageIndex":13,"items":[{"name":"태후사랑","tel":"031-444-5643","addr":"경기도 안양시 만안구 박달동 137-1번지","indutype":"보건위생 - 화장품","category":"beauty"}]},{"lat":"37.403665628","long":"126.90931993","imageIndex":13,"items":[{"name":"토르마린 조은쉼터","tel":"031-444-9982","addr":"경기도 안양시 만안구 박달동 17-1번지","indutype":"보건위생 - 피부미용실","category":"beauty"}]},{"lat":"37.404889033","long":"126.9068675","imageIndex":13,"items":[{"name":"퍼플헤어","tel":"031-466-3887","addr":"경기도 안양시 만안구 박달동 37-3번지","indutype":"보건위생 - 미용원","category":"beauty"}]},{"lat":"37.401008356","long":"126.89935071","imageIndex":13,"items":[{"name":"프라임입시연구소","tel":"031-382-0360","addr":"경기도 안양시 만안구 박달동 152번지 신안아파트","indutype":"보건위생 - 기타대인서비스","category":"beauty"}]},{"lat":"37.403693529","long":"126.91042673","imageIndex":13,"items":[{"name":"플러스화장품","tel":"031-342-7242","addr":"경기도 안양시 만안구 박달동 20-56번지","indutype":"보건위생 - 화장품","category":"beauty"}]},{"lat":"37.402664313","long":"126.90781905","imageIndex":13,"items":[{"name":"핑크여우눈썹","tel":"031-340-6305","addr":"경기도 안양시 만안구 박달동 100-19번지","indutype":"보건위생 - 피부미용실","category":"beauty"}]},{"lat":"37.403608541","long":"126.90557029","imageIndex":13,"items":[{"name":"하레미용실","tel":"","addr":"경기도 안양시 만안구 박달동 108번지","indutype":"보건위생 - 미용원","category":"beauty"}]},{"lat":"37.405195292","long":"126.90676546","imageIndex":13,"items":[{"name":"한신헤어갤러리","tel":"031-442-9659","addr":"경기도 안양시 만안구 박달동 38-4번지","indutype":"보건위생 - 미용원","category":"beauty"}]},{"lat":"37.406133677","long":"126.90842458","imageIndex":13,"items":[{"name":"헤어가위","tel":"031-433-1263","addr":"경기도 안양시 만안구 박달동 23-3번지","indutype":"보건위생 - 미용원","category":"beauty"}]},{"lat":"37.403802989","long":"126.91215463","imageIndex":13,"items":[{"name":"헤어란","tel":"031-465-2539","addr":"경기도 안양시 만안구 박달동 70-20번지","indutype":"보건위생 - 미용원","category":"beauty"}]},{"lat":"37.402806682","long":"126.9056165","imageIndex":13,"items":[{"name":"헤어스케치","tel":"031-447-9027","addr":"경기도 안양시 만안구 박달동 135-7번지","indutype":"보건위생 - 미용원","category":"beauty"}]},{"lat":"37.404520965","long":"126.90853955","imageIndex":13,"items":[{"name":"헤어아뜰리에","tel":"031-441-6333","addr":"경기도 안양시 만안구 박달동 45-2번지","indutype":"보건위생 - 미용원","category":"beauty"}]},{"lat":"37.400859054","long":"126.90386847","imageIndex":13,"items":[{"name":"헤어커커미용실","tel":"031-447-0080","addr":"경기도 안양시 만안구 박달동 140-26번지","indutype":"보건위생 - 미용원","category":"beauty"}]},{"lat":"37.404221384","long":"126.9057615","imageIndex":13,"items":[{"name":"헤어하우스","tel":"031-442-5877","addr":"경기도 안양시 만안구 박달동 41-17번지","indutype":"보건위생 - 미용원","category":"beauty"}]},{"lat":"37.404854975","long":"126.90934104","imageIndex":13,"items":[{"name":"헬스트론 안양점","tel":"070-8940-7582","addr":"경기도 안양시 만안구 박달동 22-18번지","indutype":"보건위생 - 의료용품","category":"beauty"}]},{"lat":"37.405134839","long":"126.91004095","imageIndex":13,"items":[{"name":"화랑","tel":"031-444-7917","addr":"경기도 안양시 만안구 박달동 56-5번지","indutype":"보건위생 - 화장품","category":"beauty"}]},{"lat":"37.404307118","long":"126.9115893","imageIndex":13,"items":[{"name":"휴앤샵","tel":"031-385-2575","addr":"경기도 안양시 만안구 박달동 61-6번지","indutype":"보건위생 - 화장품","category":"beauty"}]}]