[{"lat":"37.20333586","long":"127.54506867","imageIndex":7,"items":[{"name":"고기장터정육점","tel":"031-884-1109","addr":"경기도 여주시 가남읍 태평리 162-4번지","indutype":"음료식품 - 정육점","category":"food"}]},{"lat":"37.203533069","long":"127.54725535","imageIndex":7,"items":[{"name":"금강떡방앗간","tel":"031-883-6575","addr":"경기도 여주시 가남읍 태평리 103-1번지","indutype":"음료식품 - 제과점","category":"food"}]},{"lat":"37.212642237","long":"127.54336655","imageIndex":7,"items":[{"name":"기홍유통","tel":"031-881-6849","addr":"경기도 여주시 가남읍 태평리 259-5번지 가동","indutype":"음료식품 - 정육점","category":"food"}]},{"lat":"37.200703467","long":"127.54142288","imageIndex":7,"items":[{"name":"농업회사(주)여주태평미곡처리장","tel":"031-882-3157","addr":"경기도 여주시 가남읍 태평리 471번지 1층","indutype":"음료식품 - 미곡상","category":"food"}]},{"lat":"37.203282728","long":"127.54486554","imageIndex":7,"items":[{"name":"늘푸른건강원","tel":"031-884-8429","addr":"경기도 여주시 가남읍 태평리 162-8번지","indutype":"건강식품 - 기타건강식품","category":"food"}]},{"lat":"37.204339214","long":"127.54436619","imageIndex":7,"items":[{"name":"데카마트 수산코너","tel":"031-881-3731","addr":"경기도 여주시 가남읍 태평리 174-14번지 데카마트 내","indutype":"음료식품 - 농·축·수산품","category":"food"},{"name":"데카반찬","tel":"031-882-6797","addr":"경기도 여주시 가남읍 태평리 174-14번지","indutype":"음료식품 - 기타음료식품","category":"food"}]},{"lat":"37.202592708","long":"127.54600954","imageIndex":7,"items":[{"name":"만우정육점","tel":"031-882-1306","addr":"경기도 여주시 가남읍 태평리 141-26번지","indutype":"음료식품 - 정육점","category":"food"}]},{"lat":"37.202005767","long":"127.54628694","imageIndex":7,"items":[{"name":"밀림건강원","tel":"031-884-5705","addr":"경기도 여주시 가남읍 태평리 141-30번지","indutype":"건강식품 - 기타건강식품","category":"food"}]},{"lat":"37.202812995","long":"127.54709248","imageIndex":7,"items":[{"name":"반찬나라","tel":"031-883-2905","addr":"경기도 여주시 가남읍 태평리 107-12번지","indutype":"음료식품 - 기타음료식품","category":"food"}]},{"lat":"37.202501471","long":"127.5462567","imageIndex":7,"items":[{"name":"소연이네","tel":"031-882-5856","addr":"경기도 여주시 가남읍 태평리 141-27번지 1층","indutype":"음료식품 - 제과점","category":"food"}]},{"lat":"37.20378571","long":"127.54717832","imageIndex":7,"items":[{"name":"스마일건강원","tel":"031-884-4643","addr":"경기도 여주시 가남읍 태평리 101-4번지","indutype":"건강식품 - 기타건강식품","category":"food"}]},{"lat":"37.201980493","long":"127.54590378","imageIndex":7,"items":[{"name":"알부자계란직판장","tel":"031-884-3893","addr":"경기도 여주시 가남읍 태평리 138-1번지","indutype":"음료식품 - 농·축·수산품","category":"food"}]},{"lat":"37.20242317","long":"127.54564788","imageIndex":7,"items":[{"name":"왕떡방앗간","tel":"031-882-2779","addr":"경기도 여주시 가남읍 태평리 141-37번지","indutype":"음료식품 - 제과점","category":"food"}]},{"lat":"37.202728374","long":"127.54589788","imageIndex":7,"items":[{"name":"우딘월드푸드","tel":"031-881-1734","addr":"경기도 여주시 가남읍 태평리 141-24번지 1층","indutype":"음료식품 - 기타음료식품","category":"food"}]},{"lat":"37.203084174","long":"127.54690294","imageIndex":7,"items":[{"name":"우분투유통(임실치즈(숲골유가공)여주,이천","tel":"031-881-4549","addr":"경기도 여주시 가남읍 태평리 104-1번지","indutype":"음료식품 - 기타음료식품","category":"food"}]},{"lat":"37.203313403","long":"127.54603724","imageIndex":7,"items":[{"name":"유성건강원","tel":"031-883-4425","addr":"경기도 여주시 가남읍 태평리 178-35번지","indutype":"건강식품 - 기타건강식품","category":"food"}]},{"lat":"37.203535626","long":"127.54473217","imageIndex":7,"items":[{"name":"중앙편의점","tel":"031-882-4053","addr":"경기도 여주시 가남읍 태평리 163-4번지","indutype":"음료식품 - 기타음료식품","category":"food"}]},{"lat":"37.203591214","long":"127.54636589","imageIndex":7,"items":[{"name":"태평떡방앗간","tel":"031-882-2804","addr":"경기도 여주시 가남읍 태평리 178-9번지","indutype":"음료식품 - 제과점","category":"food"}]},{"lat":"37.204727775","long":"127.54412115","imageIndex":7,"items":[{"name":"터미널건강원","tel":"031-884-0340","addr":"경기도 여주시 가남읍 태평리 172번지","indutype":"건강식품 - 기타건강식품","category":"food"}]},{"lat":"37.203204147","long":"127.54628427","imageIndex":7,"items":[{"name":"파리바게트","tel":"031-883-8202","addr":"경기도 여주시 가남읍 태평리 178-21번지","indutype":"음료식품 - 제과점","category":"food"}]},{"lat":"37.207813842","long":"127.5470608","imageIndex":7,"items":[{"name":"헬스에스엠(Health S.M)","tel":"","addr":"경기도 여주시 가남읍 태평리 771-8번지 401호","indutype":"건강식품 - 기타건강식품","category":"food"}]},{"lat":"37.202673539","long":"127.54606644","imageIndex":7,"items":[{"name":"현대공판장","tel":"031-884-7092","addr":"경기도 여주시 가남읍 태평리 141-25번지","indutype":"음료식품 - 기타음료식품","category":"food"}]}]