[{"lat":"37.43417083","long":"127.3173635","imageIndex":7,"items":[{"name":"남새누리","tel":"031-762-1697","addr":"경기도 광주시 퇴촌면 원당리 345-3번지 1층","indutype":"음료식품 - 기타음료식품","category":"food"}]},{"lat":"37.43625089","long":"127.3178355","imageIndex":7,"items":[{"name":"상미푸드","tel":"070-8201-3225","addr":"경기도 광주시 퇴촌면 원당리 171-2번지","indutype":"음료식품 - 기타음료식품","category":"food"}]},{"lat":"37.43622689","long":"127.3166942","imageIndex":7,"items":[{"name":"오찬회동","tel":"070-4789-2381","addr":"경기도 광주시 퇴촌면 원당리 167-1번지","indutype":"음료식품 - 기타음료식품","category":"food"}]},{"lat":"37.43491528","long":"127.3186321","imageIndex":7,"items":[{"name":"주식회사 이루다금샘","tel":"031-797-5377","addr":"경기도 광주시 퇴촌면 원당리 330번지 1동 1층","indutype":"음료식품 - 기타음료식품","category":"food"}]},{"lat":"37.43002926","long":"127.3196058","imageIndex":7,"items":[{"name":"퇴촌산양삼영농조합법인","tel":"031-764-3484","addr":"경기도 광주시 퇴촌면 원당리 315-37","indutype":"건강식품 - 인삼제품","category":"food"}]},{"lat":"37.4429171","long":"127.3216377","imageIndex":17,"items":[{"name":"대한불교조계종나눔의집","tel":"031-768-0064","addr":"경기도 광주시 퇴촌면 원당리 65","indutype":"기타의료기관 - 기타의료기관 및 기타","category":"other"},{"name":"사회복지법인 대한불교조계종 나눔의집","tel":"031-768-0064","addr":"경기도 광주시 퇴촌면 원당리 65번지","indutype":"문화.취미 - 티켓","category":"other"}]},{"lat":"37.44160791","long":"127.3193043","imageIndex":17,"items":[{"name":"바이컴홈","tel":"031-767-5524","addr":"경기도 광주시 퇴촌면 원당리 89-2","indutype":"가구 - 일반가구","category":"other"}]},{"lat":"37.43607994","long":"127.3177444","imageIndex":17,"items":[{"name":"애레임","tel":"032-546-6700","addr":"경기도 광주시 퇴촌면 원당리 171번지","indutype":"회원제형태 - 기타4","category":"other"}]},{"lat":"37.4375541","long":"127.3156602","imageIndex":17,"items":[{"name":"원당화원","tel":"","addr":"경기도 광주시 퇴촌면 원당리 148-2번지","indutype":"문화.취미 - 화원","category":"other"}]},{"lat":"37.43607994","long":"127.3177444","imageIndex":4,"items":[{"name":"심봤다 두루치기","tel":"031-111-1111","addr":"경기도 광주시 퇴촌면 원당리 171번지","indutype":"일반휴게음식 - 일반한식","category":"restaurant"}]},{"lat":"37.43731024","long":"127.3158852","imageIndex":4,"items":[{"name":"퇴촌돌짜장","tel":"031-761-0360","addr":"경기도 광주시 퇴촌면 원당리 153번지","indutype":"일반휴게음식 - 중국식","category":"restaurant"}]}]