[{"lat":"37.713098206","long":"126.74929499","imageIndex":0,"items":[{"name":"강남구 출장세차","tel":"","addr":"경기도 파주시 야당동 975번지 한빛마을3단지자유로아이파크","indutype":"자동차정비 유지 - 세차장","category":"car"}]},{"lat":"37.713622215","long":"126.7629026","imageIndex":0,"items":[{"name":"보물섬","tel":"031-945-6221","addr":"경기도 파주시 야당동 192-54번지","indutype":"자동차정비 유지 - 자동차시트·타이어","category":"car"}]},{"lat":"37.712127303","long":"126.7632363","imageIndex":0,"items":[{"name":"스팀나인","tel":"031-000-0000","addr":"경기도 파주시 야당동 192-100번지 벨라타운","indutype":"자동차정비 유지 - 세차장","category":"car"}]},{"lat":"37.718233432","long":"126.77106521","imageIndex":0,"items":[{"name":"쏘나타모터스","tel":"031-944-9905","addr":"경기도 파주시 야당동 59-1번지","indutype":"자동차정비 유지 - 자동차정비","category":"car"}]},{"lat":"37.709411383","long":"126.74841165","imageIndex":0,"items":[{"name":"애니 일산","tel":"031-945-6759","addr":"경기도 파주시 야당동 1023번지 한빛마을6단지","indutype":"자동차정비 유지 - 견인서비스","category":"car"}]},{"lat":"37.711620505","long":"126.76212653","imageIndex":0,"items":[{"name":"야당현대드림","tel":"031-949-0100","addr":"경기도 파주시 야당동 421-46번지","indutype":"자동차정비 유지 - 자동차정비","category":"car"}]},{"lat":"37.710066701","long":"126.76901532","imageIndex":0,"items":[{"name":"와이미디어","tel":"","addr":"경기도 파주시 야당동 185-73번지","indutype":"자동차정비 유지 - 자동차부품","category":"car"}]},{"lat":"37.718342215","long":"126.77140512","imageIndex":0,"items":[{"name":"운정모터스","tel":"031-948-9905","addr":"경기도 파주시 야당동 59-3번지","indutype":"자동차정비 유지 - 자동차정비","category":"car"}]},{"lat":"37.703733423","long":"126.76032636","imageIndex":0,"items":[{"name":"워시스퀘어","tel":"031-948-5287","addr":"경기도 파주시 야당동 927번지","indutype":"자동차정비 유지 - 세차장","category":"car"}]},{"lat":"37.716094215","long":"126.76014997","imageIndex":0,"items":[{"name":"월드타워 7차 운영위원회","tel":"031-945-0018","addr":"경기도 파주시 야당동 1074번지","indutype":"자동차정비 유지 - 주차장","category":"car"}]},{"lat":"37.704595449","long":"126.76331725","imageIndex":0,"items":[{"name":"유일모터스","tel":"031-946-9430","addr":"경기도 파주시 야당동 469-115","indutype":"자동차정비 유지 - 자동차정비","category":"car"}]},{"lat":"37.710258365","long":"126.76573727","imageIndex":0,"items":[{"name":"이레모터스","tel":"031-4531-9004","addr":"경기도 파주시 야당동 178-92번지","indutype":"자동차정비 유지 - 자동차정비","category":"car"}]},{"lat":"37.709819502","long":"126.76257464","imageIndex":0,"items":[{"name":"자르트카케어","tel":"031-944-2994","addr":"경기도 파주시 야당동 178-14번지","indutype":"자동차정비 유지 - 세차장","category":"car"}]},{"lat":"37.721118092","long":"126.7673246","imageIndex":0,"items":[{"name":"카엔조이","tel":"031-944-8619","addr":"경기도 파주시 야당동 45-85번지","indutype":"자동차정비 유지 - 자동차부품","category":"car"}]},{"lat":"37.712370744","long":"126.76332625","imageIndex":0,"items":[{"name":"포인트(POINT)","tel":"","addr":"경기도 파주시 야당동 421-31번지","indutype":"자동차정비 유지 - 자동차부품","category":"car"}]},{"lat":"37.715195172","long":"126.7567278","imageIndex":0,"items":[{"name":"하나윤활유","tel":"031-944-8742","addr":"경기도 파주시 야당동 991번지 한빛마을5단지캐슬앤칸타빌","indutype":"자동차정비 유지 - 윤활유 전문 판매","category":"car"}]},{"lat":"37.716537708","long":"126.76556981","imageIndex":0,"items":[{"name":"하은인터내셔널","tel":"031-844-2310","addr":"경기도 파주시 야당동 243-23번지","indutype":"자동차정비 유지 - 자동차부품","category":"car"}]}]