[{"lat":"37.333089559","long":"127.01549718","imageIndex":4,"items":[{"name":"강원도메밀막국수","tel":"031-244-5365","addr":"경기도 수원시 장안구 상광교동 72번지","indutype":"일반휴게음식 - 일반한식","category":"restaurant"},{"name":"강원도메밀막국수","tel":"031-244-5365","addr":"경기도 수원시 장안구 상광교동 72번지 태평농원","indutype":"일반휴게음식 - 일반한식","category":"restaurant"}]},{"lat":"37.329143115","long":"127.01530471","imageIndex":4,"items":[{"name":"광교산농원","tel":"031-252-2421","addr":"경기도 수원시 장안구 상광교동 124-2번지","indutype":"일반휴게음식 - 일반한식","category":"restaurant"}]},{"lat":"37.335035546","long":"127.01735937","imageIndex":4,"items":[{"name":"광교헌","tel":"031-242-3903","addr":"경기도 수원시 장안구 상광교동 47-2번지","indutype":"일반휴게음식 - 일반한식","category":"restaurant"}]},{"lat":"37.33250389","long":"127.0155535","imageIndex":4,"items":[{"name":"산사랑","tel":"031-244-8973","addr":"경기도 수원시 장안구 상광교동 76-10번지 1층 산사랑","indutype":"일반휴게음식 - 일반한식","category":"restaurant"}]},{"lat":"37.338225287","long":"127.01619768","imageIndex":4,"items":[{"name":"솔향기농원","tel":"031-256-3588","addr":"경기도 수원시 장안구 상광교동 20번지 지하1층","indutype":"일반휴게음식 - 일반한식","category":"restaurant"}]},{"lat":"37.33056684","long":"127.01416532","imageIndex":4,"items":[{"name":"예가네","tel":"031-256-8522","addr":"경기도 수원시 장안구 상광교동 374-2번지","indutype":"일반휴게음식 - 일반한식","category":"restaurant"}]},{"lat":"37.327674593","long":"127.0138941","imageIndex":4,"items":[{"name":"용수농원","tel":"","addr":"경기도 수원시 장안구 상광교동 339-2번지","indutype":"일반휴게음식 - 일반한식","category":"restaurant"}]},{"lat":"37.3313686","long":"127.01560973","imageIndex":4,"items":[{"name":"이가네","tel":"031-253-7740","addr":"경기도 수원시 장안구 상광교동 92-1번지","indutype":"일반휴게음식 - 일반한식","category":"restaurant"}]},{"lat":"37.33098115","long":"127.0157225","imageIndex":4,"items":[{"name":"이화원식당","tel":"031-241-4913","addr":"경기도 수원시 장안구 상광교동 94번지","indutype":"일반휴게음식 - 일반한식","category":"restaurant"}]},{"lat":"37.328566651","long":"127.01336393","imageIndex":4,"items":[{"name":"장안농원","tel":"031-257-5020","addr":"경기도 수원시 장안구 상광교동 347 42/1","indutype":"일반휴게음식 - 일반한식","category":"restaurant"}]},{"lat":"37.33267508","long":"127.01558738","imageIndex":4,"items":[{"name":"콩떡콩떡농원","tel":"","addr":"경기도 수원시 장안구 상광교동 76-5번지 1층","indutype":"일반휴게음식 - 서양음식","category":"restaurant"}]},{"lat":"37.326728405","long":"127.01508994","imageIndex":4,"items":[{"name":"할머니네청국장","tel":"031-241-4693","addr":"경기도 수원시 장안구 상광교동 146-6","indutype":"일반휴게음식 - 일반한식","category":"restaurant"}]},{"lat":"37.330089283","long":"127.0143345","imageIndex":4,"items":[{"name":"형제농원","tel":"031-243-8542","addr":"경기도 수원시 장안구 상광교동 371-1번지","indutype":"일반휴게음식 - 일반한식","category":"restaurant"}]}]