[{"lat":"37.4476344","long":"126.8885619","imageIndex":7,"items":[{"name":"(주)더시루","tel":"02-2687-3200","addr":"경기도 광명시 소하동 1322-3번지 103호","indutype":"음료식품 - 제과점","category":"food"},{"name":"플랑베베","tel":"02-899-3696","addr":"경기도 광명시 소하동 1322-3번지 103호","indutype":"음료식품 - 기타음료식품","category":"food"}]},{"lat":"37.44396413","long":"126.8947375","imageIndex":7,"items":[{"name":"(주)이학순베이커리","tel":"02-899-0600","addr":"경기도 광명시 소하동 1345번지 광명테크노파크 E동 606호","indutype":"음료식품 - 제과점","category":"food"},{"name":"주식회사전진푸드시스템","tel":"02-1855-0151","addr":"경기도 광명시 소하동 1345번지 광명테크노파크 E동 807호","indutype":"음료식품 - 기타음료식품","category":"food"}]},{"lat":"37.44523502","long":"126.8952668","imageIndex":7,"items":[{"name":"(주)힐링앤컴퍼니","tel":"02-1544-4145","addr":"경기도 광명시 소하동 1345번지 광명테크노파크 A동 5층 505호","indutype":"건강식품 - 기타건강식품","category":"food"},{"name":"참두원플러스","tel":"070-4088-5590","addr":"경기도 광명시 소하동 1345번지 광명SK테크노파크 A동 1407호","indutype":"음료식품 - 기타음료식품","category":"food"}]},{"lat":"37.43538084","long":"126.8796543","imageIndex":7,"items":[{"name":"21세기 축산물센터","tel":"02-898-0089","addr":"경기도 광명시 소하동 1242-11번지","indutype":"음료식품 - 정육점","category":"food"}]},{"lat":"37.43799624","long":"126.8820681","imageIndex":7,"items":[{"name":"경기마을교육공동체사회적협동조합광명회계","tel":"031-111-1111","addr":"경기도 광명시 소하동 883-13번지 광명경영회계고등학교","indutype":"음료식품 - 기타음료식품","category":"food"}]},{"lat":"37.45395981","long":"126.8889592","imageIndex":7,"items":[{"name":"고향정육점","tel":"02-804-3391","addr":"경기도 광명시 소하동 55-98번지 상가 1층","indutype":"음료식품 - 정육점","category":"food"},{"name":"구구통닭","tel":"02-894-3390","addr":"경기도 광명시 소하동 55-98번지","indutype":"음료식품 - 기타음료식품","category":"food"}]},{"lat":"37.45098852","long":"126.8910657","imageIndex":7,"items":[{"name":"골드축산","tel":"02-898-9398","addr":"경기도 광명시 소하동 35-1번지 1층 102호","indutype":"음료식품 - 정육점","category":"food"},{"name":"신촌두부","tel":"02-111-1111","addr":"경기도 광명시 소하동 35-1번지 1층 102호","indutype":"음료식품 - 기타음료식품","category":"food"}]},{"lat":"37.43654485","long":"126.8813134","imageIndex":7,"items":[{"name":"공감셀프정육식당","tel":"02-899-9932","addr":"경기도 광명시 소하동 1236번지 동광빌딩 1층","indutype":"음료식품 - 정육점","category":"food"}]},{"lat":"37.43527338","long":"126.8802872","imageIndex":7,"items":[{"name":"광명건강나라","tel":"02-897-2386","addr":"경기도 광명시 소하동 1243-4번지 동곡빌딩 A-4","indutype":"회원제형태 - 건강식품","category":"food"},{"name":"명가떡방","tel":"02-893-3345","addr":"경기도 광명시 소하동 1243-4번지 동곡빌딩 1층 명가떡방","indutype":"음료식품 - 제과점","category":"food"}]},{"lat":"37.44962893","long":"126.8920397","imageIndex":7,"items":[{"name":"광명농산","tel":"02-898-8860","addr":"경기도 광명시 소하동 1363번지 신촌휴먼시아 상가동 110호","indutype":"음료식품 - 농·축·수산품","category":"food"}]},{"lat":"37.44805035","long":"126.8810349","imageIndex":7,"items":[{"name":"광명상사","tel":"02-893-1888","addr":"경기도 광명시 소하동 204-6","indutype":"음료식품 - 기타음료식품","category":"food"}]},{"lat":"37.44757462","long":"126.8827873","imageIndex":7,"items":[{"name":"광명수제누룽지","tel":"02-894-1365","addr":"경기도 광명시 소하동 1342-1번지 뉴골드프라자 1층 10호","indutype":"음료식품 - 기타음료식품","category":"food"}]},{"lat":"37.44837774","long":"126.8840065","imageIndex":7,"items":[{"name":"광명중앙건강생활","tel":"02-899-4789","addr":"경기도 광명시 소하동 1335번지 306-1호","indutype":"건강식품 - 기타건강식품","category":"food"},{"name":"진이찬방","tel":"02-898-1484","addr":"경기도 광명시 소하동 1335번지 메이저리차안 1층 103호","indutype":"음료식품 - 기타음료식품","category":"food"}]},{"lat":"37.45268955","long":"126.8891193","imageIndex":7,"items":[{"name":"국가대표축산","tel":"02-803-0553","addr":"경기도 광명시 소하동 47-23번지 1층","indutype":"음료식품 - 정육점","category":"food"}]},{"lat":"37.4330191","long":"126.8785961","imageIndex":7,"items":[{"name":"기아떡방앗간","tel":"02-899-7188","addr":"경기도 광명시 소하동 1074-4번지 1층","indutype":"음료식품 - 제과점","category":"food"}]},{"lat":"37.43724131","long":"126.8839563","imageIndex":7,"items":[{"name":"기아매점","tel":"02-804-6890","addr":"경기도 광명시 소하동 1233번지 B1(기아자동차 구연구동)","indutype":"음료식품 - 기타음료식품","category":"food"}]},{"lat":"37.44789014","long":"126.8921891","imageIndex":7,"items":[{"name":"김은자","tel":"02-6112-9777","addr":"경기도 광명시 소하동 1365번지 에이스광명타워 지하1층 B113호 에이스스파","indutype":"음료식품 - 기타음료식품","category":"food"},{"name":"숙성전문정육점 리호","tel":"02-6112-8245","addr":"경기도 광명시 소하동 1365번지 에이스광명타워 1층 116호","indutype":"음료식품 - 정육점","category":"food"}]},{"lat":"37.45234744","long":"126.8894024","imageIndex":7,"items":[{"name":"남도반찬","tel":"02-805-5914","addr":"경기도 광명시 소하동 47-28번지","indutype":"음료식품 - 기타음료식품","category":"food"},{"name":"대길정육점","tel":"02-804-2047","addr":"경기도 광명시 소하동 47-28번지","indutype":"음료식품 - 정육점","category":"food"}]},{"lat":"37.43284974","long":"126.8803477","imageIndex":7,"items":[{"name":"남도반찬","tel":"02-898-1235","addr":"경기도 광명시 소하동 1381-3번지 102호","indutype":"음료식품 - 기타음료식품","category":"food"}]},{"lat":"37.43477091","long":"126.8823219","imageIndex":7,"items":[{"name":"네이처시가 소하점","tel":"02-111-1111","addr":"경기도 광명시 소하동 1262-1번지 명지타운 지하 1호","indutype":"음료식품 - 기타음료식품","category":"food"}]},{"lat":"37.43507582","long":"126.8809316","imageIndex":7,"items":[{"name":"농부의딸","tel":"02-899-0444","addr":"경기도 광명시 소하동 1245-8번지 한주빌라 B01호","indutype":"음료식품 - 농·축·수산품","category":"food"}]},{"lat":"37.43627052","long":"126.8774608","imageIndex":7,"items":[{"name":"농수산물센터","tel":"02-899-3138","addr":"경기도 광명시 소하동 927-13번지","indutype":"음료식품 - 농·축·수산품","category":"food"}]},{"lat":"37.45512517","long":"126.882956","imageIndex":7,"items":[{"name":"다원잔기지떡광명점","tel":"070-8971-8839","addr":"경기도 광명시 소하동 1282-5번지 1층","indutype":"음료식품 - 제과점","category":"food"}]},{"lat":"37.44804857","long":"126.8882562","imageIndex":7,"items":[{"name":"달보드레","tel":"070-4187-3560","addr":"경기도 광명시 소하동 1321번지 101호","indutype":"음료식품 - 기타음료식품","category":"food"}]},{"lat":"37.43732782","long":"126.8992894","imageIndex":7,"items":[{"name":"대도 청과","tel":"","addr":"경기도 광명시 소하동 701-3번지","indutype":"음료식품 - 농·축·수산품","category":"food"}]},{"lat":"37.44063057","long":"126.8767077","imageIndex":7,"items":[{"name":"대명상사","tel":"02-898-0466","addr":"경기도 광명시 소하동 326-5번지 2동","indutype":"음료식품 - 주류 판매점","category":"food"}]},{"lat":"37.44782905","long":"126.8849227","imageIndex":7,"items":[{"name":"더가루광명점","tel":"02-807-9000","addr":"경기도 광명시 소하동 1338번지 201, 202호","indutype":"음료식품 - 기타음료식품","category":"food"},{"name":"로하스","tel":"02-1833-7588","addr":"경기도 광명시 소하동 1338번지 101호","indutype":"건강식품 - 기타건강식품","category":"food"}]},{"lat":"37.4527976","long":"126.88904","imageIndex":7,"items":[{"name":"더날케이크","tel":"031-309-4945","addr":"경기도 광명시 소하동 47-22번지 1층 101호","indutype":"음료식품 - 기타음료식품","category":"food"},{"name":"마실공간","tel":"","addr":"경기도 광명시 소하동 47-22번지 1층 101호","indutype":"음료식품 - 기타음료식품","category":"food"}]},{"lat":"37.43446649","long":"126.8755656","imageIndex":7,"items":[{"name":"땅끝애","tel":"","addr":"경기도 광명시 소하동 943-5번지 삼정타운 지하 2호","indutype":"음료식품 - 농·축·수산품","category":"food"}]},{"lat":"37.45285197","long":"126.8893677","imageIndex":7,"items":[{"name":"떡내음","tel":"02-898-5453","addr":"경기도 광명시 소하동 55-14번지 1층","indutype":"음료식품 - 제과점","category":"food"},{"name":"몹시케이크","tel":"031-111-1111","addr":"경기도 광명시 소하동 55-14번지 1층 3층","indutype":"음료식품 - 제과점","category":"food"},{"name":"친절축산물센터","tel":"02-802-7641","addr":"경기도 광명시 소하동 55-14번지 104호","indutype":"음료식품 - 정육점","category":"food"}]},{"lat":"37.44826784","long":"126.8914314","imageIndex":7,"items":[{"name":"뚜레쥬르 광명휴먼시아","tel":"02-805-0005","addr":"경기도 광명시 소하동 1364번지 광명신촌프라자 101호","indutype":"음료식품 - 제과점","category":"food"},{"name":"배스킨라빈스","tel":"02-898-6825","addr":"경기도 광명시 소하동 1364번지 광명신촌프라자 111,112호","indutype":"음료식품 - 제과점","category":"food"}]},{"lat":"37.44757677","long":"126.8849231","imageIndex":7,"items":[{"name":"르꾸떼(regouter)","tel":"031-000-0000","addr":"경기도 광명시 소하동 1338-1번지 서울프라자 3층 303호","indutype":"음료식품 - 제과점","category":"food"}]},{"lat":"37.4478274","long":"126.8832841","imageIndex":7,"items":[{"name":"마미드 뺑","tel":"02-897-9289","addr":"경기도 광명시 소하동 1341번지 신성프라자 104호","indutype":"음료식품 - 제과점","category":"food"},{"name":"인디오븐","tel":"02-898-5859","addr":"경기도 광명시 소하동 1341번지 신성프라자","indutype":"음료식품 - 제과점","category":"food"}]},{"lat":"37.43596649","long":"126.8796533","imageIndex":7,"items":[{"name":"매점","tel":"02-897-1573","addr":"경기도 광명시 소하동 1242-15번지","indutype":"음료식품 - 기타음료식품","category":"food"}]},{"lat":"37.43512945","long":"126.8805134","imageIndex":7,"items":[{"name":"명품한돈한우도매센터","tel":"02-898-1430","addr":"경기도 광명시 소하동 1244-6번지 명지빌라 지하 1호","indutype":"음료식품 - 정육점","category":"food"}]},{"lat":"37.43479657","long":"126.8809885","imageIndex":7,"items":[{"name":"무안정육축산","tel":"02-899-1238","addr":"경기도 광명시 소하동 1265번지 대원 상가 102동 103호","indutype":"음료식품 - 정육점","category":"food"}]},{"lat":"37.44671111","long":"126.8842238","imageIndex":7,"items":[{"name":"베스킨라빈스(아이스크림)","tel":"02-898-3149","addr":"경기도 광명시 소하동 1339-3번지 이마트소하점 3층","indutype":"음료식품 - 제과점","category":"food"},{"name":"앤티앤스/(주)재원푸드 광명소하","tel":"02-587-0955","addr":"경기도 광명시 소하동 1339-3번지 이마트광명소하점 내","indutype":"음료식품 - 제과점","category":"food"}]},{"lat":"37.43610118","long":"126.8792125","imageIndex":7,"items":[{"name":"베스킨라빈스광명소하사거리점","tel":"02-6348-3131","addr":"경기도 광명시 소하동 920-6번지","indutype":"음료식품 - 제과점","category":"food"}]},{"lat":"37.43612996","long":"126.880896","imageIndex":7,"items":[{"name":"베이커리-9","tel":"070-4763-5091","addr":"경기도 광명시 소하동 1241-3번지 1층","indutype":"음료식품 - 제과점","category":"food"}]},{"lat":"37.43627346","long":"126.880263","imageIndex":7,"items":[{"name":"복권천국","tel":"02-897-9174","addr":"경기도 광명시 소하동 1241번지 1층","indutype":"음료식품 - 기타음료식품","category":"food"},{"name":"정육점의법칙","tel":"02-6487-4877","addr":"경기도 광명시 소하동 1241번지 다올보쌈자리","indutype":"음료식품 - 정육점","category":"food"},{"name":"파리바게뜨 광명소하점","tel":"02-899-1762","addr":"경기도 광명시 소하동 1241번지 1층 107호","indutype":"음료식품 - 제과점","category":"food"}]},{"lat":"37.43514811","long":"126.8811349","imageIndex":7,"items":[{"name":"부부반찬","tel":"02-898-6008","addr":"경기도 광명시 소하동 1245-7번지 한주빌라 A동 B01호","indutype":"음료식품 - 기타음료식품","category":"food"}]},{"lat":"37.43567077","long":"126.8812131","imageIndex":7,"items":[{"name":"부부상회","tel":"070-8658-4899","addr":"경기도 광명시 소하동 1245-3번지 경원빌라 B동 201호","indutype":"음료식품 - 농·축·수산품","category":"food"}]},{"lat":"37.44641157","long":"126.8820433","imageIndex":7,"items":[{"name":"블랑","tel":"02-0000-0000","addr":"경기도 광명시 소하동 1343-2번지 107,108호 외1필지","indutype":"음료식품 - 기타음료식품","category":"food"}]},{"lat":"37.43779491","long":"126.8790628","imageIndex":7,"items":[{"name":"빵집아저씨","tel":"02-898-6270","addr":"경기도 광명시 소하동 909-39번지","indutype":"음료식품 - 제과점","category":"food"}]},{"lat":"37.43721714","long":"126.8779903","imageIndex":7,"items":[{"name":"산푸드","tel":"02-6348-0534","addr":"경기도 광명시 소하동 911-23번지","indutype":"음료식품 - 기타음료식품","category":"food"}]},{"lat":"37.4524915","long":"126.8892891","imageIndex":7,"items":[{"name":"삼성상회","tel":"02-894-4076","addr":"경기도 광명시 소하동 47-27번지","indutype":"음료식품 - 농·축·수산품","category":"food"},{"name":"우리흑염소","tel":"02-802-2845","addr":"경기도 광명시 소하동 47-27번지","indutype":"건강식품 - 기타건강식품","category":"food"}]},{"lat":"37.43665818","long":"126.8776748","imageIndex":7,"items":[{"name":"삼일방앗간","tel":"02-897-5777","addr":"경기도 광명시 소하동 911-17번지 영광빌딩","indutype":"음료식품 - 제과점","category":"food"}]},{"lat":"37.43629855","long":"126.8783986","imageIndex":7,"items":[{"name":"서울우유 소하 고객센터","tel":"012-898-9197","addr":"경기도 광명시 소하동 924-24번지","indutype":"음료식품 - 기타음료식품","category":"food"}]},{"lat":"37.43682268","long":"126.8798779","imageIndex":7,"items":[{"name":"소망건강원","tel":"02-899-4770","addr":"경기도 광명시 소하동 913-6번지","indutype":"건강식품 - 기타건강식품","category":"food"},{"name":"하은이네과자","tel":"02-111-1111","addr":"경기도 광명시 소하동 913-6번지 1층","indutype":"음료식품 - 기타음료식품","category":"food"}]},{"lat":"37.43807347","long":"126.8783505","imageIndex":7,"items":[{"name":"소망유통","tel":"0505-718-7038","addr":"경기도 광명시 소하동 909번지 1층","indutype":"음료식품 - 기타음료식품","category":"food"},{"name":"아이스크림할인점(광명 소하동)","tel":"070-997-9970","addr":"경기도 광명시 소하동 909번지 1층 1호","indutype":"음료식품 - 기타음료식품","category":"food"}]},{"lat":"37.43437935","long":"126.8783453","imageIndex":7,"items":[{"name":"소소한오븐","tel":"070-7529-8843","addr":"경기도 광명시 소하동 1080-3번지 영풍빌라 1층","indutype":"음료식품 - 제과점","category":"food"}]},{"lat":"37.4355373","long":"126.8828517","imageIndex":7,"items":[{"name":"솜사탕솜SEE","tel":"","addr":"경기도 광명시 소하동 1249번지 기아타운","indutype":"음료식품 - 기타음료식품","category":"food"}]},{"lat":"37.44623965","long":"126.89044","imageIndex":7,"items":[{"name":"송아지정육점","tel":"02-898-2565","addr":"경기도 광명시 소하동 1324번지 휴먼시아가 상가 101호","indutype":"음료식품 - 정육점","category":"food"}]},{"lat":"37.4475981","long":"126.8882908","imageIndex":7,"items":[{"name":"순수케이크","tel":"","addr":"경기도 광명시 소하동 1323-1번지 101호","indutype":"음료식품 - 제과점","category":"food"}]},{"lat":"37.44640363","long":"126.8830943","imageIndex":7,"items":[{"name":"순정마카롱","tel":"","addr":"경기도 광명시 소하동 1343-5번지 에버그린 1층 105-3, 105-4호","indutype":"음료식품 - 제과점","category":"food"}]},{"lat":"37.44929268","long":"126.8890115","imageIndex":7,"items":[{"name":"스도야","tel":"070-7766-5832","addr":"경기도 광명시 소하동 1313-2번지","indutype":"음료식품 - 기타음료식품","category":"food"}]},{"lat":"37.43363222","long":"126.8790131","imageIndex":7,"items":[{"name":"시루담(소하점)","tel":"02-898-4999","addr":"경기도 광명시 소하동 1075-6번지 102호","indutype":"음료식품 - 제과점","category":"food"},{"name":"해남댁","tel":"02-898-2055","addr":"경기도 광명시 소하동 1075-6번지 107호","indutype":"음료식품 - 기타음료식품","category":"food"}]},{"lat":"37.44762925","long":"126.8833522","imageIndex":7,"items":[{"name":"시루떡","tel":"02-897-7704","addr":"경기도 광명시 소하동 1341-1번지 한빛프라자 101호","indutype":"음료식품 - 제과점","category":"food"}]},{"lat":"37.43749576","long":"126.8773458","imageIndex":7,"items":[{"name":"신선푸드","tel":"02-2618-8309","addr":"경기도 광명시 소하동 889-1번지 개운2차아파트 1305호","indutype":"음료식품 - 농·축·수산품","category":"food"}]},{"lat":"37.44832296","long":"126.8832946","imageIndex":7,"items":[{"name":"아이누리한의원 광명점","tel":"02-899-0103","addr":"경기도 광명시 소하동 1340-5번지 웅신아트 206호","indutype":"건강식품 - 기타건강식품","category":"food"},{"name":"이디야빚은","tel":"02-899-5989","addr":"경기도 광명시 소하동 1340-5번지 웅신아트 111호","indutype":"음료식품 - 제과점","category":"food"}]},{"lat":"37.44782687","long":"126.8827643","imageIndex":7,"items":[{"name":"언니의식빵가게광명소하점","tel":"02-898-8091","addr":"경기도 광명시 소하동 1342번지 우성프라자 101호","indutype":"음료식품 - 제과점","category":"food"}]},{"lat":"37.43816292","long":"126.8777401","imageIndex":7,"items":[{"name":"얼음왕국 금천1호점","tel":"02-1855-3625","addr":"경기도 광명시 소하동 376-3번지","indutype":"음료식품 - 기타음료식품","category":"food"}]},{"lat":"37.44877133","long":"126.8812032","imageIndex":7,"items":[{"name":"에스더블유","tel":"","addr":"경기도 광명시 소하동 157-4번지 2층","indutype":"음료식품 - 기타음료식품","category":"food"}]},{"lat":"37.45098891","long":"126.8914839","imageIndex":7,"items":[{"name":"여우손맛","tel":"02-2088-6330","addr":"경기도 광명시 소하동 35-13번지 에이앤캐슬 1층 101호","indutype":"음료식품 - 기타음료식품","category":"food"}]},{"lat":"37.4533837","long":"126.8895138","imageIndex":7,"items":[{"name":"영광참기름","tel":"02-807-0151","addr":"경기도 광명시 소하동 47-7번지","indutype":"음료식품 - 기타음료식품","category":"food"}]},{"lat":"37.43588138","long":"126.8845347","imageIndex":7,"items":[{"name":"오하","tel":"","addr":"경기도 광명시 소하동 1238번지 106호","indutype":"음료식품 - 기타음료식품","category":"food"},{"name":"프랑세즈","tel":"02-898-0055","addr":"경기도 광명시 소하동 1238번지 104호","indutype":"음료식품 - 제과점","category":"food"}]},{"lat":"37.45190694","long":"126.8904315","imageIndex":7,"items":[{"name":"우리공판장","tel":"02-6013-1149","addr":"경기도 광명시 소하동 36-5번지","indutype":"음료식품 - 기타음료식품","category":"food"}]},{"lat":"37.43629822","long":"126.8780935","imageIndex":7,"items":[{"name":"운암식품","tel":"02-6053-9963","addr":"경기도 광명시 소하동 924-37번지 1층 103호","indutype":"음료식품 - 농·축·수산품","category":"food"}]},{"lat":"37.43737964","long":"126.8782951","imageIndex":7,"items":[{"name":"웰빙건강원","tel":"02-897-5698","addr":"경기도 광명시 소하동 911-31번지","indutype":"건강식품 - 기타건강식품","category":"food"}]},{"lat":"37.44718769","long":"126.8832851","imageIndex":7,"items":[{"name":"위드맘소아청소년과건강기능식품","tel":"02-899-1175","addr":"경기도 광명시 소하동 1341-2번지 제일프라자 303호","indutype":"건강식품 - 기타건강식품","category":"food"}]},{"lat":"37.43367682","long":"126.8874646","imageIndex":7,"items":[{"name":"위머스트크리에이트(WE MUST CREATE)","tel":"","addr":"경기도 광명시 소하동 1373번지 광명역세권휴먼시아 104동 706호","indutype":"음료식품 - 기타음료식품","category":"food"}]},{"lat":"37.44785516","long":"126.8840073","imageIndex":7,"items":[{"name":"이학순베이커리 소하상업지구점","tel":"02-899-0807","addr":"경기도 광명시 소하동 1339번지 골드프라자 1층 107호,108호","indutype":"음료식품 - 제과점","category":"food"},{"name":"플랜24스터디카페 소하센터","tel":"","addr":"경기도 광명시 소하동 1339번지 골든프라자 703호","indutype":"음료식품 - 기타음료식품","category":"food"}]},{"lat":"37.44964363","long":"126.8885589","imageIndex":7,"items":[{"name":"이학순베이커리 소하점","tel":"02-898-7101","addr":"경기도 광명시 소하동 1312-1번지 1층","indutype":"음료식품 - 제과점","category":"food"}]},{"lat":"37.43315541","long":"126.8797032","imageIndex":7,"items":[{"name":"장독대 소하점","tel":"02-898-5289","addr":"경기도 광명시 소하동 1380번지 행운드림프라자 108호","indutype":"음료식품 - 기타음료식품","category":"food"},{"name":"정관장 소하점","tel":"02-899-2304","addr":"경기도 광명시 소하동 1380번지 행운드림프라자 101-1호","indutype":"건강식품 - 홍삼제품","category":"food"}]},{"lat":"37.43487731","long":"126.8806494","imageIndex":7,"items":[{"name":"재미방앗간","tel":"02-898-0485","addr":"경기도 광명시 소하동 1266-1번지 명지빌라","indutype":"음료식품 - 제과점","category":"food"}]},{"lat":"37.43469106","long":"126.8835423","imageIndex":7,"items":[{"name":"정민유통","tel":"","addr":"경기도 광명시 소하동 1259번지 성화빌라 지층 4호","indutype":"음료식품 - 기타음료식품","category":"food"}]},{"lat":"37.43479691","long":"126.8813162","imageIndex":7,"items":[{"name":"주부정육점","tel":"02-897-3575","addr":"경기도 광명시 소하동 1264번지 현대상가 103호","indutype":"음료식품 - 정육점","category":"food"}]},{"lat":"37.44422626","long":"126.8956638","imageIndex":7,"items":[{"name":"주식회사 디디엠플러스","tel":"","addr":"경기도 광명시 소하동 1345번지 광명테크노파크 D동 614-2호","indutype":"건강식품 - 홍삼제품","category":"food"}]},{"lat":"37.44804889","long":"126.8885952","imageIndex":7,"items":[{"name":"주식회사 블레싱커피로스터스","tel":"02-1111-1111","addr":"경기도 광명시 소하동 1321-2번지 102호","indutype":"음료식품 - 기타음료식품","category":"food"}]},{"lat":"37.44784674","long":"126.8939748","imageIndex":7,"items":[{"name":"중원상회","tel":"02-2689-5838","addr":"경기도 광명시 소하동 1366번지 신촌휴먼시아2단지아파트","indutype":"음료식품 - 농·축·수산품","category":"food"}]},{"lat":"37.44235582","long":"126.8808407","imageIndex":7,"items":[{"name":"지웅이네 농장","tel":"02-898-4767","addr":"경기도 광명시 소하동 292-2","indutype":"음료식품 - 농·축·수산품","category":"food"}]},{"lat":"37.43468961","long":"126.8821186","imageIndex":7,"items":[{"name":"쪽빛하늘갈매빛땅","tel":"02-899-6555","addr":"경기도 광명시 소하동 1262번지 대원하이츠","indutype":"음료식품 - 미곡상","category":"food"}]},{"lat":"37.43271418","long":"126.8799524","imageIndex":7,"items":[{"name":"찬앤락","tel":"02-868-8702","addr":"경기도 광명시 소하동 1381-6번지 102호","indutype":"음료식품 - 기타음료식품","category":"food"}]},{"lat":"37.43729494","long":"126.8928149","imageIndex":7,"items":[{"name":"청춘정육","tel":"02-899-9190","addr":"경기도 광명시 소하동 681-5번지 1층","indutype":"음료식품 - 정육점","category":"food"}]},{"lat":"37.45098977","long":"126.8923993","imageIndex":7,"items":[{"name":"청해수산","tel":"","addr":"경기도 광명시 소하동 30-11번지 1층","indutype":"음료식품 - 농·축·수산품","category":"food"}]},{"lat":"37.43421851","long":"126.8796223","imageIndex":7,"items":[{"name":"축산물 판매장","tel":"031-444-9888","addr":"경기도 광명시 소하동 1268-7번지 광명빌딩 102호","indutype":"음료식품 - 정육점","category":"food"}]},{"lat":"37.43374469","long":"126.8746403","imageIndex":7,"items":[{"name":"콩이맘","tel":"070-7571-6750","addr":"경기도 광명시 소하동 1104-3번지 뉴한신빌라 A동 401호","indutype":"건강식품 - 기타건강식품","category":"food"}]},{"lat":"37.43712698","long":"126.8779339","imageIndex":7,"items":[{"name":"태양떡방앗간","tel":"02-899-4703","addr":"경기도 광명시 소하동 911-22번지","indutype":"음료식품 - 제과점","category":"food"},{"name":"홍삼마트","tel":"02-899-4952","addr":"경기도 광명시 소하동 911-22번지","indutype":"건강식품 - 홍삼제품","category":"food"}]},{"lat":"37.43682214","long":"126.8793695","imageIndex":7,"items":[{"name":"풍기인삼농협소하지점","tel":"02-897-0933","addr":"경기도 광명시 소하동 913-3번지","indutype":"건강식품 - 인삼제품","category":"food"}]},{"lat":"37.45134884","long":"126.8909861","imageIndex":7,"items":[{"name":"하이몬드","tel":"02-899-8991","addr":"경기도 광명시 소하동 35-2번지 1층 103호","indutype":"음료식품 - 제과점","category":"food"}]},{"lat":"37.45588152","long":"126.8824801","imageIndex":7,"items":[{"name":"한나라교회","tel":"02-887-4080","addr":"경기도 광명시 소하동 1280번지","indutype":"음료식품 - 기타음료식품","category":"food"}]},{"lat":"37.45138408","long":"126.8810633","imageIndex":7,"items":[{"name":"한마음영어영농조합법인","tel":"02-898-4830","addr":"경기도 광명시 소하동 135-3번지","indutype":"음료식품 - 기타음료식품","category":"food"}]},{"lat":"37.43993942","long":"126.8791835","imageIndex":7,"items":[{"name":"한빛종합식품","tel":"02-899-7441","addr":"경기도 광명시 소하동 320-6번지","indutype":"음료식품 - 기타음료식품","category":"food"}]},{"lat":"37.45160186","long":"126.8917655","imageIndex":7,"items":[{"name":"한우리주류","tel":"02-898-1112","addr":"경기도 광명시 소하동 34-45번지","indutype":"음료식품 - 주류 판매점","category":"food"}]},{"lat":"37.43495846","long":"126.8807058","imageIndex":7,"items":[{"name":"행복한야채","tel":"02-778-4130","addr":"경기도 광명시 소하동 1266-1번지 명지빌라 13동 B02호","indutype":"음료식품 - 농·축·수산품","category":"food"}]},{"lat":"37.4326655","long":"126.8765064","imageIndex":7,"items":[{"name":"행운유통","tel":"02-1111-1111","addr":"경기도 광명시 소하동 950-9번지 현대빌라 다동 101호","indutype":"음료식품 - 기타음료식품","category":"food"}]},{"lat":"37.43482909","long":"126.8776214","imageIndex":7,"items":[{"name":"행원사회적협동조합","tel":"02-899-1113","addr":"경기도 광명시 소하동 937-2번지 1층","indutype":"음료식품 - 기타음료식품","category":"food"}]},{"lat":"37.43504474","long":"126.8770674","imageIndex":7,"items":[{"name":"홍능정육점","tel":"02-897-5612","addr":"경기도 광명시 소하동 936-1번지 명지빌라 지하 2호","indutype":"음료식품 - 정육점","category":"food"}]},{"lat":"37.4379386","long":"126.8786219","imageIndex":7,"items":[{"name":"홍대식품","tel":"","addr":"경기도 광명시 소하동 909-23번지 101호","indutype":"음료식품 - 기타음료식품","category":"food"}]},{"lat":"37.43582183","long":"126.879179","imageIndex":7,"items":[{"name":"화이트브레드(White Bread)","tel":"02-899-3469","addr":"경기도 광명시 소하동 920-5번지 1층","indutype":"음료식품 - 제과점","category":"food"}]}]