[{"lat":"36.99865965","long":"127.16888866","imageIndex":7,"items":[{"name":"공도떡방앗간","tel":"031-654-4982","addr":"경기도 안성시 공도읍 만정리 417-58","indutype":"음료식품 - 제과점","category":"food"}]},{"lat":"37.000385192","long":"127.17208297","imageIndex":7,"items":[{"name":"나무와숲주식회사","tel":"031-1544-2262","addr":"경기도 안성시 공도읍 만정리 817-2번지 우성메디컬프라자 1동 205호","indutype":"회원제형태 - 건강식품","category":"food"}]},{"lat":"37.029546502","long":"127.1763846","imageIndex":7,"items":[{"name":"농업회사법인주식회사지에스바이오","tel":"02-3448-4500","addr":"경기도 안성시 공도읍 만정리 572-4번지","indutype":"음료식품 - 농·축·수산품","category":"food"}]},{"lat":"37.000911622","long":"127.16938787","imageIndex":7,"items":[{"name":"다모아","tel":"02-4480-0827","addr":"경기도 안성시 공도읍 만정리 804-4번지","indutype":"음료식품 - 기타음료식품","category":"food"},{"name":"헤이데이 (hey day)","tel":"","addr":"경기도 안성시 공도읍 만정리 804-4번지","indutype":"음료식품 - 기타음료식품","category":"food"}]},{"lat":"37.001297887","long":"127.17651139","imageIndex":7,"items":[{"name":"다온유통","tel":"","addr":"경기도 안성시 공도읍 만정리 880번지 디자인시티블루밍 117동 702호","indutype":"음료식품 - 기타음료식품","category":"food"}]},{"lat":"37.001354241","long":"127.17493868","imageIndex":7,"items":[{"name":"도담건강식품","tel":"031-955-0852","addr":"경기도 안성시 공도읍 만정리 274-3번지 골드일번가 304호","indutype":"건강식품 - 기타건강식품","category":"food"},{"name":"맞춤비타민","tel":"031-653-5579","addr":"경기도 안성시 공도읍 만정리 274-3번지","indutype":"건강식품 - 기타건강식품","category":"food"},{"name":"빚은안성공도점","tel":"031-652-5988","addr":"경기도 안성시 공도읍 만정리 274-3번지 골든일번가 112호","indutype":"음료식품 - 제과점","category":"food"},{"name":"빵빚는 고을","tel":"031-653-9616","addr":"경기도 안성시 공도읍 만정리 274-3번지 1층 104호","indutype":"음료식품 - 제과점","category":"food"}]},{"lat":"36.999187797","long":"127.17136133","imageIndex":7,"items":[{"name":"돈이축산","tel":"031-652-4567","addr":"경기도 안성시 공도읍 만정리 424-51번지 지층","indutype":"음료식품 - 농·축·수산품","category":"food"}]},{"lat":"36.999494717","long":"127.17096881","imageIndex":7,"items":[{"name":"뚜레쥬르안성공도점","tel":"031-657-0042","addr":"경기도 안성시 공도읍 만정리 421-6번지 1층","indutype":"음료식품 - 제과점","category":"food"}]},{"lat":"36.998857381","long":"127.16924858","imageIndex":7,"items":[{"name":"라파엘","tel":"","addr":"경기도 안성시 공도읍 만정리 425-2번지 2층","indutype":"건강식품 - 기타건강식품","category":"food"}]},{"lat":"37.001046514","long":"127.16957915","imageIndex":7,"items":[{"name":"루비케이크","tel":"031-676-7644","addr":"경기도 안성시 공도읍 만정리 804-7번지 1층","indutype":"음료식품 - 제과점","category":"food"}]},{"lat":"37.001964272","long":"127.17052486","imageIndex":7,"items":[{"name":"리리","tel":"031-654-0118","addr":"경기도 안성시 공도읍 만정리 799-3번지 샤인빌상가동","indutype":"음료식품 - 기타음료식품","category":"food"},{"name":"마가의 다락방","tel":"031-111-1111","addr":"경기도 안성시 공도읍 만정리 799-3번지 상가","indutype":"음료식품 - 기타음료식품","category":"food"}]},{"lat":"36.999685431","long":"127.16991321","imageIndex":7,"items":[{"name":"베스킨라빈스/안성공도","tel":"031-653-0506","addr":"경기도 안성시 공도읍 만정리 820-1번지","indutype":"음료식품 - 제과점","category":"food"}]},{"lat":"36.999912325","long":"127.17508148","imageIndex":7,"items":[{"name":"벽산한우마을","tel":"031-657-0882","addr":"경기도 안성시 공도읍 만정리 880 벽산블루밍상가1층105호","indutype":"음료식품 - 정육점","category":"food"},{"name":"블럭제빵소","tel":"031-652-0582","addr":"경기도 안성시 공도읍 만정리 880번지 디자인시티블루밍 상가1동 상가 1동 106호","indutype":"음료식품 - 제과점","category":"food"},{"name":"오레시피","tel":"031-111-1111","addr":"경기도 안성시 공도읍 만정리 880번지 디자인시티블루밍 제2상가동 지하 103호","indutype":"음료식품 - 기타음료식품","category":"food"},{"name":"올후레쉬","tel":"031-691-6977","addr":"경기도 안성시 공도읍 만정리 880번지 디자인시티블루밍 130호","indutype":"음료식품 - 농·축·수산품","category":"food"},{"name":"푸른마을농수산(구평안과일)","tel":"031-691-5527","addr":"경기도 안성시 공도읍 만정리 880,1-102","indutype":"음료식품 - 농·축·수산품","category":"food"}]},{"lat":"37.000190265","long":"127.1697458","imageIndex":7,"items":[{"name":"새찬축산식당","tel":"031-692-9289","addr":"경기도 안성시 공도읍 만정리 815-2번지","indutype":"음료식품 - 정육점","category":"food"}]},{"lat":"37.019520089","long":"127.18082297","imageIndex":7,"items":[{"name":"소나무목장","tel":"031-653-2111","addr":"경기도 안성시 공도읍 만정리 50번지","indutype":"음료식품 - 농·축·수산품","category":"food"}]},{"lat":"37.00299212","long":"127.17635795","imageIndex":7,"items":[{"name":"신나는점핑","tel":"031-654-4660","addr":"경기도 안성시 공도읍 만정리 709-2번지 302호","indutype":"건강식품 - 기타건강식품","category":"food"}]},{"lat":"37.005469817","long":"127.1825766","imageIndex":7,"items":[{"name":"신진농장","tel":"031-655-2494","addr":"경기도 안성시 공도읍 만정리 311-9번지","indutype":"음료식품 - 정육점","category":"food"}]},{"lat":"37.005109097","long":"127.17672228","imageIndex":7,"items":[{"name":"아싸유통","tel":"031-659-0280","addr":"경기도 안성시 공도읍 만정리 701번지 1층 구내식당","indutype":"음료식품 - 기타음료식품","category":"food"}]},{"lat":"36.99901962","long":"127.16921523","imageIndex":7,"items":[{"name":"엄마의 레시피","tel":"031-656-1231","addr":"경기도 안성시 공도읍 만정리 417-51번지 1층 101호","indutype":"음료식품 - 기타음료식품","category":"food"}]},{"lat":"37.005882413","long":"127.18382468","imageIndex":7,"items":[{"name":"영풍","tel":"031-677-1482","addr":"경기도 안성시 공도읍 만정리 306번지","indutype":"음료식품 - 농·축·수산품","category":"food"}]},{"lat":"37.002352285","long":"127.1701325","imageIndex":7,"items":[{"name":"우리and아이 반찬","tel":"031-655-4467","addr":"경기도 안성시 공도읍 만정리 798-1번지 1층","indutype":"음료식품 - 기타음료식품","category":"food"}]},{"lat":"36.998881912","long":"127.17102363","imageIndex":7,"items":[{"name":"우리청과","tel":"","addr":"경기도 안성시 공도읍 만정리 424-42번지","indutype":"음료식품 - 농·축·수산품","category":"food"}]},{"lat":"37.008101224","long":"127.17632462","imageIndex":7,"items":[{"name":"우일폴리텍 안성","tel":"031-650-7220","addr":"경기도 안성시 공도읍 만정리 349-6번지 한국폴리텍여자대학","indutype":"음료식품 - 기타음료식품","category":"food"}]},{"lat":"37.00343333","long":"127.17657242","imageIndex":7,"items":[{"name":"이든네이처(안성공도지사)","tel":"031-654-4044","addr":"경기도 안성시 공도읍 만정리 279-35번지 2층 208호","indutype":"건강식품 - 기타건강식품","category":"food"}]},{"lat":"36.999550934","long":"127.16944107","imageIndex":7,"items":[{"name":"정관장 (공도점)","tel":"031-655-2304","addr":"경기도 안성시 공도읍 만정리 417-18번지 6호","indutype":"건강식품 - 홍삼제품","category":"food"}]},{"lat":"37.004713755","long":"127.18202431","imageIndex":7,"items":[{"name":"직거래수산","tel":"031-651-8865","addr":"경기도 안성시 공도읍 만정리 302-9번지 1층","indutype":"음료식품 - 농·축·수산품","category":"food"}]},{"lat":"36.998606604","long":"127.16815833","imageIndex":7,"items":[{"name":"참선진녹즙","tel":"031-651-1224","addr":"경기도 안성시 공도읍 만정리 426-7","indutype":"건강식품 - 기타건강식품","category":"food"}]},{"lat":"37.007719606","long":"127.18446945","imageIndex":7,"items":[{"name":"케익하우스","tel":"031-655-3094","addr":"경기도 안성시 공도읍 만정리 149-7번지 107호","indutype":"음료식품 - 제과점","category":"food"}]},{"lat":"37.000026187","long":"127.17108232","imageIndex":7,"items":[{"name":"파리바게뜨 안성공도","tel":"031-658-0455","addr":"경기도 안성시 공도읍 만정리 821-1번지 성지프라자 105호","indutype":"음료식품 - 제과점","category":"food"}]},{"lat":"37.003626242","long":"127.17403378","imageIndex":7,"items":[{"name":"풍년청과","tel":"031-573-8898","addr":"경기도 안성시 공도읍 만정리 788-4번지 경기도시공사참아름 502동 603호","indutype":"음료식품 - 농·축·수산품","category":"food"}]},{"lat":"37.002605011","long":"127.16982971","imageIndex":7,"items":[{"name":"피크닉테이블","tel":"031-651-8882","addr":"경기도 안성시 공도읍 만정리 796-2번지 가동 1층","indutype":"음료식품 - 기타음료식품","category":"food"}]},{"lat":"37.000106852","long":"127.17138582","imageIndex":7,"items":[{"name":"픽미픽미","tel":"","addr":"경기도 안성시 공도읍 만정리 821-2번지 106호","indutype":"음료식품 - 기타음료식품","category":"food"}]},{"lat":"36.999242657","long":"127.17079974","imageIndex":7,"items":[{"name":"한세유통내정육코너","tel":"031-651-8093","addr":"경기도 안성시 공도읍 만정리 422","indutype":"음료식품 - 정육점","category":"food"}]},{"lat":"37.006157636","long":"127.18649931","imageIndex":7,"items":[{"name":"환영농원","tel":"031-691-1084","addr":"경기도 안성시 공도읍 만정리 746-3번지","indutype":"음료식품 - 농·축·수산품","category":"food"}]}]