[{"lat":"37.47172122","long":"127.3151581","imageIndex":17,"items":[{"name":"GS25광주남촌점","tel":"","addr":"경기도 광주시 퇴촌면 도수리 611-1번지","indutype":"유통업 영리 - 편 의 점","category":"other"},{"name":"GS25광주남촌점","tel":"","addr":"경기도 광주시 퇴촌면 도수리 611-1번지","indutype":"유통업 영리 - 상품권전문판매","category":"other"},{"name":"남촌세탁소","tel":"031-767-6600","addr":"경기도 광주시 퇴촌면 도수리 611-1번지","indutype":"수리서비스 - 세탁소","category":"other"},{"name":"애견멀티샵","tel":"031-769-0217","addr":"경기도 광주시 퇴촌면 도수리 611-1번지 105호","indutype":"문화.취미 - 애완동물","category":"other"},{"name":"에디슨 전기조명","tel":"031-769-0390","addr":"경기도 광주시 퇴촌면 도수리 611-1번지","indutype":"건축자재 - 조명기구","category":"other"}]},{"lat":"37.47057709","long":"127.3151082","imageIndex":17,"items":[{"name":"경기농자재 광주점","tel":"031-1588-0537","addr":"경기도 광주시 퇴촌면 도수리 345-10번지 한양빌딩 1층","indutype":"농업 - 기타농업관련","category":"other"}]},{"lat":"37.47238816","long":"127.3150818","imageIndex":17,"items":[{"name":"다올아트","tel":"031-765-6471","addr":"경기도 광주시 퇴촌면 도수리 618-17번지 105호","indutype":"용역 서비스 - 종합용역","category":"other"},{"name":"효성설비공사","tel":"031-769-5558","addr":"경기도 광주시 퇴촌면 도수리 618-17번지","indutype":"용역 서비스 - 기타용역서비스","category":"other"}]},{"lat":"37.47160753","long":"127.336964","imageIndex":17,"items":[{"name":"드림통상","tel":"070-8265-4123","addr":"경기도 광주시 퇴촌면 도수리 179-11번지 1층","indutype":"레져용품 - 스포츠·레져용품","category":"other"}]},{"lat":"37.46866035","long":"127.3176097","imageIndex":17,"items":[{"name":"마스(MAS)건설주식회사","tel":"031-766-3377","addr":"경기도 광주시 퇴촌면 도수리 339-2","indutype":"건축자재 - 인테리어전문","category":"other"}]},{"lat":"37.47483133","long":"127.3438857","imageIndex":17,"items":[{"name":"만사형통","tel":"031-761-7333","addr":"경기도 광주시 퇴촌면 도수리 128-7번지","indutype":"용역 서비스 - 사무서비스","category":"other"}]},{"lat":"37.47358192","long":"127.313391","imageIndex":17,"items":[{"name":"미성","tel":"02-2654-0111","addr":"경기도 광주시 퇴촌면 도수리 632-15 한국전원빌라 101 9/","indutype":"회원제형태 - 기타4","category":"other"}]},{"lat":"37.47146815","long":"127.3352677","imageIndex":17,"items":[{"name":"바빌론","tel":"031-797-4227","addr":"경기도 광주시 퇴촌면 도수리 179-12번지 2호","indutype":"의류 - 정장","category":"other"},{"name":"제이슨커스텀","tel":"","addr":"경기도 광주시 퇴촌면 도수리 179-12번지","indutype":"문화.취미 - 문화취미기타","category":"other"},{"name":"태산겔러리","tel":"031-763-1235","addr":"경기도 광주시 퇴촌면 도수리 179-12번지","indutype":"가구 - 기타가구","category":"other"}]},{"lat":"37.47582868","long":"127.3479374","imageIndex":17,"items":[{"name":"반석원","tel":"031-767-5707","addr":"경기도 광주시 퇴촌면 도수리 108-6","indutype":"건축자재 - 기타건축자재","category":"other"}]},{"lat":"37.47116097","long":"127.3157775","imageIndex":17,"items":[{"name":"씨유광주퇴촌점","tel":"031-768-1111","addr":"경기도 광주시 퇴촌면 도수리 354-1번지","indutype":"유통업 영리 - 편 의 점","category":"other"},{"name":"헤나에스테틱","tel":"031-761-5446","addr":"경기도 광주시 퇴촌면 도수리 354-1","indutype":"회원제형태 - 기타4","category":"other"}]},{"lat":"37.47227219","long":"127.3146404","imageIndex":17,"items":[{"name":"야니","tel":"","addr":"경기도 광주시 퇴촌면 도수리 618-22번지 103,104호","indutype":"의류 - 정장","category":"other"}]},{"lat":"37.47466192","long":"127.3494695","imageIndex":17,"items":[{"name":"에스더캐슬&시온스튜디오","tel":"031-798-9003","addr":"경기도 광주시 퇴촌면 도수리 117-1번지","indutype":"의류 - 정장","category":"other"}]},{"lat":"37.4688899","long":"127.3325546","imageIndex":17,"items":[{"name":"엔틱캐슬","tel":"031-708-6561","addr":"경기도 광주시 퇴촌면 도수리 275-13번지","indutype":"가구 - 기타가구","category":"other"}]},{"lat":"37.47813708","long":"127.3503787","imageIndex":17,"items":[{"name":"원각예술원","tel":"","addr":"경기도 광주시 퇴촌면 도수리 91-1번지","indutype":"문화.취미 - 민예·공예품","category":"other"}]},{"lat":"37.46752118","long":"127.3190744","imageIndex":17,"items":[{"name":"이가","tel":"031-4127-2704","addr":"경기도 광주시 퇴촌면 도수리 331-1번지","indutype":"가구 - 기타가구","category":"other"},{"name":"잔듸와 도그농원","tel":"031-767-7040","addr":"경기도 광주시 퇴촌면 도수리 331-1번지","indutype":"건축자재 - 인테리어전문","category":"other"}]},{"lat":"37.46930074","long":"127.3173524","imageIndex":17,"items":[{"name":"이앤아이코퍼레이션(e&I croperation)","tel":"031-794-3038","addr":"경기도 광주시 퇴촌면 도수리 348-3","indutype":"건축자재 - 조명기구","category":"other"}]},{"lat":"37.47264654","long":"127.3161794","imageIndex":17,"items":[{"name":"익루스 씨엔씨(C&C)","tel":"031-767-2759","addr":"경기도 광주시 퇴촌면 도수리 568-1번지 서광아트빌 C동 402호","indutype":"회원제형태 - 기타4","category":"other"}]},{"lat":"37.46952619","long":"127.3172742","imageIndex":17,"items":[{"name":"주식회사이라이팅","tel":"031-794-3038","addr":"경기도 광주시 퇴촌면 도수리 348-1번지","indutype":"건축자재 - 조명기구","category":"other"}]},{"lat":"37.47360614","long":"127.3500186","imageIndex":17,"items":[{"name":"참수리타운하우스","tel":"031-1599-9361","addr":"경기도 광주시 퇴촌면 도수리 80-7번지","indutype":"용역 서비스 - 부동산 중개·임대","category":"other"}]},{"lat":"37.47361963","long":"127.3161722","imageIndex":17,"items":[{"name":"청소하는 날","tel":"","addr":"경기도 광주시 퇴촌면 도수리 566번지 노블레스 101동 102호","indutype":"용역 서비스 - 종합용역","category":"other"}]},{"lat":"37.46594551","long":"127.3220293","imageIndex":17,"items":[{"name":"크린 임가네(청소대행)","tel":"031-1670-3539","addr":"경기도 광주시 퇴촌면 도수리 313번지","indutype":"용역 서비스 - 종합용역","category":"other"}]},{"lat":"37.4722065","long":"127.3156349","imageIndex":17,"items":[{"name":"태양공조","tel":"","addr":"경기도 광주시 퇴촌면 도수리 618-3번지 한성빌라","indutype":"수리서비스 - 가정용품수리","category":"other"}]},{"lat":"37.46983202","long":"127.3174676","imageIndex":17,"items":[{"name":"테크니컬커스터머서비스유한책임회사","tel":"070-7166-5646","addr":"경기도 광주시 퇴촌면 도수리 349번지 천지빌라 101호","indutype":"수리서비스 - 사무·통신기기수리","category":"other"}]},{"lat":"37.47458195","long":"127.3168319","imageIndex":17,"items":[{"name":"토탈그린공조","tel":"031-000-0000","addr":"경기도 광주시 퇴촌면 도수리 562번지 샤르망 101동 301호","indutype":"용역 서비스 - 기타용역서비스","category":"other"}]},{"lat":"37.47101492","long":"127.3164891","imageIndex":17,"items":[{"name":"토토스카이","tel":"031-798-1523","addr":"경기도 광주시 퇴촌면 도수리 354-13번지 대영파크1차 A동 101호","indutype":"용역 서비스 - 기타용역서비스","category":"other"}]},{"lat":"37.4721616","long":"127.3155782","imageIndex":17,"items":[{"name":"퇴촌콜벤","tel":"031-762-7988","addr":"경기도 광주시 퇴촌면 도수리 618-3번지 한성빌라 3층 301호","indutype":"여행 - 기타교통수단","category":"other"}]},{"lat":"37.46752607","long":"127.3206117","imageIndex":17,"items":[{"name":"파인제이 fine-j","tel":"","addr":"경기도 광주시 퇴촌면 도수리 397-4번지 샬로츠빌","indutype":"의류 - 정장","category":"other"}]}]