[{"lat":"37.318698679","long":"126.9196239","imageIndex":16,"items":[{"name":"군포시립송안어린이집[아이행복]","tel":"031-501-0080","addr":"경기도 군포시 도마교동 458번지 금강펜테리움센트럴파크2차","indutype":"학원 - 유아원","category":"study"}]},{"lat":"37.317147616","long":"126.91778675","imageIndex":16,"items":[{"name":"군포시립송정어린이집[아이행복]","tel":"031-502-7070","addr":"경기도 군포시 도마교동 456번지 금강펜테리움센트럴파크1차","indutype":"학원 - 유아원","category":"study"},{"name":"꼬마둥지어린이집[아이행복]","tel":"031-438-7377","addr":"경기도 군포시 도마교동 456번지 금강펜테리움센트럴파크1차 107동 103호","indutype":"학원 - 유아원","category":"study"},{"name":"아이사랑 어린이집[아이행복]","tel":"031-502-0077","addr":"경기도 군포시 도마교동 456번지 금강펜테리움센트럴파크1차 102동 104호","indutype":"학원 - 유아원","category":"study"}]},{"lat":"37.313818146","long":"126.92400625","imageIndex":16,"items":[{"name":"군포시립숲속반디채어린이집[아이행복]","tel":"031-000-0000","addr":"경기도 군포시 도마교동 479번지 숲속반디채","indutype":"학원 - 유아원","category":"study"}]},{"lat":"37.315535226","long":"126.91839775","imageIndex":16,"items":[{"name":"금강 전진효 태권도","tel":"031-501-1232","addr":"경기도 군포시 도마교동 488번지 백산프라자 401호","indutype":"학원 - 예·체능계학원","category":"study"},{"name":"엠베스트SE군포송점점학원","tel":"031-407-6700","addr":"경기도 군포시 도마교동 488번지 백산프라자 402호","indutype":"학원 - 보습학원","category":"study"}]},{"lat":"37.315950129","long":"126.91900647","imageIndex":16,"items":[{"name":"라온음악학원","tel":"031-502-9255","addr":"경기도 군포시 도마교동 488-2번지 송정더드림 4층 401호","indutype":"학원 - 예·체능계학원","category":"study"},{"name":"링크영어학원","tel":"031-360-0099","addr":"경기도 군포시 도마교동 488-2번지 송정더드림 402호","indutype":"학원 - 보습학원","category":"study"},{"name":"윤선생 우리집앞 영어교실 펜테리움1차","tel":"070-4187-0594","addr":"경기도 군포시 도마교동 488-2번지 403-1호","indutype":"학원 - 외국어학원","category":"study"},{"name":"윤선생우리집앞영어교실금강펜테리움1차영","tel":"070-4189-0594","addr":"경기도 군포시 도마교동 488-2번지 송정더드림 4층 403-1호","indutype":"학원 - 보습학원","category":"study"},{"name":"필즈학원","tel":"031-409-2357","addr":"경기도 군포시 도마교동 488-2번지 404,405호","indutype":"학원 - 보습학원","category":"study"},{"name":"한양대스타태권도장","tel":"031-407-5863","addr":"경기도 군포시 도마교동 488-2번지 6층","indutype":"학원 - 예·체능계학원","category":"study"}]},{"lat":"37.316175663","long":"126.91940106","imageIndex":16,"items":[{"name":"뮤엠영어송안초점학원","tel":"031-418-1212","addr":"경기도 군포시 도마교동 488-4번지 403호","indutype":"학원 - 외국어학원","category":"study"}]}]