[{"lat":"37.010692002","long":"127.27073433","imageIndex":17,"items":[{"name":"(주)대일관광여행사","tel":"031-677-2662","addr":"경기도 안성시 연지동 94번지","indutype":"여행 - 관광여행","category":"other"},{"name":"가이드통신","tel":"031-676-0016","addr":"경기도 안성시 연지동 94번지","indutype":"사무통신 - 통신기기","category":"other"},{"name":"대일모두투어","tel":"031-671-3662","addr":"경기도 안성시 연지동 94번지","indutype":"여행 - 관광여행","category":"other"},{"name":"스마트폰아이","tel":"031-672-0995","addr":"경기도 안성시 연지동 94번지","indutype":"사무통신 - 통신기기","category":"other"}]},{"lat":"37.009743987","long":"127.27157368","imageIndex":17,"items":[{"name":"뉴텍컴퓨터","tel":"031-675-4570","addr":"경기도 안성시 연지동 54번지","indutype":"사무통신 - 컴퓨터","category":"other"},{"name":"뉴텍컴퓨터 서비스센터","tel":"031-676-9807","addr":"경기도 안성시 연지동 54번지","indutype":"사무통신 - 컴퓨터","category":"other"},{"name":"에프트에프 기획","tel":"031-674-0705","addr":"경기도 안성시 연지동 54번지 2층","indutype":"용역 서비스 - 사무서비스","category":"other"},{"name":"우성종합사무기(특별할부)","tel":"031-674-1992","addr":"경기도 안성시 연지동 54번지","indutype":"사무통신 - 사무용 OA기기","category":"other"}]},{"lat":"37.010270631","long":"127.26978905","imageIndex":17,"items":[{"name":"닥종이공예마을","tel":"031-672-0152","addr":"경기도 안성시 연지동 142번지","indutype":"문화.취미 - 문화취미기타","category":"other"}]},{"lat":"37.009440519","long":"127.27029175","imageIndex":17,"items":[{"name":"디몰","tel":"031-676-2332","addr":"경기도 안성시 연지동 120번지","indutype":"의류 - 정장","category":"other"},{"name":"컬러플라워","tel":"031-677-7110","addr":"경기도 안성시 연지동 120번지","indutype":"문화.취미 - 화원","category":"other"}]},{"lat":"37.010693193","long":"127.27020625","imageIndex":17,"items":[{"name":"리얼 띵","tel":"","addr":"경기도 안성시 연지동 127-2번지 1층","indutype":"의류 - 정장","category":"other"},{"name":"안성인포","tel":"031-671-9122","addr":"경기도 안성시 연지동 127-2번지","indutype":"서적문구 - 출판 및 인쇄물","category":"other"}]},{"lat":"37.009387265","long":"127.26993202","imageIndex":17,"items":[{"name":"마망엘리펀트","tel":"070-8873-9151","addr":"경기도 안성시 연지동 152-1번지 105호","indutype":"의류 - 정장","category":"other"},{"name":"스쿨룩스","tel":"031-674-3034","addr":"경기도 안성시 연지동 152-1번지","indutype":"의류 - 단체복","category":"other"},{"name":"스쿨룩스","tel":"031-651-1861","addr":"경기도 안성시 연지동 152-1번지","indutype":"의류 - 단체복","category":"other"},{"name":"유진스포츠","tel":"031-673-3900","addr":"경기도 안성시 연지동 152-1번지","indutype":"레져용품 - 스포츠·레져용품","category":"other"}]},{"lat":"37.009855765","long":"127.26995613","imageIndex":17,"items":[{"name":"모나미 스테이션 안성점","tel":"031-675-5949","addr":"경기도 안성시 연지동 146-3번지","indutype":"서적문구 - 문구용품","category":"other"}]},{"lat":"37.010637482","long":"127.27093639","imageIndex":17,"items":[{"name":"브론즈","tel":"031-675-9531","addr":"경기도 안성시 연지동 95번지","indutype":"신변잡화 - 액세서리","category":"other"}]},{"lat":"37.01077254","long":"127.2709818","imageIndex":17,"items":[{"name":"삼천리자전거안성점","tel":"031-673-3002","addr":"경기도 안성시 연지동 91-1번지","indutype":"레져용품 - 스포츠·레져용품","category":"other"}]},{"lat":"37.009611543","long":"127.270371","imageIndex":17,"items":[{"name":"스마트학생복","tel":"031-673-0219","addr":"경기도 안성시 연지동 120-1번지","indutype":"의류 - 단체복","category":"other"}]},{"lat":"37.010521865","long":"127.27026183","imageIndex":17,"items":[{"name":"승진사","tel":"031-672-1934","addr":"경기도 안성시 연지동 128번지","indutype":"신변잡화 - 기념품점","category":"other"}]},{"lat":"37.009305487","long":"127.2702351","imageIndex":17,"items":[{"name":"싸다구","tel":"031-675-5969","addr":"경기도 안성시 연지동 118번지 1층","indutype":"서적문구 - 완구점","category":"other"}]},{"lat":"37.010358991","long":"127.27056463","imageIndex":17,"items":[{"name":"쎈텐(SSEN10)학생복","tel":"031-673-8928","addr":"경기도 안성시 연지동 102번지","indutype":"의류 - 맞춤복점","category":"other"},{"name":"엘리트학생복(안성점)","tel":"031-674-5258","addr":"경기도 안성시 연지동 102번지","indutype":"의류 - 단체복","category":"other"},{"name":"엘리트학생복안성점","tel":"031-677-1420","addr":"경기도 안성시 연지동 102번지","indutype":"의류 - 단체복","category":"other"}]},{"lat":"37.00952404","long":"127.26921341","imageIndex":17,"items":[{"name":"씨원정보통신","tel":"070-5022-1775","addr":"경기도 안성시 연지동 160번지 1층","indutype":"용역 서비스 - 기타용역서비스","category":"other"}]},{"lat":"37.010548087","long":"127.27062147","imageIndex":17,"items":[{"name":"아이비클럽","tel":"031-672-0704","addr":"경기도 안성시 연지동 97번지","indutype":"의류 - 단체복","category":"other"}]},{"lat":"37.011241394","long":"127.27084862","imageIndex":17,"items":[{"name":"안성농협금산지점","tel":"031-677-1881","addr":"경기도 안성시 연지동 5번지","indutype":"유통업 비영리 - 농,축협 직영매장","category":"other"}]},{"lat":"37.010133954","long":"127.27046271","imageIndex":17,"items":[{"name":"안성서점","tel":"031-675-3789","addr":"경기도 안성시 연지동 105번지","indutype":"서적문구 - 일반서적","category":"other"}]},{"lat":"37.009853562","long":"127.27093363","imageIndex":17,"items":[{"name":"알톤자전거","tel":"031-671-3333","addr":"경기도 안성시 연지동 61번지 1층 101호","indutype":"레져용품 - 스포츠·레져용품","category":"other"}]},{"lat":"37.009999606","long":"127.2701027","imageIndex":17,"items":[{"name":"에리트학생복안성점","tel":"031-674-5258","addr":"경기도 안성시 연지동 143번지","indutype":"의류 - 맞춤복점","category":"other"}]},{"lat":"37.010492323","long":"127.27137407","imageIndex":17,"items":[{"name":"에스포지","tel":"031-677-8895","addr":"경기도 안성시 연지동 23번지","indutype":"신변잡화 - 기타잡화","category":"other"}]},{"lat":"37.009415105","long":"127.26957258","imageIndex":17,"items":[{"name":"에이피에스","tel":"031-677-8533","addr":"경기도 안성시 연지동 156번지","indutype":"주방용구 - 정수기","category":"other"}]},{"lat":"37.009581313","long":"127.27178659","imageIndex":17,"items":[{"name":"연지","tel":"031-671-0120","addr":"경기도 안성시 연지동 53번지","indutype":"건축자재 - 인테리어전문","category":"other"}]},{"lat":"37.010799876","long":"127.27084707","imageIndex":17,"items":[{"name":"예인도예공방","tel":"031-672-3509","addr":"경기도 안성시 연지동 92번지","indutype":"주방용구 - 주방용식기","category":"other"},{"name":"주연테크","tel":"031-675-7987","addr":"경기도 안성시 연지동 92번지","indutype":"사무통신 - 컴퓨터","category":"other"}]},{"lat":"37.010690428","long":"127.27143095","imageIndex":17,"items":[{"name":"조테니스샵","tel":"031-671-3407","addr":"경기도 안성시 연지동 19번지 조테니스샵","indutype":"레져용품 - 스포츠·레져용품","category":"other"},{"name":"한국전통문화콘텐츠정책연구원","tel":"031-674-5522","addr":"경기도 안성시 연지동 19번지","indutype":"용역 서비스 - 사무서비스","category":"other"}]},{"lat":"37.011051995","long":"127.27092661","imageIndex":17,"items":[{"name":"카이스트 Academy","tel":"031-672-9548","addr":"경기도 안성시 연지동 7번지 2층","indutype":"서적문구 - 일반서적","category":"other"}]},{"lat":"37.009997604","long":"127.27099032","imageIndex":17,"items":[{"name":"케이미디어(K-media)","tel":"","addr":"경기도 안성시 연지동 42번지","indutype":"전기제품 - 가전제품","category":"other"}]},{"lat":"37.010440947","long":"127.27018289","imageIndex":17,"items":[{"name":"크레파스","tel":"031-676-2906","addr":"경기도 안성시 연지동 132번지","indutype":"의류 - 양품점","category":"other"}]},{"lat":"37.009692562","long":"127.27040499","imageIndex":17,"items":[{"name":"포토폴","tel":"031-675-4047","addr":"경기도 안성시 연지동 120-2번지","indutype":"광학제품 - 사진관","category":"other"}]},{"lat":"37.01085513","long":"127.27031918","imageIndex":17,"items":[{"name":"피카소","tel":"031-675-2916","addr":"경기도 안성시 연지동 124","indutype":"광학제품 - 사진관","category":"other"}]},{"lat":"37.011106312","long":"127.27081444","imageIndex":17,"items":[{"name":"한국청년지도자연합회안성지회","tel":"031-676-1862","addr":"경기도 안성시 연지동 6번지","indutype":"기타 - 비영리/대상","category":"other"}]},{"lat":"37.009549329","long":"127.26998877","imageIndex":17,"items":[{"name":"한양지업사","tel":"031-675-6616","addr":"경기도 안성시 연지동 150번지","indutype":"직물 - 카페트,커튼,천막,지물","category":"other"}]},{"lat":"37.010332947","long":"127.27012634","imageIndex":17,"items":[{"name":"행운열쇠","tel":"031-675-1222","addr":"경기도 안성시 연지동 136번지","indutype":"건축자재 - 목재·석재·철물","category":"other"}]},{"lat":"37.009659022","long":"127.26929254","imageIndex":17,"items":[{"name":"화이트셀프크리닝","tel":"031-675-9808","addr":"경기도 안성시 연지동 157-4번지","indutype":"수리서비스 - 세탁소","category":"other"}]}]