[{"lat":"37.492741331","long":"127.23269961","imageIndex":7,"items":[{"name":"(주)다름푸드","tel":"031-793-5284","addr":"경기도 하남시 상산곡동 166-1번지 2층","indutype":"음료식품 - 정육점","category":"food"}]},{"lat":"37.502102579","long":"127.23272829","imageIndex":7,"items":[{"name":"돼지마을(아리랑바베큐)","tel":"031-793-9249","addr":"경기도 하남시 상산곡동 15번지","indutype":"음료식품 - 기타음료식품","category":"food"}]},{"lat":"37.495439915","long":"127.23494688","imageIndex":7,"items":[{"name":"먹거리장터","tel":"031-796-0653","addr":"경기도 하남시 상산곡동 145-3번지","indutype":"음료식품 - 제과점","category":"food"}]},{"lat":"37.496654289","long":"127.23133199","imageIndex":7,"items":[{"name":"비엔에프에스피(B&F SP)","tel":"031-793-3362","addr":"경기도 하남시 상산곡동 127-13번지","indutype":"음료식품 - 농·축·수산품","category":"food"}]},{"lat":"37.497743081","long":"127.22736604","imageIndex":7,"items":[{"name":"새능유통","tel":"031-792-2142","addr":"경기도 하남시 상산곡동 562-3번지","indutype":"음료식품 - 농·축·수산품","category":"food"}]},{"lat":"37.487913808","long":"127.24089367","imageIndex":7,"items":[{"name":"세현푸드","tel":"031-792-8466","addr":"경기도 하남시 상산곡동 305-5번지","indutype":"음료식품 - 미곡상","category":"food"}]},{"lat":"37.502103502","long":"127.23225331","imageIndex":7,"items":[{"name":"오채 (O Chea)","tel":"031-794-1133","addr":"경기도 하남시 상산곡동 19-8번지","indutype":"음료식품 - 정육점","category":"food"}]},{"lat":"37.497906288","long":"127.23152804","imageIndex":7,"items":[{"name":"주식회사 벙커컴퍼니","tel":"031-795-1456","addr":"경기도 하남시 상산곡동 123번지 1,2층","indutype":"음료식품 - 기타음료식품","category":"food"}]},{"lat":"37.487996784","long":"127.23542136","imageIndex":7,"items":[{"name":"주식회사명가푸드","tel":"031-795-7187","addr":"경기도 하남시 상산곡동 479-1번지 1층","indutype":"음료식품 - 정육점","category":"food"}]},{"lat":"37.487352546","long":"127.24220348","imageIndex":7,"items":[{"name":"투웰브영어영농조합","tel":"031-792-0170","addr":"경기도 하남시 상산곡동 307-4번지 외5필지(307-5,307-6,307-8,307-9,307-10)","indutype":"음료식품 - 농·축·수산품","category":"food"}]},{"lat":"37.485267258","long":"127.23517546","imageIndex":7,"items":[{"name":"해담","tel":"031-794-7136","addr":"경기도 하남시 상산곡동 437-2번지 1층","indutype":"음료식품 - 농·축·수산품","category":"food"}]},{"lat":"37.493714353","long":"127.2327252","imageIndex":7,"items":[{"name":"현미박사","tel":"031-793-3766","addr":"경기도 하남시 상산곡동 164-4번지","indutype":"음료식품 - 기타음료식품","category":"food"}]}]