[{"lat":"37.657273819","long":"126.8345134","imageIndex":4,"items":[{"name":"25시감자탕","tel":"031-965-0842","addr":"경기도 고양시 덕양구 주교동 612-6번지","indutype":"일반휴게음식 - 일반한식","category":"restaurant"},{"name":"굴다리포차","tel":"031-966-1063","addr":"경기도 고양시 덕양구 주교동 612-6번지","indutype":"일반휴게음식 - 일반한식","category":"restaurant"},{"name":"숯불왕곱창","tel":"0001-0000-0000","addr":"경기도 고양시 덕양구 주교동 612-6번지","indutype":"일반휴게음식 - 일반한식","category":"restaurant"},{"name":"제주토종똥돼지","tel":"031-963-0733","addr":"경기도 고양시 덕양구 주교동 612-6번지","indutype":"일반휴게음식 - 일반한식","category":"restaurant"},{"name":"찌개사랑","tel":"031-966-2386","addr":"경기도 고양시 덕양구 주교동 612-6번지","indutype":"일반휴게음식 - 주점","category":"restaurant"}]},{"lat":"37.655967371","long":"126.83448235","imageIndex":4,"items":[{"name":"Coffee&Been","tel":"031-979-3434","addr":"경기도 고양시 덕양구 주교동 610-6번지","indutype":"일반휴게음식 - 서양음식","category":"restaurant"},{"name":"다복이네","tel":"031-966-2962","addr":"경기도 고양시 덕양구 주교동 610-6번지","indutype":"일반휴게음식 - 일반한식","category":"restaurant"},{"name":"영앤핀치","tel":"070-8840-2299","addr":"경기도 고양시 덕양구 주교동 610-6번지","indutype":"일반휴게음식 - 일반한식","category":"restaurant"}]},{"lat":"37.656797244","long":"126.83517176","imageIndex":4,"items":[{"name":"가장맛있는족발 원당점","tel":"031-956-2345","addr":"경기도 고양시 덕양구 주교동 613-3번지","indutype":"일반휴게음식 - 일반한식","category":"restaurant"},{"name":"원당골민속주막","tel":"031-967-5443","addr":"경기도 고양시 덕양구 주교동 613-3번지","indutype":"일반휴게음식 - 일반한식","category":"restaurant"}]},{"lat":"37.657130617","long":"126.83518234","imageIndex":4,"items":[{"name":"객석플라워카페","tel":"031-966-3153","addr":"경기도 고양시 덕양구 주교동 613번지","indutype":"일반휴게음식 - 서양음식","category":"restaurant"},{"name":"보드람치킨","tel":"031-965-0465","addr":"경기도 고양시 덕양구 주교동 613번지","indutype":"일반휴게음식 - 주점","category":"restaurant"},{"name":"커피마마","tel":"031-965-8448","addr":"경기도 고양시 덕양구 주교동 613번지","indutype":"일반휴게음식 - 스넥","category":"restaurant"}]},{"lat":"37.660770402","long":"126.83509482","imageIndex":4,"items":[{"name":"걸리버숯불바베큐","tel":"031-963-9585","addr":"경기도 고양시 덕양구 주교동 580-2번지","indutype":"일반휴게음식 - 스넥","category":"restaurant"}]},{"lat":"37.659490516","long":"126.83473505","imageIndex":4,"items":[{"name":"겨울연가","tel":"031-967-3331","addr":"경기도 고양시 덕양구 주교동 583-18번지","indutype":"일반휴게음식 - 주점","category":"restaurant"},{"name":"먹브로키친","tel":"070-5214-0920","addr":"경기도 고양시 덕양구 주교동 583-18번지","indutype":"일반휴게음식 - 일반한식","category":"restaurant"},{"name":"바다포차","tel":"031-123-4567","addr":"경기도 고양시 덕양구 주교동 583-18번지","indutype":"일반휴게음식 - 주점","category":"restaurant"},{"name":"해뜰카페","tel":"031-965-5002","addr":"경기도 고양시 덕양구 주교동 583-18번지","indutype":"일반휴게음식 - 일반한식","category":"restaurant"}]},{"lat":"37.662656525","long":"126.83728926","imageIndex":4,"items":[{"name":"경화식당","tel":"031-64-0716","addr":"경기도 고양시 덕양구 주교동 567-6번지","indutype":"일반휴게음식 - 일반한식","category":"restaurant"}]},{"lat":"37.66280087","long":"126.83742494","imageIndex":4,"items":[{"name":"고려보신탕","tel":"031-976-1208","addr":"경기도 고양시 덕양구 주교동 567-7번지","indutype":"일반휴게음식 - 일반한식","category":"restaurant"}]},{"lat":"37.657602769","long":"126.83145284","imageIndex":4,"items":[{"name":"고양회관","tel":"031-966-5770","addr":"경기도 고양시 덕양구 주교동 603-1번지","indutype":"일반휴게음식 - 일반한식","category":"restaurant"}]},{"lat":"37.658739643","long":"126.83259484","imageIndex":4,"items":[{"name":"고향","tel":"031-924-9787","addr":"경기도 고양시 덕양구 주교동 598-11번지","indutype":"일반휴게음식 - 주점","category":"restaurant"}]},{"lat":"37.657379627","long":"126.83290393","imageIndex":4,"items":[{"name":"고향식당","tel":"031-965-5888","addr":"경기도 고양시 덕양구 주교동 601-2번지","indutype":"일반휴게음식 - 일반한식","category":"restaurant"},{"name":"밥사랑","tel":"031-969-1535","addr":"경기도 고양시 덕양구 주교동 601-2번지","indutype":"일반휴게음식 - 일반한식","category":"restaurant"}]},{"lat":"37.656965379","long":"126.83304086","imageIndex":4,"items":[{"name":"곱선생","tel":"031-967-3539","addr":"경기도 고양시 덕양구 주교동 601-7번지","indutype":"일반휴게음식 - 일반한식","category":"restaurant"}]},{"lat":"37.659743029","long":"126.83490448","imageIndex":4,"items":[{"name":"국수마루","tel":"031-969-3371","addr":"경기도 고양시 덕양구 주교동","indutype":"일반휴게음식 - 일반한식","category":"restaurant"}]},{"lat":"37.656046182","long":"126.83289564","imageIndex":4,"items":[{"name":"국제그릴","tel":"031-964-7100","addr":"경기도 고양시 덕양구 주교동 608번지","indutype":"일반휴게음식 - 서양음식","category":"restaurant"}]},{"lat":"37.657436268","long":"126.83470569","imageIndex":4,"items":[{"name":"군들","tel":"031-967-4674","addr":"경기도 고양시 덕양구 주교동 612번지","indutype":"일반휴게음식 - 일반한식","category":"restaurant"},{"name":"아리치킨","tel":"031-968-9233","addr":"경기도 고양시 덕양구 주교동 612번지","indutype":"일반휴게음식 - 서양음식","category":"restaurant"}]},{"lat":"37.656549528","long":"126.83206722","imageIndex":4,"items":[{"name":"궁까페","tel":"031-967-0689","addr":"경기도 고양시 덕양구 주교동 602-3번지","indutype":"일반휴게음식 - 서양음식","category":"restaurant"},{"name":"시장면가","tel":"02-000-0000","addr":"경기도 고양시 덕양구 주교동 602-3번지","indutype":"일반휴게음식 - 일반한식","category":"restaurant"},{"name":"약속","tel":"031-968-5970","addr":"경기도 고양시 덕양구 주교동 602-3번지","indutype":"일반휴게음식 - 주점","category":"restaurant"}]},{"lat":"37.657413731","long":"126.8315666","imageIndex":4,"items":[{"name":"귀빈경양식","tel":"031-966-2823","addr":"경기도 고양시 덕양구 주교동 603-3번지","indutype":"일반휴게음식 - 일반한식","category":"restaurant"}]},{"lat":"37.65713298","long":"126.83056998","imageIndex":4,"items":[{"name":"그림이있는풍경(고양갤러리)","tel":"031-966-6604","addr":"경기도 고양시 덕양구 주교동 605-3번지","indutype":"일반휴게음식 - 일반한식","category":"restaurant"},{"name":"통닭박사","tel":"031-966-3491","addr":"경기도 고양시 덕양구 주교동 605-3번지","indutype":"일반휴게음식 - 스넥","category":"restaurant"}]},{"lat":"37.65752449","long":"126.82723728","imageIndex":4,"items":[{"name":"김둘레순댓국","tel":"031-969-6639","addr":"경기도 고양시 덕양구 주교동 218-18번지","indutype":"일반휴게음식 - 일반한식","category":"restaurant"}]},{"lat":"37.663044718","long":"126.83784374","imageIndex":4,"items":[{"name":"김밥마당","tel":"031-818-9090","addr":"경기도 고양시 덕양구 주교동 567번지","indutype":"일반휴게음식 - 스넥","category":"restaurant"},{"name":"바다가육지라면","tel":"070-7012-8761","addr":"경기도 고양시 덕양구 주교동 567번지","indutype":"일반휴게음식 - 일반한식","category":"restaurant"},{"name":"우일왕족발","tel":"031-965-6985","addr":"경기도 고양시 덕양구 주교동 567번지","indutype":"일반휴게음식 - 일반한식","category":"restaurant"},{"name":"정육포차","tel":"031-969-1707","addr":"경기도 고양시 덕양구 주교동 567번지","indutype":"일반휴게음식 - 일반한식","category":"restaurant"}]},{"lat":"37.656716752","long":"126.83559125","imageIndex":4,"items":[{"name":"김밥천국","tel":"031-966-2344","addr":"경기도 고양시 덕양구 주교동 614번지","indutype":"일반휴게음식 - 일반한식","category":"restaurant"},{"name":"스캔들라이브","tel":"031-967-2754","addr":"경기도 고양시 덕양구 주교동 614번지","indutype":"일반휴게음식 - 일반한식","category":"restaurant"},{"name":"쿨참치","tel":"031-963-3319","addr":"경기도 고양시 덕양구 주교동 614번지","indutype":"일반휴게음식 - 일식·회집","category":"restaurant"}]},{"lat":"37.657410001","long":"126.82901677","imageIndex":4,"items":[{"name":"김숙수코다리집밥앤칼국수","tel":"031-967-0092","addr":"경기도 고양시 덕양구 주교동 213-10번지","indutype":"일반휴게음식 - 일반한식","category":"restaurant"}]},{"lat":"37.659134856","long":"126.81404202","imageIndex":4,"items":[{"name":"까페테리아","tel":"","addr":"경기도 고양시 덕양구 주교동 1490-6번지","indutype":"일반휴게음식 - 일반한식","category":"restaurant"}]},{"lat":"37.657127944","long":"126.83331247","imageIndex":4,"items":[{"name":"깐부치킨(고양시청점)","tel":"031-967-9391","addr":"경기도 고양시 덕양구 주교동 601-5번지","indutype":"일반휴게음식 - 스넥","category":"restaurant"}]},{"lat":"37.656272629","long":"126.83373372","imageIndex":4,"items":[{"name":"꼬꼬닭내장","tel":"031-968-7333","addr":"경기도 고양시 덕양구 주교동 611-3번지","indutype":"일반휴게음식 - 일반한식","category":"restaurant"}]},{"lat":"37.658156441","long":"126.83428475","imageIndex":4,"items":[{"name":"꼬꼬시티 고양시청점","tel":"031-962-9906","addr":"경기도 고양시 덕양구 주교동 585-17번지","indutype":"일반휴게음식 - 스넥","category":"restaurant"},{"name":"백발마녀선술집","tel":"031-967-8615","addr":"경기도 고양시 덕양구 주교동 585-17번지","indutype":"일반휴게음식 - 주점","category":"restaurant"},{"name":"야간열차","tel":"031-964-2338","addr":"경기도 고양시 덕양구 주교동 585-17번지","indutype":"일반휴게음식 - 일반한식","category":"restaurant"},{"name":"퍼줄래막줄래","tel":"","addr":"경기도 고양시 덕양구 주교동 585-17번지","indutype":"일반휴게음식 - 일반한식","category":"restaurant"}]},{"lat":"37.65704671","long":"126.83321067","imageIndex":4,"items":[{"name":"꼬불꼬불라면","tel":"031-963-3912","addr":"경기도 고양시 덕양구 주교동 601-6번지","indutype":"일반휴게음식 - 일반한식","category":"restaurant"}]},{"lat":"37.65637823","long":"126.83198828","imageIndex":4,"items":[{"name":"꽃찻집","tel":"031-000-0000","addr":"경기도 고양시 덕양구 주교동 606-8번지","indutype":"일반휴게음식 - 일반한식","category":"restaurant"}]},{"lat":"37.658045212","long":"126.83212045","imageIndex":4,"items":[{"name":"나는카페고양시청점","tel":"031-852-9203","addr":"경기도 고양시 덕양구 주교동 600번지","indutype":"일반휴게음식 - 서양음식","category":"restaurant"}]},{"lat":"37.660049437","long":"126.83496045","imageIndex":4,"items":[{"name":"네네치킨주교점","tel":"031-965-9234","addr":"경기도 고양시 덕양구 주교동 579-7번지","indutype":"일반휴게음식 - 주점","category":"restaurant"}]},{"lat":"37.656823094","long":"126.83434443","imageIndex":4,"items":[{"name":"놀부부대고기","tel":"031-965-9485","addr":"경기도 고양시 덕양구 주교동 612-4번지","indutype":"일반휴게음식 - 일반한식","category":"restaurant"},{"name":"본순대국","tel":"031-966-6233","addr":"경기도 고양시 덕양구 주교동 612-4번지","indutype":"일반휴게음식 - 일반한식","category":"restaurant"},{"name":"카페 보스턴","tel":"","addr":"경기도 고양시 덕양구 주교동 612-4번지","indutype":"일반휴게음식 - 서양음식","category":"restaurant"}]},{"lat":"37.657266502","long":"126.83570334","imageIndex":4,"items":[{"name":"누나홀닭(원당점)","tel":"031-965-0095","addr":"경기도 고양시 덕양구 주교동 616-3번지","indutype":"일반휴게음식 - 스넥","category":"restaurant"},{"name":"우리집으로","tel":"031-964-6642","addr":"경기도 고양시 덕양구 주교동 616-3번지","indutype":"일반휴게음식 - 일반한식","category":"restaurant"},{"name":"탐라수제갈비 원당점","tel":"031-967-6001","addr":"경기도 고양시 덕양구 주교동 616-3번지","indutype":"일반휴게음식 - 일반한식","category":"restaurant"}]},{"lat":"37.649219349","long":"126.82245234","imageIndex":4,"items":[{"name":"다례원","tel":"031-969-6807","addr":"경기도 고양시 덕양구 주교동 1226번지","indutype":"일반휴게음식 - 일반한식","category":"restaurant"}]},{"lat":"37.659190321","long":"126.83272981","imageIndex":4,"items":[{"name":"다온식당","tel":"031-964-3359","addr":"경기도 고양시 덕양구 주교동 588-11번지","indutype":"일반휴게음식 - 일반한식","category":"restaurant"}]},{"lat":"37.656296765","long":"126.83172782","imageIndex":4,"items":[{"name":"다정","tel":"02-389-9779","addr":"경기도 고양시 덕양구 주교동 606-9번지","indutype":"일반휴게음식 - 서양음식","category":"restaurant"}]},{"lat":"37.656404963","long":"126.83178424","imageIndex":4,"items":[{"name":"달무리호프","tel":"031-965-7286","addr":"경기도 고양시 덕양구 주교동 606-6번지","indutype":"일반휴게음식 - 주점","category":"restaurant"},{"name":"복돼지부속","tel":"031-967-5647","addr":"경기도 고양시 덕양구 주교동 606-6번지","indutype":"일반휴게음식 - 일반한식","category":"restaurant"}]},{"lat":"37.656517445","long":"126.83482108","imageIndex":4,"items":[{"name":"달빛소나타","tel":"031-968-0651","addr":"경기도 고양시 덕양구 주교동 613-6번지","indutype":"일반휴게음식 - 일반한식","category":"restaurant"}]},{"lat":"37.658488971","long":"126.83370603","imageIndex":4,"items":[{"name":"대박갈비","tel":"","addr":"경기도 고양시 덕양구 주교동 586-9번지","indutype":"일반휴게음식 - 일반한식","category":"restaurant"}]},{"lat":"37.662494215","long":"126.83089759","imageIndex":4,"items":[{"name":"대박이네","tel":"","addr":"경기도 고양시 덕양구 주교동 307-6번지","indutype":"일반휴게음식 - 일반한식","category":"restaurant"},{"name":"뽕팔이네","tel":"","addr":"경기도 고양시 덕양구 주교동 307-6번지","indutype":"일반휴게음식 - 일반한식","category":"restaurant"},{"name":"한방통닭바베큐","tel":"031-970-0011","addr":"경기도 고양시 덕양구 주교동 307-6번지","indutype":"일반휴게음식 - 주점","category":"restaurant"},{"name":"함흥면옥","tel":"031-968-7011","addr":"경기도 고양시 덕양구 주교동 307-6번지","indutype":"일반휴게음식 - 일반한식","category":"restaurant"}]},{"lat":"37.658601499","long":"126.83681096","imageIndex":4,"items":[{"name":"더블더블(주교점)","tel":"031-966-6092","addr":"경기도 고양시 덕양구 주교동 619번지","indutype":"일반휴게음식 - 일반한식","category":"restaurant"}]},{"lat":"37.657048222","long":"126.83426459","imageIndex":4,"items":[{"name":"도담추어탕","tel":"031-3005-4265","addr":"경기도 고양시 덕양구 주교동 612-5번지","indutype":"일반휴게음식 - 일반한식","category":"restaurant"},{"name":"소노공","tel":"031-968-4492","addr":"경기도 고양시 덕양구 주교동 612-5번지","indutype":"일반휴게음식 - 일반한식","category":"restaurant"}]},{"lat":"37.653964089","long":"126.8202651","imageIndex":4,"items":[{"name":"독곶이한증막식당","tel":"070-2699-0807","addr":"경기도 고양시 덕양구 주교동 1014번지","indutype":"일반휴게음식 - 일반한식","category":"restaurant"},{"name":"독곶이한증막식당","tel":"031-964-1648","addr":"경기도 고양시 덕양구 주교동 1014번지","indutype":"일반휴게음식 - 일반한식","category":"restaurant"}]},{"lat":"37.659382206","long":"126.8345993","imageIndex":4,"items":[{"name":"돈꽃방석","tel":"031-968-7287","addr":"경기도 고양시 덕양구 주교동 583-6번지","indutype":"일반휴게음식 - 일반한식","category":"restaurant"},{"name":"둥지다방카페","tel":"031-967-1125","addr":"경기도 고양시 덕양구 주교동 583-6번지","indutype":"일반휴게음식 - 서양음식","category":"restaurant"}]},{"lat":"37.658549316","long":"126.83814834","imageIndex":4,"items":[{"name":"돌판에누운삼겹살","tel":"031-962-8281","addr":"경기도 고양시 덕양구 주교동 621-5번지","indutype":"일반휴게음식 - 일반한식","category":"restaurant"},{"name":"의정부부대찌개","tel":"031-965-1864","addr":"경기도 고양시 덕양구 주교동 621-5번지","indutype":"일반휴게음식 - 일반한식","category":"restaurant"},{"name":"청송동태찌게","tel":"031-968-6969","addr":"경기도 고양시 덕양구 주교동 621-5번지","indutype":"일반휴게음식 - 일반한식","category":"restaurant"}]},{"lat":"37.656768485","long":"126.83395925","imageIndex":4,"items":[{"name":"동강올갱이해장국","tel":"031-968-7271","addr":"경기도 고양시 덕양구 주교동 611번지","indutype":"일반휴게음식 - 일반한식","category":"restaurant"}]},{"lat":"37.658218762","long":"126.8337633","imageIndex":4,"items":[{"name":"동해해물탕","tel":"031-963-3357","addr":"경기도 고양시 덕양구 주교동 599번지","indutype":"일반휴게음식 - 일반한식","category":"restaurant"}]},{"lat":"37.656633567","long":"126.83411821","imageIndex":4,"items":[{"name":"돼지사랑","tel":"031-967-9133","addr":"경기도 고양시 덕양구 주교동 611-1번지","indutype":"일반휴게음식 - 일반한식","category":"restaurant"}]},{"lat":"37.662631398","long":"126.83864933","imageIndex":4,"items":[{"name":"두레통닭","tel":"031-968-8292","addr":"경기도 고양시 덕양구 주교동 568-1번지","indutype":"일반휴게음식 - 스넥","category":"restaurant"},{"name":"제주흑도야지","tel":"031-969-8265","addr":"경기도 고양시 덕양구 주교동 568-1번지","indutype":"일반휴게음식 - 일반한식","category":"restaurant"},{"name":"커피에반하다(주교점)","tel":"031-966-7794","addr":"경기도 고양시 덕양구 주교동 568-1번지","indutype":"일반휴게음식 - 서양음식","category":"restaurant"}]},{"lat":"37.657518032","long":"126.83518147","imageIndex":4,"items":[{"name":"두리아","tel":"031-965-9288","addr":"경기도 고양시 덕양구 주교동 617-7번지","indutype":"일반휴게음식 - 일반한식","category":"restaurant"}]},{"lat":"37.656076085","long":"126.83490141","imageIndex":4,"items":[{"name":"디딤돌","tel":"031-964-4230","addr":"경기도 고양시 덕양구 주교동 610-3번지","indutype":"일반휴게음식 - 일반한식","category":"restaurant"},{"name":"원참치","tel":"031-967-0037","addr":"경기도 고양시 덕양구 주교동 610-3번지","indutype":"일반휴게음식 - 일식·회집","category":"restaurant"}]},{"lat":"37.656800267","long":"126.83101272","imageIndex":4,"items":[{"name":"뚝배기집","tel":"031-963-4170","addr":"경기도 고양시 덕양구 주교동 605-7번지","indutype":"일반휴게음식 - 일반한식","category":"restaurant"},{"name":"베버리치킨","tel":"031-965-3956","addr":"경기도 고양시 덕양구 주교동 605-7번지","indutype":"일반휴게음식 - 주점","category":"restaurant"},{"name":"원당분식","tel":"031-965-7101","addr":"경기도 고양시 덕양구 주교동 605-7번지","indutype":"일반휴게음식 - 일반한식","category":"restaurant"},{"name":"커피,바람의날개를달다","tel":"031-968-0602","addr":"경기도 고양시 덕양구 주교동 605-7번지","indutype":"일반휴게음식 - 서양음식","category":"restaurant"}]},{"lat":"37.658133382","long":"126.83079432","imageIndex":4,"items":[{"name":"라브리","tel":"031-969-5022","addr":"경기도 고양시 덕양구 주교동 604-15번지","indutype":"일반휴게음식 - 서양음식","category":"restaurant"}]},{"lat":"37.656990475","long":"126.83170356","imageIndex":4,"items":[{"name":"렙소디자루","tel":"","addr":"경기도 고양시 덕양구 주교동 602-12번지","indutype":"일반휴게음식 - 서양음식","category":"restaurant"}]},{"lat":"37.656657447","long":"126.83193098","imageIndex":4,"items":[{"name":"루비","tel":"","addr":"경기도 고양시 덕양구 주교동 602-5번지","indutype":"일반휴게음식 - 서양음식","category":"restaurant"},{"name":"시골밥상","tel":"070-4046-9861","addr":"경기도 고양시 덕양구 주교동 602-5번지","indutype":"일반휴게음식 - 일반한식","category":"restaurant"},{"name":"주교까페","tel":"031-969-4744","addr":"경기도 고양시 덕양구 주교동 602-5번지","indutype":"일반휴게음식 - 주점","category":"restaurant"},{"name":"친구네포차","tel":"031-954-3847","addr":"경기도 고양시 덕양구 주교동 602-5번지","indutype":"일반휴게음식 - 주점","category":"restaurant"},{"name":"횡성시골밥상","tel":"031-966-6603","addr":"경기도 고양시 덕양구 주교동 602-5번지","indutype":"일반휴게음식 - 일반한식","category":"restaurant"}]},{"lat":"37.656210793","long":"126.83459513","imageIndex":4,"items":[{"name":"마산아구찜","tel":"031-965-8156","addr":"경기도 고양시 덕양구 주교동 610-1번지","indutype":"일반휴게음식 - 일반한식","category":"restaurant"},{"name":"원당골뱅이","tel":"031-968-6263","addr":"경기도 고양시 덕양구 주교동 610-1번지","indutype":"일반휴게음식 - 일반한식","category":"restaurant"},{"name":"캠프야","tel":"031-967-2611","addr":"경기도 고양시 덕양구 주교동 610-1번지","indutype":"일반휴게음식 - 일반한식","category":"restaurant"},{"name":"홀리데이","tel":"02-000-0000","addr":"경기도 고양시 덕양구 주교동 610-1번지","indutype":"일반휴게음식 - 서양음식","category":"restaurant"}]},{"lat":"37.6561578","long":"126.83534319","imageIndex":4,"items":[{"name":"마음담은초밥","tel":"031-964-4485","addr":"경기도 고양시 덕양구 주교동 614-5번지","indutype":"일반휴게음식 - 일반한식","category":"restaurant"},{"name":"세양수산","tel":"031-969-9788","addr":"경기도 고양시 덕양구 주교동 614-5번지","indutype":"일반휴게음식 - 일식·회집","category":"restaurant"}]},{"lat":"37.66180126","long":"126.83775583","imageIndex":4,"items":[{"name":"마장동연탄갈비","tel":"031-965-2404","addr":"경기도 고양시 덕양구 주교동 569-1번지","indutype":"일반휴게음식 - 일반한식","category":"restaurant"}]},{"lat":"37.656156929","long":"126.83473124","imageIndex":4,"items":[{"name":"마포서서갈비","tel":"031-968-3369","addr":"경기도 고양시 덕양구 주교동 610-2번지","indutype":"일반휴게음식 - 일반한식","category":"restaurant"},{"name":"산골닭한마리","tel":"031-965-8900","addr":"경기도 고양시 덕양구 주교동 610-2번지","indutype":"일반휴게음식 - 일반한식","category":"restaurant"}]},{"lat":"37.656302196","long":"126.83551285","imageIndex":4,"items":[{"name":"만리장성","tel":"031-963-2631","addr":"경기도 고양시 덕양구 주교동 614-4번지","indutype":"일반휴게음식 - 중국식","category":"restaurant"},{"name":"카툰앤라이프","tel":"","addr":"경기도 고양시 덕양구 주교동 614-4번지","indutype":"일반휴게음식 - 서양음식","category":"restaurant"}]},{"lat":"37.657357736","long":"126.83650775","imageIndex":4,"items":[{"name":"맛닭꼬 원당점","tel":"031-963-3492","addr":"경기도 고양시 덕양구 주교동 615번지 대동피렌체","indutype":"일반휴게음식 - 스넥","category":"restaurant"},{"name":"할리스커피 원당점","tel":"031-964-7785","addr":"경기도 고양시 덕양구 주교동 615번지 대동피렌체","indutype":"일반휴게음식 - 서양음식","category":"restaurant"}]},{"lat":"37.658913414","long":"126.83439637","imageIndex":4,"items":[{"name":"맥시칸치킨 주교점","tel":"031-963-0105","addr":"경기도 고양시 덕양구 주교동 585번지","indutype":"일반휴게음식 - 스넥","category":"restaurant"},{"name":"수","tel":"031-968-3672","addr":"경기도 고양시 덕양구 주교동 585번지","indutype":"일반휴게음식 - 주점","category":"restaurant"},{"name":"키친몬스터","tel":"070-8119-1029","addr":"경기도 고양시 덕양구 주교동 585번지","indutype":"일반휴게음식 - 스넥","category":"restaurant"}]},{"lat":"37.662215704","long":"126.83775491","imageIndex":4,"items":[{"name":"명동찌개마을","tel":"","addr":"경기도 고양시 덕양구 주교동 568-8번지 BK팰리스아파트","indutype":"일반휴게음식 - 일반한식","category":"restaurant"}]},{"lat":"37.656690205","long":"126.83593128","imageIndex":4,"items":[{"name":"명랑핫도그","tel":"031-965-1995","addr":"경기도 고양시 덕양구 주교동 614-1번지","indutype":"일반휴게음식 - 스넥","category":"restaurant"},{"name":"쥬씨(Juicy)원당점","tel":"02-000-0000","addr":"경기도 고양시 덕양구 주교동 614-1번지","indutype":"일반휴게음식 - 서양음식","category":"restaurant"}]},{"lat":"37.656906581","long":"126.83603279","imageIndex":4,"items":[{"name":"명륜진사갈비 원당점","tel":"031-965-9235","addr":"경기도 고양시 덕양구 주교동 615-6번지","indutype":"일반휴게음식 - 일반한식","category":"restaurant"},{"name":"오닭","tel":"031-966-0223","addr":"경기도 고양시 덕양구 주교동 615-6번지","indutype":"일반휴게음식 - 일반한식","category":"restaurant"}]},{"lat":"37.657322497","long":"126.83078486","imageIndex":4,"items":[{"name":"목포홍탁","tel":"031-965-8170","addr":"경기도 고양시 덕양구 주교동 603-19번지","indutype":"일반휴게음식 - 일반한식","category":"restaurant"}]},{"lat":"37.657380344","long":"126.83340256","imageIndex":4,"items":[{"name":"목화회관","tel":"031-64-0500","addr":"경기도 고양시 덕양구 주교동 599-22번지","indutype":"일반휴게음식 - 일반한식","category":"restaurant"},{"name":"커피수","tel":"070-7785-0747","addr":"경기도 고양시 덕양구 주교동 599-22번지","indutype":"일반휴게음식 - 서양음식","category":"restaurant"}]},{"lat":"37.657492144","long":"126.83598615","imageIndex":4,"items":[{"name":"몽크피쉬","tel":"031-963-0636","addr":"경기도 고양시 덕양구 주교동 616-2번지","indutype":"일반휴게음식 - 일반한식","category":"restaurant"},{"name":"참나무닭갈비막국수","tel":"031-966-9288","addr":"경기도 고양시 덕양구 주교동 616-2번지","indutype":"일반휴게음식 - 일반한식","category":"restaurant"}]},{"lat":"37.65693263","long":"126.83534144","imageIndex":4,"items":[{"name":"무봉리토종순대국주교직영점","tel":"031-969-1771","addr":"경기도 고양시 덕양구 주교동 613-1번지","indutype":"일반휴게음식 - 일반한식","category":"restaurant"},{"name":"와인앤쿡","tel":"031-968-0906","addr":"경기도 고양시 덕양구 주교동 613-1번지","indutype":"일반휴게음식 - 일반한식","category":"restaurant"}]},{"lat":"37.657742838","long":"126.83487498","imageIndex":4,"items":[{"name":"무진장식당","tel":"031-966-9920","addr":"경기도 고양시 덕양구 주교동 617-8번지","indutype":"일반휴게음식 - 일반한식","category":"restaurant"},{"name":"원조춘천닭갈비","tel":"031-965-9768","addr":"경기도 고양시 덕양구 주교동 617-8번지","indutype":"일반휴게음식 - 일반한식","category":"restaurant"}]},{"lat":"37.658294578","long":"126.83012532","imageIndex":4,"items":[{"name":"물맑은 청국장","tel":"","addr":"경기도 고양시 덕양구 주교동 604-1번지","indutype":"일반휴게음식 - 일반한식","category":"restaurant"}]},{"lat":"37.657939902","long":"126.83406992","imageIndex":4,"items":[{"name":"뭉크레스토랑","tel":"031-963-5321","addr":"경기도 고양시 덕양구 주교동 599-11번지","indutype":"일반휴게음식 - 서양음식","category":"restaurant"},{"name":"초평민물매운탕","tel":"031-966-2350","addr":"경기도 고양시 덕양구 주교동 599-11번지","indutype":"일반휴게음식 - 일반한식","category":"restaurant"},{"name":"피자이탈리","tel":"070-1111-1111","addr":"경기도 고양시 덕양구 주교동 599-11번지","indutype":"일반휴게음식 - 서양음식","category":"restaurant"}]},{"lat":"37.662298703","long":"126.83912606","imageIndex":4,"items":[{"name":"미각","tel":"031-966-5939","addr":"경기도 고양시 덕양구 주교동 26-9번지","indutype":"일반휴게음식 - 중국식","category":"restaurant"}]},{"lat":"37.657822565","long":"126.83392286","imageIndex":4,"items":[{"name":"미러브카페","tel":"031-975-5088","addr":"경기도 고양시 덕양구 주교동 599-12번지","indutype":"일반휴게음식 - 일반한식","category":"restaurant"},{"name":"일산우동포차","tel":"031-962-1790","addr":"경기도 고양시 덕양구 주교동 599-12번지","indutype":"일반휴게음식 - 일반한식","category":"restaurant"}]},{"lat":"37.655580312","long":"126.83473254","imageIndex":4,"items":[{"name":"미복 원당점","tel":"031-962-6672","addr":"경기도 고양시 덕양구 주교동 609-3번지","indutype":"일반휴게음식 - 일반한식","category":"restaurant"},{"name":"조마루감자탕","tel":"031-963-7750","addr":"경기도 고양시 덕양구 주교동 609-3번지","indutype":"일반휴게음식 - 일반한식","category":"restaurant"},{"name":"피자알볼로 화정원당점","tel":"031-966-8495","addr":"경기도 고양시 덕양구 주교동 609-3번지","indutype":"일반휴게음식 - 서양음식","category":"restaurant"}]},{"lat":"37.656877911","long":"126.83487693","imageIndex":4,"items":[{"name":"미친노가리","tel":"031-962-5234","addr":"경기도 고양시 덕양구 주교동 613-11번지","indutype":"일반휴게음식 - 주점","category":"restaurant"},{"name":"훈이네감자탕","tel":"031-967-3013","addr":"경기도 고양시 덕양구 주교동 613-11번지","indutype":"일반휴게음식 - 일반한식","category":"restaurant"}]},{"lat":"37.661160956","long":"126.83731525","imageIndex":4,"items":[{"name":"미향가든","tel":"031-965-4479","addr":"경기도 고양시 덕양구 주교동 569-7번지","indutype":"일반휴게음식 - 한정식","category":"restaurant"}]},{"lat":"37.656548278","long":"126.83120595","imageIndex":4,"items":[{"name":"미호만두","tel":"031-966-8285","addr":"경기도 고양시 덕양구 주교동 606번지","indutype":"일반휴게음식 - 스넥","category":"restaurant"}]},{"lat":"37.658327867","long":"126.83445435","imageIndex":4,"items":[{"name":"민속호프","tel":"031-000-0000","addr":"경기도 고양시 덕양구 주교동 585-15번지","indutype":"일반휴게음식 - 일반한식","category":"restaurant"},{"name":"소문난왕족발","tel":"031-963-2487","addr":"경기도 고양시 덕양구 주교동 585-15번지","indutype":"일반휴게음식 - 일반한식","category":"restaurant"}]},{"lat":"37.662603008","long":"126.83767472","imageIndex":4,"items":[{"name":"박가네아구찜","tel":"031-963-3002","addr":"경기도 고양시 덕양구 주교동 567-9번지","indutype":"일반휴게음식 - 일반한식","category":"restaurant"}]},{"lat":"37.659071923","long":"126.83818119","imageIndex":4,"items":[{"name":"발렌타인","tel":"031-968-0143","addr":"경기도 고양시 덕양구 주교동 621번지","indutype":"일반휴게음식 - 주점","category":"restaurant"},{"name":"황구사철탕","tel":"031-966-3151","addr":"경기도 고양시 덕양구 주교동 621번지","indutype":"일반휴게음식 - 일반한식","category":"restaurant"}]},{"lat":"37.657718325","long":"126.83037597","imageIndex":4,"items":[{"name":"밥이랑","tel":"031-969-1204","addr":"경기도 고양시 덕양구 주교동 604-21번지","indutype":"일반휴게음식 - 일반한식","category":"restaurant"},{"name":"우리식당","tel":"","addr":"경기도 고양시 덕양구 주교동 604-21번지","indutype":"일반휴게음식 - 일반한식","category":"restaurant"}]},{"lat":"37.656800993","long":"126.83151135","imageIndex":4,"items":[{"name":"방가방가커피앤맥주","tel":"031-316-8877","addr":"경기도 고양시 덕양구 주교동 602-9번지","indutype":"일반휴게음식 - 일반한식","category":"restaurant"}]},{"lat":"37.656962804","long":"126.83126166","imageIndex":4,"items":[{"name":"배다리김밥","tel":"031-917-9574","addr":"경기도 고양시 덕양구 주교동 603-13번지","indutype":"일반휴게음식 - 일반한식","category":"restaurant"}]},{"lat":"37.65790776","long":"126.83053419","imageIndex":4,"items":[{"name":"벵게식당","tel":"031-965-6551","addr":"경기도 고양시 덕양구 주교동 604-20번지","indutype":"일반휴게음식 - 일반한식","category":"restaurant"}]},{"lat":"37.658409067","long":"126.8345335","imageIndex":4,"items":[{"name":"별나라쿡","tel":"031-968-8181","addr":"경기도 고양시 덕양구 주교동 585-14번지","indutype":"일반휴게음식 - 일반한식","category":"restaurant"}]},{"lat":"37.656271864","long":"126.8332011","imageIndex":4,"items":[{"name":"별란명태 덕양점","tel":"031-967-0004","addr":"경기도 고양시 덕양구 주교동 611-7번지","indutype":"일반휴게음식 - 일반한식","category":"restaurant"},{"name":"서울갈비탕","tel":"031-904-9999","addr":"경기도 고양시 덕양구 주교동 611-7번지","indutype":"일반휴게음식 - 일반한식","category":"restaurant"}]},{"lat":"37.664051535","long":"126.83623214","imageIndex":4,"items":[{"name":"별미분식","tel":"031-964-4484","addr":"경기도 고양시 덕양구 주교동 564번지","indutype":"일반휴게음식 - 스넥","category":"restaurant"}]},{"lat":"37.658967083","long":"126.83412426","imageIndex":4,"items":[{"name":"보리밥사랑","tel":"031-993-2267","addr":"경기도 고양시 덕양구 주교동 586-4번지","indutype":"일반휴게음식 - 일반한식","category":"restaurant"}]},{"lat":"37.659219028","long":"126.83389703","imageIndex":4,"items":[{"name":"보양촌","tel":"031-968-1135","addr":"경기도 고양시 덕양구 주교동 586번지 대성아트빌","indutype":"일반휴게음식 - 일반한식","category":"restaurant"}]},{"lat":"37.662440532","long":"126.83745974","imageIndex":4,"items":[{"name":"봄이찌개찌개","tel":"031-964-2379","addr":"경기도 고양시 덕양구 주교동 567-3번지","indutype":"일반휴게음식 - 일반한식","category":"restaurant"},{"name":"일품횟집","tel":"031-967-9335","addr":"경기도 고양시 덕양구 주교동 567-3번지","indutype":"일반휴게음식 - 일식·회집","category":"restaurant"},{"name":"채민이네냉모밀","tel":"031-965-1724","addr":"경기도 고양시 덕양구 주교동 567-3번지","indutype":"일반휴게음식 - 일반한식","category":"restaurant"},{"name":"호프이야기","tel":"070-7872-8733","addr":"경기도 고양시 덕양구 주교동 567-3번지","indutype":"일반휴게음식 - 주점","category":"restaurant"}]},{"lat":"37.657161741","long":"126.83175983","imageIndex":4,"items":[{"name":"부산복집","tel":"031-966-0665","addr":"경기도 고양시 덕양구 주교동 602-11번지","indutype":"일반휴게음식 - 일반한식","category":"restaurant"},{"name":"소나무집","tel":"031-968-2008","addr":"경기도 고양시 덕양구 주교동 602-11번지","indutype":"일반휴게음식 - 일반한식","category":"restaurant"}]},{"lat":"37.661077551","long":"126.83567213","imageIndex":4,"items":[{"name":"불타는토스트","tel":"031-967-4545","addr":"경기도 고양시 덕양구 주교동 576-11번지","indutype":"일반휴게음식 - 스넥","category":"restaurant"}]},{"lat":"37.662044917","long":"126.83803862","imageIndex":4,"items":[{"name":"붉은노을","tel":"031-965-8114","addr":"경기도 고양시 덕양구 주교동 568-9번지","indutype":"일반휴게음식 - 일반한식","category":"restaurant"}]},{"lat":"37.663991068","long":"126.83175549","imageIndex":4,"items":[{"name":"블루밍","tel":"031-965-3907","addr":"경기도 고양시 덕양구 주교동 303-1번지","indutype":"일반휴게음식 - 주점","category":"restaurant"}]},{"lat":"37.657935724","long":"126.83748107","imageIndex":4,"items":[{"name":"빽다방 고양원당중앙점","tel":"031-969-8044","addr":"경기도 고양시 덕양구 주교동 620-2번지","indutype":"일반휴게음식 - 서양음식","category":"restaurant"},{"name":"신떡과 튀김범벅","tel":"031-966-0310","addr":"경기도 고양시 덕양구 주교동 620-2번지","indutype":"일반휴게음식 - 스넥","category":"restaurant"}]},{"lat":"37.657267843","long":"126.83037701","imageIndex":4,"items":[{"name":"삼미식당","tel":"031-962-5011","addr":"경기도 고양시 덕양구 주교동 605-1번지","indutype":"일반휴게음식 - 일반한식","category":"restaurant"},{"name":"엄마밥상","tel":"031-962-7809","addr":"경기도 고양시 덕양구 주교동 605-1번지","indutype":"일반휴게음식 - 일반한식","category":"restaurant"}]},{"lat":"37.658242528","long":"126.83782037","imageIndex":4,"items":[{"name":"상아다방","tel":"031-965-3322","addr":"경기도 고양시 덕양구 주교동 621-8번지","indutype":"일반휴게음식 - 서양음식","category":"restaurant"},{"name":"코리안숯불닭바베큐","tel":"031-968-9245","addr":"경기도 고양시 덕양구 주교동 621-8번지","indutype":"일반휴게음식 - 주점","category":"restaurant"}]},{"lat":"37.657163624","long":"126.83306308","imageIndex":4,"items":[{"name":"서귀포해운대식당","tel":"031-965-5751","addr":"경기도 고양시 덕양구 주교동 601-4번지","indutype":"일반휴게음식 - 일반한식","category":"restaurant"}]},{"lat":"37.656464096","long":"126.83531983","imageIndex":4,"items":[{"name":"센스경양식","tel":"031-965-4630","addr":"경기도 고양시 덕양구 주교동 614-7번지","indutype":"일반휴게음식 - 일반한식","category":"restaurant"}]},{"lat":"37.659297274","long":"126.83192493","imageIndex":4,"items":[{"name":"셀프인테리어","tel":"031-943-5724","addr":"경기도 고양시 덕양구 주교동 596-11번지","indutype":"일반휴게음식 - 서양음식","category":"restaurant"}]},{"lat":"37.661881186","long":"126.83692832","imageIndex":4,"items":[{"name":"소담","tel":"0505-248-9722","addr":"경기도 고양시 덕양구 주교동 570-3번지","indutype":"일반휴게음식 - 서양음식","category":"restaurant"}]},{"lat":"37.658327268","long":"126.83403504","imageIndex":4,"items":[{"name":"소망","tel":"031-965-2640","addr":"경기도 고양시 덕양구 주교동 585-10번지","indutype":"일반휴게음식 - 일반한식","category":"restaurant"}]},{"lat":"37.658273728","long":"126.83439781","imageIndex":4,"items":[{"name":"소문난왕족발","tel":"031-966-0606","addr":"경기도 고양시 덕양구 주교동 585-16번지","indutype":"일반휴게음식 - 일반한식","category":"restaurant"}]},{"lat":"37.656545296","long":"126.83539898","imageIndex":4,"items":[{"name":"송학식당","tel":"031-966-1164","addr":"경기도 고양시 덕양구 주교동 614-8번지","indutype":"일반휴게음식 - 일반한식","category":"restaurant"}]},{"lat":"37.657133707","long":"126.83106861","imageIndex":4,"items":[{"name":"수원까삐네손칼국수","tel":"031-962-3332","addr":"경기도 고양시 덕양구 주교동 603-16번지","indutype":"일반휴게음식 - 일반한식","category":"restaurant"}]},{"lat":"37.662829152","long":"126.83832022","imageIndex":4,"items":[{"name":"수포차","tel":"","addr":"경기도 고양시 덕양구 주교동 568번지","indutype":"일반휴게음식 - 일반한식","category":"restaurant"},{"name":"전주식당","tel":"031-965-5416","addr":"경기도 고양시 덕양구 주교동 568번지","indutype":"일반휴게음식 - 일반한식","category":"restaurant"}]},{"lat":"37.663351205","long":"126.8379564","imageIndex":4,"items":[{"name":"수피자","tel":"031-968-8666","addr":"경기도 고양시 덕양구 주교동 556-6번지","indutype":"일반휴게음식 - 서양음식","category":"restaurant"}]},{"lat":"37.657329135","long":"126.83539722","imageIndex":4,"items":[{"name":"술파는국수집","tel":"031-968-1312","addr":"경기도 고양시 덕양구 주교동 616-4번지","indutype":"일반휴게음식 - 일반한식","category":"restaurant"},{"name":"통닭연구소","tel":"","addr":"경기도 고양시 덕양구 주교동 616-4번지","indutype":"일반휴게음식 - 스넥","category":"restaurant"}]},{"lat":"37.65727176","long":"126.81523666","imageIndex":4,"items":[{"name":"숲속에고기집","tel":"031-962-3545","addr":"경기도 고양시 덕양구 주교동 1413번지","indutype":"일반휴게음식 - 일반한식","category":"restaurant"}]},{"lat":"37.656518781","long":"126.83576168","imageIndex":4,"items":[{"name":"스시모토","tel":"031-989-5802","addr":"경기도 고양시 덕양구 주교동 614-2번지","indutype":"일반휴게음식 - 일식·회집","category":"restaurant"}]},{"lat":"37.659273848","long":"126.83442955","imageIndex":4,"items":[{"name":"시소","tel":"031-966-3282","addr":"경기도 고양시 덕양구 주교동 583-7번지","indutype":"일반휴게음식 - 일반한식","category":"restaurant"},{"name":"원당포차","tel":"031-967-1019","addr":"경기도 고양시 덕양구 주교동 583-7번지","indutype":"일반휴게음식 - 주점","category":"restaurant"}]},{"lat":"37.657043775","long":"126.83118214","imageIndex":4,"items":[{"name":"신라다방","tel":"031-967-8170","addr":"경기도 고양시 덕양구 주교동 603-15번지","indutype":"일반휴게음식 - 서양음식","category":"restaurant"},{"name":"으뜸한식부페","tel":"02-964-4750","addr":"경기도 고양시 덕양구 주교동 603-15번지","indutype":"일반휴게음식 - 일반한식","category":"restaurant"}]},{"lat":"37.657298687","long":"126.83300611","imageIndex":4,"items":[{"name":"쌍둥이쌈밥","tel":"031-963-9666","addr":"경기도 고양시 덕양구 주교동 601-3번지","indutype":"일반휴게음식 - 일반한식","category":"restaurant"}]},{"lat":"37.65866043","long":"126.8338983","imageIndex":4,"items":[{"name":"쓰리고(3GO)","tel":"031-966-3617","addr":"경기도 고양시 덕양구 주교동 586-7번지","indutype":"일반휴게음식 - 일반한식","category":"restaurant"},{"name":"자매식당","tel":"031-968-9910","addr":"경기도 고양시 덕양구 주교동 586-7번지","indutype":"일반휴게음식 - 일반한식","category":"restaurant"},{"name":"판타쟈테이블(Fantasia Table)","tel":"","addr":"경기도 고양시 덕양구 주교동 586-7번지","indutype":"일반휴게음식 - 서양음식","category":"restaurant"}]},{"lat":"37.660654739","long":"126.8361264","imageIndex":4,"items":[{"name":"아구가좋아","tel":"031-965-0797","addr":"경기도 고양시 덕양구 주교동 577-9번지","indutype":"일반휴게음식 - 일반한식","category":"restaurant"}]},{"lat":"37.657052091","long":"126.83070616","imageIndex":4,"items":[{"name":"아궁이불닭발","tel":"031-962-3078","addr":"경기도 고양시 덕양구 주교동 605-4번지","indutype":"일반휴게음식 - 일반한식","category":"restaurant"},{"name":"활력포차","tel":"031-967-7678","addr":"경기도 고양시 덕양구 주교동 605-4번지","indutype":"일반휴게음식 - 스넥","category":"restaurant"}]},{"lat":"37.663243437","long":"126.83820597","imageIndex":4,"items":[{"name":"아로하","tel":"031-965-9282","addr":"경기도 고양시 덕양구 주교동 556-5번지","indutype":"일반휴게음식 - 서양음식","category":"restaurant"}]},{"lat":"37.66307276","long":"126.83856902","imageIndex":4,"items":[{"name":"아로하치킨","tel":"031-965-9282","addr":"경기도 고양시 덕양구 주교동 555-4번지","indutype":"일반휴게음식 - 스넥","category":"restaurant"}]},{"lat":"37.659048283","long":"126.8342034","imageIndex":4,"items":[{"name":"안동쪼림명가","tel":"031-966-7472","addr":"경기도 고양시 덕양구 주교동 586-3번지","indutype":"일반휴게음식 - 일반한식","category":"restaurant"}]},{"lat":"37.659188732","long":"126.83795427","imageIndex":4,"items":[{"name":"앗싸이모네순대국","tel":"031-965-5842","addr":"경기도 고양시 덕양구 주교동 622-2번지","indutype":"일반휴게음식 - 일반한식","category":"restaurant"}]},{"lat":"37.656434527","long":"126.8335407","imageIndex":4,"items":[{"name":"애쉬베리","tel":"031-968-6887","addr":"경기도 고양시 덕양구 주교동 611-12번지","indutype":"일반휴게음식 - 서양음식","category":"restaurant"}]},{"lat":"37.65712994","long":"126.83470638","imageIndex":4,"items":[{"name":"어정","tel":"031-966-8892","addr":"경기도 고양시 덕양구 주교동 612-2번지","indutype":"일반휴게음식 - 일반한식","category":"restaurant"}]},{"lat":"37.657661896","long":"126.83497716","imageIndex":4,"items":[{"name":"엄지식당","tel":"031-966-0396","addr":"경기도 고양시 덕양구 주교동 617-15번지","indutype":"일반휴게음식 - 일반한식","category":"restaurant"}]},{"lat":"37.657885357","long":"126.83373006","imageIndex":4,"items":[{"name":"여기가포차여","tel":"031-813-6779","addr":"경기도 고양시 덕양구 주교동 599-7번지","indutype":"일반휴게음식 - 일반한식","category":"restaurant"},{"name":"중화요리여의주","tel":"031-967-2008","addr":"경기도 고양시 덕양구 주교동 599-7번지","indutype":"일반휴게음식 - 중국식","category":"restaurant"}]},{"lat":"37.657797449","long":"126.82903853","imageIndex":4,"items":[{"name":"여러분면옥","tel":"031-965-6336","addr":"경기도 고양시 덕양구 주교동 250-11번지","indutype":"일반휴게음식 - 일반한식","category":"restaurant"}]},{"lat":"37.659048963","long":"126.83467938","imageIndex":4,"items":[{"name":"여주사철탕","tel":"031-964-2907","addr":"경기도 고양시 덕양구 주교동 584-5번지","indutype":"일반휴게음식 - 일반한식","category":"restaurant"}]},{"lat":"37.65632871","long":"126.83515015","imageIndex":4,"items":[{"name":"옛맛집 원당점","tel":"070-4062-1894","addr":"경기도 고양시 덕양구 주교동 614-6번지","indutype":"일반휴게음식 - 일반한식","category":"restaurant"},{"name":"후스돈 (후S'돈)","tel":"","addr":"경기도 고양시 덕양구 주교동 614-6번지","indutype":"일반휴게음식 - 일반한식","category":"restaurant"}]},{"lat":"37.657134152","long":"126.83137459","imageIndex":4,"items":[{"name":"오늘은 국수어때","tel":"031-966-6616","addr":"경기도 고양시 덕양구 주교동 603-8번지","indutype":"일반휴게음식 - 일반한식","category":"restaurant"}]},{"lat":"37.65771769","long":"126.83620096","imageIndex":4,"items":[{"name":"옥참치","tel":"031-967-1912","addr":"경기도 고양시 덕양구 주교동 616-1번지","indutype":"일반휴게음식 - 일식·회집","category":"restaurant"},{"name":"칠공쭈꾸미꼼장어","tel":"031-970-8502","addr":"경기도 고양시 덕양구 주교동 616-1번지","indutype":"일반휴게음식 - 일반한식","category":"restaurant"}]},{"lat":"37.659628838","long":"126.83697866","imageIndex":4,"items":[{"name":"왕창국수","tel":"031-1111-1111","addr":"경기도 고양시 덕양구 주교동 623-8번지","indutype":"일반휴게음식 - 일반한식","category":"restaurant"}]},{"lat":"37.658020664","long":"126.83384308","imageIndex":4,"items":[{"name":"우리집밥","tel":"","addr":"경기도 고양시 덕양구 주교동 599-8번지","indutype":"일반휴게음식 - 일반한식","category":"restaurant"}]},{"lat":"37.656634796","long":"126.83497947","imageIndex":4,"items":[{"name":"우뿔","tel":"031-966-2720","addr":"경기도 고양시 덕양구 주교동 613-5번지","indutype":"일반휴게음식 - 일반한식","category":"restaurant"},{"name":"하쿠시","tel":"031-966-2930","addr":"경기도 고양시 덕양구 주교동 613-5번지","indutype":"일반휴게음식 - 중국식","category":"restaurant"}]},{"lat":"37.661548688","long":"126.83754105","imageIndex":4,"items":[{"name":"원당숯불갈비","tel":"070-1111-1111","addr":"경기도 고양시 덕양구 주교동 569-3번지","indutype":"일반휴게음식 - 일반한식","category":"restaurant"}]},{"lat":"37.658655163","long":"126.83026048","imageIndex":4,"items":[{"name":"원당양평해장국","tel":"031-963-7800","addr":"경기도 고양시 덕양구 주교동 594-2번지","indutype":"일반휴게음식 - 일반한식","category":"restaurant"}]},{"lat":"37.657380572","long":"126.83356122","imageIndex":4,"items":[{"name":"원당회직판장","tel":"031-968-2229","addr":"경기도 고양시 덕양구 주교동 599-20번지","indutype":"일반휴게음식 - 일반한식","category":"restaurant"}]},{"lat":"37.656995231","long":"126.83501266","imageIndex":4,"items":[{"name":"원당회포차","tel":"031-963-5680","addr":"경기도 고양시 덕양구 주교동 613-13번지","indutype":"일반휴게음식 - 일식·회집","category":"restaurant"}]},{"lat":"37.657299372","long":"126.83348207","imageIndex":4,"items":[{"name":"원조참맛있는 할매순대국","tel":"031-967-3224","addr":"경기도 고양시 덕양구 주교동 599-21번지","indutype":"일반휴게음식 - 일반한식","category":"restaurant"}]},{"lat":"37.657798016","long":"126.82942384","imageIndex":4,"items":[{"name":"원주추옥","tel":"031-968-7888","addr":"경기도 고양시 덕양구 주교동 251-10번지","indutype":"일반휴게음식 - 일반한식","category":"restaurant"}]},{"lat":"37.659322489","long":"126.83067825","imageIndex":4,"items":[{"name":"월드사우나스낵","tel":"031-966-3022","addr":"경기도 고양시 덕양구 주교동 595번지","indutype":"일반휴게음식 - 일반한식","category":"restaurant"}]},{"lat":"37.658657145","long":"126.83162041","imageIndex":4,"items":[{"name":"윤식당","tel":"031-967-3352","addr":"경기도 고양시 덕양구 주교동 597-9번지","indutype":"일반휴게음식 - 일반한식","category":"restaurant"}]},{"lat":"37.656769634","long":"126.83476385","imageIndex":4,"items":[{"name":"은성하우돈곱창","tel":"031-968-9730","addr":"경기도 고양시 덕양구 주교동 613-10번지","indutype":"일반휴게음식 - 일반한식","category":"restaurant"}]},{"lat":"37.663573704","long":"126.83600653","imageIndex":4,"items":[{"name":"이야기마을","tel":"","addr":"경기도 고양시 덕양구 주교동 564-3번지","indutype":"일반휴게음식 - 서양음식","category":"restaurant"}]},{"lat":"37.658912944","long":"126.83406772","imageIndex":4,"items":[{"name":"일미갈비","tel":"031-968-0882","addr":"경기도 고양시 덕양구 주교동 586-5번지","indutype":"일반휴게음식 - 일반한식","category":"restaurant"}]},{"lat":"37.657439222","long":"126.83679088","imageIndex":4,"items":[{"name":"일산토박이감자탕","tel":"031-975-7008","addr":"경기도 고양시 덕양구 주교동 615-1번지","indutype":"일반휴게음식 - 일반한식","category":"restaurant"}]},{"lat":"37.658128861","long":"126.8338995","imageIndex":4,"items":[{"name":"장터순대국","tel":"031-966-0072","addr":"경기도 고양시 덕양구 주교동 599-9번지","indutype":"일반휴게음식 - 일반한식","category":"restaurant"}]},{"lat":"37.658937079","long":"126.83839681","imageIndex":4,"items":[{"name":"전국5대직화교동짬뽕","tel":"031-968-9685","addr":"경기도 고양시 덕양구 주교동 621-2번지","indutype":"일반휴게음식 - 중국식","category":"restaurant"}]},{"lat":"37.656101771","long":"126.83396076","imageIndex":4,"items":[{"name":"전주식당","tel":"031-908-5245","addr":"경기도 고양시 덕양구 주교동 610-8번지","indutype":"일반휴게음식 - 일반한식","category":"restaurant"}]},{"lat":"37.658246343","long":"126.83414855","imageIndex":4,"items":[{"name":"정가네족발보쌈","tel":"031-967-5559","addr":"경기도 고양시 덕양구 주교동 585-11번지","indutype":"일반휴게음식 - 일반한식","category":"restaurant"}]},{"lat":"37.656967491","long":"126.83451409","imageIndex":4,"items":[{"name":"주먹고기","tel":"031-966-0653","addr":"경기도 고양시 덕양구 주교동 612-3번지","indutype":"일반휴게음식 - 일반한식","category":"restaurant"}]},{"lat":"37.655381824","long":"126.83454034","imageIndex":4,"items":[{"name":"주하 주식회사/샤크(SHARK)","tel":"031-905-1703","addr":"경기도 고양시 덕양구 주교동 609-4번지","indutype":"일반휴게음식 - 일반한식","category":"restaurant"}]},{"lat":"37.659102891","long":"126.8345886","imageIndex":4,"items":[{"name":"준델몬트","tel":"031-968-0474","addr":"경기도 고양시 덕양구 주교동 584-4번지","indutype":"일반휴게음식 - 일반한식","category":"restaurant"},{"name":"치맥데이","tel":"031-969-1195","addr":"경기도 고양시 덕양구 주교동 584-4번지","indutype":"일반휴게음식 - 주점","category":"restaurant"}]},{"lat":"37.657488102","long":"126.833153","imageIndex":4,"items":[{"name":"준쿡","tel":"031-813-9133","addr":"경기도 고양시 덕양구 주교동 599-24번지","indutype":"일반휴게음식 - 일식·회집","category":"restaurant"}]},{"lat":"37.658241113","long":"126.83681176","imageIndex":4,"items":[{"name":"지리산탑","tel":"031-965-8853","addr":"경기도 고양시 덕양구 주교동 619-2번지","indutype":"일반휴게음식 - 일반한식","category":"restaurant"}]},{"lat":"37.659409865","long":"126.83504122","imageIndex":4,"items":[{"name":"진국출장부페","tel":"031-901-0717","addr":"경기도 고양시 덕양구 주교동 584-1번지","indutype":"일반휴게음식 - 일반한식","category":"restaurant"}]},{"lat":"37.657268571","long":"126.83087565","imageIndex":4,"items":[{"name":"짱아네포차","tel":"031-967-0287","addr":"경기도 고양시 덕양구 주교동 603-18번지","indutype":"일반휴게음식 - 일반한식","category":"restaurant"}]},{"lat":"37.657496458","long":"126.83269967","imageIndex":4,"items":[{"name":"차이윤(  )","tel":"031-967-0866","addr":"경기도 고양시 덕양구 주교동 601-1번지","indutype":"일반휴게음식 - 중국식","category":"restaurant"}]},{"lat":"37.65166228","long":"126.81748313","imageIndex":4,"items":[{"name":"착한고기","tel":"031-963-0678","addr":"경기도 고양시 덕양구 주교동","indutype":"일반휴게음식 - 일반한식","category":"restaurant"}]},{"lat":"37.656155341","long":"126.83362066","imageIndex":4,"items":[{"name":"참치박사","tel":"031-967-8509","addr":"경기도 고양시 덕양구 주교동 611-4번지","indutype":"일반휴게음식 - 일반한식","category":"restaurant"}]},{"lat":"37.656630812","long":"126.83220302","imageIndex":4,"items":[{"name":"천안문","tel":"031-969-3123","addr":"경기도 고양시 덕양구 주교동 602-14번지","indutype":"일반휴게음식 - 중국식","category":"restaurant"},{"name":"카페루 (l'eau)","tel":"070-8945-3313","addr":"경기도 고양시 덕양구 주교동 602-14번지","indutype":"일반휴게음식 - 서양음식","category":"restaurant"}]},{"lat":"37.662630512","long":"126.83801466","imageIndex":4,"items":[{"name":"첸차이나","tel":"031-965-1123","addr":"경기도 고양시 덕양구 주교동 568-13번지","indutype":"일반휴게음식 - 중국식","category":"restaurant"},{"name":"피자에펠","tel":"031-968-9945","addr":"경기도 고양시 덕양구 주교동 568-13번지","indutype":"일반휴게음식 - 서양음식","category":"restaurant"}]},{"lat":"37.656715415","long":"126.83465065","imageIndex":4,"items":[{"name":"총각네보쌈김치찜","tel":"031-968-5918","addr":"경기도 고양시 덕양구 주교동 613-9번지","indutype":"일반휴게음식 - 일반한식","category":"restaurant"}]},{"lat":"37.662711868","long":"126.83820715","imageIndex":4,"items":[{"name":"칭따오양꼬치","tel":"","addr":"경기도 고양시 덕양구 주교동 568-2번지","indutype":"일반휴게음식 - 일반한식","category":"restaurant"}]},{"lat":"37.658856118","long":"126.83848765","imageIndex":4,"items":[{"name":"카페 게이트 고양원당점","tel":"031-111-1111","addr":"경기도 고양시 덕양구 주교동 621-3번지","indutype":"일반휴게음식 - 서양음식","category":"restaurant"}]},{"lat":"37.662496174","long":"126.83859296","imageIndex":4,"items":[{"name":"카페 마실","tel":"031-818-6787","addr":"경기도 고양시 덕양구 주교동 568-11번지","indutype":"일반휴게음식 - 서양음식","category":"restaurant"}]},{"lat":"37.668210601","long":"126.83384264","imageIndex":4,"items":[{"name":"카페디아떼","tel":"031-966-4804","addr":"경기도 고양시 덕양구 주교동 427-1번지","indutype":"일반휴게음식 - 서양음식","category":"restaurant"}]},{"lat":"37.657521962","long":"126.83164568","imageIndex":4,"items":[{"name":"카페모퉁이","tel":"031-967-7762","addr":"경기도 고양시 덕양구 주교동 603-2번지","indutype":"일반휴게음식 - 서양음식","category":"restaurant"}]},{"lat":"37.661965178","long":"126.83264414","imageIndex":4,"items":[{"name":"캠핑아일랜드","tel":"031-965-3424","addr":"경기도 고양시 덕양구 주교동 315번지","indutype":"일반휴게음식 - 일반한식","category":"restaurant"}]},{"lat":"37.659267736","long":"126.83020239","imageIndex":4,"items":[{"name":"큐커피","tel":"","addr":"경기도 고양시 덕양구 주교동 593-4번지","indutype":"일반휴게음식 - 서양음식","category":"restaurant"}]},{"lat":"37.650106692","long":"126.81945867","imageIndex":4,"items":[{"name":"피터팻츠","tel":"070-4242-6061","addr":"경기도 고양시 덕양구 주교동 1309번지","indutype":"일반휴게음식 - 서양음식","category":"restaurant"}]},{"lat":"37.656655617","long":"126.83067308","imageIndex":4,"items":[{"name":"한라식당","tel":"031-965-9787","addr":"경기도 고양시 덕양구 주교동 605-16번지","indutype":"일반휴게음식 - 일반한식","category":"restaurant"}]},{"lat":"37.66252111","long":"126.8370969","imageIndex":4,"items":[{"name":"향촌칼국수","tel":"031-966-6602","addr":"경기도 고양시 덕양구 주교동 567-5번지","indutype":"일반휴게음식 - 일반한식","category":"restaurant"}]},{"lat":"37.655516694","long":"126.83434738","imageIndex":4,"items":[{"name":"호미식당","tel":"031-63-1370","addr":"경기도 고양시 덕양구 주교동 609-2번지","indutype":"일반휴게음식 - 일반한식","category":"restaurant"}]},{"lat":"37.656634166","long":"126.83453751","imageIndex":4,"items":[{"name":"황칠백숙","tel":"031-965-3332","addr":"경기도 고양시 덕양구 주교동 613-8번지","indutype":"일반휴게음식 - 일반한식","category":"restaurant"}]},{"lat":"37.661211132","long":"126.83457251","imageIndex":4,"items":[{"name":"희원식당","tel":"031-968-6883","addr":"경기도 고양시 덕양구 주교동 581-17번지 중앙하이츠빌","indutype":"일반휴게음식 - 일반한식","category":"restaurant"}]}]