[{"lat":"37.284661664","long":"127.43082406","imageIndex":4,"items":[{"name":"(만남) 멸치국시와 돈까스","tel":"031-631-3318","addr":"경기도 이천시 관고동 182-1번지","indutype":"일반휴게음식 - 일반한식","category":"restaurant"}]},{"lat":"37.282663179","long":"127.4328199","imageIndex":4,"items":[{"name":"(주)오가다 이천병원점","tel":"02-738-0124","addr":"경기도 이천시 관고동 515번지 1층","indutype":"일반휴게음식 - 서양음식","category":"restaurant"}]},{"lat":"37.282462502","long":"127.43596478","imageIndex":4,"items":[{"name":"10 coffee","tel":"031-635-8561","addr":"경기도 이천시 관고동 62-2번지","indutype":"일반휴게음식 - 일반한식","category":"restaurant"}]},{"lat":"37.278609678","long":"127.43499557","imageIndex":4,"items":[{"name":"10번가고깃집&쉐프의부대찌개(이천점)","tel":"031-637-5937","addr":"경기도 이천시 관고동 502-5번지 1층","indutype":"일반휴게음식 - 일반한식","category":"restaurant"}]},{"lat":"37.281493515","long":"127.43730107","imageIndex":4,"items":[{"name":"1989떡다방","tel":"031-637-3075","addr":"경기도 이천시 관고동 18번지","indutype":"일반휴게음식 - 일반한식","category":"restaurant"},{"name":"대웅왕족발","tel":"031-633-7656","addr":"경기도 이천시 관고동 18번지","indutype":"일반휴게음식 - 일반한식","category":"restaurant"}]},{"lat":"37.281136197","long":"127.43891147","imageIndex":4,"items":[{"name":"5092(고은선)","tel":"031-638-5092","addr":"경기도 이천시 관고동 13번지","indutype":"일반휴게음식 - 일반한식","category":"restaurant"}]},{"lat":"37.281492022","long":"127.44015387","imageIndex":4,"items":[{"name":"59쌀피자","tel":"031-631-5901","addr":"경기도 이천시 관고동 9-4번지 1층","indutype":"일반휴게음식 - 서양음식","category":"restaurant"}]},{"lat":"37.275884835","long":"127.42098758","imageIndex":4,"items":[{"name":"Cafe Blossom","tel":"031-631-6310","addr":"경기도 이천시 관고동 435-4번지 이천세계도자센터 K동","indutype":"일반휴게음식 - 서양음식","category":"restaurant"},{"name":"cafe Blossom","tel":"031-631-6310","addr":"경기도 이천시 관고동 435-4번지 이천세계도자센터 K동","indutype":"일반휴게음식 - 서양음식","category":"restaurant"}]},{"lat":"37.282080335","long":"127.43943561","imageIndex":4,"items":[{"name":"감성호떡","tel":"070-6449-4016","addr":"경기도 이천시 관고동 4-38번지 103호","indutype":"일반휴게음식 - 일반한식","category":"restaurant"},{"name":"수신닭발 이천점","tel":"031-635-2000","addr":"경기도 이천시 관고동 4-38번지 1층","indutype":"일반휴게음식 - 일반한식","category":"restaurant"}]},{"lat":"37.281630746","long":"127.43426862","imageIndex":4,"items":[{"name":"강남족발","tel":"031-637-5888","addr":"경기도 이천시 관고동 223-16번지","indutype":"일반휴게음식 - 일반한식","category":"restaurant"}]},{"lat":"37.282296576","long":"127.43943686","imageIndex":4,"items":[{"name":"강원막창숯불구이","tel":"031-635-4546","addr":"경기도 이천시 관고동 4-12번지","indutype":"일반휴게음식 - 일반한식","category":"restaurant"}]},{"lat":"37.27877245","long":"127.43729671","imageIndex":4,"items":[{"name":"경미네식당","tel":"031-637-0044","addr":"경기도 이천시 관고동 26-1번지","indutype":"일반휴게음식 - 일반한식","category":"restaurant"}]},{"lat":"37.281355622","long":"127.44049136","imageIndex":4,"items":[{"name":"골목길","tel":"031-000-0000","addr":"경기도 이천시 관고동 9-14번지","indutype":"일반휴게음식 - 일반한식","category":"restaurant"},{"name":"대구생막창","tel":"031-636-9775","addr":"경기도 이천시 관고동 9-14번지","indutype":"일반휴게음식 - 일반한식","category":"restaurant"},{"name":"힘찬장어","tel":"031-633-1092","addr":"경기도 이천시 관고동 9-14번지 힘찬장어","indutype":"일반휴게음식 - 일반한식","category":"restaurant"}]},{"lat":"37.280825656","long":"127.44004853","imageIndex":4,"items":[{"name":"공원분식","tel":"02-0000-0000","addr":"경기도 이천시 관고동 10-20번지","indutype":"일반휴게음식 - 일반한식","category":"restaurant"}]},{"lat":"37.281691776","long":"127.43729093","imageIndex":4,"items":[{"name":"관고 새마을식당","tel":"031-635-1301","addr":"경기도 이천시 관고동 17-14번지","indutype":"일반휴게음식 - 일반한식","category":"restaurant"}]},{"lat":"37.282493589","long":"127.439765","imageIndex":4,"items":[{"name":"구이가2호점","tel":"031-635-9244","addr":"경기도 이천시 관고동 5-10번지","indutype":"일반휴게음식 - 일반한식","category":"restaurant"}]},{"lat":"37.281937298","long":"127.43913033","imageIndex":4,"items":[{"name":"굽네치킨 이천관고점","tel":"031-638-9298","addr":"경기도 이천시 관고동 4-23번지 1층","indutype":"일반휴게음식 - 스넥","category":"restaurant"},{"name":"막걸리","tel":"031-637-9151","addr":"경기도 이천시 관고동 4-23번지","indutype":"일반휴게음식 - 일반한식","category":"restaurant"},{"name":"만원족발","tel":"031-634-2992","addr":"경기도 이천시 관고동 4-23번지 1층","indutype":"일반휴게음식 - 일반한식","category":"restaurant"}]},{"lat":"37.282909531","long":"127.41935757","imageIndex":4,"items":[{"name":"그래시","tel":"031-111-1111","addr":"경기도 이천시 관고동 산64-1번지","indutype":"일반휴게음식 - 서양음식","category":"restaurant"}]},{"lat":"37.283215222","long":"127.43954365","imageIndex":4,"items":[{"name":"김포식당","tel":"031-634-0725","addr":"경기도 이천시 관고동 3-7번지","indutype":"일반휴게음식 - 일반한식","category":"restaurant"}]},{"lat":"37.282742225","long":"127.43585362","imageIndex":4,"items":[{"name":"까로치아 이천점","tel":"","addr":"경기도 이천시 관고동 73-2번지 1층","indutype":"일반휴게음식 - 서양음식","category":"restaurant"}]},{"lat":"37.282296977","long":"127.43687719","imageIndex":4,"items":[{"name":"꼬맛","tel":"031-631-4533","addr":"경기도 이천시 관고동 85-10번지","indutype":"일반휴게음식 - 스넥","category":"restaurant"}]},{"lat":"37.280908203","long":"127.43965436","imageIndex":4,"items":[{"name":"나무그늘","tel":"031-633-3352","addr":"경기도 이천시 관고동 10-23번지 1층","indutype":"일반휴게음식 - 주점","category":"restaurant"},{"name":"두꺼비식당","tel":"031-634-1778","addr":"경기도 이천시 관고동 10-23번지 1층","indutype":"일반휴게음식 - 일반한식","category":"restaurant"}]},{"lat":"37.280410658","long":"127.43774588","imageIndex":4,"items":[{"name":"남향","tel":"031-633-1725","addr":"경기도 이천시 관고동 16-21번지 1층","indutype":"일반휴게음식 - 일반한식","category":"restaurant"},{"name":"눈꽃송이","tel":"031-633-2322","addr":"경기도 이천시 관고동 16-21번지","indutype":"일반휴게음식 - 스넥","category":"restaurant"}]},{"lat":"37.282106443","long":"127.43723693","imageIndex":4,"items":[{"name":"내짝꿍옛날통닭","tel":"031-631-1955","addr":"경기도 이천시 관고동 35-4번지 1층","indutype":"일반휴게음식 - 스넥","category":"restaurant"}]},{"lat":"37.286325129","long":"127.43176944","imageIndex":4,"items":[{"name":"네네치킨 네네피자 이천관고점","tel":"031-631-7557","addr":"경기도 이천시 관고동 100-7번지 지하1층","indutype":"일반휴게음식 - 스넥","category":"restaurant"},{"name":"무안해물탕","tel":"031-637-5979","addr":"경기도 이천시 관고동 100-7번지","indutype":"일반휴게음식 - 일반한식","category":"restaurant"}]},{"lat":"37.278962695","long":"127.43701591","imageIndex":4,"items":[{"name":"논두렁밭두렁","tel":"031-637-7007","addr":"경기도 이천시 관고동 500-1번지","indutype":"일반휴게음식 - 일반한식","category":"restaurant"},{"name":"오늘의 밥상","tel":"","addr":"경기도 이천시 관고동 500-1번지","indutype":"일반휴게음식 - 일반한식","category":"restaurant"}]},{"lat":"37.281272177","long":"127.43868673","imageIndex":4,"items":[{"name":"놀란돼지","tel":"031-638-9297","addr":"경기도 이천시 관고동 15-3번지","indutype":"일반휴게음식 - 일반한식","category":"restaurant"},{"name":"옛날밥집","tel":"","addr":"경기도 이천시 관고동 15-3번지","indutype":"일반휴게음식 - 일반한식","category":"restaurant"}]},{"lat":"37.281798445","long":"127.44013309","imageIndex":4,"items":[{"name":"농부네찹쌀이야기","tel":"031-635-9294","addr":"경기도 이천시 관고동 8-13번지","indutype":"일반휴게음식 - 서양음식","category":"restaurant"},{"name":"따스한솥밥","tel":"031-633-4805","addr":"경기도 이천시 관고동 8-13번지","indutype":"일반휴게음식 - 일반한식","category":"restaurant"}]},{"lat":"37.281882199","long":"127.43941191","imageIndex":4,"items":[{"name":"다대기(관고점)","tel":"031-637-4747","addr":"경기도 이천시 관고동 4-18번지","indutype":"일반휴게음식 - 일반한식","category":"restaurant"}]},{"lat":"37.279378478","long":"127.43665748","imageIndex":4,"items":[{"name":"다복정","tel":"031-637-1717","addr":"경기도 이천시 관고동 453-22번지","indutype":"일반휴게음식 - 일반한식","category":"restaurant"}]},{"lat":"37.280657046","long":"127.43934846","imageIndex":4,"items":[{"name":"다원","tel":"031-632-7444","addr":"경기도 이천시 관고동 12-4번지","indutype":"일반휴게음식 - 일반한식","category":"restaurant"},{"name":"타임다방","tel":"031-635-2023","addr":"경기도 이천시 관고동 12-4번지","indutype":"일반휴게음식 - 서양음식","category":"restaurant"}]},{"lat":"37.282963149","long":"127.43948581","imageIndex":4,"items":[{"name":"닭이랑호프","tel":"031-632-9959","addr":"경기도 이천시 관고동 3-11번지 1층","indutype":"일반휴게음식 - 일반한식","category":"restaurant"}]},{"lat":"37.281356833","long":"127.43771749","imageIndex":4,"items":[{"name":"대구왕뽈찜(관고점)","tel":"031-631-5234","addr":"경기도 이천시 관고동 16번지","indutype":"일반휴게음식 - 일반한식","category":"restaurant"},{"name":"희정이네시골통닭","tel":"031-631-3554","addr":"경기도 이천시 관고동 16번지 1층","indutype":"일반휴게음식 - 일반한식","category":"restaurant"}]},{"lat":"37.287352678","long":"127.43166251","imageIndex":4,"items":[{"name":"대봉수대학로족발","tel":"031-633-5004","addr":"경기도 이천시 관고동 136-3번지 4층","indutype":"일반휴게음식 - 일반한식","category":"restaurant"},{"name":"폭풍갈비 이천점","tel":"031-632-8253","addr":"경기도 이천시 관고동 136-3번지 3층","indutype":"일반휴게음식 - 일반한식","category":"restaurant"}]},{"lat":"37.282188455","long":"127.43943623","imageIndex":4,"items":[{"name":"대장금","tel":"031-633-3463","addr":"경기도 이천시 관고동 4-37번지","indutype":"일반휴게음식 - 일반한식","category":"restaurant"}]},{"lat":"37.280577285","long":"127.43898717","imageIndex":4,"items":[{"name":"돈돼지","tel":"031-634-1747","addr":"경기도 이천시 관고동 12-6번지 1층","indutype":"일반휴게음식 - 일반한식","category":"restaurant"}]},{"lat":"37.281521785","long":"127.43696295","imageIndex":4,"items":[{"name":"돈이네","tel":"031-636-2999","addr":"경기도 이천시 관고동 19-2번지","indutype":"일반휴게음식 - 일반한식","category":"restaurant"}]},{"lat":"37.281489454","long":"127.43840609","imageIndex":4,"items":[{"name":"돼복구이","tel":"","addr":"경기도 이천시 관고동 14-15번지","indutype":"일반휴게음식 - 일반한식","category":"restaurant"},{"name":"옛날통닭","tel":"031-637-9589","addr":"경기도 이천시 관고동 14-15번지 1층","indutype":"일반휴게음식 - 일반한식","category":"restaurant"}]},{"lat":"37.278803368","long":"127.43376764","imageIndex":4,"items":[{"name":"들밥 이천점","tel":"031-636-6679","addr":"경기도 이천시 관고동 243-2번지","indutype":"일반휴게음식 - 일반한식","category":"restaurant"}]},{"lat":"37.281470314","long":"127.43871043","imageIndex":4,"items":[{"name":"또래오래","tel":"031-632-9974","addr":"경기도 이천시 관고동 14-9번지","indutype":"일반휴게음식 - 일반한식","category":"restaurant"}]},{"lat":"37.281327482","long":"127.43834877","imageIndex":4,"items":[{"name":"로타리막창","tel":"031-633-7737","addr":"경기도 이천시 관고동 15번지","indutype":"일반휴게음식 - 일반한식","category":"restaurant"}]},{"lat":"37.278742922","long":"127.43304566","imageIndex":4,"items":[{"name":"루케테","tel":"070-7862-1697","addr":"경기도 이천시 관고동 241-2번지 3,4층","indutype":"일반휴게음식 - 서양음식","category":"restaurant"}]},{"lat":"37.278823117","long":"127.43576352","imageIndex":4,"items":[{"name":"마시따","tel":"031-634-6644","addr":"경기도 이천시 관고동 501번지","indutype":"일반휴게음식 - 서양음식","category":"restaurant"}]},{"lat":"37.281547705","long":"127.43971443","imageIndex":4,"items":[{"name":"만나토종순대국","tel":"031-635-3323","addr":"경기도 이천시 관고동 9번지","indutype":"일반휴게음식 - 일반한식","category":"restaurant"}]},{"lat":"37.280464925","long":"127.43768981","imageIndex":4,"items":[{"name":"멕시칸치킨","tel":"031-635-1785","addr":"경기도 이천시 관고동 16-23번지","indutype":"일반휴게음식 - 스넥","category":"restaurant"}]},{"lat":"37.28129983","long":"127.43851775","imageIndex":4,"items":[{"name":"명당전골나라","tel":"031-635-7281","addr":"경기도 이천시 관고동 15-2번지","indutype":"일반휴게음식 - 일반한식","category":"restaurant"}]},{"lat":"37.281051531","long":"127.4398807","imageIndex":4,"items":[{"name":"명물부대찌개","tel":"031-637-8446","addr":"경기도 이천시 관고동 10-2번지 1층 명물부대찌개","indutype":"일반휴게음식 - 일반한식","category":"restaurant"},{"name":"소문난칼국수","tel":"031-635-6102","addr":"경기도 이천시 관고동 10-2번지","indutype":"일반휴게음식 - 일반한식","category":"restaurant"}]},{"lat":"37.278716316","long":"127.43540209","imageIndex":4,"items":[{"name":"명성식당","tel":"031-631-9702","addr":"경기도 이천시 관고동 502-8번지","indutype":"일반휴게음식 - 일반한식","category":"restaurant"}]},{"lat":"37.280108678","long":"127.42407795","imageIndex":4,"items":[{"name":"미술관카페 (MISULGWAN)","tel":"031-123-1234","addr":"경기도 이천시 관고동 378번지","indutype":"일반휴게음식 - 서양음식","category":"restaurant"}]},{"lat":"37.279132354","long":"127.43743408","imageIndex":4,"items":[{"name":"미친노가리 (설봉점)","tel":"031-638-3992","addr":"경기도 이천시 관고동 25-8번지","indutype":"일반휴게음식 - 주점","category":"restaurant"}]},{"lat":"37.281519551","long":"127.44001872","imageIndex":4,"items":[{"name":"민속촌","tel":"031-631-1568","addr":"경기도 이천시 관고동 9-29번지","indutype":"일반휴게음식 - 일반한식","category":"restaurant"},{"name":"엄마분식","tel":"031-635-0120","addr":"경기도 이천시 관고동 9-29번지 철근콘크리트 1층","indutype":"일반휴게음식 - 일반한식","category":"restaurant"}]},{"lat":"37.279054117","long":"127.43665562","imageIndex":4,"items":[{"name":"바로커양념치킨","tel":"031-638-5065","addr":"경기도 이천시 관고동 501-11번지","indutype":"일반휴게음식 - 주점","category":"restaurant"}]},{"lat":"37.281301986","long":"127.43793142","imageIndex":4,"items":[{"name":"보드람치킨","tel":"031-636-3012","addr":"경기도 이천시 관고동 16-2번지 1층","indutype":"일반휴게음식 - 일반한식","category":"restaurant"},{"name":"웰빙보리밥부페","tel":"031-634-4353","addr":"경기도 이천시 관고동 16-2번지 2층","indutype":"일반휴게음식 - 일반한식","category":"restaurant"}]},{"lat":"37.28174389","long":"127.4378212","imageIndex":4,"items":[{"name":"봉구네축산 정육식당","tel":"031-635-9288","addr":"경기도 이천시 관고동 17-3번지 봉구네축산 정육식당","indutype":"일반휴게음식 - 일반한식","category":"restaurant"},{"name":"풍뎅이호프","tel":"031-638-3633","addr":"경기도 이천시 관고동 17-3번지","indutype":"일반휴게음식 - 주점","category":"restaurant"}]},{"lat":"37.281491605","long":"127.44026663","imageIndex":4,"items":[{"name":"봉구스 밥버거(이천 관고점)","tel":"031-635-5094","addr":"경기도 이천시 관고동 9-5번지 1층","indutype":"일반휴게음식 - 일반한식","category":"restaurant"}]},{"lat":"37.282328827","long":"127.44046317","imageIndex":4,"items":[{"name":"부국식당","tel":"031-638-3479","addr":"경기도 이천시 관고동 6-5번지","indutype":"일반휴게음식 - 일반한식","category":"restaurant"},{"name":"자카싸롱","tel":"031-635-1301","addr":"경기도 이천시 관고동 6-5번지","indutype":"일반휴게음식 - 주점","category":"restaurant"}]},{"lat":"37.280660119","long":"127.43851407","imageIndex":4,"items":[{"name":"부뚜막돈가","tel":"031-632-6980","addr":"경기도 이천시 관고동 15-11번지","indutype":"일반휴게음식 - 일반한식","category":"restaurant"}]},{"lat":"37.278855277","long":"127.43682361","imageIndex":4,"items":[{"name":"부악정육점식당","tel":"031-635-4501","addr":"경기도 이천시 관고동 500-8번지","indutype":"일반휴게음식 - 일반한식","category":"restaurant"}]},{"lat":"37.281383693","long":"127.44020962","imageIndex":4,"items":[{"name":"불로군불족발","tel":"031-632-7971","addr":"경기도 이천시 관고동 9-25번지","indutype":"일반휴게음식 - 일반한식","category":"restaurant"}]},{"lat":"37.281191294","long":"127.43862989","imageIndex":4,"items":[{"name":"뿅가네","tel":"031-638-4952","addr":"경기도 이천시 관고동 15-4번지","indutype":"일반휴게음식 - 일반한식","category":"restaurant"},{"name":"힐링라이트","tel":"","addr":"경기도 이천시 관고동 15-4번지 1호","indutype":"일반휴게음식 - 서양음식","category":"restaurant"}]},{"lat":"37.281521372","long":"127.43707571","imageIndex":4,"items":[{"name":"사신떡볶이","tel":"031-634-1929","addr":"경기도 이천시 관고동 19-4번지 1층","indutype":"일반휴게음식 - 일반한식","category":"restaurant"}]},{"lat":"37.278747033","long":"127.43685681","imageIndex":4,"items":[{"name":"산골흑염소요리전문점","tel":"031-637-1012","addr":"경기도 이천시 관고동 500-5번지 1층","indutype":"일반휴게음식 - 일반한식","category":"restaurant"}]},{"lat":"37.281913217","long":"127.43340198","imageIndex":4,"items":[{"name":"산천능이한방백숙","tel":"031-631-0027","addr":"경기도 이천시 관고동 214-7번지","indutype":"일반휴게음식 - 일반한식","category":"restaurant"},{"name":"허니&올리브갤러리","tel":"031-634-7776","addr":"경기도 이천시 관고동 214-7번지","indutype":"일반휴게음식 - 서양음식","category":"restaurant"}]},{"lat":"37.280914632","long":"127.4403535","imageIndex":4,"items":[{"name":"삼미국시","tel":"031-635-5067","addr":"경기도 이천시 관고동 10-10번지 삼미국시","indutype":"일반휴게음식 - 일반한식","category":"restaurant"},{"name":"삼미분식","tel":"031-635-5057","addr":"경기도 이천시 관고동 10-10번지","indutype":"일반휴게음식 - 일반한식","category":"restaurant"}]},{"lat":"37.280968483","long":"127.44041019","imageIndex":4,"items":[{"name":"삼미분식","tel":"031-635-5057","addr":"경기도 이천시 관고동 10-11번지","indutype":"일반휴게음식 - 스넥","category":"restaurant"}]},{"lat":"37.282049809","long":"127.44038262","imageIndex":4,"items":[{"name":"삼미정","tel":"031-636-9328","addr":"경기도 이천시 관고동 7-7번지","indutype":"일반휴게음식 - 일반한식","category":"restaurant"},{"name":"카페플러스","tel":"031-641-2136","addr":"경기도 이천시 관고동 7-7번지 1층","indutype":"일반휴게음식 - 서양음식","category":"restaurant"}]},{"lat":"37.282461594","long":"127.43621285","imageIndex":4,"items":[{"name":"삼보참치","tel":"031-638-8589","addr":"경기도 이천시 관고동 64-3번지 1층","indutype":"일반휴게음식 - 일반한식","category":"restaurant"}]},{"lat":"37.279525195","long":"127.43348986","imageIndex":4,"items":[{"name":"설봉가든","tel":"031-633-9262","addr":"경기도 이천시 관고동 236-4번지","indutype":"일반휴게음식 - 일반한식","category":"restaurant"},{"name":"오리가","tel":"031-634-5295","addr":"경기도 이천시 관고동 236-4번지","indutype":"일반휴게음식 - 일반한식","category":"restaurant"}]},{"lat":"37.278964926","long":"127.43640704","imageIndex":4,"items":[{"name":"설봉골생고기","tel":"031-637-9697","addr":"경기도 이천시 관고동 501-5번지","indutype":"일반휴게음식 - 일반한식","category":"restaurant"}]},{"lat":"37.281465905","long":"127.43745877","imageIndex":4,"items":[{"name":"설봉분식","tel":"","addr":"경기도 이천시 관고동 18-1번지 설봉분식","indutype":"일반휴게음식 - 스넥","category":"restaurant"}]},{"lat":"37.281663919","long":"127.43751629","imageIndex":4,"items":[{"name":"속초머구리","tel":"031-634-5789","addr":"경기도 이천시 관고동 17-10번지","indutype":"일반휴게음식 - 일반한식","category":"restaurant"}]},{"lat":"37.278990345","long":"127.43684694","imageIndex":4,"items":[{"name":"수향","tel":"031-638-7888","addr":"경기도 이천시 관고동 500번지","indutype":"일반휴게음식 - 중국식","category":"restaurant"}]},{"lat":"37.278739682","long":"127.43393641","imageIndex":4,"items":[{"name":"신기칡냉면","tel":"031-633-2454","addr":"경기도 이천시 관고동 244-8번지","indutype":"일반휴게음식 - 일반한식","category":"restaurant"},{"name":"황금들녘두부촌","tel":"031-633-7485","addr":"경기도 이천시 관고동 244-8번지","indutype":"일반휴게음식 - 일반한식","category":"restaurant"}]},{"lat":"37.281158116","long":"127.43785166","imageIndex":4,"items":[{"name":"신별미칡냉면 코다리냉면.육개장","tel":"031-634-2582","addr":"경기도 이천시 관고동 16-5번지","indutype":"일반휴게음식 - 일반한식","category":"restaurant"}]},{"lat":"37.282354877","long":"127.43582885","imageIndex":4,"items":[{"name":"신성짬뽕전문점/신성","tel":"031-635-6800","addr":"경기도 이천시 관고동 62-1번지 1층","indutype":"일반휴게음식 - 중국식","category":"restaurant"}]},{"lat":"37.280880549","long":"127.43982333","imageIndex":4,"items":[{"name":"신일수산","tel":"02-0000-0000","addr":"경기도 이천시 관고동 10-22번지 신일수산","indutype":"일반휴게음식 - 일식·회집","category":"restaurant"}]},{"lat":"37.281659524","long":"127.43871152","imageIndex":4,"items":[{"name":"신참떡볶이 이천관고점","tel":"031-638-2999","addr":"경기도 이천시 관고동 14-1번지","indutype":"일반휴게음식 - 일반한식","category":"restaurant"}]},{"lat":"37.28121445","long":"127.43229296","imageIndex":4,"items":[{"name":"아름다운 샘 (Beautiful spring coffee hou","tel":"031-635-1301","addr":"경기도 이천시 관고동 218-1번지","indutype":"일반휴게음식 - 서양음식","category":"restaurant"},{"name":"한갑루짬뽕명가","tel":"031-638-3688","addr":"경기도 이천시 관고동 218-1번지","indutype":"일반휴게음식 - 중국식","category":"restaurant"}]},{"lat":"37.282052259","long":"127.43727045","imageIndex":4,"items":[{"name":"야신떡볶이","tel":"031-637-8353","addr":"경기도 이천시 관고동 41-9번지","indutype":"일반휴게음식 - 일반한식","category":"restaurant"}]},{"lat":"37.281850797","long":"127.44059571","imageIndex":4,"items":[{"name":"양평보리밥묵밥","tel":"031-637-1819","addr":"경기도 이천시 관고동 7-11번지","indutype":"일반휴게음식 - 일반한식","category":"restaurant"}]},{"lat":"37.280798557","long":"127.43268526","imageIndex":4,"items":[{"name":"양평해장국(관고점)","tel":"031-638-0001","addr":"경기도 이천시 관고동 231-11번지","indutype":"일반휴게음식 - 일반한식","category":"restaurant"}]},{"lat":"37.284655749","long":"127.42996702","imageIndex":4,"items":[{"name":"연화카페","tel":"","addr":"경기도 이천시 관고동 106번지 1층","indutype":"일반휴게음식 - 서양음식","category":"restaurant"}]},{"lat":"37.280775589","long":"127.43896576","imageIndex":4,"items":[{"name":"열린마당","tel":"031-631-0054","addr":"경기도 이천시 관고동 12-1번지","indutype":"일반휴게음식 - 일반한식","category":"restaurant"},{"name":"춘천원조이천닭갈비","tel":"031-636-7364","addr":"경기도 이천시 관고동 12-1번지","indutype":"일반휴게음식 - 일반한식","category":"restaurant"}]},{"lat":"37.281102232","long":"127.43834748","imageIndex":4,"items":[{"name":"예지현","tel":"031-636-0988","addr":"경기도 이천시 관고동 15-22번지 1층","indutype":"일반휴게음식 - 중국식","category":"restaurant"}]},{"lat":"37.28185466","long":"127.43710018","imageIndex":4,"items":[{"name":"옐로우펍 이천점","tel":"","addr":"경기도 이천시 관고동 20-9번지","indutype":"일반휴게음식 - 스넥","category":"restaurant"}]},{"lat":"37.282635218","long":"127.43554856","imageIndex":4,"items":[{"name":"오리사냥","tel":"031-632-5292","addr":"경기도 이천시 관고동 62-17번지 1층","indutype":"일반휴게음식 - 일반한식","category":"restaurant"}]},{"lat":"37.278631432","long":"127.43643896","imageIndex":4,"items":[{"name":"왕실족발","tel":"070-2376-1023","addr":"경기도 이천시 관고동 501-7번지 B동 1층","indutype":"일반휴게음식 - 일반한식","category":"restaurant"}]},{"lat":"37.281357996","long":"127.43984865","imageIndex":4,"items":[{"name":"왕십리곱창","tel":"031-3163-3708","addr":"경기도 이천시 관고동 9-27번지","indutype":"일반휴게음식 - 일반한식","category":"restaurant"}]},{"lat":"37.277908688","long":"127.43696476","imageIndex":4,"items":[{"name":"요거프레소","tel":"","addr":"경기도 이천시 관고동 504-16번지 1층","indutype":"일반휴게음식 - 서양음식","category":"restaurant"}]},{"lat":"37.281247627","long":"127.44045691","imageIndex":4,"items":[{"name":"용인닭발","tel":"031-636-2287","addr":"경기도 이천시 관고동 9-15번지","indutype":"일반휴게음식 - 일반한식","category":"restaurant"}]},{"lat":"37.282604163","long":"127.43910035","imageIndex":4,"items":[{"name":"우리김밥","tel":"031-631-8286","addr":"경기도 이천시 관고동 3-20번지 103호","indutype":"일반휴게음식 - 일반한식","category":"restaurant"}]},{"lat":"37.281050906","long":"127.44004984","imageIndex":4,"items":[{"name":"우리사이","tel":"","addr":"경기도 이천시 관고동 10-4번지 2층","indutype":"일반휴게음식 - 주점","category":"restaurant"}]},{"lat":"37.276354909","long":"127.43560281","imageIndex":4,"items":[{"name":"원가네칼국수","tel":"031-631-0606","addr":"경기도 이천시 관고동 332번지","indutype":"일반휴게음식 - 일반한식","category":"restaurant"}]},{"lat":"37.280435035","long":"127.43846767","imageIndex":4,"items":[{"name":"원조갈매기살집","tel":"031-635-5865","addr":"경기도 이천시 관고동 15-14번지 별하빌 1층","indutype":"일반휴게음식 - 일반한식","category":"restaurant"}]},{"lat":"37.286712273","long":"127.43185058","imageIndex":4,"items":[{"name":"육개장인","tel":"031-638-7979","addr":"경기도 이천시 관고동 99-2번지","indutype":"일반휴게음식 - 일반한식","category":"restaurant"},{"name":"카페미단","tel":"031-636-0042","addr":"경기도 이천시 관고동 99-2번지 2층","indutype":"일반휴게음식 - 일반한식","category":"restaurant"}]},{"lat":"37.281134992","long":"127.43923846","imageIndex":4,"items":[{"name":"은혜부페","tel":"031-635-0574","addr":"경기도 이천시 관고동 13-1번지 지하1층","indutype":"일반휴게음식 - 일반한식","category":"restaurant"},{"name":"은혜프라미스","tel":"031-635-4390","addr":"경기도 이천시 관고동 13-1번지","indutype":"일반휴게음식 - 일반한식","category":"restaurant"}]},{"lat":"37.27713709","long":"127.43606958","imageIndex":4,"items":[{"name":"이가설렁탕","tel":"061-631-3633","addr":"경기도 이천시 관고동 503-5번지","indutype":"일반휴게음식 - 일반한식","category":"restaurant"}]},{"lat":"37.282163025","long":"127.43654942","imageIndex":4,"items":[{"name":"이씨형제코다리찜","tel":"031-637-5742","addr":"경기도 이천시 관고동 20-3번지","indutype":"일반휴게음식 - 일반한식","category":"restaurant"}]},{"lat":"37.281686969","long":"127.43859892","imageIndex":4,"items":[{"name":"이제이","tel":"031-637-5504","addr":"경기도 이천시 관고동 14번지 1층","indutype":"일반휴게음식 - 서양음식","category":"restaurant"}]},{"lat":"37.281383283","long":"127.43787551","imageIndex":4,"items":[{"name":"일품칼국수","tel":"031-637-1261","addr":"경기도 이천시 관고동 16-1번지","indutype":"일반휴게음식 - 일반한식","category":"restaurant"}]},{"lat":"37.28077118","long":"127.44016098","imageIndex":4,"items":[{"name":"장터주막","tel":"031-638-8333","addr":"경기도 이천시 관고동 10-15번지","indutype":"일반휴게음식 - 일반한식","category":"restaurant"}]},{"lat":"37.287824136","long":"127.43085325","imageIndex":4,"items":[{"name":"정다함","tel":"031-636-8598","addr":"경기도 이천시 관고동 131-5번지","indutype":"일반휴게음식 - 일반한식","category":"restaurant"}]},{"lat":"37.278962074","long":"127.43718504","imageIndex":4,"items":[{"name":"제일칼국수와전골","tel":"031-638-3026","addr":"경기도 이천시 관고동 26번지 제일칼국수와전골","indutype":"일반휴게음식 - 일반한식","category":"restaurant"}]},{"lat":"37.282602916","long":"127.43943863","imageIndex":4,"items":[{"name":"제천옥","tel":"031-1111-1111","addr":"경기도 이천시 관고동 3-36번지","indutype":"일반휴게음식 - 일반한식","category":"restaurant"}]},{"lat":"37.281497842","long":"127.43857527","imageIndex":4,"items":[{"name":"족발공방이천중앙점","tel":"031-638-9119","addr":"경기도 이천시 관고동 14-10번지","indutype":"일반휴게음식 - 일반한식","category":"restaurant"},{"name":"호프한잔","tel":"031-636-6376","addr":"경기도 이천시 관고동 14-10번지","indutype":"일반휴게음식 - 주점","category":"restaurant"}]},{"lat":"37.281490897","long":"127.44045832","imageIndex":4,"items":[{"name":"종로김밥 이천관고점","tel":"031-634-1806","addr":"경기도 이천시 관고동 9-9번지","indutype":"일반휴게음식 - 일반한식","category":"restaurant"}]},{"lat":"37.28074365","long":"127.44029613","imageIndex":4,"items":[{"name":"주가&협동족발","tel":"031-635-1301","addr":"경기도 이천시 관고동 10-13번지","indutype":"일반휴게음식 - 일반한식","category":"restaurant"}]},{"lat":"37.281965781","long":"127.43873584","imageIndex":4,"items":[{"name":"주막거리","tel":"031-638-8172","addr":"경기도 이천시 관고동 4-31번지","indutype":"일반휴게음식 - 주점","category":"restaurant"}]},{"lat":"37.279519785","long":"127.43743631","imageIndex":4,"items":[{"name":"참치마루","tel":"031-1111-1111","addr":"경기도 이천시 관고동 25-2번지 1층 101호","indutype":"일반휴게음식 - 일반한식","category":"restaurant"}]},{"lat":"37.280661032","long":"127.438266","imageIndex":4,"items":[{"name":"초이돈까스","tel":"031-635-6524","addr":"경기도 이천시 관고동 15-18번지","indutype":"일반휴게음식 - 일반한식","category":"restaurant"}]},{"lat":"37.283323425","long":"127.43952172","imageIndex":4,"items":[{"name":"최대포소금구이","tel":"031-636-4337","addr":"경기도 이천시 관고동 3-6번지","indutype":"일반휴게음식 - 일반한식","category":"restaurant"}]},{"lat":"37.278795671","long":"127.43340678","imageIndex":4,"items":[{"name":"카페뜨레","tel":"031-633-9949","addr":"경기도 이천시 관고동 242-3(1,2층)","indutype":"일반휴게음식 - 서양음식","category":"restaurant"}]},{"lat":"37.28238247","long":"127.44057624","imageIndex":4,"items":[{"name":"캇포식당","tel":"","addr":"경기도 이천시 관고동 6-3번지","indutype":"일반휴게음식 - 일반한식","category":"restaurant"}]},{"lat":"37.28174326","long":"127.44043722","imageIndex":4,"items":[{"name":"킹콩쥬스엔커피","tel":"031-633-3611","addr":"경기도 이천시 관고동 7-14번지 1층","indutype":"일반휴게음식 - 서양음식","category":"restaurant"}]},{"lat":"37.281049995","long":"127.43785104","imageIndex":4,"items":[{"name":"토대력(이천점)","tel":"031-637-3141","addr":"경기도 이천시 관고동 16-7번지 외1필지 1층","indutype":"일반휴게음식 - 스넥","category":"restaurant"}]},{"lat":"37.282963129","long":"127.43209993","imageIndex":4,"items":[{"name":"투썸플레이스 이천의료원점","tel":"031-637-0850","addr":"경기도 이천시 관고동 186-16번지","indutype":"일반휴게음식 - 서양음식","category":"restaurant"}]},{"lat":"37.282103916","long":"127.43546658","imageIndex":4,"items":[{"name":"한정판","tel":"","addr":"경기도 이천시 관고동 58-6번지 2층 201호","indutype":"일반휴게음식 - 서양음식","category":"restaurant"}]},{"lat":"37.279441052","long":"127.43679314","imageIndex":4,"items":[{"name":"훌랄라(관고점)","tel":"031-634-8295","addr":"경기도 이천시 관고동 453-23번지 1층","indutype":"일반휴게음식 - 일반한식","category":"restaurant"}]},{"lat":"37.279854272","long":"127.43713379","imageIndex":4,"items":[{"name":"흥남밀면","tel":"031-631-8078","addr":"경기도 이천시 관고동 24-1번지","indutype":"일반휴게음식 - 일반한식","category":"restaurant"}]},{"lat":"37.281490897","long":"127.44045832","imageIndex":7,"items":[{"name":"(주)다원청과","tel":"","addr":"경기도 이천시 관고동 9-9번지 1층","indutype":"음료식품 - 농·축·수산품","category":"food"}]},{"lat":"37.281355622","long":"127.44049136","imageIndex":7,"items":[{"name":"강화상회","tel":"031-635-2343","addr":"경기도 이천시 관고동 9-14번지","indutype":"음료식품 - 기타음료식품","category":"food"},{"name":"부흥상회","tel":"031-635-4026","addr":"경기도 이천시 관고동 9-14번지","indutype":"음료식품 - 농·축·수산품","category":"food"}]},{"lat":"37.281936882","long":"127.43924309","imageIndex":7,"items":[{"name":"고려인삼 이천총판","tel":"031-635-3933","addr":"경기도 이천시 관고동 4-22번지","indutype":"음료식품 - 기타음료식품","category":"food"}]},{"lat":"37.282683922","long":"127.43946165","imageIndex":7,"items":[{"name":"공설건강원","tel":"031-635-4688","addr":"경기도 이천시 관고동 3-15번지","indutype":"건강식품 - 기타건강식품","category":"food"}]},{"lat":"37.282800845","long":"127.4395187","imageIndex":7,"items":[{"name":"관고동새마을부녀회","tel":"031-635-4737","addr":"경기도 이천시 관고동 3-14번지","indutype":"음료식품 - 미곡상","category":"food"},{"name":"해궁찰김","tel":"031-631-3330","addr":"경기도 이천시 관고동 3-14번지","indutype":"음료식품 - 기타음료식품","category":"food"}]},{"lat":"37.279744538","long":"127.43757291","imageIndex":7,"items":[{"name":"구룡산흑염소","tel":"031-636-0334","addr":"경기도 이천시 관고동 25번지","indutype":"건강식품 - 기타건강식품","category":"food"}]},{"lat":"37.281826724","long":"127.43979498","imageIndex":7,"items":[{"name":"그랑프리제과점","tel":"031-634-0744","addr":"경기도 이천시 관고동 8-17번지","indutype":"음료식품 - 제과점","category":"food"}]},{"lat":"37.2835799","long":"127.4383843","imageIndex":7,"items":[{"name":"그린 서플라이 앤 서비스","tel":"","addr":"경기도 이천시 관고동 1-19번지 1층","indutype":"음료식품 - 기타음료식품","category":"food"}]},{"lat":"37.283497995","long":"127.43368164","imageIndex":7,"items":[{"name":"나주유통","tel":"031-631-0080","addr":"경기도 이천시 관고동 199-13번지","indutype":"음료식품 - 미곡상","category":"food"}]},{"lat":"37.280908203","long":"127.43965436","imageIndex":7,"items":[{"name":"남도","tel":"031-635-1301","addr":"경기도 이천시 관고동 10-23번지 1층","indutype":"음료식품 - 기타음료식품","category":"food"},{"name":"맛있는반찬집","tel":"031-635-8376","addr":"경기도 이천시 관고동 10-23번지","indutype":"음료식품 - 농·축·수산품","category":"food"},{"name":"어머니상회","tel":"031-632-0696","addr":"경기도 이천시 관고동 10-23번지","indutype":"음료식품 - 농·축·수산품","category":"food"}]},{"lat":"37.278855277","long":"127.43682361","imageIndex":7,"items":[{"name":"대농유통","tel":"031-634-3640","addr":"경기도 이천시 관고동 500-8번지","indutype":"음료식품 - 정육점","category":"food"},{"name":"시민건강원","tel":"031-638-0285","addr":"경기도 이천시 관고동 500-8번지","indutype":"건강식품 - 기타건강식품","category":"food"}]},{"lat":"37.281185765","long":"127.44012955","imageIndex":7,"items":[{"name":"두만사","tel":"031-635-1301","addr":"경기도 이천시 관고동 9-19번지","indutype":"음료식품 - 기타음료식품","category":"food"}]},{"lat":"37.282051503","long":"127.43501524","imageIndex":7,"items":[{"name":"떡보의하루","tel":"031-636-4417","addr":"경기도 이천시 관고동 60-3번지 101호","indutype":"음료식품 - 제과점","category":"food"}]},{"lat":"37.281716239","long":"127.43799018","imageIndex":7,"items":[{"name":"로타리떡방앗간","tel":"031-635-3568","addr":"경기도 이천시 관고동 17-5번지","indutype":"음료식품 - 기타음료식품","category":"food"},{"name":"로타리떡방앗간","tel":"031-635-3568","addr":"경기도 이천시 관고동 17-5번지","indutype":"음료식품 - 제과점","category":"food"}]},{"lat":"37.280853103","long":"127.43993593","imageIndex":7,"items":[{"name":"만물식품","tel":"031-635-2580","addr":"경기도 이천시 관고동 10-21번지","indutype":"음료식품 - 농·축·수산품","category":"food"}]},{"lat":"37.281357996","long":"127.43984865","imageIndex":7,"items":[{"name":"바로구운빵","tel":"031-637-6113","addr":"경기도 이천시 관고동 9-27번지","indutype":"음료식품 - 제과점","category":"food"},{"name":"삼성정육점","tel":"031-635-5549","addr":"경기도 이천시 관고동 9-27번지","indutype":"음료식품 - 정육점","category":"food"}]},{"lat":"37.281158318","long":"127.44024215","imageIndex":7,"items":[{"name":"밤배기맛김","tel":"031-635-2955","addr":"경기도 이천시 관고동 9-18번지","indutype":"음료식품 - 기타음료식품","category":"food"}]},{"lat":"37.278630234","long":"127.43676594","imageIndex":7,"items":[{"name":"부악정육점","tel":"031-635-4501","addr":"경기도 이천시 관고동 500-4번지","indutype":"음료식품 - 정육점","category":"food"}]},{"lat":"37.280914632","long":"127.4403535","imageIndex":7,"items":[{"name":"부창상회","tel":"031-635-6415","addr":"경기도 이천시 관고동 10-10번지","indutype":"음료식품 - 농·축·수산품","category":"food"}]},{"lat":"37.278997027","long":"127.43502033","imageIndex":7,"items":[{"name":"산호고기백화점/주식회사 산호푸드","tel":"031-635-9444","addr":"경기도 이천시 관고동 453-6번지","indutype":"음료식품 - 정육점","category":"food"}]},{"lat":"37.282461594","long":"127.43621285","imageIndex":7,"items":[{"name":"삼보참치 직판장","tel":"031-638-8589","addr":"경기도 이천시 관고동 64-3번지","indutype":"음료식품 - 농·축·수산품","category":"food"}]},{"lat":"37.278942381","long":"127.42771346","imageIndex":7,"items":[{"name":"설봉공원매점","tel":"031-635-4088","addr":"경기도 이천시 관고동 356번지 설봉공원","indutype":"음료식품 - 기타음료식품","category":"food"}]},{"lat":"37.280998386","long":"127.43963233","imageIndex":7,"items":[{"name":"설봉청과","tel":"031-637-8898","addr":"경기도 이천시 관고동 10-28 설봉청과","indutype":"음료식품 - 농·축·수산품","category":"food"}]},{"lat":"37.280968483","long":"127.44041019","imageIndex":7,"items":[{"name":"스피드푸줏간","tel":"031-635-2778","addr":"경기도 이천시 관고동 10-11번지","indutype":"음료식품 - 정육점","category":"food"}]},{"lat":"37.280969025","long":"127.4402636","imageIndex":7,"items":[{"name":"스피드푸줏간","tel":"031-635-2778","addr":"경기도 이천시 관고동 10-9","indutype":"음료식품 - 정육점","category":"food"},{"name":"현대수산","tel":"031-632-2944","addr":"경기도 이천시 관고동 10-9","indutype":"음료식품 - 정육점","category":"food"}]},{"lat":"37.286712273","long":"127.43185058","imageIndex":7,"items":[{"name":"승민정육점","tel":"031-111-1111","addr":"경기도 이천시 관고동 99-2번지","indutype":"음료식품 - 정육점","category":"food"}]},{"lat":"37.278934424","long":"127.43735401","imageIndex":7,"items":[{"name":"시너지 옹기테라피","tel":"031-634-3856","addr":"경기도 이천시 관고동 26-7번지","indutype":"건강식품 - 기타건강식품","category":"food"}]},{"lat":"37.28074365","long":"127.44029613","imageIndex":7,"items":[{"name":"시장식품점","tel":"031-636-0123","addr":"경기도 이천시 관고동 10-13번지","indutype":"음료식품 - 기타음료식품","category":"food"}]},{"lat":"37.282241517","long":"127.43970717","imageIndex":7,"items":[{"name":"신용고추","tel":"031-638-2997","addr":"경기도 이천시 관고동 5-8번지","indutype":"음료식품 - 기타음료식품","category":"food"}]},{"lat":"37.28257732","long":"127.4365969","imageIndex":7,"items":[{"name":"아이스콘나라 관고점","tel":"031-638-7823","addr":"경기도 이천시 관고동 66-3번지 103호","indutype":"음료식품 - 기타음료식품","category":"food"}]},{"lat":"37.281106506","long":"127.43963295","imageIndex":7,"items":[{"name":"안성유통정육점","tel":"031-631-0162","addr":"경기도 이천시 관고동 10번지","indutype":"음료식품 - 정육점","category":"food"},{"name":"완도반찬","tel":"031-637-6610","addr":"경기도 이천시 관고동 10번지","indutype":"음료식품 - 기타음료식품","category":"food"}]},{"lat":"37.283684849","long":"127.43679495","imageIndex":7,"items":[{"name":"양정여고매점","tel":"031-633-7803","addr":"경기도 이천시 관고동 77번지","indutype":"음료식품 - 기타음료식품","category":"food"}]},{"lat":"37.281492022","long":"127.44015387","imageIndex":7,"items":[{"name":"이천 강경젓갈대리점","tel":"031-634-1414","addr":"경기도 이천시 관고동 9-4번지","indutype":"음료식품 - 농·축·수산품","category":"food"},{"name":"이천떡집","tel":"031-635-4775","addr":"경기도 이천시 관고동 9-4번지","indutype":"음료식품 - 제과점","category":"food"}]},{"lat":"37.280600906","long":"127.43991192","imageIndex":7,"items":[{"name":"이천과일","tel":"031-634-8986","addr":"경기도 이천시 관고동 11번지","indutype":"음료식품 - 농·축·수산품","category":"food"}]},{"lat":"37.282080335","long":"127.43943561","imageIndex":7,"items":[{"name":"이천농산","tel":"031-633-4838","addr":"경기도 이천시 관고동 4-38번지","indutype":"음료식품 - 농·축·수산품","category":"food"}]},{"lat":"37.28107906","long":"127.43974555","imageIndex":7,"items":[{"name":"인영식품","tel":"031-635-7850","addr":"경기도 이천시 관고동 10-1번지","indutype":"음료식품 - 기타음료식품","category":"food"}]},{"lat":"37.28207788","long":"127.44010088","imageIndex":7,"items":[{"name":"자연주의","tel":"031-631-0508","addr":"경기도 이천시 관고동 8-5번지","indutype":"건강식품 - 기타건강식품","category":"food"}]},{"lat":"37.281302604","long":"127.44020916","imageIndex":7,"items":[{"name":"조선떡집","tel":"031-635-6704","addr":"경기도 이천시 관고동 9-22번지","indutype":"음료식품 - 제과점","category":"food"}]},{"lat":"37.282298588","long":"127.43643744","imageIndex":7,"items":[{"name":"종근당건강헬스벨스토리이천관고점","tel":"031-631-0309","addr":"경기도 이천시 관고동 20-1번지 1층","indutype":"건강식품 - 기타건강식품","category":"food"}]},{"lat":"37.281580964","long":"127.43802323","imageIndex":7,"items":[{"name":"쪼앤킴점핑다이어트","tel":"031-632-6103","addr":"경기도 이천시 관고동 17-6번지 2층 201호","indutype":"건강식품 - 기타건강식품","category":"food"}]},{"lat":"37.281158027","long":"127.44032108","imageIndex":7,"items":[{"name":"찰김식품","tel":"031-634-6192","addr":"경기도 이천시 관고동 9-17번지","indutype":"음료식품 - 기타음료식품","category":"food"}]},{"lat":"37.282049809","long":"127.44038262","imageIndex":7,"items":[{"name":"칼린카 (kalinka)","tel":"031-635-1111","addr":"경기도 이천시 관고동 7-7번지 1층 104호","indutype":"음료식품 - 제과점","category":"food"}]},{"lat":"37.281493515","long":"127.43730107","imageIndex":7,"items":[{"name":"토속건강원","tel":"031-638-3179","addr":"경기도 이천시 관고동 18번지","indutype":"건강식품 - 기타건강식품","category":"food"}]},{"lat":"37.281468445","long":"127.43921783","imageIndex":7,"items":[{"name":"파리바게뜨설봉점","tel":"031-637-0092","addr":"경기도 이천시 관고동 14-5번지","indutype":"음료식품 - 제과점","category":"food"}]},{"lat":"37.282799638","long":"127.4398457","imageIndex":7,"items":[{"name":"평화상회","tel":"031-635-1639","addr":"경기도 이천시 관고동 5번지","indutype":"음료식품 - 기타음료식품","category":"food"}]},{"lat":"37.28077118","long":"127.44016098","imageIndex":7,"items":[{"name":"해동상회","tel":"031-633-4901","addr":"경기도 이천시 관고동 10-15번지","indutype":"음료식품 - 농·축·수산품","category":"food"}]},{"lat":"37.280825656","long":"127.44004853","imageIndex":7,"items":[{"name":"협동상회","tel":"031-635-3926","addr":"경기도 이천시 관고동 10-20 협동상회","indutype":"음료식품 - 농·축·수산품","category":"food"}]},{"lat":"37.279936603","long":"127.43679599","imageIndex":17,"items":[{"name":"(주)명성환경","tel":"031-634-3004","addr":"경기도 이천시 관고동 293-13번지","indutype":"용역 서비스 - 종합용역","category":"other"}]},{"lat":"37.281468445","long":"127.43921783","imageIndex":17,"items":[{"name":"(주)이천개발","tel":"031-633-3371","addr":"경기도 이천시 관고동 14-5","indutype":"의류 - 정장","category":"other"}]},{"lat":"37.277269598","long":"127.43679196","imageIndex":17,"items":[{"name":"(주)이천벼룩시장","tel":"031-636-8581","addr":"경기도 이천시 관고동 504-6번지 청풍캐슬빌딩 2층","indutype":"서적문구 - 출판 및 인쇄물","category":"other"},{"name":"김학식건축사사무소","tel":"031-637-8111","addr":"경기도 이천시 관고동 504-6번지 1층","indutype":"용역 서비스 - 사무서비스","category":"other"},{"name":"아세아스크린골프","tel":"031-634-2567","addr":"경기도 이천시 관고동 504-6번지","indutype":"회원제형태 - 레져업소","category":"other"},{"name":"지인측량설계사무소","tel":"031-637-6031","addr":"경기도 이천시 관고동 504-6번지","indutype":"용역 서비스 - 사무서비스","category":"other"},{"name":"쿠쿠이천점","tel":"031-632-8866","addr":"경기도 이천시 관고동 504-6번지","indutype":"전기제품 - 가전제품","category":"other"}]},{"lat":"37.282899513","long":"127.43472691","imageIndex":17,"items":[{"name":"(주)이천벼룩시장/수기특약","tel":"031-638-0053","addr":"경기도 이천시 관고동 514번지 벽산블루밍 상가 2층","indutype":"서적문구 - 출판 및 인쇄물","category":"other"}]},{"lat":"37.276990576","long":"127.43671143","imageIndex":17,"items":[{"name":"(주)제이건축사사무소","tel":"031-635-7724","addr":"경기도 이천시 관고동 504-7번지 한솔빌딩 202호","indutype":"용역 서비스 - 사무서비스","category":"other"},{"name":"오형선 법무사사무소","tel":"031-631-0706","addr":"경기도 이천시 관고동 504-7번지 한솔빌딩 1호","indutype":"용역 서비스 - 법률회계서비스(개인)","category":"other"},{"name":"이기성세무회계","tel":"031-638-1621","addr":"경기도 이천시 관고동 504-7번지 한솔빌딩 502호","indutype":"용역 서비스 - 법률회계서비스(개인)","category":"other"}]},{"lat":"37.276774419","long":"127.43668764","imageIndex":17,"items":[{"name":"2000세무회계사무소","tel":"031-634-0123","addr":"경기도 이천시 관고동 504-8번지 경화빌딩 205호","indutype":"용역 서비스 - 법률회계서비스(개인)","category":"other"},{"name":"더 봄","tel":"031-633-7012","addr":"경기도 이천시 관고동 504-8번지 경화빌딩 206호","indutype":"용역 서비스 - 혼례서비스","category":"other"},{"name":"새미이벤트","tel":"","addr":"경기도 이천시 관고동 504-8번지 경화빌딩 201호","indutype":"용역 서비스 - 종합용역","category":"other"},{"name":"인성건축사사무소(주)","tel":"031-638-9952","addr":"경기도 이천시 관고동 504-8번지 경화빌딩 3층 301호","indutype":"용역 서비스 - 사무서비스","category":"other"},{"name":"채백희세무회계사무소","tel":"031-636-1500","addr":"경기도 이천시 관고동 504-8번지","indutype":"용역 서비스 - 법률회계서비스(개인)","category":"other"}]},{"lat":"37.281936949","long":"127.43677364","imageIndex":17,"items":[{"name":"D라인 예쁜맘","tel":"031-631-7748","addr":"경기도 이천시 관고동 20-6번지","indutype":"의류 - 정장","category":"other"}]},{"lat":"37.278769964","long":"127.43551516","imageIndex":17,"items":[{"name":"GS25설봉호수점","tel":"","addr":"경기도 이천시 관고동 502번지","indutype":"유통업 영리 - 편 의 점","category":"other"}]},{"lat":"37.282712966","long":"127.43646237","imageIndex":17,"items":[{"name":"GS25이천양정점","tel":"","addr":"경기도 이천시 관고동 68-3번지 나동","indutype":"유통업 영리 - 편 의 점","category":"other"},{"name":"베가 디자인","tel":"031-634-6262","addr":"경기도 이천시 관고동 68-3번지","indutype":"용역 서비스 - 종합용역","category":"other"}]},{"lat":"37.275884835","long":"127.42098758","imageIndex":17,"items":[{"name":"GlassMings","tel":"","addr":"경기도 이천시 관고동 435-4번지","indutype":"문화.취미 - 민예·공예품","category":"other"}]},{"lat":"37.283408835","long":"127.43834949","imageIndex":17,"items":[{"name":"ITBLUE","tel":"031-636-4347","addr":"경기도 이천시 관고동 1-2번지","indutype":"사무통신 - 컴퓨터","category":"other"},{"name":"이파엘지종합특수방수","tel":"031-636-7783","addr":"경기도 이천시 관고동 1-2번지","indutype":"건축자재 - 기타건축자재","category":"other"}]},{"lat":"37.280409332","long":"127.43810669","imageIndex":17,"items":[{"name":"LG뉴하이샤시","tel":"031-636-5793","addr":"경기도 이천시 관고동 15-17번지","indutype":"건축자재 - 보일러·펌프·샷시","category":"other"},{"name":"나라펫","tel":"031-634-0757","addr":"경기도 이천시 관고동 15-17번지","indutype":"문화.취미 - 애완동물","category":"other"},{"name":"동신창호","tel":"031-636-5793","addr":"경기도 이천시 관고동 15-17번지","indutype":"건축자재 - 기타건축자재","category":"other"}]},{"lat":"37.290185138","long":"127.42574675","imageIndex":17,"items":[{"name":"LG천막공사","tel":"031-634-0063","addr":"경기도 이천시 관고동 156-2번지 C동 103호","indutype":"직물 - 카페트,커튼,천막,지물","category":"other"},{"name":"고은디자인","tel":"031-636-5799","addr":"경기도 이천시 관고동 156-2번지 C동 1층 3호","indutype":"용역 서비스 - 종합용역","category":"other"},{"name":"이천일렉트론","tel":"031-000-0000","addr":"경기도 이천시 관고동 156-2번지 1층 1호","indutype":"전기제품 - 가전제품","category":"other"}]},{"lat":"37.281747366","long":"127.43687404","imageIndex":17,"items":[{"name":"가가종합설비","tel":"031-634-0077","addr":"경기도 이천시 관고동 20-29번지","indutype":"용역 서비스 - 기타용역서비스","category":"other"}]},{"lat":"37.283410119","long":"127.43554172","imageIndex":17,"items":[{"name":"가나인테리어","tel":"031-694-8294","addr":"경기도 이천시 관고동 82-15번지","indutype":"건축자재 - 인테리어전문","category":"other"}]},{"lat":"37.279050263","long":"127.43524615","imageIndex":17,"items":[{"name":"가람이벤트","tel":"031-631-4123","addr":"경기도 이천시 관고동 453-14번지","indutype":"용역 서비스 - 기타용역서비스","category":"other"}]},{"lat":"37.281772659","long":"127.43734778","imageIndex":17,"items":[{"name":"거성광고기획","tel":"031-635-0388","addr":"경기도 이천시 관고동 17번지 거성광고기획","indutype":"건축자재 - 인테리어전문","category":"other"},{"name":"민경성세무회계사무소","tel":"031-638-5959","addr":"경기도 이천시 관고동 17번지","indutype":"용역 서비스 - 법률회계서비스(개인)","category":"other"}]},{"lat":"37.281963122","long":"127.43945748","imageIndex":17,"items":[{"name":"경기천막철물","tel":"031-635-3665","addr":"경기도 이천시 관고동 4-16번지","indutype":"기타 - 기계공구","category":"other"}]},{"lat":"37.283407507","long":"127.43871032","imageIndex":17,"items":[{"name":"경동건설기계","tel":"031-638-3733","addr":"경기도 이천시 관고동 2-16번지","indutype":"기타 - 기계공구","category":"other"},{"name":"경동건설기계(우리크레인)","tel":"031-631-0004","addr":"경기도 이천시 관고동 2-16번지","indutype":"기타 - 기계공구","category":"other"},{"name":"경동건설기계(우리크레인)","tel":"031-631-0004","addr":"경기도 이천시 관고동 2-16번지","indutype":"기타 - 기계공구","category":"other"},{"name":"경동건설기계(원삼크레인)","tel":"031-334-1055","addr":"경기도 이천시 관고동 2-16번지","indutype":"기타 - 기계공구","category":"other"},{"name":"이쌀자MTB","tel":"031-692-2626","addr":"경기도 이천시 관고동 2-16번지","indutype":"레져용품 - 스포츠·레져용품","category":"other"},{"name":"이천크레인(경동건설기계)","tel":"031-636-7373","addr":"경기도 이천시 관고동 2-16번지","indutype":"기타 - 기계공구","category":"other"}]},{"lat":"37.281912273","long":"127.43613077","imageIndex":17,"items":[{"name":"경부건설(주)","tel":"031-634-7234","addr":"경기도 이천시 관고동 21번지","indutype":"건축자재 - 부동산 분양","category":"other"}]},{"lat":"37.283663594","long":"127.43521616","imageIndex":17,"items":[{"name":"경진건설기계","tel":"031-632-3033","addr":"경기도 이천시 관고동 75-8번지","indutype":"기타 - 기계공구","category":"other"},{"name":"경진건설기계","tel":"031-635-4246","addr":"경기도 이천시 관고동 75-8번지","indutype":"기타 - 기계공구","category":"other"},{"name":"경진건설기계","tel":"031-634-9021","addr":"경기도 이천시 관고동 75-8번지 1층","indutype":"기타 - 기계공구","category":"other"},{"name":"경진건설기계(황소건설기계)","tel":"031-882-4844","addr":"경기도 이천시 관고동 75-8번지","indutype":"기타 - 기계공구","category":"other"}]},{"lat":"37.277742699","long":"127.4355431","imageIndex":17,"items":[{"name":"고려환경건설(주)","tel":"031-634-0119","addr":"경기도 이천시 관고동 502-12번지 2층","indutype":"용역 서비스 - 기타용역서비스","category":"other"},{"name":"플라원돌콤","tel":"031-631-5588","addr":"경기도 이천시 관고동 502-12번지","indutype":"문화.취미 - 화원","category":"other"}]},{"lat":"37.281798445","long":"127.44013309","imageIndex":17,"items":[{"name":"골드귀금속","tel":"031-638-1072","addr":"경기도 이천시 관고동 8-13번지","indutype":"신변잡화 - 귀금속","category":"other"},{"name":"대길종합장식","tel":"031-635-2263","addr":"경기도 이천시 관고동 8-13번지","indutype":"직물 - 카페트,커튼,천막,지물","category":"other"},{"name":"이합종묘농약사","tel":"031-635-3772","addr":"경기도 이천시 관고동 8-13번지","indutype":"농업 - 비료,사료,종자","category":"other"}]},{"lat":"37.281941605","long":"127.44040454","imageIndex":17,"items":[{"name":"공간예술수예점","tel":"031-635-7795","addr":"경기도 이천시 관고동 7-20번지","indutype":"직물 - 침구·수예점","category":"other"}]},{"lat":"37.282130815","long":"127.44040564","imageIndex":17,"items":[{"name":"광복철물","tel":"031-633-4266","addr":"경기도 이천시 관고동 7-4번지","indutype":"건축자재 - 목재·석재·철물","category":"other"},{"name":"부국인테리어","tel":"031-635-2032","addr":"경기도 이천시 관고동 7-4번지","indutype":"직물 - 카페트,커튼,천막,지물","category":"other"},{"name":"상신상공사","tel":"031-635-2936","addr":"경기도 이천시 관고동 7-4번지","indutype":"신변잡화 - 기타잡화","category":"other"},{"name":"이레","tel":"031-635-7128","addr":"경기도 이천시 관고동 7-4번지","indutype":"의류 - 정장","category":"other"}]},{"lat":"37.280491889","long":"127.43277372","imageIndex":17,"items":[{"name":"국제공인중개사 사무소","tel":"031-635-2199","addr":"경기도 이천시 관고동 230-6번지","indutype":"유통업 영리 - 기타유통업","category":"other"},{"name":"아세아골프","tel":"031-638-0180","addr":"경기도 이천시 관고동 230-6번지","indutype":"레져용품 - 골프용품 전문점","category":"other"},{"name":"이천스포츠","tel":"031-631-1324","addr":"경기도 이천시 관고동 230-6번지","indutype":"레져용품 - 스포츠·레져용품","category":"other"}]},{"lat":"37.287352678","long":"127.43166251","imageIndex":17,"items":[{"name":"국제와이즈맨이천중앙","tel":"031-635-1315","addr":"경기도 이천시 관고동 136-3번지","indutype":"기타 - 비영리/대상","category":"other"}]},{"lat":"37.280660119","long":"127.43851407","imageIndex":17,"items":[{"name":"그린테크","tel":"031-637-1880","addr":"경기도 이천시 관고동 15-11번지","indutype":"신변잡화 - 기타잡화","category":"other"}]},{"lat":"37.282636917","long":"127.43999135","imageIndex":17,"items":[{"name":"그린하우스","tel":"031-631-1362","addr":"경기도 이천시 관고동 5-3번지","indutype":"용역 서비스 - 부동산 중개·임대","category":"other"}]},{"lat":"37.276354909","long":"127.43560281","imageIndex":17,"items":[{"name":"금성천막","tel":"031-636-0965","addr":"경기도 이천시 관고동 332번지","indutype":"직물 - 카페트,커튼,천막,지물","category":"other"},{"name":"한양종합주방","tel":"031-632-4488","addr":"경기도 이천시 관고동 332번지","indutype":"가구 - 기타가구","category":"other"}]},{"lat":"37.281106506","long":"127.43963295","imageIndex":17,"items":[{"name":"금은나라","tel":"031-636-1824","addr":"경기도 이천시 관고동 10번지","indutype":"신변잡화 - 귀금속","category":"other"},{"name":"속옷할인매장","tel":"031-632-5604","addr":"경기도 이천시 관고동 10번지","indutype":"의류 - 내의판매","category":"other"},{"name":"전일상회","tel":"031-635-2779","addr":"경기도 이천시 관고동 10번지","indutype":"주방용구 - 주방용식기","category":"other"}]},{"lat":"37.278107322","long":"127.43685314","imageIndex":17,"items":[{"name":"꽃그린","tel":"031-632-5588","addr":"경기도 이천시 관고동 504","indutype":"문화.취미 - 화원","category":"other"}]},{"lat":"37.282298588","long":"127.43643744","imageIndex":17,"items":[{"name":"나이스방송","tel":"031-631-0309","addr":"경기도 이천시 관고동 20-1번지","indutype":"용역 서비스 - 종합용역","category":"other"},{"name":"드림박스","tel":"031-637-0512","addr":"경기도 이천시 관고동 20-1번지","indutype":"서적문구 - 문구용품","category":"other"}]},{"lat":"37.28207788","long":"127.44010088","imageIndex":17,"items":[{"name":"노바세탁소 이천","tel":"031-634-2134","addr":"경기도 이천시 관고동 8-5번지","indutype":"수리서비스 - 세탁소","category":"other"},{"name":"동성상회","tel":"031-633-5903","addr":"경기도 이천시 관고동 8-5번지","indutype":"의류 - 정장","category":"other"},{"name":"코잠협동조합","tel":"031-694-0088","addr":"경기도 이천시 관고동 8-5번지 2층","indutype":"직물 - 침구·수예점","category":"other"}]},{"lat":"37.281158027","long":"127.44032108","imageIndex":17,"items":[{"name":"다람쥐슈즈","tel":"031-635-4090","addr":"경기도 이천시 관고동 9-17번지","indutype":"신변잡화 - 신발","category":"other"}]},{"lat":"37.278524058","long":"127.43376605","imageIndex":17,"items":[{"name":"다육사랑","tel":"031-634-9860","addr":"경기도 이천시 관고동 246-2번지","indutype":"문화.취미 - 화원","category":"other"}]},{"lat":"37.284434338","long":"127.43387867","imageIndex":17,"items":[{"name":"다인인테리어","tel":"031-638-3133","addr":"경기도 이천시 관고동 196-4번지","indutype":"건축자재 - 인테리어전문","category":"other"}]},{"lat":"37.281272177","long":"127.43868673","imageIndex":17,"items":[{"name":"덕촌도예","tel":"031-635-3924","addr":"경기도 이천시 관고동 15-3번지","indutype":"문화.취미 - 민예·공예품","category":"other"}]},{"lat":"37.280274748","long":"127.43302055","imageIndex":17,"items":[{"name":"도기랑냥이랑 이천점","tel":"031-638-7020","addr":"경기도 이천시 관고동 229-3번지","indutype":"문화.취미 - 애완동물","category":"other"},{"name":"엠디상사","tel":"031-638-8505","addr":"경기도 이천시 관고동 229-3번지","indutype":"직물 - 침구·수예점","category":"other"}]},{"lat":"37.283935952","long":"127.4346539","imageIndex":17,"items":[{"name":"동동이스윗메이드","tel":"031-638-3958","addr":"경기도 이천시 관고동 201-38번지 1층","indutype":"문화.취미 - 문화취미기타","category":"other"}]},{"lat":"37.281301986","long":"127.43793142","imageIndex":17,"items":[{"name":"로샤","tel":"031-635-2000","addr":"경기도 이천시 관고동 16-2번지","indutype":"의류 - 내의판매","category":"other"},{"name":"로샤 이천1호점","tel":"","addr":"경기도 이천시 관고동 16-2번지","indutype":"의류 - 내의판매","category":"other"},{"name":"미니옷장","tel":"031-8973-1606","addr":"경기도 이천시 관고동 16-2번지","indutype":"의류 - 아동의류","category":"other"},{"name":"에가디스","tel":"031-631-4876","addr":"경기도 이천시 관고동 16-2번지","indutype":"의류 - 내의판매","category":"other"},{"name":"옷사랑","tel":"","addr":"경기도 이천시 관고동 16-2번지","indutype":"의류 - 정장","category":"other"}]},{"lat":"37.28165605","long":"127.43474236","imageIndex":17,"items":[{"name":"마스터 TV and PC","tel":"070-4901-9560","addr":"경기도 이천시 관고동 223-14번지","indutype":"전기제품 - 가전제품","category":"other"}]},{"lat":"37.278189115","long":"127.43666193","imageIndex":17,"items":[{"name":"명문크리닝사","tel":"031-638-0506","addr":"경기도 이천시 관고동 504-15번지","indutype":"수리서비스 - 세탁소","category":"other"}]},{"lat":"37.282049809","long":"127.44038262","imageIndex":17,"items":[{"name":"명성꽃화원","tel":"031-638-3804","addr":"경기도 이천시 관고동 7동 7호","indutype":"문화.취미 - 수족관","category":"other"},{"name":"태을칸 종합체육관","tel":"031-637-0131","addr":"경기도 이천시 관고동 7-7번지","indutype":"회원제형태 - 레져업소","category":"other"}]},{"lat":"37.278466524","long":"127.43718219","imageIndex":17,"items":[{"name":"명인측량토목설계사무소","tel":"031-637-0844","addr":"경기도 이천시 관고동 26-4번지 2층","indutype":"용역 서비스 - 사무서비스","category":"other"},{"name":"씨유이천광장점","tel":"031-638-1172","addr":"경기도 이천시 관고동 26-4번지","indutype":"유통업 영리 - 편 의 점","category":"other"}]},{"lat":"37.281937298","long":"127.43913033","imageIndex":17,"items":[{"name":"명품구제","tel":"031-633-5595","addr":"경기도 이천시 관고동 4-23번지","indutype":"의류 - 기타의류","category":"other"},{"name":"황실유럽자수(이천관고점)","tel":"031-635-8920","addr":"경기도 이천시 관고동 4-23번지","indutype":"직물 - 침구·수예점","category":"other"}]},{"lat":"37.28227169","long":"127.433934","imageIndex":17,"items":[{"name":"미니스톱 이천병원점","tel":"031-1577-9621","addr":"경기도 이천시 관고동 215-19번지","indutype":"유통업 영리 - 편 의 점","category":"other"}]},{"lat":"37.279744538","long":"127.43757291","imageIndex":17,"items":[{"name":"미니스톱이천설봉공원점","tel":"031-635-5799","addr":"경기도 이천시 관고동 25번지","indutype":"유통업 영리 - 편 의 점","category":"other"}]},{"lat":"37.282296977","long":"127.43687719","imageIndex":17,"items":[{"name":"미미네애견","tel":"031-632-1156","addr":"경기도 이천시 관고동 85-10번지","indutype":"문화.취미 - 애완동물","category":"other"}]},{"lat":"37.281050906","long":"127.44004984","imageIndex":17,"items":[{"name":"미즈오까게","tel":"031-637-5690","addr":"경기도 이천시 관고동 10-4번지","indutype":"의류 - 정장","category":"other"}]},{"lat":"37.282462502","long":"127.43596478","imageIndex":17,"items":[{"name":"바로설비인테리어","tel":"031-637-9956","addr":"경기도 이천시 관고동 62-2번지","indutype":"건축자재 - 보일러·펌프·샷시","category":"other"}]},{"lat":"37.28129983","long":"127.43851775","imageIndex":17,"items":[{"name":"바이진","tel":"031-223-9159","addr":"경기도 이천시 관고동 15-2번지","indutype":"의류 - 정장","category":"other"}]},{"lat":"37.280524222","long":"127.43871625","imageIndex":17,"items":[{"name":"박균서세무사","tel":"031-631-5700","addr":"경기도 이천시 관고동 12-11번지","indutype":"용역 서비스 - 법률회계서비스(개인)","category":"other"},{"name":"이천가스기기전문점","tel":"031-636-3651","addr":"경기도 이천시 관고동 12-11번지","indutype":"전기제품 - 냉열기기","category":"other"}]},{"lat":"37.281716239","long":"127.43799018","imageIndex":17,"items":[{"name":"박종진세무사사무소","tel":"031-636-6085","addr":"경기도 이천시 관고동 17-5번지","indutype":"용역 서비스 - 법률회계서비스(개인)","category":"other"},{"name":"오성네트웍스","tel":"031-634-9493","addr":"경기도 이천시 관고동 17-5번지","indutype":"사무통신 - 기타 사무용품","category":"other"},{"name":"하나세무회계사무소","tel":"031-638-2345","addr":"경기도 이천시 관고동 17-5번지","indutype":"용역 서비스 - 법률회계서비스(개인)","category":"other"}]},{"lat":"37.282495004","long":"127.43938162","imageIndex":17,"items":[{"name":"백송탁구장","tel":"031-637-6958","addr":"경기도 이천시 관고동 3-17번지","indutype":"문화.취미 - 문화취미기타","category":"other"}]},{"lat":"37.282129982","long":"127.44063116","imageIndex":17,"items":[{"name":"법무사박의협사무소","tel":"031-633-9505","addr":"경기도 이천시 관고동 7-6번지","indutype":"용역 서비스 - 법률회계서비스(개인)","category":"other"}]},{"lat":"37.278574437","long":"127.43723919","imageIndex":17,"items":[{"name":"법무사이재구사무소","tel":"031-632-9914","addr":"경기도 이천시 관고동 26-3번지","indutype":"용역 서비스 - 법률회계서비스(개인)","category":"other"}]},{"lat":"37.281327482","long":"127.43834877","imageIndex":17,"items":[{"name":"법무사최종완사무소","tel":"031-636-8500","addr":"경기도 이천시 관고동 15번지 2층 법무사 최종완 사무소","indutype":"용역 서비스 - 법률회계서비스(개인)","category":"other"}]},{"lat":"37.281580964","long":"127.43802323","imageIndex":17,"items":[{"name":"베스트옷나라","tel":"031-638-1767","addr":"경기도 이천시 관고동 17-6번지","indutype":"의류 - 정장","category":"other"},{"name":"세무사김윤열사무소","tel":"031-635-9400","addr":"경기도 이천시 관고동 17-6번지","indutype":"용역 서비스 - 법률회계서비스(개인)","category":"other"},{"name":"열쇠백화점","tel":"031-634-5600","addr":"경기도 이천시 관고동 17-6번지","indutype":"용역 서비스 - 기타용역서비스","category":"other"},{"name":"이천조명","tel":"031-633-3695","addr":"경기도 이천시 관고동 17-6번지","indutype":"건축자재 - 조명기구","category":"other"},{"name":"이현식세무회계사무소","tel":"031-635-8161","addr":"경기도 이천시 관고동 17-6번지","indutype":"용역 서비스 - 법률회계서비스(개인)","category":"other"},{"name":"큰옷크레빅 이천점","tel":"031-000-0000","addr":"경기도 이천시 관고동 17-6번지 101호,102호","indutype":"의류 - 정장","category":"other"}]},{"lat":"37.282303255","long":"127.44006836","imageIndex":17,"items":[{"name":"별나라구제","tel":"031-635-1301","addr":"경기도 이천시 관고동 5-6번지","indutype":"의류 - 정장","category":"other"},{"name":"원영의류","tel":"031-635-4953","addr":"경기도 이천시 관고동 5-6번지","indutype":"의류 - 정장","category":"other"}]},{"lat":"37.282267923","long":"127.43987646","imageIndex":17,"items":[{"name":"별이구제","tel":"031-635-1304","addr":"경기도 이천시 관고동 5-7번지","indutype":"의류 - 정장","category":"other"}]},{"lat":"37.282383387","long":"127.44032817","imageIndex":17,"items":[{"name":"부국상회","tel":"031-635-2032","addr":"경기도 이천시 관고동 6-6번지","indutype":"직물 - 카페트,커튼,천막,지물","category":"other"}]},{"lat":"37.281492022","long":"127.44015387","imageIndex":17,"items":[{"name":"부동산나라이천가야공인중개사","tel":"031-631-8941","addr":"경기도 이천시 관고동 9-4번지","indutype":"용역 서비스 - 부동산 중개·임대","category":"other"}]},{"lat":"37.281826225","long":"127.43993029","imageIndex":17,"items":[{"name":"비와이씨(BYC)관고점","tel":"031-633-8503","addr":"경기도 이천시 관고동 8-16번지","indutype":"의류 - 정장","category":"other"}]},{"lat":"37.28194098","long":"127.44057368","imageIndex":17,"items":[{"name":"사이클식스(CYCLE  SIX)","tel":"031-631-4276","addr":"경기도 이천시 관고동 7-10번지","indutype":"레져용품 - 스포츠·레져용품","category":"other"}]},{"lat":"37.281664415","long":"127.43738098","imageIndex":17,"items":[{"name":"삼원종합상사","tel":"031-636-2199","addr":"경기도 이천시 관고동 17-12번지 101호","indutype":"건축자재 - 목재·석재·철물","category":"other"}]},{"lat":"37.281881283","long":"127.43965998","imageIndex":17,"items":[{"name":"삼익전기","tel":"031-637-5589","addr":"경기도 이천시 관고동 8-18번지","indutype":"전기제품 - 기타전기제품","category":"other"}]},{"lat":"37.282324641","long":"127.43423875","imageIndex":17,"items":[{"name":"샤인장식","tel":"031-636-0077","addr":"경기도 이천시 관고동 212-3번지 103호","indutype":"건축자재 - 인테리어전문","category":"other"}]},{"lat":"37.28238247","long":"127.44057624","imageIndex":17,"items":[{"name":"선진인장","tel":"031-633-8982","addr":"경기도 이천시 관고동 6-3번지","indutype":"건축자재 - 목재·석재·철물","category":"other"}]},{"lat":"37.280657046","long":"127.43934846","imageIndex":17,"items":[{"name":"설봉봉투","tel":"031-633-7911","addr":"경기도 이천시 관고동 12-4번지","indutype":"기타 - 기타 전문점","category":"other"}]},{"lat":"37.281357996","long":"127.43984865","imageIndex":17,"items":[{"name":"설봉주방","tel":"031-633-7222","addr":"경기도 이천시 관고동 9-27번지","indutype":"주방용구 - 주방용식기","category":"other"},{"name":"알파오메가","tel":"031-635-5774","addr":"경기도 이천시 관고동 9-27번지 6","indutype":"신변잡화 - 기타잡화","category":"other"}]},{"lat":"37.278664413","long":"127.43727353","imageIndex":17,"items":[{"name":"성안전기조명","tel":"031-632-6688","addr":"경기도 이천시 관고동 26-2번지","indutype":"건축자재 - 조명기구","category":"other"}]},{"lat":"37.281882032","long":"127.43945702","imageIndex":17,"items":[{"name":"세무사김인기사무소","tel":"031-636-2634","addr":"경기도 이천시 관고동 4-17번지","indutype":"용역 서비스 - 법률회계서비스(개인)","category":"other"},{"name":"신영이불","tel":"031-636-6005","addr":"경기도 이천시 관고동 4-17번지 1층","indutype":"직물 - 침구·수예점","category":"other"}]},{"lat":"37.282688989","long":"127.4356278","imageIndex":17,"items":[{"name":"세븐일레븐관고양정점","tel":"031-1577-0711","addr":"경기도 이천시 관고동 62-4번지 1층","indutype":"유통업 영리 - 편 의 점","category":"other"},{"name":"장만수세무사사무소","tel":"031-631-9555","addr":"경기도 이천시 관고동 62-4번지","indutype":"용역 서비스 - 법률회계서비스(개인)","category":"other"}]},{"lat":"37.283494407","long":"127.43957909","imageIndex":17,"items":[{"name":"세븐일레븐이천관고중앙점","tel":"","addr":"경기도 이천시 관고동 3-2번지 1층","indutype":"유통업 영리 - 편 의 점","category":"other"}]},{"lat":"37.279267711","long":"127.43737848","imageIndex":17,"items":[{"name":"송도철물설비","tel":"031-633-7437","addr":"경기도 이천시 관고동 25-5번지","indutype":"건축자재 - 목재·석재·철물","category":"other"},{"name":"인전사","tel":"031-635-1380","addr":"경기도 이천시 관고동 25-5번지","indutype":"전기제품 - 기타전기제품","category":"other"}]},{"lat":"37.281797029","long":"127.44051647","imageIndex":17,"items":[{"name":"스피드통신","tel":"031-632-6011","addr":"경기도 이천시 관고동 7-13번지","indutype":"사무통신 - 통신기기","category":"other"}]},{"lat":"37.278855277","long":"127.43682361","imageIndex":17,"items":[{"name":"실사랑","tel":"031-638-3836","addr":"경기도 이천시 관고동 500-8번지","indutype":"직물 - 침구·수예점","category":"other"}]},{"lat":"37.283994858","long":"127.43332363","imageIndex":17,"items":[{"name":"씨유이천두산위브점","tel":"080-080-3663","addr":"경기도 이천시 관고동 194번지 상가동 101호, 102","indutype":"유통업 영리 - 편 의 점","category":"other"}]},{"lat":"37.282461594","long":"127.43621285","imageIndex":17,"items":[{"name":"아름다운인테리어","tel":"031-633-0405","addr":"경기도 이천시 관고동 64-3번지","indutype":"건축자재 - 인테리어전문","category":"other"}]},{"lat":"37.281158318","long":"127.44024215","imageIndex":17,"items":[{"name":"아이사랑옷","tel":"031-632-5939","addr":"경기도 이천시 관고동 9-18번지","indutype":"의류 - 아동의류","category":"other"}]},{"lat":"37.282018369","long":"127.4366839","imageIndex":17,"items":[{"name":"아이앤컴","tel":"031-638-4748","addr":"경기도 이천시 관고동 20-5번지","indutype":"사무통신 - 컴퓨터","category":"other"},{"name":"야호야","tel":"031-638-0365","addr":"경기도 이천시 관고동 20-5번지","indutype":"용역 서비스 - 종합용역","category":"other"},{"name":"엘림홈크리닝","tel":"031-631-3306","addr":"경기도 이천시 관고동 20-5번지","indutype":"용역 서비스 - 기타용역서비스","category":"other"}]},{"lat":"37.282128169","long":"127.43868039","imageIndex":17,"items":[{"name":"안단테스튜디오","tel":"","addr":"경기도 이천시 관고동 4-29번지 2층","indutype":"광학제품 - 사진관","category":"other"},{"name":"폰아울렛","tel":"031-631-8010","addr":"경기도 이천시 관고동 4-29번지","indutype":"사무통신 - 통신기기","category":"other"}]},{"lat":"37.281857639","long":"127.43381888","imageIndex":17,"items":[{"name":"양정 골프존","tel":"031-636-0709","addr":"경기도 이천시 관고동 213번지","indutype":"회원제형태 - 레져업소","category":"other"}]},{"lat":"37.288855986","long":"127.42704745","imageIndex":17,"items":[{"name":"오름오르다","tel":"031-638-1888","addr":"경기도 이천시 관고동 151번지 A동","indutype":"문화.취미 - 문화취미기타","category":"other"}]},{"lat":"37.281962374","long":"127.43966045","imageIndex":17,"items":[{"name":"용인철물","tel":"031-633-6040","addr":"경기도 이천시 관고동 8-19번지","indutype":"건축자재 - 목재·석재·철물","category":"other"}]},{"lat":"37.280996555","long":"127.44012845","imageIndex":17,"items":[{"name":"우주가방","tel":"031-636-3581","addr":"경기도 이천시 관고동 10-7번지","indutype":"신변잡화 - 가방","category":"other"}]},{"lat":"37.281519551","long":"127.44001872","imageIndex":17,"items":[{"name":"원더우먼","tel":"031-636-9870","addr":"경기도 이천시 관고동 9-29번지","indutype":"의류 - 정장","category":"other"}]},{"lat":"37.28185466","long":"127.43710018","imageIndex":17,"items":[{"name":"원스타","tel":"070-4202-6249","addr":"경기도 이천시 관고동 20-9번지","indutype":"의류 - 정장","category":"other"}]},{"lat":"37.281134992","long":"127.43923846","imageIndex":17,"items":[{"name":"은혜골프존","tel":"031-636-0782","addr":"경기도 이천시 관고동 13-1번지 1층 은혜예식장","indutype":"회원제형태 - 레져업소","category":"other"}]},{"lat":"37.282663179","long":"127.4328199","imageIndex":17,"items":[{"name":"이마트24 이천병원점","tel":"","addr":"경기도 이천시 관고동 515번지 2층","indutype":"유통업 영리 - 편 의 점","category":"other"}]},{"lat":"37.281051531","long":"127.4398807","imageIndex":17,"items":[{"name":"이불마트","tel":"031-636-4703","addr":"경기도 이천시 관고동 10-2번지","indutype":"직물 - 침구·수예점","category":"other"}]},{"lat":"37.281606502","long":"127.43842931","imageIndex":17,"items":[{"name":"이성훈세무회계사무소","tel":"031-636-4091","addr":"경기도 이천시 관고동 14-11번지","indutype":"용역 서비스 - 법률회계서비스(개인)","category":"other"},{"name":"정남주회계사무소","tel":"031-635-9544","addr":"경기도 이천시 관고동 14-11번지","indutype":"용역 서비스 - 법률회계서비스(개인)","category":"other"}]},{"lat":"37.282245714","long":"127.43856831","imageIndex":17,"items":[{"name":"이종익세무사","tel":"031-635-3515","addr":"경기도 이천시 관고동 4-28번지","indutype":"용역 서비스 - 법률회계서비스(개인)","category":"other"},{"name":"테라피 가방","tel":"031-633-2205","addr":"경기도 이천시 관고동 4-28번지 2층 201호","indutype":"신변잡화 - 가방","category":"other"}]},{"lat":"37.288049524","long":"127.42580246","imageIndex":17,"items":[{"name":"이천설봉라이온스클럽","tel":"031-635-3289","addr":"경기도 이천시 관고동 157-13번지","indutype":"기타 - 비영리/비대상","category":"other"}]},{"lat":"37.282019219","long":"127.43890528","imageIndex":17,"items":[{"name":"이천시64동문회","tel":"031-633-3030","addr":"경기도 이천시 관고동 4-25번지","indutype":"기타 - 비영리/비대상","category":"other"}]},{"lat":"37.280108678","long":"127.42407795","imageIndex":17,"items":[{"name":"이천시립월전미술관","tel":"031-637-0033","addr":"경기도 이천시 관고동 378번지 설봉공원 내","indutype":"문화.취미 - 문화취미기타","category":"other"}]},{"lat":"37.28013503","long":"127.43674075","imageIndex":17,"items":[{"name":"이천악기","tel":"031-635-0033","addr":"경기도 이천시 관고동 291-8번지 1-2층상가동","indutype":"레져용품 - 피아노대리점","category":"other"}]},{"lat":"37.281192207","long":"127.43838182","imageIndex":17,"items":[{"name":"이천윤플라워","tel":"031-633-8070","addr":"경기도 이천시 관고동 15-24번지","indutype":"문화.취미 - 화원","category":"other"}]},{"lat":"37.282296576","long":"127.43943686","imageIndex":17,"items":[{"name":"이천인쇄소","tel":"031-635-2016","addr":"경기도 이천시 관고동 4-12번지","indutype":"서적문구 - 출판 및 인쇄물","category":"other"}]},{"lat":"37.283551667","long":"127.43871115","imageIndex":17,"items":[{"name":"이천인테리어","tel":"031-632-8233","addr":"경기도 이천시 관고동 2-22번지","indutype":"건축자재 - 건축용 요업제품","category":"other"},{"name":"이천종합타일","tel":"031-632-8233","addr":"경기도 이천시 관고동 2-22번지","indutype":"건축자재 - 건축용 요업제품","category":"other"}]},{"lat":"37.281798154","long":"127.44021202","imageIndex":17,"items":[{"name":"이천천막사","tel":"031-635-2824","addr":"경기도 이천시 관고동 8-10번지","indutype":"직물 - 카페트,커튼,천막,지물","category":"other"},{"name":"흥성상회","tel":"031-635-3324","addr":"경기도 이천시 관고동 8-10번지","indutype":"의류 - 정장","category":"other"}]},{"lat":"37.282052182","long":"127.4397399","imageIndex":17,"items":[{"name":"일신철물","tel":"031-635-2171","addr":"경기도 이천시 관고동 8번지","indutype":"건축자재 - 목재·석재·철물","category":"other"}]},{"lat":"37.284106237","long":"127.43490295","imageIndex":17,"items":[{"name":"정진","tel":"031-634-3722","addr":"경기도 이천시 관고동 201-34번지","indutype":"신변잡화 - 신발","category":"other"}]},{"lat":"37.280996347","long":"127.44018483","imageIndex":17,"items":[{"name":"제노바","tel":"031-635-3317","addr":"경기도 이천시 관고동 10-8","indutype":"의류 - 기타의류","category":"other"}]},{"lat":"37.282939069","long":"127.43868507","imageIndex":17,"items":[{"name":"제이스포츠/인쇄기획","tel":"031-635-8277","addr":"경기도 이천시 관고동 2-11번지","indutype":"레져용품 - 스포츠·레져용품","category":"other"}]},{"lat":"37.278934424","long":"127.43735401","imageIndex":17,"items":[{"name":"조은피부관리","tel":"031-636-0706","addr":"경기도 이천시 관고동 26-7번지","indutype":"회원제형태 - 기타4","category":"other"},{"name":"중앙플라워","tel":"031-634-0050","addr":"경기도 이천시 관고동 26-7번지","indutype":"문화.취미 - 화원","category":"other"}]},{"lat":"37.281520051","long":"127.43988341","imageIndex":17,"items":[{"name":"종합전기","tel":"031-635-2724","addr":"경기도 이천시 관고동 9-1번지","indutype":"수리서비스 - 가정용품수리","category":"other"},{"name":"흥농종묘사","tel":"031-635-2233","addr":"경기도 이천시 관고동 9-1번지","indutype":"농업 - 비료,사료,종자","category":"other"}]},{"lat":"37.285241475","long":"127.43243989","imageIndex":17,"items":[{"name":"주식회사 도원상사","tel":"031-633-7001","addr":"경기도 이천시 관고동 94-7번지","indutype":"건축자재 - 기타건축자재","category":"other"}]},{"lat":"37.279331837","long":"127.4346276","imageIndex":17,"items":[{"name":"주식회사 에코파워시너지","tel":"031-1577-8546","addr":"경기도 이천시 관고동 232-6번지","indutype":"회원제형태 - 기타3","category":"other"}]},{"lat":"37.281659524","long":"127.43871152","imageIndex":17,"items":[{"name":"청풍유리","tel":"031-635-4649","addr":"경기도 이천시 관고동 14-1번지","indutype":"건축자재 - 유리","category":"other"}]},{"lat":"37.283048808","long":"127.43824593","imageIndex":17,"items":[{"name":"춘추사","tel":"031-635-2250","addr":"경기도 이천시 관고동 1-10번지","indutype":"서적문구 - 출판 및 인쇄물","category":"other"}]},{"lat":"37.282518788","long":"127.4353562","imageIndex":17,"items":[{"name":"케이디씨(KDC) 이천 관고점","tel":"031-632-3223","addr":"경기도 이천시 관고동 62-5번지","indutype":"사무통신 - 컴퓨터","category":"other"},{"name":"헤드디자인","tel":"031-638-2700","addr":"경기도 이천시 관고동 62-5번지","indutype":"용역 서비스 - 종합용역","category":"other"}]},{"lat":"37.28382923","long":"127.43426989","imageIndex":17,"items":[{"name":"크린토피아관고점","tel":"070-8732-9997","addr":"경기도 이천시 관고동 201-1번지 좌측상가 2층","indutype":"수리서비스 - 세탁소","category":"other"}]},{"lat":"37.282191215","long":"127.4337644","imageIndex":17,"items":[{"name":"폰스타일A.C","tel":"","addr":"경기도 이천시 관고동 215-18번지 C동 306호","indutype":"신변잡화 - 기타잡화","category":"other"}]},{"lat":"37.282022195","long":"127.44054032","imageIndex":17,"items":[{"name":"한성사","tel":"031-635-3447","addr":"경기도 이천시 관고동 7-8번지","indutype":"건축자재 - 목재·석재·철물","category":"other"}]},{"lat":"37.280581293","long":"127.43296592","imageIndex":17,"items":[{"name":"한영","tel":"031-631-1212","addr":"경기도 이천시 관고동 230-8번지","indutype":"건축자재 - 기타건축자재","category":"other"}]},{"lat":"37.280576745","long":"127.43913375","imageIndex":17,"items":[{"name":"해성장식","tel":"031-633-7887","addr":"경기도 이천시 관고동 12-5번지","indutype":"직물 - 카페트,커튼,천막,지물","category":"other"}]},{"lat":"37.280798557","long":"127.43268526","imageIndex":17,"items":[{"name":"현대상사","tel":"031-634-7840","addr":"경기도 이천시 관고동 231-11번지","indutype":"건축자재 - 기타건축자재","category":"other"}]},{"lat":"37.28366099","long":"127.43838477","imageIndex":17,"items":[{"name":"홈웨이편의점(관고점)","tel":"031-694-5488","addr":"경기도 이천시 관고동 1-1번지","indutype":"유통업 영리 - 편 의 점","category":"other"}]},{"lat":"37.281826724","long":"127.43979498","imageIndex":17,"items":[{"name":"화신사","tel":"031-632-7436","addr":"경기도 이천시 관고동 8-17번지","indutype":"신변잡화 - 귀금속","category":"other"}]},{"lat":"37.281659524","long":"127.43871152","imageIndex":13,"items":[{"name":"1989헤어","tel":"031-635-7654","addr":"경기도 이천시 관고동 14-1번지","indutype":"보건위생 - 미용원","category":"beauty"}]},{"lat":"37.280657046","long":"127.43934846","imageIndex":13,"items":[{"name":"H&S 헤어","tel":"070-4843-4067","addr":"경기도 이천시 관고동 12-4번지","indutype":"보건위생 - 미용원","category":"beauty"},{"name":"뉴페이스","tel":"031-637-7963","addr":"경기도 이천시 관고동 12-4번지","indutype":"보건위생 - 미용재료","category":"beauty"}]},{"lat":"37.281049995","long":"127.43785104","imageIndex":13,"items":[{"name":"JINI NAIL","tel":"031-635-8562","addr":"경기도 이천시 관고동 16-7번지 1층 101호","indutype":"보건위생 - 피부미용실","category":"beauty"}]},{"lat":"37.282636917","long":"127.43999135","imageIndex":13,"items":[{"name":"그린목욕탕","tel":"031-633-0017","addr":"경기도 이천시 관고동 5-3번지","indutype":"보건위생 - 사우나","category":"beauty"}]},{"lat":"37.281797029","long":"127.44051647","imageIndex":13,"items":[{"name":"금강보청기","tel":"031-638-4521","addr":"경기도 이천시 관고동 7-13","indutype":"보건위생 - 의료용품","category":"beauty"},{"name":"람헤어","tel":"","addr":"경기도 이천시 관고동 7-13번지","indutype":"보건위생 - 미용원","category":"beauty"},{"name":"이천실로암안경원","tel":"031-637-4521","addr":"경기도 이천시 관고동 7-13","indutype":"보건위생 - 안경","category":"beauty"}]},{"lat":"37.27893707","long":"127.43663239","imageIndex":13,"items":[{"name":"김미용실","tel":"031-638-3923","addr":"경기도 이천시 관고동 501-12번지","indutype":"보건위생 - 미용원","category":"beauty"}]},{"lat":"37.282109099","long":"127.43404583","imageIndex":13,"items":[{"name":"나나여성헤어샵","tel":"","addr":"경기도 이천시 관고동 213-1번지 103호","indutype":"보건위생 - 미용원","category":"beauty"},{"name":"소망의료기","tel":"","addr":"경기도 이천시 관고동 213-1번지 101호,102호","indutype":"보건위생 - 의료용품","category":"beauty"}]},{"lat":"37.281606502","long":"127.43842931","imageIndex":13,"items":[{"name":"나이스진","tel":"031-633-6487","addr":"경기도 이천시 관고동 14-11번지","indutype":"보건위생 - 피부미용실","category":"beauty"}]},{"lat":"37.281357996","long":"127.43984865","imageIndex":13,"items":[{"name":"머리마을미용실","tel":"031-633-2967","addr":"경기도 이천시 관고동 9-27번지 1호","indutype":"보건위생 - 미용원","category":"beauty"}]},{"lat":"37.281936949","long":"127.43677364","imageIndex":13,"items":[{"name":"머리여행","tel":"031-635-5448","addr":"경기도 이천시 관고동 20-6번지","indutype":"보건위생 - 미용원","category":"beauty"}]},{"lat":"37.280435035","long":"127.43846767","imageIndex":13,"items":[{"name":"모델로스킨케어","tel":"031-631-5008","addr":"경기도 이천시 관고동 15-14번지 별하빌 1호","indutype":"보건위생 - 화장품","category":"beauty"}]},{"lat":"37.281489454","long":"127.43840609","imageIndex":13,"items":[{"name":"모모헤어","tel":"02-1111-1111","addr":"경기도 이천시 관고동 14-15번지","indutype":"보건위생 - 미용원","category":"beauty"}]},{"lat":"37.281937298","long":"127.43913033","imageIndex":13,"items":[{"name":"미래작명연구소이천학당","tel":"031-631-5200","addr":"경기도 이천시 관고동 4-23번지 2층","indutype":"보건위생 - 기타대인서비스","category":"beauty"}]},{"lat":"37.28174326","long":"127.44043722","imageIndex":13,"items":[{"name":"미앤미","tel":"031-637-6378","addr":"경기도 이천시 관고동 7-14번지 2층","indutype":"보건위생 - 화장품","category":"beauty"}]},{"lat":"37.279854272","long":"127.43713379","imageIndex":13,"items":[{"name":"미자르살롱","tel":"031-631-9333","addr":"경기도 이천시 관고동 24-1번지 1층","indutype":"보건위생 - 미용원","category":"beauty"}]},{"lat":"37.281798445","long":"127.44013309","imageIndex":13,"items":[{"name":"민정헤어","tel":"031-637-9856","addr":"경기도 이천시 관고동 8-13번지","indutype":"보건위생 - 미용원","category":"beauty"}]},{"lat":"37.282296977","long":"127.43687719","imageIndex":13,"items":[{"name":"민헤어","tel":"031-636-2998","addr":"경기도 이천시 관고동 85-10번지","indutype":"보건위생 - 미용원","category":"beauty"}]},{"lat":"37.281302604","long":"127.44020916","imageIndex":13,"items":[{"name":"밝은세상화장품","tel":"031-632-4246","addr":"경기도 이천시 관고동 9-22번지","indutype":"보건위생 - 화장품","category":"beauty"}]},{"lat":"37.283215222","long":"127.43954365","imageIndex":13,"items":[{"name":"보빈헤어","tel":"031-637-8959","addr":"경기도 이천시 관고동 3-7번지","indutype":"보건위생 - 미용원","category":"beauty"}]},{"lat":"37.283935952","long":"127.4346539","imageIndex":13,"items":[{"name":"뷰티페이스","tel":"031-635-2275","addr":"경기도 이천시 관고동 201-38번지 1층 우측상가","indutype":"보건위생 - 화장품","category":"beauty"}]},{"lat":"37.281355622","long":"127.44049136","imageIndex":13,"items":[{"name":"비엔나미용실","tel":"031-636-4417","addr":"경기도 이천시 관고동 9-14번지","indutype":"보건위생 - 미용원","category":"beauty"}]},{"lat":"37.279272793","long":"127.43599161","imageIndex":13,"items":[{"name":"살롱드마벨","tel":"031-638-0014","addr":"경기도 이천시 관고동 280-31번지 , 1,2층","indutype":"보건위생 - 미용원","category":"beauty"}]},{"lat":"37.281544996","long":"127.43307288","imageIndex":13,"items":[{"name":"설봉의료기","tel":"070-8185-1728","addr":"경기도 이천시 관고동 218-38번지","indutype":"보건위생 - 의료용품","category":"beauty"}]},{"lat":"37.27877245","long":"127.43729671","imageIndex":13,"items":[{"name":"신성숙헤어샵","tel":"031-637-3443","addr":"경기도 이천시 관고동 26-1번지","indutype":"보건위생 - 미용원","category":"beauty"}]},{"lat":"37.283494407","long":"127.43957909","imageIndex":13,"items":[{"name":"아셀헤어","tel":"031-634-1600","addr":"경기도 이천시 관고동 3-2번지","indutype":"보건위생 - 미용원","category":"beauty"}]},{"lat":"37.281136197","long":"127.43891147","imageIndex":13,"items":[{"name":"아이마트안경","tel":"031-634-4004","addr":"경기도 이천시 관고동 13번지","indutype":"보건위생 - 안경","category":"beauty"}]},{"lat":"37.281547705","long":"127.43971443","imageIndex":13,"items":[{"name":"안경마을","tel":"031-637-9787","addr":"경기도 이천시 관고동 9번지","indutype":"보건위생 - 안경","category":"beauty"}]},{"lat":"37.276774419","long":"127.43668764","imageIndex":13,"items":[{"name":"에스에이치뷰티(SH'beauty)","tel":"031-635-8561","addr":"경기도 이천시 관고동 504-8번지 206호","indutype":"보건위생 - 미용원","category":"beauty"}]},{"lat":"37.281941605","long":"127.44040454","imageIndex":13,"items":[{"name":"오늘 일은 네일","tel":"070-4202-0304","addr":"경기도 이천시 관고동 7-20번지 1층","indutype":"보건위생 - 피부미용실","category":"beauty"}]},{"lat":"37.281465905","long":"127.43745877","imageIndex":13,"items":[{"name":"우리머리방","tel":"031-638-7379","addr":"경기도 이천시 관고동 18-1번지","indutype":"보건위생 - 미용원","category":"beauty"}]},{"lat":"37.280213555","long":"127.4374403","imageIndex":13,"items":[{"name":"중앙목욕탕","tel":"031-635-2507","addr":"경기도 이천시 관고동 23-19번지 1층 중앙목욕탕","indutype":"보건위생 - 사우나","category":"beauty"}]},{"lat":"37.280051996","long":"127.43727023","imageIndex":13,"items":[{"name":"쥬리미용실","tel":"031-636-4081","addr":"경기도 이천시 관고동 23-17번지","indutype":"보건위생 - 미용원","category":"beauty"}]},{"lat":"37.278853665","long":"127.43726335","imageIndex":13,"items":[{"name":"진주헤어","tel":"031-636-6194","addr":"경기도 이천시 관고동 26-8번지","indutype":"보건위생 - 미용원","category":"beauty"}]},{"lat":"37.282049809","long":"127.44038262","imageIndex":13,"items":[{"name":"최원헤어","tel":"","addr":"경기도 이천시 관고동 7-7번지 A동 1층 102호","indutype":"보건위생 - 미용원","category":"beauty"}]},{"lat":"37.283407507","long":"127.43871032","imageIndex":13,"items":[{"name":"헤어 BOX","tel":"031-631-1103","addr":"경기도 이천시 관고동 2-16번지 1층","indutype":"보건위생 - 미용원","category":"beauty"}]},{"lat":"37.279518207","long":"127.43540668","imageIndex":13,"items":[{"name":"헤어샤브로","tel":"","addr":"경기도 이천시 관고동 281-1번지","indutype":"보건위생 - 미용원","category":"beauty"}]},{"lat":"37.280464925","long":"127.43768981","imageIndex":13,"items":[{"name":"헤어연출","tel":"031-633-2340","addr":"경기도 이천시 관고동 16-23번지","indutype":"보건위생 - 미용원","category":"beauty"}]},{"lat":"37.280657046","long":"127.43934846","imageIndex":13,"items":[{"name":"MBC노래연습장","tel":"031-636-3351","addr":"경기도 이천시 관고동 12-4번지","indutype":"레저업소 - 노 래 방","category":"leisure"}]},{"lat":"37.276851894","long":"127.42774681","imageIndex":13,"items":[{"name":"모두체험학습","tel":"031-635-8785","addr":"경기도 이천시 관고동 406","indutype":"레저업소 - 기타레져업소","category":"leisure"}]},{"lat":"37.277269598","long":"127.43679196","imageIndex":13,"items":[{"name":"설봉당구장","tel":"031-635-0150","addr":"경기도 이천시 관고동 504-6번지 청풍캐슬빌딩 301호","indutype":"레저업소 - 당 구 장","category":"leisure"}]},{"lat":"37.281580964","long":"127.43802323","imageIndex":13,"items":[{"name":"아라2GYM","tel":"070-7018-5392","addr":"경기도 이천시 관고동 17-6번지 3층 302호 303호","indutype":"레저업소 - 헬스클럽","category":"leisure"},{"name":"큰소리노래연습장","tel":"031-636-4266","addr":"경기도 이천시 관고동 17-6번지 지하1층","indutype":"레저업소 - 노 래 방","category":"leisure"}]},{"lat":"37.281301986","long":"127.43793142","imageIndex":13,"items":[{"name":"킹노래연습장","tel":"031-634-1070","addr":"경기도 이천시 관고동 16-2번지","indutype":"레저업소 - 노 래 방","category":"leisure"},{"name":"허리우드 당구장","tel":"031-635-4355","addr":"경기도 이천시 관고동 16-2번지 301호","indutype":"레저업소 - 당 구 장","category":"leisure"}]},{"lat":"37.281519551","long":"127.44001872","imageIndex":13,"items":[{"name":"투투당구장","tel":"031-631-1201","addr":"경기도 이천시 관고동 9-29번지","indutype":"레저업소 - 당 구 장","category":"leisure"}]},{"lat":"37.281134992","long":"127.43923846","imageIndex":13,"items":[{"name":"힐링노래연습장","tel":"031-635-2000","addr":"경기도 이천시 관고동 13-1번지","indutype":"레저업소 - 노 래 방","category":"leisure"}]},{"lat":"37.28288322","long":"127.43425322","imageIndex":8,"items":[{"name":"가까운대학약국","tel":"031-634-1102","addr":"경기도 이천시 관고동 514번지 이천벽산블루밍아파트 101-103호","indutype":"약국 - 약국","category":"medical"}]},{"lat":"37.281136197","long":"127.43891147","imageIndex":8,"items":[{"name":"거북이한의원","tel":"031-638-0611","addr":"경기도 이천시 관고동 13번지","indutype":"의원 - 한의원","category":"medical"}]},{"lat":"37.282663179","long":"127.4328199","imageIndex":8,"items":[{"name":"경기도의료원이천병원","tel":"031-630-4426","addr":"경기도 이천시 관고동 515번지","indutype":"병원 - 종합병원","category":"medical"}]},{"lat":"37.281547705","long":"127.43971443","imageIndex":8,"items":[{"name":"경희한의원","tel":"031-633-9933","addr":"경기도 이천시 관고동 9번지","indutype":"의원 - 한의원","category":"medical"},{"name":"주미희치과","tel":"031-636-0781","addr":"경기도 이천시 관고동 9번지","indutype":"의원 - 치과의원","category":"medical"},{"name":"참좋은치과","tel":"031-798-2028","addr":"경기도 이천시 관고동 9번지 경원빌딩 3층","indutype":"의원 - 치과의원","category":"medical"}]},{"lat":"37.280409332","long":"127.43810669","imageIndex":8,"items":[{"name":"나라동물병원","tel":"031-632-1075","addr":"경기도 이천시 관고동 15-17번지","indutype":"기타의료기관 - 동물병원","category":"medical"}]},{"lat":"37.280657046","long":"127.43934846","imageIndex":8,"items":[{"name":"동방한의원","tel":"031-638-1097","addr":"경기도 이천시 관고동 12-4번지 세광빌딩 2층","indutype":"의원 - 한의원","category":"medical"}]},{"lat":"37.281881283","long":"127.43965998","imageIndex":8,"items":[{"name":"동성약국","tel":"031-635-2764","addr":"경기도 이천시 관고동 8-18번지","indutype":"약국 - 약국","category":"medical"},{"name":"이천김내과의원","tel":"031-632-1570","addr":"경기도 이천시 관고동 8-18번지 2층","indutype":"의원 - 의원","category":"medical"}]},{"lat":"37.281468445","long":"127.43921783","imageIndex":8,"items":[{"name":"미래로 연합외과의원","tel":"031-634-9196","addr":"경기도 이천시 관고동 14-5번지 이천프라자","indutype":"의원 - 의원","category":"medical"}]},{"lat":"37.281743912","long":"127.43288232","imageIndex":8,"items":[{"name":"새메디컬약국","tel":"031-634-1005","addr":"경기도 이천시 관고동 218-44번지","indutype":"약국 - 약국","category":"medical"},{"name":"이천효요양병원","tel":"031-637-6370","addr":"경기도 이천시 관고동 218-44번지","indutype":"병원 - 병원","category":"medical"},{"name":"최이 대학약국","tel":"031-631-8776","addr":"경기도 이천시 관고동 218-44번지","indutype":"약국 - 약국","category":"medical"}]},{"lat":"37.281882032","long":"127.43945702","imageIndex":8,"items":[{"name":"설봉한의원","tel":"031-631-7885","addr":"경기도 이천시 관고동 4-17번지","indutype":"의원 - 한의원","category":"medical"}]},{"lat":"37.281826225","long":"127.43993029","imageIndex":8,"items":[{"name":"올바른한의원","tel":"031-694-7579","addr":"경기도 이천시 관고동 8-16번지 2층","indutype":"의원 - 한의원","category":"medical"}]},{"lat":"37.276774419","long":"127.43668764","imageIndex":8,"items":[{"name":"유디치과","tel":"031-634-3405","addr":"경기도 이천시 관고동 504-8번지 경화빌딩 3층","indutype":"의원 - 치과의원","category":"medical"}]},{"lat":"37.277269598","long":"127.43679196","imageIndex":8,"items":[{"name":"의료법인열린의료재단이천열린의원","tel":"031-631-3001","addr":"경기도 이천시 관고동 504-6번지 청풍캐슬 4층","indutype":"의원 - 의원","category":"medical"}]},{"lat":"37.283407507","long":"127.43871032","imageIndex":0,"items":[{"name":"경동건설기계","tel":"","addr":"경기도 이천시 관고동 2-16번지","indutype":"자동차판매 - 기타운송","category":"car"},{"name":"경동건설기계(성일지게차)","tel":"031-636-2979","addr":"경기도 이천시 관고동 2-16번지","indutype":"자동차판매 - 기타운송","category":"car"}]},{"lat":"37.281686969","long":"127.43859892","imageIndex":0,"items":[{"name":"선흥오토바이상사","tel":"031-635-3287","addr":"경기도 이천시 관고동 14번지","indutype":"자동차판매 - 이륜차판매","category":"car"}]},{"lat":"37.280551639","long":"127.4336874","imageIndex":0,"items":[{"name":"설봉카인테리어","tel":"031-637-9851","addr":"경기도 이천시 관고동 228-1번지","indutype":"자동차정비 유지 - 자동차정비","category":"car"}]},{"lat":"37.282051763","long":"127.43740576","imageIndex":0,"items":[{"name":"스피드자동차공업사","tel":"031-631-6816","addr":"경기도 이천시 관고동 41-7번지","indutype":"자동차정비 유지 - 자동차정비","category":"car"}]},{"lat":"37.281857639","long":"127.43381888","imageIndex":0,"items":[{"name":"양정세차장","tel":"031-633-0730","addr":"경기도 이천시 관고동 213번지","indutype":"자동차정비 유지 - 세차장","category":"car"},{"name":"양정자동차공업사","tel":"031-636-9449","addr":"경기도 이천시 관고동 213번지","indutype":"자동차정비 유지 - 자동차정비","category":"car"}]},{"lat":"37.277963782","long":"127.43668319","imageIndex":0,"items":[{"name":"토토버블손세차장","tel":"031-635-9741","addr":"경기도 이천시 관고동 504-1번지","indutype":"자동차정비 유지 - 세차장","category":"car"}]},{"lat":"37.283246737","long":"127.438326","imageIndex":0,"items":[{"name":"한성카센타","tel":"031-635-0958","addr":"경기도 이천시 관고동 1-7번지","indutype":"자동차정비 유지 - 자동차정비","category":"car"}]},{"lat":"37.280908203","long":"127.43965436","imageIndex":5,"items":[{"name":"계림여인숙","tel":"031-638-2838","addr":"경기도 이천시 관고동 10-23번지","indutype":"숙박업 - 여관/기타숙박업","category":"hotel"},{"name":"재림여관","tel":"","addr":"경기도 이천시 관고동 10-23번지","indutype":"숙박업 - 여관/기타숙박업","category":"hotel"}]},{"lat":"37.282244386","long":"127.43892913","imageIndex":5,"items":[{"name":"모텔테마","tel":"031-633-3522","addr":"경기도 이천시 관고동 4-3번지 외5필지","indutype":"숙박업 - 여관/기타숙박업","category":"hotel"}]},{"lat":"37.281074247","long":"127.43860666","imageIndex":5,"items":[{"name":"선화여관","tel":"031-635-3430","addr":"경기도 이천시 관고동 15-5번지","indutype":"숙박업 - 여관/기타숙박업","category":"hotel"}]},{"lat":"37.281492022","long":"127.44015387","imageIndex":5,"items":[{"name":"우리여인숙","tel":"031-634-1414","addr":"경기도 이천시 관고동 9-4번지","indutype":"숙박업 - 여관/기타숙박업","category":"hotel"}]},{"lat":"37.281497842","long":"127.43857527","imageIndex":5,"items":[{"name":"은혜여관","tel":"031-636-1160","addr":"경기도 이천시 관고동 14-10번지","indutype":"숙박업 - 여관/기타숙박업","category":"hotel"}]},{"lat":"37.280993157","long":"127.43860619","imageIndex":5,"items":[{"name":"태화모텔","tel":"031-635-1156","addr":"경기도 이천시 관고동 15-6번지","indutype":"숙박업 - 여관/기타숙박업","category":"hotel"}]},{"lat":"37.279357894","long":"127.43735645","imageIndex":5,"items":[{"name":"호수장여관","tel":"031-635-7073","addr":"경기도 이천시 관고동 25-4번지","indutype":"숙박업 - 여관/기타숙박업","category":"hotel"},{"name":"호수장여관(호수대중목욕탕)","tel":"031-635-7073","addr":"경기도 이천시 관고동 25-4번지","indutype":"숙박업 - 여관/기타숙박업","category":"hotel"}]},{"lat":"37.279354497","long":"127.43335358","imageIndex":5,"items":[{"name":"호텔얌 이천설봉호수점","tel":"031-637-2081","addr":"경기도 이천시 관고동 237번지","indutype":"숙박업 - 여관/기타숙박업","category":"hotel"}]},{"lat":"37.281021225","long":"127.43832446","imageIndex":5,"items":[{"name":"힐링","tel":"031-636-8897","addr":"경기도 이천시 관고동 15-25번지","indutype":"숙박업 - 여관/기타숙박업","category":"hotel"}]},{"lat":"37.281886356","long":"127.43582617","imageIndex":7,"items":[{"name":"대연슈퍼","tel":"031-637-9803","addr":"경기도 이천시 관고동 58-18번지 1층","indutype":"유통업 영리 - 슈퍼마켓","category":"mart"}]},{"lat":"37.281547705","long":"127.43971443","imageIndex":7,"items":[{"name":"대창슈퍼","tel":"031-635-4520","addr":"경기도 이천시 관고동 9번지","indutype":"유통업 영리 - 슈퍼마켓","category":"mart"}]},{"lat":"37.280747935","long":"127.43913474","imageIndex":7,"items":[{"name":"아시안마트","tel":"031-635-3808","addr":"경기도 이천시 관고동 12-2번지","indutype":"유통업 영리 - 슈퍼마켓","category":"mart"}]},{"lat":"37.28129983","long":"127.43851775","imageIndex":7,"items":[{"name":"알뜰슈퍼","tel":"031-634-0854","addr":"경기도 이천시 관고동 15-2번지","indutype":"유통업 영리 - 슈퍼마켓","category":"mart"}]},{"lat":"37.280657046","long":"127.43934846","imageIndex":7,"items":[{"name":"유한슈퍼","tel":"031-633-9802","addr":"경기도 이천시 관고동 12-4번지","indutype":"유통업 영리 - 슈퍼마켓","category":"mart"}]},{"lat":"37.282604163","long":"127.43910035","imageIndex":7,"items":[{"name":"플러스마트","tel":"031-634-6917","addr":"경기도 이천시 관고동 3-20번지 101호","indutype":"유통업 영리 - 슈퍼마켓","category":"mart"}]},{"lat":"37.279519785","long":"127.43743631","imageIndex":16,"items":[{"name":"디액터스 입시 연기학원","tel":"","addr":"경기도 이천시 관고동 25-2번지 2층201호,202호","indutype":"학원 - 예·체능계학원","category":"study"}]},{"lat":"37.279546637","long":"127.43502347","imageIndex":16,"items":[{"name":"별하어린이집[아이행복]","tel":"031-636-5109","addr":"경기도 이천시 관고동 232-12번지 권능어린이집","indutype":"학원 - 유아원","category":"study"},{"name":"빨간망토어린이집[아이행복]","tel":"031-636-5109","addr":"경기도 이천시 관고동 232-12번지","indutype":"학원 - 유아원","category":"study"}]},{"lat":"37.283659272","long":"127.43393064","imageIndex":16,"items":[{"name":"샬롬어린이집[아이행복]","tel":"031-637-3448","addr":"경기도 이천시 관고동 199-9번지","indutype":"학원 - 유아원","category":"study"}]},{"lat":"37.281469059","long":"127.43413239","imageIndex":16,"items":[{"name":"세종어린이집[아이행복]","tel":"031-637-3334","addr":"경기도 이천시 관고동 223-2번지","indutype":"학원 - 유아원","category":"study"}]},{"lat":"37.28174389","long":"127.4378212","imageIndex":16,"items":[{"name":"스티브에브리잉글리쉬","tel":"031-631-0583","addr":"경기도 이천시 관고동 17-3번지 2층","indutype":"학원 - 보습학원","category":"study"},{"name":"이샘수학학원","tel":"031-637-7023","addr":"경기도 이천시 관고동 17-3번지 3층","indutype":"회원제형태 - 학원","category":"study"}]},{"lat":"37.281965218","long":"127.43643553","imageIndex":16,"items":[{"name":"애플트리어린이집","tel":"031-638-5210","addr":"경기도 이천시 관고동 20-17번지","indutype":"학원 - 유아원","category":"study"},{"name":"애플트리어린이집[아이행복]","tel":"031-638-5210","addr":"경기도 이천시 관고동 20-17번지","indutype":"학원 - 유아원","category":"study"}]},{"lat":"37.281772659","long":"127.43734778","imageIndex":16,"items":[{"name":"양정씨앤씨(C&C)입시미술학원","tel":"031-632-6410","addr":"경기도 이천시 관고동 17 1,3층","indutype":"학원 - 예·체능계학원","category":"study"}]},{"lat":"37.282407977","long":"127.43854669","imageIndex":16,"items":[{"name":"오렌지원룸텔","tel":"031-631-0210","addr":"경기도 이천시 관고동 4번지","indutype":"학원 - 독서실","category":"study"}]},{"lat":"37.282298588","long":"127.43643744","imageIndex":16,"items":[{"name":"이엔엠(EnM)영수학원","tel":"031-694-7272","addr":"경기도 이천시 관고동 20-1번지","indutype":"학원 - 보습학원","category":"study"}]},{"lat":"37.276851894","long":"127.42774681","imageIndex":16,"items":[{"name":"이천 도예교육원","tel":"031-633-3241","addr":"경기도 이천시 관고동 406","indutype":"회원제형태 - 학원","category":"study"}]},{"lat":"37.283684849","long":"127.43679495","imageIndex":16,"items":[{"name":"이천양정여자고등학교","tel":"031-633-7801","addr":"경기도 이천시 관고동 77번지","indutype":"학원 - 초중고교육기관","category":"study"}]},{"lat":"37.280213555","long":"127.4374403","imageIndex":16,"items":[{"name":"중앙고시텔","tel":"031-638-5735","addr":"경기도 이천시 관고동 23-19번지","indutype":"학원 - 독서실","category":"study"}]},{"lat":"37.281686969","long":"127.43859892","imageIndex":16,"items":[{"name":"진명학원","tel":"031-631-4959","addr":"경기도 이천시 관고동 14번지 2층","indutype":"학원 - 보습학원","category":"study"}]},{"lat":"37.281604343","long":"127.43901565","imageIndex":16,"items":[{"name":"창조의아침미술학원","tel":"031-631-7058","addr":"경기도 이천시 관고동 14-4번지 2층","indutype":"학원 - 예·체능계학원","category":"study"}]},{"lat":"37.282245714","long":"127.43856831","imageIndex":16,"items":[{"name":"클릭전원미술학원","tel":"031-635-0259","addr":"경기도 이천시 관고동 4-28번지 301호","indutype":"학원 - 예·체능계학원","category":"study"}]},{"lat":"37.282324641","long":"127.43423875","imageIndex":16,"items":[{"name":"킹 버드 코리아 보습학원","tel":"031-636-2245","addr":"경기도 이천시 관고동 212-3번지 1층","indutype":"학원 - 외국어학원","category":"study"}]},{"lat":"37.280657046","long":"127.43934846","imageIndex":16,"items":[{"name":"형제고시텔","tel":"031-636-3100","addr":"경기도 이천시 관고동 12-4번지","indutype":"학원 - 독서실","category":"study"}]}]