[{"lat":"37.527261506","long":"127.19561997","imageIndex":7,"items":[{"name":"(주)농업회사법인 무공이네농장","tel":"070-8255-2575","addr":"경기도 하남시 춘궁동 135번지","indutype":"음료식품 - 농·축·수산품","category":"food"}]},{"lat":"37.523735915","long":"127.19173076","imageIndex":7,"items":[{"name":"(주)봄날","tel":"070-4369-9286","addr":"경기도 하남시 춘궁동 267-5번지","indutype":"음료식품 - 정육점","category":"food"}]},{"lat":"37.524714239","long":"127.19406361","imageIndex":7,"items":[{"name":"(주)어찬가","tel":"031-794-6613","addr":"경기도 하남시 춘궁동 218번지","indutype":"음료식품 - 농·축·수산품","category":"food"}]},{"lat":"37.526262685","long":"127.19483682","imageIndex":7,"items":[{"name":"(주)청연","tel":"070-4233-0499","addr":"경기도 하남시 춘궁동 195번지","indutype":"음료식품 - 기타음료식품","category":"food"}]},{"lat":"37.52026757","long":"127.19700465","imageIndex":7,"items":[{"name":"(주)파머스","tel":"031-796-9075","addr":"경기도 하남시 춘궁동 384-3번지","indutype":"음료식품 - 정육점","category":"food"}]},{"lat":"37.524096363","long":"127.19169773","imageIndex":7,"items":[{"name":"(주)푸드스토리","tel":"02-1577-3137","addr":"경기도 하남시 춘궁동 267-2번지","indutype":"음료식품 - 정육점","category":"food"}]},{"lat":"37.52587386","long":"127.19009581","imageIndex":7,"items":[{"name":"남양식품","tel":"031-563-5584","addr":"경기도 하남시 춘궁동 126번지","indutype":"음료식품 - 기타음료식품","category":"food"}]},{"lat":"37.516235219","long":"127.19450574","imageIndex":7,"items":[{"name":"농업회사법인 통일푸드 주식회사","tel":"031-796-6667","addr":"경기도 하남시 춘궁동 432-3번지","indutype":"음료식품 - 정육점","category":"food"}]},{"lat":"37.525178233","long":"127.19683637","imageIndex":7,"items":[{"name":"대한F&B","tel":"031-796-9990","addr":"경기도 하남시 춘궁동 234-3번지","indutype":"음료식품 - 정육점","category":"food"}]},{"lat":"37.523209284","long":"127.19425207","imageIndex":7,"items":[{"name":"롯데칠성 풍납점","tel":"","addr":"경기도 하남시 춘궁동 249-17번지 가동","indutype":"음료식품 - 기타음료식품","category":"food"},{"name":"스마일유통","tel":"031-000-0000","addr":"경기도 하남시 춘궁동 249-17번지","indutype":"음료식품 - 기타음료식품","category":"food"}]},{"lat":"37.516430542","long":"127.1962821","imageIndex":7,"items":[{"name":"마루구운계란","tel":"031-794-2958","addr":"경기도 하남시 춘궁동 424-5번지 나동","indutype":"음료식품 - 기타음료식품","category":"food"}]},{"lat":"37.517763593","long":"127.1965344","imageIndex":7,"items":[{"name":"미락","tel":"031-671-1626","addr":"경기도 하남시 춘궁동 420-2번지","indutype":"음료식품 - 기타음료식품","category":"food"}]},{"lat":"37.523322888","long":"127.19083605","imageIndex":7,"items":[{"name":"산성농원","tel":"","addr":"경기도 하남시 춘궁동 266-2번지 1층","indutype":"음료식품 - 농·축·수산품","category":"food"}]},{"lat":"37.526790397","long":"127.19164796","imageIndex":7,"items":[{"name":"서정유통","tel":"","addr":"경기도 하남시 춘궁동 129-2번지 1동 1호","indutype":"음료식품 - 기타음료식품","category":"food"}]},{"lat":"37.520377726","long":"127.19576063","imageIndex":7,"items":[{"name":"소소(    -SOSO)","tel":"","addr":"경기도 하남시 춘궁동 385-1번지","indutype":"음료식품 - 기타음료식품","category":"food"}]},{"lat":"37.520569274","long":"127.18867988","imageIndex":7,"items":[{"name":"신선농원","tel":"031-477-8545","addr":"경기도 하남시 춘궁동 442-1번지 태양물류보관","indutype":"음료식품 - 농·축·수산품","category":"food"}]},{"lat":"37.521602844","long":"127.19589953","imageIndex":7,"items":[{"name":"여명유통","tel":"","addr":"경기도 하남시 춘궁동 362번지","indutype":"음료식품 - 기타음료식품","category":"food"}]},{"lat":"37.518042712","long":"127.19664823","imageIndex":7,"items":[{"name":"옛날고골떡방앗간","tel":"031-792-2954","addr":"경기도 하남시 춘궁동 417-2번지 101호","indutype":"음료식품 - 제과점","category":"food"}]},{"lat":"37.52348373","long":"127.19167356","imageIndex":7,"items":[{"name":"올바른 농업회사법인 유한회사","tel":"031-794-6992","addr":"경기도 하남시 춘궁동 264-1번지 1층","indutype":"음료식품 - 미곡상","category":"food"}]},{"lat":"37.517262618","long":"127.19433869","imageIndex":7,"items":[{"name":"웰빙팜스(주)","tel":"02-488-3329","addr":"경기도 하남시 춘궁동 409-1번지 1층","indutype":"음료식품 - 기타음료식품","category":"food"}]},{"lat":"37.527930496","long":"127.19423019","imageIndex":7,"items":[{"name":"주식회사 강남에프앤비","tel":"","addr":"경기도 하남시 춘궁동 138번지","indutype":"음료식품 - 기타음료식품","category":"food"}]},{"lat":"37.524596745","long":"127.19428956","imageIndex":7,"items":[{"name":"주식회사 달래","tel":"031-796-1820","addr":"경기도 하남시 춘궁동 220-1번지","indutype":"음료식품 - 정육점","category":"food"}]},{"lat":"37.526766057","long":"127.19556213","imageIndex":7,"items":[{"name":"주식회사 여강식자재","tel":"031-794-5155","addr":"경기도 하남시 춘궁동 190-4번지","indutype":"음료식품 - 기타음료식품","category":"food"}]},{"lat":"37.524460698","long":"127.19484352","imageIndex":7,"items":[{"name":"주식회사 이노후레쉬리드","tel":"031-791-4190","addr":"경기도 하남시 춘궁동 225-3번지","indutype":"음료식품 - 미곡상","category":"food"}]},{"lat":"37.52156951","long":"127.18859187","imageIndex":7,"items":[{"name":"주식회사선아수","tel":"031-796-6237","addr":"경기도 하남시 춘궁동 312번지","indutype":"음료식품 - 농·축·수산품","category":"food"}]},{"lat":"37.519682097","long":"127.19690133","imageIndex":7,"items":[{"name":"청송유통주식회사","tel":"031-796-9691","addr":"경기도 하남시 춘궁동 389-1번지","indutype":"음료식품 - 농·축·수산품","category":"food"}]},{"lat":"37.52723853","long":"127.19311976","imageIndex":7,"items":[{"name":"케이앤물류","tel":"031-123-4567","addr":"경기도 하남시 춘궁동 132-4번지","indutype":"음료식품 - 기타음료식품","category":"food"}]},{"lat":"37.522678855","long":"127.19353805","imageIndex":7,"items":[{"name":"행복유통","tel":"02-470-5624","addr":"경기도 하남시 춘궁동 328-1번지","indutype":"음료식품 - 기타음료식품","category":"food"}]},{"lat":"37.528708968","long":"127.19198087","imageIndex":7,"items":[{"name":"헝그리 베어","tel":"031-794-9580","addr":"경기도 하남시 춘궁동 74-2번지 나동","indutype":"음료식품 - 농·축·수산품","category":"food"}]},{"lat":"37.524125914","long":"127.19011407","imageIndex":7,"items":[{"name":"호수마켓","tel":"031-796-6429","addr":"경기도 하남시 춘궁동 282-3번지 2층","indutype":"음료식품 - 농·축·수산품","category":"food"}]}]