[{"lat":"37.47160753","long":"127.336964","imageIndex":4,"items":[{"name":"Angel-in-us Coffee/동서울골프클럽커피숍","tel":"070-4922-3281","addr":"경기도 광주시 퇴촌면 도수리 179-11번지","indutype":"일반휴게음식 - 서양음식","category":"restaurant"}]},{"lat":"37.4720476","long":"127.3143908","imageIndex":4,"items":[{"name":"Tea Break(티브레이크)","tel":"","addr":"경기도 광주시 퇴촌면 도수리 618-2번지 1층","indutype":"일반휴게음식 - 서양음식","category":"restaurant"},{"name":"오백국수 퇴촌점","tel":"031-769-7080","addr":"경기도 광주시 퇴촌면 도수리 618-2번지 104호","indutype":"일반휴게음식 - 스넥","category":"restaurant"}]},{"lat":"37.47238816","long":"127.3150818","imageIndex":4,"items":[{"name":"구띠에커피 퇴촌점","tel":"031-765-7072","addr":"경기도 광주시 퇴촌면 도수리 618-17","indutype":"일반휴게음식 - 서양음식","category":"restaurant"},{"name":"스시사랑","tel":"031-765-7177","addr":"경기도 광주시 퇴촌면 도수리 618-17번지","indutype":"일반휴게음식 - 일식·회집","category":"restaurant"},{"name":"족세상","tel":"","addr":"경기도 광주시 퇴촌면 도수리 618-17번지 1층","indutype":"일반휴게음식 - 일반한식","category":"restaurant"}]},{"lat":"37.47157587","long":"127.3156097","imageIndex":4,"items":[{"name":"꿉자","tel":"031-766-2820","addr":"경기도 광주시 퇴촌면 도수리 611-6번지","indutype":"일반휴게음식 - 서양음식","category":"restaurant"},{"name":"오다가다","tel":"031-797-0711","addr":"경기도 광주시 퇴촌면 도수리 611-6번지 1층 108호","indutype":"일반휴게음식 - 일반한식","category":"restaurant"}]},{"lat":"37.47038738","long":"127.3152995","imageIndex":4,"items":[{"name":"다이꼬지","tel":"","addr":"경기도 광주시 퇴촌면 도수리 345-13번지 1층","indutype":"일반휴게음식 - 일식·회집","category":"restaurant"},{"name":"알리바바커피(퇴촌점)","tel":"031-111-1111","addr":"경기도 광주시 퇴촌면 도수리 345-13번지","indutype":"일반휴게음식 - 서양음식","category":"restaurant"}]},{"lat":"37.47485676","long":"127.3444397","imageIndex":4,"items":[{"name":"도둑냉면","tel":"031-111-1111","addr":"경기도 광주시 퇴촌면 도수리 122-3번지 B동 1층","indutype":"일반휴게음식 - 일반한식","category":"restaurant"}]},{"lat":"37.47302598","long":"127.3089121","imageIndex":4,"items":[{"name":"디디파크카페","tel":"031-000-0000","addr":"경기도 광주시 퇴촌면 도수리 674-1번지","indutype":"일반휴게음식 - 서양음식","category":"restaurant"}]},{"lat":"37.47201992","long":"127.3146394","imageIndex":4,"items":[{"name":"떡뽀이비어 퇴촌점","tel":"031-761-1597","addr":"경기도 광주시 퇴촌면 도수리 618-23번지 1층","indutype":"일반휴게음식 - 일반한식","category":"restaurant"}]},{"lat":"37.47227219","long":"127.3146404","imageIndex":4,"items":[{"name":"라체나","tel":"031-798-7981","addr":"경기도 광주시 퇴촌면 도수리 618-22번지 1층 102호 (만사르다)","indutype":"일반휴게음식 - 서양음식","category":"restaurant"}]},{"lat":"37.47011132","long":"127.3174688","imageIndex":4,"items":[{"name":"마이키친","tel":"031-765-9950","addr":"경기도 광주시 퇴촌면 도수리 350번지 1층","indutype":"일반휴게음식 - 서양음식","category":"restaurant"}]},{"lat":"37.469298","long":"127.318381","imageIndex":4,"items":[{"name":"마카마카마카롱","tel":"02-511-8398","addr":"경기도 광주시 퇴촌면 도수리 382-9번지","indutype":"일반휴게음식 - 서양음식","category":"restaurant"}]},{"lat":"37.46752118","long":"127.3190744","imageIndex":4,"items":[{"name":"버거마마","tel":"031-765-1562","addr":"경기도 광주시 퇴촌면 도수리 331-1번지 1층","indutype":"일반휴게음식 - 일반한식","category":"restaurant"}]},{"lat":"37.47166048","long":"127.3142761","imageIndex":4,"items":[{"name":"별미","tel":"031-769-6565","addr":"경기도 광주시 퇴촌면 도수리 615-6번지","indutype":"일반휴게음식 - 일반한식","category":"restaurant"}]},{"lat":"37.47216291","long":"127.3150808","imageIndex":4,"items":[{"name":"복돼지네생삼겹","tel":"031-767-0125","addr":"경기도 광주시 퇴촌면 도수리 618-8번지 1층","indutype":"일반휴게음식 - 일반한식","category":"restaurant"},{"name":"왕돈까스&잔치국수","tel":"031-769-8843","addr":"경기도 광주시 퇴촌면 도수리 618-8번지 1층","indutype":"일반휴게음식 - 일반한식","category":"restaurant"},{"name":"치킨더홈","tel":"031-764-9978","addr":"경기도 광주시 퇴촌면 도수리 618-8번지 1층 104호","indutype":"일반휴게음식 - 스넥","category":"restaurant"}]},{"lat":"37.47780175","long":"127.3510442","imageIndex":4,"items":[{"name":"쇠뫼기","tel":"031-765-6569","addr":"경기도 광주시 퇴촌면 도수리 93번지","indutype":"일반휴게음식 - 일반한식","category":"restaurant"}]},{"lat":"37.47116097","long":"127.3157775","imageIndex":4,"items":[{"name":"일라이(ELY)","tel":"031-768-1111","addr":"경기도 광주시 퇴촌면 도수리 354-1번지 2층","indutype":"일반휴게음식 - 서양음식","category":"restaurant"}]},{"lat":"37.47282955","long":"127.3082217","imageIndex":4,"items":[{"name":"장어천국","tel":"031-797-0722","addr":"경기도 광주시 퇴촌면 도수리 676-6번지 1층","indutype":"일반휴게음식 - 일반한식","category":"restaurant"}]},{"lat":"37.46647098","long":"127.3275817","imageIndex":4,"items":[{"name":"전주곰탕","tel":"031-765-3936","addr":"경기도 광주시 퇴촌면 도수리 281-2번지","indutype":"일반휴게음식 - 일반한식","category":"restaurant"}]},{"lat":"37.46988133","long":"127.3158626","imageIndex":4,"items":[{"name":"조개칼국수","tel":"031-765-7446","addr":"경기도 광주시 퇴촌면 도수리 345번지","indutype":"일반휴게음식 - 일반한식","category":"restaurant"}]},{"lat":"37.47004917","long":"127.3336336","imageIndex":4,"items":[{"name":"짝고기촌","tel":"031-768-6161","addr":"경기도 광주시 퇴촌면 도수리 275-5","indutype":"일반휴게음식 - 일반한식","category":"restaurant"},{"name":"카페마노 (MANO)","tel":"031-8028-1411","addr":"경기도 광주시 퇴촌면 도수리 275-5번지 1층","indutype":"일반휴게음식 - 서양음식","category":"restaurant"},{"name":"허브애향기","tel":"031-764-1598","addr":"경기도 광주시 퇴촌면 도수리 275-5번지","indutype":"일반휴게음식 - 서양음식","category":"restaurant"}]},{"lat":"37.46905185","long":"127.3326345","imageIndex":4,"items":[{"name":"카페바안","tel":"070-4118-6546","addr":"경기도 광주시 퇴촌면 도수리 275-20번지","indutype":"일반휴게음식 - 서양음식","category":"restaurant"}]},{"lat":"37.47752414","long":"127.3504663","imageIndex":4,"items":[{"name":"퇴촌갈비밥","tel":"031-797-2036","addr":"경기도 광주시 퇴촌면 도수리 90-1번지","indutype":"일반휴게음식 - 일반한식","category":"restaurant"}]},{"lat":"37.47088136","long":"127.3158894","imageIndex":4,"items":[{"name":"퇴촌부뚜막","tel":"031-767-0669","addr":"경기도 광주시 퇴촌면 도수리 354-3번지","indutype":"일반휴게음식 - 일반한식","category":"restaurant"}]},{"lat":"37.46780106","long":"127.3188608","imageIndex":4,"items":[{"name":"퇴촌전통순대국","tel":"031-767-7070","addr":"경기도 광주시 퇴촌면 도수리 331-2번지","indutype":"일반휴게음식 - 일반한식","category":"restaurant"}]},{"lat":"37.47008023","long":"127.3156035","imageIndex":4,"items":[{"name":"퇴촌짬뽕집","tel":"031-765-5554","addr":"경기도 광주시 퇴촌면 도수리 345-2번지","indutype":"일반휴게음식 - 중국식","category":"restaurant"}]},{"lat":"37.47243838","long":"127.3096671","imageIndex":4,"items":[{"name":"퇴촌푸른집","tel":"031-767-2068","addr":"경기도 광주시 퇴촌면 도수리 643번지","indutype":"일반휴게음식 - 일반한식","category":"restaurant"}]},{"lat":"37.47260451","long":"127.3081416","imageIndex":4,"items":[{"name":"퇴촌하누가","tel":"031-111-1111","addr":"경기도 광주시 퇴촌면 도수리 678번지","indutype":"일반휴게음식 - 일반한식","category":"restaurant"}]},{"lat":"37.47041624","long":"127.3180014","imageIndex":4,"items":[{"name":"퇴촌흑염소해장국","tel":"031-768-9090","addr":"경기도 광주시 퇴촌면 도수리 358-4번지","indutype":"일반휴게음식 - 일반한식","category":"restaurant"}]},{"lat":"37.47632737","long":"127.3499407","imageIndex":4,"items":[{"name":"포레861","tel":"031-798-0735","addr":"경기도 광주시 퇴촌면 도수리 86-1번지","indutype":"일반휴게음식 - 서양음식","category":"restaurant"}]},{"lat":"37.47035385","long":"127.3342228","imageIndex":4,"items":[{"name":"항아리동치미국수","tel":"031-768-6868","addr":"경기도 광주시 퇴촌면 도수리 275-30번지","indutype":"일반휴게음식 - 일반한식","category":"restaurant"},{"name":"항아리동치미국수","tel":"031-768-6868","addr":"경기도 광주시 퇴촌면 도수리 275-30번지","indutype":"일반휴게음식 - 일반한식","category":"restaurant"}]},{"lat":"37.47021574","long":"127.3154684","imageIndex":4,"items":[{"name":"홍성애진막국수","tel":"031-766-2186","addr":"경기도 광주시 퇴촌면 도수리 345-3번지","indutype":"일반휴게음식 - 일반한식","category":"restaurant"}]},{"lat":"37.47419515","long":"127.3426618","imageIndex":4,"items":[{"name":"홍천숯불구이","tel":"031-765-0083","addr":"경기도 광주시 퇴촌면 도수리 168번지","indutype":"일반휴게음식 - 일반한식","category":"restaurant"}]},{"lat":"37.47541601","long":"127.3473251","imageIndex":4,"items":[{"name":"화로장작구이","tel":"031-767-1710","addr":"경기도 광주시 퇴촌면 도수리 122-2번지","indutype":"일반휴게음식 - 일반한식","category":"restaurant"}]},{"lat":"37.47172122","long":"127.3151581","imageIndex":17,"items":[{"name":"GS25광주남촌점","tel":"","addr":"경기도 광주시 퇴촌면 도수리 611-1번지","indutype":"유통업 영리 - 편 의 점","category":"other"},{"name":"GS25광주남촌점","tel":"","addr":"경기도 광주시 퇴촌면 도수리 611-1번지","indutype":"유통업 영리 - 상품권전문판매","category":"other"},{"name":"남촌세탁소","tel":"031-767-6600","addr":"경기도 광주시 퇴촌면 도수리 611-1번지","indutype":"수리서비스 - 세탁소","category":"other"},{"name":"애견멀티샵","tel":"031-769-0217","addr":"경기도 광주시 퇴촌면 도수리 611-1번지 105호","indutype":"문화.취미 - 애완동물","category":"other"},{"name":"에디슨 전기조명","tel":"031-769-0390","addr":"경기도 광주시 퇴촌면 도수리 611-1번지","indutype":"건축자재 - 조명기구","category":"other"}]},{"lat":"37.47057709","long":"127.3151082","imageIndex":17,"items":[{"name":"경기농자재 광주점","tel":"031-1588-0537","addr":"경기도 광주시 퇴촌면 도수리 345-10번지 한양빌딩 1층","indutype":"농업 - 기타농업관련","category":"other"}]},{"lat":"37.47238816","long":"127.3150818","imageIndex":17,"items":[{"name":"다올아트","tel":"031-765-6471","addr":"경기도 광주시 퇴촌면 도수리 618-17번지 105호","indutype":"용역 서비스 - 종합용역","category":"other"},{"name":"효성설비공사","tel":"031-769-5558","addr":"경기도 광주시 퇴촌면 도수리 618-17번지","indutype":"용역 서비스 - 기타용역서비스","category":"other"}]},{"lat":"37.47160753","long":"127.336964","imageIndex":17,"items":[{"name":"드림통상","tel":"070-8265-4123","addr":"경기도 광주시 퇴촌면 도수리 179-11번지 1층","indutype":"레져용품 - 스포츠·레져용품","category":"other"}]},{"lat":"37.46866035","long":"127.3176097","imageIndex":17,"items":[{"name":"마스(MAS)건설주식회사","tel":"031-766-3377","addr":"경기도 광주시 퇴촌면 도수리 339-2","indutype":"건축자재 - 인테리어전문","category":"other"}]},{"lat":"37.47483133","long":"127.3438857","imageIndex":17,"items":[{"name":"만사형통","tel":"031-761-7333","addr":"경기도 광주시 퇴촌면 도수리 128-7번지","indutype":"용역 서비스 - 사무서비스","category":"other"}]},{"lat":"37.47358192","long":"127.313391","imageIndex":17,"items":[{"name":"미성","tel":"02-2654-0111","addr":"경기도 광주시 퇴촌면 도수리 632-15 한국전원빌라 101 9/","indutype":"회원제형태 - 기타4","category":"other"}]},{"lat":"37.47146815","long":"127.3352677","imageIndex":17,"items":[{"name":"바빌론","tel":"031-797-4227","addr":"경기도 광주시 퇴촌면 도수리 179-12번지 2호","indutype":"의류 - 정장","category":"other"},{"name":"제이슨커스텀","tel":"","addr":"경기도 광주시 퇴촌면 도수리 179-12번지","indutype":"문화.취미 - 문화취미기타","category":"other"},{"name":"태산겔러리","tel":"031-763-1235","addr":"경기도 광주시 퇴촌면 도수리 179-12번지","indutype":"가구 - 기타가구","category":"other"}]},{"lat":"37.47582868","long":"127.3479374","imageIndex":17,"items":[{"name":"반석원","tel":"031-767-5707","addr":"경기도 광주시 퇴촌면 도수리 108-6","indutype":"건축자재 - 기타건축자재","category":"other"}]},{"lat":"37.47116097","long":"127.3157775","imageIndex":17,"items":[{"name":"씨유광주퇴촌점","tel":"031-768-1111","addr":"경기도 광주시 퇴촌면 도수리 354-1번지","indutype":"유통업 영리 - 편 의 점","category":"other"},{"name":"헤나에스테틱","tel":"031-761-5446","addr":"경기도 광주시 퇴촌면 도수리 354-1","indutype":"회원제형태 - 기타4","category":"other"}]},{"lat":"37.47227219","long":"127.3146404","imageIndex":17,"items":[{"name":"야니","tel":"","addr":"경기도 광주시 퇴촌면 도수리 618-22번지 103,104호","indutype":"의류 - 정장","category":"other"}]},{"lat":"37.47466192","long":"127.3494695","imageIndex":17,"items":[{"name":"에스더캐슬&시온스튜디오","tel":"031-798-9003","addr":"경기도 광주시 퇴촌면 도수리 117-1번지","indutype":"의류 - 정장","category":"other"}]},{"lat":"37.4688899","long":"127.3325546","imageIndex":17,"items":[{"name":"엔틱캐슬","tel":"031-708-6561","addr":"경기도 광주시 퇴촌면 도수리 275-13번지","indutype":"가구 - 기타가구","category":"other"}]},{"lat":"37.47813708","long":"127.3503787","imageIndex":17,"items":[{"name":"원각예술원","tel":"","addr":"경기도 광주시 퇴촌면 도수리 91-1번지","indutype":"문화.취미 - 민예·공예품","category":"other"}]},{"lat":"37.46752118","long":"127.3190744","imageIndex":17,"items":[{"name":"이가","tel":"031-4127-2704","addr":"경기도 광주시 퇴촌면 도수리 331-1번지","indutype":"가구 - 기타가구","category":"other"},{"name":"잔듸와 도그농원","tel":"031-767-7040","addr":"경기도 광주시 퇴촌면 도수리 331-1번지","indutype":"건축자재 - 인테리어전문","category":"other"}]},{"lat":"37.46930074","long":"127.3173524","imageIndex":17,"items":[{"name":"이앤아이코퍼레이션(e&I croperation)","tel":"031-794-3038","addr":"경기도 광주시 퇴촌면 도수리 348-3","indutype":"건축자재 - 조명기구","category":"other"}]},{"lat":"37.47264654","long":"127.3161794","imageIndex":17,"items":[{"name":"익루스 씨엔씨(C&C)","tel":"031-767-2759","addr":"경기도 광주시 퇴촌면 도수리 568-1번지 서광아트빌 C동 402호","indutype":"회원제형태 - 기타4","category":"other"}]},{"lat":"37.46952619","long":"127.3172742","imageIndex":17,"items":[{"name":"주식회사이라이팅","tel":"031-794-3038","addr":"경기도 광주시 퇴촌면 도수리 348-1번지","indutype":"건축자재 - 조명기구","category":"other"}]},{"lat":"37.47360614","long":"127.3500186","imageIndex":17,"items":[{"name":"참수리타운하우스","tel":"031-1599-9361","addr":"경기도 광주시 퇴촌면 도수리 80-7번지","indutype":"용역 서비스 - 부동산 중개·임대","category":"other"}]},{"lat":"37.47361963","long":"127.3161722","imageIndex":17,"items":[{"name":"청소하는 날","tel":"","addr":"경기도 광주시 퇴촌면 도수리 566번지 노블레스 101동 102호","indutype":"용역 서비스 - 종합용역","category":"other"}]},{"lat":"37.46594551","long":"127.3220293","imageIndex":17,"items":[{"name":"크린 임가네(청소대행)","tel":"031-1670-3539","addr":"경기도 광주시 퇴촌면 도수리 313번지","indutype":"용역 서비스 - 종합용역","category":"other"}]},{"lat":"37.4722065","long":"127.3156349","imageIndex":17,"items":[{"name":"태양공조","tel":"","addr":"경기도 광주시 퇴촌면 도수리 618-3번지 한성빌라","indutype":"수리서비스 - 가정용품수리","category":"other"}]},{"lat":"37.46983202","long":"127.3174676","imageIndex":17,"items":[{"name":"테크니컬커스터머서비스유한책임회사","tel":"070-7166-5646","addr":"경기도 광주시 퇴촌면 도수리 349번지 천지빌라 101호","indutype":"수리서비스 - 사무·통신기기수리","category":"other"}]},{"lat":"37.47458195","long":"127.3168319","imageIndex":17,"items":[{"name":"토탈그린공조","tel":"031-000-0000","addr":"경기도 광주시 퇴촌면 도수리 562번지 샤르망 101동 301호","indutype":"용역 서비스 - 기타용역서비스","category":"other"}]},{"lat":"37.47101492","long":"127.3164891","imageIndex":17,"items":[{"name":"토토스카이","tel":"031-798-1523","addr":"경기도 광주시 퇴촌면 도수리 354-13번지 대영파크1차 A동 101호","indutype":"용역 서비스 - 기타용역서비스","category":"other"}]},{"lat":"37.4721616","long":"127.3155782","imageIndex":17,"items":[{"name":"퇴촌콜벤","tel":"031-762-7988","addr":"경기도 광주시 퇴촌면 도수리 618-3번지 한성빌라 3층 301호","indutype":"여행 - 기타교통수단","category":"other"}]},{"lat":"37.46752607","long":"127.3206117","imageIndex":17,"items":[{"name":"파인제이 fine-j","tel":"","addr":"경기도 광주시 퇴촌면 도수리 397-4번지 샬로츠빌","indutype":"의류 - 정장","category":"other"}]},{"lat":"37.46843682","long":"127.320333","imageIndex":5,"items":[{"name":"O2모텔","tel":"031-767-0266","addr":"경기도 광주시 퇴촌면 도수리 399-2번지","indutype":"숙박업 - 여관/기타숙박업","category":"hotel"}]},{"lat":"37.46886195","long":"127.3328823","imageIndex":5,"items":[{"name":"그린빌리지","tel":"031-768-1317","addr":"경기도 광주시 퇴촌면 도수리 276-5번지","indutype":"숙박업 - 여관/기타숙박업","category":"hotel"}]},{"lat":"37.46866304","long":"127.3199722","imageIndex":5,"items":[{"name":"모텔솔샤르","tel":"031-767-2386","addr":"경기도 광주시 퇴촌면 도수리 394-1","indutype":"숙박업 - 여관/기타숙박업","category":"hotel"}]},{"lat":"37.46832798","long":"127.3206038","imageIndex":5,"items":[{"name":"밀라노모텔","tel":"031-767-5451","addr":"경기도 광주시 퇴촌면 도수리 399-3번지","indutype":"숙박업 - 여관/기타숙박업","category":"hotel"}]},{"lat":"37.468909","long":"127.3189672","imageIndex":5,"items":[{"name":"참샘파크관","tel":"031-767-5796","addr":"경기도 광주시 퇴촌면 도수리 388-3번지","indutype":"숙박업 - 여관/기타숙박업","category":"hotel"}]},{"lat":"37.47157587","long":"127.3156097","imageIndex":16,"items":[{"name":"공터영어퇴촌센터","tel":"031-769-7905","addr":"경기도 광주시 퇴촌면 도수리 611-6번지 107호","indutype":"학원 - 외국어학원","category":"study"},{"name":"블럭이야기","tel":"070-4406-7928","addr":"경기도 광주시 퇴촌면 도수리 611-6번지 1층 105호","indutype":"학원 - 기타 교육기관","category":"study"}]},{"lat":"37.47202613","long":"127.3190821","imageIndex":16,"items":[{"name":"금민정","tel":"070-8291-1468","addr":"경기도 광주시 퇴촌면 도수리 598-9번지 301호","indutype":"회원제형태 - 학원","category":"study"}]},{"lat":"37.469298","long":"127.318381","imageIndex":16,"items":[{"name":"김작가미술창작교습소","tel":"070-7802-2281","addr":"경기도 광주시 퇴촌면 도수리 382-9번지 2층","indutype":"학원 - 예·체능계학원","category":"study"}]},{"lat":"37.47219359","long":"127.3204732","imageIndex":16,"items":[{"name":"덕성수학전문학습원","tel":"070-8870-8513","addr":"경기도 광주시 퇴촌면 도수리 591-8번지 뉴훼미리타운 101동 201호","indutype":"학원 - 보습학원","category":"study"}]},{"lat":"37.47216291","long":"127.3150808","imageIndex":16,"items":[{"name":"레인보우피아노교습소","tel":"031-769-7769","addr":"경기도 광주시 퇴촌면 도수리 618-8번지 2층 201호","indutype":"학원 - 예·체능계학원","category":"study"},{"name":"잉글리시라인교습소","tel":"031-797-0214","addr":"경기도 광주시 퇴촌면 도수리 618-8번지 103호","indutype":"학원 - 외국어학원","category":"study"},{"name":"차돌종합체육관","tel":"031-765-6037","addr":"경기도 광주시 퇴촌면 도수리 618-8번지 2층","indutype":"학원 - 예·체능계학원","category":"study"}]},{"lat":"37.47238816","long":"127.3150818","imageIndex":16,"items":[{"name":"반올림피아노교습소","tel":"031-765-0977","addr":"경기도 광주시 퇴촌면 도수리 618-17","indutype":"학원 - 예·체능계학원","category":"study"},{"name":"톡톡비타민종합학원","tel":"031-766-2207","addr":"경기도 광주시 퇴촌면 도수리 618-17번지 2층","indutype":"회원제형태 - 학원","category":"study"}]},{"lat":"37.47041624","long":"127.3180014","imageIndex":16,"items":[{"name":"세종교육","tel":"031-761-3089","addr":"경기도 광주시 퇴촌면 도수리 358-4번지 301호","indutype":"학원 - 기타 교육기관","category":"study"}]},{"lat":"37.4704053","long":"127.3187248","imageIndex":16,"items":[{"name":"수학이 즐거운 세상","tel":"","addr":"경기도 광주시 퇴촌면 도수리 359-3번지 행복드림빌","indutype":"학원 - 기타 교육기관","category":"study"}]},{"lat":"37.4721616","long":"127.3155782","imageIndex":16,"items":[{"name":"엠베스트SE 홈과외(퇴촌캠퍼스)","tel":"","addr":"경기도 광주시 퇴촌면 도수리 618-3번지 한성빌라 102호","indutype":"학원 - 기타 교육기관","category":"study"}]},{"lat":"37.47038738","long":"127.3152995","imageIndex":16,"items":[{"name":"와이한자한글교습소","tel":"031-798-5117","addr":"경기도 광주시 퇴촌면 도수리 345-13번지","indutype":"학원 - 기타 교육기관","category":"study"}]},{"lat":"37.47310697","long":"127.3158309","imageIndex":16,"items":[{"name":"윤선생영어퇴촌공부방","tel":"031-762-5605","addr":"경기도 광주시 퇴촌면 도수리 568-3번지 102호","indutype":"학원 - 기타 교육기관","category":"study"}]},{"lat":"37.47069099","long":"127.3163295","imageIndex":16,"items":[{"name":"인재으뜸학원","tel":"031-767-1302","addr":"경기도 광주시 퇴촌면 도수리 354-4번지 2층","indutype":"학원 - 보습학원","category":"study"}]},{"lat":"37.47360614","long":"127.3500186","imageIndex":16,"items":[{"name":"참수리경찰학원","tel":"031-000-0000","addr":"경기도 광주시 퇴촌면 도수리 80-7번지 1층","indutype":"학원 - 기능학원","category":"study"}]},{"lat":"37.47201992","long":"127.3146394","imageIndex":16,"items":[{"name":"퇴촌해법영어교습소","tel":"","addr":"경기도 광주시 퇴촌면 도수리 618-23번지 1층","indutype":"학원 - 외국어학원","category":"study"}]},{"lat":"37.46941579","long":"127.3181328","imageIndex":16,"items":[{"name":"한영어교습소","tel":"031-111-1111","addr":"경기도 광주시 퇴촌면 도수리 382-17번지 203호","indutype":"학원 - 기타 교육기관","category":"study"}]},{"lat":"37.46907892","long":"127.3194427","imageIndex":13,"items":[{"name":"다이아네일","tel":"","addr":"경기도 광주시 퇴촌면 도수리 392-1번지 대영빌리지 1층 101호","indutype":"보건위생 - 피부미용실","category":"beauty"}]},{"lat":"37.46941579","long":"127.3181328","imageIndex":13,"items":[{"name":"마리미장원","tel":"070-4799-0369","addr":"경기도 광주시 퇴촌면 도수리 382-17번지 풀하우스 1층 101호","indutype":"보건위생 - 미용원","category":"beauty"}]},{"lat":"37.47201992","long":"127.3146394","imageIndex":13,"items":[{"name":"손헤어매니저","tel":"031-765-6570","addr":"경기도 광주시 퇴촌면 도수리 618-23번지","indutype":"보건위생 - 미용원","category":"beauty"}]},{"lat":"37.46916061","long":"127.319217","imageIndex":13,"items":[{"name":"엔엘헤어샵","tel":"031-761-4638","addr":"경기도 광주시 퇴촌면 도수리 388-1번지 대영빌리지 1층","indutype":"보건위생 - 미용원","category":"beauty"}]},{"lat":"37.47243695","long":"127.3204404","imageIndex":13,"items":[{"name":"진옵틱","tel":"070-4197-8219","addr":"경기도 광주시 퇴촌면 도수리 591번지 뉴훼미리타운 105동 401호","indutype":"보건위생 - 안경","category":"beauty"}]},{"lat":"37.47157587","long":"127.3156097","imageIndex":13,"items":[{"name":"황금헤어","tel":"031-764-1102","addr":"경기도 광주시 퇴촌면 도수리 611-6번지 1층 104호","indutype":"보건위생 - 미용원","category":"beauty"}]},{"lat":"37.47021574","long":"127.3154684","imageIndex":0,"items":[{"name":"대아자동차공업사","tel":"031-765-7443","addr":"경기도 광주시 퇴촌면 도수리 345-3번지","indutype":"자동차정비 유지 - 자동차정비","category":"car"}]},{"lat":"37.46988133","long":"127.3158626","imageIndex":0,"items":[{"name":"대아카25","tel":"031-765-7446","addr":"경기도 광주시 퇴촌면 도수리 345번지 1층","indutype":"자동차정비 유지 - 자동차정비","category":"car"}]},{"lat":"37.47057709","long":"127.3151082","imageIndex":0,"items":[{"name":"매직덴트킹","tel":"031-765-1562","addr":"경기도 광주시 퇴촌면 도수리 345-10","indutype":"자동차정비 유지 - 카인테리어","category":"car"}]},{"lat":"37.47008023","long":"127.3156035","imageIndex":0,"items":[{"name":"샤인아트카","tel":"031-761-2788","addr":"경기도 광주시 퇴촌면 도수리 345-2번지 1층일부","indutype":"자동차정비 유지 - 카인테리어","category":"car"}]},{"lat":"37.47116097","long":"127.3157775","imageIndex":0,"items":[{"name":"현대세차장","tel":"031-766-3397","addr":"경기도 광주시 퇴촌면 도수리 354-1","indutype":"자동차정비 유지 - 세차장","category":"car"}]},{"lat":"37.46946622","long":"127.3161096","imageIndex":9,"items":[{"name":"대한에너지","tel":"031-765-5545","addr":"경기도 광주시 퇴촌면 도수리 343-2번지 1층","indutype":"연료판매점 - SK주유소","category":"oil"}]},{"lat":"37.46833293","long":"127.3319644","imageIndex":9,"items":[{"name":"퇴촌주유소","tel":"031-768-1313","addr":"경기도 광주시 퇴촌면 도수리 266-9번지","indutype":"연료판매점 - 현대정유(오일뱅크)","category":"oil"}]},{"lat":"37.47291067","long":"127.3151066","imageIndex":7,"items":[{"name":"도수1리구판장","tel":"031-767-3071","addr":"경기도 광주시 퇴촌면 도수리 629-1번지","indutype":"유통업 영리 - 슈퍼마켓","category":"mart"}]},{"lat":"37.47119386","long":"127.3169646","imageIndex":7,"items":[{"name":"도수마트","tel":"031-767-5507","addr":"경기도 광주시 퇴촌면 도수리 604-10번지","indutype":"유통업 영리 - 슈퍼마켓","category":"mart"}]},{"lat":"37.47041624","long":"127.3180014","imageIndex":7,"items":[{"name":"유준","tel":"031-764-1773","addr":"경기도 광주시 퇴촌면 도수리 358-4번지 3동 1층","indutype":"유통업 영리 - 슈퍼마켓","category":"mart"}]},{"lat":"37.47485676","long":"127.3444397","imageIndex":7,"items":[{"name":"탑선주유소","tel":"031-767-0062","addr":"경기도 광주시 퇴촌면 도수리 122-3","indutype":"유통업 영리 - 슈퍼마켓","category":"mart"}]},{"lat":"37.4736606","long":"127.314307","imageIndex":7,"items":[{"name":"도지울농장","tel":"","addr":"경기도 광주시 퇴촌면 도수리 630-4번지 1층","indutype":"음료식품 - 농·축·수산품","category":"food"}]},{"lat":"37.47282955","long":"127.3082217","imageIndex":7,"items":[{"name":"모세수산","tel":"031-797-0722","addr":"경기도 광주시 퇴촌면 도수리 676-6번지","indutype":"음료식품 - 농·축·수산품","category":"food"}]},{"lat":"37.46588146","long":"127.3223908","imageIndex":7,"items":[{"name":"비타민","tel":"","addr":"경기도 광주시 퇴촌면 도수리 312-1","indutype":"음료식품 - 농·축·수산품","category":"food"}]},{"lat":"37.47141428","long":"127.3187743","imageIndex":7,"items":[{"name":"소담토마토","tel":"031-767-9583","addr":"경기도 광주시 퇴촌면 도수리 601번지 대영3차파크빌","indutype":"음료식품 - 농·축·수산품","category":"food"}]},{"lat":"37.47385385","long":"127.3127704","imageIndex":7,"items":[{"name":"수정골 양봉장","tel":"031-111-1111","addr":"경기도 광주시 퇴촌면 도수리 632-1번지","indutype":"음료식품 - 농·축·수산품","category":"food"}]},{"lat":"37.47144219","long":"127.3184466","imageIndex":7,"items":[{"name":"수정농장","tel":"","addr":"경기도 광주시 퇴촌면 도수리 604-6번지 모던빌라 302호","indutype":"음료식품 - 농·축·수산품","category":"food"},{"name":"천하유퉁","tel":"031-8028-3499","addr":"경기도 광주시 퇴촌면 도수리 604-6번지 모던빌라 402호","indutype":"음료식품 - 기타음료식품","category":"food"}]},{"lat":"37.47038738","long":"127.3152995","imageIndex":7,"items":[{"name":"심마니건강원","tel":"031-768-3389","addr":"경기도 광주시 퇴촌면 도수리 345-13번지","indutype":"건강식품 - 기타건강식품","category":"food"}]},{"lat":"37.4723045","long":"127.3358253","imageIndex":7,"items":[{"name":"싱싱농장","tel":"031-763-5568","addr":"경기도 광주시 퇴촌면 도수리 177번지","indutype":"음료식품 - 농·축·수산품","category":"food"}]},{"lat":"37.47372298","long":"127.3407944","imageIndex":7,"items":[{"name":"제일농산물","tel":"031-765-6090","addr":"경기도 광주시 퇴촌면 도수리 산 40-16","indutype":"음료식품 - 농·축·수산품","category":"food"}]},{"lat":"37.47516486","long":"127.3469395","imageIndex":7,"items":[{"name":"총각네과일","tel":"","addr":"경기도 광주시 퇴촌면 도수리 122-12","indutype":"음료식품 - 농·축·수산품","category":"food"}]},{"lat":"37.46558249","long":"127.3229999","imageIndex":7,"items":[{"name":"퇴촌토마토","tel":"031-765-1562","addr":"경기도 광주시 퇴촌면 도수리 312-2","indutype":"음료식품 - 농·축·수산품","category":"food"}]},{"lat":"37.47057709","long":"127.3151082","imageIndex":7,"items":[{"name":"한살림경기동부소비자생협 퇴촌매장","tel":"031-761-0996","addr":"경기도 광주시 퇴촌면 도수리 345-10번지","indutype":"음료식품 - 농·축·수산품","category":"food"}]},{"lat":"37.46979945","long":"127.3327169","imageIndex":7,"items":[{"name":"환이네농장","tel":"","addr":"경기도 광주시 퇴촌면 도수리 274번지","indutype":"음료식품 - 농·축·수산품","category":"food"}]},{"lat":"37.47157587","long":"127.3156097","imageIndex":8,"items":[{"name":"청담한의원","tel":"031-798-7510","addr":"경기도 광주시 퇴촌면 도수리 611-6 101호~102호","indutype":"의원 - 한의원","category":"medical"}]},{"lat":"37.47157587","long":"127.3156097","imageIndex":13,"items":[{"name":"퍼니팡","tel":"031-761-8252","addr":"경기도 광주시 퇴촌면 도수리 611-6번지 2층 202호","indutype":"레저업소 - 기타레져업소","category":"leisure"}]}]