[{"lat":"38.090782808","long":"127.27393207","imageIndex":16,"items":[{"name":"HI음악","tel":"031-111-1111","addr":"경기도 포천시 영북면 운천리 506-22번지 3층 오근빌딩","indutype":"학원 - 예·체능계학원","category":"study"}]},{"lat":"38.088918592","long":"127.27365162","imageIndex":16,"items":[{"name":"교원학원","tel":"031-532-0272","addr":"경기도 포천시 영북면 운천리 511-14번지","indutype":"회원제형태 - 학원","category":"study"},{"name":"몬테소리어린이집[아이행복]","tel":"031-531-4906","addr":"경기도 포천시 영북면 운천리 511-14번지","indutype":"학원 - 유아원","category":"study"},{"name":"이화음악학원","tel":"","addr":"경기도 포천시 영북면 운천리 511-14번지","indutype":"교육서비스 - 학원","category":"study"}]},{"lat":"38.092695685","long":"127.27653822","imageIndex":16,"items":[{"name":"산내들도담어린이집[아이행복]","tel":"031-531-3676","addr":"경기도 포천시 영북면 운천리 362-4번지 산내들아파트","indutype":"학원 - 유아원","category":"study"}]},{"lat":"38.091696517","long":"127.27618111","imageIndex":16,"items":[{"name":"산내들어린이집[아이행복]","tel":"031-533-3113","addr":"경기도 포천시 영북면 운천리 353-1번지 산내들아이파크","indutype":"학원 - 유아원","category":"study"}]},{"lat":"38.090229308","long":"127.27173","imageIndex":16,"items":[{"name":"솔로몬학원","tel":"031-533-0684","addr":"경기도 포천시 영북면 운천리 515-15번지","indutype":"학원 - 보습학원","category":"study"}]},{"lat":"38.086112891","long":"127.27533964","imageIndex":16,"items":[{"name":"영북고등학교","tel":"031-532-6061","addr":"경기도 포천시 영북면 운천리 334-3번지 영북고등학교","indutype":"학원 - 초중고교육기관","category":"study"},{"name":"영북고등학교_수업료","tel":"031-532-6061","addr":"경기도 포천시 영북면 운천리 334-3번지 영북고등학교","indutype":"학원 - 초중고교육기관","category":"study"}]},{"lat":"38.086893864","long":"127.27265247","imageIndex":16,"items":[{"name":"영북꿈나무어린이집[아이행복]","tel":"031-534-1500","addr":"경기도 포천시 영북면 운천리 545-3번지","indutype":"학원 - 유아원","category":"study"}]},{"lat":"38.086588763","long":"127.27212702","imageIndex":16,"items":[{"name":"영북어린이집[아이행복]","tel":"031-534-7405","addr":"경기도 포천시 영북면 운천리 559-3번지","indutype":"학원 - 유아원","category":"study"}]},{"lat":"38.09389201","long":"127.27734065","imageIndex":16,"items":[{"name":"영북중학교","tel":"031-531-1754","addr":"경기도 포천시 영북면 운천리 385-1번지 영북중학교","indutype":"학원 - 초중고교육기관","category":"study"}]},{"lat":"38.090416163","long":"127.27664371","imageIndex":16,"items":[{"name":"영북초등학교","tel":"031-531-2552","addr":"경기도 포천시 영북면 운천리 342-2번지 영북초등학교","indutype":"학원 - 초중고교육기관","category":"study"},{"name":"영북초등학교_수업료","tel":"031-531-2552","addr":"경기도 포천시 영북면 운천리 342-2번지 영북초등학교","indutype":"학원 - 초중고교육기관","category":"study"},{"name":"영북초등학교병설유치원[아이행복]","tel":"031-532-5011","addr":"경기도 포천시 영북면 운천리 342-2번지 영북초등학교","indutype":"학원 - 유치원","category":"study"}]},{"lat":"38.092170359","long":"127.26992461","imageIndex":16,"items":[{"name":"영북태권도장","tel":"031-532-6290","addr":"경기도 포천시 영북면 운천리 520-2번지","indutype":"학원 - 예·체능계학원","category":"study"}]},{"lat":"38.090554776","long":"127.27122963","imageIndex":16,"items":[{"name":"예그린어린이집[아이행복]","tel":"031-531-1022","addr":"경기도 포천시 영북면 운천리 516-25번지","indutype":"학원 - 유아원","category":"study"}]},{"lat":"38.090334933","long":"127.27281331","imageIndex":16,"items":[{"name":"예그린음악학원","tel":"534-5370","addr":"경기도 포천시 영북면 운천리 513-29번지","indutype":"교육서비스 - 학원","category":"study"}]},{"lat":"38.088529235","long":"127.27450509","imageIndex":16,"items":[{"name":"운남 주식회사","tel":"070-5055-0663","addr":"경기도 포천시 영북면 운천리 539-46번지 5층 501호","indutype":"학원 - 기능학원","category":"study"}]},{"lat":"38.090365975","long":"127.27497925","imageIndex":16,"items":[{"name":"운천간호학원","tel":"031-535-5009","addr":"경기도 포천시 영북면 운천리 345-17번지 3층","indutype":"학원 - 기능학원","category":"study"},{"name":"운천요양보호사교육원","tel":"031-535-5009","addr":"경기도 포천시 영북면 운천리 345-17번지","indutype":"학원 - 기능학원","category":"study"}]},{"lat":"38.090861914","long":"127.2747873","imageIndex":16,"items":[{"name":"운천도레미음악학원","tel":"031-533-2829","addr":"경기도 포천시 영북면 운천리 345-15번지 3층","indutype":"학원 - 예·체능계학원","category":"study"}]},{"lat":"38.086530123","long":"127.27412155","imageIndex":16,"items":[{"name":"운천유치원[아이행복]","tel":"031-532-5597","addr":"경기도 포천시 영북면 운천리 541-4번지","indutype":"학원 - 유치원","category":"study"}]},{"lat":"38.091668237","long":"127.26887405","imageIndex":16,"items":[{"name":"운천이솝어린이집[아이행복]","tel":"070-4068-5697","addr":"경기도 포천시 영북면 운천리 521-27","indutype":"학원 - 유아원","category":"study"}]},{"lat":"38.088701747","long":"127.27392439","imageIndex":16,"items":[{"name":"일류보습학원","tel":"031-531-4813","addr":"경기도 포천시 영북면 운천리 539-14번지","indutype":"학원 - 보습학원","category":"study"}]},{"lat":"38.09114621","long":"127.26865557","imageIndex":16,"items":[{"name":"토지무도장","tel":"031-532-4817","addr":"경기도 포천시 영북면 운천리 523-17번지","indutype":"학원 - 예·체능계학원","category":"study"}]},{"lat":"38.090699304","long":"127.27498049","imageIndex":16,"items":[{"name":"하이플러스","tel":"031-123-4567","addr":"경기도 포천시 영북면 운천리 345-25번지","indutype":"학원 - 보습학원","category":"study"}]}]