[{"lat":"37.007244008","long":"127.20552341","imageIndex":7,"items":[{"name":"경기자라농장","tel":"031-673-8975","addr":"경기도 안성시 공도읍 양기리 17-6번지","indutype":"음료식품 - 농·축·수산품","category":"food"}]},{"lat":"37.008359249","long":"127.20673981","imageIndex":7,"items":[{"name":"근원농원","tel":"031-656-2730","addr":"경기도 안성시 공도읍 양기리 27-1","indutype":"음료식품 - 농·축·수산품","category":"food"}]},{"lat":"37.006410119","long":"127.19769023","imageIndex":7,"items":[{"name":"두손유통","tel":"031-656-0236","addr":"경기도 안성시 공도읍 양기리 306-33번지","indutype":"음료식품 - 정육점","category":"food"}]},{"lat":"37.009381898","long":"127.20413586","imageIndex":7,"items":[{"name":"롯데부동산중개","tel":"031-651-5989","addr":"경기도 안성시 공도읍 양기리 287번지 A동 101호","indutype":"음료식품 - 농·축·수산품","category":"food"},{"name":"링크2","tel":"031-651-5989","addr":"경기도 안성시 공도읍 양기리 287번지","indutype":"음료식품 - 농·축·수산품","category":"food"}]},{"lat":"37.001466574","long":"127.1900269","imageIndex":7,"items":[{"name":"봉현농원","tel":"031-618-2792","addr":"경기도 안성시 공도읍 양기리 418번지","indutype":"음료식품 - 농·축·수산품","category":"food"}]},{"lat":"37.007106481","long":"127.20690499","imageIndex":7,"items":[{"name":"승주네복숭아","tel":"031-111-1111","addr":"경기도 안성시 공도읍 양기리 41번지 1층","indutype":"음료식품 - 농·축·수산품","category":"food"}]},{"lat":"37.008830358","long":"127.20524673","imageIndex":7,"items":[{"name":"안성마르페떡농원","tel":"031-618-0898","addr":"경기도 안성시 공도읍 양기리 24-2번지","indutype":"음료식품 - 제과점","category":"food"}]},{"lat":"37.007327411","long":"127.19324335","imageIndex":7,"items":[{"name":"한길 떡 방앗간","tel":"031-651-0536","addr":"경기도 안성시 공도읍 양기리 332-5번지 108호","indutype":"음료식품 - 제과점","category":"food"}]},{"lat":"37.009522198","long":"127.20640584","imageIndex":7,"items":[{"name":"향기포도농원","tel":"031-618-6271","addr":"경기도 안성시 공도읍 양기리 26","indutype":"음료식품 - 농·축·수산품","category":"food"}]}]