[{"lat":"37.266126115","long":"127.10619447","imageIndex":13,"items":[{"name":"M.마스터즈 당구클럽","tel":"031-275-3933","addr":"경기도 용인시 기흥구 상갈동 474-2번지 501호 502호","indutype":"레저업소 - 당 구 장","category":"leisure"},{"name":"즐거운탁구클럽","tel":"031-281-1230","addr":"경기도 용인시 기흥구 상갈동 474-2번지 601,602호","indutype":"레저업소 - 기타레져업소","category":"leisure"},{"name":"즐거운탁구클럽","tel":"031-281-1230","addr":"경기도 용인시 기흥구 상갈동 474-2번지 그린프라자2 5층 601호","indutype":"레저업소 - 기타레져업소","category":"leisure"}]},{"lat":"37.269765861","long":"127.10666169","imageIndex":13,"items":[{"name":"MBC노래방","tel":"031-284-7009","addr":"경기도 용인시 기흥구 상갈동 101번지 지하1층","indutype":"레저업소 - 노 래 방","category":"leisure"}]},{"lat":"37.268180123","long":"127.10658059","imageIndex":13,"items":[{"name":"골드노래연습장","tel":"031-284-6788","addr":"경기도 용인시 기흥구 상갈동 122-14번지 지하1층","indutype":"레저업소 - 노 래 방","category":"leisure"}]},{"lat":"37.2661258","long":"127.10655523","imageIndex":13,"items":[{"name":"닥터짐휘트니스","tel":"031-548-0790","addr":"경기도 용인시 기흥구 상갈동 473번지 정진프라자 지하1층","indutype":"레저업소 - 헬스클럽","category":"leisure"},{"name":"팬더방방","tel":"031-307-0583","addr":"경기도 용인시 기흥구 상갈동 473번지 501,502호","indutype":"레저업소 - 기타레져업소","category":"leisure"}]},{"lat":"37.268820069","long":"127.10633344","imageIndex":13,"items":[{"name":"땡큐노래연습장","tel":"031-282-6811","addr":"경기도 용인시 기흥구 상갈동 100-23번지 경일빌딩 지하호","indutype":"레저업소 - 노 래 방","category":"leisure"}]},{"lat":"37.266540784","long":"127.10596956","imageIndex":13,"items":[{"name":"라온","tel":"070-9188-9400","addr":"경기도 용인시 기흥구 상갈동 124-13번지 2층","indutype":"레저업소 - 헬스클럽","category":"leisure"},{"name":"컴온","tel":"031-285-1950","addr":"경기도 용인시 기흥구 상갈동 124-13번지 지하층","indutype":"레저업소 - 노 래 방","category":"leisure"}]},{"lat":"37.268792772","long":"127.1066378","imageIndex":13,"items":[{"name":"발리노래연습장","tel":"031-275-0021","addr":"경기도 용인시 기흥구 상갈동 121번지","indutype":"레저업소 - 노 래 방","category":"leisure"}]},{"lat":"37.269568197","long":"127.10601878","imageIndex":13,"items":[{"name":"산울림노래연습장","tel":"031-284-8799","addr":"경기도 용인시 기흥구 상갈동 100-1번지 축복빌딩 지하","indutype":"레저업소 - 노 래 방","category":"leisure"}]},{"lat":"37.266153421","long":"127.10587884","imageIndex":13,"items":[{"name":"상갈노래연습장","tel":"031-8005-9494","addr":"경기도 용인시 기흥구 상갈동 474-1번지 그린프라자2층301,302호일부","indutype":"레저업소 - 노 래 방","category":"leisure"},{"name":"시즌PC방","tel":"","addr":"경기도 용인시 기흥구 상갈동 474-1번지 그린프라자 501호","indutype":"레저업소 - 기타레져업소","category":"leisure"},{"name":"파티2노래연습장","tel":"031-285-3060","addr":"경기도 용인시 기흥구 상갈동 474-1번지 그린프라자 1층 203호","indutype":"레저업소 - 노 래 방","category":"leisure"}]},{"lat":"37.266180667","long":"127.10563086","imageIndex":13,"items":[{"name":"샹떼PC방","tel":"070-8760-1131","addr":"경기도 용인시 기흥구 상갈동 474번지 4층","indutype":"레저업소 - 기타레져업소","category":"leisure"},{"name":"큐당구장","tel":"031-336-6976","addr":"경기도 용인시 기흥구 상갈동 474번지 3층","indutype":"레저업소 - 당 구 장","category":"leisure"}]},{"lat":"37.265879615","long":"127.10982426","imageIndex":13,"items":[{"name":"스피닝 싸이클 다이어트클럽","tel":"031-286-7111","addr":"경기도 용인시 기흥구 상갈동 459-3번지 상갈주공프라자 2층 203호","indutype":"레저업소 - 헬스클럽","category":"leisure"}]},{"lat":"37.262153014","long":"127.10569303","imageIndex":13,"items":[{"name":"신순철용인대복싱클럽","tel":"031-275-5812","addr":"경기도 용인시 기흥구 상갈동 481-3번지 지하1층","indutype":"레저업소 - 헬스클럽","category":"leisure"}]},{"lat":"37.263631876","long":"127.10433096","imageIndex":13,"items":[{"name":"씨엘키즈","tel":"031-693-8008","addr":"경기도 용인시 기흥구 상갈동 220-21번지 지층 1-3호 하","indutype":"레저업소 - 기타레져업소","category":"leisure"}]},{"lat":"37.269657738","long":"127.10666154","imageIndex":13,"items":[{"name":"앵콜노래연습장","tel":"031-281-1977","addr":"경기도 용인시 기흥구 상갈동 101-1번지 3층","indutype":"레저업소 - 노 래 방","category":"leisure"}]},{"lat":"37.269325086","long":"127.10582679","imageIndex":13,"items":[{"name":"엘에이 (LA)노래연습장","tel":"031-282-3311","addr":"경기도 용인시 기흥구 상갈동 100번지 B101호","indutype":"레저업소 - 노 래 방","category":"leisure"}]},{"lat":"37.269684986","long":"127.10641354","imageIndex":13,"items":[{"name":"오픈노래연습장","tel":"031-274-7100","addr":"경기도 용인시 기흥구 상갈동 100-3번지","indutype":"레저업소 - 노 래 방","category":"leisure"}]},{"lat":"37.267819958","long":"127.10629825","imageIndex":13,"items":[{"name":"팔도노래연습장","tel":"031-284-8731","addr":"경기도 용인시 기흥구 상갈동 102-4번지 지하1층","indutype":"레저업소 - 노 래 방","category":"leisure"}]},{"lat":"37.269846438","long":"127.10724806","imageIndex":13,"items":[{"name":"힐링타임","tel":"070-9144-6691","addr":"경기도 용인시 기흥구 상갈동 101-9번지 지하","indutype":"레저업소 - 헬스클럽","category":"leisure"}]}]