[{"lat":"37.50173684","long":"126.77032256","imageIndex":16,"items":[{"name":"(사)대한오리엔티어링연맹경기도연맹","tel":"032-322-4660","addr":"경기도 부천시 중동 1151-4번지 이스트타워 투 1동 6층 601호","indutype":"학원 - 예·체능계학원","category":"study"},{"name":"JBDance(제이비댄스)실용무용학원","tel":"070-4157-0794","addr":"경기도 부천시 중동 1151-4번지 이스트타워투 502호","indutype":"학원 - 예·체능계학원","category":"study"},{"name":"클라임 고시원","tel":"031-000-0000","addr":"경기도 부천시 중동 1151-4번지 7층","indutype":"학원 - 독서실","category":"study"}]},{"lat":"37.501507961","long":"126.77307135","imageIndex":16,"items":[{"name":"(주)국제피엘센터","tel":"070-8920-5238","addr":"경기도 부천시 중동 1143-3번지 필타운 402호","indutype":"회원제형태 - 학원","category":"study"},{"name":"제이씨(JC)스포츠","tel":"070-4115-1633","addr":"경기도 부천시 중동 1143-3번지 필타운 지층 101호","indutype":"학원 - 보습학원","category":"study"},{"name":"제이제이평생교육원","tel":"032-328-7796","addr":"경기도 부천시 중동 1143-3번지 필타운","indutype":"회원제형태 - 학원","category":"study"},{"name":"주식회사렛츠","tel":"032-229-4500","addr":"경기도 부천시 중동 1143-3번지 202호 203 필타운","indutype":"학원 - 기타 교육기관","category":"study"}]},{"lat":"37.504622816","long":"126.76719219","imageIndex":16,"items":[{"name":"(주)글로리에듀(목동연세수학보습학원)","tel":"032-323-0417","addr":"경기도 부천시 중동 1034-5번지 6층 일부 606호","indutype":"학원 - 보습학원","category":"study"},{"name":"EST(이에스티)실용음악학원","tel":"032-327-4045","addr":"경기도 부천시 중동 1034-5번지 씨티오피스 6층 602호","indutype":"회원제형태 - 학원","category":"study"},{"name":"마이턴(My Turn)영어입시학원","tel":"032-321-2663","addr":"경기도 부천시 중동 1034-5번지 시티오피스 2층 201호","indutype":"학원 - 보습학원","category":"study"},{"name":"명중입시학원","tel":"032-324-7572","addr":"경기도 부천시 중동 1034-5번지 씨티오피스 501호","indutype":"학원 - 보습학원","category":"study"},{"name":"버즈클래스보습학원","tel":"032-328-0721","addr":"경기도 부천시 중동 1034-5번지 씨티오피스 604호","indutype":"학원 - 보습학원","category":"study"},{"name":"베를린음악학원","tel":"031-323-9149","addr":"경기도 부천시 중동 1034-5번지 씨티오피스 403동","indutype":"학원 - 예·체능계학원","category":"study"},{"name":"싹틈 아동발달센터","tel":"032-243-7575","addr":"경기도 부천시 중동 1034-5번지 씨티오피스 307호","indutype":"학원 - 기타 교육기관","category":"study"},{"name":"헤세드수학보습학원","tel":"032-212-7369","addr":"경기도 부천시 중동 1034-5번지 씨티오피스 309호","indutype":"학원 - 보습학원","category":"study"}]},{"lat":"37.504009939","long":"126.77629817","imageIndex":16,"items":[{"name":"(주)민병철 에듀케이션","tel":"032-613-0579","addr":"경기도 부천시 중동 1062-2번지 메디타워 8층","indutype":"학원 - 외국어학원","category":"study"},{"name":"메디타워","tel":"032-329-9361","addr":"경기도 부천시 중동 1062-2번지","indutype":"학원 - 독서실","category":"study"}]},{"lat":"37.501674705","long":"126.77079773","imageIndex":16,"items":[{"name":"(주)이야기들/아이지니어스","tel":"02-707-3040","addr":"경기도 부천시 중동 1146-7번지 신풍프라자 801호","indutype":"회원제형태 - 학원","category":"study"},{"name":"JBMusic (제이비뮤직)실용음악학원","tel":"070-4157-0794","addr":"경기도 부천시 중동 1146-7번지 신풍프라자 701호","indutype":"학원 - 예·체능계학원","category":"study"},{"name":"국제대체의학총연맹","tel":"032-328-4892","addr":"경기도 부천시 중동 1146-7번지 신풍프라자 503호","indutype":"학원 - 기타 교육기관","category":"study"},{"name":"위투듀오텔","tel":"032-326-6777","addr":"경기도 부천시 중동 1146-7번지 신풍프라자 401호","indutype":"학원 - 독서실","category":"study"}]},{"lat":"37.505199849","long":"126.76291536","imageIndex":16,"items":[{"name":"(주)중동씨앤씨미술학원","tel":"032-327-7495","addr":"경기도 부천시 중동 1031-3번지 영라이프빌딩 7층 701호","indutype":"학원 - 예·체능계학원","category":"study"},{"name":"아이플래닛로봇학원","tel":"032-323-3266","addr":"경기도 부천시 중동 1031-3번지 영라이프빌딩 302호","indutype":"회원제형태 - 학원","category":"study"},{"name":"위드매쓰보습학원","tel":"032-323-7255","addr":"경기도 부천시 중동 1031-3번지 영라이프빌딩 504호 일부","indutype":"학원 - 보습학원","category":"study"},{"name":"주식회사에듀쿡","tel":"032-1577-8658","addr":"경기도 부천시 중동 1031-3번지 영라이프빌딩 6층","indutype":"회원제형태 - 학원","category":"study"}]},{"lat":"37.502840186","long":"126.77243396","imageIndex":16,"items":[{"name":"(주)토리앙쥬미술보습학원","tel":"032-1577-0000","addr":"경기도 부천시 중동 1141번지 코스모폴리탄 507,508,513,514,515호","indutype":"학원 - 예·체능계학원","category":"study"},{"name":"제니스영수보습학원","tel":"032-326-7100","addr":"경기도 부천시 중동 1141번지 코스모폴리탄 505,511호","indutype":"학원 - 보습학원","category":"study"}]},{"lat":"37.489847322","long":"126.76757784","imageIndex":16,"items":[{"name":"3030영어중동러닝센터교습소","tel":"032-612-0530","addr":"경기도 부천시 중동 1289번지 중앙 팰리스카운티 상가동 119호","indutype":"학원 - 외국어학원","category":"study"},{"name":"toply(토플리어학보습학원)","tel":"032-663-0582","addr":"경기도 부천시 중동 1289 팰리스카운티단지4층","indutype":"회원제형태 - 학원","category":"study"},{"name":"나무빛미술학원","tel":"032-613-8563","addr":"경기도 부천시 중동 1289번지 아이파크 상가동 407호","indutype":"학원 - 예·체능계학원","category":"study"},{"name":"떡구름","tel":"032-321-0155","addr":"경기도 부천시 중동 1289번지 팰리스카운티 106동 202호","indutype":"학원 - 기능학원","category":"study"},{"name":"리즈음악학원","tel":"032-611-8808","addr":"경기도 부천시 중동 1289 팰리스카운티가동상가 504","indutype":"학원 - 예·체능계학원","category":"study"},{"name":"소리미슬교습소","tel":"032-613-7673","addr":"경기도 부천시 중동 1289번지 팰리스카운티중앙상가 207호","indutype":"학원 - 예·체능계학원","category":"study"},{"name":"스마트수학교습소","tel":"032-662-1105","addr":"경기도 부천시 중동 1289번지 팰리스카운티 중앙상가동 118호 외1필지","indutype":"학원 - 보습학원","category":"study"},{"name":"씨에스어학원","tel":"032-664-1211","addr":"경기도 부천시 중동 1289번지 아이파크 상가 213호","indutype":"학원 - 외국어학원","category":"study"},{"name":"앤플러스 영어연구소 (N+ English Lab)","tel":"","addr":"경기도 부천시 중동 1289번지 팰리스카운티 114동 2101호","indutype":"학원 - 기타 교육기관","category":"study"},{"name":"올리브수학보습학원","tel":"032-613-0377","addr":"경기도 부천시 중동 1289번지 현대아이파크 4층 401호 상가","indutype":"학원 - 보습학원","category":"study"},{"name":"정미정수학보습학원","tel":"032-668-1211","addr":"경기도 부천시 중동 1289번지 아이파크 상가 309호","indutype":"학원 - 보습학원","category":"study"},{"name":"중동비상입시학원","tel":"032-655-1109","addr":"경기도 부천시 중동 1289번지 팰리스카운티 아이파크상가 505,505-1호","indutype":"학원 - 보습학원","category":"study"},{"name":"진수학교습소","tel":"","addr":"경기도 부천시 중동 1289번지 중앙 상가동 115호","indutype":"학원 - 보습학원","category":"study"},{"name":"팰리스인희음악학원","tel":"032-667-5523","addr":"경기도 부천시 중동 1289번지 2층 202,203,204호","indutype":"학원 - 예·체능계학원","category":"study"},{"name":"팰리스카운티점뮤엠영어쇼습소","tel":"","addr":"경기도 부천시 중동 1289번지 204호 일부","indutype":"학원 - 외국어학원","category":"study"},{"name":"한국체대 길 태권도","tel":"","addr":"경기도 부천시 중동 1289번지 팰리스카운티중앙상가 2층 210호","indutype":"학원 - 예·체능계학원","category":"study"}]},{"lat":"37.496901333","long":"126.77641011","imageIndex":16,"items":[{"name":"AVE 고시텔","tel":"032-329-0035","addr":"경기도 부천시 중동 1127-7번지 대원프라자 에이동비동2-3층","indutype":"학원 - 독서실","category":"study"}]},{"lat":"37.50384191","long":"126.77326777","imageIndex":16,"items":[{"name":"E&T수학보습학원","tel":"070-7519-0411","addr":"경기도 부천시 중동 1058-2번지 중동프라자 502호","indutype":"학원 - 보습학원","category":"study"},{"name":"렘미업보습학원","tel":"032-612-1414","addr":"경기도 부천시 중동 1058-2번지 중동프라자 206호","indutype":"학원 - 보습학원","category":"study"},{"name":"베티보습학원","tel":"","addr":"경기도 부천시 중동 1058-2번지 중동프라자 605호","indutype":"학원 - 보습학원","category":"study"},{"name":"베티보습학원","tel":"032-000-0000","addr":"경기도 부천시 중동 1058-2번지 중동프라자 605호","indutype":"학원 - 보습학원","category":"study"},{"name":"브레이닝클래스보습학원","tel":"032-327-6587","addr":"경기도 부천시 중동 1058-2번지 중동프라자 601호","indutype":"학원 - 보습학원","category":"study"},{"name":"아담리즈수학보습학원","tel":"032-322-6123","addr":"경기도 부천시 중동 1058-2번지 중동프라자 504호","indutype":"학원 - 보습학원","category":"study"},{"name":"에스피수학교습소","tel":"032-321-2745","addr":"경기도 부천시 중동 1058-2번지 중동프라자 509호","indutype":"학원 - 보습학원","category":"study"},{"name":"연세엔에스음악학원","tel":"032-328-3250","addr":"경기도 부천시 중동 1058-2번지 중동프라자 302호","indutype":"학원 - 예·체능계학원","category":"study"},{"name":"일인오투(02)독서실","tel":"032-321-1271","addr":"경기도 부천시 중동 1058-2번지 중동프라자 607호","indutype":"학원 - 독서실","category":"study"},{"name":"중동포인트정석속독학원","tel":"032-321-7377","addr":"경기도 부천시 중동 1058-2번지 중동프라자 509호","indutype":"학원 - 기타 교육기관","category":"study"},{"name":"챕터스잉글리쉬","tel":"032-322-0534","addr":"경기도 부천시 중동 1058-2번지 중동프라자 5층 502호","indutype":"학원 - 보습학원","category":"study"},{"name":"최강특공무술","tel":"032-329-7989","addr":"경기도 부천시 중동 1058-2 중동프라자 208","indutype":"학원 - 예·체능계학원","category":"study"},{"name":"탑베스트최고입시학원","tel":"032-321-6858","addr":"경기도 부천시 중동 1058-2번지 중동프라자 2층 206호","indutype":"학원 - 보습학원","category":"study"}]},{"lat":"37.487597369","long":"126.76885127","imageIndex":16,"items":[{"name":"EIE(이아이이)어학원","tel":"032-661-5105","addr":"경기도 부천시 중동 799번지 2층 202,205호","indutype":"학원 - 외국어학원","category":"study"}]},{"lat":"37.497428254","long":"126.76938601","imageIndex":16,"items":[{"name":"GLH태권도장3관","tel":"032-328-2151","addr":"경기도 부천시 중동 1182번지 301,302호","indutype":"학원 - 예·체능계학원","category":"study"},{"name":"버클리음악학원","tel":"032-325-1755","addr":"경기도 부천시 중동 1182번지 그린타운우성 상가 303호~304호","indutype":"학원 - 예·체능계학원","category":"study"},{"name":"앙금이네 떡케익","tel":"032-522-6988","addr":"경기도 부천시 중동 1182번지 그린타운 삼성,우성1차아파트","indutype":"회원제형태 - 학원","category":"study"},{"name":"오픈에듀케이션","tel":"070-4065-5059","addr":"경기도 부천시 중동 1182번지 그린타운 삼성,우성1차아파트","indutype":"회원제형태 - 학원","category":"study"},{"name":"이레수학학원","tel":"032-321-7788","addr":"경기도 부천시 중동 1182번지 그린타운 삼성,우성1차아파트","indutype":"회원제형태 - 학원","category":"study"},{"name":"하루태권도장","tel":"","addr":"경기도 부천시 중동 1182번지 상가 301동 302호","indutype":"학원 - 예·체능계학원","category":"study"}]},{"lat":"37.487952584","long":"126.76624956","imageIndex":16,"items":[{"name":"GMS(지엠에스)아카데미입시학원","tel":"070-8778-1005","addr":"경기도 부천시 중동 807번지 3층 7-2,9호","indutype":"학원 - 보습학원","category":"study"},{"name":"효인성평생교육원","tel":"032-665-9014","addr":"경기도 부천시 중동 807번지 3층 312호","indutype":"학원 - 기타 교육기관","category":"study"}]},{"lat":"37.499620095","long":"126.77524841","imageIndex":16,"items":[{"name":"HK영어보습학원","tel":"032-324-7413","addr":"경기도 부천시 중동 1134-2번지 골드존타워","indutype":"학원 - 보습학원","category":"study"},{"name":"JE JE(제제)음악학원","tel":"032-322-4268","addr":"경기도 부천시 중동 1134-2번지 골드존타워 501호","indutype":"학원 - 예·체능계학원","category":"study"},{"name":"YBM(와이비엠)잉글루중동어학원","tel":"032-328-4700","addr":"경기도 부천시 중동 1134-2번지 골드존타워 704호","indutype":"회원제형태 - 학원","category":"study"},{"name":"경희태권도","tel":"032-327-5688","addr":"경기도 부천시 중동 1134-2번지 골드존타워 404호","indutype":"학원 - 예·체능계학원","category":"study"},{"name":"나눔소리국악학원","tel":"032-328-7575","addr":"경기도 부천시 중동 1134-2골든타워6층602","indutype":"학원 - 예·체능계학원","category":"study"},{"name":"대치입시학원","tel":"032-321-9468","addr":"경기도 부천시 중동 1134-2번지 골드존타워 2층 206호","indutype":"학원 - 보습학원","category":"study"},{"name":"베르디음악학원","tel":"032-325-2652","addr":"경기도 부천시 중동 1134-2번지 골드존타워 504호","indutype":"학원 - 예·체능계학원","category":"study"},{"name":"부천필무용학원","tel":"032-328-4565","addr":"경기도 부천시 중동 1134-2번지 골드존타워 501호","indutype":"학원 - 예·체능계학원","category":"study"},{"name":"선율음악학원","tel":"032-327-3327","addr":"경기도 부천시 중동 1134-2번지 골드존타워 305호","indutype":"학원 - 예·체능계학원","category":"study"},{"name":"아트무브먼트댄스학원","tel":"032-548-1233","addr":"경기도 부천시 중동 1134-2번지 골드존타워 8층 802호 일부","indutype":"학원 - 예·체능계학원","category":"study"},{"name":"연세탑독서실","tel":"","addr":"경기도 부천시 중동 1134-2번지 골드존타워 2층","indutype":"학원 - 독서실","category":"study"},{"name":"오르비스영어","tel":"032-614-0777","addr":"경기도 부천시 중동 1134-2번지 골드존타워 206호","indutype":"회원제형태 - 학원","category":"study"},{"name":"위더스보습학원","tel":"032-654-9805","addr":"경기도 부천시 중동 1134-2번지 골드존타워 607호","indutype":"학원 - 보습학원","category":"study"},{"name":"유피(UP)영수보습학원","tel":"032-324-3101","addr":"경기도 부천시 중동 1134-2번지 골드존타워 7층 705호","indutype":"학원 - 보습학원","category":"study"},{"name":"윤선생 Igse(아이지에스이) 아카데미부천중","tel":"032-324-0594","addr":"경기도 부천시 중동 1134-2번지 골드존타워 5층 505호","indutype":"학원 - 외국어학원","category":"study"},{"name":"이연수학교습소","tel":"032-324-1119","addr":"경기도 부천시 중동 1134-2번지 골드존타워 206호","indutype":"회원제형태 - 학원","category":"study"},{"name":"임언휘웰링턴잉글리쉬영어보습학원","tel":"032-322-5134","addr":"경기도 부천시 중동 1134-2번지 골드존타워 701호","indutype":"학원 - 외국어학원","category":"study"},{"name":"중동국풍2000입시학원","tel":"032-328-6004","addr":"경기도 부천시 중동 1134-2번지 골드존타워 803호","indutype":"학원 - 보습학원","category":"study"},{"name":"중동이엠(EM)대한보습학원","tel":"032-344-1230","addr":"경기도 부천시 중동 1134-2번지 골드존타워 702호","indutype":"학원 - 보습학원","category":"study"},{"name":"케이제이수학","tel":"070-8210-2550","addr":"경기도 부천시 중동 1134-2번지 골드존타워 306호","indutype":"회원제형태 - 학원","category":"study"},{"name":"토즈스터디센터 중동독서실","tel":"032-327-0667","addr":"경기도 부천시 중동 1134-2번지 골드존타워 603,604호","indutype":"학원 - 독서실","category":"study"}]},{"lat":"37.496513042","long":"126.76229859","imageIndex":16,"items":[{"name":"HUN DANCE COMPANY(훈댄스컴퍼니)무용학원","tel":"032-612-2341","addr":"경기도 부천시 중동 679-1번지 2층","indutype":"학원 - 예·체능계학원","category":"study"}]},{"lat":"37.501206148","long":"126.77077656","imageIndex":16,"items":[{"name":"IBT(아이비티)주니어보습학원","tel":"032-323-0505","addr":"경기도 부천시 중동 1145번지 메트로팰리스2차 302호","indutype":"학원 - 보습학원","category":"study"},{"name":"상원영어교습소 SW(에스더블유)","tel":"032-321-1192","addr":"경기도 부천시 중동 1145번지 메트로팰리스2차 3층 306호","indutype":"회원제형태 - 학원","category":"study"}]},{"lat":"37.506369304","long":"126.77565769","imageIndex":16,"items":[{"name":"ING보습학원","tel":"032-324-0356","addr":"경기도 부천시 중동 1061번지 한신빌딩 3층","indutype":"학원 - 보습학원","category":"study"},{"name":"TOP(탑)실용음악학원","tel":"032-321-8800","addr":"경기도 부천시 중동 1061번지 한신빌딩 6층 일부","indutype":"학원 - 예·체능계학원","category":"study"}]},{"lat":"37.498653282","long":"126.77851953","imageIndex":16,"items":[{"name":"J.Core English(제이.코어잉글리쉬)영어교","tel":"070-7566-4129","addr":"경기도 부천시 중동 1111번지 위브더스테이트 상가 6동 203호","indutype":"회원제형태 - 학원","category":"study"},{"name":"The(더)큰수학교습소","tel":"032-611-9707","addr":"경기도 부천시 중동 1111번지 위브더스테이트 상가6동317-2호","indutype":"회원제형태 - 학원","category":"study"},{"name":"생각의씨앗논술교습소","tel":"032-325-4849","addr":"경기도 부천시 중동 1111번지 305-1호","indutype":"회원제형태 - 학원","category":"study"},{"name":"연세길보습학원","tel":"032-621-7990","addr":"경기도 부천시 중동 1111번지 위브더스테이트 6동 209호","indutype":"학원 - 보습학원","category":"study"},{"name":"요미요미미술학원","tel":"031-328-1544","addr":"경기도 부천시 중동 1111번지 306-2호, 307-2호","indutype":"학원 - 예·체능계학원","category":"study"}]},{"lat":"37.504339059","long":"126.7694889","imageIndex":16,"items":[{"name":"JK(제이케이)수학보습학원","tel":"032-825-7619","addr":"경기도 부천시 중동 1056번지 제일프라자 401호","indutype":"학원 - 보습학원","category":"study"},{"name":"귀큰여우창작소미술학원","tel":"032-321-7005","addr":"경기도 부천시 중동 1056번지 제일프라자 503호","indutype":"학원 - 예·체능계학원","category":"study"},{"name":"스마트러닝로봇학원","tel":"032-323-8458","addr":"경기도 부천시 중동 1056번지 제일프라자 405호","indutype":"회원제형태 - 학원","category":"study"},{"name":"에듀코치개별지도중동보습학원","tel":"032-329-7907","addr":"경기도 부천시 중동 1056번지 제일프라자 4층 403호","indutype":"학원 - 보습학원","category":"study"},{"name":"오썸영어교습소","tel":"032-325-9990","addr":"경기도 부천시 중동 1056번지 제일프라자 306호","indutype":"학원 - 외국어학원","category":"study"},{"name":"중동스터디랩독서실","tel":"032-321-5760","addr":"경기도 부천시 중동 1056번지 제일프라자 604호","indutype":"학원 - 독서실","category":"study"},{"name":"중앙음악학원","tel":"","addr":"경기도 부천시 중동 1056번지 제일프라자 501호","indutype":"학원 - 예·체능계학원","category":"study"},{"name":"포마스터수학영어입시학원","tel":"032-328-4564","addr":"경기도 부천시 중동 1056번지 제일프라자 504호","indutype":"학원 - 보습학원","category":"study"}]},{"lat":"37.504703001","long":"126.76673956","imageIndex":16,"items":[{"name":"JWC영어태권도","tel":"032-321-9110","addr":"경기도 부천시 중동 1034-4번지 드림빌딩 406호","indutype":"학원 - 예·체능계학원","category":"study"},{"name":"닥터정이클래스보습학원","tel":"032-323-0048","addr":"경기도 부천시 중동 1034-4번지 드림빌딩 503호","indutype":"학원 - 보습학원","category":"study"},{"name":"명성체육관","tel":"032-235-7171","addr":"경기도 부천시 중동 1034-4번지 드림빌딩 2층 207호","indutype":"학원 - 예·체능계학원","category":"study"},{"name":"반석에스이주식회사","tel":"032-329-5110","addr":"경기도 부천시 중동 1034-4번지","indutype":"회원제형태 - 학원","category":"study"},{"name":"손영주보습학원","tel":"032-528-1926","addr":"경기도 부천시 중동 1034-4번지 드림빌딩 601,608호","indutype":"학원 - 보습학원","category":"study"},{"name":"씨엔티(CNT)스터디센터 부천시청센터독서실","tel":"032-2356-6123","addr":"경기도 부천시 중동 1034-4번지 드림빌딩 4층 405호","indutype":"학원 - 독서실","category":"study"},{"name":"아름다운11월학원","tel":"032-513-1133","addr":"경기도 부천시 중동 1034-4번지 드림빌딩 609호","indutype":"학원 - 보습학원","category":"study"},{"name":"애니톡만화애니미술학원","tel":"032-329-8685","addr":"경기도 부천시 중동 1034-4번지 드림빌딩 605~607호","indutype":"학원 - 예·체능계학원","category":"study"},{"name":"페이스엠베스트SE(에스이)보습학원","tel":"070-7392-0222","addr":"경기도 부천시 중동 1034-4번지 드림빌딩 604호","indutype":"학원 - 외국어학원","category":"study"},{"name":"페이스엠베스트SE(에스이)보습학원","tel":"032-321-3579","addr":"경기도 부천시 중동 1034-4번지 드림빌딩 604호","indutype":"학원 - 외국어학원","category":"study"}]},{"lat":"37.500205409","long":"126.775077","imageIndex":16,"items":[{"name":"M(엠)파워수학보습학원","tel":"032-325-6800","addr":"경기도 부천시 중동 1134번지 새롬프라자 601호","indutype":"학원 - 보습학원","category":"study"},{"name":"리더스프렙어학원","tel":"032-321-7189","addr":"경기도 부천시 중동 1134번지 새롬프라자6차 501호 일부","indutype":"회원제형태 - 학원","category":"study"},{"name":"생각하는 수학원","tel":"032-322-1230","addr":"경기도 부천시 중동 1134번지 새롬프라자6차 5층 501호","indutype":"학원 - 보습학원","category":"study"},{"name":"수(  )싸이언스과학보습학원","tel":"032-665-8466","addr":"경기도 부천시 중동 1134번지 새롬프라자6차 501호 새오뮤-라자6차","indutype":"학원 - 보습학원","category":"study"},{"name":"아이슈타인과학영재보습학원","tel":"032-327-0315","addr":"경기도 부천시 중동 1134번지 새롬프라자 6층 601호","indutype":"학원 - 보습학원","category":"study"}]},{"lat":"37.500006925","long":"126.77965766","imageIndex":16,"items":[{"name":"MTA태권도/슈퍼아이태권도","tel":"032-663-5732","addr":"경기도 부천시 중동 1103번지 꿈마을상가 201,203호","indutype":"학원 - 예·체능계학원","category":"study"},{"name":"리움미술교습소","tel":"032-655-2087","addr":"경기도 부천시 중동 1103번지 꿈마을 206호","indutype":"학원 - 예·체능계학원","category":"study"},{"name":"브람스피아노교습소","tel":"032-651-1706","addr":"경기도 부천시 중동 1103번지 꿈마을 상가동 204호","indutype":"학원 - 예·체능계학원","category":"study"},{"name":"사회탐구교습","tel":"","addr":"경기도 부천시 중동 1103번지 꿈마을동아아파트","indutype":"학원 - 기타 교육기관","category":"study"}]},{"lat":"37.497260773","long":"126.77591146","imageIndex":16,"items":[{"name":"NewClass(뉴클래스)보습학원","tel":"032-207-3079","addr":"경기도 부천시 중동 1128번지 그린프라자 6층 602호","indutype":"학원 - 보습학원","category":"study"},{"name":"그릿영어교습소","tel":"032-283-5090","addr":"경기도 부천시 중동 1128번지 그린프라자 3층 304호","indutype":"학원 - 외국어학원","category":"study"},{"name":"라트보습학원","tel":"032-324-6822","addr":"경기도 부천시 중동 1128번지 그린프라자 504,505호","indutype":"학원 - 보습학원","category":"study"},{"name":"와이즈리더중동영어보습학원","tel":"032-255-2000","addr":"경기도 부천시 중동 1128번지 그린프라자 5층 503,504호 일부","indutype":"학원 - 보습학원","category":"study"},{"name":"쿰수학교습소","tel":"032-322-1573","addr":"경기도 부천시 중동 1128번지 그린프라자 501호","indutype":"회원제형태 - 학원","category":"study"},{"name":"튜링의알고리즘컴퓨터학원","tel":"032-325-0623","addr":"경기도 부천시 중동 1128번지 그린프라자 3층 305호","indutype":"학원 - 컴퓨터학원","category":"study"}]},{"lat":"37.502235701","long":"126.76297009","imageIndex":16,"items":[{"name":"Style(스타일)미용학원","tel":"032-322-1411","addr":"경기도 부천시 중동 1160번지 (주)부일상호신용금고 4층 일부","indutype":"회원제형태 - 학원","category":"study"}]},{"lat":"37.506839876","long":"126.77207106","imageIndex":16,"items":[{"name":"U1(유원)영문법보습학원","tel":"032-321-0579","addr":"경기도 부천시 중동 1052-2번지 302호","indutype":"학원 - 보습학원","category":"study"},{"name":"엘리트음악학원","tel":"032-324-6037","addr":"경기도 부천시 중동 1052-2번지 301호","indutype":"학원 - 예·체능계학원","category":"study"},{"name":"예마루미술학원","tel":"032-328-0933","addr":"경기도 부천시 중동 1052-2번지 202호","indutype":"학원 - 예·체능계학원","category":"study"},{"name":"중흥다윗태권도","tel":"032-323-6588","addr":"경기도 부천시 중동 1052-2번지 402호","indutype":"학원 - 예·체능계학원","category":"study"}]},{"lat":"37.502590761","long":"126.76035653","imageIndex":16,"items":[{"name":"Y(와이)보습학원","tel":"032-327-0585","addr":"경기도 부천시 중동 1168-1번지 디아뜨갤러리 204호","indutype":"회원제형태 - 학원","category":"study"}]},{"lat":"37.497374503","long":"126.7788513","imageIndex":16,"items":[{"name":"Zino (지노)수학보습학원","tel":"032-621-7339","addr":"경기도 부천시 중동 1112번지 위브더스테이트 상가 8동 309호","indutype":"학원 - 보습학원","category":"study"},{"name":"뉴이데아국어교습소","tel":"032-661-2066","addr":"경기도 부천시 중동 1112번지 위브 8동 225호 일부","indutype":"회원제형태 - 학원","category":"study"},{"name":"멘토영어교습소","tel":"","addr":"경기도 부천시 중동 1112번지 위브더스테이트 상가 8동 220호","indutype":"학원 - 외국어학원","category":"study"},{"name":"뮤직아이드림음악학원","tel":"032-621-7779","addr":"경기도 부천시 중동 1112번지 위브더스테이트 상가 8동 210호","indutype":"학원 - 예·체능계학원","category":"study"},{"name":"원정수학교습소","tel":"","addr":"경기도 부천시 중동 1112번지 위브더스테이트 B동 2층 219호","indutype":"학원 - 보습학원","category":"study"},{"name":"이니띠움 독서실","tel":"032-621-8780","addr":"경기도 부천시 중동 1112위브더스테이트8동307,308호","indutype":"학원 - 독서실","category":"study"},{"name":"책읽는루브르","tel":"032-325-1134","addr":"경기도 부천시 중동 1112번지 위브더스테이트8동211호,212호,213호","indutype":"학원 - 예·체능계학원","category":"study"}]},{"lat":"37.50512","long":"126.76352633","imageIndex":16,"items":[{"name":"callan institute(칼란인스티튜트)보습학원","tel":"032-329-9300","addr":"경기도 부천시 중동 1033번지 우신빌딩 602호","indutype":"학원 - 보습학원","category":"study"},{"name":"마일스톤","tel":"032-329-7860","addr":"경기도 부천시 중동 1033번지 우신빌딩 지층 101호","indutype":"학원 - 예·체능계학원","category":"study"},{"name":"부천페르마보습학원","tel":"032-327-5004","addr":"경기도 부천시 중동 1033번지 우신빌딩 401호","indutype":"학원 - 보습학원","category":"study"},{"name":"선두페르마보습학원","tel":"032-327-5004","addr":"경기도 부천시 중동 1033번지 우신빌딩 604호","indutype":"학원 - 보습학원","category":"study"},{"name":"수학을말하다보습학원","tel":"032-324-5840","addr":"경기도 부천시 중동 1033번지 우신빌딩 504호","indutype":"학원 - 보습학원","category":"study"},{"name":"씽크스퀘어부천중,상동점","tel":"032-321-0083","addr":"경기도 부천시 중동 1033번지 우신빌딩 403호","indutype":"학원 - 기타 교육기관","category":"study"},{"name":"중동스마트영어보습학원","tel":"032-325-3633","addr":"경기도 부천시 중동 1033번지 우신빌딩 403호","indutype":"학원 - 보습학원","category":"study"}]},{"lat":"37.499814745","long":"126.7734045","imageIndex":16,"items":[{"name":"갈루아 수학","tel":"","addr":"경기도 부천시 중동 1179번지 미리내마을 금호,한신,한양아파트","indutype":"학원 - 기타 교육기관","category":"study"},{"name":"봄 에듀케이션(eduecation)","tel":"032-111-1111","addr":"경기도 부천시 중동 1179번지 미리내마을 금호,한신,한양아파트","indutype":"학원 - 기타 교육기관","category":"study"},{"name":"스카이매쓰","tel":"032-000-0000","addr":"경기도 부천시 중동 1179번지 미리내마을 금호,한신,한양아파트","indutype":"학원 - 기타 교육기관","category":"study"}]},{"lat":"37.502200442","long":"126.76335471","imageIndex":16,"items":[{"name":"강민수영어입시학원","tel":"070-8235-7900","addr":"경기도 부천시 중동 1160-1번지 대우마이빌센트럴파트2층207,208호","indutype":"회원제형태 - 학원","category":"study"},{"name":"보보수학교습소","tel":"031-000-0000","addr":"경기도 부천시 중동 1160-1번지 대우마이빌센트럴파크 218호","indutype":"학원 - 보습학원","category":"study"},{"name":"보습교육","tel":"032-212-2684","addr":"경기도 부천시 중동 1160-1 대우마이빌센트럴파크205호,206호,207호,208호","indutype":"학원 - 보습학원","category":"study"},{"name":"제이플레르","tel":"032-612-1599","addr":"경기도 부천시 중동 1160-1번지 대우마이빌센트럴파크 209호","indutype":"학원 - 기능학원","category":"study"}]},{"lat":"37.503895001","long":"126.77276999","imageIndex":16,"items":[{"name":"검도스쿨중동점","tel":"032-322-1331","addr":"경기도 부천시 중동 1058-1번지 신명타운 605호,606호","indutype":"학원 - 예·체능계학원","category":"study"},{"name":"트라움 음악학원","tel":"032-323-0805","addr":"경기도 부천시 중동 1058-1번지 신영타운 601호","indutype":"학원 - 예·체능계학원","category":"study"}]},{"lat":"37.497395846","long":"126.7622166","imageIndex":16,"items":[{"name":"경인요양보호사교육원","tel":"032-328-1001","addr":"경기도 부천시 중동 587-3번지 (2층,3층)","indutype":"회원제형태 - 학원","category":"study"},{"name":"한국다문화복지협회부천지부","tel":"032-323-2472","addr":"경기도 부천시 중동 587-3번지 동성빌딩 5층","indutype":"학원 - 기타 교육기관","category":"study"}]},{"lat":"37.490455763","long":"126.76546146","imageIndex":16,"items":[{"name":"경희 팰리스 태권도","tel":"032-207-9090","addr":"경기도 부천시 중동 1288번지 팰리스카운티 푸르지오상가 306호,307호","indutype":"학원 - 예·체능계학원","category":"study"},{"name":"도레미음악교습소","tel":"031-611-1532","addr":"경기도 부천시 중동 1288번지 팰리스카운티 중앙 상가동 201호 일부","indutype":"학원 - 예·체능계학원","category":"study"},{"name":"드림수학보습학원","tel":"032-662-0608","addr":"경기도 부천시 중동 1288번지 팰리스카운티아이파크 상가 302호","indutype":"학원 - 보습학원","category":"study"},{"name":"리딩비보습학원","tel":"032-715-5434","addr":"경기도 부천시 중동 1288번지 팰리스카운티푸르지오 상가 4층 408호","indutype":"학원 - 보습학원","category":"study"},{"name":"뮤즈음악교습소","tel":"032-655-0311","addr":"경기도 부천시 중동 1288번지 푸르지오 상가동 217호","indutype":"학원 - 예·체능계학원","category":"study"},{"name":"바른영어교습소","tel":"070-7763-7313","addr":"경기도 부천시 중동 1288번지 팰리스카운티 2동 205호","indutype":"학원 - 외국어학원","category":"study"},{"name":"시계토기미술교습소","tel":"032-613-3994","addr":"경기도 부천시 중동 1288번지 팰리스카운티 4층 406호 일부","indutype":"학원 - 예·체능계학원","category":"study"},{"name":"이룸보습학원","tel":"032-651-0579","addr":"경기도 부천시 중동 1288번지 푸르지오상가동 2층 212호 4층 407호","indutype":"학원 - 보습학원","category":"study"},{"name":"인매쓰수학인입시학원","tel":"032-614-8395","addr":"경기도 부천시 중동 1288번지 팰리스카운티 503호일부 504호","indutype":"학원 - 보습학원","category":"study"},{"name":"조이매쓰창의력수학교습소","tel":"070-7681-8201","addr":"경기도 부천시 중동 1288번지 팰리스카운티푸르지오 상가동 218호","indutype":"회원제형태 - 학원","category":"study"},{"name":"중동온디느무용학원","tel":"032-654-6005","addr":"경기도 부천시 중동 1288번지 팰리스카운티 5층 507호","indutype":"학원 - 예·체능계학원","category":"study"},{"name":"튼튼영어마스터클럽영어교습소","tel":"032-323-2205","addr":"경기도 부천시 중동 1288번지 팰리스카운티 상가동 204호","indutype":"학원 - 외국어학원","category":"study"},{"name":"포텐수학과학입시학원","tel":"03-232-6318","addr":"경기도 부천시 중동 1288번지 팰리스카운티 4층 405호","indutype":"학원 - 보습학원","category":"study"},{"name":"해법중국어교습소","tel":"032-667-8895","addr":"경기도 부천시 중동 1288번지 팰리스카운티 상가동 215호","indutype":"학원 - 외국어학원","category":"study"}]},{"lat":"37.494182036","long":"126.76805048","imageIndex":16,"items":[{"name":"경희대석사비룡태권도","tel":"032-653-3484","addr":"경기도 부천시 중동 1186번지 404호","indutype":"학원 - 예·체능계학원","category":"study"},{"name":"뮤직블라썸","tel":"","addr":"경기도 부천시 중동 1186번지 복사골마을 건영아이숲,건영캐스빌아파트","indutype":"학원 - 기타 교육기관","category":"study"}]},{"lat":"37.5010113839","long":"126.7590724231","imageIndex":16,"items":[{"name":"경희태권도체육관","tel":"032-324-5955","addr":"경기도 부천시 중동 1170번지","indutype":"학원 - 예·체능계학원","category":"study"},{"name":"대명컴퓨터학원","tel":"032-322-1217","addr":"경기도 부천시 중동 1170번지 중동호정상가 3층 302","indutype":"학원 - 컴퓨터학원","category":"study"}]},{"lat":"37.49492623","long":"126.77077338","imageIndex":16,"items":[{"name":"계남정미정수학보습학원","tel":"032-662-1211","addr":"경기도 부천시 중동 1208번지 계남아카데미빌딩 2층 201호","indutype":"학원 - 보습학원","category":"study"},{"name":"미도움미술학원","tel":"032-651-3744","addr":"경기도 부천시 중동 1208번지 계남아카데미빌딩 206호","indutype":"학원 - 예·체능계학원","category":"study"},{"name":"쎄타입시외국어학원","tel":"032-614-4222","addr":"경기도 부천시 중동 1208번지 계남아카데미빌딩 501호","indutype":"회원제형태 - 학원","category":"study"},{"name":"중동용인대태권도","tel":"032-611-6479","addr":"경기도 부천시 중동 1208번지 계남아카데미빌딩 5층 502,503호","indutype":"학원 - 예·체능계학원","category":"study"}]},{"lat":"37.501117624","long":"126.77157977","imageIndex":16,"items":[{"name":"고수회하람태권도장","tel":"032-324-3223","addr":"경기도 부천시 중동 1145-2번지 네이버시티빌딩 504호","indutype":"학원 - 예·체능계학원","category":"study"},{"name":"글로리수학보습학원","tel":"032-322-0952","addr":"경기도 부천시 중동 1145-2번지 네이버시티빌딩 2층 203호","indutype":"학원 - 보습학원","category":"study"},{"name":"매쓰짱고등수학교습소","tel":"","addr":"경기도 부천시 중동 1145-2번지 네이버시티빌딩 408-2호","indutype":"학원 - 보습학원","category":"study"},{"name":"소리나무음학학원","tel":"032-326-6655","addr":"경기도 부천시 중동 1145-2번지 네이버시티빌딩 502호","indutype":"학원 - 예·체능계학원","category":"study"},{"name":"신수학보습학원","tel":"032-324-2256","addr":"경기도 부천시 중동 1145-2번지 네이버시티빌딩 6층 602호","indutype":"학원 - 보습학원","category":"study"},{"name":"써니어학원","tel":"032-324-0579","addr":"경기도 부천시 중동 1145-2번지 네이버시티빌딩 704호","indutype":"회원제형태 - 학원","category":"study"},{"name":"아트앤하트 부천 신중동 미술학원","tel":"032-327-0603","addr":"경기도 부천시 중동 1145-2번지 네이버시티빌딩 5층 501호","indutype":"학원 - 예·체능계학원","category":"study"},{"name":"오늘그림 미술학원","tel":"032-321-8645","addr":"경기도 부천시 중동 1145-2번지 네이버시티빌딩 402호","indutype":"학원 - 예·체능계학원","category":"study"},{"name":"이교실","tel":"070-4100-5463","addr":"경기도 부천시 중동 1145-2번지 네이버시티빌딩 7층 701호","indutype":"학원 - 보습학원","category":"study"}]},{"lat":"37.503425101","long":"126.77671838","imageIndex":16,"items":[{"name":"곰아뜰리에미술학원","tel":"032-505-7687","addr":"경기도 부천시 중동 1062-4번지 로얄프라자 401호","indutype":"학원 - 예·체능계학원","category":"study"},{"name":"초이스애견미용학원","tel":"032-652-6405","addr":"경기도 부천시 중동 1062-4번지 로얄프라자 607-2호","indutype":"회원제형태 - 학원","category":"study"},{"name":"하이베스트보습학원","tel":"032-327-3379","addr":"경기도 부천시 중동 1062-4번지 로얄프라자 607호","indutype":"학원 - 보습학원","category":"study"}]},{"lat":"37.507401411","long":"126.76446908","imageIndex":16,"items":[{"name":"공부방","tel":"031-000-0000","addr":"경기도 부천시 중동 1038번지 은하마을주공2단지아파트","indutype":"학원 - 기타 교육기관","category":"study"}]},{"lat":"37.503291487","long":"126.77752174","imageIndex":16,"items":[{"name":"교육과보육신문부설부천평생교육원","tel":"032-678-0514","addr":"경기도 부천시 중동 1079-1번지 뉴월드타운 401~402호","indutype":"학원 - 기타 교육기관","category":"study"}]},{"lat":"37.502757192","long":"126.76243689","imageIndex":16,"items":[{"name":"국제중국어학원","tel":"032-328-1088","addr":"경기도 부천시 중동 1162-5번지 중동프라자 307동 305호","indutype":"회원제형태 - 학원","category":"study"},{"name":"도프댄스(DOPE DANCE)무용학원","tel":"032-323-3212","addr":"경기도 부천시 중동 1162-5번지 중동프라자 6층 602호","indutype":"학원 - 예·체능계학원","category":"study"},{"name":"라임연기학원","tel":"032-321-0316","addr":"경기도 부천시 중동 1162-5번지 중동프라자 3층 301,302호","indutype":"학원 - 예·체능계학원","category":"study"}]},{"lat":"37.508338971","long":"126.76030401","imageIndex":16,"items":[{"name":"금강이화음악학원","tel":"032-344-3594","addr":"경기도 부천시 중동 1030-4번지 금강단지복합상가 201호","indutype":"학원 - 예·체능계학원","category":"study"},{"name":"태비태권도","tel":"032-324-9047","addr":"경기도 부천시 중동 1030-4번지 지층","indutype":"학원 - 예·체능계학원","category":"study"}]},{"lat":"37.503761787","long":"126.77376563","imageIndex":16,"items":[{"name":"기찬영수보습학원","tel":"032-327-1533","addr":"경기도 부천시 중동 1058-4번지 서호빌딩 3층 305호","indutype":"학원 - 보습학원","category":"study"},{"name":"렌쥴리킨더중동어학보습학원","tel":"","addr":"경기도 부천시 중동 1058-4번지 서호빌딩 6층 603-608호","indutype":"학원 - 보습학원","category":"study"},{"name":"수학을담다","tel":"032-225-5673","addr":"경기도 부천시 중동 1058-4번지 서호빌딩 404호","indutype":"학원 - 보습학원","category":"study"}]},{"lat":"37.500957766","long":"126.7727677","imageIndex":16,"items":[{"name":"기타레슨음악교습소","tel":"032-111-1111","addr":"경기도 부천시 중동 1144-2번지 디아뜨갤러리3 B동 304호","indutype":"학원 - 예·체능계학원","category":"study"}]},{"lat":"37.49440245","long":"126.76118588","imageIndex":16,"items":[{"name":"김과학수학보습학원","tel":"032-668-7009","addr":"경기도 부천시 중동 730-13 2,3층","indutype":"학원 - 보습학원","category":"study"},{"name":"메타스터디학원","tel":"032-611-3230","addr":"경기도 부천시 중동 730-13번지 4층","indutype":"학원 - 보습학원","category":"study"}]},{"lat":"37.495930111","long":"126.76363482","imageIndex":16,"items":[{"name":"김지효벨리댄스&핏","tel":"","addr":"경기도 부천시 중동 705-1번지 2층","indutype":"학원 - 예·체능계학원","category":"study"}]},{"lat":"37.499090318","long":"126.77618864","imageIndex":16,"items":[{"name":"꼬모도하우스","tel":"032-323-8688","addr":"경기도 부천시 중동 1130-18번지 엔터프라이즈빌딩 제301,302호","indutype":"학원 - 독서실","category":"study"},{"name":"꼬모도하우스","tel":"032-323-8688","addr":"경기도 부천시 중동 1130-18번지","indutype":"학원 - 독서실","category":"study"}]},{"lat":"37.499955486","long":"126.7810488","imageIndex":16,"items":[{"name":"꿈마을새봄피아노교습소","tel":"032-612-3031","addr":"경기도 부천시 중동 1096-6번지","indutype":"학원 - 예·체능계학원","category":"study"}]},{"lat":"37.498899288","long":"126.77996629","imageIndex":16,"items":[{"name":"꿈마을해법영어교습소","tel":"032-653-1005","addr":"경기도 부천시 중동 1102꿈마을상가동2층201","indutype":"회원제형태 - 학원","category":"study"},{"name":"더필음악학원","tel":"032-613-0261","addr":"경기도 부천시 중동 1102번지 꿈마을건영 상가 3층 302~305호","indutype":"학원 - 예·체능계학원","category":"study"}]},{"lat":"37.496673974","long":"126.76168743","imageIndex":16,"items":[{"name":"꿈을이루는컴퓨터보습학원","tel":"032-614-2626","addr":"경기도 부천시 중동 679-5번지 인성프라자 4층","indutype":"학원 - 보습학원","category":"study"},{"name":"엘씨(LC)논술보습학원","tel":"032-657-4501","addr":"경기도 부천시 중동 679-5번지 인성프라자 501호","indutype":"회원제형태 - 학원","category":"study"}]},{"lat":"37.505066559","long":"126.76383186","imageIndex":16,"items":[{"name":"꿈한국화미술학원","tel":"032-323-5491","addr":"경기도 부천시 중동 1033-1번지 금영프라자 503호","indutype":"학원 - 예·체능계학원","category":"study"},{"name":"창의메카보습학원","tel":"032-323-1228","addr":"경기도 부천시 중동 1033-1번지 금영프라자 502호","indutype":"학원 - 보습학원","category":"study"}]},{"lat":"37.50328503","long":"126.76060309","imageIndex":16,"items":[{"name":"노블스 원룸텔","tel":"032-324-2442","addr":"경기도 부천시 중동 1167-1번지 401,402호","indutype":"학원 - 독서실","category":"study"}]},{"lat":"37.508424436","long":"126.77146675","imageIndex":16,"items":[{"name":"뉴욕잉글리쉬","tel":"031-000-0000","addr":"경기도 부천시 중동 1051번지 설악마을주공아파트","indutype":"학원 - 기타 교육기관","category":"study"},{"name":"이스쿨아카데미(E-School Academy)","tel":"070-8225-4767","addr":"경기도 부천시 중동 1051번지 설악마을주공아파트","indutype":"회원제형태 - 학원","category":"study"},{"name":"자이스토리 수학과외","tel":"032-255-8019","addr":"경기도 부천시 중동 1051번지 설악단지 304동 110호","indutype":"회원제형태 - 학원","category":"study"},{"name":"홍익미술","tel":"032-325-1505","addr":"경기도 부천시 중동 1051번지 설악마을주공아파트","indutype":"회원제형태 - 학원","category":"study"}]},{"lat":"37.493956353","long":"126.77240471","imageIndex":16,"items":[{"name":"뉴피카소 미술교습소","tel":"032-667-6926","addr":"경기도 부천시 중동 1204-7번지 1층","indutype":"학원 - 예·체능계학원","category":"study"}]},{"lat":"37.492872607","long":"126.76655065","imageIndex":16,"items":[{"name":"다나핏 무용학원","tel":"032-657-1188","addr":"경기도 부천시 중동 770-5번지 창신빌딩 3층","indutype":"학원 - 예·체능계학원","category":"study"},{"name":"더퀸실용음악학원","tel":"032-424-7082","addr":"경기도 부천시 중동 770-5번지 창신빌딩 4층","indutype":"회원제형태 - 학원","category":"study"}]},{"lat":"37.504977809","long":"126.76449941","imageIndex":16,"items":[{"name":"다빈치실용음악학원","tel":"032-325-5102","addr":"경기도 부천시 중동 1033-3번지 굿모닝프라자 605호","indutype":"회원제형태 - 학원","category":"study"},{"name":"민촌서예교습소","tel":"032-324-3800","addr":"경기도 부천시 중동 1033-3외1필지 굿모닝프라자513호","indutype":"학원 - 기타 교육기관","category":"study"},{"name":"에스앤유(SNU)성인어학원","tel":"032-328-1505","addr":"경기도 부천시 중동 1033-3번지 굿모닝프라자 5층 501,502호","indutype":"학원 - 외국어학원","category":"study"},{"name":"엘리트피아노교습소","tel":"032-329-5296","addr":"경기도 부천시 중동 1033-3번지 굿모닝프라자 4층 414호","indutype":"학원 - 예·체능계학원","category":"study"},{"name":"주식회사하늘체험교육원","tel":"032-325-2969","addr":"경기도 부천시 중동 1033-3번지 굿모닝프라자 121호","indutype":"학원 - 기타 교육기관","category":"study"},{"name":"트리탑영어보습학원","tel":"032-223-4884","addr":"경기도 부천시 중동 1033-3번지 굿모닝프라자 416호","indutype":"학원 - 보습학원","category":"study"}]},{"lat":"37.494319242","long":"126.76457852","imageIndex":16,"items":[{"name":"다온수학","tel":"070-8621-6142","addr":"경기도 부천시 중동 736-12번지 2층","indutype":"학원 - 보습학원","category":"study"},{"name":"쥬니어랩스쿨","tel":"070-8621-6142","addr":"경기도 부천시 중동 736-12번지 2층","indutype":"학원 - 보습학원","category":"study"}]},{"lat":"37.497063402","long":"126.77635308","imageIndex":16,"items":[{"name":"대원프라자(B)A.V.E리빙텔","tel":"032-329-0035","addr":"경기도 부천시 중동 1127-8번지","indutype":"학원 - 독서실","category":"study"}]},{"lat":"37.498539478","long":"126.77554572","imageIndex":16,"items":[{"name":"대치동코칭수학교습소","tel":"032-322-5757","addr":"경기도 부천시 중동 1129-1번지 센타프라자 6층 605호","indutype":"학원 - 보습학원","category":"study"},{"name":"더수학더과학보습학원","tel":"032-654-1006","addr":"경기도 부천시 중동 1129-1번지 센타프라자 510호 센터프라자","indutype":"학원 - 보습학원","category":"study"},{"name":"랩스어학원","tel":"032-322-8151","addr":"경기도 부천시 중동 1129-1번지 센타프라자 202호, 511호","indutype":"학원 - 외국어학원","category":"study"},{"name":"목민사관보습학원","tel":"032-325-5543","addr":"경기도 부천시 중동 1129-1번지 센터프라자 6층 608호","indutype":"학원 - 보습학원","category":"study"},{"name":"미르수학보습학원","tel":"032-326-9123","addr":"경기도 부천시 중동 1129-1번지 센터프라자 511호","indutype":"학원 - 보습학원","category":"study"},{"name":"수능영어교습소","tel":"032-326-3234","addr":"경기도 부천시 중동 1129-1번지 센타프라자 2층 207호","indutype":"학원 - 외국어학원","category":"study"},{"name":"스터디플래닛부천중동센터독서실","tel":"032-323-0919","addr":"경기도 부천시 중동 1129-1번지 센타프라자 제505~509호","indutype":"학원 - 독서실","category":"study"},{"name":"실력수학보습학원","tel":"032-329-1239","addr":"경기도 부천시 중동 1129-1번지 센터프라자 1동 311호","indutype":"학원 - 보습학원","category":"study"},{"name":"아임수학교습소","tel":"032-710-3500","addr":"경기도 부천시 중동 1129-1번지 센타프라자 407호","indutype":"학원 - 보습학원","category":"study"},{"name":"중동점예현음악학원","tel":"032-328-2272","addr":"경기도 부천시 중동 1129-1번지 센타프라자 2층 210호","indutype":"학원 - 예·체능계학원","category":"study"},{"name":"케리그마영어보습학원","tel":"070-7566-8266","addr":"경기도 부천시 중동 1129-1번지 센터프라자 408호","indutype":"학원 - 보습학원","category":"study"},{"name":"피드백 수 보습학원","tel":"032-322-5245","addr":"경기도 부천시 중동 1129-1번지 센타프라자 105,406호","indutype":"학원 - 보습학원","category":"study"},{"name":"허브(Hub)영어보습학원","tel":"032-326-8977","addr":"경기도 부천시 중동 1129-1번지 센터프라자 310호","indutype":"학원 - 보습학원","category":"study"}]},{"lat":"37.494286755","long":"126.77552468","imageIndex":16,"items":[{"name":"대한민국청소년로봇연맹 경기지부","tel":"032-667-1496","addr":"경기도 부천시 중동 1214번지 1층","indutype":"학원 - 기타 교육기관","category":"study"},{"name":"찬선생영어교실","tel":"032-665-0417","addr":"경기도 부천시 중동 1214번지 201호","indutype":"회원제형태 - 학원","category":"study"}]},{"lat":"37.493872911","long":"126.78058055","imageIndex":16,"items":[{"name":"더미술교습소","tel":"","addr":"경기도 부천시 중동 1118-1번지 스타팰리움 102동 205호","indutype":"학원 - 예·체능계학원","category":"study"}]},{"lat":"37.496176072","long":"126.76496841","imageIndex":16,"items":[{"name":"더오름보습학원","tel":"032-277-6616","addr":"경기도 부천시 중동 628-9번지 4층","indutype":"학원 - 보습학원","category":"study"}]},{"lat":"37.493873312","long":"126.76685281","imageIndex":16,"items":[{"name":"더퍼스트보습학원","tel":"032-661-1048","addr":"경기도 부천시 중동 749-17번지 세일빌딩 2층","indutype":"학원 - 보습학원","category":"study"}]},{"lat":"37.50295665","long":"126.76304694","imageIndex":16,"items":[{"name":"더함영수보습학원","tel":"032-327-1333","addr":"경기도 부천시 중동 1159번지 이원빌딩 702호","indutype":"학원 - 보습학원","category":"study"},{"name":"솔뫼축구센터","tel":"032-322-9195","addr":"경기도 부천시 중동 1159번지 이원빌딩 5층","indutype":"학원 - 예·체능계학원","category":"study"},{"name":"오무환국어보습학원","tel":"032-323-7804","addr":"경기도 부천시 중동 1159번지 이원빌딩 702호","indutype":"학원 - 보습학원","category":"study"},{"name":"청담아이가르텐외국어보습학원","tel":"032-328-0579","addr":"경기도 부천시 중동 1159번지 이원빌딩 4층","indutype":"학원 - 보습학원","category":"study"}]},{"lat":"37.500709","long":"126.77457788","imageIndex":16,"items":[{"name":"덴탈에듀","tel":"032-322-2231","addr":"경기도 부천시 중동 1135-1번지 제일프라자 205호","indutype":"회원제형태 - 학원","category":"study"}]},{"lat":"37.496125848","long":"126.76241291","imageIndex":16,"items":[{"name":"도담에듀영어교습소","tel":"032-631-1101","addr":"경기도 부천시 중동 682-1번지 덕원빌딩 4층","indutype":"회원제형태 - 학원","category":"study"},{"name":"원수학교습소","tel":"032-663-9947","addr":"경기도 부천시 중동 682-1번지 3층","indutype":"회원제형태 - 학원","category":"study"}]},{"lat":"37.496981575","long":"126.77596885","imageIndex":16,"items":[{"name":"돌풍입시학원","tel":"032-000-0000","addr":"경기도 부천시 중동 1128-1번지 우성프라자 201호","indutype":"학원 - 보습학원","category":"study"},{"name":"부천종로엠입시학원","tel":"032-323-0020","addr":"경기도 부천시 중동 1128-1번지 우성프라자 401,501호","indutype":"회원제형태 - 학원","category":"study"},{"name":"주식회사 에이팩스아카데미","tel":"032-322-9821","addr":"경기도 부천시 중동 1128-1번지 우성프라자 601호","indutype":"학원 - 보습학원","category":"study"},{"name":"주식회사 우리학원","tel":"032-327-6382","addr":"경기도 부천시 중동 1128-1번지 우성프라자 501호","indutype":"학원 - 보습학원","category":"study"}]},{"lat":"37.498541025","long":"126.75827755","imageIndex":16,"items":[{"name":"동이무예체육스쿨","tel":"032-321-2585","addr":"경기도 부천시 중동 1172,보람마을아주상가3층303호","indutype":"학원 - 예·체능계학원","category":"study"},{"name":"에벤에셀음악교습소","tel":"032-324-1219","addr":"경기도 부천시 중동 1172번지 보람 상가 304호","indutype":"학원 - 예·체능계학원","category":"study"}]},{"lat":"37.499014659","long":"126.76972033","imageIndex":16,"items":[{"name":"동화미술교습소","tel":"032-323-6886","addr":"경기도 부천시 중동 1181번지 동성 종합상가 203호","indutype":"학원 - 예·체능계학원","category":"study"},{"name":"멘토링보습학원","tel":"032-324-8800","addr":"경기도 부천시 중동 1181번지 미리내마을 상가 303호","indutype":"학원 - 보습학원","category":"study"},{"name":"스마트쎈클래스 공부방","tel":"032-458-7588","addr":"경기도 부천시 중동 1181번지 미리내마을동성아파트","indutype":"학원 - 기타 교육기관","category":"study"},{"name":"쏘울음악교습소","tel":"032-326-5468","addr":"경기도 부천시 중동 1181번지 미리내마을 상가동 209호","indutype":"학원 - 예·체능계학원","category":"study"},{"name":"오르다코리아","tel":"032-325-6173","addr":"경기도 부천시 중동 1181번지 미리내마을동성아파트","indutype":"학원 - 학습지 교육","category":"study"},{"name":"용인대석사한가림태권도장","tel":"032-322-1109","addr":"경기도 부천시 중동 1181번지 미리내마을동성 상가동 302호","indutype":"학원 - 예·체능계학원","category":"study"}]},{"lat":"37.503950969","long":"126.76021642","imageIndex":16,"items":[{"name":"드림 (Dream) 미용학원","tel":"032-327-1625","addr":"경기도 부천시 중동 1166번지 현대프라자203호,일부204호","indutype":"학원 - 기능학원","category":"study"}]},{"lat":"37.496117886","long":"126.77662734","imageIndex":16,"items":[{"name":"드웰","tel":"032-321-6540","addr":"경기도 부천시 중동 1124-2번지","indutype":"학원 - 독서실","category":"study"}]},{"lat":"37.509623704","long":"126.76291251","imageIndex":16,"items":[{"name":"뜨란채공부방","tel":"032-4257-0982","addr":"경기도 부천시 중동 1028번지 한라마을주공1,2단지","indutype":"회원제형태 - 학원","category":"study"}]},{"lat":"37.49653979","long":"126.78055003","imageIndex":16,"items":[{"name":"라라영어교습소","tel":"","addr":"경기도 부천시 중동 1100번지 2층 201호","indutype":"학원 - 외국어학원","category":"study"}]},{"lat":"37.498320074","long":"126.77390665","imageIndex":16,"items":[{"name":"라일락해법수학교습소","tel":"032-323-8656","addr":"경기도 부천시 중동 1180-1번지 미리내마을롯데아파트","indutype":"회원제형태 - 학원","category":"study"},{"name":"털보(Turbo)영어교습소","tel":"070-7722-4675","addr":"경기도 부천시 중동 1180-1번지 미리내마을 상가동 2층 207호","indutype":"학원 - 외국어학원","category":"study"},{"name":"해법독서논술","tel":"","addr":"경기도 부천시 중동 1180-1번지 미리내마을롯데아파트","indutype":"학원 - 기타 교육기관","category":"study"}]},{"lat":"37.503231003","long":"126.76957151","imageIndex":16,"items":[{"name":"레브엘몬드어학원","tel":"032-656-1240","addr":"경기도 부천시 중동 1149번지 209 A","indutype":"회원제형태 - 학원","category":"study"},{"name":"멘토랑 보습학원","tel":"032-207-4429","addr":"경기도 부천시 중동 1149번지 부천중동리슈빌N-Class 2층 212A호","indutype":"학원 - 보습학원","category":"study"},{"name":"봄교육","tel":"070-8633-1394","addr":"경기도 부천시 중동 1149번지 부천중동리슈빌엔클래스 306호","indutype":"학원 - 학습지 교육","category":"study"},{"name":"소르본독서역사논술학원","tel":"032-323-7244","addr":"경기도 부천시 중동 1149번지 부천중동리슈빌엔클래스309A호.308C호","indutype":"회원제형태 - 학원","category":"study"},{"name":"야한입시학원","tel":"032-327-0097","addr":"경기도 부천시 중동 1149번지 부천중동리슈빌엔클래스 205 A1전체, 205 A2일부호","indutype":"학원 - 보습학원","category":"study"},{"name":"일킴훈련소입시학원","tel":"032-323-3638","addr":"경기도 부천시 중동 1149번지 부천중동리슈빌엔클래스 3층 302호","indutype":"학원 - 보습학원","category":"study"},{"name":"피아노츠 성인음악학원","tel":"032-719-4633","addr":"경기도 부천시 중동 1149번지 부천중동리슈빌엔클래스 203호","indutype":"학원 - 예·체능계학원","category":"study"},{"name":"한국스포츠아카데미","tel":"032-668-2131","addr":"경기도 부천시 중동 1149번지 리슈빌엔클래스 B동 지층 102호","indutype":"회원제형태 - 학원","category":"study"}]},{"lat":"37.495014967","long":"126.77941244","imageIndex":16,"items":[{"name":"레이첼잉글리쉬(Rachel English)","tel":"02-2276-7383","addr":"경기도 부천시 중동 1116번지 리첸시아 B동 1401호","indutype":"학원 - 외국어학원","category":"study"},{"name":"버클리뮤직센터음악학원","tel":"032-652-3121","addr":"경기도 부천시 중동 1116번지 리첸시아 116호","indutype":"학원 - 예·체능계학원","category":"study"},{"name":"세종노블발레무용학원","tel":"032-656-0669","addr":"경기도 부천시 중동 1116번지 리첸시아 2층 230호","indutype":"학원 - 예·체능계학원","category":"study"},{"name":"아틀리에제이홍익미술교습소","tel":"032-215-0406","addr":"경기도 부천시 중동 1116번지 리첸시아 B동 227호","indutype":"학원 - 예·체능계학원","category":"study"}]},{"lat":"37.502561959","long":"126.7639077","imageIndex":16,"items":[{"name":"로뎀고시텔","tel":"032-326-0388","addr":"경기도 부천시 중동 1159-5번지 부광프라자 701호","indutype":"학원 - 독서실","category":"study"},{"name":"해금소리음악교습소","tel":"070-4060-1954","addr":"경기도 부천시 중동 1159-5번지 부광프라자 405호","indutype":"학원 - 예·체능계학원","category":"study"}]},{"lat":"37.501399205","long":"126.77274373","imageIndex":16,"items":[{"name":"롯데원룸고시원","tel":"032-327-2900","addr":"경기도 부천시 중동 1143-6번지 신풍프라자 501호","indutype":"학원 - 독서실","category":"study"}]},{"lat":"37.50270426","long":"126.7629912","imageIndex":16,"items":[{"name":"루모스보습학원","tel":"032-323-3435","addr":"경기도 부천시 중동 1159-8번지 중동하성빌딩 502호","indutype":"학원 - 보습학원","category":"study"},{"name":"비원투혼입시학원","tel":"032-328-4288","addr":"경기도 부천시 중동 1159-8번지 하성빌딩 4층 전체","indutype":"회원제형태 - 학원","category":"study"},{"name":"애니포스만화미술학원","tel":"032-324-6753","addr":"경기도 부천시 중동 1159-8번지 하성빌딩 2층","indutype":"학원 - 예·체능계학원","category":"study"},{"name":"에스엠 100보습학원","tel":"032-321-2436","addr":"경기도 부천시 중동 1159-8번지 하성빌딩 502호","indutype":"학원 - 보습학원","category":"study"},{"name":"예원무용학원","tel":"031-324-2754","addr":"경기도 부천시 중동 1159-8번지 하성빌딩 503호","indutype":"학원 - 예·체능계학원","category":"study"}]},{"lat":"37.5009252369","long":"126.7745772255","imageIndex":16,"items":[{"name":"리더스골프클럽","tel":"032-328-5566","addr":"경기도 부천시 중동 1135-1번지 5층 1,2,3호","indutype":"회원제형태 - 학원","category":"study"}]},{"lat":"37.496203716","long":"126.76527364","imageIndex":16,"items":[{"name":"리더스보습학원","tel":"032-657-0061","addr":"경기도 부천시 중동 596-3번지 세화빌딩 5층","indutype":"학원 - 보습학원","category":"study"}]},{"lat":"37.501980217","long":"126.77037835","imageIndex":16,"items":[{"name":"리드가죽공예학원","tel":"031-3228-7214","addr":"경기도 부천시 중동 1151-3번지 메트로펠리스3 304호","indutype":"학원 - 기능학원","category":"study"},{"name":"부천 실내운전면허 연습실","tel":"032-216-0501","addr":"경기도 부천시 중동 1151-3번지 메트로팰리스3차 2층 206호","indutype":"학원 - 기능학원","category":"study"}]},{"lat":"37.505235199","long":"126.76257596","imageIndex":16,"items":[{"name":"리딩게이트어학원","tel":"032-321-0533","addr":"경기도 부천시 중동 1031-2번지 골든벨타워 501호","indutype":"학원 - 외국어학원","category":"study"},{"name":"스카이간호학원","tel":"032-322-0333","addr":"경기도 부천시 중동 1031-2번지 골든벨타워 8층 801호","indutype":"학원 - 기능학원","category":"study"},{"name":"와이키즈부천중동보습학원","tel":"032-111-1111","addr":"경기도 부천시 중동 1031-2번지 골든벨타워 602호","indutype":"학원 - 보습학원","category":"study"},{"name":"이투스투포세븐입시학원","tel":"032-438-0247","addr":"경기도 부천시 중동 1031-2번지 골든벨타워 3층 301호","indutype":"학원 - 보습학원","category":"study"},{"name":"잇올스파르타독학재수입시학원","tel":"032-715-5852","addr":"경기도 부천시 중동 1031-2번지 골든벨타워 6층 601호 좌측일부","indutype":"학원 - 보습학원","category":"study"},{"name":"주식회사리딩타운부천","tel":"032-325-0509","addr":"경기도 부천시 중동 1031-2번지 골든벨빌딩 6층","indutype":"회원제형태 - 학원","category":"study"}]},{"lat":"37.503454162","long":"126.76401795","imageIndex":16,"items":[{"name":"리빙캐슬","tel":"032-356-0087","addr":"경기도 부천시 중동 1158-4번지 3층","indutype":"학원 - 독서실","category":"study"}]},{"lat":"37.502093835","long":"126.76410145","imageIndex":16,"items":[{"name":"마마몽떼 부천중동센터점","tel":"032-325-6315","addr":"경기도 부천시 중동 1160-3번지 필레오트원파크2동 211호","indutype":"학원 - 기타 교육기관","category":"study"},{"name":"보타닉수학교습소","tel":"070-7796-1024","addr":"경기도 부천시 중동 1160-3번지 필레오트윈파크2동 216호","indutype":"회원제형태 - 학원","category":"study"},{"name":"이인권실용음악교습소","tel":"032-324-3279","addr":"경기도 부천시 중동 1160-3 필레오트윈파크2 406","indutype":"회원제형태 - 학원","category":"study"},{"name":"중동오은령무용학원","tel":"032-613-3333","addr":"경기도 부천시 중동 1160-3번지 필레오트윈파크 3층 307호","indutype":"학원 - 예·체능계학원","category":"study"}]},{"lat":"37.504262063","long":"126.77621824","imageIndex":16,"items":[{"name":"마음케어클리닉","tel":"032-323-6072","addr":"경기도 부천시 중동 1062-1번지 두리프라자 402호","indutype":"학원 - 기타 교육기관","category":"study"},{"name":"째즈라인","tel":"032-326-1178","addr":"경기도 부천시 중동 1062-1번지 두리프라자 602호","indutype":"회원제형태 - 학원","category":"study"}]},{"lat":"37.501011384","long":"126.75907242","imageIndex":16,"items":[{"name":"맥스 (MAX)수학교실","tel":"032-323-7723","addr":"경기도 부천시 중동 1170번지 포도마을 삼보,영남아파트","indutype":"학원 - 기타 교육기관","category":"study"},{"name":"문정수오렌지미술학원","tel":"032-327-7729","addr":"경기도 부천시 중동 1170번지 포도마을삼보상가 307호","indutype":"학원 - 예·체능계학원","category":"study"},{"name":"미성피아노","tel":"031-000-0000","addr":"경기도 부천시 중동 1170번지 포도마을 삼보,영남아파트","indutype":"학원 - 예·체능계학원","category":"study"},{"name":"아카데미독서실","tel":"032-323-3354","addr":"경기도 부천시 중동 1170번지 삼보상가 305호 306호","indutype":"학원 - 독서실","category":"study"},{"name":"에스엠매쓰(SM Math)수학보습학원","tel":"032-327-1437","addr":"경기도 부천시 중동 1170번지 포도마을상보 상가 205호","indutype":"학원 - 보습학원","category":"study"},{"name":"엘피스영어교습소","tel":"032-326-0105","addr":"경기도 부천시 중동 1170번지 삼보상가 203호","indutype":"회원제형태 - 학원","category":"study"},{"name":"행복한음악학원","tel":"032-324-2353","addr":"경기도 부천시 중동 1170번지 유치원동 2층 일부 포도마을","indutype":"학원 - 예·체능계학원","category":"study"},{"name":"헤럴드수학보습학원","tel":"032-327-1280","addr":"경기도 부천시 중동 1170포도마을삼보상가3층311호","indutype":"학원 - 보습학원","category":"study"}]},{"lat":"37.512204681","long":"126.76496278","imageIndex":16,"items":[{"name":"모아영수보습학원","tel":"","addr":"경기도 부천시 중동 157-3번지 2동전체","indutype":"학원 - 보습학원","category":"study"}]},{"lat":"37.487179049","long":"126.77146445","imageIndex":16,"items":[{"name":"모여진색스폰실용음악학원","tel":"032-613-6041","addr":"경기도 부천시 중동 794-1번지 정화프라자 B동 502호","indutype":"학원 - 예·체능계학원","category":"study"}]},{"lat":"37.494008528","long":"126.76688631","imageIndex":16,"items":[{"name":"뮤엠영어 중동점","tel":"032-655-0579","addr":"경기도 부천시 중동 749-16번지 4층","indutype":"학원 - 외국어학원","category":"study"}]},{"lat":"37.508673644","long":"126.76990518","imageIndex":16,"items":[{"name":"뮤엠영어설악보습학원","tel":"032-323-3793","addr":"경기도 부천시 중동 1051-1번지 일부 303호","indutype":"학원 - 보습학원","category":"study"},{"name":"예란음악학원","tel":"032-324-0941","addr":"경기도 부천시 중동 1051-1번지 2층 205호","indutype":"회원제형태 - 학원","category":"study"},{"name":"올림픽태권도장","tel":"032-325-5900","addr":"경기도 부천시 중동 1051-1번지 302호","indutype":"학원 - 예·체능계학원","category":"study"},{"name":"중동탑보습학원","tel":"032-325-1161","addr":"경기도 부천시 중동 1051-1번지 3층","indutype":"학원 - 보습학원","category":"study"},{"name":"키즈갤러리","tel":"070-7548-7542","addr":"경기도 부천시 중동 1051-1번지 303호 일부","indutype":"학원 - 예·체능계학원","category":"study"}]},{"lat":"37.495626803","long":"126.77426542","imageIndex":16,"items":[{"name":"미대입시아트팩토리미술교습소","tel":"031-323-5880","addr":"경기도 부천시 중동 1185-2번지 2층 206호","indutype":"학원 - 예·체능계학원","category":"study"},{"name":"서울대언어논술닥터","tel":"032-667-3993","addr":"경기도 부천시 중동 1185-2번지 그린타워금호한양상가 209호","indutype":"회원제형태 - 학원","category":"study"},{"name":"탑(TOP)","tel":"","addr":"경기도 부천시 중동 1185-2번지 그린타운 금호,한양아파트","indutype":"학원 - 기타 교육기관","category":"study"}]},{"lat":"37.507008699","long":"126.77549742","imageIndex":16,"items":[{"name":"미래요양보호사교육원","tel":"032-326-4656","addr":"경기도 부천시 중동 1060-3번지 하성빌딩 5층","indutype":"학원 - 기능학원","category":"study"},{"name":"아트프렌즈","tel":"032-325-7797","addr":"경기도 부천시 중동 1060-3번지 하성빌딩 5층","indutype":"학원 - 기타 교육기관","category":"study"},{"name":"주식회사미래인재교육재단","tel":"032-326-4656","addr":"경기도 부천시 중동 1060-3번지 하성빌딩 5층","indutype":"회원제형태 - 학원","category":"study"}]},{"lat":"37.505040192","long":"126.76415992","imageIndex":16,"items":[{"name":"미엘음악학원","tel":"032-323-9941","addr":"경기도 부천시 중동 1033-2번지 금영프라자2차 505호","indutype":"학원 - 예·체능계학원","category":"study"},{"name":"시크릿(Secret)과학보습학원","tel":"032-349-5000","addr":"경기도 부천시 중동 1033-2번지 금영프라자2차 605호","indutype":"학원 - 보습학원","category":"study"},{"name":"양지요리학원","tel":"032-327-6622","addr":"경기도 부천시 중동 1033-2번지 금영프라자2차 502호","indutype":"학원 - 기타 교육기관","category":"study"},{"name":"탑논술입시학원","tel":"032-326-6381","addr":"경기도 부천시 중동 1033-2번지 금영프라자2차 503,504호","indutype":"학원 - 보습학원","category":"study"},{"name":"토즈스터디센터 부천시청역독서실","tel":"032-323-8264","addr":"경기도 부천시 중동 1033-2번지 금영프라자2차 202호","indutype":"학원 - 독서실","category":"study"},{"name":"후니홀릭수능작전소입시학원","tel":"032-322-9882","addr":"경기도 부천시 중동 1033-2번지 금영프라자2차 402,503,504호","indutype":"학원 - 보습학원","category":"study"}]},{"lat":"37.487674814","long":"126.77157599","imageIndex":16,"items":[{"name":"미우벨리댄스학원","tel":"032-227-7095","addr":"경기도 부천시 중동 792-2번지 2층","indutype":"학원 - 예·체능계학원","category":"study"}]},{"lat":"37.501011119","long":"126.77240565","imageIndex":16,"items":[{"name":"박미숙뮤직스토리음악학원","tel":"032-328-0556","addr":"경기도 부천시 중동 1144-1번지 굿모닝위너스텔3차 207호","indutype":"학원 - 예·체능계학원","category":"study"},{"name":"아이엠에스 (IMS)영어마을학원","tel":"032-326-1303","addr":"경기도 부천시 중동 1144-1번지 굿모닝위너스텔3차 202호,203호","indutype":"학원 - 외국어학원","category":"study"}]},{"lat":"37.508232777","long":"126.76124308","imageIndex":16,"items":[{"name":"반석음악미술컴퓨터(코딩)학원","tel":"032-324-7776","addr":"경기도 부천시 중동 1030-1번지 3층 일부","indutype":"학원 - 예·체능계학원","category":"study"}]},{"lat":"37.502618346","long":"126.77418756","imageIndex":16,"items":[{"name":"밸런스브레인 부천센터","tel":"032-326-2143","addr":"경기도 부천시 중동 1141-5번지 다운타운 8층 803호","indutype":"학원 - 기타 교육기관","category":"study"},{"name":"보컬전문 커뮤니티공간 노래를 배우다.","tel":"032-323-2974","addr":"경기도 부천시 중동 1141-5번지 다운타운 7층 730-745호","indutype":"학원 - 예·체능계학원","category":"study"},{"name":"볼쇼이발레아카데미무용학원","tel":"032-321-0602","addr":"경기도 부천시 중동 1141-5 다운타운2층 202","indutype":"회원제형태 - 학원","category":"study"},{"name":"부천실용음악학원","tel":"032-328-4482","addr":"경기도 부천시 중동 1141-5번지 다운타운빌딩 301호","indutype":"학원 - 기타 교육기관","category":"study"},{"name":"비츠교육","tel":"032-326-4792","addr":"경기도 부천시 중동 1141-5번지 다운타운 604호","indutype":"학원 - 기타 교육기관","category":"study"}]},{"lat":"37.494094272","long":"126.77382908","imageIndex":16,"items":[{"name":"부곡피아노","tel":"032-661-5556","addr":"경기도 부천시 중동 1210-9번지","indutype":"학원 - 예·체능계학원","category":"study"}]},{"lat":"37.495735362","long":"126.76535428","imageIndex":16,"items":[{"name":"부천기타교습소","tel":"032-663-3609","addr":"경기도 부천시 중동 712-7번지 2층","indutype":"학원 - 예·체능계학원","category":"study"},{"name":"수학을말하다수학교습소","tel":"032-665-1331","addr":"경기도 부천시 중동 712-7번지 4층 전체","indutype":"학원 - 보습학원","category":"study"}]},{"lat":"37.507648028","long":"126.77530321","imageIndex":16,"items":[{"name":"부천위드피아노실용음악학원","tel":"","addr":"경기도 부천시 중동 1060번지 일양빌딩 4층","indutype":"학원 - 예·체능계학원","category":"study"}]},{"lat":"37.502786833","long":"126.77279601","imageIndex":16,"items":[{"name":"부천중동간호학원","tel":"032-324-7990","addr":"경기도 부천시 중동 1141-1번지 무광오피스빌딩502호,703호일부","indutype":"회원제형태 - 학원","category":"study"},{"name":"실용교육사회적협동조합","tel":"032-716-6255","addr":"경기도 부천시 중동 1141-1번지 무광오피스 802호","indutype":"학원 - 기타 교육기관","category":"study"}]},{"lat":"37.504454216","long":"126.76849331","imageIndex":16,"items":[{"name":"부천중동민병철주니어어학원","tel":"032-226-0505","addr":"경기도 부천시 중동 1035-2번지 하나빌딩 501호","indutype":"회원제형태 - 학원","category":"study"}]},{"lat":"37.493431557","long":"126.76671851","imageIndex":16,"items":[{"name":"부천중동작심독서실","tel":"032-666-0910","addr":"경기도 부천시 중동 752-3번지 3층","indutype":"학원 - 독서실","category":"study"}]},{"lat":"37.508452517","long":"126.7629615","imageIndex":16,"items":[{"name":"부천태권도장","tel":"032-325-9697","addr":"경기도 부천시 중동 1028-1번지 3층 302호","indutype":"학원 - 예·체능계학원","category":"study"},{"name":"삼성영어한라마을보습학원","tel":"032-111-1111","addr":"경기도 부천시 중동 1028-1번지 2층 201호","indutype":"학원 - 보습학원","category":"study"},{"name":"중원보습학원","tel":"032-323-9804","addr":"경기도 부천시 중동 1028-1번지 일부 401호","indutype":"학원 - 기타 교육기관","category":"study"}]},{"lat":"37.50290235","long":"126.77197009","imageIndex":16,"items":[{"name":"사단법인 한국청소년심리상담협회","tel":"032-328-3828","addr":"경기도 부천시 중동 1148-2번지 중동대우마이빌2 211호","indutype":"학원 - 기타 교육기관","category":"study"}]},{"lat":"37.493676937","long":"126.77234903","imageIndex":16,"items":[{"name":"삼성영어부곡영어교습소","tel":"031-000-0000","addr":"경기도 부천시 중동 1203-13번지 1층","indutype":"학원 - 외국어학원","category":"study"}]},{"lat":"37.505288636","long":"126.76227043","imageIndex":16,"items":[{"name":"상상문화협동조합","tel":"032-323-0722","addr":"경기도 부천시 중동 1031-1번지 에스티마 1414호","indutype":"학원 - 기타 교육기관","category":"study"}]},{"lat":"37.493928155","long":"126.7627705","imageIndex":16,"items":[{"name":"새상지영어교습소","tel":"","addr":"경기도 부천시 중동 760-17번지 원진빌딩 3층","indutype":"학원 - 외국어학원","category":"study"},{"name":"새상지음악학원","tel":"032-656-6627","addr":"경기도 부천시 중동 760-17번지 3층","indutype":"학원 - 예·체능계학원","category":"study"}]},{"lat":"37.505978233","long":"126.77846368","imageIndex":16,"items":[{"name":"새샘음악학원","tel":"032-671-2114","addr":"경기도 부천시 중동 3-343번지 2층","indutype":"학원 - 예·체능계학원","category":"study"}]},{"lat":"37.505951989","long":"126.76505048","imageIndex":16,"items":[{"name":"샘발레","tel":"032-327-0204","addr":"경기도 부천시 중동 1037번지 대우동부상가 301호","indutype":"학원 - 예·체능계학원","category":"study"},{"name":"피카소 미술교습소","tel":"","addr":"경기도 부천시 중동 1037번지 206호","indutype":"학원 - 예·체능계학원","category":"study"}]},{"lat":"37.497652499","long":"126.77816065","imageIndex":16,"items":[{"name":"생각공장영어교습소","tel":"032-7527-6421","addr":"경기도 부천시 중동 1113번지 위브더스테이트 상가 7동 223호","indutype":"회원제형태 - 학원","category":"study"}]},{"lat":"37.49420679","long":"126.7669083","imageIndex":16,"items":[{"name":"서일영어교습소","tel":"032-661-9232","addr":"경기도 부천시 중동 720-1번지 2층","indutype":"학원 - 외국어학원","category":"study"}]},{"lat":"37.496702421","long":"126.77604885","imageIndex":16,"items":[{"name":"서일입시학원","tel":"032-663-9993","addr":"경기도 부천시 중동 1128-2번지 한양프라자303호일부,304호일부,305호","indutype":"회원제형태 - 학원","category":"study"},{"name":"제2관TheDK(더디케이)보습학원","tel":"032-323-0515","addr":"경기도 부천시 중동 1128-2번지 한양프라자 5층 501호","indutype":"학원 - 보습학원","category":"study"},{"name":"주식회사씨아이티","tel":"032-325-6636","addr":"경기도 부천시 중동 1128-2번지 한양프라자 407호","indutype":"회원제형태 - 학원","category":"study"},{"name":"해라수학보습학원","tel":"02-1111-1111","addr":"경기도 부천시 중동 1128-2번지 한양프라자 501호","indutype":"학원 - 보습학원","category":"study"},{"name":"헬로치즈어학원","tel":"032-713-7994","addr":"경기도 부천시 중동 1128-2번지 한양프라자 3층 301,302,303,304호","indutype":"학원 - 외국어학원","category":"study"}]},{"lat":"37.503121529","long":"126.76438091","imageIndex":16,"items":[{"name":"성도고시텔","tel":"032-326-2936","addr":"경기도 부천시 중동 1158-8번지","indutype":"학원 - 독서실","category":"study"}]},{"lat":"37.503228936","long":"126.77779335","imageIndex":16,"items":[{"name":"세뜻중국어학원","tel":"032-662-3391","addr":"경기도 부천시 중동 1079-2번지 블래스랜드 201호","indutype":"회원제형태 - 학원","category":"study"}]},{"lat":"37.500259001","long":"126.77021405","imageIndex":16,"items":[{"name":"셀파계남교실","tel":"","addr":"경기도 부천시 중동 1178번지 미리내마을은하수타운 905동 609호","indutype":"학원 - 기타 교육기관","category":"study"}]},{"lat":"37.501010383","long":"126.78144149","imageIndex":16,"items":[{"name":"수정공부방","tel":"070-7551-3484","addr":"경기도 부천시 중동 1091-17번지 3층","indutype":"학원 - 기타 교육기관","category":"study"}]},{"lat":"37.507566702","long":"126.77055329","imageIndex":16,"items":[{"name":"수학의 달인","tel":"032-323-4571","addr":"경기도 부천시 중동 1051-12번지 설악마을 종합상가동 2층 205호","indutype":"학원 - 보습학원","category":"study"}]},{"lat":"37.494123709","long":"126.76591347","imageIndex":16,"items":[{"name":"스마트 아이뮤직","tel":"032-469-3781","addr":"경기도 부천시 중동 749-1번지 쌍둥이빌라 A동 401호","indutype":"학원 - 기타 교육기관","category":"study"}]},{"lat":"37.496569763","long":"126.7773497","imageIndex":16,"items":[{"name":"스카이빌고시텔","tel":"032-329-9308","addr":"경기도 부천시 중동 1125번지 다복빌딩 901호","indutype":"학원 - 독서실","category":"study"}]},{"lat":"37.502118315","long":"126.77188203","imageIndex":16,"items":[{"name":"스토리하우스","tel":"032-322-9466","addr":"경기도 부천시 중동 1147-7번지 세종프라자 3층","indutype":"학원 - 독서실","category":"study"}]},{"lat":"37.496508826","long":"126.7784694","imageIndex":16,"items":[{"name":"스튜디오구스또조리학원","tel":"032-621-8859","addr":"경기도 부천시 중동 1114번지 위브더스테이트 상가 9동 203호","indutype":"회원제형태 - 학원","category":"study"},{"name":"퀼른아카데미음악교습소","tel":"032-666-8788","addr":"경기도 부천시 중동 1114번지 위브더스테이트 9동 206호","indutype":"학원 - 예·체능계학원","category":"study"}]},{"lat":"37.5014549","long":"126.76898897","imageIndex":16,"items":[{"name":"슬램덩크 입시학원","tel":"032-329-0054","addr":"경기도 부천시 중동 1152번지 상록센트럴타워 503호,504호","indutype":"학원 - 보습학원","category":"study"},{"name":"애플짐","tel":"032-227-2002","addr":"경기도 부천시 중동 1152번지 상록센트럴타워 4층","indutype":"학원 - 기타 교육기관","category":"study"}]},{"lat":"37.495763817","long":"126.7616112","imageIndex":16,"items":[{"name":"신사고수학보습학원","tel":"032-655-0285","addr":"경기도 부천시 중동 681외1필지 경동빌딩2층전체","indutype":"학원 - 보습학원","category":"study"},{"name":"신사고영어보습학원","tel":"032-329-3440","addr":"경기도 부천시 중동 681번지 경동빌딩 6층","indutype":"학원 - 보습학원","category":"study"}]},{"lat":"37.501900395","long":"126.77102321","imageIndex":16,"items":[{"name":"싱글하우스(중동점)","tel":"070-7301-7574","addr":"경기도 부천시 중동 1146번지 하이베라스 206, 207호","indutype":"학원 - 독서실","category":"study"}]},{"lat":"37.494873037","long":"126.77121456","imageIndex":16,"items":[{"name":"아카데미라운지중동독서실","tel":"032-227-0058","addr":"경기도 부천시 중동 1208-2번지 3층 일부","indutype":"학원 - 독서실","category":"study"}]},{"lat":"37.501429606","long":"126.77918976","imageIndex":16,"items":[{"name":"알파@보습학원","tel":"070-8624-9114","addr":"경기도 부천시 중동 1104 꿈마을상가201호","indutype":"학원 - 보습학원","category":"study"},{"name":"용인대금성태권도","tel":"032-612-0027","addr":"경기도 부천시 중동 1104번지","indutype":"학원 - 예·체능계학원","category":"study"}]},{"lat":"37.493374932","long":"126.76099695","imageIndex":16,"items":[{"name":"앤디잉글리시아이 영어교습소","tel":"032-221-0509","addr":"경기도 부천시 중동 762-19번지 2층","indutype":"학원 - 외국어학원","category":"study"},{"name":"패스파인더잉글리시클래스영어교습소","tel":"070-7677-0428","addr":"경기도 부천시 중동 762-19번지 2층","indutype":"학원 - 외국어학원","category":"study"}]},{"lat":"37.503122731","long":"126.77880019","imageIndex":16,"items":[{"name":"언어쓰클래스코칭앤멘토링","tel":"070-7303-6365","addr":"경기도 부천시 중동 1080-1번지 리치타운 901호","indutype":"학원 - 보습학원","category":"study"}]},{"lat":"37.495285832","long":"126.76138657","imageIndex":16,"items":[{"name":"에이플러스 과학나라 부천지사","tel":"032-668-3002","addr":"경기도 부천시 중동 730-3번지 3층","indutype":"학원 - 기타 교육기관","category":"study"}]},{"lat":"37.509535702","long":"126.76844349","imageIndex":16,"items":[{"name":"엘타토","tel":"032-325-6677","addr":"경기도 부천시 중동 1040번지 덕유마을주공3단지아파트","indutype":"회원제형태 - 학원","category":"study"}]},{"lat":"37.49898527","long":"126.77779478","imageIndex":16,"items":[{"name":"엠베스트SE (에스이)중동위브보습학원","tel":"032-661-8487","addr":"경기도 부천시 중동 1110번지 위브더스테이트 상가 5동 225호","indutype":"학원 - 보습학원","category":"study"}]},{"lat":"37.49712509","long":"126.7619913","imageIndex":16,"items":[{"name":"엠베스트SE중동선재보습학원","tel":"032-612-1055","addr":"경기도 부천시 중동 588-1번지 3층","indutype":"학원 - 보습학원","category":"study"}]},{"lat":"37.500315732","long":"126.78096857","imageIndex":16,"items":[{"name":"연수학교습소","tel":"032-614-8225","addr":"경기도 부천시 중동 1096-3번지 2층","indutype":"학원 - 보습학원","category":"study"}]},{"lat":"37.494153631","long":"126.76288286","imageIndex":16,"items":[{"name":"예빛창의미술교습소","tel":"","addr":"경기도 부천시 중동 733-16번지 1층","indutype":"학원 - 예·체능계학원","category":"study"}]},{"lat":"37.497819609","long":"126.76682909","imageIndex":16,"items":[{"name":"예음뮤직피아노교습소","tel":"032-324-1751","addr":"경기도 부천시 중동 1176-2 동신상가201호","indutype":"학원 - 예·체능계학원","category":"study"}]},{"lat":"37.494486209","long":"126.76696396","imageIndex":16,"items":[{"name":"예지학사보습학원","tel":"032-662-8325","addr":"경기도 부천시 중동 719-7번지 2층","indutype":"학원 - 보습학원","category":"study"},{"name":"이지영어교습소","tel":"032-611-0579","addr":"경기도 부천시 중동 719-7번지 3층","indutype":"학원 - 기타 교육기관","category":"study"}]},{"lat":"37.505597254","long":"126.76787901","imageIndex":16,"items":[{"name":"올인수학보습학원","tel":"032-323-1218","addr":"경기도 부천시 중동 1036번지 은하마을 상가동 205호","indutype":"학원 - 보습학원","category":"study"},{"name":"이화스터디","tel":"","addr":"경기도 부천시 중동 1036번지 은하마을 쌍용, 효성아파트","indutype":"학원 - 기타 교육기관","category":"study"},{"name":"중흥JUST ONE(저스트원)영수보습학원","tel":"032-329-2013","addr":"경기도 부천시 중동 1036번지 은하마을 205호","indutype":"학원 - 보습학원","category":"study"},{"name":"한국맘코칭센터","tel":"","addr":"경기도 부천시 중동 1036번지 은하마을 쌍용, 효성아파트","indutype":"학원 - 기타 교육기관","category":"study"}]},{"lat":"37.506318604","long":"126.77741085","imageIndex":16,"items":[{"name":"와이비엠영수입시학원","tel":"032-329-0505","addr":"경기도 부천시 중동 5-19번지 동도빌딩 3층","indutype":"학원 - 보습학원","category":"study"},{"name":"팀태권도","tel":"032-681-1236","addr":"경기도 부천시 중동 5-19번지 동진빌딩 2층","indutype":"학원 - 예·체능계학원","category":"study"}]},{"lat":"37.510927874","long":"126.76179992","imageIndex":16,"items":[{"name":"용인대S&S태권도","tel":"032-327-3315","addr":"경기도 부천시 중동 1027-2번지 왕성빌딩 101호","indutype":"학원 - 예·체능계학원","category":"study"}]},{"lat":"37.495483131","long":"126.7653777","imageIndex":16,"items":[{"name":"용인대유도체육관","tel":"032-653-8270","addr":"경기도 부천시 중동 711-12번지 현진빌딩","indutype":"학원 - 예·체능계학원","category":"study"}]},{"lat":"37.499980271","long":"126.77513423","imageIndex":16,"items":[{"name":"용인대하이유도관","tel":"0507-1334-3120","addr":"경기도 부천시 중동 1134-1번지 상지프라자 4층 405호","indutype":"학원 - 예·체능계학원","category":"study"}]},{"lat":"37.503178394","long":"126.76132723","imageIndex":16,"items":[{"name":"우리산소리빙텔","tel":"032-322-5115","addr":"경기도 부천시 중동 1162번지 뉴월드프라자 701,801호","indutype":"학원 - 독서실","category":"study"}]},{"lat":"37.497428812","long":"126.76071248","imageIndex":16,"items":[{"name":"원탑영어수학보습학원","tel":"032-323-7640","addr":"경기도 부천시 중동 1173-1번지 3층 305호","indutype":"학원 - 보습학원","category":"study"}]},{"lat":"37.500815608","long":"126.77379725","imageIndex":16,"items":[{"name":"위닝체대입시","tel":"070-8884-7679","addr":"경기도 부천시 중동 1144-5번지","indutype":"학원 - 예·체능계학원","category":"study"}]},{"lat":"37.493098192","long":"126.76671956","imageIndex":16,"items":[{"name":"유현피아노교습소","tel":"032-665-5665","addr":"경기도 부천시 중동 753번지 원진빌딩 3층","indutype":"학원 - 예·체능계학원","category":"study"}]},{"lat":"37.500958667","long":"126.77791326","imageIndex":16,"items":[{"name":"이새피아노교습소","tel":"032-663-4188","addr":"경기도 부천시 중동 1107번지 위브더스테이트 상가 2동 211호","indutype":"학원 - 예·체능계학원","category":"study"},{"name":"포니뮤직","tel":"","addr":"경기도 부천시 중동 1107번지","indutype":"학원 - 예·체능계학원","category":"study"}]},{"lat":"37.494819842","long":"126.77165573","imageIndex":16,"items":[{"name":"이지보습학원","tel":"032-656-2586","addr":"경기도 부천시 중동 1208-4번지 4층 401호","indutype":"학원 - 기타 교육기관","category":"study"}]},{"lat":"37.498926706","long":"126.77544276","imageIndex":16,"items":[{"name":"이챕터스중동영어보습학원","tel":"032-321-2880","addr":"경기도 부천시 중동 1129번지 이스타타워원 202호","indutype":"학원 - 보습학원","category":"study"},{"name":"잉글리쉬무무제2보습학원","tel":"032-329-0599","addr":"경기도 부천시 중동 1129번지 이스트타워원 202호","indutype":"학원 - 보습학원","category":"study"},{"name":"컴즈뮤직(Combs music)음악교습소","tel":"070-7761-1106","addr":"경기도 부천시 중동 1129번지 이스트타워 원 8층 804호","indutype":"학원 - 예·체능계학원","category":"study"},{"name":"플랜에이 독서실","tel":"032-312-0222","addr":"경기도 부천시 중동 1129번지 501,502호 일부","indutype":"학원 - 독서실","category":"study"}]},{"lat":"37.494455279","long":"126.7650191","imageIndex":16,"items":[{"name":"인희원음악학원","tel":"032-652-4749","addr":"경기도 부천시 중동 723-4번지 2층","indutype":"학원 - 예·체능계학원","category":"study"}]},{"lat":"37.496062272","long":"126.76216434","imageIndex":16,"items":[{"name":"제네시스수학입시학원","tel":"070-2699-0807","addr":"경기도 부천시 중동 682번지 서천빌딩 601호","indutype":"학원 - 보습학원","category":"study"},{"name":"주식회사 송현","tel":"032-665-4237","addr":"경기도 부천시 중동 682번지 이원빌딩 3층 302,303호","indutype":"학원 - 보습학원","category":"study"},{"name":"채움보습학원","tel":"070-2699-0807","addr":"경기도 부천시 중동 682번지 서천빌딩 501호","indutype":"학원 - 보습학원","category":"study"},{"name":"하이엔드입시학원","tel":"032-612-8202","addr":"경기도 부천시 중동 682번지 서천빌딩 7층 701호","indutype":"학원 - 보습학원","category":"study"}]},{"lat":"37.506347405","long":"126.76905287","imageIndex":16,"items":[{"name":"제이퍼니음악미술보습학원","tel":"032-323-6868","addr":"경기도 부천시 중동 1039-2번지 301호","indutype":"학원 - 예·체능계학원","category":"study"},{"name":"해동검도","tel":"032-326-6886","addr":"경기도 부천시 중동 1039-2번지 동화교육센터지 지하층","indutype":"학원 - 예·체능계학원","category":"study"}]},{"lat":"37.497927133","long":"126.7757172","imageIndex":16,"items":[{"name":"조은쌤장쌤영어보습학원","tel":"032-243-4860","addr":"경기도 부천시 중동 1129-3번지 중동공영노외주차장 2층 204호","indutype":"학원 - 보습학원","category":"study"},{"name":"조은쌤장쌤영어보습학원","tel":"032-243-4860","addr":"경기도 부천시 중동 1129-3번지","indutype":"학원 - 보습학원","category":"study"}]},{"lat":"37.501178059","long":"126.77485918","imageIndex":16,"items":[{"name":"주니어스포츠클럽","tel":"","addr":"경기도 부천시 중동 1138-1번지 조이럭타운 601호","indutype":"학원 - 예·체능계학원","category":"study"},{"name":"토토리빙텔","tel":"032-327-3309","addr":"경기도 부천시 중동 1138-1번지 4층","indutype":"학원 - 독서실","category":"study"}]},{"lat":"37.504400875","long":"126.76885538","imageIndex":16,"items":[{"name":"주식회사 다온에듀","tel":"032-326-4325","addr":"경기도 부천시 중동 1035-3번지 506,507호","indutype":"학원 - 보습학원","category":"study"},{"name":"플래뮤아트센터부천미술학원","tel":"032-321-1110","addr":"경기도 부천시 중동 1035-3번지 중동메디칼 501,502호","indutype":"학원 - 예·체능계학원","category":"study"}]},{"lat":"37.504232257","long":"126.77015648","imageIndex":16,"items":[{"name":"주식회사 로랜드에듀케이션","tel":"032-324-0580","addr":"경기도 부천시 중동 1056-2번지 대일빌딩 2층 203호","indutype":"학원 - 외국어학원","category":"study"},{"name":"한국외식조리직업전문학교","tel":"032-614-1500","addr":"경기도 부천시 중동 1056-2번지 대일빌딩 3층~5층","indutype":"학원 - 기타 교육기관","category":"study"}]},{"lat":"37.504514231","long":"126.77616093","imageIndex":16,"items":[{"name":"주식회사율곡교육","tel":"032-327-1090","addr":"경기도 부천시 중동 1062번지 뉴월드프라자 5층 501호","indutype":"회원제형태 - 학원","category":"study"}]},{"lat":"37.497765447","long":"126.77133001","imageIndex":16,"items":[{"name":"중1동주민자치위원회","tel":"032-625-5846","addr":"경기도 부천시 중동 1184번지 중앙공원길190","indutype":"학원 - 기타 교육기관","category":"study"}]},{"lat":"37.503679816","long":"126.77799557","imageIndex":16,"items":[{"name":"중3동주민자치위원회","tel":"032-625-5887","addr":"경기도 부천시 중동 1078-4번지","indutype":"학원 - 기타 교육기관","category":"study"}]},{"lat":"37.496121802","long":"126.76937877","imageIndex":16,"items":[{"name":"중동그린타운해법영어교습소","tel":"032-323-0505","addr":"경기도 부천시 중동 1183번지 한신 상가동 206호","indutype":"학원 - 외국어학원","category":"study"},{"name":"한국영재교육","tel":"032-328-0579","addr":"경기도 부천시 중동 1183번지 그린타운한신아파트","indutype":"학원 - 기타 교육기관","category":"study"}]},{"lat":"37.500869031","long":"126.77346912","imageIndex":16,"items":[{"name":"중동리딩뱅크독서실","tel":"032-323-0979","addr":"경기도 부천시 중동 1144-4번지 801호,803호 일부","indutype":"학원 - 독서실","category":"study"},{"name":"하루수학보습학원","tel":"032-323-1175","addr":"경기도 부천시 중동 1144-4번지 탑프라자 402호","indutype":"학원 - 보습학원","category":"study"}]},{"lat":"37.492846571","long":"126.76704828","imageIndex":16,"items":[{"name":"중동비상보습학원","tel":"032-327-2004","addr":"경기도 부천시 중동 772번지 5층","indutype":"학원 - 보습학원","category":"study"}]},{"lat":"37.500895357","long":"126.77310716","imageIndex":16,"items":[{"name":"지오엠(GOM)수학보습학원","tel":"032-329-1230","addr":"경기도 부천시 중동 1144-3 307호(중동 디아뜨갤러리).","indutype":"학원 - 보습학원","category":"study"}]},{"lat":"37.496369274","long":"126.77616294","imageIndex":16,"items":[{"name":"진수학보습학원","tel":"032-328-2018","addr":"경기도 부천시 중동 1123번지 금호프라자 6층 603호","indutype":"학원 - 보습학원","category":"study"}]},{"lat":"37.496373719","long":"126.76468507","imageIndex":16,"items":[{"name":"진영수학영어보습학원","tel":"032-666-8749","addr":"경기도 부천시 중동 628-7번지 드림씨티빌딩 402호","indutype":"학원 - 보습학원","category":"study"}]},{"lat":"37.495037222","long":"126.78166267","imageIndex":16,"items":[{"name":"창의스쿨","tel":"032-8175-0210","addr":"경기도 부천시 중동 1099-2번지 연화마을건영캐스빌아파트","indutype":"회원제형태 - 학원","category":"study"}]},{"lat":"37.495539436","long":"126.76649702","imageIndex":16,"items":[{"name":"초석검도관","tel":"032-653-2020","addr":"경기도 부천시 중동 713-3번지 2층","indutype":"학원 - 예·체능계학원","category":"study"}]},{"lat":"37.4974288123","long":"126.7607124782","imageIndex":16,"items":[{"name":"초원음악학원","tel":"032-321-5338","addr":"경기도 부천시 중동 1173-1번지","indutype":"학원 - 기타 교육기관","category":"study"}]},{"lat":"37.501401623","long":"126.76938495","imageIndex":16,"items":[{"name":"카르포스입시학원","tel":"032-322-2344","addr":"경기도 부천시 중동 1152-1번지 루미아트클래식 206호","indutype":"회원제형태 - 학원","category":"study"}]},{"lat":"37.492345168","long":"126.76863292","imageIndex":16,"items":[{"name":"콕수학오두리영어보습학원","tel":"070-7757-1935","addr":"경기도 부천시 중동 775-2번지 2층","indutype":"학원 - 보습학원","category":"study"}]},{"lat":"37.495982817","long":"126.76296747","imageIndex":16,"items":[{"name":"토즈스터디센터 중동2 독서실","tel":"032-666-1992","addr":"경기도 부천시 중동 682-5번지 3층과 4층","indutype":"학원 - 독서실","category":"study"}]},{"lat":"37.502926002","long":"126.76127149","imageIndex":16,"items":[{"name":"토토리빙텔(부천현대점)","tel":"032-327-1808","addr":"경기도 부천시 중동 1162-9번지 새롬프라자 6층 601호 602호","indutype":"학원 - 독서실","category":"study"}]},{"lat":"37.497620506","long":"126.78029804","imageIndex":16,"items":[{"name":"통문장영어제임스영어교습소","tel":"032-665-0550","addr":"경기도 부천시 중동 1101번지 연화마을 상가동 204호","indutype":"회원제형태 - 학원","category":"study"}]},{"lat":"37.501541353","long":"126.77171417","imageIndex":16,"items":[{"name":"팀파이브 스포츠클럽","tel":"032-663-3631","addr":"경기도 부천시 중동 1146-4번지 무광프라자 302호","indutype":"학원 - 기타 교육기관","category":"study"}]},{"lat":"37.495565369","long":"126.76149875","imageIndex":16,"items":[{"name":"패스파인더어학원","tel":"070-7677-0428","addr":"경기도 부천시 중동 681-5번지 호원빌딩 5층","indutype":"학원 - 외국어학원","category":"study"}]},{"lat":"37.501456884","long":"126.77460953","imageIndex":16,"items":[{"name":"프라나요가단식센타","tel":"032-325-4857","addr":"경기도 부천시 중동 1138번지 호정프라자 505호","indutype":"회원제형태 - 학원","category":"study"}]},{"lat":"37.486704741","long":"126.76852616","imageIndex":16,"items":[{"name":"피아노스토리피아노교습소","tel":"032-613-5333","addr":"경기도 부천시 중동 852-3번지 1층","indutype":"학원 - 예·체능계학원","category":"study"}]},{"lat":"37.501286719","long":"126.76152557","imageIndex":16,"items":[{"name":"피아노이야기음악교습소","tel":"032-322-0815","addr":"경기도 부천시 중동 1171번지 203호 중동신도시포도마을상가동203호","indutype":"학원 - 예·체능계학원","category":"study"}]},{"lat":"37.501152844","long":"126.77116123","imageIndex":16,"items":[{"name":"한Q(큐) 수학교습소","tel":"","addr":"경기도 부천시 중동 1145-1번지 메트로팰리스2차 210-3호","indutype":"학원 - 보습학원","category":"study"}]},{"lat":"37.493955271","long":"126.77185063","imageIndex":16,"items":[{"name":"한솔플러스수학교실","tel":"","addr":"경기도 부천시 중동 1206-10번지","indutype":"학원 - 기타 교육기관","category":"study"}]},{"lat":"37.501869871","long":"126.77385057","imageIndex":16,"items":[{"name":"한주요리제과커피직업전문학교","tel":"032-322-5250","addr":"경기도 부천시 중동 1142-12번지 3층","indutype":"회원제형태 - 학원","category":"study"}]},{"lat":"37.509205952","long":"126.76574139","imageIndex":16,"items":[{"name":"해피플러스","tel":"032-322-7131","addr":"경기도 부천시 중동 1041번지","indutype":"회원제형태 - 학원","category":"study"}]},{"lat":"37.503151942","long":"126.76161004","imageIndex":16,"items":[{"name":"해피하우스원룸텔","tel":"032-325-9832","addr":"경기도 부천시 중동 1162-1번지 7층 701,702,704호","indutype":"학원 - 독서실","category":"study"},{"name":"해피하우스텔","tel":"032-325-9382","addr":"경기도 부천시 중동 1162-1번지 화이트밸리 701호~705호","indutype":"학원 - 독서실","category":"study"}]},{"lat":"37.51120525","long":"126.76529396","imageIndex":16,"items":[{"name":"향숙수학","tel":"070-8869-2694","addr":"경기도 부천시 중동 1044-5번지","indutype":"학원 - 보습학원","category":"study"}]},{"lat":"37.49484645","long":"126.7714408","imageIndex":16,"items":[{"name":"현음악학원","tel":"032-662-2298","addr":"경기도 부천시 중동 1208-3번지 4층","indutype":"학원 - 예·체능계학원","category":"study"}]},{"lat":"37.494398013","long":"126.77249382","imageIndex":16,"items":[{"name":"호산나 피아노 교습소","tel":"032-665-1040","addr":"경기도 부천시 중동 1204-11번지 1층 일부","indutype":"학원 - 예·체능계학원","category":"study"}]},{"lat":"37.496181604","long":"126.77696639","imageIndex":16,"items":[{"name":"황토방고시텔","tel":"032-322-3273","addr":"경기도 부천시 중동 1124-12번지 상문프라자 3층","indutype":"학원 - 독서실","category":"study"}]},{"lat":"37.502264855","long":"126.77310296","imageIndex":16,"items":[{"name":"휴먼리빙텔","tel":"070-7529-8843","addr":"경기도 부천시 중동 1142-4번지 301,302호","indutype":"학원 - 독서실","category":"study"}]}]