[{"lat":"37.525423873","long":"126.82178933","imageIndex":17,"items":[{"name":"(구제)몽땅내꺼","tel":"032-676-5090","addr":"경기도 부천시 고강동 399-2번지 1층 일부","indutype":"의류 - 기타의류","category":"other"}]},{"lat":"37.528063515","long":"126.82162457","imageIndex":17,"items":[{"name":"(사)곰두리중증장애인교통복지협회","tel":"032-715-6563","addr":"경기도 부천시 고강동 391-2번지 2호","indutype":"신변잡화 - 기타잡화","category":"other"},{"name":"대성지물포","tel":"032-681-8956","addr":"경기도 부천시 고강동 391-2번지","indutype":"직물 - 카페트,커튼,천막,지물","category":"other"},{"name":"우리강아지","tel":"032-671-0097","addr":"경기도 부천시 고강동 391-2번지 1층","indutype":"문화.취미 - 애완동물","category":"other"}]},{"lat":"37.526867454","long":"126.81162691","imageIndex":17,"items":[{"name":"(영인당)","tel":"032-676-1786","addr":"경기도 부천시 고강동 292-8번지 부촌아파트","indutype":"기타 - 기타 전문점","category":"other"}]},{"lat":"37.524123637","long":"126.81423578","imageIndex":17,"items":[{"name":"(주)보그린","tel":"032-675-3900","addr":"경기도 부천시 고강동 336-1번지","indutype":"주방용구 - 주방용구","category":"other"}]},{"lat":"37.52298169","long":"126.81568662","imageIndex":17,"items":[{"name":"(주)신조아트","tel":"032-676-8811","addr":"경기도 부천시 고강동 343-1번지","indutype":"신변잡화 - 가방","category":"other"},{"name":"한국종합물물교환","tel":"032-677-4949","addr":"경기도 부천시 고강동 343-1번지 1층","indutype":"가구 - 일반가구","category":"other"}]},{"lat":"37.522425986","long":"126.81187581","imageIndex":17,"items":[{"name":"(주)유니커즈","tel":"070-8884-6927","addr":"경기도 부천시 고강동 296-2번지","indutype":"의류 - 아동의류","category":"other"}]},{"lat":"37.52459135","long":"126.82534347","imageIndex":17,"items":[{"name":"(주)천지산업","tel":"032-683-8443","addr":"경기도 부천시 고강동 417-10번지 2층","indutype":"신변잡화 - 가방","category":"other"}]},{"lat":"37.52798428","long":"126.81702037","imageIndex":17,"items":[{"name":"GO릴라캠핑 부천점","tel":"070-4151-7321","addr":"경기도 부천시 고강동 369번지 202호","indutype":"레져용품 - 스포츠·레져용품","category":"other"},{"name":"윤갤러리","tel":"032-562-5320","addr":"경기도 부천시 고강동 369번지 한일빌딩 1층 107호","indutype":"문화.취미 - 화원","category":"other"}]},{"lat":"37.526842159","long":"126.81838074","imageIndex":17,"items":[{"name":"GS25고강본점","tel":"","addr":"경기도 부천시 고강동 377-4번지 1층","indutype":"유통업 영리 - 편 의 점","category":"other"}]},{"lat":"37.524954214","long":"126.82104384","imageIndex":17,"items":[{"name":"GS25고강우영점","tel":"032-677-9306","addr":"경기도 부천시 고강동 400번지 102동 103호","indutype":"유통업 영리 - 편 의 점","category":"other"}]},{"lat":"37.528537192","long":"126.81343275","imageIndex":17,"items":[{"name":"GS25고강제일시장점","tel":"","addr":"경기도 부천시 고강동 311-5번지","indutype":"유통업 영리 - 편 의 점","category":"other"}]},{"lat":"37.525257415","long":"126.8249007","imageIndex":17,"items":[{"name":"GS25고강중앙점","tel":"","addr":"경기도 부천시 고강동 415-5번지 1층","indutype":"유통업 영리 - 편 의 점","category":"other"},{"name":"대성컴퓨터","tel":"032-676-7333","addr":"경기도 부천시 고강동 415-5번지 1층 가운데","indutype":"사무통신 - 컴퓨터","category":"other"}]},{"lat":"37.522560328","long":"126.81137773","imageIndex":17,"items":[{"name":"GS25고강파크점","tel":"","addr":"경기도 부천시 고강동 296번지 리첸힐스 101호","indutype":"유통업 영리 - 편 의 점","category":"other"}]},{"lat":"37.530591997","long":"126.81949153","imageIndex":17,"items":[{"name":"GS25고강행복점","tel":"","addr":"경기도 부천시 고강동 354-15번지 1층","indutype":"유통업 영리 - 편 의 점","category":"other"}]},{"lat":"37.525182266","long":"126.81141628","imageIndex":17,"items":[{"name":"GS25부천고강점","tel":"","addr":"경기도 부천시 고강동 294-20번지 가-101","indutype":"유통업 영리 - 편 의 점","category":"other"},{"name":"세븐일레븐부천고강점","tel":"","addr":"경기도 부천시 고강동 294-20번지 경성아트빌리지 가동 101호","indutype":"유통업 영리 - 편 의 점","category":"other"}]},{"lat":"37.523038543","long":"126.82328832","imageIndex":17,"items":[{"name":"GS25부천은행점","tel":"","addr":"경기도 부천시 고강동 555-3번지 1층","indutype":"유통업 영리 - 편 의 점","category":"other"}]},{"lat":"37.52530997","long":"126.82390507","imageIndex":17,"items":[{"name":"HERB International","tel":"032-342-3938","addr":"경기도 부천시 고강동 416-1번지 1층일부","indutype":"건축자재 - 인테리어전문","category":"other"},{"name":"마실","tel":"032-671-7729","addr":"경기도 부천시 고강동 416-1번지 1층","indutype":"의류 - 정장","category":"other"}]},{"lat":"37.527429163","long":"126.81354868","imageIndex":17,"items":[{"name":"IVORY(아이보리)","tel":"031-1111-1111","addr":"경기도 부천시 고강동 321-11번지 1층 일부","indutype":"의류 - 정장","category":"other"}]},{"lat":"37.523845882","long":"126.81520934","imageIndex":17,"items":[{"name":"J&P엔터테인먼트","tel":"032-671-0104","addr":"경기도 부천시 고강동 338-12번지 상구빌딩 지층 1호","indutype":"용역 서비스 - 종합용역","category":"other"},{"name":"용근패션","tel":"032-675-6190","addr":"경기도 부천시 고강동 338-12번지 1층","indutype":"의류 - 정장","category":"other"},{"name":"해피라이프","tel":"032-681-7688","addr":"경기도 부천시 고강동 338-12번지 삼구빌딩 101호","indutype":"전기제품 - 가전제품","category":"other"}]},{"lat":"37.527900782","long":"126.82126295","imageIndex":17,"items":[{"name":"J.G 도어락","tel":"070-7123-8502","addr":"경기도 부천시 고강동 391-1번지 진영아파트","indutype":"수리서비스 - 기타수리서비스","category":"other"}]},{"lat":"37.530369444","long":"126.82123434","imageIndex":17,"items":[{"name":"MADE/통판","tel":"032-671-5111","addr":"경기도 부천시 고강동 357-17번지 1층","indutype":"별도관리 - 일반(통신판매)","category":"other"}]},{"lat":"37.524813707","long":"126.82343112","imageIndex":17,"items":[{"name":"MK유통","tel":"02-1588-0577","addr":"경기도 부천시 고강동 419번지 3층 호","indutype":"신변잡화 - 기타잡화","category":"other"}]},{"lat":"37.530453475","long":"126.82315741","imageIndex":17,"items":[{"name":"NS산업","tel":"032-682-9492","addr":"경기도 부천시 고강동 246번지 1층","indutype":"가구 - 일반가구","category":"other"},{"name":"성원ENC","tel":"032-672-1993","addr":"경기도 부천시 고강동 246번지 1층","indutype":"전기제품 - 냉열기기","category":"other"}]},{"lat":"37.525482542","long":"126.82482098","imageIndex":17,"items":[{"name":"O.S디자인","tel":"032-673-2019","addr":"경기도 부천시 고강동 415-3번지","indutype":"건축자재 - 인테리어전문","category":"other"},{"name":"주식회사에코스토리","tel":"032-0000-0000","addr":"경기도 부천시 고강동 415-3번지","indutype":"유통업 영리 - 기타유통업","category":"other"},{"name":"충남철물","tel":"032-682-1046","addr":"경기도 부천시 고강동 415-3번지 1층","indutype":"건축자재 - 목재·석재·철물","category":"other"}]},{"lat":"37.521580811","long":"126.81296392","imageIndex":17,"items":[{"name":"Rosaviola","tel":"032-571-4708","addr":"경기도 부천시 고강동 301-2번지 진양리더빌 1동 503호","indutype":"의류 - 기타의류","category":"other"}]},{"lat":"37.529198105","long":"126.81543351","imageIndex":17,"items":[{"name":"SW케어시스템","tel":"","addr":"경기도 부천시 고강동 284-14번지","indutype":"용역 서비스 - 기타용역서비스","category":"other"}]},{"lat":"37.526706119","long":"126.82365285","imageIndex":17,"items":[{"name":"Y.J.GOLF","tel":"032-679-2336","addr":"경기도 부천시 고강동 409-2번지","indutype":"레져용품 - 골프용품 전문점","category":"other"}]},{"lat":"37.531646324","long":"126.81960209","imageIndex":17,"items":[{"name":"j&b하우징","tel":"032-677-7091","addr":"경기도 부천시 고강동 263-4번지","indutype":"건축자재 - 기타건축자재","category":"other"}]},{"lat":"37.529759079","long":"126.82274048","imageIndex":17,"items":[{"name":"가야유통","tel":"032-651-1514","addr":"경기도 부천시 고강동 313-48번지 고강동리치빌 A동 301호","indutype":"유통업 영리 - 기타유통업","category":"other"}]},{"lat":"37.524928301","long":"126.81598719","imageIndex":17,"items":[{"name":"가전가구알뜰매장","tel":"032-671-0121","addr":"경기도 부천시 고강동 345-26번지 대호빌리지2차","indutype":"전기제품 - 가전제품","category":"other"}]},{"lat":"37.527699549","long":"126.81360456","imageIndex":17,"items":[{"name":"가전가구할인매장","tel":"032-672-8259","addr":"경기도 부천시 고강동 321-21번지","indutype":"수리서비스 - 가정용품수리","category":"other"},{"name":"신안 씽크","tel":"070-8289-9905","addr":"경기도 부천시 고강동 321-21번지 지층","indutype":"주방용구 - 주방용구","category":"other"},{"name":"에이블컴퍼니","tel":"031-000-0000","addr":"경기도 부천시 고강동 321-21번지 3층","indutype":"신변잡화 - 기타잡화","category":"other"}]},{"lat":"37.53708762","long":"126.80793496","imageIndex":17,"items":[{"name":"강서광림상사","tel":"032-684-3731","addr":"경기도 부천시 고강동 169-11번지","indutype":"기타 - 기계공구","category":"other"},{"name":"광성공업사","tel":"032-676-4261","addr":"경기도 부천시 고강동 169-11번지","indutype":"건축자재 - 목재·석재·철물","category":"other"},{"name":"금강정밀(주)","tel":"032-676-8336","addr":"경기도 부천시 고강동 169-11번지","indutype":"건축자재 - 보일러·펌프·샷시","category":"other"},{"name":"태진기전","tel":"032-344-4821","addr":"경기도 부천시 고강동 169-11번지","indutype":"신변잡화 - 신발","category":"other"}]},{"lat":"37.526534211","long":"126.81735204","imageIndex":17,"items":[{"name":"개미사","tel":"032-673-6278","addr":"경기도 부천시 고강동 371-12번지 1층","indutype":"수리서비스 - 세탁소","category":"other"}]},{"lat":"37.526284976","long":"126.81929845","imageIndex":17,"items":[{"name":"개와고양이","tel":"032-683-2621","addr":"경기도 부천시 고강동 385-26번지","indutype":"문화.취미 - 애완동물","category":"other"},{"name":"블루가이","tel":"032-676-8981","addr":"경기도 부천시 고강동 385-26번지 1층","indutype":"기타 - 기타 전문점","category":"other"}]},{"lat":"37.521399064","long":"126.81200286","imageIndex":17,"items":[{"name":"경동종합상사","tel":"031-000-0000","addr":"경기도 부천시 고강동 298-14번지 금강주택 나동 201호","indutype":"용역 서비스 - 기타용역서비스","category":"other"}]},{"lat":"37.525810915","long":"126.82153952","imageIndex":17,"items":[{"name":"경서기획","tel":"032-681-1507","addr":"경기도 부천시 고강동 398-2번지 DH(주상복합)빌딩","indutype":"용역 서비스 - 종합용역","category":"other"},{"name":"대우지물포","tel":"032-671-4919","addr":"경기도 부천시 고강동 398-2번지 DH(주상복합)빌딩","indutype":"직물 - 카페트,커튼,천막,지물","category":"other"},{"name":"리바이크","tel":"032-327-3279","addr":"경기도 부천시 고강동 398-2번지 DH(주상복합)빌딩 110호","indutype":"레져용품 - 스포츠·레져용품","category":"other"},{"name":"조은신발","tel":"032-673-7086","addr":"경기도 부천시 고강동 398-2번지 DH(주상복합)빌딩","indutype":"신변잡화 - 신발","category":"other"}]},{"lat":"37.525061896","long":"126.82076076","imageIndex":17,"items":[{"name":"경일종합설비","tel":"032-262-2226","addr":"경기도 부천시 고강동 386-8번지 1층","indutype":"건축자재 - 목재·석재·철물","category":"other"}]},{"lat":"37.529533367","long":"126.82243557","imageIndex":17,"items":[{"name":"고강 홈 인테리어","tel":"031-7546-8385","addr":"경기도 부천시 고강동 358-5번지 상구빌딩","indutype":"건축자재 - 인테리어전문","category":"other"}]},{"lat":"37.528586987","long":"126.82221158","imageIndex":17,"items":[{"name":"고강BK스포츠센터","tel":"032-218-7654","addr":"경기도 부천시 고강동 393번지 고강빌딩지하2층,지하3층301호","indutype":"회원제형태 - 레져업소","category":"other"},{"name":"사랑채요양원","tel":"032-677-0492","addr":"경기도 부천시 고강동 393번지 301,302,402호","indutype":"기타의료기관 - 기타의료기관 및 기타","category":"other"}]},{"lat":"37.529260113","long":"126.81476587","imageIndex":17,"items":[{"name":"고강도장열쇠","tel":"070-8621-8600","addr":"경기도 부천시 고강동 286-1번지 1층 일부 동쪽한칸","indutype":"건축자재 - 목재·석재·철물","category":"other"}]},{"lat":"37.526117388","long":"126.82162928","imageIndex":17,"items":[{"name":"고강믿음정보","tel":"070-7840-1551","addr":"경기도 부천시 고강동 398번지 1층","indutype":"사무통신 - 통신기기","category":"other"},{"name":"엄머옷집","tel":"032-678-6286","addr":"경기도 부천시 고강동 398번지","indutype":"의류 - 정장","category":"other"}]},{"lat":"37.52847479","long":"126.81956459","imageIndex":17,"items":[{"name":"고강수산","tel":"032-111-1111","addr":"경기도 부천시 고강동 382-9번지 거성그린맨션 가동 402호","indutype":"회원제형태 - 기타1","category":"other"}]},{"lat":"37.528147035","long":"126.81173678","imageIndex":17,"items":[{"name":"고강수주점","tel":"032-683-9944","addr":"경기도 부천시 고강동 291-5번지 현대연립 D동 102호","indutype":"의류 - 내의판매","category":"other"},{"name":"다반사","tel":"032-676-7734","addr":"경기도 부천시 고강동 291-5번지 현대연립 D동 104호","indutype":"의류 - 기타의류","category":"other"},{"name":"성원상사(TRY)","tel":"032-684-3577","addr":"경기도 부천시 고강동 291-5번지 트라이브랜즈","indutype":"의류 - 내의판매","category":"other"},{"name":"스톱","tel":"032-682-3030","addr":"경기도 부천시 고강동 291-5번지 현대연립 D동 102호","indutype":"의류 - 정장","category":"other"}]},{"lat":"37.525371417","long":"126.81138186","imageIndex":17,"items":[{"name":"고강씽크","tel":"032-677-6915","addr":"경기도 부천시 고강동 293-7번지","indutype":"주방용구 - 주방용구","category":"other"},{"name":"우리보안","tel":"032-671-7018","addr":"경기도 부천시 고강동 293-7번지 상영빌딩 103호","indutype":"기타 - 기계공구","category":"other"}]},{"lat":"37.525955887","long":"126.82207086","imageIndex":17,"items":[{"name":"고강옷가게","tel":"032-673-6519","addr":"경기도 부천시 고강동 398-12번지 고강시장 다열 14호","indutype":"의류 - 정장","category":"other"}]},{"lat":"37.528258956","long":"126.81410092","imageIndex":17,"items":[{"name":"고강행텐주니어","tel":"032-677-2011","addr":"경기도 부천시 고강동 312번지","indutype":"의류 - 정장","category":"other"},{"name":"다이소 고강점","tel":"032-678-1110","addr":"경기도 부천시 고강동 312번지 지층 전체 및 1층 일부","indutype":"신변잡화 - 기타잡화","category":"other"},{"name":"벧엘장식","tel":"032-673-8216","addr":"경기도 부천시 고강동 312번지","indutype":"직물 - 카페트,커튼,천막,지물","category":"other"}]},{"lat":"37.530171523","long":"126.82142714","imageIndex":17,"items":[{"name":"고려돌쇠칼갈이","tel":"","addr":"경기도 부천시 고강동 360-17번지","indutype":"수리서비스 - 기타수리서비스","category":"other"}]},{"lat":"37.521594693","long":"126.81601813","imageIndex":17,"items":[{"name":"광고디자인사람인","tel":"032-671-4124","addr":"경기도 부천시 고강동 341-9번지 대원빌라 402호","indutype":"용역 서비스 - 사무서비스","category":"other"}]},{"lat":"37.528231166","long":"126.81362584","imageIndex":17,"items":[{"name":"광원종합","tel":"032-676-6589","addr":"경기도 부천시 고강동 312-1번지 402호","indutype":"건축자재 - 인테리어전문","category":"other"}]},{"lat":"37.523813374","long":"126.81179308","imageIndex":17,"items":[{"name":"광진상사","tel":"032-683-1531","addr":"경기도 부천시 고강동 295-1번지 플로리아","indutype":"유통업 영리 - 기타유통업","category":"other"},{"name":"금성사고강프라자","tel":"032-681-2121","addr":"경기도 부천시 고강동 295-1번지 플로리아","indutype":"전기제품 - 가전제품","category":"other"}]},{"lat":"37.526284623","long":"126.82495482","imageIndex":17,"items":[{"name":"광화문대리점","tel":"032-681-7764","addr":"경기도 부천시 고강동 329-2","indutype":"유통업 영리 - 기타유통업","category":"other"}]},{"lat":"37.527145795","long":"126.81666044","imageIndex":17,"items":[{"name":"굿데이24시","tel":"032-677-3733","addr":"경기도 부천시 고강동 347-1번지","indutype":"유통업 영리 - 편 의 점","category":"other"}]},{"lat":"37.527040323","long":"126.82420638","imageIndex":17,"items":[{"name":"귀뚜라미보일러","tel":"032-681-6613","addr":"경기도 부천시 고강동 410-4번지 1층 좌측 1층","indutype":"건축자재 - 보일러·펌프·샷시","category":"other"},{"name":"세영상사","tel":"032-671-3087","addr":"경기도 부천시 고강동 410-4번지","indutype":"유통업 영리 - 기타유통업","category":"other"},{"name":"아바타팬시문구","tel":"032-684-4940","addr":"경기도 부천시 고강동 410-4번지","indutype":"서적문구 - 문구용품","category":"other"}]},{"lat":"37.527508013","long":"126.81215699","imageIndex":17,"items":[{"name":"귀염둥이들","tel":"","addr":"경기도 부천시 고강동 310-24번지 조광프라자 1층 6호","indutype":"의류 - 정장","category":"other"},{"name":"라데에스","tel":"032-677-9832","addr":"경기도 부천시 고강동 310-24번지 조광프라자 106호","indutype":"의류 - 정장","category":"other"},{"name":"운동화손세탁이불","tel":"032-684-8284","addr":"경기도 부천시 고강동 310-24번지 외1필지","indutype":"수리서비스 - 세탁소","category":"other"},{"name":"주식회사 가파치","tel":"032-684-8670","addr":"경기도 부천시 고강동 310-24번지 조광프라자 지층 102호","indutype":"신변잡화 - 가방","category":"other"}]},{"lat":"37.523562103","long":"126.8124159","imageIndex":17,"items":[{"name":"규방애(  )","tel":"070-4064-0404","addr":"경기도 부천시 고강동 304-8번지 삼익주택 나동 2층 1호","indutype":"문화.취미 - 민예·공예품","category":"other"}]},{"lat":"37.526338609","long":"126.81332518","imageIndex":17,"items":[{"name":"그린LED","tel":"032-681-3304","addr":"경기도 부천시 고강동 308-32번지","indutype":"건축자재 - 조명기구","category":"other"},{"name":"풀칠상사","tel":"032-683-8734","addr":"경기도 부천시 고강동 308-32번지","indutype":"직물 - 카페트,커튼,천막,지물","category":"other"}]},{"lat":"37.534314531","long":"126.82043279","imageIndex":17,"items":[{"name":"그린식물원","tel":"032-672-1898","addr":"경기도 부천시 고강동 232번지","indutype":"문화.취미 - 화원","category":"other"}]},{"lat":"37.529399696","long":"126.8175712","imageIndex":17,"items":[{"name":"그린훼밀리크럽","tel":"032-681-5401","addr":"경기도 부천시 고강동 365-5번지 대성고강빌라 B102호","indutype":"전기제품 - 가전제품","category":"other"}]},{"lat":"37.526477435","long":"126.82140215","imageIndex":17,"items":[{"name":"금당","tel":"032-682-6710","addr":"경기도 부천시 고강동 389-4번지","indutype":"신변잡화 - 귀금속","category":"other"},{"name":"시크릿옷장","tel":"070-4325-8006","addr":"경기도 부천시 고강동 389-4번지 1층","indutype":"의류 - 정장","category":"other"},{"name":"진영텔레콤","tel":"032-683-3010","addr":"경기도 부천시 고강동 389-4번지 1층","indutype":"사무통신 - 통신기기","category":"other"},{"name":"혜성스튜디오","tel":"032-683-3763","addr":"경기도 부천시 고강동 389-4번지","indutype":"광학제품 - 사진관","category":"other"}]},{"lat":"37.528335728","long":"126.81141953","imageIndex":17,"items":[{"name":"김경애고전의상실","tel":"032-683-3824","addr":"경기도 부천시 고강동 291-6번지 현대연립 A동 103호","indutype":"의류 - 맞춤복점","category":"other"}]},{"lat":"37.524900429","long":"126.81545557","imageIndex":17,"items":[{"name":"김단영십자수(러브크로스)","tel":"032-671-3031","addr":"경기도 부천시 고강동 480-9번지 뉴월드맨션 상가 102호","indutype":"직물 - 침구·수예점","category":"other"},{"name":"명진광고","tel":"","addr":"경기도 부천시 고강동 480-9번지 뉴월드상가 3동 3호","indutype":"건축자재 - 인테리어전문","category":"other"},{"name":"삼성특수종합미싱","tel":"032-675-4205","addr":"경기도 부천시 고강동 480-9번지 뉴월드맨션 상가 2호","indutype":"기타 - 기계공구","category":"other"}]},{"lat":"37.528006499","long":"126.81398842","imageIndex":17,"items":[{"name":"까망토끼 부천점","tel":"070-2259-7202","addr":"경기도 부천시 고강동 321-2번지 1층 103호","indutype":"의류 - 정장","category":"other"},{"name":"장보고정보통신(주)","tel":"032-675-8010","addr":"경기도 부천시 고강동 321-2번지 선우 상가 101동 102호","indutype":"사무통신 - 통신기기","category":"other"}]},{"lat":"37.528255358","long":"126.81751747","imageIndex":17,"items":[{"name":"꼬까옷장수","tel":"070-8137-4946","addr":"경기도 부천시 고강동 368-7번지","indutype":"의류 - 아동의류","category":"other"}]},{"lat":"37.526977995","long":"126.81882161","imageIndex":17,"items":[{"name":"꼬마또래","tel":"032-675-5495","addr":"경기도 부천시 고강동 377-26번지","indutype":"서적문구 - 문구용품","category":"other"}]},{"lat":"37.524119764","long":"126.81182624","imageIndex":17,"items":[{"name":"꿈꾸는 강아지","tel":"032-681-1779","addr":"경기도 부천시 고강동 294-7번지 1층 1호","indutype":"문화.취미 - 애완동물","category":"other"},{"name":"컴퓨터마을","tel":"032-683-3465","addr":"경기도 부천시 고강동 294-7번지","indutype":"사무통신 - 컴퓨터","category":"other"}]},{"lat":"37.527784081","long":"126.81576512","imageIndex":17,"items":[{"name":"나비스","tel":"032-672-1609","addr":"경기도 부천시 고강동 319-4번지","indutype":"가구 - 일반가구","category":"other"},{"name":"뜨란채","tel":"032-678-2254","addr":"경기도 부천시 고강동 319-4번지 1층 출입구 계단 오른쪽 첫번째","indutype":"의류 - 정장","category":"other"},{"name":"정언텔레콤2매장","tel":"032-294-7222","addr":"경기도 부천시 고강동 319-4번지 1층 5-6호","indutype":"사무통신 - 통신기기","category":"other"}]},{"lat":"37.523115958","long":"126.81513198","imageIndex":17,"items":[{"name":"낚시&낚시","tel":"032-681-5753","addr":"경기도 부천시 고강동 339-8번지 한솔스위트하우스 1층","indutype":"레져용품 - 스포츠·레져용품","category":"other"},{"name":"도경기업","tel":"032-675-4341","addr":"경기도 부천시 고강동 339-8번지 한솔스위트하우스","indutype":"기타 - 기계공구","category":"other"}]},{"lat":"37.528394681","long":"126.81446259","imageIndex":17,"items":[{"name":"뉴경화당","tel":"032-679-4568","addr":"경기도 부천시 고강동 318번지 1층","indutype":"신변잡화 - 액세서리","category":"other"},{"name":"대한불교천우종포교원보정사","tel":"032-676-3393","addr":"경기도 부천시 고강동 318번지 제일시장내 2동 201호","indutype":"기타 - 비영리/대상","category":"other"},{"name":"아울렛슈즈","tel":"032-679-7119","addr":"경기도 부천시 고강동 318번지 제일시장11동지 지하층","indutype":"신변잡화 - 신발","category":"other"},{"name":"알뜰매장","tel":"032-675-7427","addr":"경기도 부천시 고강동 318번지 제일시장 11동 1층","indutype":"의류 - 정장","category":"other"},{"name":"쥬얼퀸","tel":"032-681-7197","addr":"경기도 부천시 고강동 318번지 고강제일시장제 10동 1층 옆면","indutype":"의류 - 정장","category":"other"}]},{"lat":"37.528148113","long":"126.81240424","imageIndex":17,"items":[{"name":"닛시 할인매장","tel":"032-111-1111","addr":"경기도 부천시 고강동 311-11번지 1층 일부","indutype":"의류 - 정장","category":"other"},{"name":"잰제이","tel":"032-676-7606","addr":"경기도 부천시 고강동 311-11번지","indutype":"건축자재 - 기타건축자재","category":"other"},{"name":"지수산업","tel":"02-0000-0000","addr":"경기도 부천시 고강동 311-11번지 상가 2층호","indutype":"기타 - 기계공구","category":"other"}]},{"lat":"37.536204003","long":"126.80754126","imageIndex":17,"items":[{"name":"다담싱크","tel":"032-674-4324","addr":"경기도 부천시 고강동 147-21번지","indutype":"주방용구 - 주방용구","category":"other"}]},{"lat":"37.525147913","long":"126.82398464","imageIndex":17,"items":[{"name":"다모아","tel":"","addr":"경기도 부천시 고강동 416-16번지 벧엘리움 501호","indutype":"주방용구 - 주방용구","category":"other"}]},{"lat":"37.52903689","long":"126.82182585","imageIndex":17,"items":[{"name":"다모아디자인","tel":"032-656-2390","addr":"경기도 부천시 고강동 359-15 윤호상가 1 2호","indutype":"건축자재 - 인테리어전문","category":"other"},{"name":"태라eng","tel":"","addr":"경기도 부천시 고강동 359-15번지 아이원팰리스 1층 110호","indutype":"전기제품 - 가전제품","category":"other"}]},{"lat":"37.524812743","long":"126.82279763","imageIndex":17,"items":[{"name":"다온미디어","tel":"","addr":"경기도 부천시 고강동 406-10번지 더스테이뷰 503호","indutype":"사무통신 - 컴퓨터","category":"other"}]},{"lat":"37.52514846","long":"126.82434664","imageIndex":17,"items":[{"name":"다온시스템","tel":"","addr":"경기도 부천시 고강동 416-8번지 여원팰리스 502호","indutype":"용역 서비스 - 기타용역서비스","category":"other"}]},{"lat":"37.528899077","long":"126.82009527","imageIndex":17,"items":[{"name":"다올테크","tel":"","addr":"경기도 부천시 고강동 381-19번지 거성맨션 301호","indutype":"전기제품 - 가전제품","category":"other"},{"name":"신세계에어컨","tel":"031-923-8593","addr":"경기도 부천시 고강동 381-19번지 거성맨션 B01호","indutype":"용역 서비스 - 기타용역서비스","category":"other"}]},{"lat":"37.523322248","long":"126.81454323","imageIndex":17,"items":[{"name":"다해건축 인테리어","tel":"02-000-0000","addr":"경기도 부천시 고강동 338-29번지 대화주택 B동 2층 3호","indutype":"용역 서비스 - 기타용역서비스","category":"other"}]},{"lat":"37.521662177","long":"126.82470562","imageIndex":17,"items":[{"name":"대명","tel":"","addr":"경기도 부천시 고강동 577-2번지 약수빌라 5동 103호","indutype":"용역 서비스 - 기타용역서비스","category":"other"}]},{"lat":"37.526480891","long":"126.8121596","imageIndex":17,"items":[{"name":"대복장식","tel":"032-682-0887","addr":"경기도 부천시 고강동 308번지 대복장식 1층","indutype":"건축자재 - 인테리어전문","category":"other"},{"name":"유화","tel":"032-684-3373","addr":"경기도 부천시 고강동 308번지 1층","indutype":"기타 - 기계공구","category":"other"}]},{"lat":"37.5250356302","long":"126.8154891739","imageIndex":17,"items":[{"name":"대산종합공구","tel":"032-682-7709","addr":"경기도 부천시 고강동 480-8번지 뉴월드맨션2동상가","indutype":"기타 - 기계공구","category":"other"}]},{"lat":"37.529506373","long":"126.81665457","imageIndex":17,"items":[{"name":"대성시스템","tel":"070-4319-1716","addr":"경기도 부천시 고강동 351-3번지 1층","indutype":"용역 서비스 - 기타용역서비스","category":"other"},{"name":"한양건업","tel":"032-683-0404","addr":"경기도 부천시 고강동 351-3번지","indutype":"건축자재 - 인테리어전문","category":"other"},{"name":"현대건업","tel":"032-672-9270","addr":"경기도 부천시 고강동 351-3번지","indutype":"건축자재 - 보일러·펌프·샷시","category":"other"}]},{"lat":"37.527872363","long":"126.81462229","imageIndex":17,"items":[{"name":"대성열쇠","tel":"032-682-7637","addr":"경기도 부천시 고강동 469-4번지","indutype":"기타 - 기타 전문점","category":"other"},{"name":"디오정보통신","tel":"032-678-0011","addr":"경기도 부천시 고강동 469-4번지 1층","indutype":"사무통신 - 통신기기","category":"other"}]},{"lat":"37.525144627","long":"126.81604322","imageIndex":17,"items":[{"name":"대우미싱","tel":"032-681-6434","addr":"경기도 부천시 고강동 345번지 대호빌리지2차","indutype":"수리서비스 - 가정용품수리","category":"other"},{"name":"별통신","tel":"032-674-8011","addr":"경기도 부천시 고강동 345번지 대호빌리지2차 상가 1층","indutype":"사무통신 - 통신기기","category":"other"},{"name":"영천철물건재","tel":"032-674-7180","addr":"경기도 부천시 고강동 345번지 대호빌리지2차","indutype":"기타 - 기계공구","category":"other"}]},{"lat":"37.528396879","long":"126.82162376","imageIndex":17,"items":[{"name":"대우전기열쇠","tel":"","addr":"경기도 부천시 고강동 392-4번지 1층 8호","indutype":"건축자재 - 목재·석재·철물","category":"other"},{"name":"새롬정보통신","tel":"032-672-5011","addr":"경기도 부천시 고강동 392-4번지","indutype":"사무통신 - 통신기기","category":"other"}]},{"lat":"37.527816677","long":"126.81360426","imageIndex":17,"items":[{"name":"대원라이프 고강점","tel":"032-672-0045","addr":"경기도 부천시 고강동 321-20번지 1층","indutype":"신변잡화 - 기타잡화","category":"other"}]},{"lat":"37.527643167","long":"126.81782443","imageIndex":17,"items":[{"name":"대일리빙키친","tel":"032-674-1753","addr":"경기도 부천시 고강동 378-8번지 삼원드림빌 1층","indutype":"주방용구 - 기타주방용구","category":"other"}]},{"lat":"37.528292726","long":"126.81836586","imageIndex":17,"items":[{"name":"대일속옷","tel":"","addr":"경기도 부천시 고강동 379-30번지 뉴월드맨션 4동 301호","indutype":"의류 - 내의판매","category":"other"}]},{"lat":"37.526345743","long":"126.81215995","imageIndex":17,"items":[{"name":"대한종합공사","tel":"032-677-7550","addr":"경기도 부천시 고강동 308-36번지","indutype":"건축자재 - 보일러·펌프·샷시","category":"other"}]},{"lat":"37.526818055","long":"126.82618665","imageIndex":17,"items":[{"name":"더 드림","tel":"070-7583-9223","addr":"경기도 부천시 고강동 325-9번지 101호","indutype":"용역 서비스 - 종합용역","category":"other"},{"name":"보광홈케어","tel":"032-208-7012","addr":"경기도 부천시 고강동 325-9번지 402호","indutype":"용역 서비스 - 종합용역","category":"other"}]},{"lat":"37.525145163","long":"126.81638259","imageIndex":17,"items":[{"name":"더 에이앤피","tel":"","addr":"경기도 부천시 고강동 345-23번지 대호빌리지1차 202호","indutype":"용역 서비스 - 종합용역","category":"other"}]},{"lat":"37.52825776","long":"126.81335426","imageIndex":17,"items":[{"name":"더빈티지샵","tel":"","addr":"경기도 부천시 고강동 311-7번지","indutype":"의류 - 기타의류","category":"other"},{"name":"천사(1004)","tel":"032-875-2018","addr":"경기도 부천시 고강동 311-7번지","indutype":"의류 - 정장","category":"other"}]},{"lat":"37.53086703","long":"126.82256812","imageIndex":17,"items":[{"name":"덕이","tel":"032-8902-9619","addr":"경기도 부천시 고강동 249번지 고강3차아파트","indutype":"회원제형태 - 기타1","category":"other"}]},{"lat":"37.527288582","long":"126.82156988","imageIndex":17,"items":[{"name":"데이제이(Day J)","tel":"","addr":"경기도 부천시 고강동 390-4번지 고강빌딩 1층 3호","indutype":"의류 - 정장","category":"other"}]},{"lat":"37.525451544","long":"126.82220783","imageIndex":17,"items":[{"name":"도심속의 자연","tel":"032-655-5822","addr":"경기도 부천시 고강동 398-5번지 1층","indutype":"건축자재 - 인테리어전문","category":"other"},{"name":"사계절","tel":"032-672-0431","addr":"경기도 부천시 고강동 398-5번지 1층","indutype":"의류 - 정장","category":"other"}]},{"lat":"37.525453349","long":"126.81190203","imageIndex":17,"items":[{"name":"동서윙바디리프트","tel":"032-671-8805","addr":"경기도 부천시 고강동 293-15번지","indutype":"수리서비스 - 기타수리서비스","category":"other"}]},{"lat":"37.524729959","long":"126.8159085","imageIndex":17,"items":[{"name":"동신건업","tel":"032-681-0330","addr":"경기도 부천시 고강동 345-11번지","indutype":"건축자재 - 기타건축자재","category":"other"}]},{"lat":"37.524174718","long":"126.81238041","imageIndex":17,"items":[{"name":"동양 O A 사무용가구","tel":"032-673-7077","addr":"경기도 부천시 고강동 305-5번지 부강빌딩","indutype":"가구 - 기타가구","category":"other"},{"name":"제이광고","tel":"","addr":"경기도 부천시 고강동 305-5번지 부강빌딩 1층","indutype":"건축자재 - 인테리어전문","category":"other"}]},{"lat":"37.526575077","long":"126.82637955","imageIndex":17,"items":[{"name":"동우홈케어","tel":"070-7341-2042","addr":"경기도 부천시 고강동 326-1번지 고리울파크빌리지 다동 401호","indutype":"용역 서비스 - 종합용역","category":"other"}]},{"lat":"37.52712224","long":"126.81887782","imageIndex":17,"items":[{"name":"동희상사","tel":"032-684-1112","addr":"경기도 부천시 고강동 377-25번지 지층","indutype":"직물 - 침구·수예점","category":"other"},{"name":"퀸스빌","tel":"032-684-1112","addr":"경기도 부천시 고강동 377-25번지 1층","indutype":"직물 - 침구·수예점","category":"other"}]},{"lat":"37.528449493","long":"126.82068465","imageIndex":17,"items":[{"name":"두꺼비슈퍼","tel":"032-671-1881","addr":"경기도 부천시 고강동 392-21번지","indutype":"신변잡화 - 기타잡화","category":"other"}]},{"lat":"37.530313552","long":"126.82004657","imageIndex":17,"items":[{"name":"두리교역","tel":"032-674-1023","addr":"경기도 부천시 고강동 362-1번지","indutype":"서적문구 - 문구용품","category":"other"},{"name":"디엘테크","tel":"070-7362-7658","addr":"경기도 부천시 고강동 362-1번지","indutype":"사무통신 - 컴퓨터","category":"other"},{"name":"위드미부천고강로점","tel":"","addr":"경기도 부천시 고강동 362-1번지 좋은빌딩 1층","indutype":"유통업 영리 - 편 의 점","category":"other"}]},{"lat":"37.528149503","long":"126.8189658","imageIndex":17,"items":[{"name":"둘리문구","tel":"032-678-1857","addr":"경기도 부천시 고강동 379-4번지","indutype":"서적문구 - 문구용품","category":"other"},{"name":"애견하우스","tel":"032-672-1994","addr":"경기도 부천시 고강동 379-4번지 대성빌딩","indutype":"문화.취미 - 애완동물","category":"other"},{"name":"진원종합인테리어","tel":"032-672-8734","addr":"경기도 부천시 고강동 379-4번지 대성빌딩 1층 4호","indutype":"직물 - 카페트,커튼,천막,지물","category":"other"}]},{"lat":"37.526734341","long":"126.81857332","imageIndex":17,"items":[{"name":"둥이하우스","tel":"070-7719-1040","addr":"경기도 부천시 고강동 377-30번지 1층","indutype":"의류 - 아동의류","category":"other"},{"name":"스마일데이","tel":"032-663-8382","addr":"경기도 부천시 고강동 377-30번지 1층","indutype":"의류 - 정장","category":"other"}]},{"lat":"37.529279357","long":"126.82130486","imageIndex":17,"items":[{"name":"드림에듀케이션","tel":"032-682-6720","addr":"경기도 부천시 고강동 360-29번지 청림빌라 A동 302호","indutype":"서적문구 - 기타서적문구","category":"other"}]},{"lat":"37.529090561","long":"126.8157958","imageIndex":17,"items":[{"name":"디쎄","tel":"032-678-1891","addr":"경기도 부천시 고강동 284-24번지 신원프린스 C동 102호","indutype":"의류 - 정장","category":"other"}]},{"lat":"37.52930009","long":"126.81725468","imageIndex":17,"items":[{"name":"디오비패션","tel":"032-678-9995","addr":"경기도 부천시 고강동 367번지 현대아파트","indutype":"회원제형태 - 기타1","category":"other"}]},{"lat":"37.52645193","long":"126.81659428","imageIndex":17,"items":[{"name":"똥강아지","tel":"","addr":"경기도 부천시 고강동 346-1번지","indutype":"문화.취미 - 애완동물","category":"other"}]},{"lat":"37.528535134","long":"126.81215437","imageIndex":17,"items":[{"name":"로뎀나무","tel":"032-682-4959","addr":"경기도 부천시 고강동 311-33번지 1층 102호","indutype":"신변잡화 - 신발","category":"other"}]},{"lat":"37.528230149","long":"126.81299231","imageIndex":17,"items":[{"name":"마당발텔레콤","tel":"032-673-6534","addr":"경기도 부천시 고강동 311-8번지 상가 1층 4호","indutype":"사무통신 - 통신기기","category":"other"},{"name":"아이랜드","tel":"032-674-8248","addr":"경기도 부천시 고강동 311-8번지 3층 1호","indutype":"의류 - 아동의류","category":"other"},{"name":"장미샵","tel":"032-678-1272","addr":"경기도 부천시 고강동 311-8번지","indutype":"회원제형태 - 기타4","category":"other"},{"name":"탐라커텐","tel":"032-678-1272","addr":"경기도 부천시 고강동 311-8번지","indutype":"의류 - 맞춤복점","category":"other"}]},{"lat":"37.526643712","long":"126.81823416","imageIndex":17,"items":[{"name":"마리엔모리 부천점","tel":"070-7375-3076","addr":"경기도 부천시 고강동 376-2번지 1층","indutype":"신변잡화 - 기념품점","category":"other"},{"name":"오시날개","tel":"070-7534-5907","addr":"경기도 부천시 고강동 376-2번지 102호","indutype":"의류 - 정장","category":"other"},{"name":"크린에이드 고강본점","tel":"032-236-0236","addr":"경기도 부천시 고강동 376-2번지","indutype":"수리서비스 - 세탁소","category":"other"}]},{"lat":"37.526290651","long":"126.82298639","imageIndex":17,"items":[{"name":"망고","tel":"070-7469-5050","addr":"경기도 부천시 고강동 408번지 1층 일부","indutype":"의류 - 정장","category":"other"}]},{"lat":"37.52697916","long":"126.81385526","imageIndex":17,"items":[{"name":"망고&체리","tel":"031-111-1111","addr":"경기도 부천시 고강동 328번지 청광플러스원 101호","indutype":"문화.취미 - 애완동물","category":"other"},{"name":"비니공조","tel":"070-7369-6568","addr":"경기도 부천시 고강동 328번지 청광플러스원 상가동 지2층 비109호","indutype":"용역 서비스 - 기타용역서비스","category":"other"},{"name":"텐빌리언","tel":"070-4106-5737","addr":"경기도 부천시 고강동 328번지 청광플러스원제상가동제지2층제비102호","indutype":"신변잡화 - 기타잡화","category":"other"}]},{"lat":"37.524234364","long":"126.8158758","imageIndex":17,"items":[{"name":"멀티베이(MULTI-BAY)","tel":"032-676-5462","addr":"경기도 부천시 고강동 345-18번지 천우하이빌 201호","indutype":"의류 - 정장","category":"other"}]},{"lat":"37.527234991","long":"126.82187546","imageIndex":17,"items":[{"name":"명가 이불","tel":"032-674-1090","addr":"경기도 부천시 고강동 395-4번지 미림빌딩 1층","indutype":"직물 - 침구·수예점","category":"other"},{"name":"정우디자인캠프","tel":"032-329-4009","addr":"경기도 부천시 고강동 395-4번지 미림빌딩 4층 402호","indutype":"용역 서비스 - 종합용역","category":"other"}]},{"lat":"37.530306674","long":"126.815657","imageIndex":17,"items":[{"name":"명동구두타운","tel":"032-676-0232","addr":"경기도 부천시 고강동 284-1번지 명보그린빌 B동 201호","indutype":"회원제형태 - 기타4","category":"other"}]},{"lat":"37.525647972","long":"126.82104216","imageIndex":17,"items":[{"name":"명보당","tel":"032-673-5442","addr":"경기도 부천시 고강동 387-16번지","indutype":"신변잡화 - 시계","category":"other"},{"name":"삼오전기","tel":"032-676-9568","addr":"경기도 부천시 고강동 387-16번지","indutype":"전기제품 - 기타전기제품","category":"other"}]},{"lat":"37.525448289","long":"126.82009238","imageIndex":17,"items":[{"name":"명성건설","tel":"","addr":"경기도 부천시 고강동 386-1번지 9동 지층 2호","indutype":"용역 서비스 - 기타용역서비스","category":"other"}]},{"lat":"37.528531808","long":"126.81570669","imageIndex":17,"items":[{"name":"명성광고","tel":"032-679-8605","addr":"경기도 부천시 고강동 285-6번지","indutype":"용역 서비스 - 종합용역","category":"other"},{"name":"삼천리자전거고강태양점","tel":"032-674-0089","addr":"경기도 부천시 고강동 285-6번지","indutype":"레져용품 - 스포츠·레져용품","category":"other"},{"name":"주연테크고강1동점","tel":"032-679-1599","addr":"경기도 부천시 고강동 285-6번지 1층","indutype":"사무통신 - 컴퓨터","category":"other"}]},{"lat":"37.530020727","long":"126.82297743","imageIndex":17,"items":[{"name":"명창수산","tel":"032-671-5559","addr":"경기도 부천시 고강동 246-5번지 고강2차아파트","indutype":"회원제형태 - 기타1","category":"other"}]},{"lat":"37.526283787","long":"126.8244005","imageIndex":17,"items":[{"name":"명품옷수선","tel":"070-7360-9517","addr":"경기도 부천시 고강동 414-16번지 1층 오른쪽상가","indutype":"수리서비스 - 세탁소","category":"other"}]},{"lat":"37.526867575","long":"126.81735121","imageIndex":17,"items":[{"name":"모노피아코리아 (주)","tel":"070-0000-0000","addr":"경기도 부천시 고강동 371-1번지 지층","indutype":"신변잡화 - 가방","category":"other"}]},{"lat":"37.527978854","long":"126.81360385","imageIndex":17,"items":[{"name":"모던","tel":"032-671-2678","addr":"경기도 부천시 고강동 321번지","indutype":"의류 - 정장","category":"other"},{"name":"에드윈","tel":"032-675-4677","addr":"경기도 부천시 고강동 321번지","indutype":"의류 - 정장","category":"other"}]},{"lat":"37.52784026","long":"126.81146605","imageIndex":17,"items":[{"name":"모던센스","tel":"032-677-4100","addr":"경기도 부천시 고강동 292번지 1층","indutype":"직물 - 침구·수예점","category":"other"}]},{"lat":"37.528400042","long":"126.81218865","imageIndex":17,"items":[{"name":"모던하우스","tel":"032-672-9323","addr":"경기도 부천시 고강동 311-13번지 1층","indutype":"용역 서비스 - 기타용역서비스","category":"other"}]},{"lat":"37.525560624","long":"126.81138137","imageIndex":17,"items":[{"name":"모두자동문","tel":"070-8852-4680","addr":"경기도 부천시 고강동 293-13번지 스타파크힐 201호","indutype":"용역 서비스 - 기타용역서비스","category":"other"}]},{"lat":"37.529315344","long":"126.82127083","imageIndex":17,"items":[{"name":"모모디스플레이(MOMO DISPLAY)","tel":"","addr":"경기도 부천시 고강동 360-23번지 청림빌라 지층 2호","indutype":"수리서비스 - 가정용품수리","category":"other"}]},{"lat":"37.528226494","long":"126.8163523","imageIndex":17,"items":[{"name":"모바일스퀘어고강점","tel":"032-683-1011","addr":"경기도 부천시 고강동 349번지 명성빌라 가동 101호","indutype":"사무통신 - 통신기기","category":"other"}]},{"lat":"37.525087775","long":"126.82593055","imageIndex":17,"items":[{"name":"물차오정급수","tel":"032-678-3200","addr":"경기도 부천시 고강동 327-7번지 동문미도아파트","indutype":"회원제형태 - 기타4","category":"other"},{"name":"채움","tel":"032-675-0958","addr":"경기도 부천시 고강동 327-7번지 동문미도아파트","indutype":"건축자재 - 인테리어전문","category":"other"},{"name":"피오레","tel":"070-8187-1712","addr":"경기도 부천시 고강동 327-7번지 동문미도아파트","indutype":"회원제형태 - 기타1","category":"other"}]},{"lat":"37.528365898","long":"126.81906709","imageIndex":17,"items":[{"name":"미니스톱 고강푸른점","tel":"031-1577-9621","addr":"경기도 부천시 고강동 379-29번지 우성빌라","indutype":"유통업 영리 - 편 의 점","category":"other"}]},{"lat":"37.528448343","long":"126.81421357","imageIndex":17,"items":[{"name":"미니스톱부천고강로점","tel":"031-1577-9621","addr":"경기도 부천시 고강동 312-2번지 101호","indutype":"유통업 영리 - 편 의 점","category":"other"}]},{"lat":"37.525004679","long":"126.82459586","imageIndex":17,"items":[{"name":"미라클","tel":"032-681-2588","addr":"경기도 부천시 고강동 416-12번지 도아빌딩","indutype":"건축자재 - 인테리어전문","category":"other"},{"name":"홈씨씨","tel":"032-506-7337","addr":"경기도 부천시 고강동 416-12번지 도아빌당 401호","indutype":"용역 서비스 - 기타용역서비스","category":"other"}]},{"lat":"37.523094505","long":"126.82454384","imageIndex":17,"items":[{"name":"미래 인테리어","tel":"032-682-7336","addr":"경기도 부천시 고강동 559-1번지 미래캐슬 101호","indutype":"건축자재 - 인테리어전문","category":"other"}]},{"lat":"37.531595303","long":"126.82157077","imageIndex":17,"items":[{"name":"미소농원","tel":"032-683-0120","addr":"경기도 부천시 고강동 257-1번지 1,2호 좌측","indutype":"문화.취미 - 화원","category":"other"}]},{"lat":"37.52612178","long":"126.82451401","imageIndex":17,"items":[{"name":"미스(MYS)","tel":"031-8875-0610","addr":"경기도 부천시 고강동 414-18번지","indutype":"서적문구 - 문구용품","category":"other"},{"name":"유림공조","tel":"032-555-7432","addr":"경기도 부천시 고강동 414-18번지 1층","indutype":"전기제품 - 냉열기기","category":"other"}]},{"lat":"37.5274251","long":"126.81665974","imageIndex":17,"items":[{"name":"미아우","tel":"032-683-3127","addr":"경기도 부천시 고강동 348-4번지","indutype":"의류 - 정장","category":"other"}]},{"lat":"37.526785918","long":"126.8169894","imageIndex":17,"items":[{"name":"믿음인테리어","tel":"032-671-3854","addr":"경기도 부천시 고강동 371-8번지 연암빌딩 1층","indutype":"직물 - 카페트,커튼,천막,지물","category":"other"}]},{"lat":"37.526540086","long":"126.82113049","imageIndex":17,"items":[{"name":"바디와이짐","tel":"032-671-8525","addr":"경기도 부천시 고강동 389-3번지 2층","indutype":"회원제형태 - 레져업소","category":"other"}]},{"lat":"37.52917484","long":"126.81782065","imageIndex":17,"items":[{"name":"바른손인테리어","tel":"032-678-8240","addr":"경기도 부천시 고강동 367-2번지 1층 2호","indutype":"직물 - 카페트,커튼,천막,지물","category":"other"}]},{"lat":"37.528984363","long":"126.81137262","imageIndex":17,"items":[{"name":"바이오테크침대","tel":"032-681-4033","addr":"경기도 부천시 고강동 290-4번지","indutype":"가구 - 일반가구","category":"other"},{"name":"이마트24 부천고강중앙점","tel":"02-6916-1500","addr":"경기도 부천시 고강동 290-4번지","indutype":"유통업 영리 - 편 의 점","category":"other"}]},{"lat":"37.528891551","long":"126.82105691","imageIndex":17,"items":[{"name":"반달보름당","tel":"","addr":"경기도 부천시 고강동 392번지 금성주택 8동 2층 2호","indutype":"문화.취미 - 화랑","category":"other"}]},{"lat":"37.530563541","long":"126.81857522","imageIndex":17,"items":[{"name":"백상","tel":"032-674-9996","addr":"경기도 부천시 고강동 364번지 동원아파트","indutype":"회원제형태 - 기타1","category":"other"},{"name":"영화사","tel":"032-682-5005","addr":"경기도 부천시 고강동 364번지 동원아파트","indutype":"서적문구 - 문구용품","category":"other"},{"name":"한솔포장","tel":"032-683-6766","addr":"경기도 부천시 고강동 364 동원상가101","indutype":"유통업 영리 - 기타유통업","category":"other"}]},{"lat":"37.528672321","long":"126.8191229","imageIndex":17,"items":[{"name":"범진공업사","tel":"032-678-6903","addr":"경기도 부천시 고강동 380-13번지 명성빌라 라동 101호","indutype":"건축자재 - 보일러·펌프·샷시","category":"other"},{"name":"퍼펙트 (ENV.)","tel":"080-999-9917","addr":"경기도 부천시 고강동 380-13번지 명성빌라 104호","indutype":"용역 서비스 - 종합용역","category":"other"}]},{"lat":"37.528094184","long":"126.82401154","imageIndex":17,"items":[{"name":"베스트올 대성점","tel":"032-674-1116","addr":"경기도 부천시 고강동 413-10번지 신탁골드빌 106동 102호","indutype":"유통업 영리 - 편 의 점","category":"other"}]},{"lat":"37.529870295","long":"126.81890501","imageIndex":17,"items":[{"name":"벨루치/올리브물대","tel":"032-207-9713","addr":"경기도 부천시 고강동 363-9번지 거성맨션 202호","indutype":"별도관리 - 자체물품대금","category":"other"}]},{"lat":"37.523934249","long":"126.81412313","imageIndex":17,"items":[{"name":"벨시스","tel":"070-5111-2775","addr":"경기도 부천시 고강동 337-30번지 가람 1동 502호","indutype":"전기제품 - 기타전기제품","category":"other"}]},{"lat":"37.528365198","long":"126.82448605","imageIndex":17,"items":[{"name":"별","tel":"02-2065-1467","addr":"경기도 부천시 고강동 413-7번지 고리울마을 106동 301호","indutype":"회원제형태 - 기타4","category":"other"}]},{"lat":"37.52503563","long":"126.81548917","imageIndex":17,"items":[{"name":"보일러세상","tel":"032-672-7170","addr":"경기도 부천시 고강동 480-8번지 하이트맨션 101호","indutype":"건축자재 - 보일러·펌프·샷시","category":"other"}]},{"lat":"37.529143021","long":"126.8147888","imageIndex":17,"items":[{"name":"복성양초","tel":"070-4067-0139","addr":"경기도 부천시 고강동 286-2번지 지층 2호","indutype":"신변잡화 - 기타잡화","category":"other"},{"name":"서울양초","tel":"070-4067-0139","addr":"경기도 부천시 고강동 286-2번지 101호","indutype":"신변잡화 - 기타잡화","category":"other"}]},{"lat":"37.526840854","long":"126.82338102","imageIndex":17,"items":[{"name":"봄사진관","tel":"","addr":"경기도 부천시 고강동 409-1번지 가야아파트","indutype":"광학제품 - 사진관","category":"other"}]},{"lat":"37.525199476","long":"126.82234419","imageIndex":17,"items":[{"name":"봄이네홈패션","tel":"032-677-9450","addr":"경기도 부천시 고강동 406-1번지","indutype":"직물 - 카페트,커튼,천막,지물","category":"other"},{"name":"아싼테(Asante)","tel":"00-0000-0000","addr":"경기도 부천시 고강동 406-1번지","indutype":"의류 - 정장","category":"other"}]},{"lat":"37.523311247","long":"126.8132989","imageIndex":17,"items":[{"name":"부강세탁소","tel":"032-672-7723","addr":"경기도 부천시 고강동 303-6","indutype":"수리서비스 - 세탁소","category":"other"}]},{"lat":"37.523311321","long":"126.82492795","imageIndex":17,"items":[{"name":"부성전기 철물","tel":"","addr":"경기도 부천시 고강동 557-12번지 1층","indutype":"건축자재 - 목재·석재·철물","category":"other"}]},{"lat":"37.5306221083","long":"126.8157127802","imageIndex":17,"items":[{"name":"부천수주농원","tel":"032-678-0104","addr":"경기도 부천시 고강동 277번지","indutype":"문화.취미 - 화원","category":"other"}]},{"lat":"37.524732561","long":"126.81190386","imageIndex":17,"items":[{"name":"브리스","tel":"070-3342-5810","addr":"경기도 부천시 고강동 294-24번지 현대파크 101동 503호","indutype":"의류 - 내의판매","category":"other"}]},{"lat":"37.526231128","long":"126.81943433","imageIndex":17,"items":[{"name":"블랙진","tel":"032-677-0039","addr":"경기도 부천시 고강동 385-1번지 성산미래타운","indutype":"의류 - 정장","category":"other"}]},{"lat":"37.52955995","long":"126.81634898","imageIndex":17,"items":[{"name":"비바교복","tel":"032-672-8460","addr":"경기도 부천시 고강동 351-7번지 남정빌딩 1층 101호","indutype":"의류 - 맞춤복점","category":"other"},{"name":"샤인디자인건축","tel":"","addr":"경기도 부천시 고강동 351-7번지 남정빌딩 105호","indutype":"건축자재 - 인테리어전문","category":"other"},{"name":"신용함석닥트","tel":"032-679-6679","addr":"경기도 부천시 고강동 351-7번지 남정빌딩 103호","indutype":"건축자재 - 기타건축자재","category":"other"}]},{"lat":"37.527012638","long":"126.81792781","imageIndex":17,"items":[{"name":"비쥬","tel":"","addr":"경기도 부천시 고강동 377-5번지 엘파크 1층 112호","indutype":"의류 - 정장","category":"other"},{"name":"하야로비","tel":"032-678-7050","addr":"경기도 부천시 고강동 377-5번지 107호","indutype":"의류 - 정장","category":"other"}]},{"lat":"37.527951062","long":"126.81312878","imageIndex":17,"items":[{"name":"빨간여우","tel":"032-671-4594","addr":"경기도 부천시 고강동 310-2번지","indutype":"의류 - 기타의류","category":"other"}]},{"lat":"37.523067254","long":"126.81284703","imageIndex":17,"items":[{"name":"빨간초코","tel":"02-000-0000","addr":"경기도 부천시 고강동 303-18번지 부성주택 B동 2층 2호","indutype":"의류 - 정장","category":"other"}]},{"lat":"37.529310273","long":"126.82385026","imageIndex":17,"items":[{"name":"삭스호","tel":"031-111-1111","addr":"경기도 부천시 고강동 313-21번지","indutype":"의류 - 기타의류","category":"other"}]},{"lat":"37.524176809","long":"126.81368133","imageIndex":17,"items":[{"name":"삼성종합철물","tel":"032-678-0450","addr":"경기도 부천시 고강동 336-9번지 삼성베스티안 1층 105호","indutype":"건축자재 - 목재·석재·철물","category":"other"},{"name":"태광밴딩","tel":"032-679-4732","addr":"경기도 부천시 고강동 336-9번지 삼성베스티안","indutype":"건축자재 - 기타건축자재","category":"other"}]},{"lat":"37.522914513","long":"126.82468002","imageIndex":17,"items":[{"name":"새로미","tel":"032-671-3954","addr":"경기도 부천시 고강동 564-1번지 궁전빌라 다동","indutype":"회원제형태 - 기타4","category":"other"}]},{"lat":"37.527065187","long":"126.81696608","imageIndex":17,"items":[{"name":"생활용품DC마트","tel":"032-674-9085","addr":"경기도 부천시 고강동 371번지","indutype":"유통업 영리 - 편 의 점","category":"other"}]},{"lat":"37.528144385","long":"126.81570766","imageIndex":17,"items":[{"name":"샤론플라워","tel":"032-677-8277","addr":"경기도 부천시 고강동 319-3번지 백학빌딩","indutype":"문화.취미 - 화원","category":"other"},{"name":"씽크빅상사","tel":"032-678-3021","addr":"경기도 부천시 고강동 319-3번지 백학빌딩 지하1층 1호","indutype":"기타 - 기계공구","category":"other"}]},{"lat":"37.523845532","long":"126.8207411","imageIndex":17,"items":[{"name":"샤방한체리펫","tel":"032-677-1305","addr":"경기도 부천시 고강동 403-3번지 예스빌라 지하1층","indutype":"문화.취미 - 애완동물","category":"other"}]},{"lat":"37.526698601","long":"126.81876573","imageIndex":17,"items":[{"name":"샬랄라","tel":"070-7366-1009","addr":"경기도 부천시 고강동 377-29번지 1층 일부","indutype":"의류 - 아동의류","category":"other"}]},{"lat":"37.521925721","long":"126.81454674","imageIndex":17,"items":[{"name":"서연전자","tel":"","addr":"경기도 부천시 고강동 340-1번지 하이트맨션 나동 301호","indutype":"용역 서비스 - 기타용역서비스","category":"other"}]},{"lat":"37.526226391","long":"126.82220596","imageIndex":17,"items":[{"name":"서울마님죽","tel":"02-2683-3932","addr":"경기도 부천시 고강동 397번지 새보미아파트","indutype":"신변잡화 - 액세서리","category":"other"},{"name":"트렌드","tel":"","addr":"경기도 부천시 고강동 397번지 고강시장 다동 25호","indutype":"의류 - 정장","category":"other"}]},{"lat":"37.522032722","long":"126.82546265","imageIndex":17,"items":[{"name":"성내상사","tel":"031-111-1111","addr":"경기도 부천시 고강동 572-2번지 대하파크 D동 4층 401호","indutype":"서적문구 - 완구점","category":"other"}]},{"lat":"37.526200451","long":"126.81145893","imageIndex":17,"items":[{"name":"성미사","tel":"032-672-9716","addr":"경기도 부천시 고강동 293-32번지 드림타운 1동 202호","indutype":"회원제형태 - 기타4","category":"other"}]},{"lat":"37.531289142","long":"126.82168465","imageIndex":17,"items":[{"name":"성우건재상사","tel":"032-673-2845","addr":"경기도 부천시 고강동 257-4번지 남정그린빌라 나동 B02호","indutype":"건축자재 - 목재·석재·철물","category":"other"}]},{"lat":"37.524454607","long":"126.8127417","imageIndex":17,"items":[{"name":"성주야채","tel":"070-7523-6492","addr":"경기도 부천시 고강동 305-13번지 동광모닝스카이아파트2차","indutype":"회원제형태 - 기타1","category":"other"}]},{"lat":"37.523204723","long":"126.81429465","imageIndex":17,"items":[{"name":"세라비 디자인","tel":"","addr":"경기도 부천시 고강동 338-31번지 삼보그린타운 나동 402호","indutype":"용역 서비스 - 사무서비스","category":"other"}]},{"lat":"37.526783988","long":"126.81576762","imageIndex":17,"items":[{"name":"세븐일레븐부천고강사거리점","tel":"","addr":"경기도 부천시 고강동 474-1번지","indutype":"유통업 영리 - 편 의 점","category":"other"},{"name":"신보성전기","tel":"032-676-5151","addr":"경기도 부천시 고강동 474-1번지","indutype":"전기제품 - 기타전기제품","category":"other"},{"name":"올리비아하슬러고강점","tel":"032-672-5767","addr":"경기도 부천시 고강동 474-1번지","indutype":"레져용품 - 스포츠·레져용품","category":"other"},{"name":"휴먼오에이통신","tel":"032-676-0086","addr":"경기도 부천시 고강동 474-1번지 1층","indutype":"사무통신 - 통신기기","category":"other"}]},{"lat":"37.520921469","long":"126.81195883","imageIndex":17,"items":[{"name":"세븐일레븐부천고강은데미점","tel":"019-***-****","addr":"경기도 부천시 고강동 298-18번지","indutype":"유통업 영리 - 편 의 점","category":"other"}]},{"lat":"37.528566787","long":"126.81503913","imageIndex":17,"items":[{"name":"세븐일레븐부천고강제일점","tel":"","addr":"경기도 부천시 고강동 286-7번지 1층","indutype":"유통업 영리 - 편 의 점","category":"other"}]},{"lat":"37.523537419","long":"126.82549303","imageIndex":17,"items":[{"name":"세븐일레븐부천주은점","tel":"","addr":"경기도 부천시 고강동 557-9번지 1층","indutype":"유통업 영리 - 편 의 점","category":"other"}]},{"lat":"37.525451976","long":"126.82249065","imageIndex":17,"items":[{"name":"세일마트","tel":"032-681-0661","addr":"경기도 부천시 고강동 407-1번지","indutype":"전기제품 - 가전제품","category":"other"}]},{"lat":"37.526005245","long":"126.81332602","imageIndex":17,"items":[{"name":"세진건축인테리어","tel":"032-678-0058","addr":"경기도 부천시 고강동 308-16","indutype":"건축자재 - 인테리어전문","category":"other"}]},{"lat":"37.527873659","long":"126.81543682","imageIndex":17,"items":[{"name":"소금창고","tel":"070-7093-1148","addr":"경기도 부천시 고강동 319-5번지 B7층 10호","indutype":"의류 - 정장","category":"other"},{"name":"휠라인티모 고강점","tel":"032-682-0838","addr":"경기도 부천시 고강동 319-5번지 B-6호","indutype":"레져용품 - 스포츠·레져용품","category":"other"}]},{"lat":"37.522121902","long":"126.82485159","imageIndex":17,"items":[{"name":"솜니움 (somnium)","tel":"031-111-1111","addr":"경기도 부천시 고강동 573-1번지 신풍빌라 A동 201호","indutype":"신변잡화 - 기타잡화","category":"other"}]},{"lat":"37.528615536","long":"126.82320707","imageIndex":17,"items":[{"name":"수영팜","tel":"","addr":"경기도 부천시 고강동 313-33번지 찬수빌딩","indutype":"신변잡화 - 기타잡화","category":"other"}]},{"lat":"37.521729787","long":"126.81598386","imageIndex":17,"items":[{"name":"수정지물포","tel":"032-8237-2651","addr":"경기도 부천시 고강동 341-5번지 산호빌라 402호","indutype":"직물 - 카페트,커튼,천막,지물","category":"other"}]},{"lat":"37.52948967","long":"126.81749179","imageIndex":17,"items":[{"name":"수주세탁소","tel":"032-681-1450","addr":"경기도 부천시 고강동 365-5번지 대성고강빌라 A동 101호","indutype":"수리서비스 - 세탁소","category":"other"}]},{"lat":"37.529368681","long":"126.81504843","imageIndex":17,"items":[{"name":"수주인테리어","tel":"032-678-6437","addr":"경기도 부천시 고강동 283-8번지 1층","indutype":"건축자재 - 인테리어전문","category":"other"},{"name":"엄마랑슬라임만들기","tel":"031-1899-3272","addr":"경기도 부천시 고강동 283-8번지 1층","indutype":"서적문구 - 문구용품","category":"other"}]},{"lat":"37.527979741","long":"126.81415819","imageIndex":17,"items":[{"name":"슈발리제화","tel":"032-674-5068","addr":"경기도 부천시 고강동 321-16번지 1층","indutype":"신변잡화 - 신발","category":"other"}]},{"lat":"37.529676919","long":"126.82203926","imageIndex":17,"items":[{"name":"스피드공인중개사사무소","tel":"032-678-1230","addr":"경기도 부천시 고강동 359-38번지 1층 2호","indutype":"용역 서비스 - 부동산 중개·임대","category":"other"},{"name":"흙속의진주","tel":"032-671-4728","addr":"경기도 부천시 고강동 359-38번지","indutype":"의류 - 정장","category":"other"}]},{"lat":"37.526873625","long":"126.82124281","imageIndex":17,"items":[{"name":"스피드유통","tel":"070-7699-4333","addr":"경기도 부천시 고강동 389-1번지 삼우아파트","indutype":"유통업 영리 - 기타유통업","category":"other"}]},{"lat":"37.528370751","long":"126.82221211","imageIndex":17,"items":[{"name":"신세계크린업","tel":"032-431-3335","addr":"경기도 부천시 고강동 393-6번지 젤라주택지1호","indutype":"용역 서비스 - 종합용역","category":"other"}]},{"lat":"37.527809781","long":"126.8149279","imageIndex":17,"items":[{"name":"신신꼬","tel":"032-675-6633","addr":"경기도 부천시 고강동 470-2번지","indutype":"신변잡화 - 신발","category":"other"},{"name":"잉글랜드제화","tel":"032-675-6633","addr":"경기도 부천시 고강동 470-2번지 부일빌딩 31층","indutype":"신변잡화 - 신발","category":"other"},{"name":"정아유통","tel":"032-673-7479","addr":"경기도 부천시 고강동 470-2.3호상가1층1","indutype":"의류 - 정장","category":"other"}]},{"lat":"37.527816223","long":"126.81332144","imageIndex":17,"items":[{"name":"신앙촌상회","tel":"032-671-4487","addr":"경기도 부천시 고강동 310-4번지 1층","indutype":"신변잡화 - 기타잡화","category":"other"}]},{"lat":"37.528449109","long":"126.82043576","imageIndex":17,"items":[{"name":"신한천막","tel":"111-111-1111","addr":"경기도 부천시 고강동 381-30번지 1층","indutype":"직물 - 카페트,커튼,천막,지물","category":"other"},{"name":"예그리나스킨케어","tel":"032-675-0326","addr":"경기도 부천시 고강동 381-30번지 1층","indutype":"회원제형태 - 기타4","category":"other"}]},{"lat":"37.530616344","long":"126.81777183","imageIndex":17,"items":[{"name":"썬(SUN)에듀","tel":"","addr":"경기도 부천시 고강동 365-37번지 미성타운 A동 101호","indutype":"서적문구 - 일반서적","category":"other"}]},{"lat":"37.529231107","long":"126.81923466","imageIndex":17,"items":[{"name":"쓰담","tel":"031-000-0000","addr":"경기도 부천시 고강동 363-20번지 드림하우스 1층 101호","indutype":"의류 - 정장","category":"other"}]},{"lat":"37.530063498","long":"126.81571418","imageIndex":17,"items":[{"name":"씨유고강대로점","tel":"032-662-3088","addr":"경기도 부천시 고강동 284-2번지 청담에비뉴제네시스101","indutype":"유통업 영리 - 편 의 점","category":"other"}]},{"lat":"37.526425435","long":"126.81693373","imageIndex":17,"items":[{"name":"씨유고강삼원점","tel":"032-683-0905","addr":"경기도 부천시 고강동 372번지 세경빌딩 1층","indutype":"유통업 영리 - 편 의 점","category":"other"}]},{"lat":"37.52937311","long":"126.8178541","imageIndex":17,"items":[{"name":"씨유고강성미점","tel":"032-673-6163","addr":"경기도 부천시 고강동 365-4번지","indutype":"유통업 영리 - 편 의 점","category":"other"}]},{"lat":"37.528037093","long":"126.82202059","imageIndex":17,"items":[{"name":"씨유고강으뜸점","tel":"032-662-3088","addr":"경기도 부천시 고강동 394번지 1층","indutype":"유통업 영리 - 편 의 점","category":"other"}]},{"lat":"37.5238698577","long":"126.8132974868","imageIndex":17,"items":[{"name":"씨유부천고강점","tel":"032-675-9920","addr":"경기도 부천시 고강동 304-4대하에버그린상가1층101,102","indutype":"유통업 영리 - 편 의 점","category":"other"}]},{"lat":"37.527504776","long":"126.81576582","imageIndex":17,"items":[{"name":"아가페","tel":"032-671-8612","addr":"경기도 부천시 고강동 471-1번지","indutype":"신변잡화 - 시계","category":"other"},{"name":"에트루스카","tel":"070-1111-1111","addr":"경기도 부천시 고강동 471-1번지 1층","indutype":"의류 - 정장","category":"other"},{"name":"황보당","tel":"032-678-4422","addr":"경기도 부천시 고강동 471-1번지","indutype":"신변잡화 - 시계","category":"other"}]},{"lat":"37.528894634","long":"126.82307064","imageIndex":17,"items":[{"name":"아기사랑","tel":"032-7391-9713","addr":"경기도 부천시 고강동 313-6번지 그린빌라 1층 일부그린빌라","indutype":"의류 - 아동의류","category":"other"},{"name":"엘엔엘코리아","tel":"032-202-8288","addr":"경기도 부천시 고강동 313-6번지 그린빌라 1층 2호","indutype":"신변잡화 - 액세서리","category":"other"}]},{"lat":"37.528066777","long":"126.82376272","imageIndex":17,"items":[{"name":"아리","tel":"032-671-0755","addr":"경기도 부천시 고강동 412-15","indutype":"회원제형태 - 기타4","category":"other"}]},{"lat":"37.521371156","long":"126.81145995","imageIndex":17,"items":[{"name":"아이클린","tel":"032-655-5109","addr":"경기도 부천시 고강동 298-21번지 성주파크빌4차 1층 2호","indutype":"수리서비스 - 세탁소","category":"other"}]},{"lat":"37.53003885","long":"126.82304527","imageIndex":17,"items":[{"name":"아트자동문","tel":"","addr":"경기도 부천시 고강동 246-5번지 고강2차아파트","indutype":"용역 서비스 - 기타용역서비스","category":"other"}]},{"lat":"37.528701507","long":"126.82051434","imageIndex":17,"items":[{"name":"아하교육","tel":"032-683-2969","addr":"경기도 부천시 고강동 381-40번지 장한빌라 3호","indutype":"회원제형태 - 서적","category":"other"}]},{"lat":"37.525343045","long":"126.82195922","imageIndex":17,"items":[{"name":"안정자우리옷","tel":"032-684-2693","addr":"경기도 부천시 고강동 399-24번지","indutype":"의류 - 정장","category":"other"}]},{"lat":"37.52214985","long":"126.82546238","imageIndex":17,"items":[{"name":"알투디","tel":"02-2265-8097","addr":"경기도 부천시 고강동 572-1번지 광원빌라 201호","indutype":"용역 서비스 - 사무서비스","category":"other"}]},{"lat":"37.540198838","long":"126.81523625","imageIndex":17,"items":[{"name":"양천공업사","tel":"02-2655-1555","addr":"경기도 부천시 고강동 11-8번지","indutype":"건축자재 - 기타건축자재","category":"other"}]},{"lat":"37.523067219","long":"126.82437423","imageIndex":17,"items":[{"name":"어흥이벤트컴퍼니","tel":"031-591-2824","addr":"경기도 부천시 고강동 559번지 동일빌라 지층 1호","indutype":"용역 서비스 - 종합용역","category":"other"}]},{"lat":"37.525589847","long":"126.81273881","imageIndex":17,"items":[{"name":"언약인테리어","tel":"032-201-3311","addr":"경기도 부천시 고강동 307번지 건우아파트","indutype":"회원제형태 - 기타4","category":"other"},{"name":"유앤제이","tel":"032-683-9355","addr":"경기도 부천시 고강동 307번지 건우아파트","indutype":"직물 - 침구·수예점","category":"other"}]},{"lat":"37.525893026","long":"126.82220677","imageIndex":17,"items":[{"name":"엄마손","tel":"","addr":"경기도 부천시 고강동 398-6번지","indutype":"신변잡화 - 기타잡화","category":"other"}]},{"lat":"37.526593797","long":"126.82090411","imageIndex":17,"items":[{"name":"에덴혼수","tel":"032-673-6737","addr":"경기도 부천시 고강동 389-2번지","indutype":"직물 - 침구·수예점","category":"other"}]},{"lat":"37.527288078","long":"126.82124181","imageIndex":17,"items":[{"name":"에버그린","tel":"032-524-0426","addr":"경기도 부천시 고강동 390-13번지 성산그린빌라트 101호","indutype":"서적문구 - 기타서적문구","category":"other"}]},{"lat":"37.526814085","long":"126.81771335","imageIndex":17,"items":[{"name":"에스더 종합물류","tel":"032-673-0461","addr":"경기도 부천시 고강동 376번지","indutype":"신변잡화 - 기념품점","category":"other"},{"name":"코자이너","tel":"032-212-5321","addr":"경기도 부천시 고강동 376번지 좌축 2층","indutype":"레져용품 - 스포츠·레져용품","category":"other"}]},{"lat":"37.52950689","long":"126.81698265","imageIndex":17,"items":[{"name":"에스엠 컴퍼니","tel":"070-7783-6782","addr":"경기도 부천시 고강동 366-2번지 1층","indutype":"신변잡화 - 가방","category":"other"}]},{"lat":"37.526502101","long":"126.82578014","imageIndex":17,"items":[{"name":"에어컨다나와","tel":"070-5025-5543","addr":"경기도 부천시 고강동 329-24번지 메종빌라트 5동 지층 102호","indutype":"용역 서비스 - 기타용역서비스","category":"other"}]},{"lat":"37.527761339","long":"126.81849161","imageIndex":17,"items":[{"name":"에이스전산","tel":"070-4307-9197","addr":"경기도 부천시 고강동 378번지 인성아파트","indutype":"회원제형태 - 기타3","category":"other"}]},{"lat":"37.52403929","long":"126.82371579","imageIndex":17,"items":[{"name":"에이스툴","tel":"032-683-4546","addr":"경기도 부천시 고강동 420-2번지 복지빌라 2동 404호","indutype":"기타 - 기계공구","category":"other"}]},{"lat":"37.525590575","long":"126.82476416","imageIndex":17,"items":[{"name":"엔지엘","tel":"032-676-8311","addr":"경기도 부천시 고강동 415-1번지","indutype":"건축자재 - 조명기구","category":"other"}]},{"lat":"37.527952078","long":"126.8137623","imageIndex":17,"items":[{"name":"엠제이이(M.J.E)","tel":"032-671-2196","addr":"경기도 부천시 고강동 321-1번지 지하층","indutype":"전기제품 - 기타전기제품","category":"other"}]},{"lat":"37.522887227","long":"126.8245104","imageIndex":17,"items":[{"name":"여기로닷컴","tel":"070-8688-2644","addr":"경기도 부천시 고강동 564번지 궁전빌라 가동 102호","indutype":"회원제형태 - 기타4","category":"other"}]},{"lat":"37.52573154","long":"126.82265966","imageIndex":17,"items":[{"name":"여우멋내기","tel":"032-671-9052","addr":"경기도 부천시 고강동 407번지 1층 1호","indutype":"의류 - 정장","category":"other"}]},{"lat":"37.530591769","long":"126.81934446","imageIndex":17,"items":[{"name":"영지물장식","tel":"032-684-9136","addr":"경기도 부천시 고강동 354-14번지 용주하이츠맨션","indutype":"직물 - 카페트,커튼,천막,지물","category":"other"}]},{"lat":"37.524594901","long":"126.8159654","imageIndex":17,"items":[{"name":"영진철물","tel":"032-673-9255","addr":"경기도 부천시 고강동 345-12번지 대성리치빌 101호","indutype":"건축자재 - 목재·석재·철물","category":"other"}]},{"lat":"37.530091458","long":"126.82209482","imageIndex":17,"items":[{"name":"영텔레콤","tel":"070-4046-1590","addr":"경기도 부천시 고강동 359-10번지 상가주택1층 상가4호","indutype":"사무통신 - 통신기기","category":"other"}]},{"lat":"37.52364403","long":"126.81293606","imageIndex":17,"items":[{"name":"예림","tel":"070-7348-3850","addr":"경기도 부천시 고강동 304-3번지 부강아파트1차","indutype":"신변잡화 - 신발","category":"other"}]},{"lat":"37.525981337","long":"126.82104135","imageIndex":17,"items":[{"name":"예뻐요스킨케어","tel":"032-224-0644","addr":"경기도 부천시 고강동 388-9번지 킹스빌","indutype":"회원제형태 - 기타4","category":"other"}]},{"lat":"37.527064206","long":"126.81634388","imageIndex":17,"items":[{"name":"예원ENG","tel":"02-1577-3366","addr":"경기도 부천시 고강동 347-6번지 성상민소아과","indutype":"용역 서비스 - 기타용역서비스","category":"other"}]},{"lat":"37.529759201","long":"126.81700465","imageIndex":17,"items":[{"name":"예원기획","tel":"070-8288-3926","addr":"경기도 부천시 고강동 366-9번지 동양주택 9동 102호","indutype":"용역 서비스 - 종합용역","category":"other"}]},{"lat":"37.528978708","long":"126.81915609","imageIndex":17,"items":[{"name":"오늘도 예쁘게","tel":"032-111-1111","addr":"경기도 부천시 고강동 380-3번지 1층 3호","indutype":"의류 - 정장","category":"other"},{"name":"피아노캠퍼스","tel":"070-8279-4497","addr":"경기도 부천시 고강동 380-3번지 1층 1호","indutype":"레져용품 - 피아노대리점","category":"other"}]},{"lat":"37.522365661","long":"126.82517906","imageIndex":17,"items":[{"name":"오로라S라인","tel":"070-2699-0807","addr":"경기도 부천시 고강동 571번지 한솔빌리지 302호","indutype":"의류 - 내의판매","category":"other"}]},{"lat":"37.528843596","long":"126.81917904","imageIndex":17,"items":[{"name":"오투클린특판진방경기지사(N&B)","tel":"032-1111-1111","addr":"경기도 부천시 고강동 380-9번지 1층 101호","indutype":"건축자재 - 기타건축자재","category":"other"}]},{"lat":"37.528949123","long":"126.82335334","imageIndex":17,"items":[{"name":"온누리","tel":"","addr":"경기도 부천시 고강동 313-36번지 3층","indutype":"신변잡화 - 기타잡화","category":"other"}]},{"lat":"37.526008118","long":"126.81512473","imageIndex":17,"items":[{"name":"와이크린 세탁소","tel":"070-7313-6325","addr":"경기도 부천시 고강동 461-1번지 서원 상가 104호","indutype":"수리서비스 - 세탁소","category":"other"}]},{"lat":"37.531142632","long":"126.82015768","imageIndex":17,"items":[{"name":"와이포스","tel":"032-1899-5835","addr":"경기도 부천시 고강동 355-1번지 황금빌라 401호","indutype":"사무통신 - 통신기기","category":"other"}]},{"lat":"37.523844729","long":"126.81448535","imageIndex":17,"items":[{"name":"우성가구","tel":"032-673-5792","addr":"경기도 부천시 고강동 338-7번지 효성하이츠빌 1동 101호","indutype":"가구 - 일반가구","category":"other"}]},{"lat":"37.529397527","long":"126.82198336","imageIndex":17,"items":[{"name":"우성상회","tel":"032-673-8484","addr":"경기도 부천시 고강동 359-14번지 거성빌라7차","indutype":"주방용구 - 주방용식기","category":"other"}]},{"lat":"37.5264553","long":"126.8187437","imageIndex":17,"items":[{"name":"우주철물","tel":"032-683-8218","addr":"경기도 부천시 고강동 376-3번지 대하굿모닝빌 상가 101호","indutype":"건축자재 - 목재·석재·철물","category":"other"},{"name":"제이케이(J.K).lnc","tel":"","addr":"경기도 부천시 고강동 376-3번지 대하굿모닝빌 102호","indutype":"용역 서비스 - 기타용역서비스","category":"other"}]},{"lat":"37.521977027","long":"126.82437682","imageIndex":17,"items":[{"name":"월드화장지","tel":"032-681-1929","addr":"경기도 부천시 고강동 574-6번지","indutype":"서적문구 - 문구용품","category":"other"}]},{"lat":"37.529603512","long":"126.81540987","imageIndex":17,"items":[{"name":"유멋내기","tel":"032-677-2071","addr":"경기도 부천시 고강동 284-11번지 정우주택 가동 지층 2호","indutype":"의류 - 내의판매","category":"other"}]},{"lat":"37.527615582","long":"126.81181732","imageIndex":17,"items":[{"name":"유아동복 꼬까얌","tel":"032-288-1240","addr":"경기도 부천시 고강동 292-4번지 성산주택 8동 303호","indutype":"의류 - 아동의류","category":"other"}]},{"lat":"37.527317498","long":"126.81698808","imageIndex":17,"items":[{"name":"유이통신","tel":"032-673-6222","addr":"경기도 부천시 고강동 370-11번지 성산빌딩 1층","indutype":"사무통신 - 통신기기","category":"other"}]},{"lat":"37.522678719","long":"126.81215797","imageIndex":17,"items":[{"name":"유창","tel":"032-203-1471","addr":"경기도 부천시 고강동 302번지 영재리치빌","indutype":"신변잡화 - 기타잡화","category":"other"}]},{"lat":"37.525703416","long":"126.81615495","imageIndex":17,"items":[{"name":"은빛노인전문요양원","tel":"032-677-5678","addr":"경기도 부천시 고강동 346-9번지 해륙빌딩 4층","indutype":"기타의료기관 - 기타의료기관 및 기타","category":"other"}]},{"lat":"37.526178387","long":"126.81454736","imageIndex":17,"items":[{"name":"은혜공조시스템","tel":"032-674-0044","addr":"경기도 부천시 고강동 333-3번지 서원아파트","indutype":"용역 서비스 - 기타용역서비스","category":"other"}]},{"lat":"37.525673079","long":"126.8197977","imageIndex":17,"items":[{"name":"이로잡화판촉","tel":"032-883-6982","addr":"경기도 부천시 고강동 385-19번지","indutype":"기타 - 기타 전문점","category":"other"}]},{"lat":"37.527255737","long":"126.81215763","imageIndex":17,"items":[{"name":"이룸공인중개사사무소","tel":"032-678-0088","addr":"경기도 부천시 고강동 309-8번지","indutype":"용역 서비스 - 부동산 중개·임대","category":"other"}]},{"lat":"37.530534065","long":"126.81701404","imageIndex":17,"items":[{"name":"이마트24 고강수주점","tel":"032-1111-1111","addr":"경기도 부천시 고강동 366번지 세영하이츠맨션 지층 101호","indutype":"유통업 영리 - 편 의 점","category":"other"}]},{"lat":"37.52381806","long":"126.81471167","imageIndex":17,"items":[{"name":"이마트24 부천고강본점","tel":"","addr":"경기도 부천시 고강동 338-9번지 1층","indutype":"유통업 영리 - 편 의 점","category":"other"}]},{"lat":"37.524560795","long":"126.82301317","imageIndex":17,"items":[{"name":"이마트24 부천고강시장점","tel":"032-1111-1111","addr":"경기도 부천시 고강동 406-15번지","indutype":"유통업 영리 - 편 의 점","category":"other"}]},{"lat":"37.534281425","long":"126.81654087","imageIndex":17,"items":[{"name":"이마트24 부천공항가스","tel":"032-1111-1111","addr":"경기도 부천시 고강동 218-6번지","indutype":"유통업 영리 - 편 의 점","category":"other"}]},{"lat":"37.527431556","long":"126.82080026","imageIndex":17,"items":[{"name":"이에이치멕스","tel":"032-684-1021","addr":"경기도 부천시 고강동 390-16번지 성산그린빌라트 라동 201호","indutype":"회원제형태 - 기타4","category":"other"}]},{"lat":"37.528703561","long":"126.82184928","imageIndex":17,"items":[{"name":"이엑스모바일","tel":"032-681-6362","addr":"경기도 부천시 고강동 392-2번지 경인합기도체육관 1층 코너","indutype":"사무통신 - 통신기기","category":"other"}]},{"lat":"37.52300906","long":"126.82168205","imageIndex":17,"items":[{"name":"이원공조","tel":"070-8905-7831","addr":"경기도 부천시 고강동 422-2번지 예스빌라 1층 2호","indutype":"용역 서비스 - 기타용역서비스","category":"other"}]},{"lat":"37.529812118","long":"126.82207287","imageIndex":17,"items":[{"name":"이젠","tel":"032-673-0558","addr":"경기도 부천시 고강동 359-12번지 한양그린빌라 1층 101호","indutype":"주방용구 - 주방용구","category":"other"}]},{"lat":"37.5283946815","long":"126.8144625950","imageIndex":17,"items":[{"name":"이천도자기","tel":"032-682-0474","addr":"경기도 부천시 고강동 318번지 고강제일시장 6-1","indutype":"문화.취미 - 골동품점","category":"other"}]},{"lat":"37.52378724","long":"126.81234746","imageIndex":17,"items":[{"name":"임마누엘","tel":"02-761-6504","addr":"경기도 부천시 고강동 304-10번지 대성리치빌 C동 302호","indutype":"회원제형태 - 기타1","category":"other"}]},{"lat":"37.527314846","long":"126.82107205","imageIndex":17,"items":[{"name":"자성금속","tel":"02-2603-8387","addr":"경기도 부천시 고강동 390-12번지 성산그린빌라트","indutype":"건축자재 - 기타건축자재","category":"other"}]},{"lat":"37.531309495","long":"126.82321192","imageIndex":17,"items":[{"name":"장갑나라","tel":"032-683-6490","addr":"경기도 부천시 고강동 249-1 20/6","indutype":"의류 - 기타의류","category":"other"}]},{"lat":"37.52595131","long":"126.82498955","imageIndex":17,"items":[{"name":"장미인테리어","tel":"032-671-0132","addr":"경기도 부천시 고강동 327번지 장미아파트","indutype":"건축자재 - 인테리어전문","category":"other"}]},{"lat":"37.525838599","long":"126.81617724","imageIndex":17,"items":[{"name":"장성산업주식회사","tel":"032-671-5960","addr":"경기도 부천시 고강동 346-11번지 장성빌딩 3층 301호","indutype":"주방용구 - 주방용구","category":"other"}]},{"lat":"37.525839227","long":"126.82237659","imageIndex":17,"items":[{"name":"장터","tel":"032-683-3312","addr":"경기도 부천시 고강동 398-7번지 1층","indutype":"신변잡화 - 신발","category":"other"}]},{"lat":"37.524118034","long":"126.82217711","imageIndex":17,"items":[{"name":"정우실업","tel":"032-674-2211","addr":"경기도 부천시 고강동 404-1번지","indutype":"유통업 영리 - 기타유통업","category":"other"}]},{"lat":"37.528532775","long":"126.81631759","imageIndex":17,"items":[{"name":"정우타일도기상사","tel":"032-682-9280","addr":"경기도 부천시 고강동 350-8번지","indutype":"건축자재 - 건축용 요업제품","category":"other"},{"name":"힘찬","tel":"032-678-3886","addr":"경기도 부천시 고강동 350-8번지","indutype":"회원제형태 - 레져업소","category":"other"}]},{"lat":"37.526481055","long":"126.81226142","imageIndex":17,"items":[{"name":"정원테크","tel":"032-2699-5082","addr":"경기도 부천시 고강동 308-34번지 1층","indutype":"사무통신 - 컴퓨터","category":"other"}]},{"lat":"37.525507391","long":"126.81754689","imageIndex":17,"items":[{"name":"제이에스(JS)공조","tel":"","addr":"경기도 부천시 고강동 375-7번지 현대빌라 101호","indutype":"용역 서비스 - 기타용역서비스","category":"other"}]},{"lat":"37.524865817","long":"126.82215268","imageIndex":17,"items":[{"name":"제이엔제이","tel":"032-201-1019","addr":"경기도 부천시 고강동 406-8번지 1층 일부","indutype":"의류 - 정장","category":"other"},{"name":"현대종합설비","tel":"032-672-2773","addr":"경기도 부천시 고강동 406-8번지 1층","indutype":"건축자재 - 기타건축자재","category":"other"}]},{"lat":"37.52873378","long":"126.82394214","imageIndex":17,"items":[{"name":"제이케이컴퍼니","tel":"032-671-3225","addr":"경기도 부천시 고강동 412-19번지 한진그린빌라 A동 2층 203호","indutype":"사무통신 - 통신기기","category":"other"}]},{"lat":"37.527198477","long":"126.81578921","imageIndex":17,"items":[{"name":"제일문고","tel":"032-679-6611","addr":"경기도 부천시 고강동 473-1번지 인일빌딩","indutype":"서적문구 - 일반서적","category":"other"},{"name":"제일문고","tel":"032-679-6611","addr":"경기도 부천시 고강동 473-1번지","indutype":"서적문구 - 일반서적","category":"other"}]},{"lat":"37.530951951","long":"126.81920781","imageIndex":17,"items":[{"name":"종합건축가우디","tel":"031-000-0000","addr":"경기도 부천시 고강동 354-7번지 영일그린빌라 202호","indutype":"건축자재 - 인테리어전문","category":"other"}]},{"lat":"37.540200077","long":"126.81601697","imageIndex":17,"items":[{"name":"주식회사 스미스테크","tel":"032-684-5577","addr":"경기도 부천시 고강동 11-43번지","indutype":"건축자재 - 기타건축자재","category":"other"}]},{"lat":"37.530476882","long":"126.82079285","imageIndex":17,"items":[{"name":"주식회사아나한별유통","tel":"032-672-2412","addr":"경기도 부천시 고강동 356-22번지","indutype":"신변잡화 - 기타잡화","category":"other"}]},{"lat":"37.526562942","long":"126.81843799","imageIndex":17,"items":[{"name":"줄리아","tel":"","addr":"경기도 부천시 고강동 376-28번지 1층","indutype":"의류 - 정장","category":"other"}]},{"lat":"37.530316496","long":"126.82195852","imageIndex":17,"items":[{"name":"중고재활용센타","tel":"032-677-5619","addr":"경기도 부천시 고강동 357-16번지 한솔타운 B2호","indutype":"신변잡화 - 기타잡화","category":"other"}]},{"lat":"37.530260052","long":"126.82040873","imageIndex":17,"items":[{"name":"쥬에즈","tel":"","addr":"경기도 부천시 고강동 361번지 세린하우스 401호","indutype":"신변잡화 - 가방","category":"other"}]},{"lat":"37.530952478","long":"126.81954722","imageIndex":17,"items":[{"name":"지디사운드(GD사운드)","tel":"032-671-4690","addr":"경기도 부천시 고강동 354-18번지 지층","indutype":"용역 서비스 - 기타용역서비스","category":"other"}]},{"lat":"37.524704952","long":"126.82301282","imageIndex":17,"items":[{"name":"진스데코","tel":"031-991-8885","addr":"경기도 부천시 고강동 406-14번지 신영아트빌 403호","indutype":"가구 - 기타가구","category":"other"}]},{"lat":"37.52628495","long":"126.81357419","imageIndex":17,"items":[{"name":"진철물","tel":"032-671-3606","addr":"경기도 부천시 고강동 333-1번지","indutype":"건축자재 - 목재·석재·철물","category":"other"}]},{"lat":"37.525146483","long":"126.81157474","imageIndex":17,"items":[{"name":"창원디자인","tel":"032-682-5013","addr":"경기도 부천시 고강동 294번지 한솔 상가 101호","indutype":"건축자재 - 인테리어전문","category":"other"}]},{"lat":"37.526368429","long":"126.82082546","imageIndex":17,"items":[{"name":"천사의꿈","tel":"032-204-0460","addr":"경기도 부천시 고강동 388-4번지 씨엠퍼스트빌2차","indutype":"신변잡화 - 기타잡화","category":"other"}]},{"lat":"37.527921485","long":"126.82301641","imageIndex":17,"items":[{"name":"천하설비","tel":"","addr":"경기도 부천시 고강동 394-9번지 1층 일부","indutype":"용역 서비스 - 기타용역서비스","category":"other"}]},{"lat":"37.528699859","long":"126.81373779","imageIndex":17,"items":[{"name":"청양직물","tel":"032-676-0138","addr":"경기도 부천시 고강동 287-7번지","indutype":"직물 - 옷감·직물","category":"other"}]},{"lat":"37.525342055","long":"126.81554497","imageIndex":17,"items":[{"name":"체형관리","tel":"","addr":"경기도 부천시 고강동 480-1번지","indutype":"회원제형태 - 기타4","category":"other"}]},{"lat":"37.52453363","long":"126.81146318","imageIndex":17,"items":[{"name":"칼라풀","tel":"032-679-0128","addr":"경기도 부천시 고강동 294-13번지 동방빌딩 3층 301호","indutype":"의류 - 정장","category":"other"},{"name":"칼라풀우산","tel":"032-679-0128","addr":"경기도 부천시 고강동 294-13번지 301호 외1필지동방빌딩 일부","indutype":"신변잡화 - 기타잡화","category":"other"},{"name":"해피중고가전가구","tel":"032-673-8245","addr":"경기도 부천시 고강동 294-13번지 동방빌딩 102호","indutype":"신변잡화 - 기타잡화","category":"other"}]},{"lat":"37.530306961","long":"126.81583801","imageIndex":17,"items":[{"name":"케이엠시스템","tel":"032-676-1330","addr":"경기도 부천시 고강동 284-21번지 명보그린빌라 A동 401호","indutype":"유통업 영리 - 기타유통업","category":"other"}]},{"lat":"37.526092176","long":"126.82281718","imageIndex":17,"items":[{"name":"코코","tel":"","addr":"경기도 부천시 고강동 408-9번지 예다움 1층 101호","indutype":"의류 - 정장","category":"other"},{"name":"홈마루","tel":"032-682-8990","addr":"경기도 부천시 고강동 408-9번지 예다움","indutype":"건축자재 - 인테리어전문","category":"other"}]},{"lat":"37.527951335","long":"126.81329847","imageIndex":17,"items":[{"name":"코코베베","tel":"032-431-3335","addr":"경기도 부천시 고강동 310-3번지","indutype":"의류 - 정장","category":"other"}]},{"lat":"37.524623657","long":"126.82287727","imageIndex":17,"items":[{"name":"크린몬스터","tel":"","addr":"경기도 부천시 고강동 406-16번지 호림빌라 101호","indutype":"용역 서비스 - 종합용역","category":"other"}]},{"lat":"37.527673804","long":"126.81440784","imageIndex":17,"items":[{"name":"크린토피아 고강제일시장점","tel":"032-679-1043","addr":"경기도 부천시 고강동 320-1번지 1호","indutype":"수리서비스 - 세탁소","category":"other"}]},{"lat":"37.527426878","long":"126.81779103","imageIndex":17,"items":[{"name":"클라라스킨케어","tel":"032-678-1552","addr":"경기도 부천시 고강동 377번지 1층","indutype":"회원제형태 - 기타4","category":"other"}]},{"lat":"37.521809997","long":"126.81542937","imageIndex":17,"items":[{"name":"킹콩SOUND","tel":"032-679-4559","addr":"경기도 부천시 고강동 342-1번지","indutype":"전기제품 - 기타전기제품","category":"other"}]},{"lat":"37.522317593","long":"126.8117064","imageIndex":17,"items":[{"name":"태경월드","tel":"032-1577-3921","addr":"경기도 부천시 고강동 296-5번지 태흥빌라 B동 202호","indutype":"용역 서비스 - 기타용역서비스","category":"other"}]},{"lat":"37.52598281","long":"126.81621082","imageIndex":17,"items":[{"name":"태성가구","tel":"032-683-4912","addr":"경기도 부천시 고강동 346-12번지 1층","indutype":"가구 - 일반가구","category":"other"},{"name":"한국이엠아이테크놀로지(주)","tel":"032-682-0053","addr":"경기도 부천시 고강동 346-12번지","indutype":"기타 - 기계공구","category":"other"}]},{"lat":"37.522115595","long":"126.81496481","imageIndex":17,"items":[{"name":"태승","tel":"","addr":"경기도 부천시 고강동 340-3번지 목화주택 가동 302호","indutype":"용역 서비스 - 기타용역서비스","category":"other"}]},{"lat":"37.529012034","long":"126.81176851","imageIndex":17,"items":[{"name":"태양유압","tel":"","addr":"경기도 부천시 고강동 290-11번지 월드아이빌 3동 502호","indutype":"수리서비스 - 기타수리서비스","category":"other"}]},{"lat":"37.539786804","long":"126.81676478","imageIndex":17,"items":[{"name":"태평양가설산업주식회사","tel":"032-683-4989","addr":"경기도 부천시 고강동 12-7","indutype":"건축자재 - 기타건축자재","category":"other"}]},{"lat":"37.5249283007","long":"126.8159871944","imageIndex":17,"items":[{"name":"테라테크","tel":"032-677-2577","addr":"경기도 부천시 고강동 345-26번지 대호빌리지 1층 이양컴퓨터","indutype":"사무통신 - 컴퓨터","category":"other"}]},{"lat":"37.525009461","long":"126.81603224","imageIndex":17,"items":[{"name":"토탈의류","tel":"032-679-1919","addr":"경기도 부천시 고강동 345-26번지 대호빌리지2차 3동 101-3호","indutype":"의류 - 정장","category":"other"},{"name":"풍경드라이비트","tel":"032-676-6336","addr":"경기도 부천시 고강동 345-26번지 대호빌리지 3동 101호","indutype":"건축자재 - 기타건축자재","category":"other"}]},{"lat":"37.529289842","long":"126.82226646","imageIndex":17,"items":[{"name":"토탈장식","tel":"032-684-7490","addr":"경기도 부천시 고강동 358-1번지","indutype":"건축자재 - 목재·석재·철물","category":"other"},{"name":"하얀나래","tel":"032-675-5591","addr":"경기도 부천시 고강동 358-1번지 1층 1호","indutype":"직물 - 카페트,커튼,천막,지물","category":"other"}]},{"lat":"37.529227032","long":"126.81663263","imageIndex":17,"items":[{"name":"파티빈(party Bin)","tel":"031-0000-0000","addr":"경기도 부천시 고강동 350번지 1층 2호","indutype":"신변잡화 - 기타잡화","category":"other"}]},{"lat":"37.523844221","long":"126.81989267","imageIndex":17,"items":[{"name":"풀클린","tel":"032-683-6763","addr":"경기도 부천시 고강동 402-20번지 대림빌라 1동 202호","indutype":"용역 서비스 - 종합용역","category":"other"}]},{"lat":"37.528504384","long":"126.81545787","imageIndex":17,"items":[{"name":"풍천만식당","tel":"032-674-1640","addr":"경기도 부천시 고강동 285-8번지","indutype":"기타 - 기타 전문점","category":"other"}]},{"lat":"37.529563484","long":"126.8186003","imageIndex":17,"items":[{"name":"프리미엄바디슈트","tel":"070-2257-9147","addr":"경기도 부천시 고강동 364-14번지 3층","indutype":"회원제형태 - 기타1","category":"other"}]},{"lat":"37.527977873","long":"126.81299295","imageIndex":17,"items":[{"name":"플러스","tel":"032-675-6870","addr":"경기도 부천시 고강동 310-1번지 1층","indutype":"의류 - 정장","category":"other"},{"name":"핑크토끼","tel":"032-208-6422","addr":"경기도 부천시 고강동 310-1번지","indutype":"신변잡화 - 액세서리","category":"other"},{"name":"혜림이네","tel":"032-684-7643","addr":"경기도 부천시 고강동 310-1번지 2층","indutype":"의류 - 정장","category":"other"}]},{"lat":"37.528282895","long":"126.81217764","imageIndex":17,"items":[{"name":"필하우스","tel":"032-679-2777","addr":"경기도 부천시 고강동 311-12번지","indutype":"직물 - 카페트,커튼,천막,지물","category":"other"}]},{"lat":"37.526043184","long":"126.82024931","imageIndex":17,"items":[{"name":"하얀나라깨끗한세상","tel":"032-675-6144","addr":"경기도 부천시 고강동 387번지 대현빌라 다동 B01호","indutype":"수리서비스 - 세탁소","category":"other"}]},{"lat":"37.528456629","long":"126.81376103","imageIndex":17,"items":[{"name":"하운드펫","tel":"032-972-6055","addr":"경기도 부천시 고강동 312-7번지 신일파크빌 303호","indutype":"회원제형태 - 기타4","category":"other"}]},{"lat":"37.528593302","long":"126.82045804","imageIndex":17,"items":[{"name":"하이텍","tel":"070-8923-5811","addr":"경기도 부천시 고강동 381-26번지 지하층 1호","indutype":"전기제품 - 기타전기제품","category":"other"}]},{"lat":"37.528536436","long":"126.82451958","imageIndex":17,"items":[{"name":"한강대리점","tel":"070-3487-0458","addr":"경기도 부천시 고강동 413-6번지 고리울마을","indutype":"유통업 영리 - 기타유통업","category":"other"}]},{"lat":"37.522924068","long":"126.82504199","imageIndex":17,"items":[{"name":"한국실업","tel":"032-681-8548","addr":"경기도 부천시 고강동 558-3번지","indutype":"신변잡화 - 기타잡화","category":"other"}]},{"lat":"37.52623274","long":"126.8204751","imageIndex":17,"items":[{"name":"한빛정보통신","tel":"032-672-6992","addr":"경기도 부천시 고강동 388-16번지 덕용주택 나동 302호","indutype":"사무통신 - 통신기기","category":"other"}]},{"lat":"37.527065032","long":"126.82267908","imageIndex":17,"items":[{"name":"한샘전기","tel":"032-677-7444","addr":"경기도 부천시 고강동 395-12번지 홍양주택 1층 2호","indutype":"용역 서비스 - 기타용역서비스","category":"other"}]},{"lat":"37.525146922","long":"126.81184625","imageIndex":17,"items":[{"name":"한영상사","tel":"032-673-4232","addr":"경기도 부천시 고강동 294-1번지","indutype":"유통업 영리 - 기타유통업","category":"other"}]},{"lat":"37.526178644","long":"126.82638048","imageIndex":17,"items":[{"name":"한울인테리어","tel":"032-675-0205","addr":"경기도 부천시 고강동 326-22번지 고리울파크빌리지 나동 5층 502호","indutype":"건축자재 - 인테리어전문","category":"other"}]},{"lat":"37.53953434","long":"126.81101751","imageIndex":17,"items":[{"name":"한진건재","tel":"02-2667-0514","addr":"경기도 부천시 고강동 47-1번지","indutype":"건축자재 - 기타건축자재","category":"other"}]},{"lat":"37.524707063","long":"126.82440426","imageIndex":17,"items":[{"name":"한화ES (에너지세이빙)창호","tel":"032-549-0770","addr":"경기도 부천시 고강동 416-11번지 유림빌딩 1층 일부","indutype":"건축자재 - 기타건축자재","category":"other"}]},{"lat":"37.528954085","long":"126.81495897","imageIndex":17,"items":[{"name":"합동진리총회","tel":"032-672-8568","addr":"경기도 부천시 고강동 286-14번지 지층","indutype":"기타 - 비영리/대상","category":"other"}]},{"lat":"37.526509095","long":"126.81857388","imageIndex":17,"items":[{"name":"향기담기","tel":"032-677-8551","addr":"경기도 부천시 고강동 376-29번지","indutype":"문화.취미 - 화원","category":"other"}]},{"lat":"37.521454036","long":"126.81256832","imageIndex":17,"items":[{"name":"헬스코리아","tel":"032-682-0162","addr":"경기도 부천시 고강동 301-12 늘푸른마을 402 15/3","indutype":"수리서비스 - 레져용품수리","category":"other"}]},{"lat":"37.524423624","long":"126.81590927","imageIndex":17,"items":[{"name":"혁패션","tel":"032-677-7055","addr":"경기도 부천시 고강동 345-19번지 1층 3호","indutype":"의류 - 스포츠의류","category":"other"}]},{"lat":"37.528649155","long":"126.82162315","imageIndex":17,"items":[{"name":"현대사무용가구,토탈퍼니쳐","tel":"032-668-8130","addr":"경기도 부천시 고강동 392-1번지 남정빌딩","indutype":"가구 - 일반가구","category":"other"}]},{"lat":"37.526814292","long":"126.81218138","imageIndex":17,"items":[{"name":"호부띠끄","tel":"032-676-3321","addr":"경기도 부천시 고강동 309-7번지 1층","indutype":"의류 - 정장","category":"other"}]},{"lat":"37.524177389","long":"126.81404333","imageIndex":17,"items":[{"name":"홈시스템","tel":"032-344-8301","addr":"경기도 부천시 고강동 336-13번지 현지그린빌 302호","indutype":"용역 서비스 - 종합용역","category":"other"}]},{"lat":"37.526976929","long":"126.82399159","imageIndex":17,"items":[{"name":"회현공조시스템","tel":"","addr":"경기도 부천시 고강동 410-5번지 B동 201호","indutype":"용역 서비스 - 기타용역서비스","category":"other"}]}]