[{"lat":"37.793651543","long":"127.16499717","imageIndex":4,"items":[{"name":"456국수","tel":"031-542-8986","addr":"경기도 포천시 소흘읍 고모리 708-1번지","indutype":"일반휴게음식 - 일반한식","category":"restaurant"},{"name":"고모민물털랭이매운탕","tel":"031-542-8895","addr":"경기도 포천시 소흘읍 고모리 708-1번지 1층","indutype":"일반휴게음식 - 일반한식","category":"restaurant"},{"name":"마시니커피숍","tel":"031-542-8895","addr":"경기도 포천시 소흘읍 고모리 708-1번지","indutype":"일반휴게음식 - 서양음식","category":"restaurant"},{"name":"철원어부네매운탕","tel":"542-8895","addr":"경기도 포천시 소흘읍 고모리 708-1번지 1층","indutype":"음식 - 한식","category":"restaurant"},{"name":"철원어부네매운탕","tel":"031-542-8895","addr":"경기도 포천시 소흘읍 고모리 708-1번지 1층","indutype":"일반휴게음식 - 일반한식","category":"restaurant"}]},{"lat":"37.7967554","long":"127.16817169","imageIndex":4,"items":[{"name":"강나루","tel":"542-5295","addr":"경기도 포천시 소흘읍 고모리 266번지","indutype":"음식 - 한식","category":"restaurant"}]},{"lat":"37.804176261","long":"127.16378248","imageIndex":4,"items":[{"name":"개성초계탕","tel":"031-543-2798","addr":"경기도 포천시 소흘읍 고모리 614-5번지","indutype":"일반휴게음식 - 일반한식","category":"restaurant"},{"name":"개성초계탕","tel":"543-2798","addr":"경기도 포천시 소흘읍 고모리 614-5번지","indutype":"음식 - 한식","category":"restaurant"}]},{"lat":"37.796783707","long":"127.16066684","imageIndex":4,"items":[{"name":"고모리691","tel":"541-9691","addr":"경기도 포천시 소흘읍 고모리 691번지","indutype":"음식 - 경양식","category":"restaurant"},{"name":"고모리691","tel":"031-541-2691","addr":"경기도 포천시 소흘읍 고모리 691번지","indutype":"일반휴게음식 - 서양음식","category":"restaurant"}]},{"lat":"37.791903273","long":"127.16531124","imageIndex":4,"items":[{"name":"고모리김밥","tel":"031-542-1951","addr":"경기도 포천시 소흘읍 고모리 712-2번지 1층","indutype":"일반휴게음식 - 스넥","category":"restaurant"},{"name":"아침이슬","tel":"031-531-6641","addr":"경기도 포천시 소흘읍 고모리 712-2번지 1층","indutype":"일반휴게음식 - 서양음식","category":"restaurant"}]},{"lat":"37.795982641","long":"127.16008609","imageIndex":4,"items":[{"name":"고모리전주한정식","tel":"031-542-7789","addr":"경기도 포천시 소흘읍 고모리 695-3번지","indutype":"일반휴게음식 - 일반한식","category":"restaurant"},{"name":"전주한정식","tel":"542-7789","addr":"경기도 포천시 소흘읍 고모리 695-3번지","indutype":"음식 - 한식","category":"restaurant"}]},{"lat":"37.791010695","long":"127.16577476","imageIndex":4,"items":[{"name":"고모리진곰탕","tel":"031-542-6655","addr":"경기도 포천시 소흘읍 고모리 184번지","indutype":"일반휴게음식 - 일반한식","category":"restaurant"}]},{"lat":"37.796286877","long":"127.16819335","imageIndex":4,"items":[{"name":"고모리풍천장어","tel":"541-9292","addr":"경기도 포천시 소흘읍 고모리 260번지","indutype":"음식 - 한식","category":"restaurant"},{"name":"고모리풍천장어","tel":"031-543-1482","addr":"경기도 포천시 소흘읍 고모리 260번지","indutype":"일반휴게음식 - 일반한식","category":"restaurant"}]},{"lat":"37.786650027","long":"127.1658333","imageIndex":4,"items":[{"name":"고향초가집","tel":"031-543-2471","addr":"경기도 포천시 소흘읍 고모리 144-21번지","indutype":"일반휴게음식 - 일반한식","category":"restaurant"}]},{"lat":"37.792840615","long":"127.16505217","imageIndex":4,"items":[{"name":"고향풍년","tel":"031-541-1550","addr":"경기도 포천시 소흘읍 고모리 710-3번지","indutype":"일반휴게음식 - 일반한식","category":"restaurant"}]},{"lat":"37.795813966","long":"127.16488836","imageIndex":4,"items":[{"name":"광릉 가마골","tel":"542-2948","addr":"경기도 포천시 소흘읍 고모리 661-2번지","indutype":"음식 - 한식","category":"restaurant"},{"name":"광릉가마골","tel":"031-542-2948","addr":"경기도 포천시 소흘읍 고모리 661-2번지","indutype":"일반휴게음식 - 일반한식","category":"restaurant"},{"name":"광릉가마골","tel":"542-2948","addr":"경기도 포천시 소흘읍 고모리 661-2번지","indutype":"음식 - 한식","category":"restaurant"}]},{"lat":"37.813982568","long":"127.16080564","imageIndex":4,"items":[{"name":"광릉불고기","tel":"031-544-9098","addr":"경기도 포천시 소흘읍 고모리 500-1번지","indutype":"일반휴게음식 - 일반한식","category":"restaurant"},{"name":"광릉불고기","tel":"544-9098","addr":"경기도 포천시 소흘읍 고모리 500-1번지","indutype":"음식 - 한식","category":"restaurant"}]},{"lat":"37.787264234","long":"127.16469941","imageIndex":4,"items":[{"name":"그날의 함박눈","tel":"031-542-6648","addr":"경기도 포천시 소흘읍 고모리 733-1번지","indutype":"일반휴게음식 - 일반한식","category":"restaurant"}]},{"lat":"37.800868774","long":"127.1645247","imageIndex":4,"items":[{"name":"꼬독꼬독","tel":"031-542-8368","addr":"경기도 포천시 소흘읍 고모리 628-10번지","indutype":"일반휴게음식 - 일반한식","category":"restaurant"},{"name":"꼬독꼬독","tel":"542-8368","addr":"경기도 포천시 소흘읍 고모리 628-10번지","indutype":"음식 - 한식","category":"restaurant"}]},{"lat":"37.786145183","long":"127.16605924","imageIndex":4,"items":[{"name":"꼬마연못","tel":"031-542-2433","addr":"경기도 포천시 소흘읍 고모리 144-6번지","indutype":"일반휴게음식 - 일반한식","category":"restaurant"}]},{"lat":"37.812864531","long":"127.16145057","imageIndex":4,"items":[{"name":"남도밥집","tel":"544-8259","addr":"경기도 포천시 소흘읍 고모리 504-7번지","indutype":"음식 - 한식","category":"restaurant"},{"name":"남도밥집","tel":"031-544-8259","addr":"경기도 포천시 소흘읍 고모리 504-7번지 가동","indutype":"일반휴게음식 - 일반한식","category":"restaurant"}]},{"lat":"37.789344746","long":"127.16519211","imageIndex":4,"items":[{"name":"느티나무가","tel":"031-543-3039","addr":"경기도 포천시 소흘읍 고모리 727-3번지","indutype":"일반휴게음식 - 일반한식","category":"restaurant"}]},{"lat":"37.794983782","long":"127.16584025","imageIndex":4,"items":[{"name":"느티나무설렁탕","tel":"031-544-1258","addr":"경기도 포천시 소흘읍 고모리 227번지","indutype":"일반휴게음식 - 일반한식","category":"restaurant"},{"name":"느티나무설렁탕","tel":"544-1258","addr":"경기도 포천시 소흘읍 고모리 227번지","indutype":"음식 - 한식","category":"restaurant"}]},{"lat":"37.794813073","long":"127.16549927","imageIndex":4,"items":[{"name":"능이한방백숙","tel":"031-542-6969","addr":"경기도 포천시 소흘읍 고모리 225-1번지","indutype":"일반휴게음식 - 일반한식","category":"restaurant"},{"name":"능이한방백숙","tel":"542-6969","addr":"경기도 포천시 소흘읍 고모리 225-1번지","indutype":"음식 - 한식","category":"restaurant"}]},{"lat":"37.812395598","long":"127.1617789","imageIndex":4,"items":[{"name":"다맛식당","tel":"031-542-8486","addr":"경기도 포천시 소흘읍 고모리 504-35번지 1층","indutype":"일반휴게음식 - 일반한식","category":"restaurant"}]},{"lat":"37.794261988","long":"127.166588","imageIndex":4,"items":[{"name":"대대손손묵집","tel":"031-542-6898","addr":"경기도 포천시 소흘읍 고모리 221-6번지","indutype":"일반휴게음식 - 일반한식","category":"restaurant"}]},{"lat":"37.799568768","long":"127.16644075","imageIndex":4,"items":[{"name":"동강매운탕","tel":"031-544-5010","addr":"경기도 포천시 소흘읍 고모리 281번지 281-1","indutype":"일반휴게음식 - 일반한식","category":"restaurant"},{"name":"동강민물매운탕","tel":"544-5010","addr":"경기도 포천시 소흘읍 고모리 281번지","indutype":"음식 - 한식","category":"restaurant"}]},{"lat":"37.793227677","long":"127.16530279","imageIndex":4,"items":[{"name":"두다트","tel":"541-0190","addr":"경기도 포천시 소흘읍 고모리 190번지","indutype":"음식 - 커피 등","category":"restaurant"},{"name":"주식회사두다트","tel":"031-541-0190","addr":"경기도 포천시 소흘읍 고모리 190번지","indutype":"일반휴게음식 - 서양음식","category":"restaurant"}]},{"lat":"37.811926648","long":"127.16211858","imageIndex":4,"items":[{"name":"든든도시락","tel":"031-541-1399","addr":"경기도 포천시 소흘읍 고모리 504-4번지 1층","indutype":"일반휴게음식 - 일반한식","category":"restaurant"}]},{"lat":"37.794398137","long":"127.16586167","imageIndex":4,"items":[{"name":"또래오래 고모점","tel":"031-542-9592","addr":"경기도 포천시 소흘읍 고모리 222-4번지 1층","indutype":"일반휴게음식 - 스넥","category":"restaurant"}]},{"lat":"37.804734815","long":"127.1638064","imageIndex":4,"items":[{"name":"램's클럽","tel":"031-544-6262","addr":"경기도 포천시 소흘읍 고모리 550-3","indutype":"일반휴게음식 - 일반한식","category":"restaurant"},{"name":"램's클럽","tel":"544-6262","addr":"경기도 포천시 소흘읍 고모리 550-3번지","indutype":"음식 - 한식","category":"restaurant"}]},{"lat":"37.786758517","long":"127.16556109","imageIndex":4,"items":[{"name":"마로니에","tel":"","addr":"경기도 포천시 소흘읍 고모리 144-9번지","indutype":"음식 - 커피 등","category":"restaurant"},{"name":"마로니에","tel":"031-840-6214","addr":"경기도 포천시 소흘읍 고모리 144-9번지 마동 1층","indutype":"일반휴게음식 - 스넥","category":"restaurant"},{"name":"마로니에 언덕","tel":"031-842-0307","addr":"경기도 포천시 소흘읍 고모리 144-9번지 가동 1층","indutype":"일반휴게음식 - 일반한식","category":"restaurant"}]},{"lat":"37.795623366","long":"127.15925651","imageIndex":4,"items":[{"name":"물꼬방","tel":"544-1695","addr":"경기도 포천시 소흘읍 고모리 695-6번지","indutype":"음식 - 한식","category":"restaurant"},{"name":"물꼬방","tel":"031-544-1695","addr":"경기도 포천시 소흘읍 고모리 695-6번지 101동 101,102호, 102동102호","indutype":"일반휴게음식 - 일반한식","category":"restaurant"}]},{"lat":"37.795812242","long":"127.16613727","imageIndex":4,"items":[{"name":"미다담","tel":"031-543-8060","addr":"경기도 포천시 소흘읍 고모리 231-3번지","indutype":"일반휴게음식 - 일반한식","category":"restaurant"},{"name":"터줏대감","tel":"031-542-8533","addr":"경기도 포천시 소흘읍 고모리 231-3번지","indutype":"일반휴게음식 - 일반한식","category":"restaurant"}]},{"lat":"37.791567263","long":"127.16722918","imageIndex":4,"items":[{"name":"복숭아꽃 살구꽃","tel":"070-8881-5367","addr":"경기도 포천시 소흘읍 고모리 170-1번지","indutype":"일반휴게음식 - 일반한식","category":"restaurant"}]},{"lat":"37.793511705","long":"127.1550059","imageIndex":4,"items":[{"name":"산너울","tel":"031-536-5249","addr":"경기도 포천시 소흘읍 고모리 739번지","indutype":"일반휴게음식 - 일반한식","category":"restaurant"}]},{"lat":"37.800370907","long":"127.16622678","imageIndex":4,"items":[{"name":"소나무위에까치","tel":"031-543-0380","addr":"경기도 포천시 소흘읍 고모리 284번지","indutype":"일반휴게음식 - 일반한식","category":"restaurant"}]},{"lat":"37.801120758","long":"127.16472963","imageIndex":4,"items":[{"name":"순(SOON)","tel":"031-1111-1111","addr":"경기도 포천시 소흘읍 고모리 626번지","indutype":"일반휴게음식 - 서양음식","category":"restaurant"}]},{"lat":"37.787869235","long":"127.16370171","imageIndex":4,"items":[{"name":"숨","tel":"031-542-1491","addr":"경기도 포천시 소흘읍 고모리 735-1번지","indutype":"일반휴게음식 - 서양음식","category":"restaurant"}]},{"lat":"37.810231151","long":"127.1633868","imageIndex":4,"items":[{"name":"시골밥상","tel":"541-8208","addr":"경기도 포천시 소흘읍 고모리 534-8번지","indutype":"음식 - 한식","category":"restaurant"},{"name":"진미식당","tel":"541-7026","addr":"경기도 포천시 소흘읍 고모리 534-8번지","indutype":"음식 - 한식","category":"restaurant"}]},{"lat":"37.807590166","long":"127.16427817","imageIndex":4,"items":[{"name":"시골집","tel":"031-541-8208","addr":"경기도 포천시 소흘읍 고모리 557번지 1층","indutype":"일반휴게음식 - 일반한식","category":"restaurant"}]},{"lat":"37.794064709","long":"127.16591771","imageIndex":4,"items":[{"name":"아빠가어렸을적에","tel":"031-542-1135","addr":"경기도 포천시 소흘읍 고모리 218-1","indutype":"일반휴게음식 - 일반한식","category":"restaurant"}]},{"lat":"37.791399166","long":"127.16500361","imageIndex":4,"items":[{"name":"아하","tel":"541-2199","addr":"경기도 포천시 소흘읍 고모리 713-1번지","indutype":"음식 - 커피 등","category":"restaurant"}]},{"lat":"37.789624383","long":"127.16494297","imageIndex":4,"items":[{"name":"앵두나무우물가에","tel":"031-541-5622","addr":"경기도 포천시 소흘읍 고모리 724-1번지","indutype":"일반휴게음식 - 일반한식","category":"restaurant"},{"name":"앵두나무우물가에","tel":"541-5622","addr":"경기도 포천시 소흘읍 고모리 724-1번지","indutype":"음식 - 한식","category":"restaurant"}]},{"lat":"37.796151842","long":"127.16156244","imageIndex":4,"items":[{"name":"어부촌","tel":"031-543-5366","addr":"경기도 포천시 소흘읍 고모리 688번지","indutype":"일반휴게음식 - 일반한식","category":"restaurant"},{"name":"어부촌","tel":"543-5366","addr":"경기도 포천시 소흘읍 고모리 688번지","indutype":"음식 - 한식","category":"restaurant"}]},{"lat":"37.808706305","long":"127.16503008","imageIndex":4,"items":[{"name":"영양 돼지국밥","tel":"542-2330","addr":"경기도 포천시 소흘읍 고모리 380-1번지","indutype":"음식 - 한식","category":"restaurant"},{"name":"영양돼지국밥","tel":"031-542-2330","addr":"경기도 포천시 소흘읍 고모리 380-1번지","indutype":"일반휴게음식 - 일반한식","category":"restaurant"}]},{"lat":"37.795650981","long":"127.15881377","imageIndex":4,"items":[{"name":"오리가찜한집","tel":"031-542-5269","addr":"경기도 포천시 소흘읍 고모리 695-5번지","indutype":"일반휴게음식 - 일반한식","category":"restaurant"}]},{"lat":"37.803121163","long":"127.1645069","imageIndex":4,"items":[{"name":"오리랜드","tel":"031-541-5289","addr":"경기도 포천시 소흘읍 고모리 620-4번지","indutype":"일반휴게음식 - 일반한식","category":"restaurant"}]},{"lat":"37.814367877","long":"127.16236231","imageIndex":4,"items":[{"name":"옴시롱감시롱","tel":"031-541-4970","addr":"경기도 포천시 소흘읍 고모리 495-7번지","indutype":"일반휴게음식 - 일반한식","category":"restaurant"}]},{"lat":"37.813035189","long":"127.16183705","imageIndex":4,"items":[{"name":"우리가","tel":"031-541-1368","addr":"경기도 포천시 소흘읍 고모리 497-9번지 1층","indutype":"일반휴게음식 - 일반한식","category":"restaurant"},{"name":"우리가","tel":"541-1368","addr":"경기도 포천시 소흘읍 고모리 497-9번지 1층","indutype":"음식 - 한식","category":"restaurant"},{"name":"은항아리 식당","tel":"543-4621","addr":"경기도 포천시 소흘읍 고모리 497-9번지","indutype":"음식 - 한식","category":"restaurant"},{"name":"은항아리식당","tel":"031-543-4621","addr":"경기도 포천시 소흘읍 고모리 497-9","indutype":"일반휴게음식 - 일반한식","category":"restaurant"}]},{"lat":"37.803816008","long":"127.16369086","imageIndex":4,"items":[{"name":"원브런치카페","tel":"031-541-4701","addr":"경기도 포천시 소흘읍 고모리 614-1번지 1층","indutype":"일반휴게음식 - 서양음식","category":"restaurant"}]},{"lat":"37.791958407","long":"127.164528","imageIndex":4,"items":[{"name":"재너머 사주하우스","tel":"031-544-1545","addr":"경기도 포천시 소흘읍 고모리 714-9번지 1층","indutype":"일반휴게음식 - 서양음식","category":"restaurant"}]},{"lat":"37.812259705","long":"127.16233506","imageIndex":4,"items":[{"name":"착한목수카페","tel":"","addr":"경기도 포천시 소흘읍 고모리 493-1번지","indutype":"일반휴게음식 - 서양음식","category":"restaurant"}]},{"lat":"37.801229339","long":"127.16438923","imageIndex":4,"items":[{"name":"추어탕전문점","tel":"031-543-6173","addr":"경기도 포천시 소흘읍 고모리 628-2번지 1층","indutype":"일반휴게음식 - 일반한식","category":"restaurant"},{"name":"하마네추어탕","tel":"543-6173","addr":"경기도 포천시 소흘읍 고모리 628-2번지","indutype":"음식 - 한식","category":"restaurant"}]},{"lat":"37.790479467","long":"127.16553518","imageIndex":4,"items":[{"name":"카페 목화포트","tel":"031-542-0325","addr":"경기도 포천시 소흘읍 고모리 183번지","indutype":"일반휴게음식 - 서양음식","category":"restaurant"}]},{"lat":"37.79306646","long":"127.16460988","imageIndex":4,"items":[{"name":"카페온다","tel":"070-4407-2300","addr":"경기도 포천시 소흘읍 고모리 714-1번지 1-2층","indutype":"일반휴게음식 - 일반한식","category":"restaurant"},{"name":"카페온다","tel":"070-4407-2300","addr":"경기도 포천시 소흘읍 고모리 714-1번지","indutype":"음식 - 한식","category":"restaurant"}]},{"lat":"37.81128638","long":"127.16256009","imageIndex":4,"items":[{"name":"타이누들하우스","tel":"070-4209-5727","addr":"경기도 포천시 소흘읍 고모리 517번지","indutype":"일반휴게음식 - 일반한식","category":"restaurant"}]},{"lat":"37.794561075","long":"127.16530571","imageIndex":4,"items":[{"name":"털보고된이","tel":"031-544-9292","addr":"경기도 포천시 소흘읍 고모리 225-9번지","indutype":"일반휴게음식 - 일반한식","category":"restaurant"}]},{"lat":"37.78990341","long":"127.16513657","imageIndex":4,"items":[{"name":"토우","tel":"542-6623","addr":"경기도 포천시 소흘읍 고모리 722-2번지","indutype":"음식 - 양식","category":"restaurant"}]},{"lat":"37.8065367","long":"127.16381031","imageIndex":4,"items":[{"name":"토종생고기","tel":"031-544-4055","addr":"경기도 포천시 소흘읍 고모리 556","indutype":"일반휴게음식 - 일반한식","category":"restaurant"},{"name":"토종오리 더덕구이","tel":"544-4055","addr":"경기도 포천시 소흘읍 고모리 556번지","indutype":"음식 - 한식","category":"restaurant"}]},{"lat":"37.810789271","long":"127.16372869","imageIndex":4,"items":[{"name":"포천손두부","tel":"543-0991","addr":"경기도 포천시 소흘읍 고모리 523-1번지 나동 1층","indutype":"음식 - 한식","category":"restaurant"},{"name":"포천손두부","tel":"031-543-0991","addr":"경기도 포천시 소흘읍 고모리 523-1번지 1층","indutype":"일반휴게음식 - 일반한식","category":"restaurant"}]},{"lat":"37.810447671","long":"127.16317151","imageIndex":4,"items":[{"name":"하경뷔페","tel":"031-543-2999","addr":"경기도 포천시 소흘읍 고모리 524-12번지 1층","indutype":"일반휴게음식 - 일반한식","category":"restaurant"},{"name":"하경뷔페","tel":"543-2999","addr":"경기도 포천시 소흘읍 고모리 524-12번지 1층","indutype":"음식 - 한식","category":"restaurant"}]},{"lat":"37.813423527","long":"127.16114514","imageIndex":4,"items":[{"name":"한상궁족발","tel":"031-544-3393","addr":"경기도 포천시 소흘읍 고모리 500-2번지","indutype":"일반휴게음식 - 일반한식","category":"restaurant"}]},{"lat":"37.814448176","long":"127.16294167","imageIndex":4,"items":[{"name":"한우리돼지불백","tel":"031-541-3133","addr":"경기도 포천시 소흘읍 고모리 495-8번지 1층","indutype":"일반휴게음식 - 일반한식","category":"restaurant"}]},{"lat":"37.788704151","long":"127.16586052","imageIndex":4,"items":[{"name":"호미가","tel":"031-544-0946","addr":"경기도 포천시 소흘읍 고모리 144-1번지","indutype":"일반휴게음식 - 서양음식","category":"restaurant"}]},{"lat":"37.79617453","long":"127.1647529","imageIndex":4,"items":[{"name":"호텔갤러리","tel":"031-544-8008","addr":"경기도 포천시 소흘읍 고모리 661-1번지 지하1층","indutype":"일반휴게음식 - 일반한식","category":"restaurant"}]},{"lat":"37.796951768","long":"127.16947782","imageIndex":4,"items":[{"name":"황토장어","tel":"542-7857","addr":"경기도 포천시 소흘읍 고모리 264번지","indutype":"음식 - 한식","category":"restaurant"}]}]