[{"lat":"37.295481217","long":"126.99356625","imageIndex":16,"items":[{"name":"(IREAD)아이리드영어독서전문어학원","tel":"031-269-0502","addr":"경기도 수원시 장안구 정자동 877-4번지 정연메이저빌딩 801,802,809호","indutype":"회원제형태 - 학원","category":"study"},{"name":"가우스수학학원","tel":"031-269-5518","addr":"경기도 수원시 장안구 정자동 877-4번지 정연메이저 1동 306,307호","indutype":"학원 - 보습학원","category":"study"},{"name":"글로브학원","tel":"031-245-0578","addr":"경기도 수원시 장안구 정자동 877-4번지 정연메이저 1동 311호","indutype":"학원 - 보습학원","category":"study"},{"name":"리딩업어학원","tel":"031-268-6210","addr":"경기도 수원시 장안구 정자동 877-4번지 1동 409호 414","indutype":"회원제형태 - 학원","category":"study"},{"name":"멘토거인의어깨수학교습소","tel":"031-269-2955","addr":"경기도 수원시 장안구 정자동 877-4번지 정연메이져 1동 7층 710호","indutype":"학원 - 보습학원","category":"study"},{"name":"스카이에듀학원","tel":"031-269-5631","addr":"경기도 수원시 장안구 정자동 877-4번지 309호","indutype":"학원 - 보습학원","category":"study"},{"name":"씨앤비(C&B)요리학원","tel":"031-248-2800","addr":"경기도 수원시 장안구 정자동 877-4번지 정연메이저 805호","indutype":"회원제형태 - 학원","category":"study"},{"name":"어썸팩토리수원정자플레이스독서실","tel":"070-4335-0880","addr":"경기도 수원시 장안구 정자동 877-4번지 1동 1010호,1011호","indutype":"학원 - 독서실","category":"study"},{"name":"엑스클래스영어교습소","tel":"","addr":"경기도 수원시 장안구 정자동 877-4번지 414호","indutype":"학원 - 외국어학원","category":"study"},{"name":"엔사이언스과학교습소","tel":"031-268-1041","addr":"경기도 수원시 장안구 정자동 877-4번지 601호","indutype":"학원 - 보습학원","category":"study"},{"name":"연세일관수학학원","tel":"031-269-5583","addr":"경기도 수원시 장안구 정자동 877-4번지 정연메이저 308호","indutype":"학원 - 보습학원","category":"study"},{"name":"와이즈리더수원정자점영어독서학원","tel":"031-548-0588","addr":"경기도 수원시 장안구 정자동 877-4번지 304호 , 정연메이져3층","indutype":"학원 - 보습학원","category":"study"},{"name":"위너수학교습소","tel":"031-269-9193","addr":"경기도 수원시 장안구 정자동 877-4번지 714호","indutype":"회원제형태 - 학원","category":"study"},{"name":"유투엠수원정자학원","tel":"031-546-8737","addr":"경기도 수원시 장안구 정자동 877-4번지 801-802호 809호 교육연구시설","indutype":"학원 - 보습학원","category":"study"},{"name":"이엠탑학원","tel":"031-268-8111","addr":"경기도 수원시 장안구 정자동 877-4번지 정연메이져 4층 413호","indutype":"학원 - 보습학원","category":"study"},{"name":"장안소마수학학원","tel":"031-271-9999","addr":"경기도 수원시 장안구 정자동 877-4번지 정연메이저빌딩 9층 911,912호","indutype":"학원 - 보습학원","category":"study"},{"name":"장안씨앤씨미술학원","tel":"031-268-3012","addr":"경기도 수원시 장안구 정자동 877-4번지 312-314호","indutype":"학원 - 예·체능계학원","category":"study"},{"name":"정자에듀플렉스보습학원","tel":"031-268-1251","addr":"경기도 수원시 장안구 정자동 877-4번지 804호","indutype":"학원 - 보습학원","category":"study"},{"name":"제니스영어학원","tel":"031-269-3269","addr":"경기도 수원시 장안구 정자동 877-4번지 정연메이져빌딩 812호","indutype":"학원 - 보습학원","category":"study"},{"name":"제스트과학교습소","tel":"031-891-4884","addr":"경기도 수원시 장안구 정자동 877-4번지 410호","indutype":"학원 - 보습학원","category":"study"},{"name":"제스트수학교습소","tel":"031-269-3849","addr":"경기도 수원시 장안구 정자동 877-4번지 정연메이져 1동 303호","indutype":"학원 - 보습학원","category":"study"},{"name":"조동기국어논술북수원배움터학원","tel":"031-269-0776","addr":"경기도 수원시 장안구 정자동 877-4번지 305호 (정자동3층)","indutype":"학원 - 보습학원","category":"study"},{"name":"좋은학원","tel":"031-271-3663","addr":"경기도 수원시 장안구 정자동 877-4번지 412호","indutype":"학원 - 보습학원","category":"study"},{"name":"코리아에듀학원","tel":"031-207-6500","addr":"경기도 수원시 장안구 정자동 877-4정연메이저빌딩501,502,503,504,505,506,507,510,511,512","indutype":"회원제형태 - 학원","category":"study"},{"name":"통수학학원","tel":"031-269-8864","addr":"경기도 수원시 장안구 정자동 877-4번지 1동 704호","indutype":"학원 - 보습학원","category":"study"},{"name":"튼튼영어베이비리그수원센터어학원","tel":"031-269-8206","addr":"경기도 수원시 장안구 정자동 877-4번지 정연메이져 7층 707호,708호","indutype":"회원제형태 - 학원","category":"study"},{"name":"힘수학장안캠퍼스학원","tel":"031-269-5518","addr":"경기도 수원시 장안구 정자동 877-4번지 정연메이저 1동 306,307호","indutype":"회원제형태 - 학원","category":"study"}]},{"lat":"37.295868683","long":"126.99389327","imageIndex":16,"items":[{"name":"(주)북수원에스엘피","tel":"031-268-2230","addr":"경기도 수원시 장안구 정자동 876-6번지 서강프라자 5층","indutype":"회원제형태 - 학원","category":"study"},{"name":"와이즈만영재학원","tel":"031-241-3303","addr":"경기도 수원시 장안구 정자동 876-6번지 서강프라자 4층","indutype":"학원 - 보습학원","category":"study"}]},{"lat":"37.306815123","long":"126.98508243","imageIndex":16,"items":[{"name":"MTA올림픽태권도장","tel":"031-271-1003","addr":"경기도 수원시 장안구 정자동 945번지 수원에스케이스카이뷰 601동 205호","indutype":"학원 - 예·체능계학원","category":"study"},{"name":"구선생과음악인들다솔음악학원","tel":"031-269-6777","addr":"경기도 수원시 장안구 정자동 945번지 수원SKSKYVIEW 603동 203호","indutype":"학원 - 예·체능계학원","category":"study"},{"name":"모모미술교습소","tel":"070-8780-2150","addr":"경기도 수원시 장안구 정자동 945번지 수원에스케이스카이뷰 상가동 3동 113호","indutype":"학원 - 예·체능계학원","category":"study"},{"name":"삼성영어이엠학원","tel":"031-268-0535","addr":"경기도 수원시 장안구 정자동 945번지 수원에스케이스카이뷰 601동 202,203호","indutype":"학원 - 보습학원","category":"study"},{"name":"샤론의꽃음악학원","tel":"031-269-7991","addr":"경기도 수원시 장안구 정자동 945번지 상가 601동 201호 ,207,208호","indutype":"학원 - 예·체능계학원","category":"study"},{"name":"씨피에스해법수학학원","tel":"031-833-5039","addr":"경기도 수원시 장안구 정자동 945번지 수원에스케이스카이뷰 601동 2층 203,204호","indutype":"학원 - 보습학원","category":"study"},{"name":"아카데미창","tel":"070-5400-5659","addr":"경기도 수원시 장안구 정자동 945번지 수원에스케이스카이뷰 601동 209호","indutype":"학원 - 보습학원","category":"study"},{"name":"영어의신스카이뷰점교습소","tel":"031-271-0506","addr":"경기도 수원시 장안구 정자동 945번지 수원SKSKYVIEW 601동 211호","indutype":"회원제형태 - 학원","category":"study"},{"name":"예향음악교습소","tel":"031-268-6661","addr":"경기도 수원시 장안구 정자동 945번지 수원SKSKYVIEW 603동 270호","indutype":"학원 - 예·체능계학원","category":"study"},{"name":"이지아트미술교습소","tel":"","addr":"경기도 수원시 장안구 정자동 945번지 수원에스케이스카이뷰 603동 2층 206호","indutype":"학원 - 예·체능계학원","category":"study"},{"name":"퀸도미넌트음악학원","tel":"031-268-0721","addr":"경기도 수원시 장안구 정자동 945번지 수원에스케이스카이뷰 604동 201,202호","indutype":"학원 - 예·체능계학원","category":"study"},{"name":"토킹스타수원다솔초점영어교습소","tel":"02-1577-0000","addr":"경기도 수원시 장안구 정자동 945번지 수원에스케이스카이뷰601 2동 211층","indutype":"학원 - 외국어학원","category":"study"}]},{"lat":"37.290012303","long":"126.99914919","imageIndex":16,"items":[{"name":"e해법수학명인학원","tel":"031-892-3374","addr":"경기도 수원시 장안구 정자동 74-19번지 정승빌딩 202호","indutype":"학원 - 보습학원","category":"study"}]},{"lat":"37.309536158","long":"126.98473211","imageIndex":16,"items":[{"name":"갓매쓰학원","tel":"031-254-0055","addr":"경기도 수원시 장안구 정자동 600-28번지 스카이프라자 4층 401호","indutype":"학원 - 보습학원","category":"study"},{"name":"국가대표태풍태권도장","tel":"031-271-9966","addr":"경기도 수원시 장안구 정자동 600-28번지 4층","indutype":"학원 - 예·체능계학원","category":"study"},{"name":"더채움학원","tel":"031-269-0900","addr":"경기도 수원시 장안구 정자동 600-28번지 29","indutype":"학원 - 보습학원","category":"study"},{"name":"리드일공일정자영어학원","tel":"031-296-3101","addr":"경기도 수원시 장안구 정자동 600-28번지 4층 406호","indutype":"학원 - 보습학원","category":"study"},{"name":"스카이어학원","tel":"031-271-6666","addr":"경기도 수원시 장안구 정자동 600-28번지 301호","indutype":"학원 - 외국어학원","category":"study"},{"name":"예원음악학원","tel":"031-268-6789","addr":"경기도 수원시 장안구 정자동 600-28번지 스카이프라자 405호","indutype":"학원 - 예·체능계학원","category":"study"},{"name":"이보영의 토킹클럽 정자어학원","tel":"031-244-0579","addr":"경기도 수원시 장안구 정자동 600-28번지 308호","indutype":"학원 - 외국어학원","category":"study"},{"name":"정자점콩미술학원","tel":"031-271-6223","addr":"경기도 수원시 장안구 정자동 600-28번지","indutype":"학원 - 예·체능계학원","category":"study"},{"name":"킹콩잉글리쉬학원","tel":"070-4193-5555","addr":"경기도 수원시 장안구 정자동 600-28번지 SKYPLAZA 304호","indutype":"학원 - 외국어학원","category":"study"},{"name":"해법중국어수학학원","tel":"031-893-2240","addr":"경기도 수원시 장안구 정자동 600-28번지 스카이프라자 305호","indutype":"학원 - 보습학원","category":"study"},{"name":"해법중국어수학학원","tel":"031-269-2200","addr":"경기도 수원시 장안구 정자동 600-28번지 스카이프라자 305호","indutype":"학원 - 외국어학원","category":"study"}]},{"lat":"37.29470669","long":"127.00114516","imageIndex":16,"items":[{"name":"경기수원시육아종합지원센터[아이행복]","tel":"031-255-5682","addr":"경기도 수원시 장안구 정자동 32-5번지","indutype":"학원 - 유아원","category":"study"}]},{"lat":"37.303068048","long":"126.99675734","imageIndex":16,"items":[{"name":"경수유소년스포츠클럽","tel":"031-242-4905","addr":"경기도 수원시 장안구 정자동 297-4번지 경남프라임코아 2층 205호","indutype":"학원 - 예·체능계학원","category":"study"},{"name":"경희대경무태권도","tel":"031-248-1674","addr":"경기도 수원시 장안구 정자동 297-4번지 경남프라임코아 501호","indutype":"학원 - 예·체능계학원","category":"study"},{"name":"수원명문보습학원","tel":"031-251-9915","addr":"경기도 수원시 장안구 정자동 297-4번지","indutype":"학원 - 기타 교육기관","category":"study"},{"name":"예성피아노학원","tel":"031-253-7989","addr":"경기도 수원시 장안구 정자동 297-4번지","indutype":"학원 - 예·체능계학원","category":"study"}]},{"lat":"37.311869937","long":"126.98561143","imageIndex":16,"items":[{"name":"경희대다솔태권도장","tel":"031-269-9947","addr":"경기도 수원시 장안구 정자동 575-2번지 힐스테이트프라자 201호","indutype":"학원 - 예·체능계학원","category":"study"},{"name":"이엘에스삼성영어학원","tel":"070-4914-5789","addr":"경기도 수원시 장안구 정자동 575-2번지 대아권선기술(주) 204호","indutype":"학원 - 외국어학원","category":"study"}]},{"lat":"37.302319944","long":"126.99300145","imageIndex":16,"items":[{"name":"경희대석사전진효태권도","tel":"031-269-8388","addr":"경기도 수원시 장안구 정자동 381-30번지 3층","indutype":"학원 - 예·체능계학원","category":"study"},{"name":"동신윤선생영어숲학원","tel":"031-269-8787","addr":"경기도 수원시 장안구 정자동 381-30번지 2층","indutype":"학원 - 보습학원","category":"study"},{"name":"쏠라레음악학원","tel":"031-241-5554","addr":"경기도 수원시 장안구 정자동 381-30번지 2층","indutype":"학원 - 예·체능계학원","category":"study"}]},{"lat":"37.294733395","long":"126.99392724","imageIndex":16,"items":[{"name":"고은정음악학원","tel":"031-269-9984","addr":"경기도 수원시 장안구 정자동 878-6번지 선일프라자 303,304","indutype":"학원 - 예·체능계학원","category":"study"},{"name":"지니사이언스","tel":"031-241-0975","addr":"경기도 수원시 장안구 정자동 878-6 선일프라자3층(301,302호)","indutype":"학원 - 보습학원","category":"study"},{"name":"햇샛멘토관수학전문교습소","tel":"","addr":"경기도 수원시 장안구 정자동 878-6번지 선일프라자 2층 202호","indutype":"학원 - 보습학원","category":"study"}]},{"lat":"37.296093893","long":"126.99330677","imageIndex":16,"items":[{"name":"공부의자신감학원","tel":"031-268-3365","addr":"경기도 수원시 장안구 정자동 877-2번지 한빛프라자 4층 402호","indutype":"학원 - 외국어학원","category":"study"},{"name":"베이징중국어","tel":"031-257-0522","addr":"경기도 수원시 장안구 정자동 877-2번지 한빛프라자 5층 503호","indutype":"학원 - 외국어학원","category":"study"},{"name":"별하학원","tel":"031-413-9512","addr":"경기도 수원시 장안구 정자동 877-2번지 한빛프라자 502호","indutype":"학원 - 보습학원","category":"study"},{"name":"수쌤영어학원","tel":"070-9787-0298","addr":"경기도 수원시 장안구 정자동 877-2번지 한빛프라자 501호","indutype":"학원 - 보습학원","category":"study"},{"name":"정플루트","tel":"031-268-3565","addr":"경기도 수원시 장안구 정자동 877-2번지 한빛프라자 106호","indutype":"학원 - 예·체능계학원","category":"study"},{"name":"토즈스터디센터정자독서실","tel":"031-271-0109","addr":"경기도 수원시 장안구 정자동 877-2번지 한빛프라자 6층 601,602호","indutype":"학원 - 독서실","category":"study"},{"name":"통문장영어장안교실","tel":"031-247-8205","addr":"경기도 수원시 장안구 정자동 877-2번지 한빛프라자 3층 303호","indutype":"학원 - 보습학원","category":"study"},{"name":"한빛1인독서실","tel":"031-269-0800","addr":"경기도 수원시 장안구 정자동 877-2번지 한빛프라자 7층 701호","indutype":"학원 - 독서실","category":"study"},{"name":"한우리장안독서논술학원","tel":"031-255-9068","addr":"경기도 수원시 장안구 정자동 877-2한빛프라자301호,302호","indutype":"학원 - 기타 교육기관","category":"study"}]},{"lat":"37.30225662","long":"126.99033958","imageIndex":16,"items":[{"name":"관인라미음악학원","tel":"031-111-1111","addr":"경기도 수원시 장안구 정자동 493번지 2층 일부","indutype":"학원 - 예·체능계학원","category":"study"}]},{"lat":"37.294319149","long":"126.99769412","imageIndex":16,"items":[{"name":"교원학원","tel":"031-248-7761","addr":"경기도 수원시 장안구 정자동 29-5번지 2층","indutype":"학원 - 보습학원","category":"study"}]},{"lat":"37.296904961","long":"126.99531421","imageIndex":16,"items":[{"name":"구하라수학교습소","tel":"031-269-2149","addr":"경기도 수원시 장안구 정자동 874-1번지 선일프라자 206호","indutype":"학원 - 보습학원","category":"study"},{"name":"구하라수학교습소","tel":"031-269-2149","addr":"경기도 수원시 장안구 정자동 874-1번지 선일프라자 206호","indutype":"학원 - 보습학원","category":"study"},{"name":"수쌤이관영어학원","tel":"070-9787-0298","addr":"경기도 수원시 장안구 정자동 874-1번지 선일프라자 4층 401호","indutype":"학원 - 보습학원","category":"study"}]},{"lat":"37.304509553","long":"126.99459157","imageIndex":16,"items":[{"name":"국가대표차오름태권도","tel":"031-253-3833","addr":"경기도 수원시 장안구 정자동 423-1번지 벽산블루밍제1상가4F","indutype":"학원 - 예·체능계학원","category":"study"},{"name":"벽산수학교습소","tel":"031-000-0000","addr":"경기도 수원시 장안구 정자동 423-1번지 정자벽산블루밍 상가 3동 101호","indutype":"학원 - 기타 교육기관","category":"study"},{"name":"벽산참사랑어린이집[아이행복]","tel":"031-241-1210","addr":"경기도 수원시 장안구 정자동 423-1번지 정자벽산블루밍","indutype":"학원 - 유아원","category":"study"},{"name":"이야기로여는 생명수학정자다니엘학원","tel":"031-255-8904","addr":"경기도 수원시 장안구 정자동 423-1번지 정자벽산블루밍 상가2동2층","indutype":"학원 - 보습학원","category":"study"},{"name":"참소리나무음악교습소","tel":"031-241-6525","addr":"경기도 수원시 장안구 정자동 423-1번지 정자벽산블루밍 상가 1동 302호","indutype":"학원 - 예·체능계학원","category":"study"}]},{"lat":"37.293543001","long":"126.9848149","imageIndex":16,"items":[{"name":"굿쌤수학교습소","tel":"031-268-9791","addr":"경기도 수원시 장안구 정자동 920번지 예인유치원 408호","indutype":"학원 - 보습학원","category":"study"},{"name":"느티나무와친구들미술학원","tel":"031-269-0224","addr":"경기도 수원시 장안구 정자동 920번지 4층 일부","indutype":"학원 - 예·체능계학원","category":"study"},{"name":"새노래음악학원","tel":"031-269-7774","addr":"경기도 수원시 장안구 정자동 920번지 4층 403,404호","indutype":"학원 - 예·체능계학원","category":"study"},{"name":"수원장안효천학원","tel":"","addr":"경기도 수원시 장안구 정자동 920번지 예인유치원 4층 407호","indutype":"학원 - 보습학원","category":"study"}]},{"lat":"37.293544301","long":"126.99852873","imageIndex":16,"items":[{"name":"그리고봄미술교습소","tel":"031-242-0415","addr":"경기도 수원시 장안구 정자동 30-28번지 1층","indutype":"학원 - 예·체능계학원","category":"study"}]},{"lat":"37.300291809","long":"126.98572687","imageIndex":16,"items":[{"name":"그린어린이집[아이행복]","tel":"031-269-7952","addr":"경기도 수원시 장안구 정자동 913번지 주공A1층","indutype":"학원 - 유아원","category":"study"},{"name":"대월해법영어교습소","tel":"031-268-7995","addr":"경기도 수원시 장안구 정자동 913번지 대월마을 상가 201호","indutype":"회원제형태 - 학원","category":"study"}]},{"lat":"37.291544018","long":"126.99833713","imageIndex":16,"items":[{"name":"그림나라어린이집[아이행복]","tel":"031-242-0609","addr":"경기도 수원시 장안구 정자동 44-3번지","indutype":"학원 - 유아원","category":"study"}]},{"lat":"37.303121797","long":"126.99233587","imageIndex":16,"items":[{"name":"그림뜰어린이집[아이행복]","tel":"031-246-2407","addr":"경기도 수원시 장안구 정자동 454-12번지","indutype":"학원 - 유아원","category":"study"}]},{"lat":"37.294039894","long":"126.99941966","imageIndex":16,"items":[{"name":"금빛초롱음악학원","tel":"031-246-5550","addr":"경기도 수원시 장안구 정자동 30-25번지 3층","indutype":"학원 - 예·체능계학원","category":"study"}]},{"lat":"37.29495899","long":"127.00283686","imageIndex":16,"items":[{"name":"기산영재어린이집[아이행복]","tel":"031-244-7470","addr":"경기도 수원시 장안구 정자동 35-28번지","indutype":"학원 - 유아원","category":"study"}]},{"lat":"37.299427455","long":"126.99081376","imageIndex":16,"items":[{"name":"기세학원","tel":"031-271-4712","addr":"경기도 수원시 장안구 정자동 336-3번지 3층","indutype":"학원 - 보습학원","category":"study"},{"name":"화랑유도관","tel":"031-269-6209","addr":"경기도 수원시 장안구 정자동 336-3번지","indutype":"학원 - 예·체능계학원","category":"study"}]},{"lat":"37.294931611","long":"126.99381443","imageIndex":16,"items":[{"name":"김대중클리닉영어학원","tel":"031-548-1678","addr":"경기도 수원시 장안구 정자동 878-8번지 금강프라자 401호","indutype":"학원 - 보습학원","category":"study"},{"name":"드림코딩하우스컴퓨터학원","tel":"031-269-3777","addr":"경기도 수원시 장안구 정자동 878-8번지 금강프라자 3층 301호","indutype":"학원 - 컴퓨터학원","category":"study"},{"name":"수학의목적과원리교습소","tel":"031-271-5891","addr":"경기도 수원시 장안구 정자동 878-8번지 금강프라자 3층 303호","indutype":"회원제형태 - 학원","category":"study"},{"name":"씨엠에스수원장안영재학원","tel":"031-271-1788","addr":"경기도 수원시 장안구 정자동 878-8번지 금강프라자 7층","indutype":"학원 - 보습학원","category":"study"},{"name":"아이스토리미술교습소","tel":"031-268-1445","addr":"경기도 수원시 장안구 정자동 878-8번지 금강프라자 2층 203호","indutype":"학원 - 예·체능계학원","category":"study"},{"name":"주식회사 수원장안청담어학원","tel":"031-269-6933","addr":"경기도 수원시 장안구 정자동 878-8번지 금강프라자 6층","indutype":"학원 - 기타 교육기관","category":"study"}]},{"lat":"37.296012785","long":"126.99311506","imageIndex":16,"items":[{"name":"김민찬본수학학원","tel":"031-269-5038","addr":"경기도 수원시 장안구 정자동 877-1번지 화이트쇼핑몰 603-4호","indutype":"학원 - 보습학원","category":"study"},{"name":"비바체음악학원","tel":"031-268-5382","addr":"경기도 수원시 장안구 정자동 877-1번지 화이트쇼핑몰 501호","indutype":"학원 - 예·체능계학원","category":"study"},{"name":"수리안학원","tel":"031-268-2268","addr":"경기도 수원시 장안구 정자동 877-1번지 화이트쇼핑몰 602호","indutype":"회원제형태 - 학원","category":"study"},{"name":"엠케이비젼영어학원","tel":"031-269-0014","addr":"경기도 수원시 장안구 정자동 877-1번지 화이트쇼핑몰 502호","indutype":"회원제형태 - 학원","category":"study"},{"name":"원하트학원","tel":"031-268-9905","addr":"경기도 수원시 장안구 정자동 877-1번지 606호","indutype":"학원 - 보습학원","category":"study"},{"name":"장안김샘학원","tel":"031-268-2366","addr":"경기도 수원시 장안구 정자동 877-1번지 601호","indutype":"학원 - 보습학원","category":"study"},{"name":"장안플랜에이독서실","tel":"031-247-0903","addr":"경기도 수원시 장안구 정자동 877-1번지 화이트쇼핑몰 907호~909호","indutype":"학원 - 독서실","category":"study"},{"name":"정자에이스학원","tel":"031-269-9905","addr":"경기도 수원시 장안구 정자동 877-1번지 화이트쇼핑몰 507호,507-1호","indutype":"회원제형태 - 학원","category":"study"},{"name":"정자에이스학원","tel":"031-269-9905","addr":"경기도 수원시 장안구 정자동 877-1번지 화이트쇼핑몰507,507-1호","indutype":"회원제형태 - 학원","category":"study"},{"name":"정자이엔엠영수전문학원","tel":"031-000-0000","addr":"경기도 수원시 장안구 정자동 877-1번지 1002호","indutype":"학원 - 외국어학원","category":"study"},{"name":"정자최강수학교습소","tel":"031-269-0095","addr":"경기도 수원시 장안구 정자동 877-1 화이트쇼핑몰 505-2호","indutype":"학원 - 보습학원","category":"study"},{"name":"청출어람청어람학원","tel":"031-269-0022","addr":"경기도 수원시 장안구 정자동 877-1번지 화이트쇼핑몰 601호","indutype":"학원 - 기타 교육기관","category":"study"},{"name":"튼튼영어마스터클럽","tel":"031-269-8111","addr":"경기도 수원시 장안구 정자동 877-1번지 화이트몰상가 605호","indutype":"학원 - 보습학원","category":"study"},{"name":"해법중국어정자교습소","tel":"031-8009-0101","addr":"경기도 수원시 장안구 정자동 877-1번지 506호","indutype":"학원 - 외국어학원","category":"study"}]},{"lat":"37.296066992","long":"126.99506618","imageIndex":16,"items":[{"name":"김주은어학원","tel":"031-269-5114","addr":"경기도 수원시 장안구 정자동 874-5번지 201호","indutype":"학원 - 외국어학원","category":"study"},{"name":"더블유스카이수학전문학원(장형)","tel":"031-268-0416","addr":"경기도 수원시 장안구 정자동 874-5번지 308호","indutype":"학원 - 보습학원","category":"study"},{"name":"사고의공간학원","tel":"031-271-4053","addr":"경기도 수원시 장안구 정자동 874-5번지 405호","indutype":"학원 - 보습학원","category":"study"},{"name":"씨엠수학전문학원","tel":"031-000-0000","addr":"경기도 수원시 장안구 정자동 874-5번지 203호","indutype":"학원 - 보습학원","category":"study"},{"name":"유하이에듀학원","tel":"031-271-6884","addr":"경기도 수원시 장안구 정자동 874-5번지 레몬포렉스 2층 206호","indutype":"학원 - 보습학원","category":"study"},{"name":"이강엠학원","tel":"031-271-0880","addr":"경기도 수원시 장안구 정자동 874-5번지 레몬스포렉스 401,402호","indutype":"학원 - 보습학원","category":"study"},{"name":"이강학원","tel":"031-268-1311","addr":"경기도 수원시 장안구 정자동 874-5번지 레몬스포렉스 403호","indutype":"학원 - 보습학원","category":"study"},{"name":"이원아무용학원","tel":"031-298-2998","addr":"경기도 수원시 장안구 정자동 874-5번지 레몬스포렉스 507호~508호","indutype":"학원 - 예·체능계학원","category":"study"},{"name":"이지매쓰학원","tel":"031-243-4222","addr":"경기도 수원시 장안구 정자동 874-5번지 509호","indutype":"학원 - 보습학원","category":"study"},{"name":"지캠프클래스 정자학원","tel":"031-253-0909","addr":"경기도 수원시 장안구 정자동 874-5번지 레몬스포렉스 404호","indutype":"학원 - 보습학원","category":"study"},{"name":"한국학원","tel":"031-241-4871","addr":"경기도 수원시 장안구 정자동 874-5번지 레몬스포렉스 305호","indutype":"회원제형태 - 학원","category":"study"},{"name":"한림원학원","tel":"031-268-4884","addr":"경기도 수원시 장안구 정자동 874-5번지 레몬스포렉스 4층 406호","indutype":"학원 - 보습학원","category":"study"}]},{"lat":"37.294174339","long":"126.9894838","imageIndex":16,"items":[{"name":"꼬마스쿨어린이집[아이행복]","tel":"031-5329-5715","addr":"경기도 수원시 장안구 정자동 880-3번지 삼환나우빌 511동 105호","indutype":"학원 - 유아원","category":"study"}]},{"lat":"37.296148011","long":"126.99402857","imageIndex":16,"items":[{"name":"꿈수학교습소","tel":"031-271-0830","addr":"경기도 수원시 장안구 정자동 876-2번지 투대일타운 607호","indutype":"학원 - 보습학원","category":"study"},{"name":"다수인수학교습소","tel":"031-254-0019","addr":"경기도 수원시 장안구 정자동 876-2번지 투대일타운 604호","indutype":"학원 - 보습학원","category":"study"},{"name":"박재만기타교습소","tel":"031-245-1454","addr":"경기도 수원시 장안구 정자동 876-2번지 투대일타운 6층 606호","indutype":"학원 - 기타 교육기관","category":"study"},{"name":"북수원최용훈국어학원","tel":"031-268-1935","addr":"경기도 수원시 장안구 정자동 876-2번지 투대일타운 6층 601호","indutype":"학원 - 보습학원","category":"study"},{"name":"세미매스수학교습소","tel":"031-269-2191","addr":"경기도 수원시 장안구 정자동 876-2번지","indutype":"학원 - 기타 교육기관","category":"study"},{"name":"수영어교습소","tel":"070-8948-3505","addr":"경기도 수원시 장안구 정자동 876-2번지 투대일타운 6층 603호","indutype":"학원 - 보습학원","category":"study"},{"name":"스파티움독서실","tel":"031-271-2180","addr":"경기도 수원시 장안구 정자동 876-2번지 505~508호","indutype":"학원 - 독서실","category":"study"},{"name":"아이들이 좋아하는 영어학원","tel":"","addr":"경기도 수원시 장안구 정자동 876-2번지 투대일타운 601호","indutype":"학원 - 외국어학원","category":"study"},{"name":"연세어학원","tel":"031-245-5669","addr":"경기도 수원시 장안구 정자동 876-2번지 투대일타운 601호","indutype":"학원 - 외국어학원","category":"study"},{"name":"이니투스학원","tel":"031-268-2160","addr":"경기도 수원시 장안구 정자동 876-2 외1필지투대일타운704호,705호","indutype":"학원 - 보습학원","category":"study"},{"name":"이화가야금교습소","tel":"031-258-8516","addr":"경기도 수원시 장안구 정자동 876-2번지 투대일타운 706호","indutype":"학원 - 예·체능계학원","category":"study"},{"name":"일타수학학원","tel":"070-1111-1111","addr":"경기도 수원시 장안구 정자동 876-2번지 5층 503호, 504호 일부","indutype":"학원 - 보습학원","category":"study"},{"name":"정지영커피학원","tel":"070-8835-6966","addr":"경기도 수원시 장안구 정자동 876-2번지 708호 707호,708호","indutype":"학원 - 기능학원","category":"study"},{"name":"파로스학원","tel":"031-269-3443","addr":"경기도 수원시 장안구 정자동 876-2번지 투대일타운 602호","indutype":"학원 - 보습학원","category":"study"},{"name":"프라임수학","tel":"031-8003-5807","addr":"경기도 수원시 장안구 정자동 876-2번지 투대일타운 605호","indutype":"회원제형태 - 학원","category":"study"},{"name":"한결학원","tel":"031-271-2855","addr":"경기도 수원시 장안구 정자동 876-2번지 투대일타운 605호","indutype":"학원 - 보습학원","category":"study"}]},{"lat":"37.295093806","long":"126.99394975","imageIndex":16,"items":[{"name":"내신전문일퍼센트학원","tel":"031-269-1411","addr":"경기도 수원시 장안구 정자동 878-9번지 현대프라자 6층","indutype":"학원 - 보습학원","category":"study"}]},{"lat":"37.301707276","long":"126.9933399","imageIndex":16,"items":[{"name":"다솔보습학원","tel":"031-246-8555","addr":"경기도 수원시 장안구 정자동 383번지 범야 상가 302호","indutype":"학원 - 보습학원","category":"study"},{"name":"매쓰트리수학교습소","tel":"031-248-1884","addr":"경기도 수원시 장안구 정자동 383번지 210-2호","indutype":"학원 - 보습학원","category":"study"},{"name":"브릭스영어교습소","tel":"","addr":"경기도 수원시 장안구 정자동 383번지 범야건설주식회사 2층 207호","indutype":"학원 - 외국어학원","category":"study"},{"name":"세종음악제삼학원","tel":"031-207-0116","addr":"경기도 수원시 장안구 정자동 383번지 범야건설주식회사 203호","indutype":"학원 - 예·체능계학원","category":"study"},{"name":"이엔에스수학영어전문학원","tel":"031-304-2650","addr":"경기도 수원시 장안구 정자동 383번지 범야건설주식회사 212호","indutype":"학원 - 보습학원","category":"study"},{"name":"정자예이나트음악학원","tel":"031-000-0000","addr":"경기도 수원시 장안구 정자동 383번지 3층 일부 305호","indutype":"학원 - 예·체능계학원","category":"study"},{"name":"제이오에이헤어아카데미","tel":"031-271-4985","addr":"경기도 수원시 장안구 정자동 383번지 범야건설주식회사 3층 307호","indutype":"학원 - 기능학원","category":"study"},{"name":"탑리더스학원","tel":"070-8271-8421","addr":"경기도 수원시 장안구 정자동 383번지 범야 상가 306호","indutype":"학원 - 보습학원","category":"study"},{"name":"홍익예미술교습소","tel":"031-405-4404","addr":"경기도 수원시 장안구 정자동 383번지 범야상가 301호","indutype":"학원 - 예·체능계학원","category":"study"}]},{"lat":"37.308509415","long":"126.98773285","imageIndex":16,"items":[{"name":"다솔초등학교","tel":"031-8019-7820","addr":"경기도 수원시 장안구 정자동 946번지 다솔초등학교","indutype":"학원 - 초중고교육기관","category":"study"}]},{"lat":"37.290237496","long":"126.99750268","imageIndex":16,"items":[{"name":"대솔경희대태권도장","tel":"031-269-7050","addr":"경기도 수원시 장안구 정자동 887-1번지 우방 상가 201,202호","indutype":"학원 - 예·체능계학원","category":"study"},{"name":"우주유치원[아이행복]","tel":"031-269-5550","addr":"경기도 수원시 장안구 정자동 887-1두견마을영남우방한솔@유치원동","indutype":"학원 - 유치원","category":"study"}]},{"lat":"37.291679164","long":"126.9981454","imageIndex":16,"items":[{"name":"대인보습학원","tel":"031-245-8255","addr":"경기도 수원시 장안구 정자동 43-24번지 2층","indutype":"학원 - 기타 교육기관","category":"study"}]},{"lat":"37.295012144","long":"126.98823179","imageIndex":16,"items":[{"name":"대평고등학교","tel":"031-259-3805","addr":"경기도 수원시 장안구 정자동 870-4번지 대평고등학교","indutype":"학원 - 초중고교육기관","category":"study"},{"name":"대평고등학교_수업료","tel":"031-259-3805","addr":"경기도 수원시 장안구 정자동 870-4번지 대평고등학교","indutype":"학원 - 초중고교육기관","category":"study"}]},{"lat":"37.297066671","long":"126.98986675","imageIndex":16,"items":[{"name":"대평중학교","tel":"031-269-2504","addr":"경기도 수원시 장안구 정자동 871-1번지 대평중학교","indutype":"학원 - 초중고교육기관","category":"study"}]},{"lat":"37.297454218","long":"126.99087047","imageIndex":16,"items":[{"name":"대평초등학교","tel":"031-269-6101","addr":"경기도 수원시 장안구 정자동 871-2번지 대평초등학교","indutype":"학원 - 초중고교육기관","category":"study"}]},{"lat":"37.295373167","long":"126.99453618","imageIndex":16,"items":[{"name":"데우스교육 주식회사(지점)","tel":"031-271-1111","addr":"경기도 수원시 장안구 정자동 878-2번지 3층","indutype":"학원 - 보습학원","category":"study"}]},{"lat":"37.291237713","long":"126.99966789","imageIndex":16,"items":[{"name":"도담향기어린이집[아이행복]","tel":"031-244-3309","addr":"경기도 수원시 장안구 정자동 44-63번지","indutype":"학원 - 유아원","category":"study"}]},{"lat":"37.296238086","long":"126.99366766","imageIndex":16,"items":[{"name":"도연검도관","tel":"031-269-3392","addr":"경기도 수원시 장안구 정자동 876-8번지 대일프라자 402호","indutype":"학원 - 예·체능계학원","category":"study"},{"name":"명성아카데미학원","tel":"031-269-2340","addr":"경기도 수원시 장안구 정자동 876-8번지 대일프라자 7층 전체","indutype":"학원 - 기타 교육기관","category":"study"},{"name":"미래로학원","tel":"031-302-0828","addr":"경기도 수원시 장안구 정자동 876-8번지 대일프라자 601호","indutype":"학원 - 보습학원","category":"study"},{"name":"숲속음악학원","tel":"031-269-3733","addr":"경기도 수원시 장안구 정자동 876-8번지 대일프라자 602호","indutype":"학원 - 예·체능계학원","category":"study"},{"name":"스와트스터디클럽독서실","tel":"031-304-5811","addr":"경기도 수원시 장안구 정자동 876-8번지 대일프라자 701호","indutype":"학원 - 독서실","category":"study"},{"name":"지트에듀케이션장안학원","tel":"0000-1877-8003","addr":"경기도 수원시 장안구 정자동 876-8번지 대일프라자 401호","indutype":"학원 - 보습학원","category":"study"}]},{"lat":"37.306599175","long":"126.98718052","imageIndex":16,"items":[{"name":"동그라미교육","tel":"031-8254-5953","addr":"경기도 수원시 장안구 정자동 945번지 수원에스케이스카이뷰 110동 1201호","indutype":"회원제형태 - 학원","category":"study"}]},{"lat":"37.299040039","long":"126.99106195","imageIndex":16,"items":[{"name":"동남고시텔","tel":"031-271-4111","addr":"경기도 수원시 장안구 정자동 266-3번지 외6필지파크프라자 204동 205호","indutype":"학원 - 독서실","category":"study"},{"name":"명은요양보호사교육원","tel":"031-268-9139","addr":"경기도 수원시 장안구 정자동 266-3번지 파크프라자 201호","indutype":"학원 - 기능학원","category":"study"},{"name":"삐에로수학","tel":"031-245-9563","addr":"경기도 수원시 장안구 정자동 파크프라자 403호","indutype":"학원 - 보습학원","category":"study"},{"name":"정자강남어학원","tel":"031-269-0880","addr":"경기도 수원시 장안구 정자동 266-3번지 파크프라자 406호","indutype":"회원제형태 - 학원","category":"study"},{"name":"휘트니스서울경희태권도","tel":"031-269-2031","addr":"경기도 수원시 장안구 정자동 266-3번지 파크프라자 401호","indutype":"학원 - 예·체능계학원","category":"study"}]},{"lat":"37.298120516","long":"126.98697927","imageIndex":16,"items":[{"name":"동남보건대학","tel":"031-249-6333","addr":"경기도 수원시 장안구 정자동 937번지","indutype":"학원 - 대학등록금","category":"study"},{"name":"동남보건대학교","tel":"031-249-6391","addr":"경기도 수원시 장안구 정자동 937번지 동남보건대학교","indutype":"학원 - 대학등록금","category":"study"},{"name":"학교법인동남학원","tel":"031-2496-391","addr":"경기도 수원시 장안구 정자동 937번지 평생교육원","indutype":"학원 - 기타 교육기관","category":"study"}]},{"lat":"37.300400798","long":"126.99341902","imageIndex":16,"items":[{"name":"동보컴퓨터학원","tel":"031-247-7292","addr":"경기도 수원시 장안구 정자동 313-1번지 동신아파트","indutype":"회원제형태 - 학원","category":"study"}]},{"lat":"37.302761637","long":"126.99564072","imageIndex":16,"items":[{"name":"동신태권도장","tel":"031-247-3704","addr":"경기도 수원시 장안구 정자동 401번지 동신아파트 4층 1호","indutype":"학원 - 예·체능계학원","category":"study"},{"name":"정자이지수학교습소","tel":"031-248-4305","addr":"경기도 수원시 장안구 정자동 401번지 동신 종합상가 301호","indutype":"회원제형태 - 학원","category":"study"},{"name":"한얼합기도","tel":"031-245-3433","addr":"경기도 수원시 장안구 정자동 401번지 동신 상가 403호","indutype":"학원 - 예·체능계학원","category":"study"}]},{"lat":"37.295373385","long":"127.00714509","imageIndex":16,"items":[{"name":"드럼과사람들학원","tel":"031-246-5150","addr":"경기도 수원시 장안구 정자동 9-5번지 외1필지 메디프라자 4층 401호","indutype":"학원 - 예·체능계학원","category":"study"}]},{"lat":"37.293012703","long":"126.99873176","imageIndex":16,"items":[{"name":"또래몬테소리어린이집","tel":"031-242-2255","addr":"경기도 수원시 장안구 정자동 42-67번지","indutype":"학원 - 유치원","category":"study"},{"name":"또래숲속어린이집[아이행복]","tel":"031-242-2255","addr":"경기도 수원시 장안구 정자동 42-67번지 또래몬테소리 2층","indutype":"학원 - 유아원","category":"study"}]},{"lat":"37.309653051","long":"126.98323181","imageIndex":16,"items":[{"name":"라임음악학원","tel":"031-268-7554","addr":"경기도 수원시 장안구 정자동 945번지 3상가 603동 204호","indutype":"학원 - 예·체능계학원","category":"study"}]},{"lat":"37.295454502","long":"127.00638946","imageIndex":16,"items":[{"name":"로얄음악학원","tel":"031-253-7632","addr":"경기도 수원시 장안구 정자동 10번지 2층","indutype":"학원 - 예·체능계학원","category":"study"}]},{"lat":"37.310311242","long":"126.9861194","imageIndex":16,"items":[{"name":"매쓰앤에듀","tel":"070-8285-2765","addr":"경기도 수원시 장안구 정자동 582-3번지 404호","indutype":"학원 - 기타 교육기관","category":"study"},{"name":"어썸팩토리수원정자에스케이플레이스독서실","tel":"031-268-0218","addr":"경기도 수원시 장안구 정자동 582-3번지 2층 201호","indutype":"학원 - 독서실","category":"study"}]},{"lat":"37.291850044","long":"126.99303665","imageIndex":16,"items":[{"name":"명인중학교","tel":"031-249-1804","addr":"경기도 수원시 장안구 정자동 888-1번지 명인중학교","indutype":"학원 - 초중고교육기관","category":"study"}]},{"lat":"37.293904523","long":"126.99491979","imageIndex":16,"items":[{"name":"명인초등학교","tel":"031-269-6111","addr":"경기도 수원시 장안구 정자동 884-7번지 명인초등학교","indutype":"학원 - 초중고교육기관","category":"study"}]},{"lat":"37.293066776","long":"127.00672769","imageIndex":16,"items":[{"name":"무림합기도","tel":"031-242-4799","addr":"경기도 수원시 장안구 정자동 68-8번지 광일빌딩 3층","indutype":"학원 - 예·체능계학원","category":"study"},{"name":"백호태권도장","tel":"031-242-4600","addr":"경기도 수원시 장안구 정자동 68-8번지 광일빌딩 3층","indutype":"학원 - 예·체능계학원","category":"study"}]},{"lat":"37.309256853","long":"126.98481113","imageIndex":16,"items":[{"name":"뮤엠영어다솔학원","tel":"031-268-2689","addr":"경기도 수원시 장안구 정자동 600-31번지 PLAZA 3층 SKY 303호 ART","indutype":"학원 - 보습학원","category":"study"},{"name":"쎈수학러닝센터다솔학원","tel":"031-268-5575","addr":"경기도 수원시 장안구 정자동 600-31번지 402호","indutype":"학원 - 보습학원","category":"study"},{"name":"콩창의센타","tel":"031-269-6223","addr":"경기도 수원시 장안구 정자동 600-31번지 4층","indutype":"학원 - 기타 교육기관","category":"study"},{"name":"행복한도전십일월의약속학원","tel":"070-7684-7684","addr":"경기도 수원시 장안구 정자동 600-31번지 301,401호","indutype":"학원 - 보습학원","category":"study"}]},{"lat":"37.295679476","long":"126.99400607","imageIndex":16,"items":[{"name":"미믹킹장안캠퍼스","tel":"031-298-7300","addr":"경기도 수원시 장안구 정자동 876-5 뱅뱅프라자 301~303호 304호일부","indutype":"회원제형태 - 학원","category":"study"},{"name":"선후합기도체육관","tel":"031-271-2226","addr":"경기도 수원시 장안구 정자동 876-5 뱅뱅프라자6층603,604호","indutype":"학원 - 예·체능계학원","category":"study"},{"name":"씨엠아이수학학원","tel":"031-242-5039","addr":"경기도 수원시 장안구 정자동 876-5번지 뱅뱅프라자 3층 301호","indutype":"학원 - 보습학원","category":"study"}]},{"lat":"37.293652481","long":"127.00055874","imageIndex":16,"items":[{"name":"바른논술글쓰기학원","tel":"031-241-6163","addr":"경기도 수원시 장안구 정자동 41-9번지","indutype":"학원 - 예·체능계학원","category":"study"}]},{"lat":"37.302428175","long":"126.99438877","imageIndex":16,"items":[{"name":"베르디음악학원","tel":"031-246-4314","addr":"경기도 수원시 장안구 정자동 395-5번지 311호 상가","indutype":"학원 - 예·체능계학원","category":"study"},{"name":"와이수학학원","tel":"031-254-0579","addr":"경기도 수원시 장안구 정자동 395-5번지 307호","indutype":"학원 - 보습학원","category":"study"}]},{"lat":"37.295787933","long":"127.00289325","imageIndex":16,"items":[{"name":"북수원학원","tel":"031-244-8208","addr":"경기도 수원시 장안구 정자동 35-3번지 4층","indutype":"학원 - 보습학원","category":"study"}]},{"lat":"37.29250813","long":"126.99875434","imageIndex":16,"items":[{"name":"블럭천사","tel":"031-242-0009","addr":"경기도 수원시 장안구 정자동 43-50번지 2층","indutype":"학원 - 기타 교육기관","category":"study"}]},{"lat":"37.294931924","long":"127.00000607","imageIndex":16,"items":[{"name":"사단법인 전통국악예술교육협회","tel":"031-258-0741","addr":"경기도 수원시 장안구 정자동 32-37번지 2층","indutype":"학원 - 예·체능계학원","category":"study"}]},{"lat":"37.296346229","long":"126.99392705","imageIndex":16,"items":[{"name":"사임당독서실","tel":"031-268-0906","addr":"경기도 수원시 장안구 정자동 876-1번지 엔타운 7층","indutype":"학원 - 독서실","category":"study"},{"name":"솔실용음악학원","tel":"031-244-6333","addr":"경기도 수원시 장안구 정자동 876-1번지","indutype":"학원 - 예·체능계학원","category":"study"}]},{"lat":"37.291877369","long":"126.99764918","imageIndex":16,"items":[{"name":"삼공삼공영어정자러닝센터학원","tel":"031-258-3031","addr":"경기도 수원시 장안구 정자동 43-15번지 201호","indutype":"학원 - 외국어학원","category":"study"},{"name":"설대영수학원","tel":"031-890-6161","addr":"경기도 수원시 장안구 정자동 43-15번지 202호","indutype":"학원 - 보습학원","category":"study"}]},{"lat":"37.30609433","long":"126.9852518","imageIndex":16,"items":[{"name":"상상그림터미술교습소","tel":"031-268-4467","addr":"경기도 수원시 장안구 정자동 600-2 SK스카이뷰 상가 212","indutype":"학원 - 예·체능계학원","category":"study"}]},{"lat":"37.294760573","long":"126.996149","imageIndex":16,"items":[{"name":"서부경희태권도체육관","tel":"031-268-2469","addr":"경기도 수원시 장안구 정자동 884-4번지 두견마을3차벽산아파트","indutype":"학원 - 예·체능계학원","category":"study"}]},{"lat":"37.29540018","long":"126.99428806","imageIndex":16,"items":[{"name":"소바미술학원","tel":"031-269-5879","addr":"경기도 수원시 장안구 정자동 878-11번지 효신빌딩 3층 301호","indutype":"학원 - 예·체능계학원","category":"study"}]},{"lat":"37.301652986","long":"126.99083596","imageIndex":16,"items":[{"name":"속청속독대평학습클리닉학원","tel":"031-244-9054","addr":"경기도 수원시 장안구 정자동 359-4번지 1층","indutype":"학원 - 기타 교육기관","category":"study"}]},{"lat":"37.292841501","long":"126.99850622","imageIndex":16,"items":[{"name":"송도음악학원","tel":"031-248-0484","addr":"경기도 수원시 장안구 정자동 43-105번지 외1필지 2층 좌측","indutype":"학원 - 예·체능계학원","category":"study"},{"name":"용인대예인태권도","tel":"031-247-6556","addr":"경기도 수원시 장안구 정자동 43-105번지 3층","indutype":"학원 - 예·체능계학원","category":"study"}]},{"lat":"37.294400236","long":"126.99759261","imageIndex":16,"items":[{"name":"송림이해법수학교습소","tel":"031-309-5225","addr":"경기도 수원시 장안구 정자동 29-3번지 301호","indutype":"회원제형태 - 학원","category":"study"},{"name":"아이비전이스턴영어전문학원","tel":"031-243-1605","addr":"경기도 수원시 장안구 정자동 29-3번지 2층","indutype":"회원제형태 - 학원","category":"study"}]},{"lat":"37.291183135","long":"126.99136767","imageIndex":16,"items":[{"name":"송림초등학교","tel":"031-269-5008","addr":"경기도 수원시 장안구 정자동 889-1번지 송림초등학교","indutype":"학원 - 초중고교육기관","category":"study"}]},{"lat":"37.292093092","long":"126.99058938","imageIndex":16,"items":[{"name":"송림해법영어교습소","tel":"031-268-0582","addr":"경기도 수원시 장안구 정자동 882-5번지 꽃뫼노을마을한국아파트 5층","indutype":"학원 - 외국어학원","category":"study"},{"name":"정자꽃뫼점이해법수학교습소","tel":"031-268-0611","addr":"경기도 수원시 장안구 정자동 882-5번지 꽃뫼노을마을한국아파트 5층","indutype":"학원 - 보습학원","category":"study"}]},{"lat":"37.295292368","long":"127.00230679","imageIndex":16,"items":[{"name":"송정해법영어교습소","tel":"031-255-6151","addr":"경기도 수원시 장안구 정자동 39-26번지 102호","indutype":"회원제형태 - 학원","category":"study"}]},{"lat":"37.306617647","long":"126.99106076","imageIndex":16,"items":[{"name":"수도유치원[아이행복]","tel":"031-255-1237","addr":"경기도 수원시 장안구 정자동 533-101","indutype":"학원 - 유치원","category":"study"}]},{"lat":"37.293292094","long":"127.00294964","imageIndex":16,"items":[{"name":"수성고등학교","tel":"031-259-1385","addr":"경기도 수원시 장안구 정자동 49번지 수성고등학교","indutype":"학원 - 초중고교육기관","category":"study"},{"name":"수성고등학교_수업료","tel":"031-259-1385","addr":"경기도 수원시 장안구 정자동 49번지 수성고등학교","indutype":"학원 - 초중고교육기관","category":"study"}]},{"lat":"37.293120892","long":"127.00422402","imageIndex":16,"items":[{"name":"수성독서실","tel":"031-247-3156","addr":"경기도 수원시 장안구 정자동 69-3번지","indutype":"학원 - 독서실","category":"study"},{"name":"수성수학교습소","tel":"031-247-3156","addr":"경기도 수원시 장안구 정자동 69-3번지","indutype":"회원제형태 - 학원","category":"study"}]},{"lat":"37.29542674","long":"126.98928057","imageIndex":16,"items":[{"name":"수원동신초등학교","tel":"031-269-5012","addr":"경기도 수원시 장안구 정자동 870-3번지 수원동신초등학교","indutype":"학원 - 초중고교육기관","category":"study"}]},{"lat":"37.294346269","long":"127.00050232","imageIndex":16,"items":[{"name":"수원열냉동용접전문학원","tel":"031-241-8031","addr":"경기도 수원시 장안구 정자동 32-15번지 옹산빌딩 301,401호","indutype":"학원 - 기능학원","category":"study"}]},{"lat":"37.290652014","long":"126.99861912","imageIndex":16,"items":[{"name":"수원장안지앤비어학원","tel":"031-246-0582","addr":"경기도 수원시 장안구 정자동 44-15번지 대원빌딩 2층","indutype":"학원 - 외국어학원","category":"study"},{"name":"씨이이씨영수학원","tel":"","addr":"경기도 수원시 장안구 정자동 44-15번지 대원빌딩 2층","indutype":"학원 - 보습학원","category":"study"}]},{"lat":"37.298841877","long":"126.99170486","imageIndex":16,"items":[{"name":"수원정자스터디뱅크독서실","tel":"031-271-8822","addr":"경기도 수원시 장안구 정자동 268-1번지 3층","indutype":"학원 - 독서실","category":"study"}]},{"lat":"37.291174684","long":"127.00344585","imageIndex":16,"items":[{"name":"숲속마을어린이집[아이행복]","tel":"031-255-8858","addr":"경기도 수원시 장안구 정자동 79-5번지","indutype":"학원 - 유아원","category":"study"},{"name":"신기방기 마술교실","tel":"","addr":"경기도 수원시 장안구 정자동 79-5번지 동광빌라 406호","indutype":"학원 - 기타 교육기관","category":"study"}]},{"lat":"37.307428154","long":"126.98747363","imageIndex":16,"items":[{"name":"스카이최강공부방","tel":"031-245-5296","addr":"경기도 수원시 장안구 정자동 945번지 수원에스케이스카이뷰 107동 1002호","indutype":"학원 - 기타 교육기관","category":"study"}]},{"lat":"37.305455267","long":"126.99047441","imageIndex":16,"items":[{"name":"시립정자1동어린이집[아이행복]","tel":"031-258-8983","addr":"경기도 수원시 장안구 정자동 536-3번지 시립정자 1동 어린이집","indutype":"학원 - 유아원","category":"study"}]},{"lat":"37.29326484","long":"127.01016742","imageIndex":16,"items":[{"name":"써니톡톡","tel":"03-100-0000","addr":"경기도 수원시 장안구 정자동 2-14번지 비전타워 403호","indutype":"학원 - 기능학원","category":"study"}]},{"lat":"37.301679973","long":"126.99041863","imageIndex":16,"items":[{"name":"쎄쎄니중국어공부방","tel":"031-241-1665","addr":"경기도 수원시 장안구 정자동 358-14번지","indutype":"학원 - 기타 교육기관","category":"study"}]},{"lat":"37.293481248","long":"127.00669387","imageIndex":16,"items":[{"name":"아가별어린이집[아이행복]","tel":"031-256-8934","addr":"경기도 수원시 장안구 정자동 68-5번지 1층","indutype":"학원 - 유아원","category":"study"}]},{"lat":"37.301635453","long":"126.99742292","imageIndex":16,"items":[{"name":"아너스어린이집[아이행복]","tel":"031-257-6139","addr":"경기도 수원시 장안구 정자동 297-2번지 경남아너스빌 101동 102호","indutype":"학원 - 유아원","category":"study"}]},{"lat":"37.30541057","long":"126.99450123","imageIndex":16,"items":[{"name":"아라어린이집[아이행복]","tel":"031-241-2581","addr":"경기도 수원시 장안구 정자동 423-1번지 정자벽산블루밍 102동 101호","indutype":"학원 - 유아원","category":"study"}]},{"lat":"37.30852668","long":"126.98267938","imageIndex":16,"items":[{"name":"아이누리어린이집[아이행복]","tel":"031-307-3336","addr":"경기도 수원시 장안구 정자동 945번지 수원SKSKYVIEW 116동 103호","indutype":"학원 - 유아원","category":"study"}]},{"lat":"37.295508607","long":"127.0015286","imageIndex":16,"items":[{"name":"아이뜰어린이집[아이행복]","tel":"031-255-5714","addr":"경기도 수원시 장안구 정자동 33-10번지 1층","indutype":"학원 - 유아원","category":"study"}]},{"lat":"37.292012619","long":"127.00505855","imageIndex":16,"items":[{"name":"아이미르","tel":"031-251-2724","addr":"경기도 수원시 장안구 정자동 80-1번지 외1필지 2층","indutype":"학원 - 보습학원","category":"study"}]},{"lat":"37.301427931","long":"126.99300156","imageIndex":16,"items":[{"name":"아크학원","tel":"031-271-0614","addr":"경기도 수원시 장안구 정자동 381-13번지 ,2,3층","indutype":"학원 - 보습학원","category":"study"}]},{"lat":"37.295814647","long":"126.99423162","imageIndex":16,"items":[{"name":"알고리즘정자점학원","tel":"031-268-3044","addr":"경기도 수원시 장안구 정자동 876-4번지 세경프라자 8층 801호","indutype":"학원 - 보습학원","category":"study"},{"name":"이강에듀코학원","tel":"031-271-3322","addr":"경기도 수원시 장안구 정자동 876-4번지 세경프라자 701동 702호","indutype":"학원 - 보습학원","category":"study"}]},{"lat":"37.307932273","long":"126.98431513","imageIndex":16,"items":[{"name":"엘리트수학영어","tel":"031-211-0188","addr":"경기도 수원시 장안구 정자동 945번지 수원에스케이스카이뷰 103동 103호","indutype":"회원제형태 - 학원","category":"study"}]},{"lat":"37.292877534","long":"126.99831449","imageIndex":16,"items":[{"name":"엘사랑피아노음악교습소","tel":"","addr":"경기도 수원시 장안구 정자동 43-1번지 1층","indutype":"학원 - 예·체능계학원","category":"study"}]},{"lat":"37.289814093","long":"126.99966795","imageIndex":16,"items":[{"name":"엠에스유독서실","tel":"031-253-3520","addr":"경기도 수원시 장안구 정자동 75-3번지 외1필지 2층","indutype":"학원 - 독서실","category":"study"}]},{"lat":"37.301707222","long":"126.99269699","imageIndex":16,"items":[{"name":"예손어린이집[아이행복]","tel":"031-248-6955","addr":"경기도 수원시 장안구 정자동 381-17번지","indutype":"학원 - 유아원","category":"study"}]},{"lat":"37.293733577","long":"127.00503604","imageIndex":16,"items":[{"name":"예일독서실","tel":"031-255-5328","addr":"경기도 수원시 장안구 정자동 50-33번지","indutype":"학원 - 독서실","category":"study"}]},{"lat":"37.296481484","long":"126.9953932","imageIndex":16,"items":[{"name":"오쌤과학교습소","tel":"","addr":"경기도 수원시 장안구 정자동 874-2번지 롯데프라자 205호","indutype":"학원 - 보습학원","category":"study"}]},{"lat":"37.294012864","long":"127.00633301","imageIndex":16,"items":[{"name":"올리브나무음악미술학원","tel":"031-290-2262","addr":"경기도 수원시 장안구 정자동 68-47번지 2층","indutype":"학원 - 예·체능계학원","category":"study"}]},{"lat":"37.297094061","long":"126.99370139","imageIndex":16,"items":[{"name":"용인대태권도","tel":"031-269-6688","addr":"경기도 수원시 장안구 정자동 872-2번지 315호 316호","indutype":"학원 - 예·체능계학원","category":"study"},{"name":"용인대태풍태권도","tel":"031-269-6688","addr":"경기도 수원시 장안구 정자동 872-2번지 라이프스포츠 수원 315동 316호","indutype":"학원 - 예·체능계학원","category":"study"},{"name":"점핑클럽 음악줄넘기","tel":"031-269-6689","addr":"경기도 수원시 장안구 정자동 872-2번지 3층 311호 라이프스포츠","indutype":"학원 - 예·체능계학원","category":"study"}]},{"lat":"37.294733689","long":"126.99961135","imageIndex":16,"items":[{"name":"용인대한얼합기도 수련원","tel":"031-256-2001","addr":"경기도 수원시 장안구 정자동 31-1번지","indutype":"학원 - 예·체능계학원","category":"study"}]},{"lat":"37.296508688","long":"126.99900225","imageIndex":16,"items":[{"name":"원하트실용음악학원","tel":"","addr":"경기도 수원시 장안구 정자동 25-2번지 3층","indutype":"학원 - 예·체능계학원","category":"study"}]},{"lat":"37.293508253","long":"126.99833701","imageIndex":16,"items":[{"name":"윤선생영어교실(한기봉)","tel":"031-269-0585","addr":"경기도 수원시 장안구 정자동 30-11번지 지하층","indutype":"학원 - 학습지 교육","category":"study"},{"name":"윤선생영어숲정자학원","tel":"031-269-0585","addr":"경기도 수원시 장안구 정자동 30-11번지 2층","indutype":"학원 - 외국어학원","category":"study"}]},{"lat":"37.295571384","long":"126.99442338","imageIndex":16,"items":[{"name":"이화수학원","tel":"031-268-3391","addr":"경기도 수원시 장안구 정자동 878-1번지 301호","indutype":"학원 - 보습학원","category":"study"}]},{"lat":"37.292787297","long":"126.99561912","imageIndex":16,"items":[{"name":"장안고등학교","tel":"031-269-8576","addr":"경기도 수원시 장안구 정자동 886-3번지 장안고등학교","indutype":"학원 - 초중고교육기관","category":"study"},{"name":"장안고등학교_수업료","tel":"031-269-8576","addr":"경기도 수원시 장안구 정자동 886-3번지 장안고등학교","indutype":"학원 - 초중고교육기관","category":"study"}]},{"lat":"37.309139362","long":"126.98260025","imageIndex":16,"items":[{"name":"장혜진","tel":"","addr":"경기도 수원시 장안구 정자동 945번지 수원에스케이스카이뷰 115동 403호","indutype":"학원 - 기타 교육기관","category":"study"}]},{"lat":"37.294174945","long":"127.00891566","imageIndex":16,"items":[{"name":"재즈피아노교습소","tel":"031-298-0316","addr":"경기도 수원시 장안구 정자동 7-18번지","indutype":"학원 - 예·체능계학원","category":"study"}]},{"lat":"37.293957306","long":"126.98375468","imageIndex":16,"items":[{"name":"정자도미넌트 음악학원","tel":"031-268-3700","addr":"경기도 수원시 장안구 정자동 919번지 청솔마을한라 상가 301호","indutype":"학원 - 예·체능계학원","category":"study"}]},{"lat":"37.309373796","long":"126.98360413","imageIndex":16,"items":[{"name":"정자샛별어린이집[아이행복]","tel":"031-271-2339","addr":"경기도 수원시 장안구 정자동 945번지 수원에스케이스카이뷰 101동 103호","indutype":"학원 - 유아원","category":"study"}]},{"lat":"37.299346748","long":"126.99550571","imageIndex":16,"items":[{"name":"정자초등학교","tel":"","addr":"경기도 수원시 장안구 정자동 873번지 정자초등학교","indutype":"학원 - 초중고교육기관","category":"study"}]},{"lat":"37.292264925","long":"127.00247598","imageIndex":16,"items":[{"name":"제이에스우석교실","tel":"033-264-3305","addr":"경기도 수원시 장안구 정자동 71-1번지","indutype":"학원 - 기타 교육기관","category":"study"}]},{"lat":"37.291039531","long":"127.0031188","imageIndex":16,"items":[{"name":"주식회사행복나눔","tel":"031-255-0775","addr":"경기도 수원시 장안구 정자동 79-1번지 일봉빌딩 501호","indutype":"회원제형태 - 학원","category":"study"}]},{"lat":"37.293066752","long":"127.00741563","imageIndex":16,"items":[{"name":"초록별어린이집[아이행복]","tel":"031-255-1189","addr":"경기도 수원시 장안구 정자동 82-4번지","indutype":"학원 - 유아원","category":"study"}]},{"lat":"37.295265014","long":"126.9941189","imageIndex":16,"items":[{"name":"코렐리아무용학원","tel":"031-269-8595","addr":"경기도 수원시 장안구 정자동 878-10번지 정자프라자 6층","indutype":"학원 - 예·체능계학원","category":"study"}]},{"lat":"37.305851438","long":"126.98804921","imageIndex":16,"items":[{"name":"펀펀아이쿡","tel":"","addr":"경기도 수원시 장안구 정자동 945번지 수원에스케이스카이뷰 126동 1303호","indutype":"학원 - 기타 교육기관","category":"study"}]},{"lat":"37.303950742","long":"126.99236959","imageIndex":16,"items":[{"name":"프리미엄에이블독서실","tel":"031-268-0220","addr":"경기도 수원시 장안구 정자동 454번지 한솔빌딩 302호","indutype":"학원 - 독서실","category":"study"}]},{"lat":"37.290399733","long":"126.99881085","imageIndex":16,"items":[{"name":"피아노로노래하는아이들음악학원","tel":"031-269-0989","addr":"경기도 수원시 장안구 정자동 74-16번지","indutype":"학원 - 예·체능계학원","category":"study"}]},{"lat":"37.292120731","long":"127.0001979","imageIndex":16,"items":[{"name":"해나라어린이집[아이행복]","tel":"031-248-3654","addr":"경기도 수원시 장안구 정자동 45-14번지","indutype":"학원 - 유아원","category":"study"}]},{"lat":"37.292760455","long":"127.00575779","imageIndex":16,"items":[{"name":"해랑어린이집[아이행복]","tel":"031-244-5609","addr":"경기도 수원시 장안구 정자동 69-28번지","indutype":"학원 - 유아원","category":"study"}]},{"lat":"37.294039775","long":"127.00923143","imageIndex":16,"items":[{"name":"해오름어린이집[아이행복]","tel":"031-251-2159","addr":"경기도 수원시 장안구 정자동 6-1번지","indutype":"학원 - 유아원","category":"study"}]},{"lat":"37.301842267","long":"126.99150139","imageIndex":16,"items":[{"name":"햇볕은 쨍쨍 어린이집[아이행복]","tel":"031-271-2400","addr":"경기도 수원시 장안구 정자동 374-7번지","indutype":"학원 - 유아원","category":"study"}]},{"lat":"37.302392183","long":"126.99509936","imageIndex":16,"items":[{"name":"헬로베이비 어린이집[아이행복]","tel":"031-306-3375","addr":"경기도 수원시 장안구 정자동 395 동신(아) 110/101","indutype":"학원 - 유아원","category":"study"}]},{"lat":"37.294148026","long":"126.99972415","imageIndex":16,"items":[{"name":"혜담어린이집[아이행복]","tel":"031-245-6839","addr":"경기도 수원시 장안구 정자동 31-2번지","indutype":"학원 - 유아원","category":"study"}]},{"lat":"37.291814397","long":"127.00095351","imageIndex":16,"items":[{"name":"화산어린이집[아이행복]","tel":"031-256-1209","addr":"경기도 수원시 장안구 정자동 45-26번지 1층","indutype":"학원 - 유아원","category":"study"}]},{"lat":"37.293119807","long":"126.98681116","imageIndex":16,"items":[{"name":"효천초등학교","tel":"031-269-0975","addr":"경기도 수원시 장안구 정자동 923번지 효천초등학교","indutype":"학원 - 초중고교육기관","category":"study"}]}]