[{"lat":"37.272538768","long":"126.97767176","imageIndex":7,"items":[{"name":"늘푸른할인마트","tel":"031-296-1102","addr":"경기도 수원시 권선구 탑동 25-43번지","indutype":"유통업 영리 - 슈퍼마켓","category":"mart"}]},{"lat":"37.274403031","long":"126.97389403","imageIndex":7,"items":[{"name":"생활용품할인매장","tel":"031-294-3784","addr":"경기도 수원시 권선구 탑동 757-4번지","indutype":"유통업 영리 - 슈퍼마켓","category":"mart"}]},{"lat":"37.270681738","long":"126.97370379","imageIndex":7,"items":[{"name":"썬마트","tel":"031-227-4926","addr":"경기도 수원시 권선구 탑동 839-1가림주택11차101,37/4","indutype":"유통업 영리 - 슈퍼마켓","category":"mart"}]},{"lat":"37.275323153","long":"126.97867432","imageIndex":7,"items":[{"name":"영마트","tel":"031-292-8209","addr":"경기도 수원시 권선구 탑동 1-1번지","indutype":"유통업 영리 - 슈퍼마켓","category":"mart"}]},{"lat":"37.267735482","long":"126.97414461","imageIndex":7,"items":[{"name":"우방할인마트","tel":"031-295-9520","addr":"경기도 수원시 권선구 탑동 860번지 우방파크타운 상기동 10호,102호","indutype":"유통업 영리 - 슈퍼마켓","category":"mart"}]},{"lat":"37.271096673","long":"126.97564284","imageIndex":7,"items":[{"name":"유신마트","tel":"031-293-3303","addr":"경기도 수원시 권선구 탑동 849-1번지 세림빌리지","indutype":"유통업 영리 - 슈퍼마켓","category":"mart"}]},{"lat":"37.270682143","long":"126.97539495","imageIndex":7,"items":[{"name":"제로마트","tel":"031-298-9285","addr":"경기도 수원시 권선구 탑동 848번지 탑동해피타운 지하 1호","indutype":"유통업 영리 - 슈퍼마켓","category":"mart"}]},{"lat":"37.270844126","long":"126.97453803","imageIndex":7,"items":[{"name":"탑동플러스마트","tel":"031-296-1270","addr":"경기도 수원시 권선구 탑동 839-7번지 스카이빌딩 1층","indutype":"유통업 영리 - 슈퍼마켓","category":"mart"}]},{"lat":"37.271681607","long":"126.97262105","imageIndex":7,"items":[{"name":"탑동할인마트","tel":"031-291-8289","addr":"경기도 수원시 권선구 탑동 780-1번지","indutype":"유통업 영리 - 슈퍼마켓","category":"mart"}]},{"lat":"37.273899274","long":"126.97745709","imageIndex":7,"items":[{"name":"탑동현대슈퍼","tel":"031-291-6727","addr":"경기도 수원시 권선구 탑동 21-3번지","indutype":"유통업 영리 - 슈퍼마켓","category":"mart"}]},{"lat":"37.26978972","long":"126.97370413","imageIndex":7,"items":[{"name":"한불마트","tel":"031-292-4047","addr":"경기도 수원시 권선구 탑동 832-1번지 성우빌라 1층 101호","indutype":"유통업 영리 - 슈퍼마켓","category":"mart"}]},{"lat":"37.273708698","long":"126.97176334","imageIndex":7,"items":[{"name":"해피마트","tel":"070-8242-1412","addr":"경기도 수원시 권선구 탑동 753-10번지 성우그린빌 101호","indutype":"유통업 영리 - 슈퍼마켓","category":"mart"}]},{"lat":"37.271095592","long":"126.97129089","imageIndex":7,"items":[{"name":"행복한마트","tel":"031-291-0488","addr":"경기도 수원시 권선구 탑동 771-5번지 성원하이츠2차 101~104호","indutype":"유통업 영리 - 슈퍼마켓","category":"mart"}]},{"lat":"37.272267359","long":"126.97294778","imageIndex":7,"items":[{"name":"행운할인마트","tel":"031-298-1009","addr":"경기도 수원시 권선구 탑동 779-5번지","indutype":"유통업 영리 - 슈퍼마켓","category":"mart"}]}]