[{"lat":"37.508224009","long":"127.63280267","imageIndex":4,"items":[{"name":"369치킨호프","tel":"031-771-7369","addr":"경기도 양평군 용문면 광탄리 175-8번지","indutype":"일반휴게음식 - 스넥","category":"restaurant"},{"name":"커피타임","tel":"070-4064-5890","addr":"경기도 양평군 용문면 광탄리 175-8번지","indutype":"일반휴게음식 - 서양음식","category":"restaurant"}]},{"lat":"37.506748479","long":"127.63072061","imageIndex":4,"items":[{"name":"BHC치킨","tel":"031-775-9992","addr":"경기도 양평군 용문면 광탄리 74-16","indutype":"일반휴게음식 - 일반한식","category":"restaurant"},{"name":"사랑해회센타","tel":"031-773-8885","addr":"경기도 양평군 용문면 광탄리 74-16번지 1층","indutype":"일반휴게음식 - 일식·회집","category":"restaurant"}]},{"lat":"37.507191728","long":"127.63208149","imageIndex":4,"items":[{"name":"곰순댓국","tel":"031-775-1143","addr":"경기도 양평군 용문면 광탄리 73-2번지","indutype":"일반휴게음식 - 일반한식","category":"restaurant"}]},{"lat":"37.508553554","long":"127.63351796","imageIndex":4,"items":[{"name":"광탄곱창","tel":"031-772-0603","addr":"경기도 양평군 용문면 광탄리 174-1번지","indutype":"일반휴게음식 - 일반한식","category":"restaurant"}]},{"lat":"37.506222991","long":"127.62957394","imageIndex":4,"items":[{"name":"광탄짬뽕","tel":"031-775-6630","addr":"경기도 양평군 용문면 광탄리 76-6번지","indutype":"일반휴게음식 - 중국식","category":"restaurant"}]},{"lat":"37.507743708","long":"127.63163373","imageIndex":4,"items":[{"name":"금강산","tel":"031-774-6329","addr":"경기도 양평군 용문면 광탄리 162-2번지","indutype":"일반휴게음식 - 중국식","category":"restaurant"}]},{"lat":"37.507026327","long":"127.63099437","imageIndex":4,"items":[{"name":"내고향손맛길","tel":"031-773-3943","addr":"경기도 양평군 용문면 광탄리 74-20번지","indutype":"일반휴게음식 - 일반한식","category":"restaurant"}]},{"lat":"37.510632874","long":"127.63724521","imageIndex":4,"items":[{"name":"너븐여울","tel":"031-771-4257","addr":"경기도 양평군 용문면 광탄리 222-4번지","indutype":"일반휴게음식 - 일반한식","category":"restaurant"},{"name":"옛집","tel":"031-771-4257","addr":"경기도 양평군 용문면 광탄리 222-4번지","indutype":"일반휴게음식 - 일반한식","category":"restaurant"}]},{"lat":"37.507639726","long":"127.63254895","imageIndex":4,"items":[{"name":"논두렁","tel":"031-775-5109","addr":"경기도 양평군 용문면 광탄리 164-4번지","indutype":"일반휴게음식 - 일반한식","category":"restaurant"}]},{"lat":"37.510993885","long":"127.6337647","imageIndex":4,"items":[{"name":"농가막국수","tel":"031-772-3493","addr":"경기도 양평군 용문면 광탄리 250","indutype":"일반휴게음식 - 일반한식","category":"restaurant"}]},{"lat":"37.50849628","long":"127.63243173","imageIndex":4,"items":[{"name":"늘봄","tel":"031-774-0075","addr":"경기도 양평군 용문면 광탄리 161-7번지","indutype":"일반휴게음식 - 일반한식","category":"restaurant"},{"name":"영남한우촌","tel":"031-773-3486","addr":"경기도 양평군 용문면 광탄리 161-7","indutype":"일반휴게음식 - 일반한식","category":"restaurant"},{"name":"회령만두","tel":"031-775-2955","addr":"경기도 양평군 용문면 광탄리 161-7번지 1층","indutype":"일반휴게음식 - 일반한식","category":"restaurant"}]},{"lat":"37.510858684","long":"127.63377487","imageIndex":4,"items":[{"name":"대길한정식","tel":"031-775-5086","addr":"경기도 양평군 용문면 광탄리 181-2번지","indutype":"일반휴게음식 - 일반한식","category":"restaurant"}]},{"lat":"37.511105751","long":"127.63810879","imageIndex":4,"items":[{"name":"르빵카페","tel":"031-775-1239","addr":"경기도 양평군 용문면 광탄리 235-2번지","indutype":"일반휴게음식 - 서양음식","category":"restaurant"}]},{"lat":"37.508388288","long":"127.6324082","imageIndex":4,"items":[{"name":"마산아구찜","tel":"031-772-5549","addr":"경기도 양평군 용문면 광탄리 161-4번지","indutype":"일반휴게음식 - 일반한식","category":"restaurant"}]},{"lat":"37.508693233","long":"127.63435607","imageIndex":4,"items":[{"name":"보리밥과청국장","tel":"031-771-0342","addr":"경기도 양평군 용문면 광탄리 193-3번지 1층","indutype":"일반휴게음식 - 일반한식","category":"restaurant"}]},{"lat":"37.511442118","long":"127.63418696","imageIndex":4,"items":[{"name":"봉황매운탕","tel":"031-772-4888","addr":"경기도 양평군 용문면 광탄리 243-2번지","indutype":"일반휴게음식 - 일반한식","category":"restaurant"}]},{"lat":"37.50827207","long":"127.63223758","imageIndex":4,"items":[{"name":"소도먹고닭도먹고","tel":"031-474-5875","addr":"경기도 양평군 용문면 광탄리 161-30번지 1층","indutype":"일반휴게음식 - 일반한식","category":"restaurant"}]},{"lat":"37.507774264","long":"127.63266317","imageIndex":4,"items":[{"name":"양산박 손두부","tel":"031-774-1711","addr":"경기도 양평군 용문면 광탄리 164-3번지 1층","indutype":"일반휴게음식 - 일반한식","category":"restaurant"}]},{"lat":"37.507387584","long":"127.63252421","imageIndex":4,"items":[{"name":"엄마손칼국수","tel":"031-000-0000","addr":"경기도 양평군 용문면 광탄리 165-5번지 1층 101호","indutype":"일반휴게음식 - 일반한식","category":"restaurant"}]},{"lat":"37.508636107","long":"127.62815775","imageIndex":4,"items":[{"name":"오투카페","tel":"070-0000-0000","addr":"경기도 양평군 용문면 광탄리 782번지 용운사","indutype":"일반휴게음식 - 서양음식","category":"restaurant"}]},{"lat":"37.510913229","long":"127.62519084","imageIndex":4,"items":[{"name":"용문장례식장내식당","tel":"031-773-4321","addr":"경기도 양평군 용문면 광탄리 434-5","indutype":"일반휴게음식 - 일반한식","category":"restaurant"}]},{"lat":"37.506803437","long":"127.63055142","imageIndex":4,"items":[{"name":"한섬갈비","tel":"031-773-3488","addr":"경기도 양평군 용문면 광탄리 74-14번지 1층","indutype":"일반휴게음식 - 일반한식","category":"restaurant"},{"name":"한섬갈비탕","tel":"031-773-3485","addr":"경기도 양평군 용문면 광탄리 74-14번지 2층","indutype":"일반휴게음식 - 일반한식","category":"restaurant"}]}]