[{"lat":"37.93540296","long":"127.0386227","imageIndex":17,"items":[{"name":"(주)에바다코리아","tel":"031-866-2277","addr":"경기도 동두천시 안흥동 193-1번지","indutype":"용역 서비스 - 기타용역서비스","category":"other"}]},{"lat":"37.936403139","long":"127.03812267","imageIndex":17,"items":[{"name":"다온곤충농장","tel":"031-866-0196","addr":"경기도 동두천시 안흥동 187번지","indutype":"문화.취미 - 애완동물","category":"other"}]},{"lat":"37.930075448","long":"127.04751486","imageIndex":17,"items":[{"name":"로그인 동두천점","tel":"","addr":"경기도 동두천시 안흥동 36번지","indutype":"유통업 영리 - 편 의 점","category":"other"}]},{"lat":"37.928660859","long":"127.04786661","imageIndex":17,"items":[{"name":"재이건축설비","tel":"031-867-3324","addr":"경기도 동두천시 안흥동 42-38번지","indutype":"용역 서비스 - 기타용역서비스","category":"other"}]},{"lat":"37.932292868","long":"127.04439954","imageIndex":17,"items":[{"name":"평강요양원","tel":"031-862-3788","addr":"경기도 동두천시 안흥동 108-5번지","indutype":"기타의료기관 - 기타의료기관 및 기타","category":"other"}]},{"lat":"37.922933763","long":"127.03981086","imageIndex":17,"items":[{"name":"호림도어산업(D&F)","tel":"031-866-2528","addr":"경기도 동두천시 안흥동 231-2번지","indutype":"건축자재 - 기타건축자재","category":"other"}]},{"lat":"37.927300179","long":"127.04859371","imageIndex":4,"items":[{"name":"개성집(동두천점)","tel":"031-858-8868","addr":"경기도 동두천시 안흥동 42-96번지 2층","indutype":"일반휴게음식 - 일반한식","category":"restaurant"}]},{"lat":"37.929325987","long":"127.01929493","imageIndex":4,"items":[{"name":"다솜식당","tel":"031-867-7000","addr":"경기도 동두천시 안흥동 523번지","indutype":"일반휴게음식 - 일반한식","category":"restaurant"}]},{"lat":"37.937238292","long":"127.04623377","imageIndex":4,"items":[{"name":"미식","tel":"031-862-6976","addr":"경기도 동두천시 안흥동 19번지","indutype":"일반휴게음식 - 일반한식","category":"restaurant"}]},{"lat":"37.928850201","long":"127.04748","imageIndex":4,"items":[{"name":"봄,여름,가을,겨울","tel":"070-8158-2394","addr":"경기도 동두천시 안흥동 43-3번지","indutype":"일반휴게음식 - 일반한식","category":"restaurant"}]},{"lat":"37.926937079","long":"127.02759732","imageIndex":4,"items":[{"name":"심마니의집","tel":"031-858-4008","addr":"경기도 동두천시 안흥동 366번지","indutype":"일반휴게음식 - 일반한식","category":"restaurant"}]},{"lat":"37.928850062","long":"127.04784397","imageIndex":4,"items":[{"name":"안흥밥상","tel":"031-861-7010","addr":"경기도 동두천시 안흥동 43-4번지","indutype":"일반휴게음식 - 일반한식","category":"restaurant"}]},{"lat":"37.92385125","long":"127.04420144","imageIndex":4,"items":[{"name":"파인힐6536","tel":"070-8779-5084","addr":"경기도 동두천시 안흥동 45-26번지","indutype":"일반휴게음식 - 서양음식","category":"restaurant"}]},{"lat":"37.924130525","long":"127.04423572","imageIndex":4,"items":[{"name":"파인힐빌리지 파인힐커피하우스","tel":"070-8860-5084","addr":"경기도 동두천시 안흥동 45-24번지 1층","indutype":"일반휴게음식 - 서양음식","category":"restaurant"}]},{"lat":"37.929325987","long":"127.01929493","imageIndex":7,"items":[{"name":"다솜사슴목장","tel":"031-867-7000","addr":"경기도 동두천시 안흥동 523번지","indutype":"음료식품 - 농·축·수산품","category":"food"}]},{"lat":"37.938214091","long":"127.03781639","imageIndex":7,"items":[{"name":"동양버섯영농조합","tel":"031-866-1743","addr":"경기도 동두천시 안흥동 179-8번지","indutype":"음료식품 - 농·축·수산품","category":"food"}]},{"lat":"37.928237946","long":"127.04647871","imageIndex":7,"items":[{"name":"카네이션하우스","tel":"031-865-1181","addr":"경기도 동두천시 안흥동 42-43번지","indutype":"음료식품 - 제과점","category":"food"}]},{"lat":"37.925270862","long":"127.02509457","imageIndex":13,"items":[{"name":"마음쉼카페&헤어","tel":"031-861-8832","addr":"경기도 동두천시 안흥동 369-2번지","indutype":"보건위생 - 미용원","category":"beauty"}]},{"lat":"37.927101997","long":"127.04853672","imageIndex":5,"items":[{"name":"수수파크","tel":"031-864-0177","addr":"경기도 동두천시 안흥동 42-98번지","indutype":"숙박업 - 여관/기타숙박업","category":"hotel"}]},{"lat":"37.930075448","long":"127.04751486","imageIndex":16,"items":[{"name":"신흥중학교","tel":"031-865-3169","addr":"경기도 동두천시 안흥동 36번지","indutype":"학원 - 초중고교육기관","category":"study"}]},{"lat":"37.927098786","long":"127.02970155","imageIndex":16,"items":[{"name":"참살이에듀팜협동조합","tel":"031-846-4232","addr":"경기도 동두천시 안흥동 239-8번지","indutype":"학원 - 기타 교육기관","category":"study"}]},{"lat":"37.928850201","long":"127.04748","imageIndex":7,"items":[{"name":"충남슈퍼","tel":"031-861-8832","addr":"경기도 동두천시 안흥동 43-3번지","indutype":"유통업 영리 - 슈퍼마켓","category":"mart"}]}]