[{"lat":"37.387694475","long":"126.85915855","imageIndex":4,"items":[{"name":"광수네온족발","tel":"031-414-4996","addr":"경기도 시흥시 논곡동 160-86번지 1층 일부호","indutype":"음식점업 - 한식","category":"restaurant"}]},{"lat":"37.394050983","long":"126.85540848","imageIndex":4,"items":[{"name":"마니백반","tel":"031-405-0890","addr":"경기도 시흥시 논곡동 245-1번지","indutype":"음식점업 - 한식","category":"restaurant"}]},{"lat":"37.387280382","long":"126.85946422","imageIndex":4,"items":[{"name":"맛누리식당","tel":"","addr":"경기도 시흥시 논곡동 160-32번지 에듀파크교육센타 101호","indutype":"음식점업 - 분식","category":"restaurant"}]},{"lat":"37.387272573","long":"126.86045792","imageIndex":4,"items":[{"name":"맞짱","tel":"031-480-6644","addr":"경기도 시흥시 논곡동 160-31번지 태성 상가 1층","indutype":"음식점업 - 퓨전요리","category":"restaurant"},{"name":"청해수산","tel":"031-484-0906","addr":"경기도 시흥시 논곡동 160-31번지","indutype":"음식점업 - 음식점","category":"restaurant"},{"name":"쿠웨이트 떡볶이","tel":"031-401-4779","addr":"경기도 시흥시 논곡동 160-31번지 1층","indutype":"음식점업 - 음식점","category":"restaurant"},{"name":"헤이!샌드위치 (Hey!Sandwich)","tel":"031-403-0690","addr":"경기도 시흥시 논곡동 160-31번지 태성 상가 1층","indutype":"음식점업 - 기타음식","category":"restaurant"}]},{"lat":"37.391162611","long":"126.85854214","imageIndex":4,"items":[{"name":"새벽나주곰탕","tel":"031-402-5200","addr":"경기도 시흥시 논곡동 201-3번지 1층","indutype":"음식점업 - 한식","category":"restaurant"}]},{"lat":"37.386884472","long":"126.85990535","imageIndex":4,"items":[{"name":"신통치킨","tel":"031-411-8255","addr":"경기도 시흥시 논곡동 160-29번지 황제아파트 상가동 103호","indutype":"음식점업 - 치킨","category":"restaurant"}]},{"lat":"37.387940051","long":"126.86106642","imageIndex":4,"items":[{"name":"원숯불갈비","tel":"031-405-7372","addr":"경기도 시흥시 논곡동 148-14번지 1층","indutype":"음식점업 - 한식","category":"restaurant"}]},{"lat":"37.394024978","long":"126.85623291","imageIndex":4,"items":[{"name":"족발신사","tel":"031-401-4505","addr":"경기도 시흥시 논곡동 242-1번지","indutype":"음식점업 - 음식점","category":"restaurant"}]},{"lat":"37.387776974","long":"126.86032146","imageIndex":4,"items":[{"name":"황토골숯불갈비","tel":"031-403-0063","addr":"경기도 시흥시 논곡동 160-7번지 산호아파트 상가동 2층","indutype":"음식점업 - 한식","category":"restaurant"}]},{"lat":"37.387776974","long":"126.86032146","imageIndex":17,"items":[{"name":"놀러와 키즈 방방","tel":"070-4843-8602","addr":"경기도 시흥시 논곡동 160-7번지 산호아파트 3층","indutype":"개인서비스업 - 실내 놀이터","category":"other"}]},{"lat":"37.387272573","long":"126.86045792","imageIndex":17,"items":[{"name":"대우약국","tel":"031-405-6169","addr":"경기도 시흥시 논곡동 160-31번지","indutype":"보건업 - 양약","category":"other"}]},{"lat":"37.393807076","long":"126.85490078","imageIndex":17,"items":[{"name":"충청할인마트","tel":"031-503-3561","addr":"경기도 시흥시 논곡동 250-1번지 1층 101호","indutype":"소매업 - 상품 종합 도매업","category":"other"}]},{"lat":"37.387940051","long":"126.86106642","imageIndex":17,"items":[{"name":"크린토피아 시흥목감점","tel":"031-410-8225","addr":"경기도 시흥시 논곡동 148-14번지","indutype":"개인서비스업 - 세탁중개업","category":"other"}]},{"lat":"37.393772248","long":"126.85587203","imageIndex":7,"items":[{"name":"럭키할인마트","tel":"031-484-9123","addr":"경기도 시흥시 논곡동 240번지","indutype":"소매업 - 슈퍼마켓","category":"mart"},{"name":"하모니마트 논곡점","tel":"031-484-9123","addr":"경기도 시흥시 논곡동 240번지","indutype":"소매업 - 슈퍼마켓","category":"mart"}]},{"lat":"37.393807076","long":"126.85490078","imageIndex":7,"items":[{"name":"하나로할인마트","tel":"031-411-1310","addr":"경기도 시흥시 논곡동 250-1번지","indutype":"소매업 - 슈퍼마켓","category":"mart"}]},{"lat":"37.394106279","long":"126.85640214","imageIndex":13,"items":[{"name":"머리이뿌지요","tel":"","addr":"경기도 시흥시 논곡동 243-8번지","indutype":"개인서비스업 - 미용업","category":"beauty"}]},{"lat":"37.387272573","long":"126.86045792","imageIndex":8,"items":[{"name":"이선수치과의원","tel":"031-482-2875","addr":"경기도 시흥시 논곡동 160-31번지 , 2,3층","indutype":"보건업 - 치과의원","category":"medical"}]}]