[{"lat":"37.275045648","long":"127.01541985","imageIndex":4,"items":[{"name":"(주)태진개발솔즈베리커피숍","tel":"031-246-0016","addr":"경기도 수원시 팔달구 교동 1-2번지","indutype":"일반휴게음식 - 일반한식","category":"restaurant"}]},{"lat":"37.273153558","long":"127.01475432","imageIndex":4,"items":[{"name":"139st.(에스티)","tel":"031-258-0139","addr":"경기도 수원시 팔달구 교동 11-31번지 1층","indutype":"일반휴게음식 - 서양음식","category":"restaurant"},{"name":"교동설렁탕","tel":"031-247-8504","addr":"경기도 수원시 팔달구 교동 11-31번지 1층","indutype":"일반휴게음식 - 일반한식","category":"restaurant"}]},{"lat":"37.27226149","long":"127.01525026","imageIndex":4,"items":[{"name":"59쌀피자","tel":"031-254-0331","addr":"경기도 수원시 팔달구 교동 122-9번지","indutype":"일반휴게음식 - 서양음식","category":"restaurant"}]},{"lat":"37.273739357","long":"127.0133676","imageIndex":4,"items":[{"name":"91커피팔달산점","tel":"","addr":"경기도 수원시 팔달구 교동 6-104번지 스카이빌 2층","indutype":"일반휴게음식 - 서양음식","category":"restaurant"}]},{"lat":"37.274315833","long":"127.0152506","imageIndex":4,"items":[{"name":"강남칼국수","tel":"070-8743-1140","addr":"경기도 수원시 팔달구 교동 4-2번지 남문타워 B102호","indutype":"일반휴게음식 - 일반한식","category":"restaurant"},{"name":"너와나를위해","tel":"031-255-2522","addr":"경기도 수원시 팔달구 교동 4-2번지 남문타워 지하1층 102호","indutype":"일반휴게음식 - 주점","category":"restaurant"}]},{"lat":"37.272459808","long":"127.01433705","imageIndex":4,"items":[{"name":"교동생맥주","tel":"031-245-5332","addr":"경기도 수원시 팔달구 교동 79-1번지","indutype":"일반휴게음식 - 칵테일바","category":"restaurant"}]},{"lat":"37.271765958","long":"127.01492322","imageIndex":4,"items":[{"name":"국대떡볶이수원교동점","tel":"031-238-0089","addr":"경기도 수원시 팔달구 교동 132-6번지 1층","indutype":"일반휴게음식 - 스넥","category":"restaurant"},{"name":"본죽교동점","tel":"031-238-5989","addr":"경기도 수원시 팔달구 교동 132-6번지","indutype":"일반휴게음식 - 일반한식","category":"restaurant"}]},{"lat":"37.27299135","long":"127.01497979","imageIndex":4,"items":[{"name":"그렇게 함박이 된다","tel":"","addr":"경기도 수원시 팔달구 교동 97-1번지 보성빌딩 1층","indutype":"일반휴게음식 - 일반한식","category":"restaurant"},{"name":"그집맛집","tel":"031-246-1193","addr":"경기도 수원시 팔달구 교동 97-1번지 보성빌딩 1층","indutype":"일반휴게음식 - 일반한식","category":"restaurant"},{"name":"맘두","tel":"070-7808-8151","addr":"경기도 수원시 팔달구 교동 97-1번지 보성빌딩 102호","indutype":"일반휴게음식 - 일반한식","category":"restaurant"}]},{"lat":"37.273568165","long":"127.01333375","imageIndex":4,"items":[{"name":"꿈볶는카페","tel":"031-254-2119","addr":"경기도 수원시 팔달구 교동 6-105번지 스카이빌 2층 302호","indutype":"일반휴게음식 - 서양음식","category":"restaurant"}]},{"lat":"37.272657898","long":"127.01566749","imageIndex":4,"items":[{"name":"노스목위닷파","tel":"031-241-5547","addr":"경기도 수원시 팔달구 교동 119번지 1층","indutype":"일반휴게음식 - 서양음식","category":"restaurant"}]},{"lat":"37.272072477","long":"127.01311933","imageIndex":4,"items":[{"name":"담평추어탕감자탕","tel":"031-255-7261","addr":"경기도 수원시 팔달구 교동 21-1번지 1층","indutype":"일반휴게음식 - 일반한식","category":"restaurant"}]},{"lat":"37.272288668","long":"127.01375074","imageIndex":4,"items":[{"name":"대박집","tel":"031-242-0311","addr":"경기도 수원시 팔달구 교동 79-3번지 이지빌","indutype":"일반휴게음식 - 일반한식","category":"restaurant"}]},{"lat":"37.274153818","long":"127.01350296","imageIndex":4,"items":[{"name":"뜰","tel":"","addr":"경기도 수원시 팔달구 교동 6-101번지 다인주택 301호","indutype":"일반휴게음식 - 서양음식","category":"restaurant"}]},{"lat":"37.27209942","long":"127.01408895","imageIndex":4,"items":[{"name":"론도픽","tel":"070-7469-1432","addr":"경기도 수원시 팔달구 교동 88-5번지 1층","indutype":"일반휴게음식 - 서양음식","category":"restaurant"}]},{"lat":"37.270513844","long":"127.01125885","imageIndex":4,"items":[{"name":"루미에르","tel":"031-242-3409","addr":"경기도 수원시 팔달구 교동 201-4번지 2층","indutype":"일반휴게음식 - 서양음식","category":"restaurant"}]},{"lat":"37.274315954","long":"127.01403291","imageIndex":4,"items":[{"name":"마음","tel":"031-252-3474","addr":"경기도 수원시 팔달구 교동 2-6번지 원불교 경인교구청 수원교당 1동","indutype":"일반휴게음식 - 서양음식","category":"restaurant"}]},{"lat":"37.272567898","long":"127.01467531","imageIndex":4,"items":[{"name":"마포생고기","tel":"031-255-1264","addr":"경기도 수원시 팔달구 교동 93-3번지 1층","indutype":"일반휴게음식 - 일반한식","category":"restaurant"}]},{"lat":"37.274622162","long":"127.0154536","imageIndex":4,"items":[{"name":"맥주샵 남문점","tel":"031-245-0059","addr":"경기도 수원시 팔달구 교동 3-6번지 2층 1호","indutype":"일반휴게음식 - 일반한식","category":"restaurant"},{"name":"펍플레이","tel":"031-256-3565","addr":"경기도 수원시 팔달구 교동 3-6번지 제1층 2","indutype":"일반휴게음식 - 주점","category":"restaurant"},{"name":"펍플레이","tel":"031-256-3565","addr":"경기도 수원시 팔달구 교동 3-6번지 2 (1층)","indutype":"일반휴게음식 - 주점","category":"restaurant"},{"name":"해적왕","tel":"031-253-0340","addr":"경기도 수원시 팔달구 교동 3-6번지 1층 1호","indutype":"일반휴게음식 - 일반한식","category":"restaurant"}]},{"lat":"37.272153419","long":"127.01473161","imageIndex":4,"items":[{"name":"메종드커피","tel":"031-258-3545","addr":"경기도 수원시 팔달구 교동 90-7번지 대지빌딩 1층","indutype":"일반휴게음식 - 서양음식","category":"restaurant"}]},{"lat":"37.272658155","long":"127.01300666","imageIndex":4,"items":[{"name":"무지개식당","tel":"031-256-6066","addr":"경기도 수원시 팔달구 교동 6-111번지","indutype":"일반휴게음식 - 일반한식","category":"restaurant"},{"name":"소곤소곤카페&샵","tel":"","addr":"경기도 수원시 팔달구 교동 6-111번지 3층","indutype":"일반휴게음식 - 서양음식","category":"restaurant"}]},{"lat":"37.274018479","long":"127.01539713","imageIndex":4,"items":[{"name":"뮤직(MUZIK)","tel":"031-273-2040","addr":"경기도 수원시 팔달구 교동 2-33번지 1층","indutype":"일반휴게음식 - 주점","category":"restaurant"}]},{"lat":"37.271738933","long":"127.01486684","imageIndex":4,"items":[{"name":"미소야","tel":"031-225-3132","addr":"경기도 수원시 팔달구 교동 132-3번지 1층","indutype":"일반휴게음식 - 일반한식","category":"restaurant"}]},{"lat":"37.272099386","long":"127.01444974","imageIndex":4,"items":[{"name":"봄 (SPRING)","tel":"070-4763-5091","addr":"경기도 수원시 팔달구 교동 90-6번지 1층","indutype":"일반휴게음식 - 스넥","category":"restaurant"}]},{"lat":"37.271928074","long":"127.01558845","imageIndex":4,"items":[{"name":"비즈커피숍","tel":"031-236-8653","addr":"경기도 수원시 팔달구 교동 130-1번지","indutype":"일반휴게음식 - 칵테일바","category":"restaurant"}]},{"lat":"37.271234547","long":"127.01281481","imageIndex":4,"items":[{"name":"비치","tel":"031-8690-8859","addr":"경기도 수원시 팔달구 교동 64-2번지 지하1층","indutype":"일반휴게음식 - 주점","category":"restaurant"}]},{"lat":"37.272594795","long":"127.01594935","imageIndex":4,"items":[{"name":"쉼","tel":"031-245-0108","addr":"경기도 수원시 팔달구 교동 124-1번지 1층","indutype":"일반휴게음식 - 서양음식","category":"restaurant"}]},{"lat":"37.26992818","long":"127.01120241","imageIndex":4,"items":[{"name":"시골통닭","tel":"031-226-0399","addr":"경기도 수원시 팔달구 교동 176번지 1층","indutype":"일반휴게음식 - 스넥","category":"restaurant"},{"name":"휴일커피","tel":"","addr":"경기도 수원시 팔달구 교동 176번지","indutype":"일반휴게음식 - 서양음식","category":"restaurant"}]},{"lat":"37.273622054","long":"127.01513774","imageIndex":4,"items":[{"name":"신당명가","tel":"031-257-1829","addr":"경기도 수원시 팔달구 교동 10-7번지","indutype":"일반휴게음식 - 스넥","category":"restaurant"}]},{"lat":"37.270153431","long":"127.01128135","imageIndex":4,"items":[{"name":"신축제단란주점","tel":"031-238-5105","addr":"경기도 수원시 팔달구 교동 200-2번지","indutype":"일반휴게음식 - 주점","category":"restaurant"}]},{"lat":"37.27037851","long":"127.01350243","imageIndex":4,"items":[{"name":"신혼부페","tel":"031-234-5800","addr":"경기도 수원시 팔달구 교동 142-20번지","indutype":"일반휴게음식 - 일반한식","category":"restaurant"}]},{"lat":"37.273712119","long":"127.01549855","imageIndex":4,"items":[{"name":"아이엠밀크","tel":"070-8861-6597","addr":"경기도 수원시 팔달구 교동 103-1번지 신안빌딩 1층 109호,110호","indutype":"일반휴게음식 - 일반한식","category":"restaurant"},{"name":"카페젠","tel":"","addr":"경기도 수원시 팔달구 교동 103-1번지 신안빌딩 1층 107호","indutype":"일반휴게음식 - 서양음식","category":"restaurant"}]},{"lat":"37.271180567","long":"127.01177755","imageIndex":4,"items":[{"name":"언니쓰","tel":"031-257-2282","addr":"경기도 수원시 팔달구 교동 51번지 1층","indutype":"일반휴게음식 - 서양음식","category":"restaurant"}]},{"lat":"37.27304533","long":"127.01575776","imageIndex":4,"items":[{"name":"영동돈까스.대왕파닭","tel":"031-222-8552","addr":"경기도 수원시 팔달구 교동 114-1번지","indutype":"일반휴게음식 - 스넥","category":"restaurant"},{"name":"해운대국밥","tel":"031-245-5582","addr":"경기도 수원시 팔달구 교동 114-1번지 1층","indutype":"일반휴게음식 - 일반한식","category":"restaurant"}]},{"lat":"37.272351711","long":"127.01405517","imageIndex":4,"items":[{"name":"오카오카","tel":"070-8354-8003","addr":"경기도 수원시 팔달구 교동 79-2번지 1층 101호","indutype":"일반휴게음식 - 일반한식","category":"restaurant"}]},{"lat":"37.269991042","long":"127.01378423","imageIndex":4,"items":[{"name":"이가네","tel":"031-234-1934","addr":"경기도 수원시 팔달구 교동 142-23번지 1층","indutype":"일반휴게음식 - 일반한식","category":"restaurant"}]},{"lat":"37.272685216","long":"127.01264588","imageIndex":4,"items":[{"name":"자린고비생선구이전문점","tel":"031-246-4116","addr":"경기도 수원시 팔달구 교동 43-1번지","indutype":"일반휴게음식 - 일반한식","category":"restaurant"}]},{"lat":"37.272765999","long":"127.01587046","imageIndex":4,"items":[{"name":"찬솔김밥","tel":"031-242-1609","addr":"경기도 수원시 팔달구 교동 117-1번지","indutype":"일반휴게음식 - 일반한식","category":"restaurant"},{"name":"행궁골뱅이","tel":"031-257-8881","addr":"경기도 수원시 팔달구 교동 117-1번지 1층","indutype":"일반휴게음식 - 일반한식","category":"restaurant"}]},{"lat":"37.272153291","long":"127.01594927","imageIndex":4,"items":[{"name":"치킨과유동골뱅이","tel":"031-246-8292","addr":"경기도 수원시 팔달구 교동 126-2번지 1층","indutype":"일반휴게음식 - 일반한식","category":"restaurant"}]},{"lat":"37.273567942","long":"127.01561127","imageIndex":4,"items":[{"name":"카페CF","tel":"031-243-7877","addr":"경기도 수원시 팔달구 교동 106-1번지","indutype":"일반휴게음식 - 일반한식","category":"restaurant"}]},{"lat":"37.271684963","long":"127.01391977","imageIndex":4,"items":[{"name":"카페인히즈(Cafe in his)","tel":"","addr":"경기도 수원시 팔달구 교동 81-1번지 3층","indutype":"일반휴게음식 - 서양음식","category":"restaurant"}]},{"lat":"37.274045501","long":"127.01547605","imageIndex":4,"items":[{"name":"코듀로이","tel":"031-1111-1111","addr":"경기도 수원시 팔달구 교동 2-32번지","indutype":"일반휴게음식 - 주점","category":"restaurant"}]},{"lat":"37.272180429","long":"127.01494584","imageIndex":4,"items":[{"name":"큰맘할매순대국 교동사거리점","tel":"031-251-8588","addr":"경기도 수원시 팔달구 교동 91-1번지 1층 2호","indutype":"일반휴게음식 - 일반한식","category":"restaurant"}]},{"lat":"37.272712055","long":"127.01475425","imageIndex":4,"items":[{"name":"토성(생고기)","tel":"031-257-7796","addr":"경기도 수원시 팔달구 교동 93-2번지","indutype":"일반휴게음식 - 일반한식","category":"restaurant"}]},{"lat":"37.273540981","long":"127.01494605","imageIndex":4,"items":[{"name":"팔미옥","tel":"031-245-6325","addr":"경기도 수원시 팔달구 교동 11-1","indutype":"일반휴게음식 - 일반한식","category":"restaurant"},{"name":"하우드","tel":"031-258-7111","addr":"경기도 수원시 팔달구 교동 11-1","indutype":"일반휴게음식 - 서양음식","category":"restaurant"}]},{"lat":"37.271657857","long":"127.01469771","imageIndex":4,"items":[{"name":"푸드맘","tel":"031-236-6777","addr":"경기도 수원시 팔달구 교동 132-4번지","indutype":"일반휴게음식 - 스넥","category":"restaurant"}]},{"lat":"37.270540702","long":"127.01342353","imageIndex":4,"items":[{"name":"플랜츠카페화인","tel":"031-235-1900","addr":"경기도 수원시 팔달구 교동 142-19번지 1층","indutype":"일반휴게음식 - 서양음식","category":"restaurant"}]},{"lat":"37.267126013","long":"127.0107286","imageIndex":4,"items":[{"name":"필레오","tel":"","addr":"경기도 수원시 팔달구 교동 250번지 1층","indutype":"일반휴게음식 - 일반한식","category":"restaurant"}]},{"lat":"37.270486756","long":"127.01203677","imageIndex":4,"items":[{"name":"하림맥시칸","tel":"031-0000-0000","addr":"경기도 수원시 팔달구 교동 149-3번지 148-2","indutype":"일반휴게음식 - 일반한식","category":"restaurant"}]},{"lat":"37.270955143","long":"127.01378437","imageIndex":4,"items":[{"name":"한전구내식당","tel":"031-239-8465","addr":"경기도 수원시 팔달구 교동 137-8번지 지하1층","indutype":"일반휴게음식 - 위탁급식업","category":"restaurant"}]}]