[{"lat":"37.739991619","long":"127.42097459","imageIndex":7,"items":[{"name":"(주)아이엠에스홀딩스","tel":"031-581-6800","addr":"경기도 가평군 청평면 청평리 312-9번지","indutype":"음료식품 - 기타음료식품","category":"food"}]},{"lat":"37.736803052","long":"127.41819991","imageIndex":7,"items":[{"name":"kims butcher shop 김씨 정육점","tel":"031-585-4361","addr":"경기도 가평군 청평면 청평리 434-58번지 1층 미싱상회","indutype":"음료식품 - 정육점","category":"food"}]},{"lat":"37.735323242","long":"127.41883828","imageIndex":7,"items":[{"name":"가평잣나무떡집","tel":"031-584-4363","addr":"경기도 가평군 청평면 청평리 79-54번지 1층","indutype":"음료식품 - 제과점","category":"food"}]},{"lat":"37.735712481","long":"127.41575476","imageIndex":7,"items":[{"name":"과일이야기","tel":"","addr":"경기도 가평군 청평면 청평리 438-25번지 1층","indutype":"음료식품 - 농·축·수산품","category":"food"}]},{"lat":"37.736659982","long":"127.41789281","imageIndex":7,"items":[{"name":"꽃님이네","tel":"031-584-0520","addr":"경기도 가평군 청평면 청평리 434-7번지","indutype":"음료식품 - 기타음료식품","category":"food"}]},{"lat":"37.737913559","long":"127.42008935","imageIndex":7,"items":[{"name":"남양주류","tel":"031-584-3031","addr":"경기도 가평군 청평면 청평리 465-20번지","indutype":"음료식품 - 주류 판매점","category":"food"}]},{"lat":"37.738244654","long":"127.42072652","imageIndex":7,"items":[{"name":"다비포크(청평점)","tel":"031-584-8371","addr":"경기도 가평군 청평면 청평리 432-19번지","indutype":"음료식품 - 정육점","category":"food"}]},{"lat":"37.736436106","long":"127.41750584","imageIndex":7,"items":[{"name":"더 달달 아이스크림 할인점","tel":"070-7423-6603","addr":"경기도 가평군 청평면 청평리 434-15번지 1층","indutype":"음료식품 - 기타음료식품","category":"food"}]},{"lat":"37.732073554","long":"127.41031215","imageIndex":7,"items":[{"name":"도니우니 정육점","tel":"031-584-5720","addr":"경기도 가평군 청평면 청평리 635-4번지 청평나루휴게소 E동","indutype":"음료식품 - 정육점","category":"food"}]},{"lat":"37.73771974","long":"127.43389487","imageIndex":7,"items":[{"name":"라빵즈","tel":"","addr":"경기도 가평군 청평면 청평리 28-7번지","indutype":"음료식품 - 기타음료식품","category":"food"}]},{"lat":"37.735406145","long":"127.41317787","imageIndex":7,"items":[{"name":"만보","tel":"031-585-8966","addr":"경기도 가평군 청평면 청평리 617-8번지 LMART","indutype":"음료식품 - 농·축·수산품","category":"food"}]},{"lat":"37.739025326","long":"127.42161582","imageIndex":7,"items":[{"name":"배스킨라빈스청평점","tel":"031-584-7502","addr":"경기도 가평군 청평면 청평리 314-5번지","indutype":"음료식품 - 제과점","category":"food"}]},{"lat":"37.737324714","long":"127.41845241","imageIndex":7,"items":[{"name":"복권방","tel":"031-585-2779","addr":"경기도 가평군 청평면 청평리 462-2번지","indutype":"음료식품 - 기타음료식품","category":"food"}]},{"lat":"37.74048884","long":"127.42303087","imageIndex":7,"items":[{"name":"빵굽는 마을","tel":"031-584-8464","addr":"경기도 가평군 청평면 청평리 319-46번지","indutype":"음료식품 - 제과점","category":"food"}]},{"lat":"37.7358017","long":"127.41600483","imageIndex":7,"items":[{"name":"삼거리떡집","tel":"031-584-0085","addr":"경기도 가평군 청평면 청평리 438-22번지","indutype":"음료식품 - 제과점","category":"food"}]},{"lat":"37.738271565","long":"127.42831639","imageIndex":7,"items":[{"name":"삼성종합축산","tel":"","addr":"경기도 가평군 청평면 청평리 414-2번지","indutype":"음료식품- 정육점","category":"food"}]},{"lat":"37.736743711","long":"127.41969707","imageIndex":7,"items":[{"name":"삼성종합축산","tel":"031-584-6661","addr":"경기도 가평군 청평면 청평리 414-2번지 근린상가 1층","indutype":"음료식품 - 정육점","category":"food"},{"name":"신앙촌상회","tel":"031-584-0268","addr":"경기도 가평군 청평면 청평리 414-2번지","indutype":"음료식품 - 기타음료식품","category":"food"},{"name":"이시모","tel":"","addr":"경기도 가평군 청평면 청평리 414-2번지 1층","indutype":"음료식품 - 기타음료식품","category":"food"}]},{"lat":"37.742575965","long":"127.42389358","imageIndex":7,"items":[{"name":"솔매가평잣영농조합법인","tel":"031-585-3385","addr":"경기도 가평군 청평면 청평리 278-1번지 솔매 가평 잣영농조합","indutype":"음료식품 - 농·축·수산품","category":"food"},{"name":"솔향기가평잣생산자영농조합","tel":"031-585-7171","addr":"경기도 가평군 청평면 청평리 278-1","indutype":"음료식품 - 농·축·수산품","category":"food"}]},{"lat":"37.731634212","long":"127.40969718","imageIndex":7,"items":[{"name":"쉼터매점","tel":"031-584-0187","addr":"경기도 가평군 청평면 청평리 635-16번지","indutype":"음료식품 - 기타음료식품","category":"food"}]},{"lat":"37.735359368","long":"127.41625195","imageIndex":7,"items":[{"name":"시장닭집","tel":"031-584-2868","addr":"경기도 가평군 청평면 청평리 78-1번지","indutype":"음료식품 - 정육점","category":"food"}]},{"lat":"37.731690879","long":"127.42434242","imageIndex":7,"items":[{"name":"안전1호매점","tel":"031-584-2784","addr":"경기도 가평군 청평면 청평리 134-8번지","indutype":"음료식품 - 기타음료식품","category":"food"},{"name":"안전1호매점","tel":"031-584-2784","addr":"경기도 가평군 청평면 청평리 134-8","indutype":"음료식품 - 기타음료식품","category":"food"}]},{"lat":"37.738494178","long":"127.41639417","imageIndex":7,"items":[{"name":"영구네키친 도시락앤찬찬찬","tel":"031-584-4509","addr":"경기도 가평군 청평면 청평리 445-4번지 1층 101호","indutype":"음료식품 - 기타음료식품","category":"food"}]},{"lat":"37.737967765","long":"127.42258552","imageIndex":7,"items":[{"name":"우리홍삼","tel":"031-585-3343","addr":"경기도 가평군 청평면 청평리 319-57","indutype":"건강식품 - 홍삼제품","category":"food"}]},{"lat":"37.73562933","long":"127.41634421","imageIndex":7,"items":[{"name":"장수건강원","tel":"031-584-8784","addr":"경기도 가평군 청평면 청평리 434-14","indutype":"건강식품 - 기타건강식품","category":"food"}]},{"lat":"37.731358659","long":"127.41381348","imageIndex":7,"items":[{"name":"정웅상사","tel":"","addr":"경기도 가평군 청평면 청평리 688-3번지 청평맨션 307호","indutype":"음료식품 - 기타음료식품","category":"food"}]},{"lat":"37.735108858","long":"127.41831524","imageIndex":7,"items":[{"name":"조원유통","tel":"031-584-1530","addr":"경기도 가평군 청평면 청평리 79-46번지","indutype":"음료식품 - 농·축·수산품","category":"food"}]},{"lat":"37.739406294","long":"127.42089188","imageIndex":7,"items":[{"name":"진코","tel":"031-584-2886","addr":"경기도 가평군 청평면 청평리 313-2","indutype":"회원제형태 - 건강식품","category":"food"}]},{"lat":"37.731817305","long":"127.41405423","imageIndex":7,"items":[{"name":"청정포도원","tel":"","addr":"경기도 가평군 청평면 청평리 688-2번지 현대하이츠빌라 바동 101호","indutype":"음료식품 - 농·축·수산품","category":"food"}]},{"lat":"37.737076206","long":"127.42247838","imageIndex":7,"items":[{"name":"청평계란","tel":"031-584-4079","addr":"경기도 가평군 청평면 청평리 388-24","indutype":"음료식품 - 농·축·수산품","category":"food"}]},{"lat":"37.740274475","long":"127.42250778","imageIndex":7,"items":[{"name":"청평고기마을","tel":"031-584-2352","addr":"경기도 가평군 청평면 청평리 318-1 1층상가(2호,3호)","indutype":"음료식품 - 정육점","category":"food"}]},{"lat":"37.73288212","long":"127.41097454","imageIndex":7,"items":[{"name":"청평나루","tel":"031-584-5181","addr":"경기도 가평군 청평면 청평리 640-1번지","indutype":"음료식품 - 기타음료식품","category":"food"}]},{"lat":"37.735579088","long":"127.41525486","imageIndex":7,"items":[{"name":"청평방앗간","tel":"031-584-0051","addr":"경기도 가평군 청평면 청평리 438-27번지","indutype":"음료식품 - 제과점","category":"food"}]},{"lat":"37.73518664","long":"127.41411824","imageIndex":7,"items":[{"name":"청평수산","tel":"031-584-2454","addr":"경기도 가평군 청평면 청평리 619-10번지 전원함석닥트 나동 1층 2호","indutype":"음료식품 - 농·축·수산품","category":"food"}]},{"lat":"37.734408152","long":"127.41516896","imageIndex":7,"items":[{"name":"청평수산","tel":"031-584-2454","addr":"경기도 가평군 청평면 청평리 738-10","indutype":"음료식품 - 농·축·수산품","category":"food"}]},{"lat":"37.735576348","long":"127.41603761","imageIndex":7,"items":[{"name":"청평시장방앗간","tel":"031-584-8972","addr":"경기도 가평군 청평면 청평리 438-41번지","indutype":"음료식품 - 제과점","category":"food"}]},{"lat":"37.740741384","long":"127.42295288","imageIndex":7,"items":[{"name":"청평신나라정육마트","tel":"031-584-4524","addr":"경기도 가평군 청평면 청평리 319-19","indutype":"음료식품 - 정육점","category":"food"}]},{"lat":"37.738968285","long":"127.42245503","imageIndex":7,"items":[{"name":"청평유통","tel":"02-1234-1234","addr":"경기도 가평군 청평면 청평리 319-36번지 1층","indutype":"음료식품 - 정육점","category":"food"}]},{"lat":"37.75229928","long":"127.41822977","imageIndex":7,"items":[{"name":"청평캠프타운","tel":"031-584-2443","addr":"경기도 가평군 청평면 청평리 536-2번지 청평캠프타운","indutype":"음료식품 - 기타음료식품","category":"food"}]},{"lat":"37.73818396","long":"127.42005684","imageIndex":7,"items":[{"name":"청평파리바게트","tel":"031-585-8213","addr":"경기도 가평군 청평면 청평리 465-29번지","indutype":"음료식품 - 제과점","category":"food"}]},{"lat":"37.737464939","long":"127.41956498","imageIndex":7,"items":[{"name":"칸베이커리","tel":"031-000-0000","addr":"경기도 가평군 청평면 청평리 432-22번지 1층","indutype":"음료식품 - 제과점","category":"food"}]},{"lat":"37.737461533","long":"127.41797669","imageIndex":7,"items":[{"name":"크리스탈","tel":"031-584-0784","addr":"경기도 가평군 청평면 청평리 459번지","indutype":"음료식품 - 기타음료식품","category":"food"}]},{"lat":"37.736706762","long":"127.41483002","imageIndex":7,"items":[{"name":"현빈이네","tel":"070-8616-5122","addr":"경기도 가평군 청평면 청평리 616-4번지 그린빌라 다동 201호","indutype":"음료식품 - 농·축·수산품","category":"food"}]},{"lat":"37.740885128","long":"127.42306714","imageIndex":7,"items":[{"name":"호두까기 호두과자","tel":"031-585-9899","addr":"경기도 가평군 청평면 청평리 319-69번지","indutype":"음료식품 - 기타음료식품","category":"food"}]},{"lat":"37.733937591","long":"127.42842772","imageIndex":7,"items":[{"name":"호명산 쉼터","tel":"","addr":"경기도 가평군 청평면 청평리 167-53번지","indutype":"음료식품 - 기타음료식품","category":"food"}]},{"lat":"37.732830835","long":"127.42803569","imageIndex":7,"items":[{"name":"호명산베이스캠프","tel":"031-584-0044","addr":"경기도 가평군 청평면 청평리 134-20번지","indutype":"음료식품 - 기타음료식품","category":"food"}]},{"lat":"37.732575291","long":"127.42139799","imageIndex":7,"items":[{"name":"휘앙새민박","tel":"031-584-0395","addr":"경기도 가평군 청평면 청평리 92-3","indutype":"음료식품 - 기타음료식품","category":"food"},{"name":"휘앙새민박매점","tel":"031-584-0395","addr":"경기도 가평군 청평면 청평리 94-17번지","indutype":"음료식품 - 기타음료식품","category":"food"}]},{"lat":"37.737996271","long":"127.42469582","imageIndex":7,"items":[{"name":"희망쉼터","tel":"031-584-5835","addr":"경기도 가평군 청평면 청평리 349-22","indutype":"음료식품 - 농·축·수산품","category":"food"}]}]