[{"lat":"37.38031543","long":"127.3044477","imageIndex":17,"items":[{"name":"(주)정성엔지니어링","tel":"031-766-2745","addr":"경기도 광주시 초월읍 용수리 334-1번지","indutype":"건축자재 - 기타건축자재","category":"other"}]},{"lat":"37.37803639","long":"127.3042466","imageIndex":17,"items":[{"name":"153시큐리티(153security)","tel":"","addr":"경기도 광주시 초월읍 용수리 321-2번지","indutype":"수리서비스 - 기타수리서비스","category":"other"}]},{"lat":"37.38322606","long":"127.3043013","imageIndex":17,"items":[{"name":"GS25광주동우점","tel":"","addr":"경기도 광주시 초월읍 용수리 194-1번지","indutype":"유통업 영리 - 상품권전문판매","category":"other"},{"name":"GS25광주동우점","tel":"","addr":"경기도 광주시 초월읍 용수리 194-1번지","indutype":"유통업 영리 - 편 의 점","category":"other"},{"name":"용수사세탁","tel":"031-763-6023","addr":"경기도 광주시 초월읍 용수리 194-1번지","indutype":"수리서비스 - 세탁소","category":"other"}]},{"lat":"37.37695361","long":"127.3048633","imageIndex":17,"items":[{"name":"GS25초월용수점","tel":"","addr":"경기도 광주시 초월읍 용수리 423-1번지","indutype":"유통업 영리 - 편 의 점","category":"other"}]},{"lat":"37.37792808","long":"127.3078366","imageIndex":17,"items":[{"name":"LG세현유통","tel":"","addr":"경기도 광주시 초월읍 용수리 357-3번지 1층","indutype":"전기제품 - 가전제품","category":"other"}]},{"lat":"37.3896713","long":"127.3031075","imageIndex":17,"items":[{"name":"P.ART (피아트)","tel":"050-7363-0724","addr":"경기도 광주시 초월읍 용수리 56번지","indutype":"가구 - 일반가구","category":"other"},{"name":"디엠퍼니처 (Dust Maker)","tel":"02-1111-1111","addr":"경기도 광주시 초월읍 용수리 56번지","indutype":"가구 - 일반가구","category":"other"}]},{"lat":"37.38233652","long":"127.3068608","imageIndex":17,"items":[{"name":"YS플러스퍼니처","tel":"031-000-0000","addr":"경기도 광주시 초월읍 용수리 172-2번지","indutype":"가구 - 일반가구","category":"other"}]},{"lat":"37.37661466","long":"127.2999507","imageIndex":17,"items":[{"name":"거산21컨테이너","tel":"02-475-3797","addr":"경기도 광주시 초월읍 용수리 454-15 254-2","indutype":"기타 - 기계공구","category":"other"},{"name":"프리고 다이렉트","tel":"02-938-9301","addr":"경기도 광주시 초월읍 용수리 454-15번지","indutype":"레져용품 - 스포츠·레져용품","category":"other"}]},{"lat":"37.37884067","long":"127.3068354","imageIndex":17,"items":[{"name":"광명ENG","tel":"031-765-1641","addr":"경기도 광주시 초월읍 용수리 352-1번지 1동 2호","indutype":"기타 - 기계공구","category":"other"},{"name":"명성종합상사","tel":"031-705-7771","addr":"경기도 광주시 초월읍 용수리 352-1번지 103호","indutype":"유통업 영리 - 기타유통업","category":"other"},{"name":"씨제이씨","tel":"031-768-9362","addr":"경기도 광주시 초월읍 용수리 352-1번지","indutype":"기타 - 기계공구","category":"other"}]},{"lat":"37.37989786","long":"127.3056654","imageIndex":17,"items":[{"name":"광명구제","tel":"","addr":"경기도 광주시 초월읍 용수리 341-1번지 1층 5호","indutype":"의류 - 기타의류","category":"other"}]},{"lat":"37.38131388","long":"127.3086068","imageIndex":17,"items":[{"name":"광산금속레이져","tel":"031-763-2156","addr":"경기도 광주시 초월읍 용수리 168-8번지","indutype":"건축자재 - 기타건축자재","category":"other"}]},{"lat":"37.38034416","long":"127.3037817","imageIndex":17,"items":[{"name":"광성금속","tel":"031-769-9782","addr":"경기도 광주시 초월읍 용수리 267-5번지","indutype":"기타 - 기계공구","category":"other"}]},{"lat":"37.38217094","long":"127.3046697","imageIndex":17,"items":[{"name":"광성종합기계","tel":"02-813-1702","addr":"경기도 광주시 초월읍 용수리 194-4번지 1층","indutype":"전기제품 - 가전제품","category":"other"}]},{"lat":"37.37789726","long":"127.3058042","imageIndex":17,"items":[{"name":"금산공조","tel":"031-769-2877","addr":"경기도 광주시 초월읍 용수리 504","indutype":"전기제품 - 냉열기기","category":"other"}]},{"lat":"37.38925224","long":"127.3049126","imageIndex":17,"items":[{"name":"금수테크","tel":"031-797-2600","addr":"경기도 광주시 초월읍 용수리 40-2번지","indutype":"전기제품 - 기타전기제품","category":"other"}]},{"lat":"37.38247561","long":"127.3017804","imageIndex":17,"items":[{"name":"꽃사랑난사랑","tel":"031-766-2298","addr":"경기도 광주시 초월읍 용수리 228-3","indutype":"문화.취미 - 화원","category":"other"}]},{"lat":"37.38995444","long":"127.3051413","imageIndex":17,"items":[{"name":"나누리펫","tel":"031-761-7781","addr":"경기도 광주시 초월읍 용수리 20-4번지 3호동 일부창고","indutype":"문화.취미 - 애완동물","category":"other"}]},{"lat":"37.37812271","long":"127.3092261","imageIndex":17,"items":[{"name":"나인우드","tel":"070-8160-5987","addr":"경기도 광주시 초월읍 용수리 366-1번지","indutype":"문화.취미 - 애완동물","category":"other"}]},{"lat":"37.38867024","long":"127.3034762","imageIndex":17,"items":[{"name":"달인설비","tel":"031-123-1234","addr":"경기도 광주시 초월읍 용수리 63번지","indutype":"용역 서비스 - 기타용역서비스","category":"other"}]},{"lat":"37.37575774","long":"127.3003312","imageIndex":17,"items":[{"name":"대광실업","tel":"031-766-6566","addr":"경기도 광주시 초월읍 용수리 454-11번지","indutype":"기타 - 기계공구","category":"other"}]},{"lat":"37.37694793","long":"127.3035536","imageIndex":17,"items":[{"name":"대성토탈","tel":"070-4922-1261","addr":"경기도 광주시 초월읍 용수리 449-2번지 3층","indutype":"신변잡화 - 기타잡화","category":"other"}]},{"lat":"37.38044897","long":"127.3050805","imageIndex":17,"items":[{"name":"대영","tel":"031-765-5831","addr":"경기도 광주시 초월읍 용수리 339번지 대현빌라 402호","indutype":"신변잡화 - 기타잡화","category":"other"}]},{"lat":"37.37775791","long":"127.3074407","imageIndex":17,"items":[{"name":"더블유인터내셔널(wlnternational)","tel":"","addr":"경기도 광주시 초월읍 용수리 357번지 1층","indutype":"가구 - 일반가구","category":"other"}]},{"lat":"37.38347971","long":"127.3072832","imageIndex":17,"items":[{"name":"동아화학","tel":"031-765-5189","addr":"경기도 광주시 초월읍 용수리 156번지","indutype":"기타 - 기타 전문점","category":"other"},{"name":"하늘사다리","tel":"031-765-3228","addr":"경기도 광주시 초월읍 용수리 156","indutype":"용역 서비스 - 기타용역서비스","category":"other"}]},{"lat":"37.39120073","long":"127.3040057","imageIndex":17,"items":[{"name":"동양금고","tel":"031-766-9456","addr":"경기도 광주시 초월읍 용수리 25","indutype":"가구 - 철제가구","category":"other"}]},{"lat":"37.37823343","long":"127.3082217","imageIndex":17,"items":[{"name":"동양정밀기어","tel":"031-765-2546","addr":"경기도 광주시 초월읍 용수리 367-11번지","indutype":"기타 - 기계공구","category":"other"}]},{"lat":"37.38570193","long":"127.3014996","imageIndex":17,"items":[{"name":"두림무늬목","tel":"031-797-9447","addr":"경기도 광주시 초월읍 용수리 96-2번지","indutype":"건축자재 - 목재·석재·철물","category":"other"}]},{"lat":"37.38305932","long":"127.3060846","imageIndex":17,"items":[{"name":"두성농기계 (주)","tel":"031-767-7245","addr":"경기도 광주시 초월읍 용수리 177-1번지","indutype":"농업 - 농기계","category":"other"}]},{"lat":"37.38016951","long":"127.3051359","imageIndex":17,"items":[{"name":"듀얼컴퓨터","tel":"031-797-1976","addr":"경기도 광주시 초월읍 용수리 338-2","indutype":"사무통신 - 컴퓨터","category":"other"}]},{"lat":"37.3852843","long":"127.3027513","imageIndex":17,"items":[{"name":"드림금속","tel":"031-798-1063","addr":"경기도 광주시 초월읍 용수리 100번지","indutype":"건축자재 - 기타건축자재","category":"other"}]},{"lat":"37.38397601","long":"127.3034687","imageIndex":17,"items":[{"name":"루카쇼파","tel":"","addr":"경기도 광주시 초월읍 용수리 226-5번지","indutype":"가구 - 일반가구","category":"other"}]},{"lat":"37.38900447","long":"127.3031387","imageIndex":17,"items":[{"name":"모멜리오쇼파","tel":"031-767-7135","addr":"경기도 광주시 초월읍 용수리 55-9번지","indutype":"가구 - 일반가구","category":"other"}]},{"lat":"37.37700631","long":"127.3053941","imageIndex":17,"items":[{"name":"미래특수산업","tel":"031-797-1182","addr":"경기도 광주시 초월읍 용수리 423-4번지","indutype":"가구 - 기타가구","category":"other"}]},{"lat":"37.38106181","long":"127.3085267","imageIndex":17,"items":[{"name":"미조","tel":"031-769-9539","addr":"경기도 광주시 초월읍 용수리 168-6번지","indutype":"직물 - 침구·수예점","category":"other"}]},{"lat":"37.3893963","long":"127.2978104","imageIndex":17,"items":[{"name":"바사디자인","tel":"031-767-0492","addr":"경기도 광주시 초월읍 용수리 67-52","indutype":"가구 - 일반가구","category":"other"}]},{"lat":"37.37717135","long":"127.3042771","imageIndex":17,"items":[{"name":"보성ENG","tel":"070-4219-0063","addr":"경기도 광주시 초월읍 용수리 424-1번지 3층 303호","indutype":"주방용구 - 주방용구","category":"other"}]},{"lat":"37.38917023","long":"127.3052736","imageIndex":17,"items":[{"name":"부암레저","tel":"031-000-0000","addr":"경기도 광주시 초월읍 용수리 39번지","indutype":"가구 - 기타가구","category":"other"}]},{"lat":"37.38342321","long":"127.3047198","imageIndex":17,"items":[{"name":"성원설비","tel":"031-765-3755","addr":"경기도 광주시 초월읍 용수리 197-2번지 1층","indutype":"건축자재 - 보일러·펌프·샷시","category":"other"}]},{"lat":"37.37956255","long":"127.3064206","imageIndex":17,"items":[{"name":"성일건업","tel":"031-796-1463","addr":"경기도 광주시 초월읍 용수리 350-1번지","indutype":"용역 서비스 - 기타용역서비스","category":"other"}]},{"lat":"37.37953746","long":"127.305664","imageIndex":17,"items":[{"name":"성진철물","tel":"031-766-0267","addr":"경기도 광주시 초월읍 용수리 330-5번지","indutype":"기타 - 기계공구","category":"other"}]},{"lat":"37.37814347","long":"127.3081649","imageIndex":17,"items":[{"name":"세븐일레븐경기광주용마점","tel":"031-1577-0711","addr":"경기도 광주시 초월읍 용수리 367-1번지","indutype":"유통업 영리 - 편 의 점","category":"other"}]},{"lat":"37.38019767","long":"127.3046956","imageIndex":17,"items":[{"name":"세븐일레븐경기광주용수점","tel":"","addr":"경기도 광주시 초월읍 용수리 332-3","indutype":"유통업 영리 - 편 의 점","category":"other"}]},{"lat":"37.38472819","long":"127.3053009","imageIndex":17,"items":[{"name":"싱크컵주식회사","tel":"031-481-8223","addr":"경기도 광주시 초월읍 용수리 125-1","indutype":"회원제형태 - 기타4","category":"other"}]},{"lat":"37.37775879","long":"127.3105794","imageIndex":17,"items":[{"name":"아미벽난로","tel":"","addr":"경기도 광주시 초월읍 용수리 386-10번지","indutype":"건축자재 - 보일러·펌프·샷시","category":"other"}]},{"lat":"37.38258787","long":"127.3072231","imageIndex":17,"items":[{"name":"아이엠이씨","tel":"02-406-4603","addr":"경기도 광주시 초월읍 용수리 173-3번지 신진빌라 101호","indutype":"용역 서비스 - 기타용역서비스","category":"other"}]},{"lat":"37.3776161","long":"127.3065256","imageIndex":17,"items":[{"name":"아인이앤지","tel":"031-765-8910","addr":"경기도 광주시 초월읍 용수리 358-1","indutype":"건축자재 - 기타건축자재","category":"other"}]},{"lat":"37.37786716","long":"127.3070008","imageIndex":17,"items":[{"name":"에데사 (edesa)","tel":"031-765-4489","addr":"경기도 광주시 초월읍 용수리 356","indutype":"주방용구 - 주방용구","category":"other"}]},{"lat":"37.37764242","long":"127.3032741","imageIndex":17,"items":[{"name":"에스로주식회사","tel":"031-1577-5043","addr":"경기도 광주시 초월읍 용수리 320번지","indutype":"가구 - 기타가구","category":"other"}]},{"lat":"37.37331311","long":"127.3050293","imageIndex":17,"items":[{"name":"에스에이치디자인","tel":"031-768-1208","addr":"경기도 광주시 초월읍 용수리 479-8번지","indutype":"서적문구 - 출판 및 인쇄물","category":"other"}]},{"lat":"37.37728279","long":"127.3065017","imageIndex":17,"items":[{"name":"에스원그린","tel":"","addr":"경기도 광주시 초월읍 용수리 421-2번지 롯데빌리지 104동 102호","indutype":"농업 - 비료,사료,종자","category":"other"}]},{"lat":"37.38228153","long":"127.3072219","imageIndex":17,"items":[{"name":"영도기전","tel":"02-497-7070","addr":"경기도 광주시 초월읍 용수리 172번지","indutype":"기타 - 기계공구","category":"other"}]},{"lat":"37.38297602","long":"127.3034196","imageIndex":17,"items":[{"name":"오피스존","tel":"031-767-6540","addr":"경기도 광주시 초월읍 용수리 230-2번지","indutype":"서적문구 - 문구용품","category":"other"}]},{"lat":"37.3840365","long":"127.3079968","imageIndex":17,"items":[{"name":"용신금속","tel":"031-767-0398","addr":"경기도 광주시 초월읍 용수리 142-1","indutype":"기타 - 기계공구","category":"other"}]},{"lat":"37.38348322","long":"127.305917","imageIndex":17,"items":[{"name":"우영산업","tel":"031-769-4412","addr":"경기도 광주시 초월읍 용수리 201-3","indutype":"건축자재 - 보일러·펌프·샷시","category":"other"}]},{"lat":"37.38364277","long":"127.3069451","imageIndex":17,"items":[{"name":"이엔에스테크(EnsTech)","tel":"031-765-5009","addr":"경기도 광주시 초월읍 용수리 143번지","indutype":"전기제품 - 기타전기제품","category":"other"}]},{"lat":"37.38511801","long":"127.3043653","imageIndex":17,"items":[{"name":"이탈리아 디자인","tel":"031-732-8756","addr":"경기도 광주시 초월읍 용수리 121번지","indutype":"가구 - 일반가구","category":"other"}]},{"lat":"37.3813093","long":"127.3068905","imageIndex":17,"items":[{"name":"일승기업","tel":"031-797-6177","addr":"경기도 광주시 초월읍 용수리 182-6번지","indutype":"유통업 영리 - 기타유통업","category":"other"}]},{"lat":"37.38734149","long":"127.3016077","imageIndex":17,"items":[{"name":"좋은만남 돌방","tel":"031-766-6802","addr":"경기도 광주시 초월읍 용수리 79-2번지","indutype":"건축자재 - 기타건축자재","category":"other"}]},{"lat":"37.38647768","long":"127.3046982","imageIndex":17,"items":[{"name":"주식회사 라비홈","tel":"031-8005-8784","addr":"경기도 광주시 초월읍 용수리 111-2번지","indutype":"가구 - 일반가구","category":"other"}]},{"lat":"37.38648174","long":"127.3031061","imageIndex":17,"items":[{"name":"주식회사 쏘굿스","tel":"031-337-1771","addr":"경기도 광주시 초월읍 용수리 86-1번지","indutype":"신변잡화 - 기타잡화","category":"other"}]},{"lat":"37.38637126","long":"127.3040316","imageIndex":17,"items":[{"name":"주식회사한성유통","tel":"031-765-9399","addr":"경기도 광주시 초월읍 용수리 107번지","indutype":"가구 - 일반가구","category":"other"}]},{"lat":"37.38347563","long":"127.3053637","imageIndex":17,"items":[{"name":"진보씨스템","tel":"031-748-9567","addr":"경기도 광주시 초월읍 용수리 200-2번지","indutype":"기타 - 기계공구","category":"other"}]},{"lat":"37.3769517","long":"127.3056084","imageIndex":17,"items":[{"name":"초월유통","tel":"070-8256-8682","addr":"경기도 광주시 초월읍 용수리 422번지 롯데빌리지","indutype":"유통업 영리 - 기타유통업","category":"other"},{"name":"코리아피트니스","tel":"031-769-0462","addr":"경기도 광주시 초월읍 용수리 422번지 롯데빌리지 101동 303호","indutype":"회원제형태 - 레져업소","category":"other"}]},{"lat":"37.38131358","long":"127.3052195","imageIndex":17,"items":[{"name":"초월행정사 사무소","tel":"031-769-3421","addr":"경기도 광주시 초월읍 용수리 184-1번지","indutype":"용역 서비스 - 법률회계서비스(개인)","category":"other"}]},{"lat":"37.38956111","long":"127.3039201","imageIndex":17,"items":[{"name":"충남특수","tel":"02-2214-3425","addr":"경기도 광주시 초월읍 용수리 62-1번지","indutype":"기타 - 기계공구","category":"other"}]},{"lat":"37.37751132","long":"127.3087268","imageIndex":17,"items":[{"name":"태창수출포장","tel":"031-765-3544","addr":"경기도 광주시 초월읍 용수리 395-3번지","indutype":"유통업 영리 - 기타유통업","category":"other"}]},{"lat":"37.37861421","long":"127.3073087","imageIndex":17,"items":[{"name":"한신공압기계","tel":"031-761-4044","addr":"경기도 광주시 초월읍 용수리 353-1번지","indutype":"기타 - 기계공구","category":"other"}]},{"lat":"37.38900698","long":"127.3056908","imageIndex":17,"items":[{"name":"호연","tel":"031-309-2088","addr":"경기도 광주시 초월읍 용수리 39-4번지","indutype":"신변잡화 - 기타잡화","category":"other"}]},{"lat":"37.39478243","long":"127.3056914","imageIndex":17,"items":[{"name":"호진도어","tel":"031-769-5168","addr":"경기도 광주시 초월읍 용수리 1-2번지","indutype":"건축자재 - 기타건축자재","category":"other"}]},{"lat":"37.38353076","long":"127.3049461","imageIndex":17,"items":[{"name":"홈플러스365Plus광주용수점/상품권","tel":"031-767-6660","addr":"경기도 광주시 초월읍 용수리 197-4","indutype":"유통업 영리 - 상품권","category":"other"}]},{"lat":"37.38359247","long":"127.305477","imageIndex":17,"items":[{"name":"화성주물","tel":"031-767-9356","addr":"경기도 광주시 초월읍 용수리 201-2","indutype":"건축자재 - 기타건축자재","category":"other"}]},{"lat":"37.38695503","long":"127.3012223","imageIndex":7,"items":[{"name":"가골산양삼농장","tel":"031-766-2319","addr":"경기도 광주시 초월읍 용수리 79-3","indutype":"음료식품 - 농·축·수산품","category":"food"}]},{"lat":"37.3813093","long":"127.3068905","imageIndex":7,"items":[{"name":"국가대표 식용유","tel":"070-8957-7178","addr":"경기도 광주시 초월읍 용수리 182-6번지 1호동","indutype":"음료식품 - 기타음료식품","category":"food"}]},{"lat":"37.38059255","long":"127.3053069","imageIndex":7,"items":[{"name":"우리두리축산물","tel":"031-797-2214","addr":"경기도 광주시 초월읍 용수리 340-2번지","indutype":"음료식품 - 정육점","category":"food"}]},{"lat":"37.38345223","long":"127.3039409","imageIndex":7,"items":[{"name":"존커피로스터리스","tel":"031-945-0981","addr":"경기도 광주시 초월읍 용수리 220-3번지","indutype":"음료식품 - 기타음료식품","category":"food"}]},{"lat":"37.37331311","long":"127.3050293","imageIndex":7,"items":[{"name":"커피순수령","tel":"","addr":"경기도 광주시 초월읍 용수리 479-8번지 1층","indutype":"음료식품 - 기타음료식품","category":"food"}]},{"lat":"37.37998206","long":"127.3044464","imageIndex":13,"items":[{"name":"가위&빗","tel":"031-4530-4289","addr":"경기도 광주시 초월읍 용수리 333-1번지","indutype":"보건위생 - 미용원","category":"beauty"}]},{"lat":"37.3740882","long":"127.3049421","imageIndex":13,"items":[{"name":"누리온메디칼","tel":"070-7581-3230","addr":"경기도 광주시 초월읍 용수리 436번지 1층","indutype":"보건위생 - 의료용품","category":"beauty"}]},{"lat":"37.38016951","long":"127.3051359","imageIndex":13,"items":[{"name":"미소헤어클럽","tel":"031-764-2959","addr":"경기도 광주시 초월읍 용수리 338-2번지","indutype":"보건위생 - 미용원","category":"beauty"},{"name":"미소헤어클럽","tel":"031-767-0232","addr":"경기도 광주시 초월읍 용수리 338-2번지","indutype":"보건위생 - 미용원","category":"beauty"}]},{"lat":"37.38309169","long":"127.3039959","imageIndex":13,"items":[{"name":"비바코스메틱","tel":"031-762-4324","addr":"경기도 광주시 초월읍 용수리 193-1번지","indutype":"보건위생 - 미용재료","category":"beauty"}]},{"lat":"37.38042243","long":"127.3048885","imageIndex":13,"items":[{"name":"빛나라미용실","tel":"031-762-2746","addr":"경기도 광주시 초월읍 용수리 338-1번지 1층","indutype":"보건위생 - 미용원","category":"beauty"}]},{"lat":"37.38364277","long":"127.3069451","imageIndex":13,"items":[{"name":"한일엠이","tel":"031-765-5079","addr":"경기도 광주시 초월읍 용수리 143","indutype":"보건위생 - 의료용품","category":"beauty"}]},{"lat":"37.37909478","long":"127.3061251","imageIndex":0,"items":[{"name":"금성 세차","tel":"","addr":"경기도 광주시 초월읍 용수리 558번지 101동 402호 (광주,초월2차 동광 모닝스카이)","indutype":"자동차정비 유지 - 세차장","category":"car"}]},{"lat":"37.37331311","long":"127.3050293","imageIndex":0,"items":[{"name":"소정카","tel":"031-4157-5395","addr":"경기도 광주시 초월읍 용수리 479-8번지","indutype":"자동차정비 유지 - 자동차부품","category":"car"}]},{"lat":"37.37876186","long":"127.3094432","imageIndex":0,"items":[{"name":"은진자동차공업사","tel":"031-765-6331","addr":"경기도 광주시 초월읍 용수리 368번지","indutype":"자동차정비 유지 - 자동차정비","category":"car"}]},{"lat":"37.37717135","long":"127.3042771","imageIndex":0,"items":[{"name":"현대카센타","tel":"031-795-0288","addr":"경기도 광주시 초월읍 용수리 424-1번지","indutype":"자동차정비 유지 - 자동차정비","category":"car"}]},{"lat":"37.38497589","long":"127.307086","imageIndex":9,"items":[{"name":"남북종합가스(주)","tel":"031-766-0038","addr":"경기도 광주시 초월읍 용수리 131-2번지","indutype":"연료판매점 - LPG 취급점","category":"oil"},{"name":"동서종합가스주식회사","tel":"031-761-0922","addr":"경기도 광주시 초월읍 용수리 131-2번지","indutype":"연료판매점 - LPG 취급점","category":"oil"}]},{"lat":"37.37998206","long":"127.3044464","imageIndex":4,"items":[{"name":"낭만포차","tel":"031-762-7418","addr":"경기도 광주시 초월읍 용수리 333-1번지","indutype":"일반휴게음식 - 일반한식","category":"restaurant"},{"name":"버드나무식당","tel":"031-766-1474","addr":"경기도 광주시 초월읍 용수리 333-1번지","indutype":"일반휴게음식 - 일반한식","category":"restaurant"}]},{"lat":"37.38383632","long":"127.3052522","imageIndex":4,"items":[{"name":"명동식당","tel":"031-767-0191","addr":"경기도 광주시 초월읍 용수리 215-3번지","indutype":"일반휴게음식 - 일반한식","category":"restaurant"}]},{"lat":"37.38380865","long":"127.3055005","imageIndex":4,"items":[{"name":"문가네감자탕돼지갈비","tel":"031-798-7667","addr":"경기도 광주시 초월읍 용수리 215-4번지","indutype":"일반휴게음식 - 일반한식","category":"restaurant"}]},{"lat":"37.38355949","long":"127.30428","imageIndex":4,"items":[{"name":"바베큐보스치킨","tel":"031-767-2903","addr":"경기도 광주시 초월읍 용수리 220-9번지","indutype":"일반휴게음식 - 주점","category":"restaurant"},{"name":"풍년식당","tel":"031-797-5305","addr":"경기도 광주시 초월읍 용수리 220-9번지 1층","indutype":"일반휴게음식 - 일반한식","category":"restaurant"}]},{"lat":"37.38322606","long":"127.3043013","imageIndex":4,"items":[{"name":"밥다오","tel":"031-798-3383","addr":"경기도 광주시 초월읍 용수리 194-1번지 1층","indutype":"일반휴게음식 - 일반한식","category":"restaurant"}]},{"lat":"37.38016951","long":"127.3051359","imageIndex":4,"items":[{"name":"송엘림치킨","tel":"031-765-3233","addr":"경기도 광주시 초월읍 용수리 338-2번지","indutype":"일반휴게음식 - 스넥","category":"restaurant"},{"name":"장금식당","tel":"031-765-6007","addr":"경기도 광주시 초월읍 용수리 338-2번지 2층","indutype":"일반휴게음식 - 일반한식","category":"restaurant"}]},{"lat":"37.38345223","long":"127.3039409","imageIndex":4,"items":[{"name":"신토불이식당","tel":"031-767-7802","addr":"경기도 광주시 초월읍 용수리 220-3번지","indutype":"일반휴게음식 - 일반한식","category":"restaurant"},{"name":"용수해장국","tel":"031-764-8210","addr":"경기도 광주시 초월읍 용수리 220-3번지","indutype":"일반휴게음식 - 일반한식","category":"restaurant"}]},{"lat":"37.38342321","long":"127.3047198","imageIndex":4,"items":[{"name":"왕눈이호프","tel":"031-766-5901","addr":"경기도 광주시 초월읍 용수리 197-2번지 2층","indutype":"일반휴게음식 - 주점","category":"restaurant"},{"name":"유가네","tel":"031-766-2184","addr":"경기도 광주시 초월읍 용수리 197-2번지","indutype":"일반휴게음식 - 중국식","category":"restaurant"},{"name":"커피라포 (coffee Rapport)","tel":"031-797-7911","addr":"경기도 광주시 초월읍 용수리 197-2번지","indutype":"일반휴게음식 - 서양음식","category":"restaurant"}]},{"lat":"37.37900378","long":"127.3064748","imageIndex":4,"items":[{"name":"우리식당","tel":"031-765-9355","addr":"경기도 광주시 초월읍 용수리 352-6번지","indutype":"일반휴게음식 - 일반한식","category":"restaurant"}]},{"lat":"37.37989786","long":"127.3056654","imageIndex":4,"items":[{"name":"울엄마칼국수","tel":"031-797-7507","addr":"경기도 광주시 초월읍 용수리 341-1번지","indutype":"일반휴게음식 - 일반한식","category":"restaurant"}]},{"lat":"37.38398056","long":"127.3052189","imageIndex":4,"items":[{"name":"이레밥상","tel":"031-768-9910","addr":"경기도 광주시 초월읍 용수리 215-2번지 1층","indutype":"일반휴게음식 - 일반한식","category":"restaurant"}]},{"lat":"37.38370258","long":"127.3046984","imageIndex":4,"items":[{"name":"주전부리","tel":"031-768-7737","addr":"경기도 광주시 초월읍 용수리 216-1번지","indutype":"일반휴게음식 - 일반한식","category":"restaurant"}]},{"lat":"37.38042243","long":"127.3048885","imageIndex":4,"items":[{"name":"취향반점","tel":"032-767-0233","addr":"경기도 광주시 초월읍 용수리 338-1번지","indutype":"일반휴게음식 - 중국식","category":"restaurant"}]},{"lat":"37.37884067","long":"127.3068354","imageIndex":4,"items":[{"name":"컬투치킨(용수사랑점)","tel":"031-765-9585","addr":"경기도 광주시 초월읍 용수리 352-1번지","indutype":"일반휴게음식 - 스넥","category":"restaurant"}]},{"lat":"37.3882831","long":"127.3033617","imageIndex":4,"items":[{"name":"태정한식부페","tel":"031-766-8577","addr":"경기도 광주시 초월읍 용수리 64번지 1층","indutype":"일반휴게음식 - 일반한식","category":"restaurant"}]},{"lat":"37.37814347","long":"127.3081649","imageIndex":4,"items":[{"name":"포장마차 쌍방울","tel":"","addr":"경기도 광주시 초월읍 용수리 367-1번지","indutype":"일반휴게음식 - 일반한식","category":"restaurant"}]},{"lat":"37.38342321","long":"127.3047198","imageIndex":13,"items":[{"name":"둘리 노래연습장","tel":"031-766-0802","addr":"경기도 광주시 초월읍 용수리 197-2번지 2층","indutype":"레저업소 - 노 래 방","category":"leisure"}]},{"lat":"37.38016951","long":"127.3051359","imageIndex":13,"items":[{"name":"와우노래연습장","tel":"031-766-6625","addr":"경기도 광주시 초월읍 용수리 338-2번지 2층","indutype":"레저업소 - 노 래 방","category":"leisure"}]},{"lat":"37.37900378","long":"127.3064748","imageIndex":13,"items":[{"name":"패밀리노래방","tel":"031-761-4347","addr":"경기도 광주시 초월읍 용수리 352-6번지","indutype":"레저업소 - 노 래 방","category":"leisure"}]},{"lat":"37.38345223","long":"127.3039409","imageIndex":13,"items":[{"name":"프로당구장","tel":"031-797-0907","addr":"경기도 광주시 초월읍 용수리 220-3번지 202호","indutype":"레저업소 - 당 구 장","category":"leisure"}]},{"lat":"37.38016951","long":"127.3051359","imageIndex":8,"items":[{"name":"용수약국","tel":"031-768-6662","addr":"경기도 광주시 초월읍 용수리 338-2번지","indutype":"약국 - 약국","category":"medical"}]}]