[{"lat":"37.269408114","long":"127.45012924","imageIndex":17,"items":[{"name":"(주)건축사사무소맥","tel":"031-635-6333","addr":"경기도 이천시 진리동 352-2번지 1층","indutype":"용역 서비스 - 사무서비스","category":"other"}]},{"lat":"37.270190171","long":"127.45535384","imageIndex":17,"items":[{"name":"GS25 이천진리점","tel":"","addr":"경기도 이천시 진리동 308번지","indutype":"유통업 영리 - 편 의 점","category":"other"}]},{"lat":"37.270055386","long":"127.45051639","imageIndex":17,"items":[{"name":"경동나비엔이천남주대리점","tel":"031-633-6388","addr":"경기도 이천시 진리동 349-6번지","indutype":"건축자재 - 보일러·펌프·샷시","category":"other"}]},{"lat":"37.269830504","long":"127.45516003","imageIndex":17,"items":[{"name":"국제토탈하우징","tel":"031-638-5669","addr":"경기도 이천시 진리동 310-5번지","indutype":"건축자재 - 기타건축자재","category":"other"}]},{"lat":"37.272603752","long":"127.45329376","imageIndex":17,"items":[{"name":"더 the LED","tel":"032-638-9080","addr":"경기도 이천시 진리동 29-9번지 103,104호","indutype":"건축자재 - 조명기구","category":"other"},{"name":"더디자인","tel":"031-633-3555","addr":"경기도 이천시 진리동 29-9번지 아크로마마빌 A동 105호","indutype":"용역 서비스 - 사무서비스","category":"other"},{"name":"법무사김진상","tel":"031-634-5757","addr":"경기도 이천시 진리동 29-9번지 아크로마마빌 1층 A106호","indutype":"용역 서비스 - 법률회계서비스(개인)","category":"other"}]},{"lat":"37.272025524","long":"127.45370747","imageIndex":17,"items":[{"name":"도깨비","tel":"031-637-0680","addr":"경기도 이천시 진리동 31-2번지","indutype":"신변잡화 - 기타잡화","category":"other"}]},{"lat":"37.269076417","long":"127.45443398","imageIndex":17,"items":[{"name":"라인","tel":"031-635-0808","addr":"경기도 이천시 진리동 334-1번지","indutype":"건축자재 - 건축용 요업제품","category":"other"}]},{"lat":"37.273385077","long":"127.45159593","imageIndex":17,"items":[{"name":"믿음골재","tel":"031-634-2356","addr":"경기도 이천시 진리동 11번지","indutype":"건축자재 - 기타건축자재","category":"other"}]},{"lat":"37.270353127","long":"127.45515188","imageIndex":17,"items":[{"name":"아이펫","tel":"031-638-4520","addr":"경기도 이천시 진리동 42-2번지","indutype":"문화.취미 - 애완동물","category":"other"}]},{"lat":"37.272078081","long":"127.45410239","imageIndex":17,"items":[{"name":"안전유리샷시","tel":"031-631-6378","addr":"경기도 이천시 진리동 31-1번지","indutype":"건축자재 - 유리","category":"other"}]},{"lat":"37.271463979","long":"127.45210315","imageIndex":17,"items":[{"name":"유선사","tel":"031-638-1010","addr":"경기도 이천시 진리동 31-3번지","indutype":"서적문구 - 문구용품","category":"other"}]},{"lat":"37.269828737","long":"127.45562226","imageIndex":17,"items":[{"name":"이천제일공구상사","tel":"031-631-2094","addr":"경기도 이천시 진리동 306-1번지 이천제일공구","indutype":"기타 - 기계공구","category":"other"}]},{"lat":"37.271686004","long":"127.4553177","imageIndex":17,"items":[{"name":"정화상사","tel":"031-633-6231","addr":"경기도 이천시 진리동 51-6번지","indutype":"건축자재 - 기타건축자재","category":"other"},{"name":"지오아크릴","tel":"031-635-9887","addr":"경기도 이천시 진리동 51-6번지","indutype":"유통업 영리 - 기타유통업","category":"other"}]},{"lat":"37.271852186","long":"127.45427016","imageIndex":17,"items":[{"name":"종로베어링이천영업소","tel":"031-635-2036","addr":"경기도 이천시 진리동 32-9번지","indutype":"기타 - 기계공구","category":"other"}]},{"lat":"37.269466383","long":"127.45377113","imageIndex":17,"items":[{"name":"주식회사 엠에스케이","tel":"031-634-4621","addr":"경기도 이천시 진리동 323번지","indutype":"의류 - 아동의류","category":"other"}]},{"lat":"37.273772592","long":"127.45157568","imageIndex":17,"items":[{"name":"주식회사하나로투어","tel":"031-634-6221","addr":"경기도 이천시 진리동 10-1번지","indutype":"여행 - 관광여행","category":"other"}]},{"lat":"37.265049803","long":"127.45418447","imageIndex":17,"items":[{"name":"초록항아리","tel":"031-638-9395","addr":"경기도 이천시 진리동 218-3번지","indutype":"문화.취미 - 민예·공예품","category":"other"}]},{"lat":"37.271630349","long":"127.45573452","imageIndex":17,"items":[{"name":"한솔건축자재백화점","tel":"031-638-4557","addr":"경기도 이천시 진리동 51-7번지","indutype":"건축자재 - 기타건축자재","category":"other"}]},{"lat":"37.269414029","long":"127.44616078","imageIndex":17,"items":[{"name":"한양판넬","tel":"031-635-3420","addr":"경기도 이천시 진리동 370-4번지","indutype":"건축자재 - 기타건축자재","category":"other"}]},{"lat":"37.27177058","long":"127.45440497","imageIndex":17,"items":[{"name":"현대모터펌프","tel":"031-632-6668","addr":"경기도 이천시 진리동 32-10번지","indutype":"건축자재 - 보일러·펌프·샷시","category":"other"}]},{"lat":"37.271328015","long":"127.45468419","imageIndex":17,"items":[{"name":"현대종합공구","tel":"031-633-0949","addr":"경기도 이천시 진리동 38-1번지","indutype":"기타 - 기계공구","category":"other"}]},{"lat":"37.272525919","long":"127.45243643","imageIndex":17,"items":[{"name":"효성모터","tel":"031-633-9838","addr":"경기도 이천시 진리동 29-8","indutype":"기타 - 기계공구","category":"other"}]}]