[{"lat":"36.988385439","long":"126.92141184","imageIndex":4,"items":[{"name":"까페데이트","tel":"031-682-0633","addr":"경기도 평택시 안중읍 학현리 506번지","indutype":"음식점 - 커피","category":"restaurant"},{"name":"데이트","tel":"031-682-4889","addr":"경기도 평택시 안중읍 학현리 506번지 1층","indutype":"일반휴게음식 - 서양음식","category":"restaurant"}]},{"lat":"36.989799062","long":"126.91988266","imageIndex":4,"items":[{"name":"꿈볶는카페 COO","tel":"031-111-1111","addr":"경기도 평택시 안중읍 학현리 572번지","indutype":"일반휴게음식 - 서양음식","category":"restaurant"}]},{"lat":"36.992606005","long":"126.92676559","imageIndex":4,"items":[{"name":"나능이능이버섯백숙","tel":"031-681-2952","addr":"경기도 평택시 안중읍 학현리 445-10번지","indutype":"일반휴게음식 - 일반한식","category":"restaurant"}]},{"lat":"36.988766183","long":"126.92482616","imageIndex":4,"items":[{"name":"대어일식","tel":"031-682-8362","addr":"경기도 평택시 안중읍 학현리 504-18번지","indutype":"일반휴게음식 - 일식·회집","category":"restaurant"},{"name":"오복정","tel":"031-681-5088","addr":"경기도 평택시 안중읍 학현리 504-18번지","indutype":"음식점 - 한식","category":"restaurant"},{"name":"오복정","tel":"031-686-7864","addr":"경기도 평택시 안중읍 학현리 504-18번지","indutype":"일반휴게음식 - 일반한식","category":"restaurant"}]},{"lat":"36.997932389","long":"126.92843415","imageIndex":4,"items":[{"name":"람'S치킨 늘푸른식당","tel":"031-684-4884","addr":"경기도 평택시 안중읍 학현리 40-13","indutype":"일반휴게음식 - 일반한식","category":"restaurant"}]},{"lat":"36.991881123","long":"126.90860234","imageIndex":4,"items":[{"name":"삼도향","tel":"031-681-5292","addr":"경기도 평택시 안중읍 학현리 284-8번지 1층","indutype":"일반휴게음식 - 중국식","category":"restaurant"}]},{"lat":"36.987799627","long":"126.92124397","imageIndex":4,"items":[{"name":"시골막국수","tel":"","addr":"경기도 평택시 안중읍 학현리 505-12번지","indutype":"음식점 - 한식","category":"restaurant"},{"name":"즉석김밥","tel":"031-684-3135","addr":"경기도 평택시 안중읍 학현리 505-12번지 1층","indutype":"일반휴게음식 - 스넥","category":"restaurant"}]},{"lat":"36.987656497","long":"126.92277175","imageIndex":4,"items":[{"name":"연길양꼬치","tel":"031-683-5289","addr":"경기도 평택시 안중읍 학현리 504-28번지","indutype":"일반휴게음식 - 중국식","category":"restaurant"}]},{"lat":"36.987800986","long":"126.92324336","imageIndex":4,"items":[{"name":"이개머냥","tel":"031-682-9693","addr":"경기도 평택시 안중읍 학현리 504-36번지 101호","indutype":"일반휴게음식 - 서양음식","category":"restaurant"}]},{"lat":"36.9909901","long":"126.9222403","imageIndex":4,"items":[{"name":"이글스넥","tel":"031-683-8803","addr":"경기도 평택시 안중읍 학현리 498-25번지 2층","indutype":"일반휴게음식 - 일반한식","category":"restaurant"}]},{"lat":"36.987628863","long":"126.92188441","imageIndex":4,"items":[{"name":"장원냉채족발","tel":"031-683-8266","addr":"경기도 평택시 안중읍 학현리 505-16번지 외1필지","indutype":"일반휴게음식 - 일반한식","category":"restaurant"},{"name":"장원냉채족발","tel":"031-681-9243","addr":"경기도 평택시 안중읍 학현리 505-16번지","indutype":"음식점 - 일반","category":"restaurant"}]},{"lat":"36.988829133","long":"126.92463514","imageIndex":4,"items":[{"name":"장충동왕족발","tel":"031-683-0037","addr":"경기도 평택시 안중읍 학현리 504-42번지","indutype":"일반휴게음식 - 일반한식","category":"restaurant"}]}]