[{"lat":"37.33882274","long":"127.3628598","imageIndex":17,"items":[{"name":"(주)엠디제이","tel":"031-761-8060","addr":"경기도 광주시 곤지암읍 곤지암리 21-7번지","indutype":"건축자재 - 기타건축자재","category":"other"}]},{"lat":"37.34831882","long":"127.3448363","imageIndex":17,"items":[{"name":"(주)제이앤케이커뮤니케이션","tel":"070-4280-5851","addr":"경기도 광주시 곤지암읍 곤지암리 343-38번지 2층 201호","indutype":"신변잡화 - 기타잡화","category":"other"}]},{"lat":"37.34834634","long":"127.3446671","imageIndex":17,"items":[{"name":"(주)제일상사","tel":"031-763-6300","addr":"경기도 광주시 곤지암읍 곤지암리 343-40번지","indutype":"유통업 영리 - 기타유통업","category":"other"}]},{"lat":"37.35020305","long":"127.3506347","imageIndex":17,"items":[{"name":"D&G골프용품점","tel":"031-798-5312","addr":"경기도 광주시 곤지암읍 곤지암리 133-7번지 1층 101호,102호","indutype":"레져용품 - 골프용품 전문점","category":"other"},{"name":"GS25광주곤지암점","tel":"02-2006-2485","addr":"경기도 광주시 곤지암읍 곤지암리 133-7","indutype":"유통업 영리 - 상품권전문판매","category":"other"},{"name":"GS25광주곤지암점","tel":"02-2006-2485","addr":"경기도 광주시 곤지암읍 곤지암리 133-7","indutype":"유통업 영리 - 편 의 점","category":"other"},{"name":"곤지암라이온스클럽","tel":"031-797-8181","addr":"경기도 광주시 곤지암읍 곤지암리 133-7번지 세원빌딩 2층","indutype":"용역 서비스 - 기타용역서비스","category":"other"}]},{"lat":"37.34315264","long":"127.3521595","imageIndex":17,"items":[{"name":"G&E코리아","tel":"031-798-3652","addr":"경기도 광주시 곤지암읍 곤지암리 224-4번지 105호","indutype":"전기제품 - 냉열기기","category":"other"}]},{"lat":"37.33926706","long":"127.3373361","imageIndex":17,"items":[{"name":"GD마트","tel":"031-798-8935","addr":"경기도 광주시 곤지암읍 곤지암리 509-15 4","indutype":"유통업 영리 - 편 의 점","category":"other"},{"name":"일광종합상사","tel":"031-763-3346","addr":"경기도 광주시 곤지암읍 곤지암리 509-15번지","indutype":"기타 - 기계공구","category":"other"}]},{"lat":"37.34990424","long":"127.3418301","imageIndex":17,"items":[{"name":"GS25곤지암점","tel":"","addr":"경기도 광주시 곤지암읍 곤지암리 435-19번지","indutype":"유통업 영리 - 편 의 점","category":"other"},{"name":"GS25곤지암점","tel":"","addr":"경기도 광주시 곤지암읍 곤지암리 435-19번지","indutype":"유통업 영리 - 상품권전문판매","category":"other"},{"name":"더 폰 코리아","tel":"031-797-4949","addr":"경기도 광주시 곤지암읍 곤지암리 435-19번지","indutype":"신변잡화 - 기타잡화","category":"other"}]},{"lat":"37.3490396","long":"127.3385532","imageIndex":17,"items":[{"name":"GS25광주실촌점","tel":"","addr":"경기도 광주시 곤지암읍 곤지암리 453-47번지","indutype":"유통업 영리 - 상품권전문판매","category":"other"},{"name":"GS25광주실촌점","tel":"","addr":"경기도 광주시 곤지암읍 곤지암리 453-47번지","indutype":"유통업 영리 - 편 의 점","category":"other"},{"name":"색연필","tel":"070-8876-1196","addr":"경기도 광주시 곤지암읍 곤지암리 453-47","indutype":"서적문구 - 문구용품","category":"other"},{"name":"윤혜진뷰티샵","tel":"031-762-0639","addr":"경기도 광주시 곤지암읍 곤지암리 453-47번지","indutype":"회원제형태 - 기타4","category":"other"}]},{"lat":"37.33884288","long":"127.3375825","imageIndex":17,"items":[{"name":"GS25광주희망점","tel":"","addr":"경기도 광주시 곤지암읍 곤지암리 510-5번지 1층","indutype":"유통업 영리 - 편 의 점","category":"other"},{"name":"GS25광주희망점","tel":"","addr":"경기도 광주시 곤지암읍 곤지암리 510-5번지 1층","indutype":"유통업 영리 - 상품권전문판매","category":"other"}]},{"lat":"37.35004262","long":"127.3375307","imageIndex":17,"items":[{"name":"Kcc페인트형제상사","tel":"031-762-7709","addr":"경기도 광주시 곤지암읍 곤지암리 453-103번지","indutype":"건축자재 - 페인트","category":"other"},{"name":"꽃뜰 (태인농산)","tel":"031-764-7775","addr":"경기도 광주시 곤지암읍 곤지암리 453-103번지","indutype":"문화.취미 - 화원","category":"other"}]},{"lat":"37.34559763","long":"127.3448804","imageIndex":17,"items":[{"name":"Mans","tel":"031-793-2898","addr":"경기도 광주시 곤지암읍 곤지암리 593","indutype":"회원제형태 - 기타4","category":"other"},{"name":"에스현소프트","tel":"031-699-1424","addr":"경기도 광주시 곤지암읍 곤지암리 593번지 삼주노블리제아파트","indutype":"회원제형태 - 기타4","category":"other"}]},{"lat":"37.34953761","long":"127.3562747","imageIndex":17,"items":[{"name":"SS스포츠","tel":"031-797-5163","addr":"경기도 광주시 곤지암읍 곤지암리 93-10번지 1층","indutype":"레져용품 - 스포츠·레져용품","category":"other"},{"name":"까사디자인","tel":"031-798-1155","addr":"경기도 광주시 곤지암읍 곤지암리 93-10번지","indutype":"가구 - 일반가구","category":"other"},{"name":"주식회사 아니 (ANI.co.LTD)","tel":"","addr":"경기도 광주시 곤지암읍 곤지암리 93-10번지 1층","indutype":"용역 서비스 - 사무서비스","category":"other"}]},{"lat":"37.34479406","long":"127.3485558","imageIndex":17,"items":[{"name":"flower 테오","tel":"070-4763-5091","addr":"경기도 광주시 곤지암읍 곤지암리 185-9번지 2호","indutype":"문화.취미 - 화원","category":"other"}]},{"lat":"37.34274792","long":"127.3394732","imageIndex":17,"items":[{"name":"겔러리 모멘트","tel":"031-797-8322","addr":"경기도 광주시 곤지암읍 곤지암리 469-6번지 현대빌라 A동 101호","indutype":"광학제품 - 사진관","category":"other"}]},{"lat":"37.34887645","long":"127.3604136","imageIndex":17,"items":[{"name":"곤지암 보그너","tel":"031-762-5274","addr":"경기도 광주시 곤지암읍 곤지암리 1-1번지 B동 101,102,103호","indutype":"레져용품 - 스포츠·레져용품","category":"other"}]},{"lat":"37.34945494","long":"127.3414105","imageIndex":17,"items":[{"name":"곤지암 통신","tel":"031-763-5017","addr":"경기도 광주시 곤지암읍 곤지암리 433-19번지","indutype":"사무통신 - 통신기기","category":"other"}]},{"lat":"37.34895366","long":"127.3465208","imageIndex":17,"items":[{"name":"곤지암건재","tel":"031-764-2493","addr":"경기도 광주시 곤지암읍 곤지암리 348-31번지","indutype":"건축자재 - 건축용 요업제품","category":"other"}]},{"lat":"37.34953986","long":"127.3432166","imageIndex":17,"items":[{"name":"곤지암공구프라자","tel":"031-767-0944","addr":"경기도 광주시 곤지암읍 곤지암리 430-11번지 1층","indutype":"기타 - 기계공구","category":"other"},{"name":"용인공업사","tel":"031-762-6372","addr":"경기도 광주시 곤지암읍 곤지암리 430-11번지","indutype":"농업 - 농기계","category":"other"},{"name":"주식회사 용광상사","tel":"031-762-6372","addr":"경기도 광주시 곤지암읍 곤지암리 430-11번지","indutype":"농업 - 농기계","category":"other"}]},{"lat":"37.34984166","long":"127.3416605","imageIndex":17,"items":[{"name":"곤지암국제주방","tel":"031-797-4204","addr":"경기도 광주시 곤지암읍 곤지암리 435-15번지","indutype":"주방용구 - 주방용구","category":"other"}]},{"lat":"37.34939871","long":"127.3421664","imageIndex":17,"items":[{"name":"곤지암농약사","tel":"031-769-2243","addr":"경기도 광주시 곤지암읍 곤지암리 433-4번지","indutype":"농업 - 비료,사료,종자","category":"other"},{"name":"공구광장","tel":"031-764-0120","addr":"경기도 광주시 곤지암읍 곤지암리 433-4번지","indutype":"기타 - 기계공구","category":"other"},{"name":"에넥스광주대리점","tel":"031-762-3131","addr":"경기도 광주시 곤지암읍 곤지암리 433-4번지","indutype":"주방용구 - 주방용구","category":"other"},{"name":"진보석","tel":"031-762-1886","addr":"경기도 광주시 곤지암읍 곤지암리 433-4번지","indutype":"신변잡화 - 시계","category":"other"}]},{"lat":"37.34923625","long":"127.3391071","imageIndex":17,"items":[{"name":"곤지암농업협동조합","tel":"031-763-8036","addr":"경기도 광주시 곤지암읍 곤지암리 446-3번지","indutype":"유통업 비영리 - 농,축협 직영매장","category":"other"},{"name":"곤지암농업협동조합","tel":"031-762-6038","addr":"경기도 광주시 곤지암읍 곤지암리 446-3번지","indutype":"유통업 비영리 - 농,축협 직영매장","category":"other"},{"name":"곤지암농협하나로마트","tel":"031-763-8036","addr":"경기도 광주시 곤지암읍 곤지암리 446-3번지","indutype":"유통업 비영리 - 농,축협 직영매장","category":"other"}]},{"lat":"37.34945549","long":"127.3412186","imageIndex":17,"items":[{"name":"곤지암대박복권방","tel":"031-797-2511","addr":"경기도 광주시 곤지암읍 곤지암리 433-3","indutype":"의류 - 정장","category":"other"}]},{"lat":"37.34934367","long":"127.3393559","imageIndex":17,"items":[{"name":"곤지암서적문구","tel":"031-762-6253","addr":"경기도 광주시 곤지암읍 곤지암리 445-4번지","indutype":"서적문구 - 일반서적","category":"other"}]},{"lat":"37.34976389","long":"127.3404977","imageIndex":17,"items":[{"name":"곤지암우체국","tel":"031-762-6000","addr":"경기도 광주시 곤지암읍 곤지암리 439-5번지","indutype":"용역 서비스 - 공공요금대행서비스/소","category":"other"}]},{"lat":"37.34981322","long":"127.3544928","imageIndex":17,"items":[{"name":"곤지암유통","tel":"031-798-2704","addr":"경기도 광주시 곤지암읍 곤지암리 139-4번지 1층 7호","indutype":"의류 - 정장","category":"other"}]},{"lat":"37.34929385","long":"127.3441636","imageIndex":17,"items":[{"name":"곤지암잉크충전소","tel":"031-764-1261","addr":"경기도 광주시 곤지암읍 곤지암리 345-1","indutype":"사무통신 - 기타 사무용품","category":"other"},{"name":"중앙인쇄기획","tel":"031-797-6237","addr":"경기도 광주시 곤지암읍 곤지암리 345-1","indutype":"서적문구 - 출판 및 인쇄물","category":"other"}]},{"lat":"37.34986978","long":"127.3412769","imageIndex":17,"items":[{"name":"곤지암후계자농원","tel":"031-764-9844","addr":"경기도 광주시 곤지암읍 곤지암리 435-3번지","indutype":"문화.취미 - 화원","category":"other"},{"name":"호랑나비세탁","tel":"031-762-7841","addr":"경기도 광주시 곤지암읍 곤지암리 435-3","indutype":"수리서비스 - 세탁소","category":"other"}]},{"lat":"37.35012051","long":"127.3386596","imageIndex":17,"items":[{"name":"공구백화점","tel":"031-764-0949","addr":"경기도 광주시 곤지암읍 곤지암리 444-5번지","indutype":"기타 - 기계공구","category":"other"}]},{"lat":"37.34978575","long":"127.3423036","imageIndex":17,"items":[{"name":"광명전기","tel":"031-761-1941","addr":"경기도 광주시 곤지암읍 곤지암리 434-2번지","indutype":"직물 - 카페트,커튼,천막,지물","category":"other"}]},{"lat":"37.34965473","long":"127.3532506","imageIndex":17,"items":[{"name":"광주상사","tel":"031-762-6414","addr":"경기도 광주시 곤지암읍 곤지암리 139-6","indutype":"신변잡화 - 기타잡화","category":"other"}]},{"lat":"37.34932154","long":"127.343938","imageIndex":17,"items":[{"name":"광주컴퓨터","tel":"031-762-1557","addr":"경기도 광주시 곤지암읍 곤지암리 345-6번지 1층","indutype":"사무통신 - 컴퓨터","category":"other"},{"name":"동아모타","tel":"031-764-7349","addr":"경기도 광주시 곤지암읍 곤지암리 345-6번지 1층","indutype":"기타 - 기계공구","category":"other"}]},{"lat":"37.34954041","long":"127.3430248","imageIndex":17,"items":[{"name":"구가유리","tel":"031-761-8584","addr":"경기도 광주시 곤지암읍 곤지암리 430-10번지","indutype":"건축자재 - 유리","category":"other"}]},{"lat":"37.35050817","long":"127.3385824","imageIndex":17,"items":[{"name":"김윤정세무회계사무소","tel":"031-769-4859","addr":"경기도 광주시 곤지암읍 곤지암리 443-23번지 미봉빌딩 5층","indutype":"용역 서비스 - 법률회계서비스(개인)","category":"other"}]},{"lat":"37.35004218","long":"127.3376887","imageIndex":17,"items":[{"name":"꽃뜰","tel":"031-764-7775","addr":"경기도 광주시 곤지암읍 곤지암리 453-11번지","indutype":"문화.취미 - 화원","category":"other"},{"name":"삼천리자전거","tel":"031-764-1514","addr":"경기도 광주시 곤지암읍 곤지암리 453-11번지","indutype":"레져용품 - 스포츠·레져용품","category":"other"}]},{"lat":"37.34401514","long":"127.3529986","imageIndex":17,"items":[{"name":"농업회사법인 코리아하이팜 주식회사","tel":"031-763-9803","addr":"경기도 광주시 곤지암읍 곤지암리 196-3번지","indutype":"농업 - 기타농업관련","category":"other"}]},{"lat":"37.34203677","long":"127.3392443","imageIndex":17,"items":[{"name":"대명산업","tel":"031-797-0487","addr":"경기도 광주시 곤지암읍 곤지암리 472-3번지","indutype":"건축자재 - 보일러·펌프·샷시","category":"other"},{"name":"씨유광주곤지암로점","tel":"080-080-3663","addr":"경기도 광주시 곤지암읍 곤지암리 472-3번지","indutype":"유통업 영리 - 편 의 점","category":"other"},{"name":"주식회사대정패널","tel":"031-761-7084","addr":"경기도 광주시 곤지암읍 곤지암리 472-3번지","indutype":"건축자재 - 기타건축자재","category":"other"}]},{"lat":"37.34348033","long":"127.357104","imageIndex":17,"items":[{"name":"대창자원","tel":"031-766-8640","addr":"경기도 광주시 곤지암읍 곤지암리 73-10번지","indutype":"신변잡화 - 기타잡화","category":"other"}]},{"lat":"37.3493722","long":"127.3543327","imageIndex":17,"items":[{"name":"대한사무용가구","tel":"031-767-8727","addr":"경기도 광주시 곤지암읍 곤지암리 142-3","indutype":"가구 - 기타가구","category":"other"}]},{"lat":"37.34384984","long":"127.3510004","imageIndex":17,"items":[{"name":"동수기업","tel":"031-2590-3990","addr":"경기도 광주시 곤지암읍 곤지암리 220-7번지 1층","indutype":"건축자재 - 인테리어전문","category":"other"}]},{"lat":"37.34015187","long":"127.3613314","imageIndex":17,"items":[{"name":"동아냉동","tel":"031-798-7790","addr":"경기도 광주시 곤지암읍 곤지암리 9-1","indutype":"전기제품 - 냉열기기","category":"other"}]},{"lat":"37.34990363","long":"127.3388844","imageIndex":17,"items":[{"name":"두연여행사","tel":"031-797-8588","addr":"경기도 광주시 곤지암읍 곤지암리 444-8","indutype":"회원제형태 - 기타3","category":"other"},{"name":"성신종합장식","tel":"031-762-6033","addr":"경기도 광주시 곤지암읍 곤지암리 444-8번지 (1층2칸)","indutype":"직물 - 카페트,커튼,천막,지물","category":"other"}]},{"lat":"37.34934216","long":"127.3398863","imageIndex":17,"items":[{"name":"디지탈아이몽스튜디오","tel":"031-762-5806","addr":"경기도 광주시 곤지암읍 곤지암리 445-2번지","indutype":"광학제품 - 사진관","category":"other"},{"name":"미니스톱 곤지암점","tel":"031-1577-9621","addr":"경기도 광주시 곤지암읍 곤지암리 445-2번지","indutype":"유통업 영리 - 편 의 점","category":"other"},{"name":"보금당","tel":"031-762-8262","addr":"경기도 광주시 곤지암읍 곤지암리 445-2","indutype":"신변잡화 - 시계","category":"other"}]},{"lat":"37.35034522","long":"127.3451389","imageIndex":17,"items":[{"name":"라운지","tel":"070-4922-1261","addr":"경기도 광주시 곤지암읍 곤지암리 555-6번지 101호","indutype":"유통업 영리 - 편 의 점","category":"other"}]},{"lat":"37.34995689","long":"127.3391668","imageIndex":17,"items":[{"name":"로뎀나무","tel":"","addr":"경기도 광주시 곤지암읍 곤지암리 441-5번지 1층","indutype":"의류 - 정장","category":"other"}]},{"lat":"37.35143189","long":"127.3432478","imageIndex":17,"items":[{"name":"로싸","tel":"031-764-9510","addr":"경기도 광주시 곤지암읍 곤지암리 428-2","indutype":"레져용품 - 스포츠·레져용품","category":"other"},{"name":"코지스정보","tel":"031-798-6822","addr":"경기도 광주시 곤지암읍 곤지암리 428-2번지 2층","indutype":"사무통신 - 통신기기","category":"other"}]},{"lat":"37.34912712","long":"127.354941","imageIndex":17,"items":[{"name":"마담포라 곤지암 대리점","tel":"","addr":"경기도 광주시 곤지암읍 곤지암리 92-2번지","indutype":"의류 - 정장","category":"other"}]},{"lat":"37.34981518","long":"127.3414685","imageIndex":17,"items":[{"name":"명동의류","tel":"031-699-2171","addr":"경기도 광주시 곤지암읍 곤지암리 435-29번지 1층","indutype":"의류 - 정장","category":"other"},{"name":"비와이씨(BYC)곤지암점","tel":"031-769-6709","addr":"경기도 광주시 곤지암읍 곤지암리 435-29번지 (BYC)","indutype":"의류 - 내의판매","category":"other"}]},{"lat":"37.34942661","long":"127.3418618","imageIndex":17,"items":[{"name":"명화플라워","tel":"","addr":"경기도 광주시 곤지암읍 곤지암리 433-8번지 301호","indutype":"문화.취미 - 화원","category":"other"}]},{"lat":"37.34412074","long":"127.3507985","imageIndex":17,"items":[{"name":"목방부녀상회","tel":"031-763-3105","addr":"경기도 광주시 곤지암읍 곤지암리 199-3","indutype":"회원제형태 - 기타4","category":"other"}]},{"lat":"37.3497646","long":"127.3402494","imageIndex":17,"items":[{"name":"몽소","tel":"031-762-6203","addr":"경기도 광주시 곤지암읍 곤지암리 441-1번지","indutype":"의류 - 정장","category":"other"}]},{"lat":"37.34770807","long":"127.3378589","imageIndex":17,"items":[{"name":"밀스튜디오","tel":"031-767-5605","addr":"경기도 광주시 곤지암읍 곤지암리 453-145번지 2호동 외1필지","indutype":"의류 - 정장","category":"other"}]},{"lat":"37.35004019","long":"127.3383884","imageIndex":17,"items":[{"name":"배달건재","tel":"031-761-0411","addr":"경기도 광주시 곤지암읍 곤지암리 453-7번지","indutype":"건축자재 - 기타건축자재","category":"other"}]},{"lat":"37.35034149","long":"127.3525766","imageIndex":17,"items":[{"name":"법무사유경렬사무소","tel":"031-763-3631","addr":"경기도 광주시 곤지암읍 곤지암리 140-2번지 103호","indutype":"용역 서비스 - 법률회계서비스(개인)","category":"other"},{"name":"신대건축사사무소","tel":"031-764-0416","addr":"경기도 광주시 곤지암읍 곤지암리 140-2번지 3층","indutype":"용역 서비스 - 사무서비스","category":"other"}]},{"lat":"37.3497032","long":"127.3396622","imageIndex":17,"items":[{"name":"보물섬","tel":"070-4531-5199","addr":"경기도 광주시 곤지암읍 곤지암리 441-20번지","indutype":"의류 - 정장","category":"other"},{"name":"신비주의","tel":"031-797-4348","addr":"경기도 광주시 곤지암읍 곤지암리 441-20","indutype":"의류 - 정장","category":"other"},{"name":"푸른화원","tel":"031-764-0504","addr":"경기도 광주시 곤지암읍 곤지암리 441-20번지","indutype":"문화.취미 - 화원","category":"other"}]},{"lat":"37.34164844","long":"127.345833","imageIndex":17,"items":[{"name":"비에이치(BH)경영인증원","tel":"031-762-6614","addr":"경기도 광주시 곤지암읍 곤지암리 328-1","indutype":"회원제형태 - 기타4","category":"other"}]},{"lat":"37.33896151","long":"127.3370527","imageIndex":17,"items":[{"name":"빌리보스","tel":"02-1111-1111","addr":"경기도 광주시 곤지암읍 곤지암리 510-3번지 102호","indutype":"유통업 영리 - 기타유통업","category":"other"}]},{"lat":"37.34842747","long":"127.3383587","imageIndex":17,"items":[{"name":"새털","tel":"031-764-6574","addr":"경기도 광주시 곤지암읍 곤지암리 453-112 1층2호","indutype":"의류 - 정장","category":"other"}]},{"lat":"37.348181","long":"127.3488535","imageIndex":17,"items":[{"name":"서준가설","tel":"031-761-1892","addr":"경기도 광주시 곤지암읍 곤지암리 555-46번지 1층","indutype":"건축자재 - 기타건축자재","category":"other"}]},{"lat":"37.34578544","long":"127.3453665","imageIndex":17,"items":[{"name":"선행","tel":"","addr":"경기도 광주시 곤지암읍 곤지암리 593번지 삼주노블리제아파트","indutype":"신변잡화 - 기타잡화","category":"other"}]},{"lat":"37.34948077","long":"127.3386681","imageIndex":17,"items":[{"name":"성보농약","tel":"031-762-6007","addr":"경기도 광주시 곤지암읍 곤지암리 453-20번지","indutype":"농업 - 비료,사료,종자","category":"other"},{"name":"학우사","tel":"031-762-6419","addr":"경기도 광주시 곤지암읍 곤지암리 453-20","indutype":"서적문구 - 기타서적문구","category":"other"}]},{"lat":"37.34868059","long":"127.3443639","imageIndex":17,"items":[{"name":"세무사신정헌사무소","tel":"032-764-5023","addr":"경기도 광주시 곤지암읍 곤지암리 343-9번지 kt건물 3층","indutype":"용역 서비스 - 법률회계서비스(개인)","category":"other"},{"name":"썬골프연습장","tel":"031-798-2222","addr":"경기도 광주시 곤지암읍 곤지암리 343-9번지","indutype":"회원제형태 - 레져업소","category":"other"},{"name":"청하세무회계","tel":"031-764-5023","addr":"경기도 광주시 곤지암읍 곤지암리 343-9번지 KT곤지암빌딩 3층","indutype":"용역 서비스 - 법률회계서비스(개인)","category":"other"}]},{"lat":"37.34370505","long":"127.3512141","imageIndex":17,"items":[{"name":"세븐일레븐광주곤지암본점","tel":"","addr":"경기도 광주시 곤지암읍 곤지암리 221-4번지 중부빌딩","indutype":"유통업 영리 - 편 의 점","category":"other"}]},{"lat":"37.34771751","long":"127.3471246","imageIndex":17,"items":[{"name":"소피스티케이트(SOPHISTICATE)","tel":"","addr":"경기도 광주시 곤지암읍 곤지암리 337-12번지 엘지아파트","indutype":"의류 - 기타의류","category":"other"}]},{"lat":"37.3421231","long":"127.3499091","imageIndex":17,"items":[{"name":"수현도요","tel":"031-762-7821","addr":"경기도 광주시 곤지암읍 곤지암리 213-10번지","indutype":"문화.취미 - 민예·공예품","category":"other"}]},{"lat":"37.34998591","long":"127.3384672","imageIndex":17,"items":[{"name":"순금당","tel":"031-762-0991","addr":"경기도 광주시 곤지암읍 곤지암리 453-8번지","indutype":"신변잡화 - 시계","category":"other"}]},{"lat":"37.34967451","long":"127.3556885","imageIndex":17,"items":[{"name":"스튜디오카페 쥬뗌므","tel":"031-767-7023","addr":"경기도 광주시 곤지암읍 곤지암리 93-1번지 1호","indutype":"광학제품 - 사진관","category":"other"}]},{"lat":"37.34329261","long":"127.3505238","imageIndex":17,"items":[{"name":"씨유곤지암목방마을점","tel":"080-080-3663","addr":"경기도 광주시 곤지암읍 곤지암리 203-6번지 1층","indutype":"유통업 영리 - 편 의 점","category":"other"}]},{"lat":"37.34976508","long":"127.3400801","imageIndex":17,"items":[{"name":"씨유곤지암중앙점","tel":"080-080-3663","addr":"경기도 광주시 곤지암읍 곤지암리 441-2번지","indutype":"유통업 영리 - 편 의 점","category":"other"},{"name":"야쓰 컴퍼니","tel":"031-797-4444","addr":"경기도 광주시 곤지암읍 곤지암리 441-2번지","indutype":"사무통신 - 통신기기","category":"other"}]},{"lat":"37.34912533","long":"127.3585526","imageIndex":17,"items":[{"name":"아쿠아통상주식회사","tel":"0311-763-2170","addr":"경기도 광주시 곤지암읍 곤지암리 84-12번지 1층","indutype":"주방용구 - 정수기","category":"other"}]},{"lat":"37.3501239","long":"127.3406347","imageIndex":17,"items":[{"name":"아트스크린골프","tel":"031-763-6800","addr":"경기도 광주시 곤지암읍 곤지암리 435-8번지","indutype":"회원제형태 - 레져업소","category":"other"}]},{"lat":"37.34984607","long":"127.3525291","imageIndex":17,"items":[{"name":"애견미용실","tel":"031-762-0842","addr":"경기도 광주시 곤지암읍 곤지암리 139-8번지 2호동 1층 102호","indutype":"문화.취미 - 애완동물","category":"other"},{"name":"하나유통","tel":"031-798-0602","addr":"경기도 광주시 곤지암읍 곤지암리 139-8번지 1층 102호","indutype":"직물 - 침구·수예점","category":"other"}]},{"lat":"37.34658089","long":"127.3381812","imageIndex":17,"items":[{"name":"앤컨츄리","tel":"031-764-0534","addr":"경기도 광주시 곤지암읍 곤지암리 457번지 곤지암2차쌍용아파트","indutype":"회원제형태 - 기타4","category":"other"}]},{"lat":"37.35045304","long":"127.3514146","imageIndex":17,"items":[{"name":"영수종합목재상사","tel":"031-761-9240","addr":"경기도 광주시 곤지암읍 곤지암리 137-2","indutype":"건축자재 - 기타건축자재","category":"other"}]},{"lat":"37.35187291","long":"127.3402701","imageIndex":17,"items":[{"name":"옛님손","tel":"031-764-4741","addr":"경기도 광주시 곤지암읍 곤지암리 422-15번지","indutype":"용역 서비스 - 종합용역","category":"other"}]},{"lat":"37.34809656","long":"127.3469119","imageIndex":17,"items":[{"name":"요양원실버브릿지","tel":"031-798-9111","addr":"경기도 광주시 곤지암읍 곤지암리 337번지 브릿지타워 4-6층","indutype":"기타의료기관 - 기타의료기관 및 기타","category":"other"},{"name":"한성포홈","tel":"070-7853-7407","addr":"경기도 광주시 곤지암읍 곤지암리 337번지 2층","indutype":"주방용구 - 주방용구","category":"other"}]},{"lat":"37.34934748","long":"127.3535539","imageIndex":17,"items":[{"name":"용인목재","tel":"031-762-3913","addr":"경기도 광주시 곤지암읍 곤지암리 143번지","indutype":"건축자재 - 목재·석재·철물","category":"other"}]},{"lat":"37.35004135","long":"127.3535232","imageIndex":17,"items":[{"name":"유일정밀","tel":"031-792-3423","addr":"경기도 광주시 곤지암읍 곤지암리 141-8번지 1층","indutype":"기타 - 기계공구","category":"other"}]},{"lat":"37.34292606","long":"127.3526099","imageIndex":17,"items":[{"name":"을지풍력환기닥트산업","tel":"","addr":"경기도 광주시 곤지암읍 곤지암리 226번지","indutype":"전기제품 - 기타전기제품","category":"other"},{"name":"을지환기닥트집진시스템","tel":"031-761-6238","addr":"경기도 광주시 곤지암읍 곤지암리 226번지","indutype":"건축자재 - 기타건축자재","category":"other"}]},{"lat":"37.3446776","long":"127.3389401","imageIndex":17,"items":[{"name":"이오엘컴퍼니","tel":"02-111-1111","addr":"경기도 광주시 곤지암읍 곤지암리 459번지 쌍용1차아파트","indutype":"가구 - 일반가구","category":"other"}]},{"lat":"37.3426003","long":"127.3500241","imageIndex":17,"items":[{"name":"인디자인건축","tel":"070-8202-1192","addr":"경기도 광주시 곤지암읍 곤지암리 208-4번지 104호","indutype":"건축자재 - 인테리어전문","category":"other"}]},{"lat":"37.34854351","long":"127.3387429","imageIndex":17,"items":[{"name":"잉크앤컴","tel":"031-761-6191","addr":"경기도 광주시 곤지암읍 곤지암리 447-3","indutype":"사무통신 - 기타 사무용품","category":"other"}]},{"lat":"37.34809245","long":"127.3544396","imageIndex":17,"items":[{"name":"정글주주","tel":"031-761-2153","addr":"경기도 광주시 곤지암읍 곤지암리 75번지","indutype":"문화.취미 - 티켓","category":"other"}]},{"lat":"37.34825744","long":"127.3442492","imageIndex":17,"items":[{"name":"정연희스킨케어","tel":"031-699-5556","addr":"경기도 광주시 곤지암읍 곤지암리 343-28번지 금강맨션","indutype":"회원제형태 - 기타4","category":"other"}]},{"lat":"37.34856845","long":"127.3457516","imageIndex":17,"items":[{"name":"정우테크","tel":"031-763-7796","addr":"경기도 광주시 곤지암읍 곤지암리 340-4번지","indutype":"전기제품 - 기타전기제품","category":"other"}]},{"lat":"37.3412059","long":"127.3613816","imageIndex":17,"items":[{"name":"정원산업","tel":"031-768-6683","addr":"경기도 광주시 곤지암읍 곤지암리 7번지","indutype":"가구 - 일반가구","category":"other"}]},{"lat":"37.34962237","long":"127.3427204","imageIndex":17,"items":[{"name":"종합상사","tel":"031-762-6677","addr":"경기도 광주시 곤지암읍 곤지암리 430-1번지","indutype":"건축자재 - 기타건축자재","category":"other"}]},{"lat":"37.33978887","long":"127.3376093","imageIndex":17,"items":[{"name":"좋은느낌","tel":"031-769-1259","addr":"경기도 광주시 곤지암읍 곤지암리 509-12번지","indutype":"건축자재 - 인테리어전문","category":"other"},{"name":"폐토너월드","tel":"070-4251-3456","addr":"경기도 광주시 곤지암읍 곤지암리 509-12번지","indutype":"사무통신 - 기타 사무용품","category":"other"}]},{"lat":"37.34006937","long":"127.340364","imageIndex":17,"items":[{"name":"주식회사 신우유통","tel":"031-791-1213","addr":"경기도 광주시 곤지암읍 곤지암리 495-1번지","indutype":"의류 - 정장","category":"other"}]},{"lat":"37.34976389","long":"127.3589393","imageIndex":17,"items":[{"name":"주식회사 신자이코리아","tel":"070-7543-8820","addr":"경기도 광주시 곤지암읍 곤지암리 84-6번지","indutype":"의류 - 정장","category":"other"}]},{"lat":"37.35251529","long":"127.3456115","imageIndex":17,"items":[{"name":"주식회사온수산업","tel":"031-766-5374","addr":"경기도 광주시 곤지암읍 곤지암리 385-1번지 1층","indutype":"건축자재 - 보일러·펌프·샷시","category":"other"}]},{"lat":"37.34909339","long":"127.3449414","imageIndex":17,"items":[{"name":"쥬비코스","tel":"031-753-7786","addr":"경기도 광주시 곤지암읍 곤지암리 341-11번지","indutype":"회원제형태 - 기타1","category":"other"}]},{"lat":"37.3411263","long":"127.348776","imageIndex":17,"items":[{"name":"지원테크","tel":"","addr":"경기도 광주시 곤지암읍 곤지암리 312-2번지 명성타운 A동 401호","indutype":"기타 - 기계공구","category":"other"}]},{"lat":"37.34959953","long":"127.353634","imageIndex":17,"items":[{"name":"천일광고기획","tel":"031-767-1001","addr":"경기도 광주시 곤지암읍 곤지암리 139-17번지","indutype":"건축자재 - 인테리어전문","category":"other"}]},{"lat":"37.34976556","long":"127.3399108","imageIndex":17,"items":[{"name":"체이스컬트","tel":"031-763-5255","addr":"경기도 광주시 곤지암읍 곤지암리 441-3번지","indutype":"의류 - 기타의류","category":"other"}]},{"lat":"37.35248357","long":"127.3563901","imageIndex":17,"items":[{"name":"체크홀릭","tel":"031-766-8063","addr":"경기도 광주시 곤지암읍 곤지암리 104번지","indutype":"의류 - 정장","category":"other"}]},{"lat":"37.34823761","long":"127.3385835","imageIndex":17,"items":[{"name":"크린아이세탁전문점","tel":"070-4409-3012","addr":"경기도 광주시 곤지암읍 곤지암리 447-5번지","indutype":"수리서비스 - 세탁소","category":"other"},{"name":"크린아이세탁편의점","tel":"070-4409-3012","addr":"경기도 광주시 곤지암읍 곤지암리 447-5번지","indutype":"수리서비스 - 세탁소","category":"other"}]},{"lat":"37.34431975","long":"127.3505286","imageIndex":17,"items":[{"name":"크린에이드 곤지암점","tel":"031-763-3006","addr":"경기도 광주시 곤지암읍 곤지암리 200-6번지 지1층 4호(썬타운)","indutype":"수리서비스 - 세탁소","category":"other"}]},{"lat":"37.34850872","long":"127.3383026","imageIndex":17,"items":[{"name":"클래식","tel":"","addr":"경기도 광주시 곤지암읍 곤지암리 453-93번지 1층","indutype":"의류 - 정장","category":"other"}]},{"lat":"37.34778782","long":"127.3383332","imageIndex":17,"items":[{"name":"키즈박스","tel":"031-769-7779","addr":"경기도 광주시 곤지암읍 곤지암리 454-2번지","indutype":"의류 - 아동의류","category":"other"}]},{"lat":"37.34973142","long":"127.3392448","imageIndex":17,"items":[{"name":"태린고무","tel":"031-769-3502","addr":"경기도 광주시 곤지암읍 곤지암리 441-6번지","indutype":"신변잡화 - 신발","category":"other"}]},{"lat":"37.34629001","long":"127.3390827","imageIndex":17,"items":[{"name":"티 바이크 카페","tel":"031-762-0249","addr":"경기도 광주시 곤지암읍 곤지암리 456-1번지","indutype":"레져용품 - 스포츠·레져용품","category":"other"}]},{"lat":"37.353236","long":"127.3425223","imageIndex":17,"items":[{"name":"티엠리서치주식회사","tel":"031-763-3080","addr":"경기도 광주시 곤지암읍 곤지암리 410-4번지 캐슬 411호","indutype":"농업 - 비료,사료,종자","category":"other"}]},{"lat":"37.34315336","long":"127.3579714","imageIndex":17,"items":[{"name":"팜다이렉트PNK,춘천연옥흙침대","tel":"02-1111-1111","addr":"경기도 광주시 곤지암읍 곤지암리 73-2번지 1,2,3층","indutype":"가구 - 일반가구","category":"other"}]},{"lat":"37.34314845","long":"127.3505232","imageIndex":17,"items":[{"name":"한남세라믹","tel":"031-633-4163","addr":"경기도 광주시 곤지암읍 곤지암리 203-1번지","indutype":"문화.취미 - 민예·공예품","category":"other"}]},{"lat":"37.34467633","long":"127.351828","imageIndex":17,"items":[{"name":"호남초경톱공구","tel":"031-797-3670","addr":"경기도 광주시 곤지암읍 곤지암리 196-2","indutype":"기타 - 기계공구","category":"other"},{"name":"호남톱공구","tel":"031-798-0797","addr":"경기도 광주시 곤지암읍 곤지암리 196-2번지","indutype":"기타 - 기계공구","category":"other"}]},{"lat":"37.34206674","long":"127.3567701","imageIndex":17,"items":[{"name":"화성타일","tel":"031-797-9136","addr":"경기도 광주시 곤지암읍 곤지암리 61-3번지","indutype":"건축자재 - 건축용 요업제품","category":"other"}]},{"lat":"37.34617589","long":"127.3380214","imageIndex":17,"items":[{"name":"화이서비스/원격지","tel":"02-3463-4050","addr":"경기도 광주시 곤지암읍 곤지암리 457번지 곤지암2차쌍용아파트","indutype":"기타 - 기타 전문점","category":"other"}]},{"lat":"37.35326112","long":"127.3431883","imageIndex":17,"items":[{"name":"후암휀스","tel":"031-762-6532","addr":"경기도 광주시 곤지암읍 곤지암리 400-5번지","indutype":"용역 서비스 - 기타용역서비스","category":"other"}]}]