[{"lat":"37.820333234","long":"127.04556337","imageIndex":4,"items":[{"name":"(주)카페그립지","tel":"031-868-0191","addr":"경기도 양주시 덕계동 678-3번지","indutype":"일반휴게음식 - 서양음식","category":"restaurant"}]},{"lat":"37.821034841","long":"127.04857354","imageIndex":4,"items":[{"name":"24시전주명가콩나물국밥","tel":"031-857-3880","addr":"경기도 양주시 덕계동 451-3번지 1층","indutype":"일반휴게음식 - 일반한식","category":"restaurant"}]},{"lat":"37.819863989","long":"127.04759608","imageIndex":4,"items":[{"name":"B.B.Q","tel":"031-866-3445","addr":"경기도 양주시 덕계동 451-1덕계빌딩1층","indutype":"일반휴게음식 - 스넥","category":"restaurant"}]},{"lat":"37.823881676","long":"127.04895011","imageIndex":4,"items":[{"name":"OK(오케이)능이마을","tel":"031-859-5239","addr":"경기도 양주시 덕계동 513-1번지 B동 1층 일부","indutype":"일반휴게음식 - 일반한식","category":"restaurant"},{"name":"대가수산","tel":"031-861-3777","addr":"경기도 양주시 덕계동 513-1번지 상상타운 B동 1층 일부","indutype":"일반휴게음식 - 일식·회집","category":"restaurant"}]},{"lat":"37.823394925","long":"127.04956314","imageIndex":4,"items":[{"name":"가마치통닭(덕계점)","tel":"031-864-2235","addr":"경기도 양주시 덕계동 509-10번지 다동 1층","indutype":"일반휴게음식 - 일반한식","category":"restaurant"},{"name":"이디야커피 양주덕계중앙점","tel":"031-862-3665","addr":"경기도 양주시 덕계동 509-10번지 1층","indutype":"일반휴게음식 - 서양음식","category":"restaurant"}]},{"lat":"37.816917712","long":"127.04809401","imageIndex":4,"items":[{"name":"갈매기살전문점","tel":"031-861-4155","addr":"경기도 양주시 덕계동 411-60번지 1층","indutype":"일반휴게음식 - 일반한식","category":"restaurant"}]},{"lat":"37.82322631","long":"127.04256654","imageIndex":4,"items":[{"name":"갈비앤등갈비","tel":"031-000-0000","addr":"경기도 양주시 덕계동 584-5번지","indutype":"일반휴게음식 - 일반한식","category":"restaurant"}]},{"lat":"37.822729931","long":"127.04504229","imageIndex":4,"items":[{"name":"감나무집","tel":"031-863-9274","addr":"경기도 양주시 덕계동 622-2번지","indutype":"일반휴게음식 - 일반한식","category":"restaurant"}]},{"lat":"37.808119635","long":"127.05934207","imageIndex":4,"items":[{"name":"강남","tel":"031-874-2777","addr":"경기도 양주시 덕계동 49번지","indutype":"일반휴게음식 - 일반한식","category":"restaurant"}]},{"lat":"37.82227837","long":"127.0479837","imageIndex":4,"items":[{"name":"강남동태찜","tel":"031-861-5335","addr":"경기도 양주시 덕계동 479-1번지","indutype":"일반휴게음식 - 일반한식","category":"restaurant"},{"name":"박가네옹심이메밀칼국수","tel":"031-866-0086","addr":"경기도 양주시 덕계동 479-1번지 1층 4호","indutype":"일반휴게음식 - 일반한식","category":"restaurant"},{"name":"쭈꾸미아저씨","tel":"031-857-7787","addr":"경기도 양주시 덕계동 479-1번지","indutype":"일반휴게음식 - 일반한식","category":"restaurant"}]},{"lat":"37.822305184","long":"127.04854025","imageIndex":4,"items":[{"name":"강남메기","tel":"031-858-6020","addr":"경기도 양주시 덕계동 480-2번지","indutype":"일반휴게음식 - 일반한식","category":"restaurant"},{"name":"돈이짬뽕","tel":"031-863-1192","addr":"경기도 양주시 덕계동 480-2번지","indutype":"일반휴게음식 - 일반한식","category":"restaurant"},{"name":"본가남원추어탕부대찌개","tel":"031-861-1232","addr":"경기도 양주시 덕계동 480-2번지 B동 1호","indutype":"일반휴게음식 - 일반한식","category":"restaurant"},{"name":"원조마포소금구이","tel":"031-867-7419","addr":"경기도 양주시 덕계동 480-2.3","indutype":"일반휴게음식 - 일반한식","category":"restaurant"},{"name":"채선당 덕계점","tel":"031-859-5958","addr":"경기도 양주시 덕계동 480-2번지 2층","indutype":"일반휴게음식 - 일반한식","category":"restaurant"},{"name":"황가네숯불생고기","tel":"031-858-1892","addr":"경기도 양주시 덕계동 480-2번지","indutype":"일반휴게음식 - 일반한식","category":"restaurant"}]},{"lat":"37.820728348","long":"127.0490163","imageIndex":4,"items":[{"name":"강촌매운탕추어탕","tel":"031-861-8532","addr":"경기도 양주시 덕계동 451-31번지","indutype":"일반휴게음식 - 일반한식","category":"restaurant"}]},{"lat":"37.82036837","long":"127.04798254","imageIndex":4,"items":[{"name":"거북찌게전문점","tel":"031-863-6951","addr":"경기도 양주시 덕계동 452-3번지","indutype":"일반휴게음식 - 일반한식","category":"restaurant"}]},{"lat":"37.819477345","long":"127.04554016","imageIndex":4,"items":[{"name":"고려삼계탕","tel":"031-865-1174","addr":"경기도 양주시 덕계동 679-13번지","indutype":"일반휴게음식 - 일반한식","category":"restaurant"}]},{"lat":"37.817313695","long":"127.04920724","imageIndex":4,"items":[{"name":"골목대장","tel":"031-858-9344","addr":"경기도 양주시 덕계동 410-10번지 1층","indutype":"일반휴게음식 - 주점","category":"restaurant"}]},{"lat":"37.821476422","long":"127.04826715","imageIndex":4,"items":[{"name":"굽네치킨(양주덕계점)","tel":"031-868-9492","addr":"경기도 양주시 덕계동 473-4번지 1층","indutype":"일반휴게음식 - 주점","category":"restaurant"},{"name":"김경자대구왕뽈찜 덕계점","tel":"031-866-7821","addr":"경기도 양주시 덕계동 473-4번지 현대빌딩 1층","indutype":"일반휴게음식 - 일반한식","category":"restaurant"},{"name":"카페테라","tel":"031-858-5277","addr":"경기도 양주시 덕계동 473-4번지 현대빌딩","indutype":"일반휴게음식 - 일반한식","category":"restaurant"}]},{"lat":"37.81906238","long":"127.0469823","imageIndex":4,"items":[{"name":"굿스 수제찹쌀고로케","tel":"","addr":"경기도 양주시 덕계동 424-4번지 1동 109호","indutype":"일반휴게음식 - 일반한식","category":"restaurant"},{"name":"꼬지사께","tel":"031-858-9245","addr":"경기도 양주시 덕계동 424-4번지 1층","indutype":"일반휴게음식 - 일식·회집","category":"restaurant"},{"name":"떼루와양주덕계점","tel":"031-862-0922","addr":"경기도 양주시 덕계동 424-4번지 제1층 제105호 스타프라자건축물제 1동","indutype":"일반휴게음식 - 일반한식","category":"restaurant"},{"name":"맘스터치","tel":"031-857-8322","addr":"경기도 양주시 덕계동 424-4번지 스타프라자 1층 110,111호","indutype":"일반휴게음식 - 서양음식","category":"restaurant"},{"name":"박경자김밥","tel":"031-863-7977","addr":"경기도 양주시 덕계동 424-4번지 스타프라자 102호","indutype":"일반휴게음식 - 일반한식","category":"restaurant"},{"name":"수라젓갈쌈밥","tel":"031-863-6343","addr":"경기도 양주시 덕계동 424-4번지 스타프라자주건축물제1동 126호","indutype":"일반휴게음식 - 일반한식","category":"restaurant"},{"name":"여우곱창","tel":"","addr":"경기도 양주시 덕계동 424-4번지 스타프라자 113호","indutype":"일반휴게음식 - 일반한식","category":"restaurant"},{"name":"응급실국물떡볶이 양주덕계점","tel":"031-838-4001","addr":"경기도 양주시 덕계동 424-4번지 스타프라자 1층 112호","indutype":"일반휴게음식 - 스넥","category":"restaurant"},{"name":"피자애덕계점","tel":"031-868-3800","addr":"경기도 양주시 덕계동 424-4번지 스타프라자 1층 108호","indutype":"일반휴게음식 - 서양음식","category":"restaurant"}]},{"lat":"37.822395159","long":"127.04884697","imageIndex":4,"items":[{"name":"귀빈호프치킨","tel":"031-867-5652","addr":"경기도 양주시 덕계동 480-11번지","indutype":"일반휴게음식 - 주점","category":"restaurant"},{"name":"대포항횟집","tel":"031-866-0692","addr":"경기도 양주시 덕계동 480-11번지","indutype":"일반휴게음식 - 일반한식","category":"restaurant"},{"name":"또바기밥상","tel":"031-859-4081","addr":"경기도 양주시 덕계동 480-11번지 1층","indutype":"일반휴게음식 - 일반한식","category":"restaurant"},{"name":"신의주찹쌀순대","tel":"031-859-2625","addr":"경기도 양주시 덕계동 480-11번지 1층","indutype":"일반휴게음식 - 일반한식","category":"restaurant"},{"name":"엄지식당","tel":"031-866-2009","addr":"경기도 양주시 덕계동 480-11번지","indutype":"일반휴게음식 - 일반한식","category":"restaurant"}]},{"lat":"37.818422988","long":"127.04623235","imageIndex":4,"items":[{"name":"그때그집포차","tel":"031-824-2019","addr":"경기도 양주시 덕계동 421-2번지","indutype":"일반휴게음식 - 일반한식","category":"restaurant"},{"name":"본죽 양주덕계점","tel":"031-865-5288","addr":"경기도 양주시 덕계동 421-2번지","indutype":"일반휴게음식 - 일반한식","category":"restaurant"},{"name":"부어치킨(덕계점)","tel":"031-868-9289","addr":"경기도 양주시 덕계동 421-2번지","indutype":"일반휴게음식 - 주점","category":"restaurant"},{"name":"트리","tel":"031-863-7947","addr":"경기도 양주시 덕계동 421-2번지 2층","indutype":"일반휴게음식 - 서양음식","category":"restaurant"}]},{"lat":"37.821423753","long":"127.04450774","imageIndex":4,"items":[{"name":"금상첨화","tel":"031-866-9333","addr":"경기도 양주시 덕계동 673-15번지","indutype":"일반휴게음식 - 일반한식","category":"restaurant"}]},{"lat":"37.819639424","long":"127.04579012","imageIndex":4,"items":[{"name":"기분좋은날","tel":"031-861-9291","addr":"경기도 양주시 덕계동 679-7번지","indutype":"일반휴게음식 - 일반한식","category":"restaurant"},{"name":"지음등갈비","tel":"","addr":"경기도 양주시 덕계동 679-7번지","indutype":"일반휴게음식 - 일반한식","category":"restaurant"},{"name":"착한포장마차","tel":"031-868-6668","addr":"경기도 양주시 덕계동 679-7번지 1층","indutype":"일반휴게음식 - 일반한식","category":"restaurant"}]},{"lat":"37.820611538","long":"127.04820984","imageIndex":4,"items":[{"name":"김돼지네","tel":"031-859-0292","addr":"경기도 양주시 덕계동 455-1번지 1층","indutype":"일반휴게음식 - 일반한식","category":"restaurant"},{"name":"김돼지네","tel":"031-859-0292","addr":"경기도 양주시 덕계동 455-1번지","indutype":"일반휴게음식 - 일반한식","category":"restaurant"}]},{"lat":"37.818035591","long":"127.04620941","imageIndex":4,"items":[{"name":"김밥나라","tel":"031-858-1558","addr":"경기도 양주시 덕계동 420-9번지 109호","indutype":"일반휴게음식 - 스넥","category":"restaurant"},{"name":"이디야(양주덕계점)","tel":"031-862-9590","addr":"경기도 양주시 덕계동 420-9번지 1층 1,2호","indutype":"일반휴게음식 - 서양음식","category":"restaurant"}]},{"lat":"37.807037689","long":"127.0610105","imageIndex":4,"items":[{"name":"까페아인 (CAFE A-in)","tel":"031-867-6464","addr":"경기도 양주시 덕계동 856번지 현진에버빌2단지 상가동 104호","indutype":"일반휴게음식 - 서양음식","category":"restaurant"},{"name":"담담","tel":"031-862-7707","addr":"경기도 양주시 덕계동 856번지 양주덕계현진에버빌2단지 101호","indutype":"일반휴게음식 - 스넥","category":"restaurant"}]},{"lat":"37.820863382","long":"127.04928896","imageIndex":4,"items":[{"name":"꿀때지","tel":"031-878-3392","addr":"경기도 양주시 덕계동 451-12번지","indutype":"일반휴게음식 - 일반한식","category":"restaurant"},{"name":"부산횟집","tel":"031-858-8109","addr":"경기도 양주시 덕계동 451-12번지 1층","indutype":"일반휴게음식 - 일반한식","category":"restaurant"}]},{"lat":"37.818946086","long":"127.04471078","imageIndex":4,"items":[{"name":"꿈의김밥 (덕계점)","tel":"031-866-3368","addr":"경기도 양주시 덕계동 682-23번지","indutype":"일반휴게음식 - 스넥","category":"restaurant"},{"name":"어묵거리","tel":"031-541-0703","addr":"경기도 양주시 덕계동 682-23번지","indutype":"일반휴게음식 - 일반한식","category":"restaurant"}]},{"lat":"37.821117332","long":"127.04479151","imageIndex":4,"items":[{"name":"나능이능이버섯백숙","tel":"031-861-9980","addr":"경기도 양주시 덕계동 672-1번지 1동 1층","indutype":"일반휴게음식 - 일반한식","category":"restaurant"},{"name":"왕십리 불난 막창","tel":"","addr":"경기도 양주시 덕계동 672-1번지","indutype":"일반휴게음식 - 일반한식","category":"restaurant"},{"name":"우거지품은순대국(덕계점)","tel":"031-857-8257","addr":"경기도 양주시 덕계동 672-1번지","indutype":"일반휴게음식 - 일반한식","category":"restaurant"},{"name":"퓨전돈까스","tel":"031-866-0549","addr":"경기도 양주시 덕계동 672-1번지 (1동5호)","indutype":"일반휴게음식 - 서양음식","category":"restaurant"}]},{"lat":"37.815449972","long":"127.04595805","imageIndex":4,"items":[{"name":"나라식당","tel":"031-867-1022","addr":"경기도 양주시 덕계동 706-9번지 외3필지","indutype":"일반휴게음식 - 일반한식","category":"restaurant"}]},{"lat":"37.819342113","long":"127.04578995","imageIndex":4,"items":[{"name":"낮밤","tel":"070-9466-7797","addr":"경기도 양주시 덕계동 679-2번지 2층","indutype":"일반휴게음식 - 서양음식","category":"restaurant"}]},{"lat":"37.816891329","long":"127.04637909","imageIndex":4,"items":[{"name":"네네치킨(덕계점)","tel":"031-864-9982","addr":"경기도 양주시 덕계동 418-7번지","indutype":"일반휴게음식 - 스넥","category":"restaurant"},{"name":"신세계호프","tel":"031-864-1036","addr":"경기도 양주시 덕계동 418-7번지","indutype":"일반휴게음식 - 주점","category":"restaurant"}]},{"lat":"37.825583747","long":"127.05073442","imageIndex":4,"items":[{"name":"넷길이 콩나물 국밥","tel":"031-861-9687","addr":"경기도 양주시 덕계동 496번지 양주골프클럽 1층","indutype":"일반휴게음식 - 일반한식","category":"restaurant"}]},{"lat":"37.818558403","long":"127.04548285","imageIndex":4,"items":[{"name":"노다지식당","tel":"031-868-8989","addr":"경기도 양주시 덕계동 681-13번지 1층","indutype":"일반휴게음식 - 일반한식","category":"restaurant"},{"name":"호떡군튀김양","tel":"031-528-5241","addr":"경기도 양주시 덕계동 681-13번지","indutype":"일반휴게음식 - 스넥","category":"restaurant"}]},{"lat":"37.823278898","long":"127.04671222","imageIndex":4,"items":[{"name":"다영분식","tel":"031-867-2575","addr":"경기도 양주시 덕계동 519-30번지","indutype":"일반휴게음식 - 일반한식","category":"restaurant"}]},{"lat":"37.81950377","long":"127.04717564","imageIndex":4,"items":[{"name":"달주","tel":"031-832-6598","addr":"경기도 양주시 덕계동 462-1번지 2층","indutype":"일반휴게음식 - 일반한식","category":"restaurant"},{"name":"쌀피자","tel":"031-866-5982","addr":"경기도 양주시 덕계동 462-1번지","indutype":"일반휴게음식 - 서양음식","category":"restaurant"},{"name":"유명해장국","tel":"031-864-5236","addr":"경기도 양주시 덕계동 462-1번지","indutype":"일반휴게음식 - 일반한식","category":"restaurant"}]},{"lat":"37.822305272","long":"127.04831309","imageIndex":4,"items":[{"name":"닭이봉 원조 춘천닭갈비","tel":"031-857-1230","addr":"경기도 양주시 덕계동 480-16번지 1층","indutype":"일반휴게음식 - 일반한식","category":"restaurant"},{"name":"장순복횟집","tel":"031-863-2235","addr":"경기도 양주시 덕계동 480-16번지 원재빌딩 A동 1층","indutype":"일반휴게음식 - 일식·회집","category":"restaurant"}]},{"lat":"37.816836701","long":"127.04790089","imageIndex":4,"items":[{"name":"대구안지랑곱창막창","tel":"053-857-2051","addr":"경기도 양주시 덕계동 411-74번지 1층 일부","indutype":"일반휴게음식 - 일반한식","category":"restaurant"}]},{"lat":"37.823307245","long":"127.04300955","imageIndex":4,"items":[{"name":"대발관","tel":"031-866-2042","addr":"경기도 양주시 덕계동 591-1번지","indutype":"일반휴게음식 - 중국식","category":"restaurant"}]},{"lat":"37.815891427","long":"127.04598102","imageIndex":4,"items":[{"name":"더크랩양주점","tel":"02-2679-6605","addr":"경기도 양주시 덕계동 701번지 1층","indutype":"일반휴게음식 - 일반한식","category":"restaurant"}]},{"lat":"37.818639059","long":"127.04665269","imageIndex":4,"items":[{"name":"덕계칼국수","tel":"031-864-5032","addr":"경기도 양주시 덕계동 421-10번지","indutype":"일반휴게음식 - 일반한식","category":"restaurant"}]},{"lat":"37.818142996","long":"127.04809476","imageIndex":4,"items":[{"name":"돈내코마을","tel":"031-861-5581","addr":"경기도 양주시 덕계동 423-1","indutype":"일반휴게음식 - 일반한식","category":"restaurant"}]},{"lat":"37.817556784","long":"127.0496276","imageIndex":4,"items":[{"name":"돈미돈미생삼겹갈비","tel":"031-844-9922","addr":"경기도 양주시 덕계동 407-2번지","indutype":"일반휴게음식 - 일반한식","category":"restaurant"}]},{"lat":"37.819279146","long":"127.04551734","imageIndex":4,"items":[{"name":"동해오찬음식점","tel":"031-868-2898","addr":"경기도 양주시 덕계동 680-1번지","indutype":"일반휴게음식 - 일반한식","category":"restaurant"},{"name":"필","tel":"031-111-1111","addr":"경기도 양주시 덕계동 680-1번지 2층","indutype":"일반휴게음식 - 주점","category":"restaurant"},{"name":"호식이두마리치킨덕계점","tel":"031-862-9996","addr":"경기도 양주시 덕계동 680-1번지","indutype":"일반휴게음식 - 스넥","category":"restaurant"}]},{"lat":"37.82050273","long":"127.04998154","imageIndex":4,"items":[{"name":"두꺼비곱창","tel":"031-858-9285","addr":"경기도 양주시 덕계동 453-1번지","indutype":"일반휴게음식 - 일반한식","category":"restaurant"},{"name":"치킨플러스양주덕계점","tel":"031-858-1020","addr":"경기도 양주시 덕계동 453-1번지 1층 110호","indutype":"일반휴게음식 - 일반한식","category":"restaurant"}]},{"lat":"37.817313389","long":"127.04997952","imageIndex":4,"items":[{"name":"뚱뚱이할머니족발보쌈","tel":"031-868-1350","addr":"경기도 양주시 덕계동 407백원상가1층","indutype":"일반휴게음식 - 일반한식","category":"restaurant"}]},{"lat":"37.817008788","long":"127.04545925","imageIndex":4,"items":[{"name":"롯데리아(양주리치마트점)","tel":"031-867-5070","addr":"경기도 양주시 덕계동 697-4번지","indutype":"일반휴게음식 - 서양음식","category":"restaurant"}]},{"lat":"37.827749051","long":"127.04254625","imageIndex":4,"items":[{"name":"리후능이오리쌈밥전문점","tel":"031-866-2030","addr":"경기도 양주시 덕계동 554-5번지","indutype":"일반휴게음식 - 일반한식","category":"restaurant"}]},{"lat":"37.823702362","long":"127.04665568","imageIndex":4,"items":[{"name":"마이따","tel":"070-7425-4545","addr":"경기도 양주시 덕계동 519-16번지","indutype":"일반휴게음식 - 스넥","category":"restaurant"}]},{"lat":"37.820973063","long":"127.04512079","imageIndex":4,"items":[{"name":"막내식당","tel":"031-868-6589","addr":"경기도 양주시 덕계동 672-3번지","indutype":"일반휴게음식 - 일반한식","category":"restaurant"}]},{"lat":"37.817169976","long":"127.04809416","imageIndex":4,"items":[{"name":"막창","tel":"031-857-3392","addr":"경기도 양주시 덕계동 411-55번지 1층","indutype":"일반휴게음식 - 일반한식","category":"restaurant"}]},{"lat":"37.81783609","long":"127.04959371","imageIndex":4,"items":[{"name":"만다린","tel":"031-858-2112","addr":"경기도 양주시 덕계동 408-1번지 1층","indutype":"일반휴게음식 - 중국식","category":"restaurant"}]},{"lat":"37.819422944","long":"127.04648279","imageIndex":4,"items":[{"name":"맛달도너츠찐빵","tel":"031-858-7979","addr":"경기도 양주시 덕계동 466-19번지 1층","indutype":"일반휴게음식 - 일반한식","category":"restaurant"},{"name":"밀땅","tel":"031-858-8886","addr":"경기도 양주시 덕계동 466-19번지","indutype":"일반휴게음식 - 스넥","category":"restaurant"},{"name":"성희네만두","tel":"031-858-2389","addr":"경기도 양주시 덕계동 466-19번지","indutype":"일반휴게음식 - 일반한식","category":"restaurant"}]},{"lat":"37.823611446","long":"127.04881365","imageIndex":4,"items":[{"name":"맛있는한우랑","tel":"031-861-9446","addr":"경기도 양주시 덕계동 513-1번지 C동 102호","indutype":"일반휴게음식 - 일반한식","category":"restaurant"}]},{"lat":"37.816810481","long":"127.0457317","imageIndex":4,"items":[{"name":"명륜진사갈비 덕계점","tel":"031-863-5609","addr":"경기도 양주시 덕계동 699-3번지","indutype":"일반휴게음식 - 일반한식","category":"restaurant"}]},{"lat":"37.816116684","long":"127.04592436","imageIndex":4,"items":[{"name":"목동화로구이","tel":"031-858-9157","addr":"경기도 양주시 덕계동 698-7번지","indutype":"일반휴게음식 - 일반한식","category":"restaurant"},{"name":"할매토종순대국","tel":"031-866-0055","addr":"경기도 양주시 덕계동 698-7번지","indutype":"일반휴게음식 - 일반한식","category":"restaurant"}]},{"lat":"37.818783096","long":"127.04695942","imageIndex":4,"items":[{"name":"몽블랑치킨","tel":"031-867-0092","addr":"경기도 양주시 덕계동 424-15번지","indutype":"일반휴게음식 - 일반한식","category":"restaurant"},{"name":"집밥처럼","tel":"","addr":"경기도 양주시 덕계동 424-15번지 1층","indutype":"일반휴게음식 - 일반한식","category":"restaurant"},{"name":"팽고팽고","tel":"031-862-2517","addr":"경기도 양주시 덕계동 424-15번지","indutype":"일반휴게음식 - 주점","category":"restaurant"}]},{"lat":"37.820944672","long":"127.04876656","imageIndex":4,"items":[{"name":"미라송","tel":"031-861-8776","addr":"경기도 양주시 덕계동 451-23번지","indutype":"일반휴게음식 - 일반한식","category":"restaurant"},{"name":"해물쿡","tel":"031-837-0189","addr":"경기도 양주시 덕계동 451-23번지","indutype":"일반휴게음식 - 일반한식","category":"restaurant"}]},{"lat":"37.822890572","long":"127.04911986","imageIndex":4,"items":[{"name":"미소육화(덕계점)","tel":"031-0000-0000","addr":"경기도 양주시 덕계동 510-3번지 연신빌딩 102호","indutype":"일반휴게음식 - 일반한식","category":"restaurant"}]},{"lat":"37.817088891","long":"127.04809411","imageIndex":4,"items":[{"name":"바다향기","tel":"","addr":"경기도 양주시 덕계동 411-58번지 1층","indutype":"일반휴게음식 - 일식·회집","category":"restaurant"}]},{"lat":"37.816729654","long":"127.04501616","imageIndex":4,"items":[{"name":"배양리회관 덕계점","tel":"","addr":"경기도 양주시 덕계동 696-3번지 리치빌리지 상가동 1층","indutype":"일반휴게음식 - 일반한식","category":"restaurant"},{"name":"별미아구찜","tel":"031-867-7287","addr":"경기도 양주시 덕계동 696-3번지 리치빌리지 1층","indutype":"일반휴게음식 - 일반한식","category":"restaurant"},{"name":"양주재래식손두부(덕계점)","tel":"","addr":"경기도 양주시 덕계동 696-3번지 리치빌리지","indutype":"일반휴게음식 - 일반한식","category":"restaurant"},{"name":"육공판 덕계점","tel":"031-857-6092","addr":"경기도 양주시 덕계동 696-3번지 리치빌리지","indutype":"일반휴게음식 - 일반한식","category":"restaurant"}]},{"lat":"37.818702484","long":"127.04567601","imageIndex":4,"items":[{"name":"백가네닭강정","tel":"070-8154-2357","addr":"경기도 양주시 덕계동 681-16번지 1층","indutype":"일반휴게음식 - 일반한식","category":"restaurant"}]},{"lat":"37.813278976","long":"127.04518455","imageIndex":4,"items":[{"name":"별난버섯집","tel":"031-862-2753","addr":"경기도 양주시 덕계동 714-1번지","indutype":"일반휴게음식 - 일반한식","category":"restaurant"}]},{"lat":"37.822919828","long":"127.04304341","imageIndex":4,"items":[{"name":"병팔이호프","tel":"031-867-2881","addr":"경기도 양주시 덕계동 588-1번지","indutype":"일반휴게음식 - 주점","category":"restaurant"}]},{"lat":"37.818837875","long":"127.04498329","imageIndex":4,"items":[{"name":"복된송아지","tel":"031-866-5002","addr":"경기도 양주시 덕계동 682-36번지","indutype":"일반휴게음식 - 일반한식","category":"restaurant"},{"name":"프렌즈","tel":"031-867-9981","addr":"경기도 양주시 덕계동 682-36번지","indutype":"일반휴게음식 - 스넥","category":"restaurant"}]},{"lat":"37.818972927","long":"127.04523323","imageIndex":4,"items":[{"name":"부평감자탕","tel":"070-997-9970","addr":"경기도 양주시 덕계동 680-3번지 1층","indutype":"일반휴게음식 - 일반한식","category":"restaurant"}]},{"lat":"37.824893101","long":"127.04243114","imageIndex":4,"items":[{"name":"부흥식당","tel":"031-866-9646","addr":"경기도 양주시 덕계동 573-4번지 1층","indutype":"일반휴게음식 - 일반한식","category":"restaurant"}]},{"lat":"37.819531137","long":"127.04626707","imageIndex":4,"items":[{"name":"불타는조개","tel":"031-859-9848","addr":"경기도 양주시 덕계동 465-1번지","indutype":"일반휴게음식 - 일반한식","category":"restaurant"},{"name":"짜글이찌개&석쇠불고기","tel":"031-862-1874","addr":"경기도 양주시 덕계동 465-1번지","indutype":"일반휴게음식 - 일반한식","category":"restaurant"},{"name":"투썸퓨전호프","tel":"031-823-6665","addr":"경기도 양주시 덕계동 465-1번지 1층","indutype":"일반휴게음식 - 주점","category":"restaurant"},{"name":"푸드1번지","tel":"031-866-8257","addr":"경기도 양주시 덕계동 465-1번지","indutype":"일반휴게음식 - 일반한식","category":"restaurant"}]},{"lat":"37.819783567","long":"127.04581292","imageIndex":4,"items":[{"name":"뽕이네","tel":"031-865-0029","addr":"경기도 양주시 덕계동 679-11번지","indutype":"일반휴게음식 - 스넥","category":"restaurant"}]},{"lat":"37.82864392","long":"127.03257373","imageIndex":4,"items":[{"name":"산장가든","tel":"031-864-6882","addr":"경기도 양주시 덕계동 산12-1번지","indutype":"일반휴게음식 - 일반한식","category":"restaurant"}]},{"lat":"37.816278586","long":"127.0466513","imageIndex":4,"items":[{"name":"서래궁","tel":"031-868-7797","addr":"경기도 양주시 덕계동 418-1번지 해동타워 101호","indutype":"일반휴게음식 - 중국식","category":"restaurant"}]},{"lat":"37.817556905","long":"127.04932096","imageIndex":4,"items":[{"name":"서우","tel":"031-858-7811","addr":"경기도 양주시 덕계동 410번지 1층 일부","indutype":"일반휴게음식 - 일반한식","category":"restaurant"},{"name":"의정부부대찌개","tel":"031-865-1032","addr":"경기도 양주시 덕계동 410번지","indutype":"일반휴게음식 - 일반한식","category":"restaurant"}]},{"lat":"37.819729193","long":"127.04667605","imageIndex":4,"items":[{"name":"성희포차","tel":"031-866-5222","addr":"경기도 양주시 덕계동 466-18번지","indutype":"일반휴게음식 - 스넥","category":"restaurant"}]},{"lat":"37.823504133","long":"127.04671235","imageIndex":4,"items":[{"name":"소풍분식","tel":"031-861-6665","addr":"경기도 양주시 덕계동 519-23번지","indutype":"일반휴게음식 - 일반한식","category":"restaurant"}]},{"lat":"37.818783516","long":"127.0458237","imageIndex":4,"items":[{"name":"송엘림두마리치킨 덕계점","tel":"031-822-7891","addr":"경기도 양주시 덕계동 681-20번지","indutype":"일반휴게음식 - 스넥","category":"restaurant"},{"name":"하니호프","tel":"031-862-1888","addr":"경기도 양주시 덕계동 681-20번지 지하1층","indutype":"일반휴게음식 - 주점","category":"restaurant"}]},{"lat":"37.813307092","long":"127.04203884","imageIndex":4,"items":[{"name":"송원","tel":"031-868-2357","addr":"경기도 양주시 덕계동 730번지","indutype":"일반휴게음식 - 일반한식","category":"restaurant"}]},{"lat":"37.817062521","long":"127.04634512","imageIndex":4,"items":[{"name":"수유리우동집(덕계)","tel":"031-864-3245","addr":"경기도 양주시 덕계동 418-6번지","indutype":"일반휴게음식 - 일반한식","category":"restaurant"},{"name":"활어장군","tel":"","addr":"경기도 양주시 덕계동 418-6번지","indutype":"일반휴게음식 - 일식·회집","category":"restaurant"}]},{"lat":"37.824812164","long":"127.04198812","imageIndex":4,"items":[{"name":"스낵바바사삭","tel":"031-861-9233","addr":"경기도 양주시 덕계동 574-16번지 1층 103호","indutype":"일반휴게음식 - 스넥","category":"restaurant"}]},{"lat":"37.816557","long":"127.04895692","imageIndex":4,"items":[{"name":"시골보리밥","tel":"031-862-6660","addr":"경기도 양주시 덕계동 411-84번지 1층 일부","indutype":"일반휴게음식 - 일반한식","category":"restaurant"}]},{"lat":"37.822504825","long":"127.04467871","imageIndex":4,"items":[{"name":"신명태옥","tel":"031-861-8880","addr":"경기도 양주시 덕계동 622-4번지 1층","indutype":"일반휴게음식 - 일반한식","category":"restaurant"}]},{"lat":"37.815576331","long":"127.0453335","imageIndex":4,"items":[{"name":"싹스리김치삼겹살(덕계동)","tel":"031-858-0555","addr":"경기도 양주시 덕계동 704-1번지 A동 101층","indutype":"일반휴게음식 - 일반한식","category":"restaurant"}]},{"lat":"37.821647189","long":"127.04932353","imageIndex":4,"items":[{"name":"썬","tel":"031-857-7900","addr":"경기도 양주시 덕계동 448-1번지 3층","indutype":"일반휴게음식 - 주점","category":"restaurant"}]},{"lat":"37.817612147","long":"127.04620916","imageIndex":4,"items":[{"name":"씨앗호떡","tel":"031-858-4892","addr":"경기도 양주시 덕계동 420-10번지 세원빌딩 104호","indutype":"일반휴게음식 - 일반한식","category":"restaurant"},{"name":"황가 손만두","tel":"031-858-7781","addr":"경기도 양주시 덕계동 420-10번지 109호","indutype":"일반휴게음식 - 일반한식","category":"restaurant"}]},{"lat":"37.82730807","long":"127.04109211","imageIndex":4,"items":[{"name":"아띠","tel":"070-7435-3993","addr":"경기도 양주시 덕계동 558-2번지 1층","indutype":"일반휴게음식 - 서양음식","category":"restaurant"}]},{"lat":"37.818756254","long":"127.04645969","imageIndex":4,"items":[{"name":"아싸라이브","tel":"031-864-5268","addr":"경기도 양주시 덕계동 421-1번지 지하1층","indutype":"일반휴게음식 - 주점","category":"restaurant"}]},{"lat":"37.818837204","long":"127.04682317","imageIndex":4,"items":[{"name":"앗싸곱창(덕계점)","tel":"031-861-7990","addr":"경기도 양주시 덕계동 424-14번지","indutype":"일반휴게음식 - 일반한식","category":"restaurant"}]},{"lat":"37.821531895","long":"127.04442829","imageIndex":4,"items":[{"name":"애플(cafe)","tel":"031-858-7522","addr":"경기도 양주시 덕계동 673-3번지","indutype":"일반휴게음식 - 서양음식","category":"restaurant"}]},{"lat":"37.819396211","long":"127.04567641","imageIndex":4,"items":[{"name":"얌마카롱(Yum Macaron)","tel":"","addr":"경기도 양주시 덕계동 679-6번지 103호","indutype":"일반휴게음식 - 서양음식","category":"restaurant"},{"name":"장터국수만두","tel":"031-859-4372","addr":"경기도 양주시 덕계동 679-6번지 101호","indutype":"일반휴게음식 - 스넥","category":"restaurant"}]},{"lat":"37.820809587","long":"127.04861883","imageIndex":4,"items":[{"name":"양주뚝배기국밥","tel":"031-858-9888","addr":"경기도 양주시 덕계동 451-15번지 1층","indutype":"일반휴게음식 - 일반한식","category":"restaurant"}]},{"lat":"37.81900866","long":"127.04607369","imageIndex":4,"items":[{"name":"연인","tel":"031-857-7475","addr":"경기도 양주시 덕계동 681-3번지 2층","indutype":"일반휴게음식 - 일반한식","category":"restaurant"}]},{"lat":"37.817286981","long":"127.04840087","imageIndex":4,"items":[{"name":"영능이오리백숙","tel":"031-866-2500","addr":"경기도 양주시 덕계동 411-29번지 1층","indutype":"일반휴게음식 - 일반한식","category":"restaurant"}]},{"lat":"37.818811065","long":"127.04436998","imageIndex":4,"items":[{"name":"영희영양탕","tel":"031-867-1235","addr":"경기도 양주시 덕계동 682-25번지","indutype":"일반휴게음식 - 일반한식","category":"restaurant"}]},{"lat":"37.815675411","long":"127.0454017","imageIndex":4,"items":[{"name":"왕손쭈꾸미","tel":"031-861-0110","addr":"경기도 양주시 덕계동 704-4번지 1층","indutype":"일반휴게음식 - 일반한식","category":"restaurant"}]},{"lat":"37.821694104","long":"127.04431481","imageIndex":4,"items":[{"name":"의정부콩 부대찌개","tel":"031-866-5679","addr":"경기도 양주시 덕계동 673-11번지 1층","indutype":"일반휴게음식 - 일반한식","category":"restaurant"}]},{"lat":"37.817972888","long":"127.04520994","imageIndex":4,"items":[{"name":"일미식당","tel":"031-864-5388","addr":"경기도 양주시 덕계동 682-15번지","indutype":"일반휴게음식 - 일반한식","category":"restaurant"}]},{"lat":"37.819477263","long":"127.04576731","imageIndex":4,"items":[{"name":"일산식당","tel":"031-861-9625","addr":"경기도 양주시 덕계동 679-8번지","indutype":"일반휴게음식 - 일반한식","category":"restaurant"}]},{"lat":"37.819279475","long":"127.04459739","imageIndex":4,"items":[{"name":"임자 만난 옛 통닭","tel":"031-866-9291","addr":"경기도 양주시 덕계동 680-5번지","indutype":"일반휴게음식 - 스넥","category":"restaurant"}]},{"lat":"37.819229824","long":"127.02937855","imageIndex":4,"items":[{"name":"장자울","tel":"031-863-2713","addr":"경기도 양주시 덕계동 754,754-6","indutype":"일반휴게음식 - 일반한식","category":"restaurant"},{"name":"장자울","tel":"031-863-2764","addr":"경기도 양주시 덕계동 754, 754-6","indutype":"일반휴게음식 - 일반한식","category":"restaurant"}]},{"lat":"37.823145037","long":"127.04312304","imageIndex":4,"items":[{"name":"정성식당","tel":"031-864-1334","addr":"경기도 양주시 덕계동 591-8번지","indutype":"일반휴게음식 - 일반한식","category":"restaurant"}]},{"lat":"37.820701257","long":"127.04917528","imageIndex":4,"items":[{"name":"중화루","tel":"031-868-1259","addr":"경기도 양주시 덕계동 451-32번지 1층","indutype":"일반휴게음식 - 중국식","category":"restaurant"}]},{"lat":"37.8158694","long":"127.055816","imageIndex":4,"items":[{"name":"중흥식당","tel":"031-861-0021","addr":"경기도 양주시 덕계동 278-5","indutype":"일반휴게음식 - 일반한식","category":"restaurant"}]},{"lat":"37.81655687","long":"127.04928627","imageIndex":4,"items":[{"name":"진이네분식","tel":"031-857-5287","addr":"경기도 양주시 덕계동 411-110번지 1층 일부","indutype":"일반휴게음식 - 스넥","category":"restaurant"}]},{"lat":"37.816585224","long":"127.04578835","imageIndex":4,"items":[{"name":"짬뽕9단","tel":"031-866-2343","addr":"경기도 양주시 덕계동 698-5번지","indutype":"일반휴게음식 - 중국식","category":"restaurant"}]},{"lat":"37.817278037","long":"127.04823051","imageIndex":4,"items":[{"name":"쪼끼쪼끼","tel":"031-859-7744","addr":"경기도 양주시 덕계동 411-53번지","indutype":"일반휴게음식 - 주점","category":"restaurant"}]},{"lat":"37.821667345","long":"127.04354247","imageIndex":4,"items":[{"name":"차이나타운","tel":"031-868-6774","addr":"경기도 양주시 덕계동 656-1번지 1층 전체","indutype":"일반휴게음식 - 중국식","category":"restaurant"}]},{"lat":"37.820143974","long":"127.04573362","imageIndex":4,"items":[{"name":"천냥노가리","tel":"070-4158-2893","addr":"경기도 양주시 덕계동 678-9번지 1층","indutype":"일반휴게음식 - 일반한식","category":"restaurant"}]},{"lat":"37.80889496","long":"127.05826386","imageIndex":4,"items":[{"name":"추오정남원추어탕","tel":"031-858-5003","addr":"경기도 양주시 덕계동 324-23번지 1층","indutype":"일반휴게음식 - 일반한식","category":"restaurant"}]},{"lat":"37.818423192","long":"127.04567584","imageIndex":4,"items":[{"name":"춘천골닭갈비","tel":"031-865-6467","addr":"경기도 양주시 덕계동 681-24번지","indutype":"일반휴게음식 - 일반한식","category":"restaurant"}]},{"lat":"37.82178405","long":"127.04473509","imageIndex":4,"items":[{"name":"치킨탑 덕계점","tel":"031-858-9981","addr":"경기도 양주시 덕계동 675-10번지 1동 1층","indutype":"일반휴게음식 - 일반한식","category":"restaurant"}]},{"lat":"37.82066664","long":"127.04540456","imageIndex":4,"items":[{"name":"치킨투고","tel":"031-868-3282","addr":"경기도 양주시 덕계동 678-1번지","indutype":"일반휴게음식 - 스넥","category":"restaurant"}]},{"lat":"37.816953601","long":"127.04848017","imageIndex":4,"items":[{"name":"카페 안길","tel":"","addr":"경기도 양주시 덕계동 411-42번지 1층 101호","indutype":"일반휴게음식 - 서양음식","category":"restaurant"}]},{"lat":"37.822396015","long":"127.04659812","imageIndex":4,"items":[{"name":"카페 에스파스","tel":"","addr":"경기도 양주시 덕계동 477-5번지 경기웰니스요양병원 1층","indutype":"일반휴게음식 - 서양음식","category":"restaurant"}]},{"lat":"37.818918822","long":"127.04536948","imageIndex":4,"items":[{"name":"코리안바베큐","tel":"031-864-3535","addr":"경기도 양주시 덕계동 681-14번지","indutype":"일반휴게음식 - 주점","category":"restaurant"},{"name":"펍카페1429","tel":"031-866-8886","addr":"경기도 양주시 덕계동 681-14번지","indutype":"일반휴게음식 - 서양음식","category":"restaurant"}]},{"lat":"37.812643566","long":"127.05681305","imageIndex":4,"items":[{"name":"쿠키 그리고","tel":"031-863-5106","addr":"경기도 양주시 덕계동 852번지 202,206호","indutype":"일반휴게음식 - 서양음식","category":"restaurant"}]},{"lat":"37.817675112","long":"127.04648177","imageIndex":4,"items":[{"name":"큰대문집","tel":"031-858-0758","addr":"경기도 양주시 덕계동 420-11번지 정산빌리지","indutype":"일반휴게음식 - 일반한식","category":"restaurant"}]},{"lat":"37.827839707","long":"127.0408425","imageIndex":4,"items":[{"name":"태백우리흑염소","tel":"031-859-1113","addr":"경기도 양주시 덕계동 558-1번지 1층","indutype":"일반휴게음식 - 일반한식","category":"restaurant"}]},{"lat":"37.822585978","long":"127.04448567","imageIndex":4,"items":[{"name":"토담보리밥","tel":"031-866-8982","addr":"경기도 양주시 덕계동 623번지","indutype":"일반휴게음식 - 일반한식","category":"restaurant"}]},{"lat":"37.819116906","long":"127.04571032","imageIndex":4,"items":[{"name":"팍스팍스","tel":"","addr":"경기도 양주시 덕계동 681-1번지 1층","indutype":"일반휴게음식 - 일반한식","category":"restaurant"},{"name":"화로마을","tel":"031-864-9289","addr":"경기도 양주시 덕계동 681-1번지 외1필지 105","indutype":"일반휴게음식 - 일반한식","category":"restaurant"},{"name":"황금시푸드","tel":"070-7555-0641","addr":"경기도 양주시 덕계동 681-1번지 애터미상가 1층","indutype":"일반휴게음식 - 일반한식","category":"restaurant"}]},{"lat":"37.817251135","long":"127.04790114","imageIndex":4,"items":[{"name":"하이얀호프","tel":"031-863-4992","addr":"경기도 양주시 덕계동 411-4번지 1층","indutype":"일반휴게음식 - 스넥","category":"restaurant"}]},{"lat":"37.825252433","long":"127.04542991","imageIndex":4,"items":[{"name":"한우사랑","tel":"031-867-8562","addr":"경기도 양주시 덕계동 610-3번지 외4필지","indutype":"일반휴게음식 - 일반한식","category":"restaurant"}]},{"lat":"37.816368965","long":"127.04587908","imageIndex":4,"items":[{"name":"할리스커피 (양주점)","tel":"031-868-5779","addr":"경기도 양주시 덕계동 698-13번지","indutype":"일반휴게음식 - 서양음식","category":"restaurant"}]},{"lat":"37.81770098","long":"127.04951412","imageIndex":4,"items":[{"name":"해송","tel":"031-858-5755","addr":"경기도 양주시 덕계동 408-2번지","indutype":"일반휴게음식 - 일반한식","category":"restaurant"}]},{"lat":"37.82191936","long":"127.04425815","imageIndex":4,"items":[{"name":"향채","tel":"031-865-2999","addr":"경기도 양주시 덕계동 655-15번지 1층","indutype":"일반휴게음식 - 일반한식","category":"restaurant"}]},{"lat":"37.817061945","long":"127.04787832","imageIndex":4,"items":[{"name":"호남토종순대국","tel":"031-859-0865","addr":"경기도 양주시 덕계동 411-79번지","indutype":"일반휴게음식 - 일반한식","category":"restaurant"}]},{"lat":"37.821171799","long":"127.0436217","imageIndex":4,"items":[{"name":"황금식품","tel":"031-867-8687","addr":"경기도 양주시 덕계동 656-15번지 1층","indutype":"일반휴게음식 - 스넥","category":"restaurant"}]},{"lat":"37.819891681","long":"127.04581298","imageIndex":4,"items":[{"name":"황부자감자탕 덕계점","tel":"031-859-6363","addr":"경기도 양주시 덕계동 679-1번지 주건축물제1동 1층","indutype":"일반휴게음식 - 일반한식","category":"restaurant"}]},{"lat":"37.819638848","long":"127.04734608","imageIndex":4,"items":[{"name":"훌랄라참숯바베큐치킨","tel":"031-865-4566","addr":"경기도 양주시 덕계동 462번지 1층","indutype":"일반휴게음식 - 스넥","category":"restaurant"}]}]