[{"lat":"37.837254448","long":"127.33728832","imageIndex":7,"items":[{"name":"강원농원","tel":"031-585-7437","addr":"경기도 가평군 조종면 신상리 433번지","indutype":"음료식품 - 농·축·수산품","category":"food"}]},{"lat":"37.844920433","long":"127.35312638","imageIndex":7,"items":[{"name":"꽃보다유원지","tel":"031-585-9590","addr":"경기도 가평군 조종면 신상리 115-2번지","indutype":"음료식품 - 기타음료식품","category":"food"}]},{"lat":"37.84556706","long":"127.35980989","imageIndex":7,"items":[{"name":"돌샘농원","tel":"050-2011-1587","addr":"경기도 가평군 조종면 신상리 10번지","indutype":"음료식품 - 농·축·수산품","category":"food"}]},{"lat":"37.848787859","long":"127.3553375","imageIndex":7,"items":[{"name":"문교농원","tel":"031-585-0942","addr":"경기도 가평군 조종면 신상리 190-2번지","indutype":"음료식품 - 농·축·수산품","category":"food"}]},{"lat":"37.845089938","long":"127.35065043","imageIndex":7,"items":[{"name":"산달랭이","tel":"031-585-7547","addr":"경기도 가평군 조종면 신상리 115-6번지","indutype":"음료식품 - 기타음료식품","category":"food"}]},{"lat":"37.838649398","long":"127.33781719","imageIndex":7,"items":[{"name":"세곡농원","tel":"031-584-3457","addr":"경기도 가평군 조종면 신상리 452-1,10/1","indutype":"음료식품 - 농·축·수산품","category":"food"}]},{"lat":"37.842425404","long":"127.35595479","imageIndex":7,"items":[{"name":"시골풍경","tel":"031-584-8987","addr":"경기도 가평군 조종면 신상리 89번지","indutype":"음료식품 - 농·축·수산품","category":"food"}]},{"lat":"37.837644105","long":"127.35203549","imageIndex":7,"items":[{"name":"신촌농원","tel":"031-585-0981","addr":"경기도 가평군 조종면 신상리 339-1번지","indutype":"음료식품 - 기타음료식품","category":"food"}]},{"lat":"37.839232729","long":"127.35406511","imageIndex":7,"items":[{"name":"신촌방앗간","tel":"031-585-2166","addr":"경기도 가평군 조종면 신상리 61-2번지","indutype":"음료식품 - 제과점","category":"food"}]},{"lat":"37.846203401","long":"127.35492755","imageIndex":7,"items":[{"name":"양추매점","tel":"031-584-4035","addr":"경기도 가평군 조종면 신상리 130-1번지 양추매점","indutype":"음료식품 - 기타음료식품","category":"food"}]},{"lat":"37.857252435","long":"127.35373015","imageIndex":7,"items":[{"name":"우리유원지","tel":"031-585-1530","addr":"경기도 가평군 조종면 신상리 226-3번지","indutype":"음료식품 - 기타음료식품","category":"food"}]},{"lat":"37.833950035","long":"127.33973842","imageIndex":7,"items":[{"name":"운악농원","tel":"031-585-1083","addr":"경기도 가평군 조종면 신상리 652-15번지","indutype":"음료식품 - 농·축·수산품","category":"food"}]},{"lat":"37.849532355","long":"127.35643179","imageIndex":7,"items":[{"name":"착한농원","tel":"031-584-6600","addr":"경기도 가평군 조종면 신상리 160-3","indutype":"음료식품 - 기타음료식품","category":"food"}]},{"lat":"37.838118358","long":"127.32798824","imageIndex":7,"items":[{"name":"한중농원","tel":"031-585-5880","addr":"경기도 가평군 조종면 신상리 746번지 한중농원","indutype":"음료식품 - 농·축·수산품","category":"food"}]}]