[{"lat":"37.752174987","long":"126.76781623","imageIndex":13,"items":[{"name":"(주)아이맘케어 파주지점","tel":"031-812-3456","addr":"경기도 파주시 금촌동 987-5번지","indutype":"보건위생 - 기타대인서비스","category":"beauty"},{"name":"SUN생명과학","tel":"031-943-4717","addr":"경기도 파주시 금촌동 987-5번지","indutype":"보건위생 - 화장품","category":"beauty"},{"name":"네일킴","tel":"031-948-7953","addr":"경기도 파주시 금촌동 987-5번지","indutype":"보건위생 - 피부미용실","category":"beauty"},{"name":"드림맘산후케어","tel":"031-912-3559","addr":"경기도 파주시 금촌동 987-5번지","indutype":"보건위생 - 기타대인서비스","category":"beauty"},{"name":"마터피아파주","tel":"031-912-8030","addr":"경기도 파주시 금촌동 987-5번지","indutype":"보건위생 - 기타대인서비스","category":"beauty"},{"name":"산모도우미 119","tel":"","addr":"경기도 파주시 금촌동 987-5번지","indutype":"보건위생 - 기타대인서비스","category":"beauty"},{"name":"산모피아","tel":"031-814-3525","addr":"경기도 파주시 금촌동 987-5번지","indutype":"보건위생 - 기타대인서비스","category":"beauty"},{"name":"아이미래로 파주지사","tel":"031-943-5992","addr":"경기도 파주시 금촌동 987-5번지","indutype":"보건위생 - 기타대인서비스","category":"beauty"},{"name":"친정맘","tel":"031-966-5279","addr":"경기도 파주시 금촌동 987-5번지","indutype":"보건위생 - 기타대인서비스","category":"beauty"},{"name":"헤어탐남성컷트전문","tel":"031-942-7492","addr":"경기도 파주시 금촌동 987-5번지 힘찬프라자 105호","indutype":"보건위생 - 미용원","category":"beauty"},{"name":"흐무뭇","tel":"","addr":"경기도 파주시 금촌동 987-5번지","indutype":"보건위생 - 피부미용실","category":"beauty"}]},{"lat":"37.760592041","long":"126.77348646","imageIndex":13,"items":[{"name":"(주)현이택","tel":"031-8071-0005","addr":"경기도 파주시 금촌동 310-3번지","indutype":"보건위생 - 화장품","category":"beauty"}]},{"lat":"37.76003087","long":"126.77681322","imageIndex":13,"items":[{"name":"K비젼안경","tel":"031-957-1001","addr":"경기도 파주시 금촌동 767-8번지","indutype":"보건위생 - 안경","category":"beauty"}]},{"lat":"37.76483783","long":"126.77467633","imageIndex":13,"items":[{"name":"MH타워불한증 사우나","tel":"031-947-7321","addr":"경기도 파주시 금촌동 329-158번지","indutype":"보건위생 - 사우나","category":"beauty"},{"name":"이나 헤어","tel":"031-947-1007","addr":"경기도 파주시 금촌동 329-158번지","indutype":"보건위생 - 미용원","category":"beauty"},{"name":"히어링보이스","tel":"031-948-6363","addr":"경기도 파주시 금촌동 329-158번지","indutype":"보건위생 - 의료용품","category":"beauty"}]},{"lat":"37.757983253","long":"126.76637936","imageIndex":13,"items":[{"name":"S.H 운동센터","tel":"031-941-1616","addr":"경기도 파주시 금촌동 965-4번지","indutype":"보건위생 - 기타대인서비스","category":"beauty"}]},{"lat":"37.75917621","long":"126.77746267","imageIndex":13,"items":[{"name":"가이오","tel":"031-945-6171","addr":"경기도 파주시 금촌동 770-1번지","indutype":"보건위생 - 미용원","category":"beauty"}]},{"lat":"37.755621869","long":"126.77046065","imageIndex":13,"items":[{"name":"감성네일","tel":"031-111-1111","addr":"경기도 파주시 금촌동 246-23번지","indutype":"보건위생 - 피부미용실","category":"beauty"},{"name":"바닐라헤어샵","tel":"031-943-9496","addr":"경기도 파주시 금촌동 246-23번지","indutype":"보건위생 - 미용원","category":"beauty"}]},{"lat":"37.759503572","long":"126.77435228","imageIndex":13,"items":[{"name":"개성시대","tel":"031-945-3177","addr":"경기도 파주시 금촌동 77-6번지","indutype":"보건위생 - 미용원","category":"beauty"}]},{"lat":"37.751038457","long":"126.76715036","imageIndex":13,"items":[{"name":"경기파주 참사랑 어머니회","tel":"","addr":"경기도 파주시 금촌동 990-3번지","indutype":"보건위생 - 기타대인서비스","category":"beauty"},{"name":"레자브르코리아","tel":"031-945-0788","addr":"경기도 파주시 금촌동 990-3번지","indutype":"보건위생 - 화장품","category":"beauty"},{"name":"사임당 산후관리","tel":"031-972-3575","addr":"경기도 파주시 금촌동 990-3번지","indutype":"보건위생 - 기타대인서비스","category":"beauty"},{"name":"펄스온","tel":"031-949-4549","addr":"경기도 파주시 금촌동 990-3번지","indutype":"보건위생 - 의료용품","category":"beauty"}]},{"lat":"37.751535383","long":"126.76785229","imageIndex":13,"items":[{"name":"고와요","tel":"031-945-6663","addr":"경기도 파주시 금촌동 989-5번지","indutype":"보건위생 - 화장품","category":"beauty"},{"name":"에뛰드하우스 금릉점","tel":"031-943-3036","addr":"경기도 파주시 금촌동 989-5번지","indutype":"보건위생 - 화장품","category":"beauty"},{"name":"여자만들기","tel":"031-945-0095","addr":"경기도 파주시 금촌동 989-5번지","indutype":"보건위생 - 화장품","category":"beauty"},{"name":"토리헤어 금릉","tel":"031-957-3255","addr":"경기도 파주시 금촌동 989-5번지","indutype":"보건위생 - 미용원","category":"beauty"}]},{"lat":"37.759614296","long":"126.77570237","imageIndex":13,"items":[{"name":"고향","tel":"031-944-9618","addr":"경기도 파주시 금촌동 764-8번지","indutype":"보건위생 - 이용원","category":"beauty"}]},{"lat":"37.751094733","long":"126.76826217","imageIndex":13,"items":[{"name":"골드스킨","tel":"031-943-6933","addr":"경기도 파주시 금촌동 989-8번지","indutype":"보건위생 - 화장품","category":"beauty"},{"name":"남자 헤어컷트","tel":"031-947-4072","addr":"경기도 파주시 금촌동 989-8번지","indutype":"보건위생 - 이용원","category":"beauty"}]},{"lat":"37.756920394","long":"126.77104667","imageIndex":13,"items":[{"name":"골드스파사우나","tel":"031-957-3800","addr":"경기도 파주시 금촌동 253-5번지","indutype":"보건위생 - 사우나","category":"beauty"},{"name":"싸바이디","tel":"031-947-8254","addr":"경기도 파주시 금촌동 253-5번지","indutype":"보건위생 - 기타대인서비스","category":"beauty"},{"name":"에스앤에스스킨케어","tel":"031-946-4475","addr":"경기도 파주시 금촌동 253-5번지","indutype":"보건위생 - 화장품","category":"beauty"},{"name":"지선씨네일","tel":"031-942-1234","addr":"경기도 파주시 금촌동 253-5번지","indutype":"보건위생 - 피부미용실","category":"beauty"},{"name":"카라헤어","tel":"031-944-0140","addr":"경기도 파주시 금촌동 253-5번지","indutype":"보건위생 - 미용원","category":"beauty"}]},{"lat":"37.761283394","long":"126.76770797","imageIndex":13,"items":[{"name":"국제최면심리건강바디연구원","tel":"031-939-1557","addr":"경기도 파주시 금촌동 495-15번지","indutype":"보건위생 - 기타대인서비스","category":"beauty"}]},{"lat":"37.762896092","long":"126.77226503","imageIndex":13,"items":[{"name":"굿모닝안경콘택트","tel":"031-945-0999","addr":"경기도 파주시 금촌동 324-14번지","indutype":"보건위생 - 안경","category":"beauty"}]},{"lat":"37.752035959","long":"126.76587633","imageIndex":13,"items":[{"name":"글라스스토리","tel":"031-944-0050","addr":"경기도 파주시 금촌동 986-1번지","indutype":"보건위생 - 안경","category":"beauty"}]},{"lat":"37.755393557","long":"126.76890676","imageIndex":13,"items":[{"name":"기분좋은날제이앤티헤어","tel":"031-948-0433","addr":"경기도 파주시 금촌동 237-1번지","indutype":"보건위생 - 미용원","category":"beauty"},{"name":"두배빼금촌점","tel":"031-942-8249","addr":"경기도 파주시 금촌동 237-1번지","indutype":"보건위생 - 피부미용실","category":"beauty"},{"name":"바비헤어","tel":"070-4207-3971","addr":"경기도 파주시 금촌동 237-1번지","indutype":"보건위생 - 미용원","category":"beauty"},{"name":"이수영헤어&스킨케어","tel":"031-949-2228","addr":"경기도 파주시 금촌동 237-1번지 외5필지 베스트프라자 305호","indutype":"보건위생 - 미용원","category":"beauty"}]},{"lat":"37.751227338","long":"126.7669909","imageIndex":13,"items":[{"name":"기억헤어","tel":"031-942-7757","addr":"경기도 파주시 금촌동 990-1번지","indutype":"보건위생 - 미용원","category":"beauty"}]},{"lat":"37.763260097","long":"126.77412509","imageIndex":13,"items":[{"name":"기역헤어 (ㄱ헤어)","tel":"031-943-5538","addr":"경기도 파주시 금촌동 60-19번지","indutype":"보건위생 - 미용원","category":"beauty"}]},{"lat":"37.762922186","long":"126.77178831","imageIndex":13,"items":[{"name":"김소영헤어","tel":"031-942-8772","addr":"경기도 파주시 금촌동 328-8번지","indutype":"보건위생 - 미용원","category":"beauty"}]},{"lat":"37.757480874","long":"126.77200949","imageIndex":13,"items":[{"name":"김효정헤어클리닉","tel":"031-946-8354","addr":"경기도 파주시 금촌동 959-6번지","indutype":"보건위생 - 이용원","category":"beauty"}]},{"lat":"37.748757369","long":"126.77084521","imageIndex":13,"items":[{"name":"끄레아쥬","tel":"031-948-5015","addr":"경기도 파주시 금촌동 1019번지 서원마을뜨란채","indutype":"보건위생 - 미용원","category":"beauty"}]},{"lat":"37.75628197","long":"126.77168414","imageIndex":13,"items":[{"name":"끌레르뽀보떼","tel":"032-000-0000","addr":"경기도 파주시 금촌동 251-5번지","indutype":"보건위생 - 피부미용실","category":"beauty"}]},{"lat":"37.770532219","long":"126.77487448","imageIndex":13,"items":[{"name":"나드리헤어샵","tel":"031-943-0619","addr":"경기도 파주시 금촌동 11-25번지","indutype":"보건위생 - 미용원","category":"beauty"},{"name":"더예쁨헤어","tel":"031-941-2955","addr":"경기도 파주시 금촌동 11-25번지","indutype":"보건위생 - 미용원","category":"beauty"},{"name":"봄'S 스킨&바디","tel":"031-945-8131","addr":"경기도 파주시 금촌동 11-25번지","indutype":"보건위생 - 피부미용실","category":"beauty"}]},{"lat":"37.757534664","long":"126.77187315","imageIndex":13,"items":[{"name":"나민경 It's hair","tel":"031-947-6113","addr":"경기도 파주시 금촌동 959-4번지","indutype":"보건위생 - 미용원","category":"beauty"}]},{"lat":"37.75592012","long":"126.77093632","imageIndex":13,"items":[{"name":"남자만들기","tel":"031-957-7382","addr":"경기도 파주시 금촌동 246-45번지","indutype":"보건위생 - 미용원","category":"beauty"}]},{"lat":"37.757786172","long":"126.77148654","imageIndex":13,"items":[{"name":"내미모에죽지마라","tel":"031-943-1675","addr":"경기도 파주시 금촌동 944-28번지","indutype":"보건위생 - 피부미용실","category":"beauty"},{"name":"시온헤어","tel":"031-111-1111","addr":"경기도 파주시 금촌동 944-28번지","indutype":"보건위생 - 미용원","category":"beauty"}]},{"lat":"37.763116694","long":"126.77451139","imageIndex":13,"items":[{"name":"네이처리퍼블릭 금촌점","tel":"031-941-6424","addr":"경기도 파주시 금촌동 62-2번지","indutype":"보건위생 - 화장품","category":"beauty"},{"name":"아리따움 금촌","tel":"031-947-1386","addr":"경기도 파주시 금촌동 62-2번지","indutype":"보건위생 - 화장품","category":"beauty"}]},{"lat":"37.755421271","long":"126.77384285","imageIndex":13,"items":[{"name":"네일 빛나다","tel":"","addr":"경기도 파주시 금촌동 953-9번지","indutype":"보건위생 - 피부미용실","category":"beauty"},{"name":"썬뷰티헤어","tel":"031-946-7776","addr":"경기도 파주시 금촌동 953-9번지","indutype":"보건위생 - 미용원","category":"beauty"},{"name":"해피케어","tel":"031-914-3579","addr":"경기도 파주시 금촌동 953-9번지","indutype":"보건위생 - 기타대인서비스","category":"beauty"}]},{"lat":"37.762065852","long":"126.77620556","imageIndex":13,"items":[{"name":"네일갤러리","tel":"070-8803-7311","addr":"경기도 파주시 금촌동 56-60번지","indutype":"보건위생 - 피부미용실","category":"beauty"}]},{"lat":"37.762288308","long":"126.77476361","imageIndex":13,"items":[{"name":"네일도 사랑해","tel":"02-1544-1731","addr":"경기도 파주시 금촌동 66-2번지","indutype":"보건위생 - 피부미용실","category":"beauty"},{"name":"에뛰드하우스신금촌점","tel":"031-943-6090","addr":"경기도 파주시 금촌동 66-2번지","indutype":"보건위생 - 화장품","category":"beauty"}]},{"lat":"37.761703066","long":"126.77495833","imageIndex":13,"items":[{"name":"네일앤스킨케어","tel":"031-942-7533","addr":"경기도 파주시 금촌동 67-4번지","indutype":"보건위생 - 피부미용실","category":"beauty"},{"name":"예쁜속눈썹","tel":"031-948-9555","addr":"경기도 파주시 금촌동 67-4번지","indutype":"보건위생 - 미용원","category":"beauty"}]},{"lat":"37.770226819","long":"126.77073274","imageIndex":13,"items":[{"name":"노블랜드미용실","tel":"031-947-8746","addr":"경기도 파주시 금촌동 1015번지 대방노블랜드아파트","indutype":"보건위생 - 미용원","category":"beauty"}]},{"lat":"37.760530166","long":"126.77409946","imageIndex":13,"items":[{"name":"누가베스트파주점","tel":"031-944-4041","addr":"경기도 파주시 금촌동 74-1번지","indutype":"보건위생 - 의료용품","category":"beauty"}]},{"lat":"37.762176954","long":"126.77309571","imageIndex":13,"items":[{"name":"뉴빅사우나","tel":"031-942-6607","addr":"경기도 파주시 금촌동 64-60번지","indutype":"보건위생 - 사우나","category":"beauty"},{"name":"뉴빅사우나/주식회사 앰유","tel":"031-947-0882","addr":"경기도 파주시 금촌동 64-60번지","indutype":"보건위생 - 사우나","category":"beauty"}]},{"lat":"37.762954634","long":"126.77456863","imageIndex":13,"items":[{"name":"다올피부관리실","tel":"031-957-7875","addr":"경기도 파주시 금촌동 62-15번지","indutype":"보건위생 - 피부미용실","category":"beauty"}]},{"lat":"37.761421463","long":"126.77376761","imageIndex":13,"items":[{"name":"대각불교조계종 대월사","tel":"031-943-3866","addr":"경기도 파주시 금촌동 70-10번지","indutype":"보건위생 - 기타대인서비스","category":"beauty"}]},{"lat":"37.755948929","long":"126.77648522","imageIndex":13,"items":[{"name":"대미플러스","tel":"031-949-0415","addr":"경기도 파주시 금촌동 786-23번지 파주음료 102호","indutype":"보건위생 - 미용재료","category":"beauty"}]},{"lat":"37.756563263","long":"126.77270456","imageIndex":13,"items":[{"name":"대원상사(이오니아)","tel":"031-8071-0778","addr":"경기도 파주시 금촌동 957-4번지","indutype":"보건위생 - 의료용품","category":"beauty"}]},{"lat":"37.760150025","long":"126.77320411","imageIndex":13,"items":[{"name":"대한신교 천신종 천태신당","tel":"","addr":"경기도 파주시 금촌동 305-26번지","indutype":"보건위생 - 기타대인서비스","category":"beauty"}]},{"lat":"37.758560116","long":"126.77104156","imageIndex":13,"items":[{"name":"더예쁜아이","tel":"","addr":"경기도 파주시 금촌동 940-5번지","indutype":"보건위생 - 피부미용실","category":"beauty"}]},{"lat":"37.757786706","long":"126.77175889","imageIndex":13,"items":[{"name":"더채움","tel":"031-947-3869","addr":"경기도 파주시 금촌동 944-25번지","indutype":"보건위생 - 피부미용실","category":"beauty"},{"name":"예쁜피부","tel":"031-947-3869","addr":"경기도 파주시 금촌동 944-25번지","indutype":"보건위생 - 화장품","category":"beauty"},{"name":"준헤어","tel":"031-945-2949","addr":"경기도 파주시 금촌동 944-25번지","indutype":"보건위생 - 미용원","category":"beauty"}]},{"lat":"37.751536084","long":"126.76820404","imageIndex":13,"items":[{"name":"더페이스샵","tel":"031-949-1688","addr":"경기도 파주시 금촌동 989-6번지","indutype":"보건위생 - 화장품","category":"beauty"},{"name":"토토뷰티","tel":"031-941-8081","addr":"경기도 파주시 금촌동 989-6번지","indutype":"보건위생 - 화장품","category":"beauty"},{"name":"토토헤어","tel":"031-941-8081","addr":"경기도 파주시 금촌동 989-6번지","indutype":"보건위생 - 미용원","category":"beauty"}]},{"lat":"37.75584161","long":"126.7816487","imageIndex":13,"items":[{"name":"도도헤어","tel":"031-957-3007","addr":"경기도 파주시 금촌동 795-5번지","indutype":"보건위생 - 미용원","category":"beauty"}]},{"lat":"37.76286454","long":"126.77456891","imageIndex":13,"items":[{"name":"독일안경","tel":"031-941-2347","addr":"경기도 파주시 금촌동 62-17번지","indutype":"보건위생 - 안경","category":"beauty"}]},{"lat":"37.75725504","long":"126.77634506","imageIndex":13,"items":[{"name":"동네미장원","tel":"","addr":"경기도 파주시 금촌동 774-19번지","indutype":"보건위생 - 미용원","category":"beauty"}]},{"lat":"37.762144266","long":"126.77482079","imageIndex":13,"items":[{"name":"디자인바이김태희 (Design by kimtaehee)","tel":"031-937-8870","addr":"경기도 파주시 금촌동 66-4번지","indutype":"보건위생 - 미용원","category":"beauty"}]},{"lat":"37.770532592","long":"126.77506743","imageIndex":13,"items":[{"name":"뚜바비앙","tel":"02-1111-1111","addr":"경기도 파주시 금촌동 11-18번지","indutype":"보건위생 - 미용원","category":"beauty"}]},{"lat":"37.75786612","long":"126.77090755","imageIndex":13,"items":[{"name":"럭키건강","tel":"031-944-4012","addr":"경기도 파주시 금촌동 944-31번지","indutype":"보건위생 - 화장품","category":"beauty"},{"name":"아모레","tel":"031-941-4631","addr":"경기도 파주시 금촌동 944-31번지","indutype":"보건위생 - 화장품","category":"beauty"},{"name":"아모레","tel":"031-941-4631","addr":"경기도 파주시 금촌동 944-31번지","indutype":"보건위생 - 화장품","category":"beauty"},{"name":"아모레(노부숙)","tel":"031-943-5057","addr":"경기도 파주시 금촌동 944-31번지","indutype":"보건위생 - 화장품","category":"beauty"},{"name":"아모레외판","tel":"031-943-5057","addr":"경기도 파주시 금촌동 944-31번지","indutype":"보건위생 - 화장품","category":"beauty"},{"name":"아모레카운셀러","tel":"031-941-4631","addr":"경기도 파주시 금촌동 944-31번지","indutype":"보건위생 - 화장품","category":"beauty"},{"name":"아모레카운셀러","tel":"031-941-4631","addr":"경기도 파주시 금촌동 944-31번지","indutype":"보건위생 - 화장품","category":"beauty"},{"name":"아모레카운셀러","tel":"031-941-4631","addr":"경기도 파주시 금촌동 944-31번지","indutype":"보건위생 - 화장품","category":"beauty"},{"name":"아모레카운셀러","tel":"031-941-4631","addr":"경기도 파주시 금촌동 944-31번지","indutype":"보건위생 - 화장품","category":"beauty"},{"name":"아모레카운셀러","tel":"031-941-4631","addr":"경기도 파주시 금촌동 944-31번지","indutype":"보건위생 - 화장품","category":"beauty"},{"name":"아모레카운셀러","tel":"031-941-4631","addr":"경기도 파주시 금촌동 944-31번지","indutype":"보건위생 - 화장품","category":"beauty"},{"name":"아모레카운셀러","tel":"031-941-4631","addr":"경기도 파주시 금촌동 944-31번지","indutype":"보건위생 - 화장품","category":"beauty"},{"name":"아모레카운셀러","tel":"","addr":"경기도 파주시 금촌동 944-31번지","indutype":"보건위생 - 화장품","category":"beauty"},{"name":"아모레카운셀러","tel":"031-941-4631","addr":"경기도 파주시 금촌동 인오프라자 4층","indutype":"보건위생 - 화장품","category":"beauty"},{"name":"아모레카운셀러","tel":"031-941-4631","addr":"경기도 파주시 금촌동 944-31번지","indutype":"보건위생 - 화장품","category":"beauty"},{"name":"아모레카운셀러","tel":"031-943-9506","addr":"경기도 파주시 금촌동 944-31번지","indutype":"보건위생 - 화장품","category":"beauty"},{"name":"아모레카운셀러","tel":"031-941-4631","addr":"경기도 파주시 금촌동 944-31번지","indutype":"보건위생 - 화장품","category":"beauty"},{"name":"아모레카운셀러 (외판)","tel":"031-941-4631","addr":"경기도 파주시 금촌동 944-31번지","indutype":"보건위생 - 화장품","category":"beauty"},{"name":"아모레카운셀러(외판)","tel":"031-941-4631","addr":"경기도 파주시 금촌동 944-31번지","indutype":"보건위생 - 화장품","category":"beauty"},{"name":"아모레카운셀러(외판)","tel":"031-941-4631","addr":"경기도 파주시 금촌동 944-31번지","indutype":"보건위생 - 화장품","category":"beauty"},{"name":"아모레카운셀러(외판)","tel":"031-941-4631","addr":"경기도 파주시 금촌동 944-31번지","indutype":"보건위생 - 화장품","category":"beauty"},{"name":"아모레카운셀러(외판)","tel":"031-941-4631","addr":"경기도 파주시 금촌동 944-31번지","indutype":"보건위생 - 화장품","category":"beauty"},{"name":"아모레카운셀러(외판)","tel":"031-941-4631","addr":"경기도 파주시 금촌동 944-31번지","indutype":"보건위생 - 화장품","category":"beauty"},{"name":"아모레카운셀러(외판)","tel":"031-941-4631","addr":"경기도 파주시 금촌동 944-31번지","indutype":"보건위생 - 화장품","category":"beauty"},{"name":"아모레카운셀러(외판)","tel":"031-941-4631","addr":"경기도 파주시 금촌동 944-31번지","indutype":"보건위생 - 화장품","category":"beauty"},{"name":"아모레카운셀러(외판)","tel":"031-943-9506","addr":"경기도 파주시 금촌동 944-31번지","indutype":"보건위생 - 화장품","category":"beauty"},{"name":"아모레카운셀러(외판)","tel":"031-941-4631","addr":"경기도 파주시 금촌동 944-31번지","indutype":"보건위생 - 화장품","category":"beauty"},{"name":"아모레카운셀러(외판)","tel":"031-941-4631","addr":"경기도 파주시 금촌동 944-31번지","indutype":"보건위생 - 화장품","category":"beauty"},{"name":"아모레카운셀러(외판)","tel":"031-941-4631","addr":"경기도 파주시 금촌동 944-31번지","indutype":"보건위생 - 화장품","category":"beauty"},{"name":"아모레카운셀러(외판)","tel":"031-941-4631","addr":"경기도 파주시 금촌동 944-31번지","indutype":"보건위생 - 화장품","category":"beauty"},{"name":"아모레카운셀러(외판)","tel":"031-941-4631","addr":"경기도 파주시 금촌동 944-31번지","indutype":"보건위생 - 화장품","category":"beauty"},{"name":"아모레카운셀러(외판)","tel":"031-941-4631","addr":"경기도 파주시 금촌동 944-31번지","indutype":"보건위생 - 화장품","category":"beauty"},{"name":"아모레카운셀러(외판)","tel":"031-941-4631","addr":"경기도 파주시 금촌동 944-31번지","indutype":"보건위생 - 화장품","category":"beauty"},{"name":"아모레카운셀러(외판)","tel":"031-941-4631","addr":"경기도 파주시 금촌동 944-31번지","indutype":"보건위생 - 화장품","category":"beauty"},{"name":"아모레카운셀러외판","tel":"031-941-4631","addr":"경기도 파주시 금촌동 944-31번지","indutype":"보건위생 - 화장품","category":"beauty"},{"name":"아모레퍼시픽","tel":"031-941-4631","addr":"경기도 파주시 금촌동 944-31번지","indutype":"보건위생 - 화장품","category":"beauty"}]},{"lat":"37.763649394","long":"126.77509989","imageIndex":13,"items":[{"name":"렌즈미아이글라스 금촌점","tel":"031-941-1129","addr":"경기도 파주시 금촌동 51-16번지","indutype":"보건위생 - 안경","category":"beauty"},{"name":"미유헤어","tel":"031-945-9430","addr":"경기도 파주시 금촌동 51-16번지","indutype":"보건위생 - 미용원","category":"beauty"}]},{"lat":"37.751534817","long":"126.76756862","imageIndex":13,"items":[{"name":"로즈","tel":"","addr":"경기도 파주시 금촌동 989-4번지","indutype":"보건위생 - 기타대인서비스","category":"beauty"}]},{"lat":"37.75083909","long":"126.7665723","imageIndex":13,"items":[{"name":"르네셀","tel":"031-944-0401","addr":"경기도 파주시 금촌동 986-5번지","indutype":"보건위생 - 화장품","category":"beauty"},{"name":"아이드림발달센터","tel":"","addr":"경기도 파주시 금촌동 986-5번지","indutype":"보건위생 - 기타대인서비스","category":"beauty"},{"name":"예쁘디파주점","tel":"031-942-2893","addr":"경기도 파주시 금촌동 986-5번지","indutype":"보건위생 - 화장품","category":"beauty"}]},{"lat":"37.752094784","long":"126.76825901","imageIndex":13,"items":[{"name":"르블랑헤어쌀롱","tel":"","addr":"경기도 파주시 금촌동 988-7번지","indutype":"보건위생 - 미용원","category":"beauty"},{"name":"미(  ) 아름다운 사람","tel":"070-8156-3863","addr":"경기도 파주시 금촌동 988-7번지","indutype":"보건위생 - 미용원","category":"beauty"},{"name":"왁싱바이더문","tel":"031-943-9008","addr":"경기도 파주시 금촌동 988-7번지","indutype":"보건위생 - 기타대인서비스","category":"beauty"}]},{"lat":"37.759341291","long":"126.77429604","imageIndex":13,"items":[{"name":"르비쥬","tel":"031-947-6377","addr":"경기도 파주시 금촌동 947-20번지","indutype":"보건위생 - 피부미용실","category":"beauty"}]},{"lat":"37.756037847","long":"126.76670329","imageIndex":13,"items":[{"name":"리나헤어","tel":"031-947-8407","addr":"경기도 파주시 금촌동 972번지 새꽃마을뜨란채","indutype":"보건위생 - 화장품","category":"beauty"},{"name":"민에스테틱","tel":"031-945-8441","addr":"경기도 파주시 금촌동 972번지 새꽃마을뜨란채","indutype":"보건위생 - 화장품","category":"beauty"},{"name":"진헤어","tel":"031-944-5008","addr":"경기도 파주시 금촌동 972번지 새꽃마을뜨란채","indutype":"보건위생 - 미용원","category":"beauty"},{"name":"참조은복지용구","tel":"031-957-8440","addr":"경기도 파주시 금촌동 972번지 새꽃마을뜨란채","indutype":"보건위생 - 의료용품","category":"beauty"},{"name":"헤어로맨스","tel":"","addr":"경기도 파주시 금촌동 972번지 새꽃마을뜨란채","indutype":"보건위생 - 미용원","category":"beauty"}]},{"lat":"37.757225822","long":"126.77059181","imageIndex":13,"items":[{"name":"리본헤어","tel":"031-943-7773","addr":"경기도 파주시 금촌동 960-7번지","indutype":"보건위생 - 미용원","category":"beauty"}]},{"lat":"37.755117763","long":"126.77529626","imageIndex":13,"items":[{"name":"린다","tel":"070-8883-2613","addr":"경기도 파주시 금촌동 802-7번지","indutype":"보건위생 - 화장품","category":"beauty"}]},{"lat":"37.759065265","long":"126.77598775","imageIndex":13,"items":[{"name":"마임)금촌운정지사","tel":"031-548-3876","addr":"경기도 파주시 금촌동 765-19번지","indutype":"보건위생 - 화장품","category":"beauty"},{"name":"아모레 카운셀러","tel":"031-943-9506","addr":"경기도 파주시 금촌동 765-19번지","indutype":"보건위생 - 화장품","category":"beauty"},{"name":"아모레 카운셀러","tel":"031-934-9506","addr":"경기도 파주시 금촌동 765-19번지","indutype":"보건위생 - 화장품","category":"beauty"},{"name":"아모레 카운셀러","tel":"031-943-9506","addr":"경기도 파주시 금촌동 765-19번지","indutype":"보건위생 - 화장품","category":"beauty"},{"name":"아모레 카운셀러","tel":"031-943-9506","addr":"경기도 파주시 금촌동 765-19번지","indutype":"보건위생 - 화장품","category":"beauty"},{"name":"아모레 카운셀러","tel":"031-943-9506","addr":"경기도 파주시 금촌동 765-19번지","indutype":"보건위생 - 화장품","category":"beauty"},{"name":"아모레 카운셀러","tel":"031-943-9506","addr":"경기도 파주시 금촌동 765-19번지","indutype":"보건위생 - 화장품","category":"beauty"},{"name":"아모레카운셀러","tel":"031-943-9507","addr":"경기도 파주시 금촌동 765-19번지","indutype":"보건위생 - 화장품","category":"beauty"},{"name":"아모레카운셀러","tel":"031-943-9507","addr":"경기도 파주시 금촌동 765-19번지","indutype":"보건위생 - 화장품","category":"beauty"},{"name":"아모레카운셀러","tel":"031-943-9507","addr":"경기도 파주시 금촌동 765-19번지","indutype":"보건위생 - 화장품","category":"beauty"},{"name":"아모레카운셀러","tel":"031-943-9507","addr":"경기도 파주시 금촌동 765-19번지","indutype":"보건위생 - 화장품","category":"beauty"},{"name":"아모레카운셀러","tel":"031-943-9507","addr":"경기도 파주시 금촌동 765-19번지","indutype":"보건위생 - 화장품","category":"beauty"},{"name":"아모레카운셀러","tel":"031-943-9507","addr":"경기도 파주시 금촌동 765-19번지","indutype":"보건위생 - 화장품","category":"beauty"},{"name":"아모레카운셀러","tel":"031-943-9507","addr":"경기도 파주시 금촌동 765-19번지","indutype":"보건위생 - 화장품","category":"beauty"},{"name":"아모레카운셀러","tel":"031-943-9506","addr":"경기도 파주시 금촌동 765-19번지","indutype":"보건위생 - 화장품","category":"beauty"},{"name":"아모레카운셀러","tel":"031-943-9507","addr":"경기도 파주시 금촌동 765-19번지","indutype":"보건위생 - 화장품","category":"beauty"},{"name":"아모레카운셀러","tel":"031-943-9506","addr":"경기도 파주시 금촌동 765-19번지","indutype":"보건위생 - 화장품","category":"beauty"},{"name":"아모레카운셀러","tel":"031-943-9507","addr":"경기도 파주시 금촌동 765-19번지","indutype":"보건위생 - 화장품","category":"beauty"},{"name":"아모레카운셀러","tel":"031-943-9507","addr":"경기도 파주시 금촌동 765-19번지","indutype":"보건위생 - 화장품","category":"beauty"},{"name":"아모레카운셀러","tel":"031-943-9507","addr":"경기도 파주시 금촌동 765-19번지","indutype":"보건위생 - 화장품","category":"beauty"},{"name":"아모레카운셀러","tel":"031-943-9506","addr":"경기도 파주시 금촌동 765-19번지","indutype":"보건위생 - 화장품","category":"beauty"},{"name":"아모레카운셀러","tel":"031-943-9507","addr":"경기도 파주시 금촌동 765-19번지","indutype":"보건위생 - 화장품","category":"beauty"},{"name":"아모레카운셀러","tel":"031-943-9507","addr":"경기도 파주시 금촌동 765-19번지","indutype":"보건위생 - 화장품","category":"beauty"},{"name":"아모레카운셀러","tel":"031-943-9507","addr":"경기도 파주시 금촌동 765-19번지","indutype":"보건위생 - 화장품","category":"beauty"},{"name":"아모레카운셀러","tel":"031-943-9506","addr":"경기도 파주시 금촌동 765-19번지","indutype":"보건위생 - 화장품","category":"beauty"},{"name":"아모레카운셀러","tel":"031-943-9507","addr":"경기도 파주시 금촌동 765-19번지","indutype":"보건위생 - 화장품","category":"beauty"},{"name":"아모레카운셀러","tel":"031-943-9507","addr":"경기도 파주시 금촌동 765-19번지","indutype":"보건위생 - 화장품","category":"beauty"},{"name":"아모레카운셀러","tel":"031-943-9506","addr":"경기도 파주시 금촌동 765-19번지","indutype":"보건위생 - 화장품","category":"beauty"},{"name":"아모레카운셀러","tel":"031-943-9507","addr":"경기도 파주시 금촌동 765-19번지","indutype":"보건위생 - 화장품","category":"beauty"},{"name":"아모레카운셀러","tel":"031-943-9506","addr":"경기도 파주시 금촌동 765-19번지","indutype":"보건위생 - 화장품","category":"beauty"},{"name":"아모레카운셀러","tel":"031-943-9506","addr":"경기도 파주시 금촌동 765-19번지","indutype":"보건위생 - 화장품","category":"beauty"},{"name":"아모레카운셀러","tel":"031-943-9507","addr":"경기도 파주시 금촌동 765-19번지","indutype":"보건위생 - 화장품","category":"beauty"},{"name":"아모레카운셀러(외판)","tel":"031-943-9506","addr":"경기도 파주시 금촌동 765-19번지","indutype":"보건위생 - 화장품","category":"beauty"},{"name":"아모레퍼시픽","tel":"031-943-9506","addr":"경기도 파주시 금촌동 765-19번지","indutype":"보건위생 - 화장품","category":"beauty"},{"name":"아모레퍼시픽","tel":"031-943-9507","addr":"경기도 파주시 금촌동 765-19번지","indutype":"보건위생 - 화장품","category":"beauty"},{"name":"아모레퍼시픽","tel":"031-943-9506","addr":"경기도 파주시 금촌동 765-19번지","indutype":"보건위생 - 화장품","category":"beauty"},{"name":"제이헤어포스(J Hair Foss)","tel":"031-946-8340","addr":"경기도 파주시 금촌동 765-19번지","indutype":"보건위생 - 미용원","category":"beauty"},{"name":"힐링(파주)","tel":"031-948-8207","addr":"경기도 파주시 금촌동 765-19번지","indutype":"보건위생 - 화장품","category":"beauty"}]},{"lat":"37.751533433","long":"126.76687646","imageIndex":13,"items":[{"name":"맨투맨","tel":"031-947-9756","addr":"경기도 파주시 금촌동 989-1번지","indutype":"보건위생 - 미용원","category":"beauty"},{"name":"바바헤어 금릉점","tel":"031-957-0040","addr":"경기도 파주시 금촌동 989-1번지","indutype":"보건위생 - 미용원","category":"beauty"}]},{"lat":"37.757983474","long":"126.77565062","imageIndex":13,"items":[{"name":"머리애(  )","tel":"031-942-2915","addr":"경기도 파주시 금촌동 948-11번지","indutype":"보건위생 - 미용원","category":"beauty"}]},{"lat":"37.76073079","long":"126.77534716","imageIndex":13,"items":[{"name":"메디세라(금촌점)","tel":"031-943-1944","addr":"경기도 파주시 금촌동 71-5번지","indutype":"보건위생 - 의료용품","category":"beauty"},{"name":"준헤어","tel":"031-954-2949","addr":"경기도 파주시 금촌동 71-5번지","indutype":"보건위생 - 미용원","category":"beauty"}]},{"lat":"37.757506077","long":"126.78042953","imageIndex":13,"items":[{"name":"모나리자","tel":"031-957-2805","addr":"경기도 파주시 금촌동 781-2번지 동현아파트","indutype":"보건위생 - 미용원","category":"beauty"},{"name":"피부를 부탁해","tel":"","addr":"경기도 파주시 금촌동 781-2번지 동현아파트","indutype":"보건위생 - 화장품","category":"beauty"}]},{"lat":"37.76400918","long":"126.77479237","imageIndex":13,"items":[{"name":"모델헤어ONE","tel":"031-948-9439","addr":"경기도 파주시 금촌동 44-21번지","indutype":"보건위생 - 미용원","category":"beauty"},{"name":"안경마을","tel":"031-8070-1499","addr":"경기도 파주시 금촌동 44-21번지","indutype":"보건위생 - 안경","category":"beauty"}]},{"lat":"37.755455364","long":"126.77284416","imageIndex":13,"items":[{"name":"미래헤어샵","tel":"031-947-6254","addr":"경기도 파주시 금촌동 956-9번지","indutype":"보건위생 - 미용원","category":"beauty"}]},{"lat":"37.763008691","long":"126.77456847","imageIndex":13,"items":[{"name":"미샤","tel":"031-943-9741","addr":"경기도 파주시 금촌동 62-36번지","indutype":"보건위생 - 화장품","category":"beauty"}]},{"lat":"37.75534224","long":"126.77029132","imageIndex":13,"items":[{"name":"미샵네일","tel":"031-946-9995","addr":"경기도 파주시 금촌동 235-1번지","indutype":"보건위생 - 피부미용실","category":"beauty"},{"name":"미샵피부","tel":"031-946-9995","addr":"경기도 파주시 금촌동 235-1번지","indutype":"보건위생 - 피부미용실","category":"beauty"},{"name":"아름다운 헤어","tel":"031-941-0880","addr":"경기도 파주시 금촌동 235-1번지","indutype":"보건위생 - 미용원","category":"beauty"},{"name":"헤어리","tel":"031-949-4140","addr":"경기도 파주시 금촌동 235-1번지 주공프라자 110호","indutype":"보건위생 - 미용원","category":"beauty"}]},{"lat":"37.759894878","long":"126.77637106","imageIndex":13,"items":[{"name":"미소네일(MisoNail)","tel":"031-949-4185","addr":"경기도 파주시 금촌동 767-1번지","indutype":"보건위생 - 피부미용실","category":"beauty"},{"name":"뷰티미용실","tel":"031-946-1665","addr":"경기도 파주시 금촌동 767-1번지","indutype":"보건위생 - 미용원","category":"beauty"},{"name":"한빛","tel":"031-941-3922","addr":"경기도 파주시 금촌동 767-1번지","indutype":"보건위생 - 화장품","category":"beauty"}]},{"lat":"37.752338062","long":"126.76826959","imageIndex":13,"items":[{"name":"미인본가","tel":"031-957-5528","addr":"경기도 파주시 금촌동 988-8번지","indutype":"보건위생 - 피부미용실","category":"beauty"},{"name":"우리미용상사","tel":"031-957-8002","addr":"경기도 파주시 금촌동 988-8번지","indutype":"보건위생 - 미용재료","category":"beauty"},{"name":"조앤킴에스테틱","tel":"031-946-7444","addr":"경기도 파주시 금촌동 988-8번지","indutype":"보건위생 - 화장품","category":"beauty"},{"name":"주식회사한마음희망나눔센터","tel":"031-946-0069","addr":"경기도 파주시 금촌동 988-8번지","indutype":"보건위생 - 기타대인서비스","category":"beauty"},{"name":"지니헤어","tel":"031-947-3999","addr":"경기도 파주시 금촌동 988-8번지","indutype":"보건위생 - 미용원","category":"beauty"},{"name":"쿨헤어미용실","tel":"031-957-3399","addr":"경기도 파주시 금촌동 988-8번지 금촌클리닉센터 114호","indutype":"보건위생 - 미용원","category":"beauty"}]},{"lat":"37.756148561","long":"126.77256967","imageIndex":13,"items":[{"name":"미투헤어","tel":"031-941-1274","addr":"경기도 파주시 금촌동 257번지","indutype":"보건위생 - 미용원","category":"beauty"}]},{"lat":"37.76319756","long":"126.77439766","imageIndex":13,"items":[{"name":"바비네일","tel":"031-945-6540","addr":"경기도 파주시 금촌동 62-1번지","indutype":"보건위생 - 피부미용실","category":"beauty"}]},{"lat":"37.764226591","long":"126.77540454","imageIndex":13,"items":[{"name":"박찬욱헤어존","tel":"031-941-0973","addr":"경기도 파주시 금촌동 50-26번지","indutype":"보건위생 - 미용원","category":"beauty"}]},{"lat":"37.755535163","long":"126.77218575","imageIndex":13,"items":[{"name":"벨라","tel":"031-947-0921","addr":"경기도 파주시 금촌동 234-17번지 두보아파트","indutype":"보건위생 - 미용원","category":"beauty"}]},{"lat":"37.761593282","long":"126.77409618","imageIndex":13,"items":[{"name":"복음의료기(금촌점)","tel":"031-941-6226","addr":"경기도 파주시 금촌동 70-1번지","indutype":"보건위생 - 의료용품","category":"beauty"}]},{"lat":"37.763204849","long":"126.77351243","imageIndex":13,"items":[{"name":"뷰네일 (view)","tel":"031-946-5365","addr":"경기도 파주시 금촌동 325-11번지","indutype":"보건위생 - 피부미용실","category":"beauty"}]},{"lat":"37.757479694","long":"126.77140806","imageIndex":13,"items":[{"name":"뷰티모아 (대하마트)금촌점","tel":"","addr":"경기도 파주시 금촌동 959-2번지","indutype":"보건위생 - 화장품","category":"beauty"}]},{"lat":"37.751868167","long":"126.76756756","imageIndex":13,"items":[{"name":"뷰티스토리","tel":"031-946-9832","addr":"경기도 파주시 금촌동 988-4번지","indutype":"보건위생 - 피부미용실","category":"beauty"},{"name":"오렌즈 파주금촌점","tel":"031-948-1100","addr":"경기도 파주시 금촌동 988-4번지","indutype":"보건위생 - 안경","category":"beauty"}]},{"lat":"37.759558903","long":"126.7750103","imageIndex":13,"items":[{"name":"뷰티초이스","tel":"031-945-0037","addr":"경기도 파주시 금촌동 764-2번지","indutype":"보건위생 - 미용원","category":"beauty"}]},{"lat":"37.756204538","long":"126.77823198","imageIndex":13,"items":[{"name":"뷰티헤어","tel":"031-944-0788","addr":"경기도 파주시 금촌동 785-10번지","indutype":"보건위생 - 미용원","category":"beauty"}]},{"lat":"37.758502429","long":"126.76920336","imageIndex":13,"items":[{"name":"비즈리모","tel":"","addr":"경기도 파주시 금촌동 942-14번지","indutype":"보건위생 - 기타대인서비스","category":"beauty"}]},{"lat":"37.764927066","long":"126.77423345","imageIndex":13,"items":[{"name":"사임당화장품","tel":"031-957-4208","addr":"경기도 파주시 금촌동 329-33번지","indutype":"보건위생 - 화장품","category":"beauty"}]},{"lat":"37.757784476","long":"126.77062411","imageIndex":13,"items":[{"name":"살롱드네이쳐","tel":"031-949-6361","addr":"경기도 파주시 금촌동 943-8번지","indutype":"보건위생 - 미용원","category":"beauty"}]},{"lat":"37.763093366","long":"126.77178777","imageIndex":13,"items":[{"name":"상아미용실","tel":"031-942-8352","addr":"경기도 파주시 금촌동 327-11번지","indutype":"보건위생 - 미용원","category":"beauty"}]},{"lat":"37.770975117","long":"126.77099145","imageIndex":13,"items":[{"name":"샤이니헤어","tel":"031-944-0572","addr":"경기도 파주시 금촌동 419-3번지","indutype":"보건위생 - 미용원","category":"beauty"}]},{"lat":"37.760982727","long":"126.77517616","imageIndex":13,"items":[{"name":"샹떼헤어","tel":"031-949-3883","addr":"경기도 파주시 금촌동 68-4번지","indutype":"보건위생 - 미용원","category":"beauty"},{"name":"캣츠아이","tel":"031-945-6541","addr":"경기도 파주시 금촌동 68-4번지","indutype":"보건위생 - 피부미용실","category":"beauty"}]},{"lat":"37.766256573","long":"126.7722319","imageIndex":13,"items":[{"name":"서광의수족보조기","tel":"031-945-9956","addr":"경기도 파주시 금촌동 369-5번지","indutype":"보건위생 - 의료용품","category":"beauty"}]},{"lat":"37.758452141","long":"126.77573997","imageIndex":13,"items":[{"name":"서완헤어스토리","tel":"031-943-1236","addr":"경기도 파주시 금촌동 772-2번지","indutype":"보건위생 - 미용원","category":"beauty"}]},{"lat":"37.760203684","long":"126.76842633","imageIndex":13,"items":[{"name":"서희헤어","tel":"","addr":"경기도 파주시 금촌동 288-26번지","indutype":"보건위생 - 미용원","category":"beauty"}]},{"lat":"37.764727955","long":"126.77376876","imageIndex":13,"items":[{"name":"선이고운에스테틱","tel":"031-957-6453","addr":"경기도 파주시 금촌동 329-11번지","indutype":"보건위생 - 화장품","category":"beauty"}]},{"lat":"37.7565088","long":"126.77715303","imageIndex":13,"items":[{"name":"수정미용실","tel":"031-944-5695","addr":"경기도 파주시 금촌동 786-11번지","indutype":"보건위생 - 미용원","category":"beauty"}]},{"lat":"37.75692367","long":"126.77737872","imageIndex":13,"items":[{"name":"수정탕","tel":"031-941-2562","addr":"경기도 파주시 금촌동 775-8번지","indutype":"보건위생 - 사우나","category":"beauty"},{"name":"헤어갤러리","tel":"031-948-8946","addr":"경기도 파주시 금촌동 775-8번지","indutype":"보건위생 - 미용원","category":"beauty"}]},{"lat":"37.763919788","long":"126.77515581","imageIndex":13,"items":[{"name":"쉬작헤어","tel":"031-957-5577","addr":"경기도 파주시 금촌동 50-32번지","indutype":"보건위생 - 미용원","category":"beauty"}]},{"lat":"37.757537696","long":"126.76884326","imageIndex":13,"items":[{"name":"쉬크헤어","tel":"031-945-7960","addr":"경기도 파주시 금촌동 961-1번지","indutype":"보건위생 - 미용원","category":"beauty"},{"name":"파로스안경","tel":"031-957-5544","addr":"경기도 파주시 금촌동 961-1번지","indutype":"보건위생 - 안경","category":"beauty"}]},{"lat":"37.764093743","long":"126.77659658","imageIndex":13,"items":[{"name":"시네마헤어센스","tel":"031-942-4949","addr":"경기도 파주시 금촌동 51-49번지","indutype":"보건위생 - 미용원","category":"beauty"},{"name":"초코숲헤어","tel":"031-939-0243","addr":"경기도 파주시 금촌동 51-49번지","indutype":"보건위생 - 미용원","category":"beauty"},{"name":"하나헤어","tel":"031-000-0000","addr":"경기도 파주시 금촌동 51-49번지 장안아파트3차","indutype":"보건위생 - 미용원","category":"beauty"}]},{"lat":"37.755368013","long":"126.76965577","imageIndex":13,"items":[{"name":"시크헤어","tel":"031-957-4577","addr":"경기도 파주시 금촌동 246-29번지","indutype":"보건위생 - 미용원","category":"beauty"}]},{"lat":"37.763585513","long":"126.77007257","imageIndex":13,"items":[{"name":"신신미용실","tel":"031-941-8889","addr":"경기도 파주시 금촌동 329-133번지","indutype":"보건위생 - 미용원","category":"beauty"}]},{"lat":"37.760703214","long":"126.77506353","imageIndex":13,"items":[{"name":"신정순미용실","tel":"031-946-5654","addr":"경기도 파주시 금촌동 71-9번지 장안아파트","indutype":"보건위생 - 미용원","category":"beauty"}]},{"lat":"37.76519812","long":"126.77462983","imageIndex":13,"items":[{"name":"신천지","tel":"031-941-9892","addr":"경기도 파주시 금촌동 329-19번지","indutype":"보건위생 - 기타대인서비스","category":"beauty"},{"name":"플러스","tel":"","addr":"경기도 파주시 금촌동 329-19번지","indutype":"보건위생 - 기타대인서비스","category":"beauty"}]},{"lat":"37.75572831","long":"126.77890293","imageIndex":13,"items":[{"name":"써니헤어샵","tel":"031-946-8014","addr":"경기도 파주시 금촌동 791-6번지","indutype":"보건위생 - 미용원","category":"beauty"}]},{"lat":"37.767451822","long":"126.77531522","imageIndex":13,"items":[{"name":"쎄븐미용실","tel":"031-941-1819","addr":"경기도 파주시 금촌동 27-13번지 103(103호~104호)","indutype":"보건위생 - 미용원","category":"beauty"}]},{"lat":"37.758590259","long":"126.77263019","imageIndex":13,"items":[{"name":"씨앤씨 (C&C)헤어","tel":"031-945-4580","addr":"경기도 파주시 금촌동 945-1번지","indutype":"보건위생 - 미용원","category":"beauty"},{"name":"아이비헤어","tel":"031-944-3629","addr":"경기도 파주시 금촌동 945-1번지","indutype":"보건위생 - 미용원","category":"beauty"}]},{"lat":"37.763396427","long":"126.77473751","imageIndex":13,"items":[{"name":"아르누보","tel":"","addr":"경기도 파주시 금촌동 54-66번지","indutype":"보건위생 - 미용원","category":"beauty"}]},{"lat":"37.764808819","long":"126.77365502","imageIndex":13,"items":[{"name":"아르망헤어","tel":"031-957-5088","addr":"경기도 파주시 금촌동 329-30번지","indutype":"보건위생 - 미용원","category":"beauty"}]},{"lat":"37.751867396","long":"126.76718177","imageIndex":13,"items":[{"name":"아리따움금릉로데오점","tel":"031-949-9777","addr":"경기도 파주시 금촌동 988-2번지","indutype":"보건위생 - 화장품","category":"beauty"},{"name":"토니모리 금릉점","tel":"031-959-4388","addr":"경기도 파주시 금촌동 988-2번지","indutype":"보건위생 - 화장품","category":"beauty"}]},{"lat":"37.752144734","long":"126.76620504","imageIndex":13,"items":[{"name":"아모레","tel":"031-946-7433","addr":"경기도 파주시 금촌동 986-2번지","indutype":"보건위생 - 화장품","category":"beauty"},{"name":"아모레 카운셀러","tel":"031-943-5057","addr":"경기도 파주시 금촌동 986-2번지","indutype":"보건위생 - 화장품","category":"beauty"},{"name":"아모레 카운셀러","tel":"031-943-5057","addr":"경기도 파주시 금촌동 986-2번지","indutype":"보건위생 - 화장품","category":"beauty"},{"name":"아모레 카운셀러","tel":"031-943-5057","addr":"경기도 파주시 금촌동 986-2번지","indutype":"보건위생 - 화장품","category":"beauty"},{"name":"아모레 카운셀러","tel":"031-943-5057","addr":"경기도 파주시 금촌동 986-2번지","indutype":"보건위생 - 화장품","category":"beauty"},{"name":"아모레(원인자)","tel":"031-943-5057","addr":"경기도 파주시 금촌동 986-2번지","indutype":"보건위생 - 화장품","category":"beauty"},{"name":"아모레외판","tel":"031-943-5057","addr":"경기도 파주시 금촌동 986-2번지","indutype":"보건위생 - 화장품","category":"beauty"},{"name":"아모레외판","tel":"031-943-5057","addr":"경기도 파주시 금촌동 986-2번지","indutype":"보건위생 - 화장품","category":"beauty"},{"name":"아모레외판","tel":"031-943-5057","addr":"경기도 파주시 금촌동 986-2번지","indutype":"보건위생 - 화장품","category":"beauty"},{"name":"아모레외판","tel":"031-946-7433","addr":"경기도 파주시 금촌동 986-2번지","indutype":"보건위생 - 화장품","category":"beauty"},{"name":"아모레외판","tel":"031-943-5057","addr":"경기도 파주시 금촌동 986-2번지","indutype":"보건위생 - 화장품","category":"beauty"},{"name":"아모레외판원","tel":"031-943-5057","addr":"경기도 파주시 금촌동 986-2번지","indutype":"보건위생 - 화장품","category":"beauty"},{"name":"아모레카운샐러","tel":"031-943-5057","addr":"경기도 파주시 금촌동 986-2번지","indutype":"보건위생 - 화장품","category":"beauty"},{"name":"아모레카운셀러","tel":"031-943-5057","addr":"경기도 파주시 금촌동 986-2번지","indutype":"보건위생 - 화장품","category":"beauty"},{"name":"아모레카운셀러","tel":"031-943-5057","addr":"경기도 파주시 금촌동 986-2번지","indutype":"보건위생 - 화장품","category":"beauty"},{"name":"아모레카운셀러","tel":"031-943-5057","addr":"경기도 파주시 금촌동 986-2번지","indutype":"보건위생 - 화장품","category":"beauty"},{"name":"아모레카운셀러","tel":"031-493-5057","addr":"경기도 파주시 금촌동 986-2번지","indutype":"보건위생 - 화장품","category":"beauty"},{"name":"아모레카운셀러","tel":"031-943-5057","addr":"경기도 파주시 금촌동 986-2번지","indutype":"보건위생 - 화장품","category":"beauty"},{"name":"아모레카운셀러","tel":"031-943-5057","addr":"경기도 파주시 금촌동 986-2번지","indutype":"보건위생 - 화장품","category":"beauty"},{"name":"아모레카운셀러","tel":"031-943-5057","addr":"경기도 파주시 금촌동 986-2번지","indutype":"보건위생 - 화장품","category":"beauty"},{"name":"아모레카운셀러","tel":"031-943-5057","addr":"경기도 파주시 금촌동 986-2번지","indutype":"보건위생 - 화장품","category":"beauty"},{"name":"아모레카운셀러","tel":"031-943-5057","addr":"경기도 파주시 금촌동 986-2번지","indutype":"보건위생 - 화장품","category":"beauty"},{"name":"아모레카운셀러","tel":"031-943-5057","addr":"경기도 파주시 금촌동 986-2번지","indutype":"보건위생 - 화장품","category":"beauty"},{"name":"아모레카운셀러","tel":"031-946-7433","addr":"경기도 파주시 금촌동 986-2번지","indutype":"보건위생 - 화장품","category":"beauty"},{"name":"아모레카운셀러","tel":"031-943-5057","addr":"경기도 파주시 금촌동 986-2번지","indutype":"보건위생 - 화장품","category":"beauty"},{"name":"아모레카운셀러","tel":"031-943-5057","addr":"경기도 파주시 금촌동 986-2번지","indutype":"보건위생 - 화장품","category":"beauty"},{"name":"아모레카운셀러","tel":"031-943-5057","addr":"경기도 파주시 금촌동 986-2번지","indutype":"보건위생 - 화장품","category":"beauty"},{"name":"아모레카운셀러","tel":"031-943-5057","addr":"경기도 파주시 금촌동 986-2번지","indutype":"보건위생 - 화장품","category":"beauty"},{"name":"아모레카운셀러","tel":"031-943-5057","addr":"경기도 파주시 금촌동 986-2번지","indutype":"보건위생 - 화장품","category":"beauty"},{"name":"아모레카운셀러","tel":"031-943-5057","addr":"경기도 파주시 금촌동 986-2번지","indutype":"보건위생 - 화장품","category":"beauty"},{"name":"아모레카운셀러","tel":"031-943-5058","addr":"경기도 파주시 금촌동 986-2번지","indutype":"보건위생 - 화장품","category":"beauty"},{"name":"아모레카운셀러","tel":"031-943-5057","addr":"경기도 파주시 금촌동 986-2번지","indutype":"보건위생 - 화장품","category":"beauty"},{"name":"아모레카운셀러","tel":"031-943-5057","addr":"경기도 파주시 금촌동 986-2번지","indutype":"보건위생 - 화장품","category":"beauty"},{"name":"아모레카운셀러","tel":"031-943-5057","addr":"경기도 파주시 금촌동 986-2번지","indutype":"보건위생 - 화장품","category":"beauty"},{"name":"아모레카운셀러","tel":"031-943-5057","addr":"경기도 파주시 금촌동 986-2번지","indutype":"보건위생 - 화장품","category":"beauty"},{"name":"아모레카운셀러","tel":"031-943-5058","addr":"경기도 파주시 금촌동 986-2번지","indutype":"보건위생 - 화장품","category":"beauty"},{"name":"아모레카운셀러","tel":"031-943-5058","addr":"경기도 파주시 금촌동 986-2번지","indutype":"보건위생 - 화장품","category":"beauty"},{"name":"아모레카운셀러","tel":"031-943-5057","addr":"경기도 파주시 금촌동 986-2번지","indutype":"보건위생 - 화장품","category":"beauty"},{"name":"아모레카운셀러","tel":"031-943-5058","addr":"경기도 파주시 금촌동 986-2번지","indutype":"보건위생 - 화장품","category":"beauty"},{"name":"아모레카운셀러","tel":"031-943-5057","addr":"경기도 파주시 금촌동 986-2번지","indutype":"보건위생 - 화장품","category":"beauty"},{"name":"아모레카운셀러","tel":"031-943-5057","addr":"경기도 파주시 금촌동 986-2번지","indutype":"보건위생 - 화장품","category":"beauty"},{"name":"아모레카운셀러","tel":"031-943-5057","addr":"경기도 파주시 금촌동 986-2번지","indutype":"보건위생 - 화장품","category":"beauty"},{"name":"아모레카운셀러","tel":"031-943-5057","addr":"경기도 파주시 금촌동 986-2번지","indutype":"보건위생 - 화장품","category":"beauty"},{"name":"아모레카운셀러","tel":"031-943-5058","addr":"경기도 파주시 금촌동 986-2번지","indutype":"보건위생 - 화장품","category":"beauty"},{"name":"아모레카운셀러","tel":"031-943-5057","addr":"경기도 파주시 금촌동 986-2번지","indutype":"보건위생 - 화장품","category":"beauty"},{"name":"아모레카운셀러","tel":"031-943-5058","addr":"경기도 파주시 금촌동 986-2번지","indutype":"보건위생 - 화장품","category":"beauty"},{"name":"아모레카운셀러","tel":"031-943-5057","addr":"경기도 파주시 금촌동 986-2번지","indutype":"보건위생 - 화장품","category":"beauty"},{"name":"아모레카운셀러","tel":"031-943-5058","addr":"경기도 파주시 금촌동 986-2번지","indutype":"보건위생 - 화장품","category":"beauty"},{"name":"아모레카운셀러","tel":"031-943-5058","addr":"경기도 파주시 금촌동 986-2번지","indutype":"보건위생 - 화장품","category":"beauty"},{"name":"아모레카운셀러","tel":"031-943-5058","addr":"경기도 파주시 금촌동 986-2번지","indutype":"보건위생 - 화장품","category":"beauty"},{"name":"아모레카운셀러","tel":"031-943-5057","addr":"경기도 파주시 금촌동 986-2번지","indutype":"보건위생 - 화장품","category":"beauty"},{"name":"아모레카운셀러","tel":"031-943-5057","addr":"경기도 파주시 금촌동 986-2번지","indutype":"보건위생 - 화장품","category":"beauty"}]},{"lat":"37.760146837","long":"126.77621141","imageIndex":13,"items":[{"name":"아모레외판","tel":"031-943-5057","addr":"경기도 파주시 금촌동 767-2번지","indutype":"보건위생 - 화장품","category":"beauty"},{"name":"아모레외판(정순화)","tel":"031-943-5057","addr":"경기도 파주시 금촌동 767-2번지","indutype":"보건위생 - 화장품","category":"beauty"},{"name":"아모레외판(지옥남)","tel":"031-943-5057","addr":"경기도 파주시 금촌동 767-2번지","indutype":"보건위생 - 화장품","category":"beauty"},{"name":"아모레외판원","tel":"031-943-5057","addr":"경기도 파주시 금촌동 767-2번지","indutype":"보건위생 - 화장품","category":"beauty"},{"name":"아모레카운셀러","tel":"031-943-5057","addr":"경기도 파주시 금촌동 767-2번지","indutype":"보건위생 - 화장품","category":"beauty"},{"name":"자연이준숯이야기","tel":"031-948-0565","addr":"경기도 파주시 금촌동 767-2번지","indutype":"보건위생 - 의료용품","category":"beauty"},{"name":"혜당생활과학 금촌지점","tel":"070-7543-1033","addr":"경기도 파주시 금촌동 767-2번지","indutype":"보건위생 - 의료용품","category":"beauty"}]},{"lat":"37.751311028","long":"126.76829553","imageIndex":13,"items":[{"name":"아이러브안경","tel":"031-957-1114","addr":"경기도 파주시 금촌동 989-7번지","indutype":"보건위생 - 안경","category":"beauty"}]},{"lat":"37.759453","long":"126.77615679","imageIndex":13,"items":[{"name":"아이센스안경원","tel":"031-945-7979","addr":"경기도 파주시 금촌동 765-8번지","indutype":"보건위생 - 안경","category":"beauty"}]},{"lat":"37.76467339","long":"126.7735079","imageIndex":13,"items":[{"name":"양정아속눈썹","tel":"031-944-0131","addr":"경기도 파주시 금촌동 329-358번지","indutype":"보건위생 - 기타대인서비스","category":"beauty"}]},{"lat":"37.757810568","long":"126.76563095","imageIndex":13,"items":[{"name":"에드레이뷰티살롱","tel":"031-945-8869","addr":"경기도 파주시 금촌동 964-3번지","indutype":"보건위생 - 미용원","category":"beauty"}]},{"lat":"37.759615585","long":"126.77637191","imageIndex":13,"items":[{"name":"에디헤어","tel":"031-957-3010","addr":"경기도 파주시 금촌동 767-13번지","indutype":"보건위생 - 미용원","category":"beauty"}]},{"lat":"37.755343372","long":"126.77548848","imageIndex":13,"items":[{"name":"에바니아 힐링케어 파주,금촌지사","tel":"031-946-5133","addr":"경기도 파주시 금촌동 789-10번지","indutype":"보건위생 - 화장품","category":"beauty"}]},{"lat":"37.756532965","long":"126.77103654","imageIndex":13,"items":[{"name":"에스헤어(S hair)","tel":"070-8118-1872","addr":"경기도 파주시 금촌동 251-10번지","indutype":"보건위생 - 미용원","category":"beauty"},{"name":"제이엠헤어샵","tel":"031-941-1358","addr":"경기도 파주시 금촌동 251-10번지","indutype":"보건위생 - 미용원","category":"beauty"},{"name":"펠리아미용실","tel":"031-946-5691","addr":"경기도 파주시 금촌동 251-10번지","indutype":"보건위생 - 미용원","category":"beauty"},{"name":"황실","tel":"","addr":"경기도 파주시 금촌동 251-10번지","indutype":"보건위생 - 화장품","category":"beauty"}]},{"lat":"37.75420437","long":"126.77820398","imageIndex":13,"items":[{"name":"에이앤케이 아이앤씨","tel":"031-949-7667","addr":"경기도 파주시 금촌동 104-1번지","indutype":"보건위생 - 미용재료","category":"beauty"}]},{"lat":"37.762533601","long":"126.77581828","imageIndex":13,"items":[{"name":"엘헤어살롱","tel":"070-4213-5890","addr":"경기도 파주시 금촌동 56-53번지","indutype":"보건위생 - 미용원","category":"beauty"}]},{"lat":"37.751534091","long":"126.76720552","imageIndex":13,"items":[{"name":"여시손톱","tel":"031-945-9455","addr":"경기도 파주시 금촌동 989-2번지 센터프라자 1층 109호","indutype":"보건위생 - 화장품","category":"beauty"},{"name":"포마이스타일(for M.Y style)","tel":"031-943-4624","addr":"경기도 파주시 금촌동 989-2번지","indutype":"보건위생 - 미용원","category":"beauty"}]},{"lat":"37.756726935","long":"126.77815096","imageIndex":13,"items":[{"name":"예뻐지다","tel":"031-942-8843","addr":"경기도 파주시 금촌동 784-2번지","indutype":"보건위생 - 미용원","category":"beauty"}]},{"lat":"37.755594116","long":"126.77940262","imageIndex":13,"items":[{"name":"오성의료기","tel":"031-941-1568","addr":"경기도 파주시 금촌동 791-9번지","indutype":"보건위생 - 의료용품","category":"beauty"}]},{"lat":"37.753254241","long":"126.76687099","imageIndex":13,"items":[{"name":"오쌤헤어(O-samehair)","tel":"031-957-7713","addr":"경기도 파주시 금촌동 984번지 새꽃마을주공아파트","indutype":"보건위생 - 미용원","category":"beauty"}]},{"lat":"37.759536371","long":"126.77734809","imageIndex":13,"items":[{"name":"온누리 헬스케어(파주센터)","tel":"031-942-1551","addr":"경기도 파주시 금촌동 767-11번지","indutype":"보건위생 - 의료용품","category":"beauty"}]},{"lat":"37.761585834","long":"126.77490195","imageIndex":13,"items":[{"name":"온리유헤어(Only you hair)","tel":"031-941-2900","addr":"경기도 파주시 금촌동 65-3번지","indutype":"보건위생 - 미용원","category":"beauty"}]},{"lat":"37.754563914","long":"126.77309656","imageIndex":13,"items":[{"name":"온스타일 헤어","tel":"","addr":"경기도 파주시 금촌동 234-22번지 두보아파트","indutype":"보건위생 - 미용원","category":"beauty"},{"name":"외출준비헤어숍","tel":"031-941-9686","addr":"경기도 파주시 금촌동 234-22번지 두보아파트","indutype":"보건위생 - 미용원","category":"beauty"}]},{"lat":"37.762871279","long":"126.77339998","imageIndex":13,"items":[{"name":"왁썹뷰티","tel":"031-957-9963","addr":"경기도 파주시 금촌동 321-9번지","indutype":"보건위생 - 화장품","category":"beauty"}]},{"lat":"37.761897992","long":"126.7732668","imageIndex":13,"items":[{"name":"용궁연화","tel":"02-1111-1111","addr":"경기도 파주시 금촌동 64-54번지","indutype":"보건위생 - 기타대인서비스","category":"beauty"}]},{"lat":"37.759312609","long":"126.77812045","imageIndex":13,"items":[{"name":"우아헤어","tel":"031-942-1311","addr":"경기도 파주시 금촌동 769-13번지","indutype":"보건위생 - 미용원","category":"beauty"}]},{"lat":"37.760649859","long":"126.77542684","imageIndex":13,"items":[{"name":"운석사주카페","tel":"031-943-4983","addr":"경기도 파주시 금촌동 71-6번지","indutype":"보건위생 - 기타대인서비스","category":"beauty"}]},{"lat":"37.759283122","long":"126.77218546","imageIndex":13,"items":[{"name":"유니베라 파주대리점","tel":"031-948-9991","addr":"경기도 파주시 금촌동 938-11번지","indutype":"보건위생 - 화장품","category":"beauty"}]},{"lat":"37.755731875","long":"126.78078661","imageIndex":13,"items":[{"name":"유헤어작업실","tel":"031-943-0413","addr":"경기도 파주시 금촌동 793-4번지","indutype":"보건위생 - 미용원","category":"beauty"}]},{"lat":"37.763423119","long":"126.7699596","imageIndex":13,"items":[{"name":"윤앤미피부샵(윤&  피부#)","tel":"031-945-6948","addr":"경기도 파주시 금촌동 355-1번지","indutype":"보건위생 - 피부미용실","category":"beauty"}]},{"lat":"37.756869026","long":"126.7770725","imageIndex":13,"items":[{"name":"윤정헤어뱅크","tel":"031-949-0883","addr":"경기도 파주시 금촌동 774-5번지","indutype":"보건위생 - 미용원","category":"beauty"}]},{"lat":"37.761808163","long":"126.77340326","imageIndex":13,"items":[{"name":"윤헤어","tel":"031-944-2671","addr":"경기도 파주시 금촌동 64-40번지","indutype":"보건위생 - 미용원","category":"beauty"}]},{"lat":"37.758315513","long":"126.77967814","imageIndex":13,"items":[{"name":"은성사","tel":"031-944-5227","addr":"경기도 파주시 금촌동 780-7번지","indutype":"보건위생 - 미용재료","category":"beauty"}]},{"lat":"37.751869457","long":"126.76821434","imageIndex":13,"items":[{"name":"이니스프리 금릉점","tel":"031-947-8752","addr":"경기도 파주시 금촌동 988-6번지","indutype":"보건위생 - 화장품","category":"beauty"}]},{"lat":"37.763288204","long":"126.7746811","imageIndex":13,"items":[{"name":"이니스프리 금촌점","tel":"031-944-2609","addr":"경기도 파주시 금촌동 54-33번지","indutype":"보건위생 - 화장품","category":"beauty"},{"name":"포낙보청기 파주센터","tel":"031-944-1144","addr":"경기도 파주시 금촌동 54-33번지","indutype":"보건위생 - 의료용품","category":"beauty"}]},{"lat":"37.760228293","long":"126.77640409","imageIndex":13,"items":[{"name":"이브헤어샵","tel":"031-942-1235","addr":"경기도 파주시 금촌동 767-3번지","indutype":"보건위생 - 미용원","category":"beauty"}]},{"lat":"37.764309442","long":"126.77168185","imageIndex":13,"items":[{"name":"이원건강의료기금촌역점","tel":"031-948-3316","addr":"경기도 파주시 금촌동 329-193번지 1층","indutype":"보건위생 - 의료용품","category":"beauty"}]},{"lat":"37.763892211","long":"126.77487217","imageIndex":13,"items":[{"name":"이원장댁 (금촌점)","tel":"031-946-0346","addr":"경기도 파주시 금촌동 46-8번지","indutype":"보건위생 - 피부미용실","category":"beauty"},{"name":"헤어라리","tel":"032-362-6001","addr":"경기도 파주시 금촌동 46-8번지","indutype":"보건위생 - 미용원","category":"beauty"}]},{"lat":"37.757538304","long":"126.76914965","imageIndex":13,"items":[{"name":"잰틀맨헤어","tel":"031-944-2877","addr":"경기도 파주시 금촌동 961-2번지","indutype":"보건위생 - 미용원","category":"beauty"}]},{"lat":"37.757780951","long":"126.7688425","imageIndex":13,"items":[{"name":"제니헤어","tel":"02-111-1111","addr":"경기도 파주시 금촌동 942-6번지","indutype":"보건위생 - 미용원","category":"beauty"}]},{"lat":"37.761730621","long":"126.77523061","imageIndex":13,"items":[{"name":"제이제이(JJ)","tel":"031-941-1159","addr":"경기도 파주시 금촌동 56-9번지","indutype":"보건위생 - 화장품","category":"beauty"}]},{"lat":"37.761810543","long":"126.77462889","imageIndex":13,"items":[{"name":"제이하우스","tel":"031-941-4624","addr":"경기도 파주시 금촌동 65-24번지","indutype":"보건위생 - 미용원","category":"beauty"}]},{"lat":"37.762504315","long":"126.77464946","imageIndex":13,"items":[{"name":"젠틀맨","tel":"031-942-6290","addr":"경기도 파주시 금촌동 62-6번지","indutype":"보건위생 - 미용원","category":"beauty"}]},{"lat":"37.752364186","long":"126.76781563","imageIndex":13,"items":[{"name":"준헤어","tel":"031-947-2949","addr":"경기도 파주시 금촌동 987-4,마이프라자107호,108호","indutype":"보건위생 - 미용원","category":"beauty"},{"name":"핀.뷰티살롱","tel":"031-942-3344","addr":"경기도 파주시 금촌동 987-4번지","indutype":"보건위생 - 피부미용실","category":"beauty"}]},{"lat":"37.754426176","long":"126.77176934","imageIndex":13,"items":[{"name":"줄리아헤어#","tel":"031-944-2824","addr":"경기도 파주시 금촌동 233-6번지 대영장미아파트","indutype":"보건위생 - 미용원","category":"beauty"}]},{"lat":"37.76314282","long":"126.77404601","imageIndex":13,"items":[{"name":"중앙상가화장품","tel":"031-942-4082","addr":"경기도 파주시 금촌동 60-22번지","indutype":"보건위생 - 화장품","category":"beauty"}]},{"lat":"37.757810362","long":"126.77004528","imageIndex":13,"items":[{"name":"쥬모헤어","tel":"031-957-7626","addr":"경기도 파주시 금촌동 943-16번지","indutype":"보건위생 - 미용원","category":"beauty"}]},{"lat":"37.758232032","long":"126.76914747","imageIndex":13,"items":[{"name":"지(G)헤어","tel":"070-4028-8775","addr":"경기도 파주시 금촌동 942-13번지","indutype":"보건위생 - 미용원","category":"beauty"}]},{"lat":"37.765476819","long":"126.77432255","imageIndex":13,"items":[{"name":"차헤어","tel":"031-941-7772","addr":"경기도 파주시 금촌동 329-39번지","indutype":"보건위생 - 미용원","category":"beauty"}]},{"lat":"37.762342101","long":"126.77462726","imageIndex":13,"items":[{"name":"최귀녀헤어샵","tel":"031-943-2266","addr":"경기도 파주시 금촌동 62-33번지","indutype":"보건위생 - 미용원","category":"beauty"}]},{"lat":"37.755341749","long":"126.77464877","imageIndex":13,"items":[{"name":"카리스헤어","tel":"031-943-2335","addr":"경기도 파주시 금촌동 788-11번지","indutype":"보건위생 - 미용원","category":"beauty"}]},{"lat":"37.755645734","long":"126.77812019","imageIndex":13,"items":[{"name":"콜프랜즈","tel":"050-5055-1818","addr":"경기도 파주시 금촌동 791-18번지","indutype":"보건위생 - 기타대인서비스","category":"beauty"}]},{"lat":"37.768867264","long":"126.77117963","imageIndex":13,"items":[{"name":"쿨가이헤어","tel":"","addr":"경기도 파주시 금촌동 1014-1번지 한일유앤아이","indutype":"보건위생 - 미용원","category":"beauty"}]},{"lat":"37.756976077","long":"126.77187489","imageIndex":13,"items":[{"name":"쿨헤어샵","tel":"031-957-1136","addr":"경기도 파주시 금촌동 254-1번지","indutype":"보건위생 - 미용원","category":"beauty"}]},{"lat":"37.763586218","long":"126.77504334","imageIndex":13,"items":[{"name":"파스텔","tel":"031-944-9672","addr":"경기도 파주시 금촌동 51-20","indutype":"보건위생 - 화장품","category":"beauty"}]},{"lat":"37.759233431","long":"126.76982521","imageIndex":13,"items":[{"name":"파주아동청소년발달센터 서우마음심리센터","tel":"031-942-4238","addr":"경기도 파주시 금촌동 934-4번지","indutype":"보건위생 - 기타대인서비스","category":"beauty"}]},{"lat":"37.764759483","long":"126.7760952","imageIndex":13,"items":[{"name":"파주청년회의소","tel":"031-946-0022","addr":"경기도 파주시 금촌동 42-1번지","indutype":"보건위생 - 기타대인서비스","category":"beauty"}]},{"lat":"37.759089593","long":"126.76998453","imageIndex":13,"items":[{"name":"팜므헤어","tel":"070-4406-0389","addr":"경기도 파주시 금촌동 934-5번지","indutype":"보건위생 - 미용원","category":"beauty"}]},{"lat":"37.757225061","long":"126.77020599","imageIndex":13,"items":[{"name":"프로보노사회서비스지원센터","tel":"070-4258-9820","addr":"경기도 파주시 금촌동 960-9번지","indutype":"보건위생 - 기타대인서비스","category":"beauty"}]},{"lat":"37.763397239","long":"126.77515741","imageIndex":13,"items":[{"name":"프리티헤어","tel":"031-946-9958","addr":"경기도 파주시 금촌동 51-29번지","indutype":"보건위생 - 미용원","category":"beauty"}]},{"lat":"37.756816446","long":"126.7778443","imageIndex":13,"items":[{"name":"한성척추자세교정원","tel":"031-946-1611","addr":"경기도 파주시 금촌동 785-3번지","indutype":"보건위생 - 기타대인서비스","category":"beauty"}]},{"lat":"37.75650769","long":"126.7765743","imageIndex":13,"items":[{"name":"행복미용실","tel":"031-945-6885","addr":"경기도 파주시 금촌동 774-10번지 1층","indutype":"보건위생 - 미용원","category":"beauty"}]},{"lat":"37.752372652","long":"126.76754327","imageIndex":13,"items":[{"name":"헤라헤어샵","tel":"031-942-8119","addr":"경기도 파주시 금촌동 987-3번지","indutype":"보건위생 - 미용원","category":"beauty"}]},{"lat":"37.756505065","long":"126.77059406","imageIndex":13,"items":[{"name":"헤어끌레르","tel":"031-942-3578","addr":"경기도 파주시 금촌동 923번지","indutype":"보건위생 - 미용원","category":"beauty"}]},{"lat":"37.7576152","long":"126.77623049","imageIndex":13,"items":[{"name":"헤어란","tel":"","addr":"경기도 파주시 금촌동 773-7번지","indutype":"보건위생 - 미용원","category":"beauty"},{"name":"힐링헤어","tel":"031-942-2095","addr":"경기도 파주시 금촌동 773-7번지","indutype":"보건위생 - 미용원","category":"beauty"}]},{"lat":"37.751868733","long":"126.76785124","imageIndex":13,"items":[{"name":"헤어망고","tel":"031-947-3651","addr":"경기도 파주시 금촌동 988-5번지","indutype":"보건위생 - 미용원","category":"beauty"}]},{"lat":"37.763811235","long":"126.77492916","imageIndex":13,"items":[{"name":"헤어살롱끼","tel":"070-7135-4600","addr":"경기도 파주시 금촌동 50-8","indutype":"보건위생 - 미용원","category":"beauty"}]},{"lat":"37.756060559","long":"126.77832319","imageIndex":13,"items":[{"name":"헤어에이스","tel":"031-941-1977","addr":"경기도 파주시 금촌동 785-11번지","indutype":"보건위생 - 미용원","category":"beauty"}]},{"lat":"37.763560963","long":"126.77596267","imageIndex":13,"items":[{"name":"헤어준","tel":"070-8807-3010","addr":"경기도 파주시 금촌동 52-36번지","indutype":"보건위생 - 미용원","category":"beauty"}]},{"lat":"37.752892806","long":"126.77087769","imageIndex":13,"items":[{"name":"현네일","tel":"031-942-0426","addr":"경기도 파주시 금촌동 992번지 후곡마을뜨란채","indutype":"보건위생 - 피부미용실","category":"beauty"}]},{"lat":"37.755866883","long":"126.77598617","imageIndex":13,"items":[{"name":"화이트미용실","tel":"031-941-8682","addr":"경기도 파주시 금촌동 787-6번지","indutype":"보건위생 - 미용원","category":"beauty"}]}]