[{"lat":"37.515592656","long":"126.77421584","imageIndex":0,"items":[{"name":"(세덴)외형복원","tel":"032-217-1318","addr":"경기도 부천시 내동 57-26번지 102호","indutype":"자동차정비 유지 - 카인테리어","category":"car"}]},{"lat":"37.520397452","long":"126.77552467","imageIndex":0,"items":[{"name":"(주)동륭상사","tel":"032-679-3388","addr":"경기도 부천시 내동 69번지","indutype":"자동차정비 유지 - 자동차시트·타이어","category":"car"}]},{"lat":"37.525396065","long":"126.77926528","imageIndex":0,"items":[{"name":"(주)부천IC자동차공업사","tel":"032-675-4567","addr":"경기도 부천시 내동 207-1번지","indutype":"자동차정비 유지 - 자동차정비","category":"car"},{"name":"(주)진성사","tel":"031-202-5500","addr":"경기도 부천시 내동 207-1번지 부천자동차매매단지 C동 102호","indutype":"자동차판매 - 중고자동차판매","category":"car"},{"name":"(주)현대상사","tel":"032-678-1200","addr":"경기도 부천시 내동 207-1번지 부천자동차매매단지,C동 109,110호","indutype":"자동차판매 - 중고자동차판매","category":"car"},{"name":"광명자동차유리","tel":"032-672-2690","addr":"경기도 부천시 내동 207-1번지 부천자동차매매단지 B동 111호","indutype":"자동차정비 유지 - 자동차부품","category":"car"},{"name":"다정한자동차매매상사","tel":"032-672-6000","addr":"경기도 부천시 내동 207-1번지 부천IC매매단지 B동 102호","indutype":"자동차판매 - 중고자동차판매","category":"car"},{"name":"대길모터스","tel":"032-676-0800","addr":"경기도 부천시 내동 207-1번지 부천자동차매매단지 B동 111호","indutype":"자동차판매 - 중고자동차판매","category":"car"},{"name":"바른딜러","tel":"032-255-0728","addr":"경기도 부천시 내동 207-1번지 부천자동차매매단지 B동 204호","indutype":"자동차판매 - 중고자동차판매","category":"car"},{"name":"서연모터스","tel":"032-715-7202","addr":"경기도 부천시 내동 207-1번지 부천자동차매매단지 C동 104호","indutype":"자동차판매 - 중고자동차판매","category":"car"},{"name":"스카이광택","tel":"02-1111-1111","addr":"경기도 부천시 내동 207-1번지 부천자동차매매단지별관 2호","indutype":"자동차정비 유지 - 카인테리어","category":"car"},{"name":"신한모터스","tel":"032-683-3100","addr":"경기도 부천시 내동 207-1번지 D동202,203호 부천자동차매매단지","indutype":"자동차판매 - 중고자동차판매","category":"car"},{"name":"영광자동차","tel":"032-710-1644","addr":"경기도 부천시 내동 207-1번지 부천자동차매매단지 C동 107호","indutype":"자동차판매 - 중고자동차판매","category":"car"},{"name":"일진자동차","tel":"032-677-8595","addr":"경기도 부천시 내동 207-1번지 부천자동차매매단지 B동 204호","indutype":"자동차판매 - 중고자동차판매","category":"car"},{"name":"자동차와사람들","tel":"032-225-1003","addr":"경기도 부천시 내동 207-1번지 부천자동차매매단지 C동 112,113호","indutype":"자동차정비 유지 - 자동차부품","category":"car"},{"name":"주식회사 홍차","tel":"032-671-2345","addr":"경기도 부천시 내동 207-1번지 부천자동차매매단지 에이동 101,102호","indutype":"자동차판매 - 중고자동차판매","category":"car"},{"name":"퍼팩트광택","tel":"032-675-3993","addr":"경기도 부천시 내동 207-1번지","indutype":"자동차정비 유지 - 카인테리어","category":"car"}]},{"lat":"37.519260177","long":"126.78398926","imageIndex":0,"items":[{"name":"AUTOPRO","tel":"032-671-8279","addr":"경기도 부천시 내동 271-1번지","indutype":"자동차정비 유지 - 자동차정비","category":"car"}]},{"lat":"37.520368453","long":"126.77921242","imageIndex":0,"items":[{"name":"E.G모터스","tel":"032-666-4005","addr":"경기도 부천시 내동 134-2번지","indutype":"자동차정비 유지 - 자동차정비","category":"car"},{"name":"부흥카인테리어","tel":"032-676-0989","addr":"경기도 부천시 내동 134-2번지","indutype":"자동차정비 유지 - 자동차정비","category":"car"}]},{"lat":"37.520809978","long":"126.78896197","imageIndex":0,"items":[{"name":"JK CUSTOM","tel":"","addr":"경기도 부천시 내동 354번지 1층 7호","indutype":"자동차정비 유지 - 카인테리어","category":"car"},{"name":"금화자동차부분정비공","tel":"032-681-1789","addr":"경기도 부천시 내동 354번지","indutype":"자동차정비 유지 - 자동차정비","category":"car"}]},{"lat":"37.520365918","long":"126.77787763","imageIndex":0,"items":[{"name":"SK동우카프라자","tel":"032-676-0816","addr":"경기도 부천시 내동 117-1번지","indutype":"자동차정비 유지 - 자동차정비","category":"car"}]},{"lat":"37.520448866","long":"126.78365774","imageIndex":0,"items":[{"name":"경기 윤활유","tel":"032-675-5149","addr":"경기도 부천시 내동 274번지 1층","indutype":"자동차정비 유지 - 자동차부품","category":"car"}]},{"lat":"37.521142834","long":"126.78376883","imageIndex":0,"items":[{"name":"경기보링공업사","tel":"032-677-2511","addr":"경기도 부천시 내동 278-1번지","indutype":"자동차정비 유지 - 자동차부품","category":"car"}]},{"lat":"37.52164997","long":"126.77560005","imageIndex":0,"items":[{"name":"경기사","tel":"032-672-5875","addr":"경기도 부천시 내동 72-3번지","indutype":"자동차정비 유지 - 세차장","category":"car"}]},{"lat":"37.518453956","long":"126.7722389","imageIndex":0,"items":[{"name":"경인자동차공업사","tel":"032-683-1172","addr":"경기도 부천시 내동 22-8번지","indutype":"자동차정비 유지 - 자동차정비","category":"car"}]},{"lat":"37.526895852","long":"126.78146681","imageIndex":0,"items":[{"name":"광성자동차공업사","tel":"032-676-8574","addr":"경기도 부천시 내동 219-12번지","indutype":"자동차정비 유지 - 자동차정비","category":"car"}]},{"lat":"37.519813247","long":"126.77627301","imageIndex":0,"items":[{"name":"그린모터스","tel":"032-665-8020","addr":"경기도 부천시 내동 82번지 1층","indutype":"자동차정비 유지 - 자동차정비","category":"car"}]},{"lat":"37.519176943","long":"126.77805087","imageIndex":0,"items":[{"name":"내동광택","tel":"032-684-0810","addr":"경기도 부천시 내동 113-1번지","indutype":"자동차정비 유지 - 카인테리어","category":"car"}]},{"lat":"37.518480721","long":"126.77210308","imageIndex":0,"items":[{"name":"내동바이크","tel":"031-679-5282","addr":"경기도 부천시 내동 22-9번지 1층 3호","indutype":"자동차판매 - 이륜차판매","category":"car"}]},{"lat":"37.518512151","long":"126.78387833","imageIndex":0,"items":[{"name":"넥센타이어 부천총판","tel":"032-665-8585","addr":"경기도 부천시 내동 267-3번지","indutype":"자동차정비 유지 - 자동차시트·타이어","category":"car"},{"name":"상지자동차서비스","tel":"032-667-2969","addr":"경기도 부천시 내동 267-3번지","indutype":"자동차정비 유지 - 자동차정비","category":"car"}]},{"lat":"37.519896093","long":"126.78682666","imageIndex":0,"items":[{"name":"두꺼비모터스","tel":"032-677-1025","addr":"경기도 부천시 내동 324번지","indutype":"자동차정비 유지 - 자동차정비","category":"car"}]},{"lat":"37.518928827","long":"126.77551781","imageIndex":0,"items":[{"name":"모토(MOTTO)오토카워시시스템","tel":"032-677-5519","addr":"경기도 부천시 내동 66-1번지 외2필지","indutype":"자동차정비 유지 - 세차장","category":"car"}]},{"lat":"37.525114721","long":"126.77819143","imageIndex":0,"items":[{"name":"모토폴리쉬","tel":"02-1599-0609","addr":"경기도 부천시 내동 223-1번지","indutype":"자동차정비 유지 - 자동차정비","category":"car"},{"name":"카스페이스 (부천점)","tel":"","addr":"경기도 부천시 내동 223-1번지 1층","indutype":"자동차정비 유지 - 자동차정비","category":"car"}]},{"lat":"37.528448032","long":"126.77332812","imageIndex":0,"items":[{"name":"문일모터스","tel":"032-683-8921","addr":"경기도 부천시 내동 222-143번지","indutype":"자동차정비 유지 - 자동차정비","category":"car"},{"name":"문일엔진보링","tel":"032-678-3868","addr":"경기도 부천시 내동 222-143번지 외1필지","indutype":"자동차정비 유지 - 자동차정비","category":"car"},{"name":"문일엔진보링","tel":"032-683-8921","addr":"경기도 부천시 내동 222-143번지 2,3층","indutype":"자동차정비 유지 - 자동차정비","category":"car"}]},{"lat":"37.520731111","long":"126.7804104","imageIndex":0,"items":[{"name":"부영수퍼(Super)카 (car)","tel":"032-672-6772","addr":"경기도 부천시 내동 175-2번지","indutype":"자동차정비 유지 - 자동차정비","category":"car"}]},{"lat":"37.518009781","long":"126.77549798","imageIndex":0,"items":[{"name":"부천번호판제작소","tel":"032-324-5810","addr":"경기도 부천시 내동 65번지","indutype":"자동차정비 유지 - 자동차부품","category":"car"},{"name":"부천자동차공업사","tel":"032-682-5806","addr":"경기도 부천시 내동 65번지","indutype":"자동차정비 유지 - 자동차정비","category":"car"}]},{"lat":"37.521866489","long":"126.77574645","imageIndex":0,"items":[{"name":"부천중고타이어뱅크","tel":"032-684-9913","addr":"경기도 부천시 내동 72-2번지 1층","indutype":"자동차정비 유지 - 자동차시트·타이어","category":"car"},{"name":"타이어은행","tel":"032-672-9913","addr":"경기도 부천시 내동 72-2번지","indutype":"자동차정비 유지 - 자동차시트·타이어","category":"car"}]},{"lat":"37.518429465","long":"126.78301889","imageIndex":0,"items":[{"name":"비원이엔지(B1 ENG)","tel":"070-4084-9021","addr":"경기도 부천시 내동 322-1번지","indutype":"자동차정비 유지 - 자동차부품","category":"car"}]},{"lat":"37.522174151","long":"126.78118665","imageIndex":0,"items":[{"name":"삼미상사","tel":"032-888-3315","addr":"경기도 부천시 내동 232번지 2층 일부","indutype":"자동차정비 유지 - 자동차부품","category":"car"}]},{"lat":"37.525455931","long":"126.77757952","imageIndex":0,"items":[{"name":"삼성정밀","tel":"032-676-1988","addr":"경기도 부천시 내동 222-53,1층","indutype":"자동차정비 유지 - 자동차정비","category":"car"}]},{"lat":"37.519504113","long":"126.78435052","imageIndex":0,"items":[{"name":"서원자동차공업사","tel":"032-677-9955","addr":"경기도 부천시 내동 273-4번지 1층","indutype":"자동차정비 유지 - 자동차정비","category":"car"},{"name":"현대모터스","tel":"032-671-2227","addr":"경기도 부천시 내동 273-4번지 1층","indutype":"자동차정비 유지 - 자동차정비","category":"car"}]},{"lat":"37.518678826","long":"126.77204591","imageIndex":0,"items":[{"name":"성진카닥터정비센타","tel":"032-674-9781","addr":"경기도 부천시 내동 22-1번지","indutype":"자동차정비 유지 - 자동차정비","category":"car"}]},{"lat":"37.517893716","long":"126.7807921","imageIndex":0,"items":[{"name":"세진보링","tel":"032-679-0402","addr":"경기도 부천시 내동 197-2번지","indutype":"자동차정비 유지 - 자동차정비","category":"car"}]},{"lat":"37.519813876","long":"126.77660105","imageIndex":0,"items":[{"name":"스마일카닥터","tel":"070-4960-8281","addr":"경기도 부천시 내동 82-4번지 1층 도로변앞면 상가","indutype":"자동차정비 유지 - 자동차정비","category":"car"}]},{"lat":"37.519866635","long":"126.78066182","imageIndex":0,"items":[{"name":"승진자동차정비센타","tel":"032-679-1600","addr":"경기도 부천시 내동 192번지","indutype":"자동차정비 유지 - 자동차정비","category":"car"}]},{"lat":"37.521283619","long":"126.7819585","imageIndex":0,"items":[{"name":"신영정밀","tel":"032-679-9373","addr":"경기도 부천시 내동 253번지","indutype":"자동차정비 유지 - 자동차부품","category":"car"},{"name":"카닝모터스본점","tel":"032-679-1554","addr":"경기도 부천시 내동 253번지","indutype":"자동차정비 유지 - 카인테리어","category":"car"}]},{"lat":"37.519814445","long":"126.78165741","imageIndex":0,"items":[{"name":"쌍용자동차 오정서비스 프라자","tel":"032-678-5582","addr":"경기도 부천시 내동 217-3번지","indutype":"자동차정비 유지 - 자동차정비","category":"car"}]},{"lat":"37.519228227","long":"126.77194241","imageIndex":0,"items":[{"name":"쌍용자동차부천북부부품대리점","tel":"032-677-5582","addr":"경기도 부천시 내동 19-12번지 1층","indutype":"자동차정비 유지 - 자동차부품","category":"car"}]},{"lat":"37.519816115","long":"126.78255104","imageIndex":0,"items":[{"name":"오토쿠키","tel":"02-1566-5184","addr":"경기도 부천시 내동 262번지 2층","indutype":"자동차정비 유지 - 자동차부품","category":"car"}]},{"lat":"37.516839134","long":"126.77582956","imageIndex":0,"items":[{"name":"월드모터스","tel":"032-672-0862","addr":"경기도 부천시 내동 62-2번지","indutype":"자동차정비 유지 - 자동차정비","category":"car"}]},{"lat":"37.519818167","long":"126.77885208","imageIndex":0,"items":[{"name":"유성자동차공업사","tel":"032-675-5885","addr":"경기도 부천시 내동 135-2번지 B동","indutype":"자동차정비 유지 - 자동차정비","category":"car"}]},{"lat":"37.519371739","long":"126.78585536","imageIndex":0,"items":[{"name":"조양공업사","tel":"032-673-1515","addr":"경기도 부천시 내동 316-2번지","indutype":"자동차정비 유지 - 자동차정비","category":"car"}]},{"lat":"37.52042467","long":"126.78035475","imageIndex":0,"items":[{"name":"주식회사 더탑에이스","tel":"032-679-1600","addr":"경기도 부천시 내동 190번지 2층","indutype":"자동차정비 유지 - 자동차부품","category":"car"}]},{"lat":"37.517121648","long":"126.77283119","imageIndex":0,"items":[{"name":"주식회사 파트너필","tel":"031-1577-0821","addr":"경기도 부천시 내동 33번지 2층","indutype":"자동차판매 - 이륜차판매","category":"car"},{"name":"주식회사 필 (Feel)","tel":"032-684-0821","addr":"경기도 부천시 내동 33번지 1층","indutype":"자동차판매 - 이륜차판매","category":"car"}]},{"lat":"37.51634444","long":"126.77627219","imageIndex":0,"items":[{"name":"주식회사삼진","tel":"032-684-9991","addr":"경기도 부천시 내동 95번지","indutype":"자동차정비 유지 - 자동차정비","category":"car"}]},{"lat":"37.52214282","long":"126.78370934","imageIndex":0,"items":[{"name":"카클리어공업사","tel":"032-673-7938","addr":"경기도 부천시 내동 282번지","indutype":"자동차정비 유지 - 자동차정비","category":"car"}]},{"lat":"37.515233553","long":"126.77488429","imageIndex":0,"items":[{"name":"타이어뱅크서울판매(주)","tel":"032-683-3003","addr":"경기도 부천시 내동 58-3번지","indutype":"자동차정비 유지 - 자동차시트·타이어","category":"car"}]},{"lat":"37.523260373","long":"126.77907935","imageIndex":0,"items":[{"name":"태형자동차공업사","tel":"032-681-7923","addr":"경기도 부천시 내동 126번지 1층","indutype":"자동차정비 유지 - 자동차정비","category":"car"}]},{"lat":"37.522512693","long":"126.78887793","imageIndex":0,"items":[{"name":"한신카모터스","tel":"032-677-8231","addr":"경기도 부천시 내동 362번지 가동","indutype":"자동차정비 유지 - 자동차정비","category":"car"}]},{"lat":"37.522396991","long":"126.77990772","imageIndex":0,"items":[{"name":"한양실업","tel":"032-675-9969","addr":"경기도 부천시 내동 168-2번지","indutype":"자동차정비 유지 - 자동차부품","category":"car"}]},{"lat":"37.516257196","long":"126.77776554","imageIndex":0,"items":[{"name":"현대바퀴","tel":"032-678-7000","addr":"경기도 부천시 내동 104번지","indutype":"자동차판매 - 기타운송","category":"car"}]},{"lat":"37.51959375","long":"126.7841014","imageIndex":0,"items":[{"name":"현대타이어","tel":"","addr":"경기도 부천시 내동 273-3번지 2층","indutype":"자동차정비 유지 - 자동차시트·타이어","category":"car"}]},{"lat":"37.525927024","long":"126.77893563","imageIndex":0,"items":[{"name":"휠타이어플러스","tel":"032-674-1248","addr":"경기도 부천시 내동 212-9번지 1층","indutype":"자동차정비 유지 - 자동차시트·타이어","category":"car"}]}]