[{"lat":"37.282513532","long":"126.97958539","imageIndex":8,"items":[{"name":"광동한의원","tel":"031-298-7555","addr":"경기도 수원시 권선구 서둔동 361번지 동남아파트","indutype":"의원 - 한의원","category":"medical"}]},{"lat":"37.266657435","long":"126.99442661","imageIndex":8,"items":[{"name":"금강약국","tel":"031-295-1962","addr":"경기도 수원시 권선구 서둔동 17-27번지 탑빌딩 101호","indutype":"약국 - 약국","category":"medical"},{"name":"한승태가정의원","tel":"031-296-8253","addr":"경기도 수원시 권선구 서둔동 17-27번지 TOP빌딩 201호","indutype":"의원 - 의원","category":"medical"}]},{"lat":"37.270404773","long":"126.98573365","imageIndex":8,"items":[{"name":"김한의원","tel":"031-292-7897","addr":"경기도 수원시 권선구 서둔동 107-1번지 삼진프라자 3호 종","indutype":"의원 - 한의원","category":"medical"},{"name":"정혜치과의원","tel":"031-293-8828","addr":"경기도 수원시 권선구 서둔동 107-1번지","indutype":"의원 - 치과의원","category":"medical"}]},{"lat":"37.266594131","long":"126.99164199","imageIndex":8,"items":[{"name":"대동온누리약국","tel":"031-294-2551","addr":"경기도 수원시 권선구 서둔동 45-131번지","indutype":"약국 - 약국","category":"medical"},{"name":"성심내과의원","tel":"031-292-1678","addr":"경기도 수원시 권선구 서둔동 45-131번지","indutype":"의원 - 의원","category":"medical"}]},{"lat":"37.271043904","long":"126.98200166","imageIndex":8,"items":[{"name":"부민약국","tel":"031-291-5385","addr":"경기도 수원시 권선구 서둔동 186-4번지","indutype":"약국 - 약국","category":"medical"}]},{"lat":"37.27768385","long":"126.97869611","imageIndex":8,"items":[{"name":"서수원프라자약국","tel":"031-292-5588","addr":"경기도 수원시 권선구 서둔동 243-6번지 엔프라자 1층","indutype":"약국 - 약국","category":"medical"},{"name":"혜민의원","tel":"031-292-7364","addr":"경기도 수원시 권선구 서둔동 243-6번지 엔프라자 1층","indutype":"의원 - 의원","category":"medical"}]},{"lat":"37.264098671","long":"126.99706488","imageIndex":8,"items":[{"name":"소나무약국","tel":"031-8067-4021","addr":"경기도 수원시 권선구 서둔동 381번지 2층","indutype":"약국 - 약국","category":"medical"},{"name":"연세패밀리의원","tel":"031-8067-4005","addr":"경기도 수원시 권선구 서둔동 381번지 2층","indutype":"의원 - 의원","category":"medical"}]},{"lat":"37.27537749","long":"126.98006114","imageIndex":8,"items":[{"name":"유화약국","tel":"031-293-4658","addr":"경기도 수원시 권선구 서둔동 247-25번지","indutype":"약국 - 약국","category":"medical"}]},{"lat":"37.270818706","long":"126.98233995","imageIndex":8,"items":[{"name":"이마트약국","tel":"031-292-6445","addr":"경기도 수원시 권선구 서둔동 200-45번지","indutype":"약국 - 약국","category":"medical"}]},{"lat":"37.267296315","long":"126.9863657","imageIndex":8,"items":[{"name":"주식회사 벡스퍼트","tel":"031-292-8061","addr":"경기도 수원시 권선구 서둔동 103-2번지 서울대학교농업생명과학대학 수의대 1호관 1층","indutype":"약국 - 제약회사","category":"medical"}]},{"lat":"37.270791724","long":"126.98262182","imageIndex":8,"items":[{"name":"한마음가정의원","tel":"031-296-8904","addr":"경기도 수원시 권선구 서둔동 200-24번지 1층","indutype":"의원 - 의원","category":"medical"}]}]