[{"lat":"37.727533401","long":"126.73387564","imageIndex":8,"items":[{"name":"365삼성i소아청소년과","tel":"031-945-7545","addr":"경기도 파주시 목동동 941-1번지","indutype":"의원 - 의원","category":"medical"},{"name":"365삼성i소아청소년과의원","tel":"031-945-7545","addr":"경기도 파주시 목동동 941-1번지","indutype":"의원 - 의원","category":"medical"},{"name":"리멤버피부과파주운정점","tel":"031-949-2662","addr":"경기도 파주시 목동동 941-1번지","indutype":"의원 - 의원","category":"medical"},{"name":"연세이바름치과","tel":"031-948-0099","addr":"경기도 파주시 목동동 941-1번지","indutype":"의원 - 치과의원","category":"medical"},{"name":"우리들내과의원","tel":"031-941-3317","addr":"경기도 파주시 목동동 941-1번지","indutype":"의원 - 의원","category":"medical"},{"name":"운정 아산신경외과","tel":"031-935-4005","addr":"경기도 파주시 목동동 941-1번지","indutype":"의원 - 의원","category":"medical"},{"name":"운정일번약국","tel":"031-947-7575","addr":"경기도 파주시 목동동 941-1번지","indutype":"약국 - 약국","category":"medical"},{"name":"유태원한의원","tel":"031-946-5353","addr":"경기도 파주시 목동동 941-1번지","indutype":"의원 - 한의원","category":"medical"},{"name":"파주 하나이비인후과의원","tel":"031-949-8083","addr":"경기도 파주시 목동동 941-1번지","indutype":"의원 - 의원","category":"medical"},{"name":"파주24시동물병원","tel":"031-944-5575","addr":"경기도 파주시 목동동 941-1번지","indutype":"기타의료기관 - 동물병원","category":"medical"}]},{"lat":"37.720423515","long":"126.74537965","imageIndex":8,"items":[{"name":"가온동물병원","tel":"031-945-7552","addr":"경기도 파주시 목동동 685번지","indutype":"기타의료기관 - 동물병원","category":"medical"}]},{"lat":"37.726950197","long":"126.74298633","imageIndex":8,"items":[{"name":"강자돈한의원","tel":"031-948-1075","addr":"경기도 파주시 목동동 2-127번지 월드1차상가203,209,210호","indutype":"의원 - 한의원","category":"medical"}]},{"lat":"37.725206885","long":"126.74920834","imageIndex":8,"items":[{"name":"교하푸른약국","tel":"031-943-7375","addr":"경기도 파주시 목동동 2-110번지 해솔마을3단지운정현대아파트","indutype":"약국 - 약국","category":"medical"},{"name":"신아가정의학과","tel":"031-957-0342","addr":"경기도 파주시 목동동 2-110번지 현대1차단지상가 201","indutype":"의원 - 의원","category":"medical"},{"name":"에덴동물병원","tel":"031-943-3710","addr":"경기도 파주시 목동동 2-110번지","indutype":"기타의료기관 - 동물병원","category":"medical"}]},{"lat":"37.729787469","long":"126.74676518","imageIndex":8,"items":[{"name":"금쪽같은내새끼반려동물병원","tel":"031-944-9979","addr":"경기도 파주시 목동동 2-243번지","indutype":"기타의료기관 - 동물병원","category":"medical"}]},{"lat":"37.728593153","long":"126.73635602","imageIndex":8,"items":[{"name":"늘봄이비인후과","tel":"031-947-4477","addr":"경기도 파주시 목동동 933번지","indutype":"의원 - 의원","category":"medical"},{"name":"지엘의원","tel":"031-945-8270","addr":"경기도 파주시 목동동 933번지","indutype":"의원 - 의원","category":"medical"},{"name":"파주정신건강의학과의원","tel":"031-944-0402","addr":"경기도 파주시 목동동 933번지","indutype":"의원 - 의원","category":"medical"}]},{"lat":"37.728540882","long":"126.73318004","imageIndex":8,"items":[{"name":"늘푸른내과의원","tel":"031-815-9847","addr":"경기도 파주시 목동동 947번지","indutype":"의원 - 의원","category":"medical"},{"name":"단미한의원","tel":"031-943-6447","addr":"경기도 파주시 목동동 947번지","indutype":"의원 - 한의원","category":"medical"},{"name":"모두애치과의원","tel":"031-943-8928","addr":"경기도 파주시 목동동 947번지","indutype":"의원 - 치과의원","category":"medical"},{"name":"산내약국","tel":"031-942-6102","addr":"경기도 파주시 목동동 947번지","indutype":"약국 - 약국","category":"medical"},{"name":"조앤킴피부과의원","tel":"031-941-6800","addr":"경기도 파주시 목동동 947번지","indutype":"의원 - 의원","category":"medical"}]},{"lat":"37.720595908","long":"126.74593482","imageIndex":8,"items":[{"name":"담비약국","tel":"031-957-7989","addr":"경기도 파주시 목동동 685-2번지","indutype":"약국 - 약국","category":"medical"},{"name":"해맑은의원","tel":"031-948-5575","addr":"경기도 파주시 목동동 685-2번지","indutype":"의원 - 의원","category":"medical"}]},{"lat":"37.727868716","long":"126.73473652","imageIndex":8,"items":[{"name":"맑은샘약국","tel":"031-944-4495","addr":"경기도 파주시 목동동 939-3번지","indutype":"약국 - 약국","category":"medical"}]},{"lat":"37.728067956","long":"126.73518953","imageIndex":8,"items":[{"name":"미담의원","tel":"031-946-5422","addr":"경기도 파주시 목동동 939-2번지","indutype":"의원 - 의원","category":"medical"},{"name":"미소채움 치과의원","tel":"","addr":"경기도 파주시 목동동 939-2번지","indutype":"의원 - 치과의원","category":"medical"},{"name":"운정사랑약국","tel":"070-7799-2191","addr":"경기도 파주시 목동동 939-2번지","indutype":"약국 - 약국","category":"medical"},{"name":"운정세움한의원","tel":"031-943-5725","addr":"경기도 파주시 목동동 939-2번지","indutype":"의원 - 한의원","category":"medical"}]},{"lat":"37.722895355","long":"126.73869032","imageIndex":8,"items":[{"name":"민트약국","tel":"031-946-6256","addr":"경기도 파주시 목동동 1052-1번지","indutype":"약국 - 약국","category":"medical"},{"name":"연세바른가정의학과의원","tel":"031-948-7717","addr":"경기도 파주시 목동동 1052-1번지","indutype":"의원 - 의원","category":"medical"}]},{"lat":"37.728368426","long":"126.74468288","imageIndex":8,"items":[{"name":"보건약국","tel":"031-949-5181","addr":"경기도 파주시 목동동 647번지 해솔마을1단지두산위브","indutype":"약국 - 약국","category":"medical"}]},{"lat":"37.728235001","long":"126.73337399","imageIndex":8,"items":[{"name":"보스톤치과의원","tel":"031-942-2833","addr":"경기도 파주시 목동동 947-1번지","indutype":"의원 - 치과의원","category":"medical"},{"name":"운정바른한의원","tel":"031-947-0020","addr":"경기도 파주시 목동동 947-1번지","indutype":"의원 - 한의원","category":"medical"}]},{"lat":"37.727839231","long":"126.73365901","imageIndex":8,"items":[{"name":"새봄산부인과","tel":"031-946-8860","addr":"경기도 파주시 목동동 941번지","indutype":"의원 - 의원","category":"medical"},{"name":"아이미즈치과의원","tel":"031-949-2275","addr":"경기도 파주시 목동동 941번지","indutype":"의원 - 치과의원","category":"medical"}]},{"lat":"37.728366761","long":"126.73584637","imageIndex":8,"items":[{"name":"서울OK치과의원","tel":"031-941-2875","addr":"경기도 파주시 목동동 933-1번지","indutype":"의원 - 치과의원","category":"medical"}]},{"lat":"37.728757939","long":"126.73354225","imageIndex":8,"items":[{"name":"서울봉선생치과의원","tel":"031-945-8500","addr":"경기도 파주시 목동동 949번지","indutype":"의원 - 치과의원","category":"medical"}]},{"lat":"37.727678587","long":"126.73432884","imageIndex":8,"items":[{"name":"소나무약국","tel":"031-944-9257","addr":"경기도 파주시 목동동 939-4번지","indutype":"약국 - 약국","category":"medical"},{"name":"파주365동물의료센터","tel":"031-945-5365","addr":"경기도 파주시 목동동 939-4번지","indutype":"기타의료기관 - 동물병원","category":"medical"}]},{"lat":"37.723039939","long":"126.73888263","imageIndex":8,"items":[{"name":"운정바른약국","tel":"031-944-4917","addr":"경기도 파주시 목동동 1052-2번지","indutype":"약국 - 약국","category":"medical"},{"name":"운정이든소아청소년과의원","tel":"031-946-7654","addr":"경기도 파주시 목동동 1052-2번지","indutype":"의원 - 의원","category":"medical"}]},{"lat":"37.72961823","long":"126.73546754","imageIndex":8,"items":[{"name":"운정에이스치과","tel":"031-945-7528","addr":"경기도 파주시 목동동 935-3번지","indutype":"의원 - 치과의원","category":"medical"}]}]