[{"lat":"37.634144168","long":"127.21181303","imageIndex":7,"items":[{"name":"경춘마트","tel":"031-592-7742","addr":"경기도 남양주시 금곡동 154-9번지","indutype":"유통업 영리 - 슈퍼마켓","category":"mart"}]},{"lat":"37.632421365","long":"127.2025299","imageIndex":7,"items":[{"name":"금곡 킹마트","tel":"031-592-1861","addr":"경기도 남양주시 금곡동 685-10번지","indutype":"유통업 영리 - 슈퍼마켓","category":"mart"}]},{"lat":"37.633775851","long":"127.20603419","imageIndex":7,"items":[{"name":"금곡k마트","tel":"031-592-3990","addr":"경기도 남양주시 금곡동 431-17번지 영창빌딩 지층","indutype":"유통업 영리 - 슈퍼마켓","category":"mart"}]},{"lat":"37.636109677","long":"127.21102547","imageIndex":7,"items":[{"name":"금곡슈퍼","tel":"031-591-7397","addr":"경기도 남양주시 금곡동 159-66번지 한울음악학원 3호","indutype":"유통업 영리 - 슈퍼마켓","category":"mart"},{"name":"새서울슈퍼","tel":"031-591-7397","addr":"경기도 남양주시 금곡동 159-66번지","indutype":"유통업 영리 - 슈퍼마켓","category":"mart"}]},{"lat":"37.631140474","long":"127.20342144","imageIndex":7,"items":[{"name":"금천마트","tel":"031-592-9006","addr":"경기도 남양주시 금곡동 680-5번지","indutype":"유통업 영리 - 슈퍼마켓","category":"mart"}]},{"lat":"37.634804639","long":"127.19972664","imageIndex":7,"items":[{"name":"다람쥐마을","tel":"031-595-3001","addr":"경기도 남양주시 금곡동 699-10번지","indutype":"유통업 영리 - 슈퍼마켓","category":"mart"}]},{"lat":"37.636472683","long":"127.21461791","imageIndex":7,"items":[{"name":"불티나(슈퍼)","tel":"031-594-0777","addr":"경기도 남양주시 금곡동 175-10번지","indutype":"유통업 영리 - 슈퍼마켓","category":"mart"}]},{"lat":"37.634659734","long":"127.2054928","imageIndex":7,"items":[{"name":"새마을슈퍼","tel":"031-592-8219","addr":"경기도 남양주시 금곡동 414-34번지 88주택 다동 103호","indutype":"유통업 영리 - 슈퍼마켓","category":"mart"}]},{"lat":"37.622695484","long":"127.20510918","imageIndex":7,"items":[{"name":"석실 673","tel":"","addr":"경기도 남양주시 금곡동 498-4번지","indutype":"유통업 영리 - 슈퍼마켓","category":"mart"}]},{"lat":"37.634082531","long":"127.2058311","imageIndex":7,"items":[{"name":"성우슈퍼","tel":"031-591-7808","addr":"경기도 남양주시 금곡동 404-41번지","indutype":"유통업 영리 - 슈퍼마켓","category":"mart"}]},{"lat":"37.635667885","long":"127.21624705","imageIndex":7,"items":[{"name":"엠에스리테일 주식회사","tel":"031-595-0219","addr":"경기도 남양주시 금곡동 185-10번지 남양주시청제1청사 3층","indutype":"유통업 영리 - 슈퍼마켓","category":"mart"}]},{"lat":"37.637025954","long":"127.21255751","imageIndex":7,"items":[{"name":"중앙마트","tel":"031-592-9813","addr":"경기도 남양주시 금곡동 162-56번지","indutype":"유통업 영리 - 슈퍼마켓","category":"mart"}]},{"lat":"37.633164595","long":"127.19989225","imageIndex":7,"items":[{"name":"찬이마트","tel":"031-591-8040","addr":"경기도 남양주시 금곡동 694-31번지","indutype":"유통업 영리 - 슈퍼마켓","category":"mart"}]},{"lat":"37.637808423","long":"127.21333013","imageIndex":7,"items":[{"name":"훼미리마트","tel":"031-595-1411","addr":"경기도 남양주시 금곡동 162-35번지 1층","indutype":"유통업 영리 - 슈퍼마켓","category":"mart"}]}]