[{"lat":"37.905358571","long":"127.2058802","imageIndex":16,"items":[{"name":"샤론어린이집[아이행복]","tel":"031-536-2013","addr":"경기도 포천시 신북면 가채리 768-7번지","indutype":"학원 - 유아원","category":"study"}]},{"lat":"37.904521905","long":"127.20518431","imageIndex":16,"items":[{"name":"소크나한양음악학원","tel":"070-4383-5770","addr":"경기도 포천시 신북면 가채리 815-17번지","indutype":"교육서비스 - 학원","category":"study"},{"name":"소크나한양음악학원","tel":"070-4383-5770","addr":"경기도 포천시 신북면 가채리 815-17","indutype":"학원 - 예·체능계학원","category":"study"}]},{"lat":"37.906273547","long":"127.20293771","imageIndex":16,"items":[{"name":"에이플러스 학원","tel":"031-532-1189","addr":"경기도 포천시 신북면 가채리 834-13번지","indutype":"학원 - 보습학원","category":"study"}]},{"lat":"37.904834032","long":"127.20177403","imageIndex":16,"items":[{"name":"왕방초등학교","tel":"031-536-9538","addr":"경기도 포천시 신북면 가채리 819-15번지 왕방초등학교","indutype":"학원 - 초중고교육기관","category":"study"},{"name":"왕방초등학교병설유치원[아이행복]","tel":"031-536-9573","addr":"경기도 포천시 신북면 가채리 819-15번지 왕방초등학교","indutype":"학원 - 유치원","category":"study"}]},{"lat":"37.904248979","long":"127.20671856","imageIndex":16,"items":[{"name":"주식회사 청마에이아이씨산업","tel":"031-534-0233","addr":"경기도 포천시 신북면 가채리 809-5번지","indutype":"학원 - 예·체능계학원","category":"study"}]},{"lat":"37.90538576","long":"127.20049064","imageIndex":16,"items":[{"name":"포천여자중학교","tel":"031-534-6302","addr":"경기도 포천시 신북면 가채리 821번지 포천여중","indutype":"학원 - 초중고교육기관","category":"study"}]},{"lat":"37.907104556","long":"127.20166643","imageIndex":16,"items":[{"name":"포천중학교","tel":"031-534-6902","addr":"경기도 포천시 신북면 가채리 841-1번지 포천중학교","indutype":"학원 - 초중고교육기관","category":"study"}]}]