[{"lat":"37.218550027","long":"126.95281298","imageIndex":16,"items":[{"name":"강한학원","tel":"031-278-0570","addr":"경기도 화성시 봉담읍 상리 622-1번지 (상가동206,206호)","indutype":"학원 - 보습학원","category":"study"}]},{"lat":"37.219854413","long":"126.94803498","imageIndex":16,"items":[{"name":"글로벌직업전문학교","tel":"031-298-6868","addr":"경기도 화성시 봉담읍 상리 31-3번지 우정프라자 4층","indutype":"학원 - 컴퓨터학원","category":"study"}]},{"lat":"37.216547459","long":"126.94771065","imageIndex":16,"items":[{"name":"까꿍어린이집[아이행복]","tel":"031-298-7250","addr":"경기도 화성시 봉담읍 상리 614번지 청운마을신안인스빌","indutype":"학원 - 유아원","category":"study"}]},{"lat":"37.217378348","long":"126.95203637","imageIndex":16,"items":[{"name":"나래캠퍼스텔","tel":"031-227-7606","addr":"경기도 화성시 봉담읍 상리 11-47번지 지앤프라자 314호","indutype":"학원 - 독서실","category":"study"},{"name":"모모 독서실","tel":"031-292-6363","addr":"경기도 화성시 봉담읍 상리 11-47번지 지맨프라자 306호","indutype":"학원 - 독서실","category":"study"},{"name":"에이스 유소년스포츠","tel":"031-296-8803","addr":"경기도 화성시 봉담읍 상리 11-47번지 204,205,206호","indutype":"학원 - 기타 교육기관","category":"study"}]},{"lat":"37.22098954","long":"126.94765108","imageIndex":16,"items":[{"name":"민들레유치원[아이행복]","tel":"031-227-7600","addr":"경기도 화성시 봉담읍 상리 39-6","indutype":"학원 - 유치원","category":"study"}]},{"lat":"37.218963409","long":"126.95028896","imageIndex":16,"items":[{"name":"봉담연무관합기도","tel":"031-298-9119","addr":"경기도 화성시 봉담읍 상리 22-54번지 수민빌딩 302호","indutype":"학원 - 예·체능계학원","category":"study"}]},{"lat":"37.21741304","long":"126.94898313","imageIndex":16,"items":[{"name":"비손유치원[아이행복]","tel":"031-296-1488","addr":"경기도 화성시 봉담읍 상리 24-7","indutype":"학원 - 유치원","category":"study"}]},{"lat":"37.224299101","long":"126.9355699","imageIndex":16,"items":[{"name":"숲속키즈어린이집[아이행복]","tel":"031-355-6781","addr":"경기도 화성시 봉담읍 상리 256-1번지 지역 도로명 미고시","indutype":"학원 - 유아원","category":"study"}]},{"lat":"37.222519073","long":"126.94306419","imageIndex":16,"items":[{"name":"시립봉담제2어린이집[아이행복]","tel":"031-294-7942","addr":"경기도 화성시 봉담읍 상리 40-11번지 (화성봉담2LH2단지)","indutype":"학원 - 유아원","category":"study"}]},{"lat":"37.216405611","long":"126.9348446","imageIndex":16,"items":[{"name":"예랑도예원","tel":"031-297-5908","addr":"경기도 화성시 봉담읍 상리 383-2","indutype":"회원제형태 - 학원","category":"study"}]},{"lat":"37.218910546","long":"126.95306061","imageIndex":16,"items":[{"name":"옹기종기어린이집[아이행복]","tel":"031-278-9651","addr":"경기도 화성시 봉담읍 상리 622-1번지 호수마을동문굿모닝힐아파트 105동 101호","indutype":"학원 - 유아원","category":"study"}]},{"lat":"37.219962683","long":"126.94835037","imageIndex":16,"items":[{"name":"이한수댄스","tel":"031-293-5959","addr":"경기도 화성시 봉담읍 상리 27-6번지 5층","indutype":"학원 - 예·체능계학원","category":"study"}]},{"lat":"37.224272306","long":"126.93598682","imageIndex":16,"items":[{"name":"진주숲어린이집[아이행복]","tel":"031-298-2876","addr":"경기도 화성시 봉담읍 상리 258-1번지","indutype":"학원 - 유아원","category":"study"}]},{"lat":"37.217684048","long":"126.95053772","imageIndex":16,"items":[{"name":"차수학잉글리시아이학원","tel":"031-8004-1009","addr":"경기도 화성시 봉담읍 상리 11-5번지 302호","indutype":"학원 - 보습학원","category":"study"},{"name":"코리아 태풍 태권도","tel":"031-278-5511","addr":"경기도 화성시 봉담읍 상리 11-5번지 201호","indutype":"학원 - 예·체능계학원","category":"study"}]},{"lat":"37.219106694","long":"126.94833972","imageIndex":16,"items":[{"name":"프라임꿈터어린이집[아이행복]","tel":"031-227-7668","addr":"경기도 화성시 봉담읍 상리 26-4번지","indutype":"학원 - 유아원","category":"study"}]},{"lat":"37.212077578","long":"126.94614797","imageIndex":16,"items":[{"name":"한국크리스토퍼 평생교육원 화성지부","tel":"","addr":"경기도 화성시 봉담읍 상리 460번지","indutype":"학원 - 기타 교육기관","category":"study"}]},{"lat":"37.217854985","long":"126.94995174","imageIndex":16,"items":[{"name":"한신음악학원","tel":"031-227-9355","addr":"경기도 화성시 봉담읍 상리 21-19번지 3층 304,305호","indutype":"학원 - 예·체능계학원","category":"study"}]},{"lat":"37.217990599","long":"126.95098817","imageIndex":16,"items":[{"name":"해담은어린이집[아이행복]","tel":"031-227-7999","addr":"경기도 화성시 봉담읍 상리 11-60번지","indutype":"학원 - 유아원","category":"study"}]}]